{"data": {"bikes": [{"lon": -77.00783233333334, "bike_id": "d61abe2170efd020ae9278e0632b511e", "lat": 38.90569966666666, "fusion_lon": 0.0, "fusion_lat": 0.0, "type": "electric_scooter", "name": "d61abe2170efd020ae9278e0632b511e", "is_disabled": 0, "rental_uris": {"ios": "https://dc.lft.to/lastmile_qr_scan", "android": "https://dc.lft.to/lastmile_qr_scan"}, "is_reserved": 0}, {"lon": -77.03265416666666, "bike_id": "27ed12b70ee20250ada0bd0f8ed7816c", "lat": 38.937785833333336, "fusion_lon": 0.0, "fusion_lat": 0.0, "type": "electric_scooter", "name": "27ed12b70ee20250ada0bd0f8ed7816c", "is_disabled": 0, "rental_uris": {"ios": "https://dc.lft.to/lastmile_qr_scan", "android": "https://dc.lft.to/lastmile_qr_scan"}, "is_reserved": 0}, {"lon": -77.02196816666667, "bike_id": "3d334c184d9a8965546b902864165fe1", "lat": 38.9291045, "fusion_lon": 0.0, "fusion_lat": 0.0, "type": "electric_scooter", "name": "3d334c184d9a8965546b902864165fe1", "is_disabled": 0, "rental_uris": {"ios": "https://dc.lft.to/lastmile_qr_scan", "android": "https://dc.lft.to/lastmile_qr_scan"}, "is_reserved": 0}, {"lon": -77.0317355, "bike_id": "04556574a9a8561a9dabfe0017cc4481", "lat": 38.916316, "fusion_lon": 0.0, "fusion_lat": 0.0, "type": "electric_scooter", "name": "04556574a9a8561a9dabfe0017cc4481", "is_disabled": 0, "rental_uris": {"ios": "https://dc.lft.to/lastmile_qr_scan", "android": "https://dc.lft.to/lastmile_qr_scan"}, "is_reserved": 0}, {"lon": -77.05906066666667, "bike_id": "ca8db21f79ba7dce93e643da7fc1ab75", "lat": 38.90382116666667, "fusion_lon": 0.0, "fusion_lat": 0.0, "type": "electric_bike", "name": "ca8db21f79ba7dce93e643da7fc1ab75", "is_disabled": 0, "rental_uris": {"ios": "https://dc.lft.to/lastmile_qr_scan", "android": "https://dc.lft.to/lastmile_qr_scan"}, "is_reserved": 0}, {"lon": -76.98903116666666, "bike_id": "75ed8c80d6f9a2e4df9f979cea49aaf2", "lat": 38.866693, "fusion_lon": 0.0, "fusion_lat": 0.0, "type": "electric_scooter", "name": "75ed8c80d6f9a2e4df9f979cea49aaf2", "is_disabled": 0, "rental_uris": {"ios": "https://dc.lft.to/lastmile_qr_scan", "android": "https://dc.lft.to/lastmile_qr_scan"}, "is_reserved": 0}, {"lon": -77.04498716666667, "bike_id": "807b5653c6be7dc268cfc9dcf4465b9b", "lat": 38.913536666666666, "fusion_lon": 0.0, "fusion_lat": 0.0, "type": "electric_scooter", "name": "807b5653c6be7dc268cfc9dcf4465b9b", "is_disabled": 0, "rental_uris": {"ios": "https://dc.lft.to/lastmile_qr_scan", "android": "https://dc.lft.to/lastmile_qr_scan"}, "is_reserved": 0}, {"lon": -77.01900783333333, "bike_id": "6c34e4f860aaa4c3dbd24b87bdccccdc", "lat": 38.9089655, "fusion_lon": 0.0, "fusion_lat": 0.0, "type": "electric_scooter", "name": "6c34e4f860aaa4c3dbd24b87bdccccdc", "is_disabled": 0, "rental_uris": {"ios": "https://dc.lft.to/lastmile_qr_scan", "android": "https://dc.lft.to/lastmile_qr_scan"}, "is_reserved": 0}, {"lon": -76.9652485, "bike_id": "bf06fc39a728d5d940c7e50a9be3e95d", "lat": 38.87629783333333, "fusion_lon": 0.0, "fusion_lat": 0.0, "type": "electric_scooter", "name": "bf06fc39a728d5d940c7e50a9be3e95d", "is_disabled": 0, "rental_uris": {"ios": "https://dc.lft.to/lastmile_qr_scan", "android": "https://dc.lft.to/lastmile_qr_scan"}, "is_reserved": 0}, {"lon": -76.98493433333333, "bike_id": "6002101dd7676f436ff20dfdcdadaf04", "lat": 38.8783135, "fusion_lon": 0.0, "fusion_lat": 0.0, "type": "electric_scooter", "name": "6002101dd7676f436ff20dfdcdadaf04", "is_disabled": 0, "rental_uris": {"ios": "https://dc.lft.to/lastmile_qr_scan", "android": "https://dc.lft.to/lastmile_qr_scan"}, "is_reserved": 0}, {"lon": -77.00600333333334, "bike_id": "22b4cf2db8c6ceaf60fc44eeb917f10a", "lat": 38.87186116666667, "fusion_lon": 0.0, "fusion_lat": 0.0, "type": "electric_scooter", "name": "22b4cf2db8c6ceaf60fc44eeb917f10a", "is_disabled": 0, "rental_uris": {"ios": "https://dc.lft.to/lastmile_qr_scan", "android": "https://dc.lft.to/lastmile_qr_scan"}, "is_reserved": 0}, {"lon": -77.04974516666667, "bike_id": "1b4ede2ed1216f54ba8d950d194dba71", "lat": 38.9011885, "fusion_lon": 0.0, "fusion_lat": 0.0, "type": "electric_scooter", "name": "1b4ede2ed1216f54ba8d950d194dba71", "is_disabled": 0, "rental_uris": {"ios": "https://dc.lft.to/lastmile_qr_scan", "android": "https://dc.lft.to/lastmile_qr_scan"}, "is_reserved": 0}, {"lon": -77.0217595, "bike_id": "39b3052b5fa11332c9a824c65db2bb99", "lat": 38.88723016666667, "fusion_lon": 0.0, "fusion_lat": 0.0, "type": "electric_scooter", "name": "39b3052b5fa11332c9a824c65db2bb99", "is_disabled": 0, "rental_uris": {"ios": "https://dc.lft.to/lastmile_qr_scan", "android": "https://dc.lft.to/lastmile_qr_scan"}, "is_reserved": 0}, {"lon": -77.023599, "bike_id": "c68acf0bfdb862bfda7eb35e6c8a8b14", "lat": 38.89220516666666, "fusion_lon": 0.0, "fusion_lat": 0.0, "type": "electric_scooter", "name": "c68acf0bfdb862bfda7eb35e6c8a8b14", "is_disabled": 0, "rental_uris": {"ios": "https://dc.lft.to/lastmile_qr_scan", "android": "https://dc.lft.to/lastmile_qr_scan"}, "is_reserved": 0}, {"lon": -77.0345745, "bike_id": "491b9ae200c8a4c002f656075f678146", "lat": 38.9087955, "fusion_lon": 0.0, "fusion_lat": 0.0, "type": "electric_scooter", "name": "491b9ae200c8a4c002f656075f678146", "is_disabled": 0, "rental_uris": {"ios": "https://dc.lft.to/lastmile_qr_scan", "android": "https://dc.lft.to/lastmile_qr_scan"}, "is_reserved": 0}, {"lon": -77.060096, "bike_id": "c52a2615e9b449b9c15a5da72606a92e", "lat": 38.901157833333336, "fusion_lon": 0.0, "fusion_lat": 0.0, "type": "electric_scooter", "name": "c52a2615e9b449b9c15a5da72606a92e", "is_disabled": 0, "rental_uris": {"ios": "https://dc.lft.to/lastmile_qr_scan", "android": "https://dc.lft.to/lastmile_qr_scan"}, "is_reserved": 0}, {"lon": -77.02145833333333, "bike_id": "17977bbfe18bb008a360d2e916d6d660", "lat": 38.88742516666667, "fusion_lon": 0.0, "fusion_lat": 0.0, "type": "electric_scooter", "name": "17977bbfe18bb008a360d2e916d6d660", "is_disabled": 0, "rental_uris": {"ios": "https://dc.lft.to/lastmile_qr_scan", "android": "https://dc.lft.to/lastmile_qr_scan"}, "is_reserved": 0}, {"lon": -77.03878566666667, "bike_id": "a22b4892a38cd708212616722a37da69", "lat": 38.911068, "fusion_lon": 0.0, "fusion_lat": 0.0, "type": "electric_scooter", "name": "a22b4892a38cd708212616722a37da69", "is_disabled": 0, "rental_uris": {"ios": "https://dc.lft.to/lastmile_qr_scan", "android": "https://dc.lft.to/lastmile_qr_scan"}, "is_reserved": 0}, {"lon": -76.9981435, "bike_id": "d678e24728506a108455cab0c52b0890", "lat": 38.900082833333336, "fusion_lon": 0.0, "fusion_lat": 0.0, "type": "electric_scooter", "name": "d678e24728506a108455cab0c52b0890", "is_disabled": 0, "rental_uris": {"ios": "https://dc.lft.to/lastmile_qr_scan", "android": "https://dc.lft.to/lastmile_qr_scan"}, "is_reserved": 0}, {"lon": -77.02873666666666, "bike_id": "b2eaec330a1a10667b0cf86f63331012", "lat": 38.932646166666665, "fusion_lon": 0.0, "fusion_lat": 0.0, "type": "electric_scooter", "name": "b2eaec330a1a10667b0cf86f63331012", "is_disabled": 0, "rental_uris": {"ios": "https://dc.lft.to/lastmile_qr_scan", "android": "https://dc.lft.to/lastmile_qr_scan"}, "is_reserved": 0}, {"lon": -77.026236, "bike_id": "96457601774a58f87c844703d83b0f6a", "lat": 38.89220783333333, "fusion_lon": 0.0, "fusion_lat": 0.0, "type": "electric_scooter", "name": "96457601774a58f87c844703d83b0f6a", "is_disabled": 0, "rental_uris": {"ios": "https://dc.lft.to/lastmile_qr_scan", "android": "https://dc.lft.to/lastmile_qr_scan"}, "is_reserved": 0}, {"lon": -77.02958366666667, "bike_id": "02077dca23dc5becf7c05dabf77d86c9", "lat": 38.91180816666667, "fusion_lon": 0.0, "fusion_lat": 0.0, "type": "electric_scooter", "name": "02077dca23dc5becf7c05dabf77d86c9", "is_disabled": 0, "rental_uris": {"ios": "https://dc.lft.to/lastmile_qr_scan", "android": "https://dc.lft.to/lastmile_qr_scan"}, "is_reserved": 0}, {"lon": -77.03763183333334, "bike_id": "d44fb68b9535fe96320044c14e22735c", "lat": 38.9077815, "fusion_lon": 0.0, "fusion_lat": 0.0, "type": "electric_scooter", "name": "d44fb68b9535fe96320044c14e22735c", "is_disabled": 0, "rental_uris": {"ios": "https://dc.lft.to/lastmile_qr_scan", "android": "https://dc.lft.to/lastmile_qr_scan"}, "is_reserved": 0}, {"lon": -76.93176833333334, "bike_id": "5a8f2ad8e7729d062c1acc7fefbea350", "lat": 38.89884516666667, "fusion_lon": 0.0, "fusion_lat": 0.0, "type": "electric_scooter", "name": "5a8f2ad8e7729d062c1acc7fefbea350", "is_disabled": 0, "rental_uris": {"ios": "https://dc.lft.to/lastmile_qr_scan", "android": "https://dc.lft.to/lastmile_qr_scan"}, "is_reserved": 0}, {"lon": -76.9926235, "bike_id": "02e51211d2f827a7f8d99479e9381375", "lat": 38.890627, "fusion_lon": 0.0, "fusion_lat": 0.0, "type": "electric_bike", "name": "02e51211d2f827a7f8d99479e9381375", "is_disabled": 0, "rental_uris": {"ios": "https://dc.lft.to/lastmile_qr_scan", "android": "https://dc.lft.to/lastmile_qr_scan"}, "is_reserved": 0}, {"lon": -76.99566633333333, "bike_id": "8a1d21b54bc973e0bf94fc1836d0643e", "lat": 38.85181266666667, "fusion_lon": 0.0, "fusion_lat": 0.0, "type": "electric_bike", "name": "8a1d21b54bc973e0bf94fc1836d0643e", "is_disabled": 0, "rental_uris": {"ios": "https://dc.lft.to/lastmile_qr_scan", "android": "https://dc.lft.to/lastmile_qr_scan"}, "is_reserved": 0}, {"lon": -77.05343383333333, "bike_id": "54777e31aba08747c8de7f1ea8e44e5e", "lat": 38.906523666666665, "fusion_lon": 0.0, "fusion_lat": 0.0, "type": "electric_scooter", "name": "54777e31aba08747c8de7f1ea8e44e5e", "is_disabled": 0, "rental_uris": {"ios": "https://dc.lft.to/lastmile_qr_scan", "android": "https://dc.lft.to/lastmile_qr_scan"}, "is_reserved": 0}, {"lon": -77.03181966666666, "bike_id": "6e44db49b3e86cfcdf94d058387a7dd0", "lat": 38.88738266666667, "fusion_lon": 0.0, "fusion_lat": 0.0, "type": "electric_scooter", "name": "6e44db49b3e86cfcdf94d058387a7dd0", "is_disabled": 0, "rental_uris": {"ios": "https://dc.lft.to/lastmile_qr_scan", "android": "https://dc.lft.to/lastmile_qr_scan"}, "is_reserved": 0}, {"lon": -76.9337395, "bike_id": "cf07dc9567de96a4fc05dc6cd2fa30ef", "lat": 38.89916083333333, "fusion_lon": 0.0, "fusion_lat": 0.0, "type": "electric_scooter", "name": "cf07dc9567de96a4fc05dc6cd2fa30ef", "is_disabled": 0, "rental_uris": {"ios": "https://dc.lft.to/lastmile_qr_scan", "android": "https://dc.lft.to/lastmile_qr_scan"}, "is_reserved": 0}, {"lon": -77.027099, "bike_id": "869e6e3248b190ddbc15c76131f30fca", "lat": 38.949887333333336, "fusion_lon": 0.0, "fusion_lat": 0.0, "type": "electric_scooter", "name": "869e6e3248b190ddbc15c76131f30fca", "is_disabled": 0, "rental_uris": {"ios": "https://dc.lft.to/lastmile_qr_scan", "android": "https://dc.lft.to/lastmile_qr_scan"}, "is_reserved": 0}, {"lon": -77.04406416666667, "bike_id": "f64acf3fdc55f6329cc21649afdc94d7", "lat": 38.929513, "fusion_lon": 0.0, "fusion_lat": 0.0, "type": "electric_scooter", "name": "f64acf3fdc55f6329cc21649afdc94d7", "is_disabled": 0, "rental_uris": {"ios": "https://dc.lft.to/lastmile_qr_scan", "android": "https://dc.lft.to/lastmile_qr_scan"}, "is_reserved": 0}, {"lon": -76.9994755, "bike_id": "815002d775df88535de61c5f05a11503", "lat": 38.90698533333333, "fusion_lon": 0.0, "fusion_lat": 0.0, "type": "electric_scooter", "name": "815002d775df88535de61c5f05a11503", "is_disabled": 0, "rental_uris": {"ios": "https://dc.lft.to/lastmile_qr_scan", "android": "https://dc.lft.to/lastmile_qr_scan"}, "is_reserved": 0}, {"lon": -77.005982, "bike_id": "00a629b32f88e83baa247231f957cb52", "lat": 38.87186616666666, "fusion_lon": 0.0, "fusion_lat": 0.0, "type": "electric_scooter", "name": "00a629b32f88e83baa247231f957cb52", "is_disabled": 0, "rental_uris": {"ios": "https://dc.lft.to/lastmile_qr_scan", "android": "https://dc.lft.to/lastmile_qr_scan"}, "is_reserved": 0}, {"lon": -77.04461816666667, "bike_id": "ac190f87005e97cc9fc18c743d57ea9d", "lat": 38.919378333333334, "fusion_lon": 0.0, "fusion_lat": 0.0, "type": "electric_scooter", "name": "ac190f87005e97cc9fc18c743d57ea9d", "is_disabled": 0, "rental_uris": {"ios": "https://dc.lft.to/lastmile_qr_scan", "android": "https://dc.lft.to/lastmile_qr_scan"}, "is_reserved": 0}, {"lon": -77.11572666666666, "bike_id": "966648304df5a8b85041fe5f44cc48ef", "lat": 38.9934615, "fusion_lon": 0.0, "fusion_lat": 0.0, "type": "electric_bike", "name": "966648304df5a8b85041fe5f44cc48ef", "is_disabled": 0, "rental_uris": {"ios": "https://dc.lft.to/lastmile_qr_scan", "android": "https://dc.lft.to/lastmile_qr_scan"}, "is_reserved": 0}, {"lon": -77.033877, "bike_id": "2bbbbc1dad072dc4ac3e420a0503d1d7", "lat": 38.921561, "fusion_lon": 0.0, "fusion_lat": 0.0, "type": "electric_scooter", "name": "2bbbbc1dad072dc4ac3e420a0503d1d7", "is_disabled": 0, "rental_uris": {"ios": "https://dc.lft.to/lastmile_qr_scan", "android": "https://dc.lft.to/lastmile_qr_scan"}, "is_reserved": 0}, {"lon": -77.009602, "bike_id": "c9f00c015d24e4deee8ac132599d8471", "lat": 38.95344983333333, "fusion_lon": 0.0, "fusion_lat": 0.0, "type": "electric_bike", "name": "c9f00c015d24e4deee8ac132599d8471", "is_disabled": 0, "rental_uris": {"ios": "https://dc.lft.to/lastmile_qr_scan", "android": "https://dc.lft.to/lastmile_qr_scan"}, "is_reserved": 0}, {"lon": -77.02728183333333, "bike_id": "43781f5d032648245ef838900799bf5a", "lat": 38.951371, "fusion_lon": 0.0, "fusion_lat": 0.0, "type": "electric_scooter", "name": "43781f5d032648245ef838900799bf5a", "is_disabled": 0, "rental_uris": {"ios": "https://dc.lft.to/lastmile_qr_scan", "android": "https://dc.lft.to/lastmile_qr_scan"}, "is_reserved": 0}, {"lon": -77.073852, "bike_id": "e3bd73cb78a8fe2f90bd13d90341cb01", "lat": 38.96223083333334, "fusion_lon": 0.0, "fusion_lat": 0.0, "type": "electric_scooter", "name": "e3bd73cb78a8fe2f90bd13d90341cb01", "is_disabled": 0, "rental_uris": {"ios": "https://dc.lft.to/lastmile_qr_scan", "android": "https://dc.lft.to/lastmile_qr_scan"}, "is_reserved": 0}, {"lon": -77.02979, "bike_id": "a2e33c6005ffb90ff2a4f46e702df7bc", "lat": 38.923132, "fusion_lon": 0.0, "fusion_lat": 0.0, "type": "electric_scooter", "name": "a2e33c6005ffb90ff2a4f46e702df7bc", "is_disabled": 0, "rental_uris": {"ios": "https://dc.lft.to/lastmile_qr_scan", "android": "https://dc.lft.to/lastmile_qr_scan"}, "is_reserved": 0}, {"lon": -76.98527766666666, "bike_id": "e5b1a9c7dfc0854c3c8d5f96a4391e48", "lat": 38.86686383333333, "fusion_lon": 0.0, "fusion_lat": 0.0, "type": "electric_scooter", "name": "e5b1a9c7dfc0854c3c8d5f96a4391e48", "is_disabled": 0, "rental_uris": {"ios": "https://dc.lft.to/lastmile_qr_scan", "android": "https://dc.lft.to/lastmile_qr_scan"}, "is_reserved": 0}, {"lon": -77.02560233333334, "bike_id": "25a9c11c1c184febc60d347aedd9219c", "lat": 38.90967233333333, "fusion_lon": 0.0, "fusion_lat": 0.0, "type": "electric_scooter", "name": "25a9c11c1c184febc60d347aedd9219c", "is_disabled": 0, "rental_uris": {"ios": "https://dc.lft.to/lastmile_qr_scan", "android": "https://dc.lft.to/lastmile_qr_scan"}, "is_reserved": 0}, {"lon": -77.0478605, "bike_id": "d0e96b7b52c22002c09ec051df08e8d8", "lat": 38.829521166666666, "fusion_lon": 0.0, "fusion_lat": 0.0, "type": "electric_bike", "name": "d0e96b7b52c22002c09ec051df08e8d8", "is_disabled": 0, "rental_uris": {"ios": "https://dc.lft.to/lastmile_qr_scan", "android": "https://dc.lft.to/lastmile_qr_scan"}, "is_reserved": 0}, {"lon": -77.0240445, "bike_id": "f50c751b0d56127678df3a547f2a91a1", "lat": 38.89186766666667, "fusion_lon": 0.0, "fusion_lat": 0.0, "type": "electric_scooter", "name": "f50c751b0d56127678df3a547f2a91a1", "is_disabled": 0, "rental_uris": {"ios": "https://dc.lft.to/lastmile_qr_scan", "android": "https://dc.lft.to/lastmile_qr_scan"}, "is_reserved": 0}, {"lon": -77.04325316666667, "bike_id": "910fe371183e69f55e9dc08fb6bf98fb", "lat": 38.907014, "fusion_lon": 0.0, "fusion_lat": 0.0, "type": "electric_scooter", "name": "910fe371183e69f55e9dc08fb6bf98fb", "is_disabled": 0, "rental_uris": {"ios": "https://dc.lft.to/lastmile_qr_scan", "android": "https://dc.lft.to/lastmile_qr_scan"}, "is_reserved": 0}, {"lon": -76.98593883333334, "bike_id": "e3de3804b6e5c62759bf1921e921a8d9", "lat": 38.8668605, "fusion_lon": 0.0, "fusion_lat": 0.0, "type": "electric_scooter", "name": "e3de3804b6e5c62759bf1921e921a8d9", "is_disabled": 0, "rental_uris": {"ios": "https://dc.lft.to/lastmile_qr_scan", "android": "https://dc.lft.to/lastmile_qr_scan"}, "is_reserved": 0}, {"lon": -77.0211685, "bike_id": "64b136469d6b6f3d8b45eb03c0534477", "lat": 38.937015333333335, "fusion_lon": 0.0, "fusion_lat": 0.0, "type": "electric_scooter", "name": "64b136469d6b6f3d8b45eb03c0534477", "is_disabled": 0, "rental_uris": {"ios": "https://dc.lft.to/lastmile_qr_scan", "android": "https://dc.lft.to/lastmile_qr_scan"}, "is_reserved": 0}, {"lon": -77.008295, "bike_id": "6df37cf7e140ccaa88ff36202e1cafe2", "lat": 38.879159333333334, "fusion_lon": 0.0, "fusion_lat": 0.0, "type": "electric_scooter", "name": "6df37cf7e140ccaa88ff36202e1cafe2", "is_disabled": 0, "rental_uris": {"ios": "https://dc.lft.to/lastmile_qr_scan", "android": "https://dc.lft.to/lastmile_qr_scan"}, "is_reserved": 0}, {"lon": -77.04352083333333, "bike_id": "4a8275a5d28f829de26712c049c3f8c4", "lat": 38.9215915, "fusion_lon": 0.0, "fusion_lat": 0.0, "type": "electric_scooter", "name": "4a8275a5d28f829de26712c049c3f8c4", "is_disabled": 0, "rental_uris": {"ios": "https://dc.lft.to/lastmile_qr_scan", "android": "https://dc.lft.to/lastmile_qr_scan"}, "is_reserved": 0}, {"lon": -76.948804, "bike_id": "c78e3579cfaf2427bc4e87d84263ae3c", "lat": 38.895086, "fusion_lon": 0.0, "fusion_lat": 0.0, "type": "electric_scooter", "name": "c78e3579cfaf2427bc4e87d84263ae3c", "is_disabled": 0, "rental_uris": {"ios": "https://dc.lft.to/lastmile_qr_scan", "android": "https://dc.lft.to/lastmile_qr_scan"}, "is_reserved": 0}, {"lon": -77.016226, "bike_id": "9bdaf9b0c7cf954b9f110b8209b8b631", "lat": 38.92047266666667, "fusion_lon": 0.0, "fusion_lat": 0.0, "type": "electric_scooter", "name": "9bdaf9b0c7cf954b9f110b8209b8b631", "is_disabled": 0, "rental_uris": {"ios": "https://dc.lft.to/lastmile_qr_scan", "android": "https://dc.lft.to/lastmile_qr_scan"}, "is_reserved": 0}, {"lon": -77.05704683333333, "bike_id": "9d8c5bb1bec9e1ea8f5c1c59e0884bee", "lat": 38.905448166666666, "fusion_lon": 0.0, "fusion_lat": 0.0, "type": "electric_scooter", "name": "9d8c5bb1bec9e1ea8f5c1c59e0884bee", "is_disabled": 0, "rental_uris": {"ios": "https://dc.lft.to/lastmile_qr_scan", "android": "https://dc.lft.to/lastmile_qr_scan"}, "is_reserved": 0}, {"lon": -77.04174333333333, "bike_id": "de12e53bbd44222b1d6d426024000e6b", "lat": 38.91793, "fusion_lon": 0.0, "fusion_lat": 0.0, "type": "electric_scooter", "name": "de12e53bbd44222b1d6d426024000e6b", "is_disabled": 0, "rental_uris": {"ios": "https://dc.lft.to/lastmile_qr_scan", "android": "https://dc.lft.to/lastmile_qr_scan"}, "is_reserved": 0}, {"lon": -77.02417166666666, "bike_id": "fa4b060c8ac56073a176d79229b0e9d9", "lat": 38.91831466666667, "fusion_lon": 0.0, "fusion_lat": 0.0, "type": "electric_scooter", "name": "fa4b060c8ac56073a176d79229b0e9d9", "is_disabled": 0, "rental_uris": {"ios": "https://dc.lft.to/lastmile_qr_scan", "android": "https://dc.lft.to/lastmile_qr_scan"}, "is_reserved": 0}, {"lon": -77.01761216666667, "bike_id": "963a37e698018302f9f832e637162d7d", "lat": 38.87668933333333, "fusion_lon": 0.0, "fusion_lat": 0.0, "type": "electric_scooter", "name": "963a37e698018302f9f832e637162d7d", "is_disabled": 0, "rental_uris": {"ios": "https://dc.lft.to/lastmile_qr_scan", "android": "https://dc.lft.to/lastmile_qr_scan"}, "is_reserved": 0}, {"lon": -77.02709533333334, "bike_id": "c31e48d2ae1f1e60065f2b83901c532c", "lat": 38.909567, "fusion_lon": 0.0, "fusion_lat": 0.0, "type": "electric_scooter", "name": "c31e48d2ae1f1e60065f2b83901c532c", "is_disabled": 0, "rental_uris": {"ios": "https://dc.lft.to/lastmile_qr_scan", "android": "https://dc.lft.to/lastmile_qr_scan"}, "is_reserved": 0}, {"lon": -77.04333766666667, "bike_id": "40fe06b404ae79eb1d292a6044b7be9b", "lat": 38.8922215, "fusion_lon": 0.0, "fusion_lat": 0.0, "type": "electric_scooter", "name": "40fe06b404ae79eb1d292a6044b7be9b", "is_disabled": 0, "rental_uris": {"ios": "https://dc.lft.to/lastmile_qr_scan", "android": "https://dc.lft.to/lastmile_qr_scan"}, "is_reserved": 0}, {"lon": -77.02448433333333, "bike_id": "8288714da33aaa0b110a12c854543aa0", "lat": 38.914164166666666, "fusion_lon": 0.0, "fusion_lat": 0.0, "type": "electric_scooter", "name": "8288714da33aaa0b110a12c854543aa0", "is_disabled": 0, "rental_uris": {"ios": "https://dc.lft.to/lastmile_qr_scan", "android": "https://dc.lft.to/lastmile_qr_scan"}, "is_reserved": 0}, {"lon": -77.041745, "bike_id": "d50aec4c215e484c84e87de4eee88b96", "lat": 38.917936833333336, "fusion_lon": 0.0, "fusion_lat": 0.0, "type": "electric_scooter", "name": "d50aec4c215e484c84e87de4eee88b96", "is_disabled": 0, "rental_uris": {"ios": "https://dc.lft.to/lastmile_qr_scan", "android": "https://dc.lft.to/lastmile_qr_scan"}, "is_reserved": 0}, {"lon": -77.04658933333333, "bike_id": "5a544a4ca3702936af34342d92e057b0", "lat": 38.905405, "fusion_lon": 0.0, "fusion_lat": 0.0, "type": "electric_scooter", "name": "5a544a4ca3702936af34342d92e057b0", "is_disabled": 0, "rental_uris": {"ios": "https://dc.lft.to/lastmile_qr_scan", "android": "https://dc.lft.to/lastmile_qr_scan"}, "is_reserved": 0}, {"lon": -77.02526516666667, "bike_id": "52798d60c874d87b9e1573b8226a2526", "lat": 38.91925966666667, "fusion_lon": 0.0, "fusion_lat": 0.0, "type": "electric_scooter", "name": "52798d60c874d87b9e1573b8226a2526", "is_disabled": 0, "rental_uris": {"ios": "https://dc.lft.to/lastmile_qr_scan", "android": "https://dc.lft.to/lastmile_qr_scan"}, "is_reserved": 0}, {"lon": -77.0271845, "bike_id": "8668de0002470405b9c9ca5468935fdf", "lat": 38.916772333333334, "fusion_lon": 0.0, "fusion_lat": 0.0, "type": "electric_scooter", "name": "8668de0002470405b9c9ca5468935fdf", "is_disabled": 0, "rental_uris": {"ios": "https://dc.lft.to/lastmile_qr_scan", "android": "https://dc.lft.to/lastmile_qr_scan"}, "is_reserved": 0}, {"lon": -77.0192355, "bike_id": "c7de302e6caea2ae9110bafefe0139d6", "lat": 38.922174, "fusion_lon": 0.0, "fusion_lat": 0.0, "type": "electric_scooter", "name": "c7de302e6caea2ae9110bafefe0139d6", "is_disabled": 0, "rental_uris": {"ios": "https://dc.lft.to/lastmile_qr_scan", "android": "https://dc.lft.to/lastmile_qr_scan"}, "is_reserved": 0}, {"lon": -76.995969, "bike_id": "3e0765564e8abd138b8aa0b946da1d9b", "lat": 38.8842955, "fusion_lon": 0.0, "fusion_lat": 0.0, "type": "electric_scooter", "name": "3e0765564e8abd138b8aa0b946da1d9b", "is_disabled": 0, "rental_uris": {"ios": "https://dc.lft.to/lastmile_qr_scan", "android": "https://dc.lft.to/lastmile_qr_scan"}, "is_reserved": 0}, {"lon": -77.01543516666666, "bike_id": "5b0633a2cf0f7db7e11d333f10dc3f0d", "lat": 38.902596, "fusion_lon": 0.0, "fusion_lat": 0.0, "type": "electric_scooter", "name": "5b0633a2cf0f7db7e11d333f10dc3f0d", "is_disabled": 0, "rental_uris": {"ios": "https://dc.lft.to/lastmile_qr_scan", "android": "https://dc.lft.to/lastmile_qr_scan"}, "is_reserved": 0}, {"lon": -77.024299, "bike_id": "d916ef897f618552a7ac84b5f6adb7d5", "lat": 38.92093533333333, "fusion_lon": 0.0, "fusion_lat": 0.0, "type": "electric_scooter", "name": "d916ef897f618552a7ac84b5f6adb7d5", "is_disabled": 0, "rental_uris": {"ios": "https://dc.lft.to/lastmile_qr_scan", "android": "https://dc.lft.to/lastmile_qr_scan"}, "is_reserved": 0}, {"lon": -77.03184516666667, "bike_id": "7504961a2b92aaeec6afed356e32d105", "lat": 38.8873795, "fusion_lon": 0.0, "fusion_lat": 0.0, "type": "electric_scooter", "name": "7504961a2b92aaeec6afed356e32d105", "is_disabled": 0, "rental_uris": {"ios": "https://dc.lft.to/lastmile_qr_scan", "android": "https://dc.lft.to/lastmile_qr_scan"}, "is_reserved": 0}, {"lon": -77.13099566666666, "bike_id": "d8e17183acac7291ce4da7f478332b7b", "lat": 39.0244065, "fusion_lon": 0.0, "fusion_lat": 0.0, "type": "electric_bike", "name": "d8e17183acac7291ce4da7f478332b7b", "is_disabled": 0, "rental_uris": {"ios": "https://dc.lft.to/lastmile_qr_scan", "android": "https://dc.lft.to/lastmile_qr_scan"}, "is_reserved": 0}, {"lon": -77.09087433333333, "bike_id": "aef1dd4b549c3e823867522fc1863178", "lat": 38.9786835, "fusion_lon": 0.0, "fusion_lat": 0.0, "type": "electric_bike", "name": "aef1dd4b549c3e823867522fc1863178", "is_disabled": 0, "rental_uris": {"ios": "https://dc.lft.to/lastmile_qr_scan", "android": "https://dc.lft.to/lastmile_qr_scan"}, "is_reserved": 0}, {"lon": -77.06784316666666, "bike_id": "0a7a92226e0a7b5c631a903ac1b949af", "lat": 38.90455466666667, "fusion_lon": 0.0, "fusion_lat": 0.0, "type": "electric_scooter", "name": "0a7a92226e0a7b5c631a903ac1b949af", "is_disabled": 0, "rental_uris": {"ios": "https://dc.lft.to/lastmile_qr_scan", "android": "https://dc.lft.to/lastmile_qr_scan"}, "is_reserved": 0}, {"lon": -77.03254283333334, "bike_id": "6b75f621d555b18ee55bc27d08429de3", "lat": 38.90976716666667, "fusion_lon": 0.0, "fusion_lat": 0.0, "type": "electric_scooter", "name": "6b75f621d555b18ee55bc27d08429de3", "is_disabled": 0, "rental_uris": {"ios": "https://dc.lft.to/lastmile_qr_scan", "android": "https://dc.lft.to/lastmile_qr_scan"}, "is_reserved": 0}, {"lon": -77.03852983333333, "bike_id": "76e03ff88d4ce6fe9c89f8a1e91d07c0", "lat": 38.915460833333334, "fusion_lon": 0.0, "fusion_lat": 0.0, "type": "electric_scooter", "name": "76e03ff88d4ce6fe9c89f8a1e91d07c0", "is_disabled": 0, "rental_uris": {"ios": "https://dc.lft.to/lastmile_qr_scan", "android": "https://dc.lft.to/lastmile_qr_scan"}, "is_reserved": 0}, {"lon": -77.01851116666667, "bike_id": "7e6a06b241282f71c4c9dac4642540f0", "lat": 38.9038885, "fusion_lon": 0.0, "fusion_lat": 0.0, "type": "electric_scooter", "name": "7e6a06b241282f71c4c9dac4642540f0", "is_disabled": 0, "rental_uris": {"ios": "https://dc.lft.to/lastmile_qr_scan", "android": "https://dc.lft.to/lastmile_qr_scan"}, "is_reserved": 0}, {"lon": -77.03499433333333, "bike_id": "ac34c84c1e1e3d2b94e845bc0fb03eb9", "lat": 38.937559666666665, "fusion_lon": 0.0, "fusion_lat": 0.0, "type": "electric_scooter", "name": "ac34c84c1e1e3d2b94e845bc0fb03eb9", "is_disabled": 0, "rental_uris": {"ios": "https://dc.lft.to/lastmile_qr_scan", "android": "https://dc.lft.to/lastmile_qr_scan"}, "is_reserved": 0}, {"lon": -76.98353666666667, "bike_id": "db1030269529ea01a07923cf3a79d008", "lat": 38.8877025, "fusion_lon": 0.0, "fusion_lat": 0.0, "type": "electric_scooter", "name": "db1030269529ea01a07923cf3a79d008", "is_disabled": 0, "rental_uris": {"ios": "https://dc.lft.to/lastmile_qr_scan", "android": "https://dc.lft.to/lastmile_qr_scan"}, "is_reserved": 0}, {"lon": -77.03409316666666, "bike_id": "bf95cb9b764ff20a53e79e6b01bc2ad9", "lat": 38.92245666666667, "fusion_lon": 0.0, "fusion_lat": 0.0, "type": "electric_scooter", "name": "bf95cb9b764ff20a53e79e6b01bc2ad9", "is_disabled": 0, "rental_uris": {"ios": "https://dc.lft.to/lastmile_qr_scan", "android": "https://dc.lft.to/lastmile_qr_scan"}, "is_reserved": 0}, {"lon": -77.038563, "bike_id": "699ec49f44ca7ea5552a8444b8420ce6", "lat": 38.916635, "fusion_lon": 0.0, "fusion_lat": 0.0, "type": "electric_scooter", "name": "699ec49f44ca7ea5552a8444b8420ce6", "is_disabled": 0, "rental_uris": {"ios": "https://dc.lft.to/lastmile_qr_scan", "android": "https://dc.lft.to/lastmile_qr_scan"}, "is_reserved": 0}, {"lon": -77.02309983333333, "bike_id": "edc7974acf37f16329b9bb58deecf031", "lat": 38.940923833333336, "fusion_lon": 0.0, "fusion_lat": 0.0, "type": "electric_scooter", "name": "edc7974acf37f16329b9bb58deecf031", "is_disabled": 0, "rental_uris": {"ios": "https://dc.lft.to/lastmile_qr_scan", "android": "https://dc.lft.to/lastmile_qr_scan"}, "is_reserved": 0}, {"lon": -76.991542, "bike_id": "09d947419701624ed2dd2e36ff69c8e9", "lat": 38.90037566666667, "fusion_lon": 0.0, "fusion_lat": 0.0, "type": "electric_scooter", "name": "09d947419701624ed2dd2e36ff69c8e9", "is_disabled": 0, "rental_uris": {"ios": "https://dc.lft.to/lastmile_qr_scan", "android": "https://dc.lft.to/lastmile_qr_scan"}, "is_reserved": 0}, {"lon": -77.09845783333333, "bike_id": "1c2dda4ce87b112c6f042e2bd7ef6fdb", "lat": 38.84843933333333, "fusion_lon": 0.0, "fusion_lat": 0.0, "type": "electric_bike", "name": "1c2dda4ce87b112c6f042e2bd7ef6fdb", "is_disabled": 0, "rental_uris": {"ios": "https://dc.lft.to/lastmile_qr_scan", "android": "https://dc.lft.to/lastmile_qr_scan"}, "is_reserved": 0}, {"lon": -77.02391966666667, "bike_id": "4b958d955981dfe3dd71a239c2a45573", "lat": 38.927596, "fusion_lon": 0.0, "fusion_lat": 0.0, "type": "electric_scooter", "name": "4b958d955981dfe3dd71a239c2a45573", "is_disabled": 0, "rental_uris": {"ios": "https://dc.lft.to/lastmile_qr_scan", "android": "https://dc.lft.to/lastmile_qr_scan"}, "is_reserved": 0}, {"lon": -76.97390916666667, "bike_id": "140371c8dcbe67e48e3275436c103fba", "lat": 38.905592666666664, "fusion_lon": 0.0, "fusion_lat": 0.0, "type": "electric_scooter", "name": "140371c8dcbe67e48e3275436c103fba", "is_disabled": 0, "rental_uris": {"ios": "https://dc.lft.to/lastmile_qr_scan", "android": "https://dc.lft.to/lastmile_qr_scan"}, "is_reserved": 0}, {"lon": -77.00456383333334, "bike_id": "9e917fb1136762c6c3868524e156d416", "lat": 38.876597, "fusion_lon": 0.0, "fusion_lat": 0.0, "type": "electric_scooter", "name": "9e917fb1136762c6c3868524e156d416", "is_disabled": 0, "rental_uris": {"ios": "https://dc.lft.to/lastmile_qr_scan", "android": "https://dc.lft.to/lastmile_qr_scan"}, "is_reserved": 0}, {"lon": -76.946366, "bike_id": "5791bdf7d8bdce0083b2d8e469ea443b", "lat": 38.898342166666666, "fusion_lon": 0.0, "fusion_lat": 0.0, "type": "electric_scooter", "name": "5791bdf7d8bdce0083b2d8e469ea443b", "is_disabled": 0, "rental_uris": {"ios": "https://dc.lft.to/lastmile_qr_scan", "android": "https://dc.lft.to/lastmile_qr_scan"}, "is_reserved": 0}, {"lon": -77.02825416666667, "bike_id": "a7f1c95296476c4dc502c2f658ef50d7", "lat": 38.88740383333333, "fusion_lon": 0.0, "fusion_lat": 0.0, "type": "electric_scooter", "name": "a7f1c95296476c4dc502c2f658ef50d7", "is_disabled": 0, "rental_uris": {"ios": "https://dc.lft.to/lastmile_qr_scan", "android": "https://dc.lft.to/lastmile_qr_scan"}, "is_reserved": 0}, {"lon": -77.0214255, "bike_id": "b56b722d2a1523c05d44e5c1b2427bad", "lat": 38.897142333333335, "fusion_lon": 0.0, "fusion_lat": 0.0, "type": "electric_scooter", "name": "b56b722d2a1523c05d44e5c1b2427bad", "is_disabled": 0, "rental_uris": {"ios": "https://dc.lft.to/lastmile_qr_scan", "android": "https://dc.lft.to/lastmile_qr_scan"}, "is_reserved": 0}, {"lon": -77.0271015, "bike_id": "79d893f2c02b1f2b040a35f416cb0220", "lat": 38.8973375, "fusion_lon": 0.0, "fusion_lat": 0.0, "type": "electric_scooter", "name": "79d893f2c02b1f2b040a35f416cb0220", "is_disabled": 0, "rental_uris": {"ios": "https://dc.lft.to/lastmile_qr_scan", "android": "https://dc.lft.to/lastmile_qr_scan"}, "is_reserved": 0}, {"lon": -76.9755105, "bike_id": "dc3d2b716cfde4b20553d82ba3ebf92c", "lat": 38.90322783333333, "fusion_lon": 0.0, "fusion_lat": 0.0, "type": "electric_scooter", "name": "dc3d2b716cfde4b20553d82ba3ebf92c", "is_disabled": 0, "rental_uris": {"ios": "https://dc.lft.to/lastmile_qr_scan", "android": "https://dc.lft.to/lastmile_qr_scan"}, "is_reserved": 0}, {"lon": -77.0350685, "bike_id": "5fcc003c793e0114f00b4b85115ae856", "lat": 38.91260233333333, "fusion_lon": 0.0, "fusion_lat": 0.0, "type": "electric_scooter", "name": "5fcc003c793e0114f00b4b85115ae856", "is_disabled": 0, "rental_uris": {"ios": "https://dc.lft.to/lastmile_qr_scan", "android": "https://dc.lft.to/lastmile_qr_scan"}, "is_reserved": 0}, {"lon": -77.08456483333333, "bike_id": "7d53ae73d4299ce260d17923315f5120", "lat": 38.848198833333335, "fusion_lon": 0.0, "fusion_lat": 0.0, "type": "electric_bike", "name": "7d53ae73d4299ce260d17923315f5120", "is_disabled": 0, "rental_uris": {"ios": "https://dc.lft.to/lastmile_qr_scan", "android": "https://dc.lft.to/lastmile_qr_scan"}, "is_reserved": 0}, {"lon": -77.035058, "bike_id": "c4e26031879381f3ccae94860ffa2d8d", "lat": 38.918942333333334, "fusion_lon": 0.0, "fusion_lat": 0.0, "type": "electric_bike", "name": "c4e26031879381f3ccae94860ffa2d8d", "is_disabled": 0, "rental_uris": {"ios": "https://dc.lft.to/lastmile_qr_scan", "android": "https://dc.lft.to/lastmile_qr_scan"}, "is_reserved": 0}, {"lon": -77.06340083333333, "bike_id": "8e4858248184440de8059822cb019a87", "lat": 38.90680416666667, "fusion_lon": 0.0, "fusion_lat": 0.0, "type": "electric_scooter", "name": "8e4858248184440de8059822cb019a87", "is_disabled": 0, "rental_uris": {"ios": "https://dc.lft.to/lastmile_qr_scan", "android": "https://dc.lft.to/lastmile_qr_scan"}, "is_reserved": 0}, {"lon": -76.99070683333333, "bike_id": "d7a61269b70019e526876e846c64f728", "lat": 38.8982195, "fusion_lon": 0.0, "fusion_lat": 0.0, "type": "electric_bike", "name": "d7a61269b70019e526876e846c64f728", "is_disabled": 0, "rental_uris": {"ios": "https://dc.lft.to/lastmile_qr_scan", "android": "https://dc.lft.to/lastmile_qr_scan"}, "is_reserved": 0}, {"lon": -77.03453033333334, "bike_id": "ae75bafc9e4cda925738c5d63cede49f", "lat": 38.9073585, "fusion_lon": 0.0, "fusion_lat": 0.0, "type": "electric_scooter", "name": "ae75bafc9e4cda925738c5d63cede49f", "is_disabled": 0, "rental_uris": {"ios": "https://dc.lft.to/lastmile_qr_scan", "android": "https://dc.lft.to/lastmile_qr_scan"}, "is_reserved": 0}, {"lon": -77.04480266666667, "bike_id": "49c3d717622fc41f9d5f8c819013d247", "lat": 38.91111333333333, "fusion_lon": 0.0, "fusion_lat": 0.0, "type": "electric_scooter", "name": "49c3d717622fc41f9d5f8c819013d247", "is_disabled": 0, "rental_uris": {"ios": "https://dc.lft.to/lastmile_qr_scan", "android": "https://dc.lft.to/lastmile_qr_scan"}, "is_reserved": 0}, {"lon": -77.01701133333333, "bike_id": "e019ec73443d7ba935204d5f20aabe6b", "lat": 38.90470533333333, "fusion_lon": 0.0, "fusion_lat": 0.0, "type": "electric_scooter", "name": "e019ec73443d7ba935204d5f20aabe6b", "is_disabled": 0, "rental_uris": {"ios": "https://dc.lft.to/lastmile_qr_scan", "android": "https://dc.lft.to/lastmile_qr_scan"}, "is_reserved": 0}, {"lon": -77.01837566666667, "bike_id": "04d57bf14f165bc18e140e17cdb47457", "lat": 38.9093325, "fusion_lon": 0.0, "fusion_lat": 0.0, "type": "electric_scooter", "name": "04d57bf14f165bc18e140e17cdb47457", "is_disabled": 0, "rental_uris": {"ios": "https://dc.lft.to/lastmile_qr_scan", "android": "https://dc.lft.to/lastmile_qr_scan"}, "is_reserved": 0}, {"lon": -77.03269916666666, "bike_id": "59793a6abb451cdccd6c2d3c562872d6", "lat": 38.9310115, "fusion_lon": 0.0, "fusion_lat": 0.0, "type": "electric_scooter", "name": "59793a6abb451cdccd6c2d3c562872d6", "is_disabled": 0, "rental_uris": {"ios": "https://dc.lft.to/lastmile_qr_scan", "android": "https://dc.lft.to/lastmile_qr_scan"}, "is_reserved": 0}, {"lon": -77.03273066666667, "bike_id": "c31e2b7fb42410c6fa8bcf9ef5721577", "lat": 38.932075833333336, "fusion_lon": 0.0, "fusion_lat": 0.0, "type": "electric_scooter", "name": "c31e2b7fb42410c6fa8bcf9ef5721577", "is_disabled": 0, "rental_uris": {"ios": "https://dc.lft.to/lastmile_qr_scan", "android": "https://dc.lft.to/lastmile_qr_scan"}, "is_reserved": 0}, {"lon": -77.04244866666667, "bike_id": "14cd065dece5a5fc4935b7aff126466f", "lat": 38.924285833333336, "fusion_lon": 0.0, "fusion_lat": 0.0, "type": "electric_scooter", "name": "14cd065dece5a5fc4935b7aff126466f", "is_disabled": 0, "rental_uris": {"ios": "https://dc.lft.to/lastmile_qr_scan", "android": "https://dc.lft.to/lastmile_qr_scan"}, "is_reserved": 0}, {"lon": -77.006129, "bike_id": "306e7ae8d3479de81ddf7bafccef8ecb", "lat": 38.905733, "fusion_lon": 0.0, "fusion_lat": 0.0, "type": "electric_scooter", "name": "306e7ae8d3479de81ddf7bafccef8ecb", "is_disabled": 0, "rental_uris": {"ios": "https://dc.lft.to/lastmile_qr_scan", "android": "https://dc.lft.to/lastmile_qr_scan"}, "is_reserved": 0}, {"lon": -77.0184005, "bike_id": "d66afa524f9a939fc11e5604cd5972be", "lat": 38.909614, "fusion_lon": 0.0, "fusion_lat": 0.0, "type": "electric_scooter", "name": "d66afa524f9a939fc11e5604cd5972be", "is_disabled": 0, "rental_uris": {"ios": "https://dc.lft.to/lastmile_qr_scan", "android": "https://dc.lft.to/lastmile_qr_scan"}, "is_reserved": 0}, {"lon": -77.01415183333333, "bike_id": "e0022123eeab4ff99f4d5868fa915f66", "lat": 38.92868966666666, "fusion_lon": 0.0, "fusion_lat": 0.0, "type": "electric_scooter", "name": "e0022123eeab4ff99f4d5868fa915f66", "is_disabled": 0, "rental_uris": {"ios": "https://dc.lft.to/lastmile_qr_scan", "android": "https://dc.lft.to/lastmile_qr_scan"}, "is_reserved": 0}, {"lon": -77.03413416666666, "bike_id": "88d13d788a8b41474f0acaa2e7f830dd", "lat": 38.92743466666667, "fusion_lon": 0.0, "fusion_lat": 0.0, "type": "electric_scooter", "name": "88d13d788a8b41474f0acaa2e7f830dd", "is_disabled": 0, "rental_uris": {"ios": "https://dc.lft.to/lastmile_qr_scan", "android": "https://dc.lft.to/lastmile_qr_scan"}, "is_reserved": 0}, {"lon": -77.025922, "bike_id": "5243a639555acd2bb5c91c234a26f2f0", "lat": 38.9430325, "fusion_lon": 0.0, "fusion_lat": 0.0, "type": "electric_scooter", "name": "5243a639555acd2bb5c91c234a26f2f0", "is_disabled": 0, "rental_uris": {"ios": "https://dc.lft.to/lastmile_qr_scan", "android": "https://dc.lft.to/lastmile_qr_scan"}, "is_reserved": 0}, {"lon": -76.93135, "bike_id": "137efb30c72dc2baebbba1735fd1fa4a", "lat": 38.8785235, "fusion_lon": 0.0, "fusion_lat": 0.0, "type": "electric_scooter", "name": "137efb30c72dc2baebbba1735fd1fa4a", "is_disabled": 0, "rental_uris": {"ios": "https://dc.lft.to/lastmile_qr_scan", "android": "https://dc.lft.to/lastmile_qr_scan"}, "is_reserved": 0}, {"lon": -77.03641333333333, "bike_id": "ad629c1a944eeb6357a7deb43e1e36c5", "lat": 38.92305733333333, "fusion_lon": 0.0, "fusion_lat": 0.0, "type": "electric_scooter", "name": "ad629c1a944eeb6357a7deb43e1e36c5", "is_disabled": 0, "rental_uris": {"ios": "https://dc.lft.to/lastmile_qr_scan", "android": "https://dc.lft.to/lastmile_qr_scan"}, "is_reserved": 0}, {"lon": -77.02488116666666, "bike_id": "a4d997ee79a7b7d3250e9ad82eaad1e3", "lat": 38.919353666666666, "fusion_lon": 0.0, "fusion_lat": 0.0, "type": "electric_scooter", "name": "a4d997ee79a7b7d3250e9ad82eaad1e3", "is_disabled": 0, "rental_uris": {"ios": "https://dc.lft.to/lastmile_qr_scan", "android": "https://dc.lft.to/lastmile_qr_scan"}, "is_reserved": 0}, {"lon": -77.07282283333333, "bike_id": "88213a984d8b7478bfd99d4317bf2bf1", "lat": 38.93099433333333, "fusion_lon": 0.0, "fusion_lat": 0.0, "type": "electric_scooter", "name": "88213a984d8b7478bfd99d4317bf2bf1", "is_disabled": 0, "rental_uris": {"ios": "https://dc.lft.to/lastmile_qr_scan", "android": "https://dc.lft.to/lastmile_qr_scan"}, "is_reserved": 0}, {"lon": -77.07760316666666, "bike_id": "0d5573bbe36e2f38efe3da99f732e606", "lat": 38.92559966666666, "fusion_lon": 0.0, "fusion_lat": 0.0, "type": "electric_scooter", "name": "0d5573bbe36e2f38efe3da99f732e606", "is_disabled": 0, "rental_uris": {"ios": "https://dc.lft.to/lastmile_qr_scan", "android": "https://dc.lft.to/lastmile_qr_scan"}, "is_reserved": 0}, {"lon": -77.0442735, "bike_id": "4bba82b2aad77a9a1a75ebc03d8068dd", "lat": 38.921276, "fusion_lon": 0.0, "fusion_lat": 0.0, "type": "electric_scooter", "name": "4bba82b2aad77a9a1a75ebc03d8068dd", "is_disabled": 0, "rental_uris": {"ios": "https://dc.lft.to/lastmile_qr_scan", "android": "https://dc.lft.to/lastmile_qr_scan"}, "is_reserved": 0}, {"lon": -77.03353516666667, "bike_id": "a0d8c817d17ca988f74ec9687f696c7e", "lat": 38.89241366666667, "fusion_lon": 0.0, "fusion_lat": 0.0, "type": "electric_scooter", "name": "a0d8c817d17ca988f74ec9687f696c7e", "is_disabled": 0, "rental_uris": {"ios": "https://dc.lft.to/lastmile_qr_scan", "android": "https://dc.lft.to/lastmile_qr_scan"}, "is_reserved": 0}, {"lon": -77.03221916666666, "bike_id": "fed5e6e7c92462ef26b85272f4d18d59", "lat": 38.90964533333333, "fusion_lon": 0.0, "fusion_lat": 0.0, "type": "electric_scooter", "name": "fed5e6e7c92462ef26b85272f4d18d59", "is_disabled": 0, "rental_uris": {"ios": "https://dc.lft.to/lastmile_qr_scan", "android": "https://dc.lft.to/lastmile_qr_scan"}, "is_reserved": 0}, {"lon": -77.02173166666667, "bike_id": "5524837192c67f61baffda05622e73d9", "lat": 38.908489333333335, "fusion_lon": 0.0, "fusion_lat": 0.0, "type": "electric_scooter", "name": "5524837192c67f61baffda05622e73d9", "is_disabled": 0, "rental_uris": {"ios": "https://dc.lft.to/lastmile_qr_scan", "android": "https://dc.lft.to/lastmile_qr_scan"}, "is_reserved": 0}, {"lon": -77.02284683333333, "bike_id": "7b7bd6e10c824529abc4dfade05716eb", "lat": 38.9170615, "fusion_lon": 0.0, "fusion_lat": 0.0, "type": "electric_scooter", "name": "7b7bd6e10c824529abc4dfade05716eb", "is_disabled": 0, "rental_uris": {"ios": "https://dc.lft.to/lastmile_qr_scan", "android": "https://dc.lft.to/lastmile_qr_scan"}, "is_reserved": 0}, {"lon": -77.04160983333334, "bike_id": "3056ec30a783c54f42fd1d7642734ada", "lat": 38.912515, "fusion_lon": 0.0, "fusion_lat": 0.0, "type": "electric_scooter", "name": "3056ec30a783c54f42fd1d7642734ada", "is_disabled": 0, "rental_uris": {"ios": "https://dc.lft.to/lastmile_qr_scan", "android": "https://dc.lft.to/lastmile_qr_scan"}, "is_reserved": 0}, {"lon": -77.04377233333334, "bike_id": "0e342eb4f46414d46000faa662553d41", "lat": 38.92067733333333, "fusion_lon": 0.0, "fusion_lat": 0.0, "type": "electric_scooter", "name": "0e342eb4f46414d46000faa662553d41", "is_disabled": 0, "rental_uris": {"ios": "https://dc.lft.to/lastmile_qr_scan", "android": "https://dc.lft.to/lastmile_qr_scan"}, "is_reserved": 0}, {"lon": -77.0163625, "bike_id": "9250da1b2b701a157a3750d60bd4cde4", "lat": 38.9290095, "fusion_lon": 0.0, "fusion_lat": 0.0, "type": "electric_scooter", "name": "9250da1b2b701a157a3750d60bd4cde4", "is_disabled": 0, "rental_uris": {"ios": "https://dc.lft.to/lastmile_qr_scan", "android": "https://dc.lft.to/lastmile_qr_scan"}, "is_reserved": 0}, {"lon": -77.0236065, "bike_id": "889b61d38c8df0a4035e67f3d0c116a0", "lat": 38.89222483333333, "fusion_lon": 0.0, "fusion_lat": 0.0, "type": "electric_scooter", "name": "889b61d38c8df0a4035e67f3d0c116a0", "is_disabled": 0, "rental_uris": {"ios": "https://dc.lft.to/lastmile_qr_scan", "android": "https://dc.lft.to/lastmile_qr_scan"}, "is_reserved": 0}, {"lon": -77.03184033333334, "bike_id": "b8dc21c5f2d1d836987caa340eb72e58", "lat": 38.91221016666667, "fusion_lon": 0.0, "fusion_lat": 0.0, "type": "electric_scooter", "name": "b8dc21c5f2d1d836987caa340eb72e58", "is_disabled": 0, "rental_uris": {"ios": "https://dc.lft.to/lastmile_qr_scan", "android": "https://dc.lft.to/lastmile_qr_scan"}, "is_reserved": 0}, {"lon": -77.00590016666666, "bike_id": "7d43ab5d064b6c999c8bb3b8026a1148", "lat": 38.92620633333333, "fusion_lon": 0.0, "fusion_lat": 0.0, "type": "electric_scooter", "name": "7d43ab5d064b6c999c8bb3b8026a1148", "is_disabled": 0, "rental_uris": {"ios": "https://dc.lft.to/lastmile_qr_scan", "android": "https://dc.lft.to/lastmile_qr_scan"}, "is_reserved": 0}, {"lon": -76.99781766666666, "bike_id": "feaeb314ebe0b31af91f1199c3773b9a", "lat": 38.84423133333333, "fusion_lon": 0.0, "fusion_lat": 0.0, "type": "electric_scooter", "name": "feaeb314ebe0b31af91f1199c3773b9a", "is_disabled": 0, "rental_uris": {"ios": "https://dc.lft.to/lastmile_qr_scan", "android": "https://dc.lft.to/lastmile_qr_scan"}, "is_reserved": 0}, {"lon": -76.9545435, "bike_id": "2efb11a4db740d3701941bec96ee1715", "lat": 38.88948283333333, "fusion_lon": 0.0, "fusion_lat": 0.0, "type": "electric_scooter", "name": "2efb11a4db740d3701941bec96ee1715", "is_disabled": 0, "rental_uris": {"ios": "https://dc.lft.to/lastmile_qr_scan", "android": "https://dc.lft.to/lastmile_qr_scan"}, "is_reserved": 0}, {"lon": -77.03922383333334, "bike_id": "cd13b690ad320523b2ae28c8bf1ed348", "lat": 38.928067, "fusion_lon": 0.0, "fusion_lat": 0.0, "type": "electric_scooter", "name": "cd13b690ad320523b2ae28c8bf1ed348", "is_disabled": 0, "rental_uris": {"ios": "https://dc.lft.to/lastmile_qr_scan", "android": "https://dc.lft.to/lastmile_qr_scan"}, "is_reserved": 0}, {"lon": -77.0487005, "bike_id": "a862c72f892f034b171a5d8cb1e9fea5", "lat": 38.907181, "fusion_lon": 0.0, "fusion_lat": 0.0, "type": "electric_scooter", "name": "a862c72f892f034b171a5d8cb1e9fea5", "is_disabled": 0, "rental_uris": {"ios": "https://dc.lft.to/lastmile_qr_scan", "android": "https://dc.lft.to/lastmile_qr_scan"}, "is_reserved": 0}, {"lon": -77.060579, "bike_id": "6d2168fd0a73504533089efd17e86dc9", "lat": 38.80578466666667, "fusion_lon": 0.0, "fusion_lat": 0.0, "type": "electric_bike", "name": "6d2168fd0a73504533089efd17e86dc9", "is_disabled": 0, "rental_uris": {"ios": "https://dc.lft.to/lastmile_qr_scan", "android": "https://dc.lft.to/lastmile_qr_scan"}, "is_reserved": 0}, {"lon": -77.08811566666667, "bike_id": "6788560e7281e1b823157e15c6b128be", "lat": 38.911774, "fusion_lon": 0.0, "fusion_lat": 0.0, "type": "electric_bike", "name": "6788560e7281e1b823157e15c6b128be", "is_disabled": 0, "rental_uris": {"ios": "https://dc.lft.to/lastmile_qr_scan", "android": "https://dc.lft.to/lastmile_qr_scan"}, "is_reserved": 0}, {"lon": -77.04731766666667, "bike_id": "e515c68deb8eb386c10827bd839ea6bc", "lat": 38.9072215, "fusion_lon": 0.0, "fusion_lat": 0.0, "type": "electric_scooter", "name": "e515c68deb8eb386c10827bd839ea6bc", "is_disabled": 0, "rental_uris": {"ios": "https://dc.lft.to/lastmile_qr_scan", "android": "https://dc.lft.to/lastmile_qr_scan"}, "is_reserved": 0}, {"lon": -76.97619616666667, "bike_id": "9eedb9eafc050f4617b528fd3e81dccb", "lat": 38.926524, "fusion_lon": 0.0, "fusion_lat": 0.0, "type": "electric_scooter", "name": "9eedb9eafc050f4617b528fd3e81dccb", "is_disabled": 0, "rental_uris": {"ios": "https://dc.lft.to/lastmile_qr_scan", "android": "https://dc.lft.to/lastmile_qr_scan"}, "is_reserved": 0}, {"lon": -76.97747516666666, "bike_id": "6022a64c4989ee11b89e1047a744c9e7", "lat": 38.865060666666665, "fusion_lon": 0.0, "fusion_lat": 0.0, "type": "electric_bike", "name": "6022a64c4989ee11b89e1047a744c9e7", "is_disabled": 0, "rental_uris": {"ios": "https://dc.lft.to/lastmile_qr_scan", "android": "https://dc.lft.to/lastmile_qr_scan"}, "is_reserved": 0}, {"lon": -77.01279033333333, "bike_id": "b4438ace5a9e35484b7f1036f907726a", "lat": 38.915624, "fusion_lon": 0.0, "fusion_lat": 0.0, "type": "electric_scooter", "name": "b4438ace5a9e35484b7f1036f907726a", "is_disabled": 0, "rental_uris": {"ios": "https://dc.lft.to/lastmile_qr_scan", "android": "https://dc.lft.to/lastmile_qr_scan"}, "is_reserved": 0}, {"lon": -76.991058, "bike_id": "86ca2bd77ad02aa99f82d0f7d95d86f7", "lat": 38.903244666666666, "fusion_lon": 0.0, "fusion_lat": 0.0, "type": "electric_scooter", "name": "86ca2bd77ad02aa99f82d0f7d95d86f7", "is_disabled": 0, "rental_uris": {"ios": "https://dc.lft.to/lastmile_qr_scan", "android": "https://dc.lft.to/lastmile_qr_scan"}, "is_reserved": 0}, {"lon": -77.01763266666667, "bike_id": "4ee2f4814241d5bec3df36070d6fd1c1", "lat": 38.87719533333333, "fusion_lon": 0.0, "fusion_lat": 0.0, "type": "electric_scooter", "name": "4ee2f4814241d5bec3df36070d6fd1c1", "is_disabled": 0, "rental_uris": {"ios": "https://dc.lft.to/lastmile_qr_scan", "android": "https://dc.lft.to/lastmile_qr_scan"}, "is_reserved": 0}, {"lon": -77.03855266666666, "bike_id": "17ab4d88cf2b3d2080c6df171132f35c", "lat": 38.90876433333333, "fusion_lon": 0.0, "fusion_lat": 0.0, "type": "electric_scooter", "name": "17ab4d88cf2b3d2080c6df171132f35c", "is_disabled": 0, "rental_uris": {"ios": "https://dc.lft.to/lastmile_qr_scan", "android": "https://dc.lft.to/lastmile_qr_scan"}, "is_reserved": 0}, {"lon": -77.01204033333333, "bike_id": "e77d24a89ed65f9019d833b3b33ca9ef", "lat": 38.885549833333336, "fusion_lon": 0.0, "fusion_lat": 0.0, "type": "electric_scooter", "name": "e77d24a89ed65f9019d833b3b33ca9ef", "is_disabled": 0, "rental_uris": {"ios": "https://dc.lft.to/lastmile_qr_scan", "android": "https://dc.lft.to/lastmile_qr_scan"}, "is_reserved": 0}, {"lon": -77.03274933333333, "bike_id": "536514acc85a3de737f4f39e0ccb9c95", "lat": 38.90158683333333, "fusion_lon": 0.0, "fusion_lat": 0.0, "type": "electric_scooter", "name": "536514acc85a3de737f4f39e0ccb9c95", "is_disabled": 0, "rental_uris": {"ios": "https://dc.lft.to/lastmile_qr_scan", "android": "https://dc.lft.to/lastmile_qr_scan"}, "is_reserved": 0}, {"lon": -77.04985466666666, "bike_id": "29a15263d180d4f139878ec6b602222a", "lat": 39.0355535, "fusion_lon": 0.0, "fusion_lat": 0.0, "type": "electric_bike", "name": "29a15263d180d4f139878ec6b602222a", "is_disabled": 0, "rental_uris": {"ios": "https://dc.lft.to/lastmile_qr_scan", "android": "https://dc.lft.to/lastmile_qr_scan"}, "is_reserved": 0}, {"lon": -77.0114435, "bike_id": "6be5858f51725e69bb346c69cf880f51", "lat": 38.900065833333336, "fusion_lon": 0.0, "fusion_lat": 0.0, "type": "electric_scooter", "name": "6be5858f51725e69bb346c69cf880f51", "is_disabled": 0, "rental_uris": {"ios": "https://dc.lft.to/lastmile_qr_scan", "android": "https://dc.lft.to/lastmile_qr_scan"}, "is_reserved": 0}, {"lon": -76.9895125, "bike_id": "4799d93fc1044fc709d642533968bf89", "lat": 38.865567666666664, "fusion_lon": 0.0, "fusion_lat": 0.0, "type": "electric_scooter", "name": "4799d93fc1044fc709d642533968bf89", "is_disabled": 0, "rental_uris": {"ios": "https://dc.lft.to/lastmile_qr_scan", "android": "https://dc.lft.to/lastmile_qr_scan"}, "is_reserved": 0}, {"lon": -77.03108266666666, "bike_id": "839ab0c3b6b0c4d07f516bde4bc7fb2f", "lat": 38.88766533333333, "fusion_lon": 0.0, "fusion_lat": 0.0, "type": "electric_scooter", "name": "839ab0c3b6b0c4d07f516bde4bc7fb2f", "is_disabled": 0, "rental_uris": {"ios": "https://dc.lft.to/lastmile_qr_scan", "android": "https://dc.lft.to/lastmile_qr_scan"}, "is_reserved": 0}, {"lon": -77.03105666666667, "bike_id": "e91865ad59f6c401df9b2d2a3f54d434", "lat": 38.919269666666665, "fusion_lon": 0.0, "fusion_lat": 0.0, "type": "electric_scooter", "name": "e91865ad59f6c401df9b2d2a3f54d434", "is_disabled": 0, "rental_uris": {"ios": "https://dc.lft.to/lastmile_qr_scan", "android": "https://dc.lft.to/lastmile_qr_scan"}, "is_reserved": 0}, {"lon": -76.97536316666667, "bike_id": "4f741ec4a24919d5a588e64cddebce6c", "lat": 38.922341333333335, "fusion_lon": 0.0, "fusion_lat": 0.0, "type": "electric_scooter", "name": "4f741ec4a24919d5a588e64cddebce6c", "is_disabled": 0, "rental_uris": {"ios": "https://dc.lft.to/lastmile_qr_scan", "android": "https://dc.lft.to/lastmile_qr_scan"}, "is_reserved": 0}, {"lon": -77.05038, "bike_id": "b06939c2e2832bd5ba10c3945b23fdaf", "lat": 38.905138666666666, "fusion_lon": 0.0, "fusion_lat": 0.0, "type": "electric_scooter", "name": "b06939c2e2832bd5ba10c3945b23fdaf", "is_disabled": 0, "rental_uris": {"ios": "https://dc.lft.to/lastmile_qr_scan", "android": "https://dc.lft.to/lastmile_qr_scan"}, "is_reserved": 0}, {"lon": -77.03276666666666, "bike_id": "7be5f9b3948d4c6d0187b7e950ffa87f", "lat": 38.91998266666667, "fusion_lon": 0.0, "fusion_lat": 0.0, "type": "electric_scooter", "name": "7be5f9b3948d4c6d0187b7e950ffa87f", "is_disabled": 0, "rental_uris": {"ios": "https://dc.lft.to/lastmile_qr_scan", "android": "https://dc.lft.to/lastmile_qr_scan"}, "is_reserved": 0}, {"lon": -77.03142616666666, "bike_id": "3c022dcec267c7cc8d1e69bc1672ef12", "lat": 38.92955233333333, "fusion_lon": 0.0, "fusion_lat": 0.0, "type": "electric_scooter", "name": "3c022dcec267c7cc8d1e69bc1672ef12", "is_disabled": 0, "rental_uris": {"ios": "https://dc.lft.to/lastmile_qr_scan", "android": "https://dc.lft.to/lastmile_qr_scan"}, "is_reserved": 0}, {"lon": -77.0029725, "bike_id": "148290fb0a6e0cd4f0ad34d9106b54a8", "lat": 38.911697833333335, "fusion_lon": 0.0, "fusion_lat": 0.0, "type": "electric_bike", "name": "148290fb0a6e0cd4f0ad34d9106b54a8", "is_disabled": 0, "rental_uris": {"ios": "https://dc.lft.to/lastmile_qr_scan", "android": "https://dc.lft.to/lastmile_qr_scan"}, "is_reserved": 0}, {"lon": -77.0307775, "bike_id": "c71c97705235228f63aa0790f88b39ba", "lat": 38.880381666666665, "fusion_lon": 0.0, "fusion_lat": 0.0, "type": "electric_scooter", "name": "c71c97705235228f63aa0790f88b39ba", "is_disabled": 0, "rental_uris": {"ios": "https://dc.lft.to/lastmile_qr_scan", "android": "https://dc.lft.to/lastmile_qr_scan"}, "is_reserved": 0}, {"lon": -77.027335, "bike_id": "59c8be75807b93f651935e002999472d", "lat": 38.943816, "fusion_lon": 0.0, "fusion_lat": 0.0, "type": "electric_scooter", "name": "59c8be75807b93f651935e002999472d", "is_disabled": 0, "rental_uris": {"ios": "https://dc.lft.to/lastmile_qr_scan", "android": "https://dc.lft.to/lastmile_qr_scan"}, "is_reserved": 0}, {"lon": -77.0413085, "bike_id": "0b63cce4cc77ec10189e6d16b0581db1", "lat": 38.8995785, "fusion_lon": 0.0, "fusion_lat": 0.0, "type": "electric_scooter", "name": "0b63cce4cc77ec10189e6d16b0581db1", "is_disabled": 0, "rental_uris": {"ios": "https://dc.lft.to/lastmile_qr_scan", "android": "https://dc.lft.to/lastmile_qr_scan"}, "is_reserved": 0}, {"lon": -77.04483066666667, "bike_id": "a8ec52188b92a655268270fe2318f831", "lat": 38.908622, "fusion_lon": 0.0, "fusion_lat": 0.0, "type": "electric_scooter", "name": "a8ec52188b92a655268270fe2318f831", "is_disabled": 0, "rental_uris": {"ios": "https://dc.lft.to/lastmile_qr_scan", "android": "https://dc.lft.to/lastmile_qr_scan"}, "is_reserved": 0}, {"lon": -77.000515, "bike_id": "c8fa98c2f47b4e08d9f26958bb6abc5c", "lat": 38.908127, "fusion_lon": 0.0, "fusion_lat": 0.0, "type": "electric_scooter", "name": "c8fa98c2f47b4e08d9f26958bb6abc5c", "is_disabled": 0, "rental_uris": {"ios": "https://dc.lft.to/lastmile_qr_scan", "android": "https://dc.lft.to/lastmile_qr_scan"}, "is_reserved": 0}, {"lon": -77.04344133333333, "bike_id": "06f8e40a61de321cb61b0f973ac5be3d", "lat": 38.9334135, "fusion_lon": 0.0, "fusion_lat": 0.0, "type": "electric_scooter", "name": "06f8e40a61de321cb61b0f973ac5be3d", "is_disabled": 0, "rental_uris": {"ios": "https://dc.lft.to/lastmile_qr_scan", "android": "https://dc.lft.to/lastmile_qr_scan"}, "is_reserved": 0}, {"lon": -77.02692666666667, "bike_id": "8ed60190ae880bdf8eadd81dde469f52", "lat": 38.912273, "fusion_lon": 0.0, "fusion_lat": 0.0, "type": "electric_scooter", "name": "8ed60190ae880bdf8eadd81dde469f52", "is_disabled": 0, "rental_uris": {"ios": "https://dc.lft.to/lastmile_qr_scan", "android": "https://dc.lft.to/lastmile_qr_scan"}, "is_reserved": 0}, {"lon": -77.01783433333334, "bike_id": "29ee6746300b32cf24fec602a2ee1eac", "lat": 38.920477, "fusion_lon": 0.0, "fusion_lat": 0.0, "type": "electric_scooter", "name": "29ee6746300b32cf24fec602a2ee1eac", "is_disabled": 0, "rental_uris": {"ios": "https://dc.lft.to/lastmile_qr_scan", "android": "https://dc.lft.to/lastmile_qr_scan"}, "is_reserved": 0}, {"lon": -77.01582766666667, "bike_id": "47c8138eef4b6fba59d9d9111371af10", "lat": 38.876437, "fusion_lon": 0.0, "fusion_lat": 0.0, "type": "electric_scooter", "name": "47c8138eef4b6fba59d9d9111371af10", "is_disabled": 0, "rental_uris": {"ios": "https://dc.lft.to/lastmile_qr_scan", "android": "https://dc.lft.to/lastmile_qr_scan"}, "is_reserved": 0}, {"lon": -77.0418785, "bike_id": "eb0cef9d0ea4607a84be4f2e674f4fe6", "lat": 38.9114235, "fusion_lon": 0.0, "fusion_lat": 0.0, "type": "electric_scooter", "name": "eb0cef9d0ea4607a84be4f2e674f4fe6", "is_disabled": 0, "rental_uris": {"ios": "https://dc.lft.to/lastmile_qr_scan", "android": "https://dc.lft.to/lastmile_qr_scan"}, "is_reserved": 0}, {"lon": -77.03175716666667, "bike_id": "47e399b12043edd086ef315fa4c4e8c7", "lat": 38.91416983333333, "fusion_lon": 0.0, "fusion_lat": 0.0, "type": "electric_scooter", "name": "47e399b12043edd086ef315fa4c4e8c7", "is_disabled": 0, "rental_uris": {"ios": "https://dc.lft.to/lastmile_qr_scan", "android": "https://dc.lft.to/lastmile_qr_scan"}, "is_reserved": 0}, {"lon": -76.98460583333333, "bike_id": "cc0f3fe0aa253189cde79c453443bb61", "lat": 38.905539833333336, "fusion_lon": 0.0, "fusion_lat": 0.0, "type": "electric_scooter", "name": "cc0f3fe0aa253189cde79c453443bb61", "is_disabled": 0, "rental_uris": {"ios": "https://dc.lft.to/lastmile_qr_scan", "android": "https://dc.lft.to/lastmile_qr_scan"}, "is_reserved": 0}, {"lon": -77.02704066666666, "bike_id": "97001cbe5ac560bdc0d13cc3150c1b0f", "lat": 38.909377666666664, "fusion_lon": 0.0, "fusion_lat": 0.0, "type": "electric_scooter", "name": "97001cbe5ac560bdc0d13cc3150c1b0f", "is_disabled": 0, "rental_uris": {"ios": "https://dc.lft.to/lastmile_qr_scan", "android": "https://dc.lft.to/lastmile_qr_scan"}, "is_reserved": 0}, {"lon": -77.03248266666667, "bike_id": "69c112abe9688047053edba9e0af482d", "lat": 38.928795666666666, "fusion_lon": 0.0, "fusion_lat": 0.0, "type": "electric_scooter", "name": "69c112abe9688047053edba9e0af482d", "is_disabled": 0, "rental_uris": {"ios": "https://dc.lft.to/lastmile_qr_scan", "android": "https://dc.lft.to/lastmile_qr_scan"}, "is_reserved": 0}, {"lon": -77.022053, "bike_id": "f24080c73a09cabe2d6544a14591d587", "lat": 38.90562516666667, "fusion_lon": 0.0, "fusion_lat": 0.0, "type": "electric_scooter", "name": "f24080c73a09cabe2d6544a14591d587", "is_disabled": 0, "rental_uris": {"ios": "https://dc.lft.to/lastmile_qr_scan", "android": "https://dc.lft.to/lastmile_qr_scan"}, "is_reserved": 0}, {"lon": -77.03635533333333, "bike_id": "5a3aceecee4411eadb0f86d5e50caf88", "lat": 38.9176995, "fusion_lon": 0.0, "fusion_lat": 0.0, "type": "electric_scooter", "name": "5a3aceecee4411eadb0f86d5e50caf88", "is_disabled": 0, "rental_uris": {"ios": "https://dc.lft.to/lastmile_qr_scan", "android": "https://dc.lft.to/lastmile_qr_scan"}, "is_reserved": 0}, {"lon": -77.02224783333334, "bike_id": "61d32820ae7bbec9150b111c9718430a", "lat": 38.912557, "fusion_lon": 0.0, "fusion_lat": 0.0, "type": "electric_scooter", "name": "61d32820ae7bbec9150b111c9718430a", "is_disabled": 0, "rental_uris": {"ios": "https://dc.lft.to/lastmile_qr_scan", "android": "https://dc.lft.to/lastmile_qr_scan"}, "is_reserved": 0}, {"lon": -77.02982066666667, "bike_id": "3098d3c1a5ad59d93ed9bd82b8461b4a", "lat": 38.93063166666666, "fusion_lon": 0.0, "fusion_lat": 0.0, "type": "electric_scooter", "name": "3098d3c1a5ad59d93ed9bd82b8461b4a", "is_disabled": 0, "rental_uris": {"ios": "https://dc.lft.to/lastmile_qr_scan", "android": "https://dc.lft.to/lastmile_qr_scan"}, "is_reserved": 0}, {"lon": -77.03321066666666, "bike_id": "a90ee56b88ac0fa145181652b813a2e4", "lat": 38.898344, "fusion_lon": 0.0, "fusion_lat": 0.0, "type": "electric_scooter", "name": "a90ee56b88ac0fa145181652b813a2e4", "is_disabled": 0, "rental_uris": {"ios": "https://dc.lft.to/lastmile_qr_scan", "android": "https://dc.lft.to/lastmile_qr_scan"}, "is_reserved": 0}, {"lon": -77.00559416666667, "bike_id": "8474e7e17a1098fc63e83961340b3bee", "lat": 38.901855166666664, "fusion_lon": 0.0, "fusion_lat": 0.0, "type": "electric_scooter", "name": "8474e7e17a1098fc63e83961340b3bee", "is_disabled": 0, "rental_uris": {"ios": "https://dc.lft.to/lastmile_qr_scan", "android": "https://dc.lft.to/lastmile_qr_scan"}, "is_reserved": 0}, {"lon": -77.0759555, "bike_id": "eeb762eebac77d15ce6361eaf72001d6", "lat": 38.912161, "fusion_lon": 0.0, "fusion_lat": 0.0, "type": "electric_scooter", "name": "eeb762eebac77d15ce6361eaf72001d6", "is_disabled": 0, "rental_uris": {"ios": "https://dc.lft.to/lastmile_qr_scan", "android": "https://dc.lft.to/lastmile_qr_scan"}, "is_reserved": 0}, {"lon": -77.0027975, "bike_id": "e09b77839fd3014381ffd96d87df9004", "lat": 38.95716616666667, "fusion_lon": 0.0, "fusion_lat": 0.0, "type": "electric_bike", "name": "e09b77839fd3014381ffd96d87df9004", "is_disabled": 0, "rental_uris": {"ios": "https://dc.lft.to/lastmile_qr_scan", "android": "https://dc.lft.to/lastmile_qr_scan"}, "is_reserved": 0}, {"lon": -77.12489566666666, "bike_id": "6a568c3f55f21f23fdc8e59b2f1e9387", "lat": 38.827853166666664, "fusion_lon": 0.0, "fusion_lat": 0.0, "type": "electric_bike", "name": "6a568c3f55f21f23fdc8e59b2f1e9387", "is_disabled": 0, "rental_uris": {"ios": "https://dc.lft.to/lastmile_qr_scan", "android": "https://dc.lft.to/lastmile_qr_scan"}, "is_reserved": 0}, {"lon": -77.039107, "bike_id": "4b32d552820357b00b8a098c0cd5a540", "lat": 38.914256, "fusion_lon": 0.0, "fusion_lat": 0.0, "type": "electric_scooter", "name": "4b32d552820357b00b8a098c0cd5a540", "is_disabled": 0, "rental_uris": {"ios": "https://dc.lft.to/lastmile_qr_scan", "android": "https://dc.lft.to/lastmile_qr_scan"}, "is_reserved": 0}, {"lon": -77.02001016666667, "bike_id": "f2971479f26046e81ecf469ae4f7dc2b", "lat": 38.901345, "fusion_lon": 0.0, "fusion_lat": 0.0, "type": "electric_scooter", "name": "f2971479f26046e81ecf469ae4f7dc2b", "is_disabled": 0, "rental_uris": {"ios": "https://dc.lft.to/lastmile_qr_scan", "android": "https://dc.lft.to/lastmile_qr_scan"}, "is_reserved": 0}, {"lon": -76.998529, "bike_id": "beca7a5435d7f28ae92fa147ee662f97", "lat": 38.84162116666667, "fusion_lon": 0.0, "fusion_lat": 0.0, "type": "electric_scooter", "name": "beca7a5435d7f28ae92fa147ee662f97", "is_disabled": 0, "rental_uris": {"ios": "https://dc.lft.to/lastmile_qr_scan", "android": "https://dc.lft.to/lastmile_qr_scan"}, "is_reserved": 0}, {"lon": -77.04348333333333, "bike_id": "b43f9ba328d3718df844d8b861c1993b", "lat": 38.921491833333334, "fusion_lon": 0.0, "fusion_lat": 0.0, "type": "electric_scooter", "name": "b43f9ba328d3718df844d8b861c1993b", "is_disabled": 0, "rental_uris": {"ios": "https://dc.lft.to/lastmile_qr_scan", "android": "https://dc.lft.to/lastmile_qr_scan"}, "is_reserved": 0}, {"lon": -77.03179083333333, "bike_id": "db46e4dfdb4f99c4977f21b2b672517b", "lat": 38.90389033333334, "fusion_lon": 0.0, "fusion_lat": 0.0, "type": "electric_scooter", "name": "db46e4dfdb4f99c4977f21b2b672517b", "is_disabled": 0, "rental_uris": {"ios": "https://dc.lft.to/lastmile_qr_scan", "android": "https://dc.lft.to/lastmile_qr_scan"}, "is_reserved": 0}, {"lon": -76.9857445, "bike_id": "b5aad12cb0676b6ccb74c9ac87effb16", "lat": 38.899532666666666, "fusion_lon": 0.0, "fusion_lat": 0.0, "type": "electric_scooter", "name": "b5aad12cb0676b6ccb74c9ac87effb16", "is_disabled": 0, "rental_uris": {"ios": "https://dc.lft.to/lastmile_qr_scan", "android": "https://dc.lft.to/lastmile_qr_scan"}, "is_reserved": 0}, {"lon": -77.02716966666667, "bike_id": "b9ce5d2a372f217484cbf0fc4d3a1b41", "lat": 38.93474466666667, "fusion_lon": 0.0, "fusion_lat": 0.0, "type": "electric_scooter", "name": "b9ce5d2a372f217484cbf0fc4d3a1b41", "is_disabled": 0, "rental_uris": {"ios": "https://dc.lft.to/lastmile_qr_scan", "android": "https://dc.lft.to/lastmile_qr_scan"}, "is_reserved": 0}, {"lon": -77.048328, "bike_id": "658544cf7bd596e58fb47a253588fecd", "lat": 38.909753333333335, "fusion_lon": 0.0, "fusion_lat": 0.0, "type": "electric_scooter", "name": "658544cf7bd596e58fb47a253588fecd", "is_disabled": 0, "rental_uris": {"ios": "https://dc.lft.to/lastmile_qr_scan", "android": "https://dc.lft.to/lastmile_qr_scan"}, "is_reserved": 0}, {"lon": -77.04663366666666, "bike_id": "2718e806754ab854ba08092df7128285", "lat": 38.90555666666667, "fusion_lon": 0.0, "fusion_lat": 0.0, "type": "electric_scooter", "name": "2718e806754ab854ba08092df7128285", "is_disabled": 0, "rental_uris": {"ios": "https://dc.lft.to/lastmile_qr_scan", "android": "https://dc.lft.to/lastmile_qr_scan"}, "is_reserved": 0}, {"lon": -76.985991, "bike_id": "ef275e22e13837e07b835dd5223b837e", "lat": 38.86683566666667, "fusion_lon": 0.0, "fusion_lat": 0.0, "type": "electric_scooter", "name": "ef275e22e13837e07b835dd5223b837e", "is_disabled": 0, "rental_uris": {"ios": "https://dc.lft.to/lastmile_qr_scan", "android": "https://dc.lft.to/lastmile_qr_scan"}, "is_reserved": 0}, {"lon": -77.03853216666667, "bike_id": "aeffd424692f40a6e789598999008138", "lat": 38.911770833333335, "fusion_lon": 0.0, "fusion_lat": 0.0, "type": "electric_scooter", "name": "aeffd424692f40a6e789598999008138", "is_disabled": 0, "rental_uris": {"ios": "https://dc.lft.to/lastmile_qr_scan", "android": "https://dc.lft.to/lastmile_qr_scan"}, "is_reserved": 0}, {"lon": -77.04312883333333, "bike_id": "39bac4d694f68067408f6c9733a2f720", "lat": 38.90827266666667, "fusion_lon": 0.0, "fusion_lat": 0.0, "type": "electric_scooter", "name": "39bac4d694f68067408f6c9733a2f720", "is_disabled": 0, "rental_uris": {"ios": "https://dc.lft.to/lastmile_qr_scan", "android": "https://dc.lft.to/lastmile_qr_scan"}, "is_reserved": 0}, {"lon": -76.99484766666667, "bike_id": "81c6ca102b8e33b65fecc836ba39bf17", "lat": 38.88613316666667, "fusion_lon": 0.0, "fusion_lat": 0.0, "type": "electric_scooter", "name": "81c6ca102b8e33b65fecc836ba39bf17", "is_disabled": 0, "rental_uris": {"ios": "https://dc.lft.to/lastmile_qr_scan", "android": "https://dc.lft.to/lastmile_qr_scan"}, "is_reserved": 0}, {"lon": -77.04343, "bike_id": "310831144aca5cc1500c8986de89fba3", "lat": 38.903716333333335, "fusion_lon": 0.0, "fusion_lat": 0.0, "type": "electric_scooter", "name": "310831144aca5cc1500c8986de89fba3", "is_disabled": 0, "rental_uris": {"ios": "https://dc.lft.to/lastmile_qr_scan", "android": "https://dc.lft.to/lastmile_qr_scan"}, "is_reserved": 0}, {"lon": -76.98286966666667, "bike_id": "745e32c500b1b03af3731e3d43d2af49", "lat": 38.91644383333333, "fusion_lon": 0.0, "fusion_lat": 0.0, "type": "electric_scooter", "name": "745e32c500b1b03af3731e3d43d2af49", "is_disabled": 0, "rental_uris": {"ios": "https://dc.lft.to/lastmile_qr_scan", "android": "https://dc.lft.to/lastmile_qr_scan"}, "is_reserved": 0}, {"lon": -77.01906283333334, "bike_id": "007158a36a8fc033ca22814b9127afdb", "lat": 38.88629066666667, "fusion_lon": 0.0, "fusion_lat": 0.0, "type": "electric_scooter", "name": "007158a36a8fc033ca22814b9127afdb", "is_disabled": 0, "rental_uris": {"ios": "https://dc.lft.to/lastmile_qr_scan", "android": "https://dc.lft.to/lastmile_qr_scan"}, "is_reserved": 0}, {"lon": -77.02627616666666, "bike_id": "cb7951ba76f79ed0bf71d38cf1b69eae", "lat": 38.96223333333333, "fusion_lon": 0.0, "fusion_lat": 0.0, "type": "electric_bike", "name": "cb7951ba76f79ed0bf71d38cf1b69eae", "is_disabled": 0, "rental_uris": {"ios": "https://dc.lft.to/lastmile_qr_scan", "android": "https://dc.lft.to/lastmile_qr_scan"}, "is_reserved": 0}, {"lon": -77.0253625, "bike_id": "21fb9096e423f349d68244490db824c6", "lat": 38.927469, "fusion_lon": 0.0, "fusion_lat": 0.0, "type": "electric_scooter", "name": "21fb9096e423f349d68244490db824c6", "is_disabled": 0, "rental_uris": {"ios": "https://dc.lft.to/lastmile_qr_scan", "android": "https://dc.lft.to/lastmile_qr_scan"}, "is_reserved": 0}, {"lon": -77.02594216666667, "bike_id": "0cc17bcd4db8b6142ed2f16265b6dacb", "lat": 38.963963, "fusion_lon": 0.0, "fusion_lat": 0.0, "type": "electric_scooter", "name": "0cc17bcd4db8b6142ed2f16265b6dacb", "is_disabled": 0, "rental_uris": {"ios": "https://dc.lft.to/lastmile_qr_scan", "android": "https://dc.lft.to/lastmile_qr_scan"}, "is_reserved": 0}, {"lon": -77.03276883333334, "bike_id": "5e4c387dd1b17eb40e2341b7747119b6", "lat": 38.919968833333336, "fusion_lon": 0.0, "fusion_lat": 0.0, "type": "electric_scooter", "name": "5e4c387dd1b17eb40e2341b7747119b6", "is_disabled": 0, "rental_uris": {"ios": "https://dc.lft.to/lastmile_qr_scan", "android": "https://dc.lft.to/lastmile_qr_scan"}, "is_reserved": 0}, {"lon": -77.02979, "bike_id": "92f5c3f6fa69c9cc74bf5bc7a0a46fa1", "lat": 38.928754, "fusion_lon": 0.0, "fusion_lat": 0.0, "type": "electric_scooter", "name": "92f5c3f6fa69c9cc74bf5bc7a0a46fa1", "is_disabled": 0, "rental_uris": {"ios": "https://dc.lft.to/lastmile_qr_scan", "android": "https://dc.lft.to/lastmile_qr_scan"}, "is_reserved": 0}, {"lon": -76.9870925, "bike_id": "c389abf12ec46532c04504f0b73afa68", "lat": 38.867014, "fusion_lon": 0.0, "fusion_lat": 0.0, "type": "electric_scooter", "name": "c389abf12ec46532c04504f0b73afa68", "is_disabled": 0, "rental_uris": {"ios": "https://dc.lft.to/lastmile_qr_scan", "android": "https://dc.lft.to/lastmile_qr_scan"}, "is_reserved": 0}, {"lon": -76.937355, "bike_id": "898027e3af135238b0f71f2234930d40", "lat": 38.89014066666667, "fusion_lon": 0.0, "fusion_lat": 0.0, "type": "electric_scooter", "name": "898027e3af135238b0f71f2234930d40", "is_disabled": 0, "rental_uris": {"ios": "https://dc.lft.to/lastmile_qr_scan", "android": "https://dc.lft.to/lastmile_qr_scan"}, "is_reserved": 0}, {"lon": -77.02056266666666, "bike_id": "d15ab3dc3786e7293be684462e260316", "lat": 38.95756933333333, "fusion_lon": 0.0, "fusion_lat": 0.0, "type": "electric_bike", "name": "d15ab3dc3786e7293be684462e260316", "is_disabled": 0, "rental_uris": {"ios": "https://dc.lft.to/lastmile_qr_scan", "android": "https://dc.lft.to/lastmile_qr_scan"}, "is_reserved": 0}, {"lon": -77.04504983333334, "bike_id": "3aba752041842412399d436ad04b8413", "lat": 38.903570333333334, "fusion_lon": 0.0, "fusion_lat": 0.0, "type": "electric_scooter", "name": "3aba752041842412399d436ad04b8413", "is_disabled": 0, "rental_uris": {"ios": "https://dc.lft.to/lastmile_qr_scan", "android": "https://dc.lft.to/lastmile_qr_scan"}, "is_reserved": 0}, {"lon": -77.03149716666667, "bike_id": "d701dfc85741fc9e1e2142e7f171c5dc", "lat": 38.89353716666667, "fusion_lon": 0.0, "fusion_lat": 0.0, "type": "electric_scooter", "name": "d701dfc85741fc9e1e2142e7f171c5dc", "is_disabled": 0, "rental_uris": {"ios": "https://dc.lft.to/lastmile_qr_scan", "android": "https://dc.lft.to/lastmile_qr_scan"}, "is_reserved": 0}, {"lon": -76.9823105, "bike_id": "bdaffdc6c3ac20321b3b57e1a41558ae", "lat": 38.86895583333333, "fusion_lon": 0.0, "fusion_lat": 0.0, "type": "electric_scooter", "name": "bdaffdc6c3ac20321b3b57e1a41558ae", "is_disabled": 0, "rental_uris": {"ios": "https://dc.lft.to/lastmile_qr_scan", "android": "https://dc.lft.to/lastmile_qr_scan"}, "is_reserved": 0}, {"lon": -76.992042, "bike_id": "d615e59131cb9b9b606b2c585a56789b", "lat": 38.86294383333333, "fusion_lon": 0.0, "fusion_lat": 0.0, "type": "electric_scooter", "name": "d615e59131cb9b9b606b2c585a56789b", "is_disabled": 0, "rental_uris": {"ios": "https://dc.lft.to/lastmile_qr_scan", "android": "https://dc.lft.to/lastmile_qr_scan"}, "is_reserved": 0}, {"lon": -77.041866, "bike_id": "d2c2cedc83c5e781a9b19459a86cf424", "lat": 38.9055, "fusion_lon": 0.0, "fusion_lat": 0.0, "type": "electric_scooter", "name": "d2c2cedc83c5e781a9b19459a86cf424", "is_disabled": 0, "rental_uris": {"ios": "https://dc.lft.to/lastmile_qr_scan", "android": "https://dc.lft.to/lastmile_qr_scan"}, "is_reserved": 0}, {"lon": -77.043298, "bike_id": "06d3297897689be55649c2d3b75829a2", "lat": 38.90237366666667, "fusion_lon": 0.0, "fusion_lat": 0.0, "type": "electric_scooter", "name": "06d3297897689be55649c2d3b75829a2", "is_disabled": 0, "rental_uris": {"ios": "https://dc.lft.to/lastmile_qr_scan", "android": "https://dc.lft.to/lastmile_qr_scan"}, "is_reserved": 0}, {"lon": -77.03848216666667, "bike_id": "e432f7555293608d1475ba70819b3ffa", "lat": 38.9128385, "fusion_lon": 0.0, "fusion_lat": 0.0, "type": "electric_scooter", "name": "e432f7555293608d1475ba70819b3ffa", "is_disabled": 0, "rental_uris": {"ios": "https://dc.lft.to/lastmile_qr_scan", "android": "https://dc.lft.to/lastmile_qr_scan"}, "is_reserved": 0}, {"lon": -77.02690683333333, "bike_id": "60df7315290be4f37f1179a80522a9aa", "lat": 38.90452233333333, "fusion_lon": 0.0, "fusion_lat": 0.0, "type": "electric_scooter", "name": "60df7315290be4f37f1179a80522a9aa", "is_disabled": 0, "rental_uris": {"ios": "https://dc.lft.to/lastmile_qr_scan", "android": "https://dc.lft.to/lastmile_qr_scan"}, "is_reserved": 0}, {"lon": -77.04492566666667, "bike_id": "351c4ba576bb8f05b16e2da7387c0db5", "lat": 38.897820833333334, "fusion_lon": 0.0, "fusion_lat": 0.0, "type": "electric_scooter", "name": "351c4ba576bb8f05b16e2da7387c0db5", "is_disabled": 0, "rental_uris": {"ios": "https://dc.lft.to/lastmile_qr_scan", "android": "https://dc.lft.to/lastmile_qr_scan"}, "is_reserved": 0}, {"lon": -77.0120985, "bike_id": "7837c16841a4c029e76acd0112af8e31", "lat": 38.900163166666665, "fusion_lon": 0.0, "fusion_lat": 0.0, "type": "electric_bike", "name": "7837c16841a4c029e76acd0112af8e31", "is_disabled": 0, "rental_uris": {"ios": "https://dc.lft.to/lastmile_qr_scan", "android": "https://dc.lft.to/lastmile_qr_scan"}, "is_reserved": 0}, {"lon": -77.02387783333333, "bike_id": "71123797d68324ce3a8a4bd20a7dc4f9", "lat": 38.919897666666664, "fusion_lon": 0.0, "fusion_lat": 0.0, "type": "electric_scooter", "name": "71123797d68324ce3a8a4bd20a7dc4f9", "is_disabled": 0, "rental_uris": {"ios": "https://dc.lft.to/lastmile_qr_scan", "android": "https://dc.lft.to/lastmile_qr_scan"}, "is_reserved": 0}, {"lon": -77.02402, "bike_id": "1eefd2b379f2af10ea03e01833696ae3", "lat": 38.93107116666667, "fusion_lon": 0.0, "fusion_lat": 0.0, "type": "electric_scooter", "name": "1eefd2b379f2af10ea03e01833696ae3", "is_disabled": 0, "rental_uris": {"ios": "https://dc.lft.to/lastmile_qr_scan", "android": "https://dc.lft.to/lastmile_qr_scan"}, "is_reserved": 0}, {"lon": -77.038604, "bike_id": "49cd45933ab2ebae3088d79b8b80561b", "lat": 38.902952, "fusion_lon": 0.0, "fusion_lat": 0.0, "type": "electric_scooter", "name": "49cd45933ab2ebae3088d79b8b80561b", "is_disabled": 0, "rental_uris": {"ios": "https://dc.lft.to/lastmile_qr_scan", "android": "https://dc.lft.to/lastmile_qr_scan"}, "is_reserved": 0}, {"lon": -77.032024, "bike_id": "b481111e610247e166c70a17829d2d11", "lat": 38.94409516666666, "fusion_lon": 0.0, "fusion_lat": 0.0, "type": "electric_scooter", "name": "b481111e610247e166c70a17829d2d11", "is_disabled": 0, "rental_uris": {"ios": "https://dc.lft.to/lastmile_qr_scan", "android": "https://dc.lft.to/lastmile_qr_scan"}, "is_reserved": 0}, {"lon": -77.05435416666667, "bike_id": "45c996be044d6b4d09d7244d9cf01c17", "lat": 38.8368205, "fusion_lon": 0.0, "fusion_lat": 0.0, "type": "electric_bike", "name": "45c996be044d6b4d09d7244d9cf01c17", "is_disabled": 0, "rental_uris": {"ios": "https://dc.lft.to/lastmile_qr_scan", "android": "https://dc.lft.to/lastmile_qr_scan"}, "is_reserved": 0}, {"lon": -77.03194616666667, "bike_id": "f89ac9a50c89842e55a0a9e2bf02019d", "lat": 38.917384166666665, "fusion_lon": 0.0, "fusion_lat": 0.0, "type": "electric_scooter", "name": "f89ac9a50c89842e55a0a9e2bf02019d", "is_disabled": 0, "rental_uris": {"ios": "https://dc.lft.to/lastmile_qr_scan", "android": "https://dc.lft.to/lastmile_qr_scan"}, "is_reserved": 0}, {"lon": -77.03334466666666, "bike_id": "5751201927ba433e17a9814388a4b6d6", "lat": 38.901301333333336, "fusion_lon": 0.0, "fusion_lat": 0.0, "type": "electric_scooter", "name": "5751201927ba433e17a9814388a4b6d6", "is_disabled": 0, "rental_uris": {"ios": "https://dc.lft.to/lastmile_qr_scan", "android": "https://dc.lft.to/lastmile_qr_scan"}, "is_reserved": 0}, {"lon": -77.00058383333334, "bike_id": "0ab15ec21f574a3b7c74044dcb6e6d47", "lat": 38.968368166666664, "fusion_lon": 0.0, "fusion_lat": 0.0, "type": "electric_bike", "name": "0ab15ec21f574a3b7c74044dcb6e6d47", "is_disabled": 0, "rental_uris": {"ios": "https://dc.lft.to/lastmile_qr_scan", "android": "https://dc.lft.to/lastmile_qr_scan"}, "is_reserved": 0}, {"lon": -77.03803616666667, "bike_id": "5e766a1218c46bf128da194f1fb485f0", "lat": 38.9103595, "fusion_lon": 0.0, "fusion_lat": 0.0, "type": "electric_scooter", "name": "5e766a1218c46bf128da194f1fb485f0", "is_disabled": 0, "rental_uris": {"ios": "https://dc.lft.to/lastmile_qr_scan", "android": "https://dc.lft.to/lastmile_qr_scan"}, "is_reserved": 0}, {"lon": -77.026537, "bike_id": "4d44fad2dbcfad5ffe2666ee736bbde4", "lat": 38.927754166666666, "fusion_lon": 0.0, "fusion_lat": 0.0, "type": "electric_scooter", "name": "4d44fad2dbcfad5ffe2666ee736bbde4", "is_disabled": 0, "rental_uris": {"ios": "https://dc.lft.to/lastmile_qr_scan", "android": "https://dc.lft.to/lastmile_qr_scan"}, "is_reserved": 0}, {"lon": -77.00200133333334, "bike_id": "1a913fb221da480d14ce9e91c390ea0a", "lat": 38.90243233333333, "fusion_lon": 0.0, "fusion_lat": 0.0, "type": "electric_scooter", "name": "1a913fb221da480d14ce9e91c390ea0a", "is_disabled": 0, "rental_uris": {"ios": "https://dc.lft.to/lastmile_qr_scan", "android": "https://dc.lft.to/lastmile_qr_scan"}, "is_reserved": 0}, {"lon": -77.032383, "bike_id": "4afcf79ff836e9a45508d827a08e2eff", "lat": 38.9288155, "fusion_lon": 0.0, "fusion_lat": 0.0, "type": "electric_scooter", "name": "4afcf79ff836e9a45508d827a08e2eff", "is_disabled": 0, "rental_uris": {"ios": "https://dc.lft.to/lastmile_qr_scan", "android": "https://dc.lft.to/lastmile_qr_scan"}, "is_reserved": 0}, {"lon": -77.05043066666667, "bike_id": "170947a6801668b6c5bf1f21ca6dcca1", "lat": 38.92361616666667, "fusion_lon": 0.0, "fusion_lat": 0.0, "type": "electric_scooter", "name": "170947a6801668b6c5bf1f21ca6dcca1", "is_disabled": 0, "rental_uris": {"ios": "https://dc.lft.to/lastmile_qr_scan", "android": "https://dc.lft.to/lastmile_qr_scan"}, "is_reserved": 0}, {"lon": -77.04997783333333, "bike_id": "2cc99908d75982170eed93023a65d0ee", "lat": 38.9005525, "fusion_lon": 0.0, "fusion_lat": 0.0, "type": "electric_scooter", "name": "2cc99908d75982170eed93023a65d0ee", "is_disabled": 0, "rental_uris": {"ios": "https://dc.lft.to/lastmile_qr_scan", "android": "https://dc.lft.to/lastmile_qr_scan"}, "is_reserved": 0}, {"lon": -77.0366485, "bike_id": "f0e5a868918750c36043f73ee7cc8caa", "lat": 38.92131533333333, "fusion_lon": 0.0, "fusion_lat": 0.0, "type": "electric_scooter", "name": "f0e5a868918750c36043f73ee7cc8caa", "is_disabled": 0, "rental_uris": {"ios": "https://dc.lft.to/lastmile_qr_scan", "android": "https://dc.lft.to/lastmile_qr_scan"}, "is_reserved": 0}, {"lon": -77.03878733333333, "bike_id": "c7f202985546dfd5bce686679ca6d52a", "lat": 38.929648666666665, "fusion_lon": 0.0, "fusion_lat": 0.0, "type": "electric_scooter", "name": "c7f202985546dfd5bce686679ca6d52a", "is_disabled": 0, "rental_uris": {"ios": "https://dc.lft.to/lastmile_qr_scan", "android": "https://dc.lft.to/lastmile_qr_scan"}, "is_reserved": 0}, {"lon": -77.02716233333334, "bike_id": "e1a14fc44934ec3818642cd2db510f7a", "lat": 38.89742833333333, "fusion_lon": 0.0, "fusion_lat": 0.0, "type": "electric_scooter", "name": "e1a14fc44934ec3818642cd2db510f7a", "is_disabled": 0, "rental_uris": {"ios": "https://dc.lft.to/lastmile_qr_scan", "android": "https://dc.lft.to/lastmile_qr_scan"}, "is_reserved": 0}, {"lon": -77.04138666666667, "bike_id": "5809e79910bf8a7722d5699295c6a472", "lat": 38.92295516666667, "fusion_lon": 0.0, "fusion_lat": 0.0, "type": "electric_scooter", "name": "5809e79910bf8a7722d5699295c6a472", "is_disabled": 0, "rental_uris": {"ios": "https://dc.lft.to/lastmile_qr_scan", "android": "https://dc.lft.to/lastmile_qr_scan"}, "is_reserved": 0}, {"lon": -77.0270975, "bike_id": "5668864266880a1d09406729c66ad226", "lat": 38.906622166666665, "fusion_lon": 0.0, "fusion_lat": 0.0, "type": "electric_scooter", "name": "5668864266880a1d09406729c66ad226", "is_disabled": 0, "rental_uris": {"ios": "https://dc.lft.to/lastmile_qr_scan", "android": "https://dc.lft.to/lastmile_qr_scan"}, "is_reserved": 0}, {"lon": -77.0280105, "bike_id": "e8bc5247fad925faf9ae4f470b39105e", "lat": 38.912203833333336, "fusion_lon": 0.0, "fusion_lat": 0.0, "type": "electric_scooter", "name": "e8bc5247fad925faf9ae4f470b39105e", "is_disabled": 0, "rental_uris": {"ios": "https://dc.lft.to/lastmile_qr_scan", "android": "https://dc.lft.to/lastmile_qr_scan"}, "is_reserved": 0}, {"lon": -77.053187, "bike_id": "8f4b012db5a86b35267561ef68b7a860", "lat": 38.9410615, "fusion_lon": 0.0, "fusion_lat": 0.0, "type": "electric_bike", "name": "8f4b012db5a86b35267561ef68b7a860", "is_disabled": 0, "rental_uris": {"ios": "https://dc.lft.to/lastmile_qr_scan", "android": "https://dc.lft.to/lastmile_qr_scan"}, "is_reserved": 0}, {"lon": -77.03177716666667, "bike_id": "b520b498899bc9f2b12e5912e39384c9", "lat": 38.88738416666666, "fusion_lon": 0.0, "fusion_lat": 0.0, "type": "electric_scooter", "name": "b520b498899bc9f2b12e5912e39384c9", "is_disabled": 0, "rental_uris": {"ios": "https://dc.lft.to/lastmile_qr_scan", "android": "https://dc.lft.to/lastmile_qr_scan"}, "is_reserved": 0}, {"lon": -77.0312695, "bike_id": "9bafd452c77bb7e397f4096644fe7e09", "lat": 38.988272333333335, "fusion_lon": 0.0, "fusion_lat": 0.0, "type": "electric_scooter", "name": "9bafd452c77bb7e397f4096644fe7e09", "is_disabled": 0, "rental_uris": {"ios": "https://dc.lft.to/lastmile_qr_scan", "android": "https://dc.lft.to/lastmile_qr_scan"}, "is_reserved": 0}, {"lon": -76.96385733333334, "bike_id": "d084c6915b0ad8ccc32d8d35277c80b1", "lat": 38.951755166666665, "fusion_lon": 0.0, "fusion_lat": 0.0, "type": "electric_bike", "name": "d084c6915b0ad8ccc32d8d35277c80b1", "is_disabled": 0, "rental_uris": {"ios": "https://dc.lft.to/lastmile_qr_scan", "android": "https://dc.lft.to/lastmile_qr_scan"}, "is_reserved": 0}, {"lon": -77.02796533333333, "bike_id": "0e2bf929cc6c01dc4ace87b43c3be178", "lat": 38.953999833333334, "fusion_lon": 0.0, "fusion_lat": 0.0, "type": "electric_scooter", "name": "0e2bf929cc6c01dc4ace87b43c3be178", "is_disabled": 0, "rental_uris": {"ios": "https://dc.lft.to/lastmile_qr_scan", "android": "https://dc.lft.to/lastmile_qr_scan"}, "is_reserved": 0}, {"lon": -77.03179116666666, "bike_id": "7059758646ce57c9dce7306320fe3d5d", "lat": 38.909978, "fusion_lon": 0.0, "fusion_lat": 0.0, "type": "electric_scooter", "name": "7059758646ce57c9dce7306320fe3d5d", "is_disabled": 0, "rental_uris": {"ios": "https://dc.lft.to/lastmile_qr_scan", "android": "https://dc.lft.to/lastmile_qr_scan"}, "is_reserved": 0}, {"lon": -77.228003, "bike_id": "390bbccfdf8213d270531550c38c9f0f", "lat": 38.91016583333333, "fusion_lon": 0.0, "fusion_lat": 0.0, "type": "electric_bike", "name": "390bbccfdf8213d270531550c38c9f0f", "is_disabled": 0, "rental_uris": {"ios": "https://dc.lft.to/lastmile_qr_scan", "android": "https://dc.lft.to/lastmile_qr_scan"}, "is_reserved": 0}, {"lon": -77.03161033333333, "bike_id": "4de9e332642bccf3ea2b7b5390b68def", "lat": 38.923726, "fusion_lon": 0.0, "fusion_lat": 0.0, "type": "electric_scooter", "name": "4de9e332642bccf3ea2b7b5390b68def", "is_disabled": 0, "rental_uris": {"ios": "https://dc.lft.to/lastmile_qr_scan", "android": "https://dc.lft.to/lastmile_qr_scan"}, "is_reserved": 0}, {"lon": -77.020963, "bike_id": "f7193c371c08d4a371ca20803bf64edc", "lat": 38.9291375, "fusion_lon": 0.0, "fusion_lat": 0.0, "type": "electric_scooter", "name": "f7193c371c08d4a371ca20803bf64edc", "is_disabled": 0, "rental_uris": {"ios": "https://dc.lft.to/lastmile_qr_scan", "android": "https://dc.lft.to/lastmile_qr_scan"}, "is_reserved": 0}, {"lon": -77.00744283333333, "bike_id": "1a3634383a56561d7b4a0a4cb20658bc", "lat": 38.925271, "fusion_lon": 0.0, "fusion_lat": 0.0, "type": "electric_scooter", "name": "1a3634383a56561d7b4a0a4cb20658bc", "is_disabled": 0, "rental_uris": {"ios": "https://dc.lft.to/lastmile_qr_scan", "android": "https://dc.lft.to/lastmile_qr_scan"}, "is_reserved": 0}, {"lon": -77.00448083333333, "bike_id": "ea8a758cfe25544cf2c46935a2dd8b88", "lat": 38.91194383333333, "fusion_lon": 0.0, "fusion_lat": 0.0, "type": "electric_scooter", "name": "ea8a758cfe25544cf2c46935a2dd8b88", "is_disabled": 0, "rental_uris": {"ios": "https://dc.lft.to/lastmile_qr_scan", "android": "https://dc.lft.to/lastmile_qr_scan"}, "is_reserved": 0}, {"lon": -77.00893816666667, "bike_id": "da6cebdc85c500f70cc31bb739acdcfd", "lat": 38.926504666666666, "fusion_lon": 0.0, "fusion_lat": 0.0, "type": "electric_scooter", "name": "da6cebdc85c500f70cc31bb739acdcfd", "is_disabled": 0, "rental_uris": {"ios": "https://dc.lft.to/lastmile_qr_scan", "android": "https://dc.lft.to/lastmile_qr_scan"}, "is_reserved": 0}, {"lon": -77.01998383333333, "bike_id": "093c775c3f27a935cf159e2a6ddb24cc", "lat": 38.88741316666667, "fusion_lon": 0.0, "fusion_lat": 0.0, "type": "electric_scooter", "name": "093c775c3f27a935cf159e2a6ddb24cc", "is_disabled": 0, "rental_uris": {"ios": "https://dc.lft.to/lastmile_qr_scan", "android": "https://dc.lft.to/lastmile_qr_scan"}, "is_reserved": 0}, {"lon": -77.0212915, "bike_id": "7332b3e5f747f18b12d318c77c5eca14", "lat": 38.897056, "fusion_lon": 0.0, "fusion_lat": 0.0, "type": "electric_scooter", "name": "7332b3e5f747f18b12d318c77c5eca14", "is_disabled": 0, "rental_uris": {"ios": "https://dc.lft.to/lastmile_qr_scan", "android": "https://dc.lft.to/lastmile_qr_scan"}, "is_reserved": 0}, {"lon": -77.01395883333333, "bike_id": "a83522118dbde7617c1a3d3358796a25", "lat": 38.92839266666667, "fusion_lon": 0.0, "fusion_lat": 0.0, "type": "electric_scooter", "name": "a83522118dbde7617c1a3d3358796a25", "is_disabled": 0, "rental_uris": {"ios": "https://dc.lft.to/lastmile_qr_scan", "android": "https://dc.lft.to/lastmile_qr_scan"}, "is_reserved": 0}, {"lon": -77.0271135, "bike_id": "ea57d2bc3decfe05edcc75400cb45cc8", "lat": 38.909539, "fusion_lon": 0.0, "fusion_lat": 0.0, "type": "electric_scooter", "name": "ea57d2bc3decfe05edcc75400cb45cc8", "is_disabled": 0, "rental_uris": {"ios": "https://dc.lft.to/lastmile_qr_scan", "android": "https://dc.lft.to/lastmile_qr_scan"}, "is_reserved": 0}, {"lon": -77.0238555, "bike_id": "2ebb184f48272b03b941d50ad9dc581d", "lat": 38.9376515, "fusion_lon": 0.0, "fusion_lat": 0.0, "type": "electric_scooter", "name": "2ebb184f48272b03b941d50ad9dc581d", "is_disabled": 0, "rental_uris": {"ios": "https://dc.lft.to/lastmile_qr_scan", "android": "https://dc.lft.to/lastmile_qr_scan"}, "is_reserved": 0}, {"lon": -77.01984, "bike_id": "0a43b037095290e09d55208e2718fbaa", "lat": 38.960256666666666, "fusion_lon": 0.0, "fusion_lat": 0.0, "type": "electric_scooter", "name": "0a43b037095290e09d55208e2718fbaa", "is_disabled": 0, "rental_uris": {"ios": "https://dc.lft.to/lastmile_qr_scan", "android": "https://dc.lft.to/lastmile_qr_scan"}, "is_reserved": 0}, {"lon": -77.05490333333333, "bike_id": "be0d23579eea76e9b3139e4da0f0da8c", "lat": 38.9354155, "fusion_lon": 0.0, "fusion_lat": 0.0, "type": "electric_scooter", "name": "be0d23579eea76e9b3139e4da0f0da8c", "is_disabled": 0, "rental_uris": {"ios": "https://dc.lft.to/lastmile_qr_scan", "android": "https://dc.lft.to/lastmile_qr_scan"}, "is_reserved": 0}, {"lon": -77.03204266666667, "bike_id": "773fa311d9178f0a8322520aa49ec2a6", "lat": 38.938674666666664, "fusion_lon": 0.0, "fusion_lat": 0.0, "type": "electric_scooter", "name": "773fa311d9178f0a8322520aa49ec2a6", "is_disabled": 0, "rental_uris": {"ios": "https://dc.lft.to/lastmile_qr_scan", "android": "https://dc.lft.to/lastmile_qr_scan"}, "is_reserved": 0}, {"lon": -76.9317705, "bike_id": "ac19ef8047f743b8376ac9363d86c90b", "lat": 38.898921333333334, "fusion_lon": 0.0, "fusion_lat": 0.0, "type": "electric_scooter", "name": "ac19ef8047f743b8376ac9363d86c90b", "is_disabled": 0, "rental_uris": {"ios": "https://dc.lft.to/lastmile_qr_scan", "android": "https://dc.lft.to/lastmile_qr_scan"}, "is_reserved": 0}, {"lon": -76.9742605, "bike_id": "68eaf71aef769ed9a2189c136be32454", "lat": 38.932381666666664, "fusion_lon": 0.0, "fusion_lat": 0.0, "type": "electric_bike", "name": "68eaf71aef769ed9a2189c136be32454", "is_disabled": 0, "rental_uris": {"ios": "https://dc.lft.to/lastmile_qr_scan", "android": "https://dc.lft.to/lastmile_qr_scan"}, "is_reserved": 0}, {"lon": -76.99117033333333, "bike_id": "e3cc79384c201728403a6909fcec8d87", "lat": 38.909048, "fusion_lon": 0.0, "fusion_lat": 0.0, "type": "electric_scooter", "name": "e3cc79384c201728403a6909fcec8d87", "is_disabled": 0, "rental_uris": {"ios": "https://dc.lft.to/lastmile_qr_scan", "android": "https://dc.lft.to/lastmile_qr_scan"}, "is_reserved": 0}, {"lon": -76.98714633333333, "bike_id": "64f2498efc4ec50ff6c6ca3fbffef717", "lat": 38.8670565, "fusion_lon": 0.0, "fusion_lat": 0.0, "type": "electric_scooter", "name": "64f2498efc4ec50ff6c6ca3fbffef717", "is_disabled": 0, "rental_uris": {"ios": "https://dc.lft.to/lastmile_qr_scan", "android": "https://dc.lft.to/lastmile_qr_scan"}, "is_reserved": 0}, {"lon": -77.0438085, "bike_id": "536507e92996cb12dbbe1c07d769c6a2", "lat": 38.892276, "fusion_lon": 0.0, "fusion_lat": 0.0, "type": "electric_scooter", "name": "536507e92996cb12dbbe1c07d769c6a2", "is_disabled": 0, "rental_uris": {"ios": "https://dc.lft.to/lastmile_qr_scan", "android": "https://dc.lft.to/lastmile_qr_scan"}, "is_reserved": 0}, {"lon": -77.0453755, "bike_id": "e0be5c3ed33f6761aa2fc6c0b193a554", "lat": 38.913279, "fusion_lon": 0.0, "fusion_lat": 0.0, "type": "electric_scooter", "name": "e0be5c3ed33f6761aa2fc6c0b193a554", "is_disabled": 0, "rental_uris": {"ios": "https://dc.lft.to/lastmile_qr_scan", "android": "https://dc.lft.to/lastmile_qr_scan"}, "is_reserved": 0}, {"lon": -77.03182766666667, "bike_id": "c69c1005dc98d40c2c92af405ddb2fbc", "lat": 38.916347333333334, "fusion_lon": 0.0, "fusion_lat": 0.0, "type": "electric_scooter", "name": "c69c1005dc98d40c2c92af405ddb2fbc", "is_disabled": 0, "rental_uris": {"ios": "https://dc.lft.to/lastmile_qr_scan", "android": "https://dc.lft.to/lastmile_qr_scan"}, "is_reserved": 0}, {"lon": -77.0437585, "bike_id": "c9e02cead5b97e44cc6867be9b7dadd0", "lat": 38.89225183333333, "fusion_lon": 0.0, "fusion_lat": 0.0, "type": "electric_scooter", "name": "c9e02cead5b97e44cc6867be9b7dadd0", "is_disabled": 0, "rental_uris": {"ios": "https://dc.lft.to/lastmile_qr_scan", "android": "https://dc.lft.to/lastmile_qr_scan"}, "is_reserved": 0}, {"lon": -77.0377505, "bike_id": "6797cd44869d5dc77807a826217608db", "lat": 38.92540016666667, "fusion_lon": 0.0, "fusion_lat": 0.0, "type": "electric_scooter", "name": "6797cd44869d5dc77807a826217608db", "is_disabled": 0, "rental_uris": {"ios": "https://dc.lft.to/lastmile_qr_scan", "android": "https://dc.lft.to/lastmile_qr_scan"}, "is_reserved": 0}, {"lon": -77.02694683333333, "bike_id": "8c03017a7b476d94080598e87dc96632", "lat": 38.90841666666667, "fusion_lon": 0.0, "fusion_lat": 0.0, "type": "electric_scooter", "name": "8c03017a7b476d94080598e87dc96632", "is_disabled": 0, "rental_uris": {"ios": "https://dc.lft.to/lastmile_qr_scan", "android": "https://dc.lft.to/lastmile_qr_scan"}, "is_reserved": 0}, {"lon": -77.050431, "bike_id": "3d3e59c9b8b6b6e12fe73590f981ffb7", "lat": 38.92360383333333, "fusion_lon": 0.0, "fusion_lat": 0.0, "type": "electric_scooter", "name": "3d3e59c9b8b6b6e12fe73590f981ffb7", "is_disabled": 0, "rental_uris": {"ios": "https://dc.lft.to/lastmile_qr_scan", "android": "https://dc.lft.to/lastmile_qr_scan"}, "is_reserved": 0}, {"lon": -76.9870795, "bike_id": "896dc0d4d382fea06741fc8091d122e7", "lat": 38.8668905, "fusion_lon": 0.0, "fusion_lat": 0.0, "type": "electric_scooter", "name": "896dc0d4d382fea06741fc8091d122e7", "is_disabled": 0, "rental_uris": {"ios": "https://dc.lft.to/lastmile_qr_scan", "android": "https://dc.lft.to/lastmile_qr_scan"}, "is_reserved": 0}, {"lon": -77.0216535, "bike_id": "e9a890a56fa54d9eec3c28ea5258e191", "lat": 38.89520016666667, "fusion_lon": 0.0, "fusion_lat": 0.0, "type": "electric_scooter", "name": "e9a890a56fa54d9eec3c28ea5258e191", "is_disabled": 0, "rental_uris": {"ios": "https://dc.lft.to/lastmile_qr_scan", "android": "https://dc.lft.to/lastmile_qr_scan"}, "is_reserved": 0}, {"lon": -77.0056915, "bike_id": "b0593fa69a4affbcf1a29adca15a342c", "lat": 38.90562333333333, "fusion_lon": 0.0, "fusion_lat": 0.0, "type": "electric_scooter", "name": "b0593fa69a4affbcf1a29adca15a342c", "is_disabled": 0, "rental_uris": {"ios": "https://dc.lft.to/lastmile_qr_scan", "android": "https://dc.lft.to/lastmile_qr_scan"}, "is_reserved": 0}, {"lon": -77.03281333333334, "bike_id": "4a53c5858a9d0a4bd2eb91cae83d0e50", "lat": 38.9072065, "fusion_lon": 0.0, "fusion_lat": 0.0, "type": "electric_scooter", "name": "4a53c5858a9d0a4bd2eb91cae83d0e50", "is_disabled": 0, "rental_uris": {"ios": "https://dc.lft.to/lastmile_qr_scan", "android": "https://dc.lft.to/lastmile_qr_scan"}, "is_reserved": 0}, {"lon": -76.98396833333334, "bike_id": "22e071b8f23234fa8b724fbed3ce0777", "lat": 38.86640716666667, "fusion_lon": 0.0, "fusion_lat": 0.0, "type": "electric_scooter", "name": "22e071b8f23234fa8b724fbed3ce0777", "is_disabled": 0, "rental_uris": {"ios": "https://dc.lft.to/lastmile_qr_scan", "android": "https://dc.lft.to/lastmile_qr_scan"}, "is_reserved": 0}, {"lon": -77.03613616666667, "bike_id": "16a69f7cb8c6ee5f9640e976e21fc6cb", "lat": 38.93483333333333, "fusion_lon": 0.0, "fusion_lat": 0.0, "type": "electric_scooter", "name": "16a69f7cb8c6ee5f9640e976e21fc6cb", "is_disabled": 0, "rental_uris": {"ios": "https://dc.lft.to/lastmile_qr_scan", "android": "https://dc.lft.to/lastmile_qr_scan"}, "is_reserved": 0}, {"lon": -77.08005366666667, "bike_id": "8158a40fb7f67023442158e7093068fe", "lat": 38.964912166666664, "fusion_lon": 0.0, "fusion_lat": 0.0, "type": "electric_scooter", "name": "8158a40fb7f67023442158e7093068fe", "is_disabled": 0, "rental_uris": {"ios": "https://dc.lft.to/lastmile_qr_scan", "android": "https://dc.lft.to/lastmile_qr_scan"}, "is_reserved": 0}, {"lon": -77.01498366666667, "bike_id": "2e591a2ede192f49e8905a64e3f77676", "lat": 38.91755083333334, "fusion_lon": 0.0, "fusion_lat": 0.0, "type": "electric_scooter", "name": "2e591a2ede192f49e8905a64e3f77676", "is_disabled": 0, "rental_uris": {"ios": "https://dc.lft.to/lastmile_qr_scan", "android": "https://dc.lft.to/lastmile_qr_scan"}, "is_reserved": 0}, {"lon": -76.921796, "bike_id": "7cfb6fbb1ed94b9aee3e6dc61468bfa0", "lat": 38.895112, "fusion_lon": 0.0, "fusion_lat": 0.0, "type": "electric_bike", "name": "7cfb6fbb1ed94b9aee3e6dc61468bfa0", "is_disabled": 0, "rental_uris": {"ios": "https://dc.lft.to/lastmile_qr_scan", "android": "https://dc.lft.to/lastmile_qr_scan"}, "is_reserved": 0}, {"lon": -76.93189333333333, "bike_id": "68570bfd319dd439880dee7dfb2bf0d1", "lat": 38.8987705, "fusion_lon": 0.0, "fusion_lat": 0.0, "type": "electric_scooter", "name": "68570bfd319dd439880dee7dfb2bf0d1", "is_disabled": 0, "rental_uris": {"ios": "https://dc.lft.to/lastmile_qr_scan", "android": "https://dc.lft.to/lastmile_qr_scan"}, "is_reserved": 0}, {"lon": -77.07902216666666, "bike_id": "3aabebc4cd1ca9f14230a0f01e14bd4b", "lat": 38.839332, "fusion_lon": 0.0, "fusion_lat": 0.0, "type": "electric_bike", "name": "3aabebc4cd1ca9f14230a0f01e14bd4b", "is_disabled": 0, "rental_uris": {"ios": "https://dc.lft.to/lastmile_qr_scan", "android": "https://dc.lft.to/lastmile_qr_scan"}, "is_reserved": 0}, {"lon": -76.99017116666667, "bike_id": "277cd1867be00bb64962fdbc6203dec2", "lat": 38.882768, "fusion_lon": 0.0, "fusion_lat": 0.0, "type": "electric_scooter", "name": "277cd1867be00bb64962fdbc6203dec2", "is_disabled": 0, "rental_uris": {"ios": "https://dc.lft.to/lastmile_qr_scan", "android": "https://dc.lft.to/lastmile_qr_scan"}, "is_reserved": 0}, {"lon": -77.00369816666667, "bike_id": "570f5e338b1ea34554187b9340f44c09", "lat": 38.897430666666665, "fusion_lon": 0.0, "fusion_lat": 0.0, "type": "electric_scooter", "name": "570f5e338b1ea34554187b9340f44c09", "is_disabled": 0, "rental_uris": {"ios": "https://dc.lft.to/lastmile_qr_scan", "android": "https://dc.lft.to/lastmile_qr_scan"}, "is_reserved": 0}, {"lon": -76.98036, "bike_id": "d26bd41a0925498aeca205e3267f9fc2", "lat": 38.889687333333335, "fusion_lon": 0.0, "fusion_lat": 0.0, "type": "electric_scooter", "name": "d26bd41a0925498aeca205e3267f9fc2", "is_disabled": 0, "rental_uris": {"ios": "https://dc.lft.to/lastmile_qr_scan", "android": "https://dc.lft.to/lastmile_qr_scan"}, "is_reserved": 0}, {"lon": -77.02389383333333, "bike_id": "ed47cf4817070deefa58e1d8b06556af", "lat": 38.914392666666664, "fusion_lon": 0.0, "fusion_lat": 0.0, "type": "electric_scooter", "name": "ed47cf4817070deefa58e1d8b06556af", "is_disabled": 0, "rental_uris": {"ios": "https://dc.lft.to/lastmile_qr_scan", "android": "https://dc.lft.to/lastmile_qr_scan"}, "is_reserved": 0}, {"lon": -77.11710666666667, "bike_id": "ce137b143906ab2fb6a6b1ab6b2b30c2", "lat": 38.86747233333333, "fusion_lon": 0.0, "fusion_lat": 0.0, "type": "electric_bike", "name": "ce137b143906ab2fb6a6b1ab6b2b30c2", "is_disabled": 0, "rental_uris": {"ios": "https://dc.lft.to/lastmile_qr_scan", "android": "https://dc.lft.to/lastmile_qr_scan"}, "is_reserved": 0}, {"lon": -77.017607, "bike_id": "51ca39efde6553e3084cb3bf7191cb48", "lat": 38.90378316666666, "fusion_lon": 0.0, "fusion_lat": 0.0, "type": "electric_scooter", "name": "51ca39efde6553e3084cb3bf7191cb48", "is_disabled": 0, "rental_uris": {"ios": "https://dc.lft.to/lastmile_qr_scan", "android": "https://dc.lft.to/lastmile_qr_scan"}, "is_reserved": 0}, {"lon": -76.957492, "bike_id": "7423df5aa56bfa06f49980b47e01510e", "lat": 38.884286333333336, "fusion_lon": 0.0, "fusion_lat": 0.0, "type": "electric_scooter", "name": "7423df5aa56bfa06f49980b47e01510e", "is_disabled": 0, "rental_uris": {"ios": "https://dc.lft.to/lastmile_qr_scan", "android": "https://dc.lft.to/lastmile_qr_scan"}, "is_reserved": 0}, {"lon": -77.02315166666666, "bike_id": "7e13c966e27ead230018290dd1c65593", "lat": 38.894983, "fusion_lon": 0.0, "fusion_lat": 0.0, "type": "electric_scooter", "name": "7e13c966e27ead230018290dd1c65593", "is_disabled": 0, "rental_uris": {"ios": "https://dc.lft.to/lastmile_qr_scan", "android": "https://dc.lft.to/lastmile_qr_scan"}, "is_reserved": 0}, {"lon": -77.02242466666667, "bike_id": "127aec8e3cff249d30a33a8296cbb6bf", "lat": 38.92733366666667, "fusion_lon": 0.0, "fusion_lat": 0.0, "type": "electric_scooter", "name": "127aec8e3cff249d30a33a8296cbb6bf", "is_disabled": 0, "rental_uris": {"ios": "https://dc.lft.to/lastmile_qr_scan", "android": "https://dc.lft.to/lastmile_qr_scan"}, "is_reserved": 0}, {"lon": -77.02118466666667, "bike_id": "c40b50d4aadf61985c3cb73eed39b344", "lat": 38.8970465, "fusion_lon": 0.0, "fusion_lat": 0.0, "type": "electric_scooter", "name": "c40b50d4aadf61985c3cb73eed39b344", "is_disabled": 0, "rental_uris": {"ios": "https://dc.lft.to/lastmile_qr_scan", "android": "https://dc.lft.to/lastmile_qr_scan"}, "is_reserved": 0}, {"lon": -77.04195383333334, "bike_id": "92c582cdd88b85f87435df22b9aa8178", "lat": 38.89981316666667, "fusion_lon": 0.0, "fusion_lat": 0.0, "type": "electric_scooter", "name": "92c582cdd88b85f87435df22b9aa8178", "is_disabled": 0, "rental_uris": {"ios": "https://dc.lft.to/lastmile_qr_scan", "android": "https://dc.lft.to/lastmile_qr_scan"}, "is_reserved": 0}, {"lon": -77.0230315, "bike_id": "87eb82ed3b0683a7dc4bb3b45258000a", "lat": 38.9177665, "fusion_lon": 0.0, "fusion_lat": 0.0, "type": "electric_scooter", "name": "87eb82ed3b0683a7dc4bb3b45258000a", "is_disabled": 0, "rental_uris": {"ios": "https://dc.lft.to/lastmile_qr_scan", "android": "https://dc.lft.to/lastmile_qr_scan"}, "is_reserved": 0}, {"lon": -76.9980735, "bike_id": "73c36befd69f51517588eed1c0e170c2", "lat": 38.829143, "fusion_lon": 0.0, "fusion_lat": 0.0, "type": "electric_bike", "name": "73c36befd69f51517588eed1c0e170c2", "is_disabled": 0, "rental_uris": {"ios": "https://dc.lft.to/lastmile_qr_scan", "android": "https://dc.lft.to/lastmile_qr_scan"}, "is_reserved": 0}, {"lon": -77.0308055, "bike_id": "d2a63a2b9b8b176614dd9543eb0d8d30", "lat": 38.9202415, "fusion_lon": 0.0, "fusion_lat": 0.0, "type": "electric_scooter", "name": "d2a63a2b9b8b176614dd9543eb0d8d30", "is_disabled": 0, "rental_uris": {"ios": "https://dc.lft.to/lastmile_qr_scan", "android": "https://dc.lft.to/lastmile_qr_scan"}, "is_reserved": 0}, {"lon": -77.03432583333333, "bike_id": "26b702df4f63369b039da943488a09dd", "lat": 38.96533733333333, "fusion_lon": 0.0, "fusion_lat": 0.0, "type": "electric_bike", "name": "26b702df4f63369b039da943488a09dd", "is_disabled": 0, "rental_uris": {"ios": "https://dc.lft.to/lastmile_qr_scan", "android": "https://dc.lft.to/lastmile_qr_scan"}, "is_reserved": 0}, {"lon": -77.0360425, "bike_id": "68e055d00072e0a5d5ea1828c60ef064", "lat": 38.936843, "fusion_lon": 0.0, "fusion_lat": 0.0, "type": "electric_scooter", "name": "68e055d00072e0a5d5ea1828c60ef064", "is_disabled": 0, "rental_uris": {"ios": "https://dc.lft.to/lastmile_qr_scan", "android": "https://dc.lft.to/lastmile_qr_scan"}, "is_reserved": 0}, {"lon": -77.02715766666667, "bike_id": "c346c6763f32b2d2642e6aae5847c864", "lat": 38.90950316666667, "fusion_lon": 0.0, "fusion_lat": 0.0, "type": "electric_scooter", "name": "c346c6763f32b2d2642e6aae5847c864", "is_disabled": 0, "rental_uris": {"ios": "https://dc.lft.to/lastmile_qr_scan", "android": "https://dc.lft.to/lastmile_qr_scan"}, "is_reserved": 0}, {"lon": -77.030219, "bike_id": "c1bab44896dd87dc35a7d02cb17ea317", "lat": 38.884552666666664, "fusion_lon": 0.0, "fusion_lat": 0.0, "type": "electric_scooter", "name": "c1bab44896dd87dc35a7d02cb17ea317", "is_disabled": 0, "rental_uris": {"ios": "https://dc.lft.to/lastmile_qr_scan", "android": "https://dc.lft.to/lastmile_qr_scan"}, "is_reserved": 0},