{"data": {"bikes": [{"bike_id": "8709b4c7ed32b7c01a037334b6cc1031", "is_reserved": 0, "fusion_lon": 0.0, "lat": 38.9147845, "is_disabled": 0, "name": "8709b4c7ed32b7c01a037334b6cc1031", "fusion_lat": 0.0, "rental_uris": {"ios": "https://dc.lft.to/lastmile_qr_scan", "android": "https://dc.lft.to/lastmile_qr_scan"}, "lon": -77.02190566666667, "type": "electric_scooter"}, {"bike_id": "a2e9c79e500e0bbe8fd1da822408beb9", "is_reserved": 0, "fusion_lon": 0.0, "lat": 38.916764666666666, "is_disabled": 0, "name": "a2e9c79e500e0bbe8fd1da822408beb9", "fusion_lat": 0.0, "rental_uris": {"ios": "https://dc.lft.to/lastmile_qr_scan", "android": "https://dc.lft.to/lastmile_qr_scan"}, "lon": -77.029477, "type": "electric_scooter"}, {"bike_id": "c9f14cd0fb14df33f9d131554d1daf3a", "is_reserved": 0, "fusion_lon": 0.0, "lat": 38.89829833333334, "is_disabled": 0, "name": "c9f14cd0fb14df33f9d131554d1daf3a", "fusion_lat": 0.0, "rental_uris": {"ios": "https://dc.lft.to/lastmile_qr_scan", "android": "https://dc.lft.to/lastmile_qr_scan"}, "lon": -77.03323883333333, "type": "electric_scooter"}, {"bike_id": "a2ff2402e4952a05d62c6771353dde21", "is_reserved": 0, "fusion_lon": 0.0, "lat": 38.884912166666666, "is_disabled": 0, "name": "a2ff2402e4952a05d62c6771353dde21", "fusion_lat": 0.0, "rental_uris": {"ios": "https://dc.lft.to/lastmile_qr_scan", "android": "https://dc.lft.to/lastmile_qr_scan"}, "lon": -77.007111, "type": "electric_scooter"}, {"bike_id": "7d31910cbbe3634092d2189d381cbecc", "is_reserved": 0, "fusion_lon": 0.0, "lat": 38.91335733333333, "is_disabled": 0, "name": "7d31910cbbe3634092d2189d381cbecc", "fusion_lat": 0.0, "rental_uris": {"ios": "https://dc.lft.to/lastmile_qr_scan", "android": "https://dc.lft.to/lastmile_qr_scan"}, "lon": -77.00335783333334, "type": "electric_scooter"}, {"bike_id": "0ba4867fedd9c56ff9e1172a1d83b828", "is_reserved": 0, "fusion_lon": 0.0, "lat": 38.891684, "is_disabled": 0, "name": "0ba4867fedd9c56ff9e1172a1d83b828", "fusion_lat": 0.0, "rental_uris": {"ios": "https://dc.lft.to/lastmile_qr_scan", "android": "https://dc.lft.to/lastmile_qr_scan"}, "lon": -77.01542066666667, "type": "electric_scooter"}, {"bike_id": "ffc96d3f38bf93a3d8ff06ff41d13feb", "is_reserved": 0, "fusion_lon": 0.0, "lat": 38.9028305, "is_disabled": 0, "name": "ffc96d3f38bf93a3d8ff06ff41d13feb", "fusion_lat": 0.0, "rental_uris": {"ios": "https://dc.lft.to/lastmile_qr_scan", "android": "https://dc.lft.to/lastmile_qr_scan"}, "lon": -77.03832633333333, "type": "electric_scooter"}, {"bike_id": "508fb39a7751621d8371cdd3f42b5107", "is_reserved": 0, "fusion_lon": 0.0, "lat": 38.8763915, "is_disabled": 0, "name": "508fb39a7751621d8371cdd3f42b5107", "fusion_lat": 0.0, "rental_uris": {"ios": "https://dc.lft.to/lastmile_qr_scan", "android": "https://dc.lft.to/lastmile_qr_scan"}, "lon": -76.99587666666666, "type": "electric_scooter"}, {"bike_id": "88798d7804b49a3b9095ea357903b034", "is_reserved": 0, "fusion_lon": 0.0, "lat": 38.91849216666667, "is_disabled": 0, "name": "88798d7804b49a3b9095ea357903b034", "fusion_lat": 0.0, "rental_uris": {"ios": "https://dc.lft.to/lastmile_qr_scan", "android": "https://dc.lft.to/lastmile_qr_scan"}, "lon": -77.03899566666666, "type": "electric_scooter"}, {"bike_id": "09e8a48f8164dc5f15fa222837cc26c0", "is_reserved": 0, "fusion_lon": 0.0, "lat": 38.93456066666667, "is_disabled": 0, "name": "09e8a48f8164dc5f15fa222837cc26c0", "fusion_lat": 0.0, "rental_uris": {"ios": "https://dc.lft.to/lastmile_qr_scan", "android": "https://dc.lft.to/lastmile_qr_scan"}, "lon": -77.03127866666667, "type": "electric_scooter"}, {"bike_id": "c6097dca1d62580fb16197347b652021", "is_reserved": 0, "fusion_lon": 0.0, "lat": 38.90670166666666, "is_disabled": 0, "name": "c6097dca1d62580fb16197347b652021", "fusion_lat": 0.0, "rental_uris": {"ios": "https://dc.lft.to/lastmile_qr_scan", "android": "https://dc.lft.to/lastmile_qr_scan"}, "lon": -76.98786266666667, "type": "electric_scooter"}, {"bike_id": "8e84892090414306be29f43e830d9da7", "is_reserved": 0, "fusion_lon": 0.0, "lat": 38.906305333333336, "is_disabled": 0, "name": "8e84892090414306be29f43e830d9da7", "fusion_lat": 0.0, "rental_uris": {"ios": "https://dc.lft.to/lastmile_qr_scan", "android": "https://dc.lft.to/lastmile_qr_scan"}, "lon": -77.02989316666667, "type": "electric_scooter"}, {"bike_id": "52b40c2154e1b2441c3e742ef08b131b", "is_reserved": 0, "fusion_lon": 0.0, "lat": 38.92574233333333, "is_disabled": 0, "name": "52b40c2154e1b2441c3e742ef08b131b", "fusion_lat": 0.0, "rental_uris": {"ios": "https://dc.lft.to/lastmile_qr_scan", "android": "https://dc.lft.to/lastmile_qr_scan"}, "lon": -77.03103583333333, "type": "electric_scooter"}, {"bike_id": "f5afc5fc60a3d64824256150018c6d4e", "is_reserved": 0, "fusion_lon": 0.0, "lat": 38.89836416666667, "is_disabled": 0, "name": "f5afc5fc60a3d64824256150018c6d4e", "fusion_lat": 0.0, "rental_uris": {"ios": "https://dc.lft.to/lastmile_qr_scan", "android": "https://dc.lft.to/lastmile_qr_scan"}, "lon": -76.9804145, "type": "electric_scooter"}, {"bike_id": "2321a4ec8506f168f4d027fbf5278cb8", "is_reserved": 0, "fusion_lon": 0.0, "lat": 38.95901383333333, "is_disabled": 0, "name": "2321a4ec8506f168f4d027fbf5278cb8", "fusion_lat": 0.0, "rental_uris": {"ios": "https://dc.lft.to/lastmile_qr_scan", "android": "https://dc.lft.to/lastmile_qr_scan"}, "lon": -76.924806, "type": "electric_bike"}, {"bike_id": "fd1b290733700d8676f3222335bf8dd9", "is_reserved": 0, "fusion_lon": 0.0, "lat": 38.918537, "is_disabled": 0, "name": "fd1b290733700d8676f3222335bf8dd9", "fusion_lat": 0.0, "rental_uris": {"ios": "https://dc.lft.to/lastmile_qr_scan", "android": "https://dc.lft.to/lastmile_qr_scan"}, "lon": -77.02287516666667, "type": "electric_scooter"}, {"bike_id": "8600cd8f55dc443971d996354f62e304", "is_reserved": 0, "fusion_lon": 0.0, "lat": 38.88119116666667, "is_disabled": 0, "name": "8600cd8f55dc443971d996354f62e304", "fusion_lat": 0.0, "rental_uris": {"ios": "https://dc.lft.to/lastmile_qr_scan", "android": "https://dc.lft.to/lastmile_qr_scan"}, "lon": -77.01679316666667, "type": "electric_bike"}, {"bike_id": "bf8b70ebfeda275d6ab02964f0846cd0", "is_reserved": 0, "fusion_lon": 0.0, "lat": 38.9191375, "is_disabled": 0, "name": "bf8b70ebfeda275d6ab02964f0846cd0", "fusion_lat": 0.0, "rental_uris": {"ios": "https://dc.lft.to/lastmile_qr_scan", "android": "https://dc.lft.to/lastmile_qr_scan"}, "lon": -77.03201716666666, "type": "electric_scooter"}, {"bike_id": "2ce645442b322e6221b0c1f372bf51b0", "is_reserved": 0, "fusion_lon": 0.0, "lat": 38.875526666666666, "is_disabled": 0, "name": "2ce645442b322e6221b0c1f372bf51b0", "fusion_lat": 0.0, "rental_uris": {"ios": "https://dc.lft.to/lastmile_qr_scan", "android": "https://dc.lft.to/lastmile_qr_scan"}, "lon": -76.9648955, "type": "electric_scooter"}, {"bike_id": "f5bde338cba74a9fa9e6578d23ae2deb", "is_reserved": 0, "fusion_lon": 0.0, "lat": 38.91036616666667, "is_disabled": 0, "name": "f5bde338cba74a9fa9e6578d23ae2deb", "fusion_lat": 0.0, "rental_uris": {"ios": "https://dc.lft.to/lastmile_qr_scan", "android": "https://dc.lft.to/lastmile_qr_scan"}, "lon": -77.0439085, "type": "electric_scooter"}, {"bike_id": "68ca3b87738632eba962d1df69c5373d", "is_reserved": 0, "fusion_lon": 0.0, "lat": 38.888656833333336, "is_disabled": 0, "name": "68ca3b87738632eba962d1df69c5373d", "fusion_lat": 0.0, "rental_uris": {"ios": "https://dc.lft.to/lastmile_qr_scan", "android": "https://dc.lft.to/lastmile_qr_scan"}, "lon": -76.99475866666667, "type": "electric_bike"}, {"bike_id": "540e0bc47cd2ef93ee19e796fa8280d2", "is_reserved": 0, "fusion_lon": 0.0, "lat": 38.89528983333334, "is_disabled": 0, "name": "540e0bc47cd2ef93ee19e796fa8280d2", "fusion_lat": 0.0, "rental_uris": {"ios": "https://dc.lft.to/lastmile_qr_scan", "android": "https://dc.lft.to/lastmile_qr_scan"}, "lon": -77.04845083333333, "type": "electric_scooter"}, {"bike_id": "59ba1d100222adf49ece96931b58bae6", "is_reserved": 0, "fusion_lon": 0.0, "lat": 38.862039833333334, "is_disabled": 0, "name": "59ba1d100222adf49ece96931b58bae6", "fusion_lat": 0.0, "rental_uris": {"ios": "https://dc.lft.to/lastmile_qr_scan", "android": "https://dc.lft.to/lastmile_qr_scan"}, "lon": -76.9946265, "type": "electric_scooter"}, {"bike_id": "1a631780595dd71a18da3be1eacd41d8", "is_reserved": 0, "fusion_lon": 0.0, "lat": 38.899553, "is_disabled": 0, "name": "1a631780595dd71a18da3be1eacd41d8", "fusion_lat": 0.0, "rental_uris": {"ios": "https://dc.lft.to/lastmile_qr_scan", "android": "https://dc.lft.to/lastmile_qr_scan"}, "lon": -76.97544916666666, "type": "electric_scooter"}, {"bike_id": "236f00de61554cec5175d657aee09426", "is_reserved": 0, "fusion_lon": 0.0, "lat": 38.9002825, "is_disabled": 0, "name": "236f00de61554cec5175d657aee09426", "fusion_lat": 0.0, "rental_uris": {"ios": "https://dc.lft.to/lastmile_qr_scan", "android": "https://dc.lft.to/lastmile_qr_scan"}, "lon": -76.995376, "type": "electric_scooter"}, {"bike_id": "f5ec3c32fa845c19c2cb7cee944ca854", "is_reserved": 0, "fusion_lon": 0.0, "lat": 38.9112, "is_disabled": 0, "name": "f5ec3c32fa845c19c2cb7cee944ca854", "fusion_lat": 0.0, "rental_uris": {"ios": "https://dc.lft.to/lastmile_qr_scan", "android": "https://dc.lft.to/lastmile_qr_scan"}, "lon": -77.048351, "type": "electric_scooter"}, {"bike_id": "6fbee094b9248ea3d9cfbdb378357ce3", "is_reserved": 0, "fusion_lon": 0.0, "lat": 38.90003383333333, "is_disabled": 0, "name": "6fbee094b9248ea3d9cfbdb378357ce3", "fusion_lat": 0.0, "rental_uris": {"ios": "https://dc.lft.to/lastmile_qr_scan", "android": "https://dc.lft.to/lastmile_qr_scan"}, "lon": -77.05233716666666, "type": "electric_scooter"}, {"bike_id": "9ebac0661f0111e72c28d3d39ede7917", "is_reserved": 0, "fusion_lon": 0.0, "lat": 38.8948435, "is_disabled": 0, "name": "9ebac0661f0111e72c28d3d39ede7917", "fusion_lat": 0.0, "rental_uris": {"ios": "https://dc.lft.to/lastmile_qr_scan", "android": "https://dc.lft.to/lastmile_qr_scan"}, "lon": -76.94870283333333, "type": "electric_scooter"}, {"bike_id": "b6c822c0c6bb74bfd6bbb1f63725d0fc", "is_reserved": 0, "fusion_lon": 0.0, "lat": 38.892249166666666, "is_disabled": 0, "name": "b6c822c0c6bb74bfd6bbb1f63725d0fc", "fusion_lat": 0.0, "rental_uris": {"ios": "https://dc.lft.to/lastmile_qr_scan", "android": "https://dc.lft.to/lastmile_qr_scan"}, "lon": -77.0437225, "type": "electric_scooter"}, {"bike_id": "057c91ec747c880d653ec49f79b01705", "is_reserved": 0, "fusion_lon": 0.0, "lat": 38.9029055, "is_disabled": 0, "name": "057c91ec747c880d653ec49f79b01705", "fusion_lat": 0.0, "rental_uris": {"ios": "https://dc.lft.to/lastmile_qr_scan", "android": "https://dc.lft.to/lastmile_qr_scan"}, "lon": -77.038528, "type": "electric_scooter"}, {"bike_id": "77b5e28032889590618fb54e0a196f48", "is_reserved": 0, "fusion_lon": 0.0, "lat": 38.91206066666667, "is_disabled": 0, "name": "77b5e28032889590618fb54e0a196f48", "fusion_lat": 0.0, "rental_uris": {"ios": "https://dc.lft.to/lastmile_qr_scan", "android": "https://dc.lft.to/lastmile_qr_scan"}, "lon": -77.02969433333334, "type": "electric_scooter"}, {"bike_id": "31b60c716304e7a0d57b7346bb040c28", "is_reserved": 0, "fusion_lon": 0.0, "lat": 38.85245833333333, "is_disabled": 0, "name": "31b60c716304e7a0d57b7346bb040c28", "fusion_lat": 0.0, "rental_uris": {"ios": "https://dc.lft.to/lastmile_qr_scan", "android": "https://dc.lft.to/lastmile_qr_scan"}, "lon": -77.1142825, "type": "electric_bike"}, {"bike_id": "1398bf00a8aee0813d2c393885620f41", "is_reserved": 0, "fusion_lon": 0.0, "lat": 38.9111575, "is_disabled": 0, "name": "1398bf00a8aee0813d2c393885620f41", "fusion_lat": 0.0, "rental_uris": {"ios": "https://dc.lft.to/lastmile_qr_scan", "android": "https://dc.lft.to/lastmile_qr_scan"}, "lon": -77.0373335, "type": "electric_scooter"}, {"bike_id": "4d16bf09ac7a419dff64fe938c2bc980", "is_reserved": 0, "fusion_lon": 0.0, "lat": 38.975139666666664, "is_disabled": 0, "name": "4d16bf09ac7a419dff64fe938c2bc980", "fusion_lat": 0.0, "rental_uris": {"ios": "https://dc.lft.to/lastmile_qr_scan", "android": "https://dc.lft.to/lastmile_qr_scan"}, "lon": -77.01747816666666, "type": "electric_scooter"}, {"bike_id": "83b627ca2bc8ee0e0f20fee7b000a716", "is_reserved": 0, "fusion_lon": 0.0, "lat": 38.89007183333333, "is_disabled": 0, "name": "83b627ca2bc8ee0e0f20fee7b000a716", "fusion_lat": 0.0, "rental_uris": {"ios": "https://dc.lft.to/lastmile_qr_scan", "android": "https://dc.lft.to/lastmile_qr_scan"}, "lon": -76.93743766666667, "type": "electric_scooter"}, {"bike_id": "0a193cd38e031fa4802a404f2f545f40", "is_reserved": 0, "fusion_lon": 0.0, "lat": 38.935163833333334, "is_disabled": 0, "name": "0a193cd38e031fa4802a404f2f545f40", "fusion_lat": 0.0, "rental_uris": {"ios": "https://dc.lft.to/lastmile_qr_scan", "android": "https://dc.lft.to/lastmile_qr_scan"}, "lon": -77.03295, "type": "electric_scooter"}, {"bike_id": "5b36d895798482bb5adba3d96efabe98", "is_reserved": 0, "fusion_lon": 0.0, "lat": 38.910585833333336, "is_disabled": 0, "name": "5b36d895798482bb5adba3d96efabe98", "fusion_lat": 0.0, "rental_uris": {"ios": "https://dc.lft.to/lastmile_qr_scan", "android": "https://dc.lft.to/lastmile_qr_scan"}, "lon": -77.022052, "type": "electric_scooter"}, {"bike_id": "b7133848abf2008b9d95465284ac605e", "is_reserved": 0, "fusion_lon": 0.0, "lat": 38.84292583333333, "is_disabled": 0, "name": "b7133848abf2008b9d95465284ac605e", "fusion_lat": 0.0, "rental_uris": {"ios": "https://dc.lft.to/lastmile_qr_scan", "android": "https://dc.lft.to/lastmile_qr_scan"}, "lon": -76.9994705, "type": "electric_scooter"}, {"bike_id": "5b8a9f1b6405e34ab1e850f4dab6dad5", "is_reserved": 0, "fusion_lon": 0.0, "lat": 38.905624333333336, "is_disabled": 0, "name": "5b8a9f1b6405e34ab1e850f4dab6dad5", "fusion_lat": 0.0, "rental_uris": {"ios": "https://dc.lft.to/lastmile_qr_scan", "android": "https://dc.lft.to/lastmile_qr_scan"}, "lon": -77.01673583333333, "type": "electric_scooter"}, {"bike_id": "96470d172278decc47b3186f15e0a348", "is_reserved": 0, "fusion_lon": 0.0, "lat": 38.886797, "is_disabled": 0, "name": "96470d172278decc47b3186f15e0a348", "fusion_lat": 0.0, "rental_uris": {"ios": "https://dc.lft.to/lastmile_qr_scan", "android": "https://dc.lft.to/lastmile_qr_scan"}, "lon": -77.0138135, "type": "electric_scooter"}, {"bike_id": "6d87add0036401e65593992804777788", "is_reserved": 0, "fusion_lon": 0.0, "lat": 38.90646016666667, "is_disabled": 0, "name": "6d87add0036401e65593992804777788", "fusion_lat": 0.0, "rental_uris": {"ios": "https://dc.lft.to/lastmile_qr_scan", "android": "https://dc.lft.to/lastmile_qr_scan"}, "lon": -77.00989216666666, "type": "electric_scooter"}, {"bike_id": "3293f08c5e9f351f92ac80a76db5642f", "is_reserved": 0, "fusion_lon": 0.0, "lat": 38.9275645, "is_disabled": 0, "name": "3293f08c5e9f351f92ac80a76db5642f", "fusion_lat": 0.0, "rental_uris": {"ios": "https://dc.lft.to/lastmile_qr_scan", "android": "https://dc.lft.to/lastmile_qr_scan"}, "lon": -77.05404183333333, "type": "electric_scooter"}, {"bike_id": "94c92368739d4de08d57eafa25185221", "is_reserved": 0, "fusion_lon": 0.0, "lat": 38.89229133333333, "is_disabled": 0, "name": "94c92368739d4de08d57eafa25185221", "fusion_lat": 0.0, "rental_uris": {"ios": "https://dc.lft.to/lastmile_qr_scan", "android": "https://dc.lft.to/lastmile_qr_scan"}, "lon": -77.03221516666666, "type": "electric_scooter"}, {"bike_id": "2fc4a9d6e783b977f3aaec2ca2e2c6df", "is_reserved": 0, "fusion_lon": 0.0, "lat": 38.921289, "is_disabled": 0, "name": "2fc4a9d6e783b977f3aaec2ca2e2c6df", "fusion_lat": 0.0, "rental_uris": {"ios": "https://dc.lft.to/lastmile_qr_scan", "android": "https://dc.lft.to/lastmile_qr_scan"}, "lon": -77.02201316666667, "type": "electric_scooter"}, {"bike_id": "2cccaeee07f70ce2bb153af71fc46804", "is_reserved": 0, "fusion_lon": 0.0, "lat": 38.90253083333333, "is_disabled": 0, "name": "2cccaeee07f70ce2bb153af71fc46804", "fusion_lat": 0.0, "rental_uris": {"ios": "https://dc.lft.to/lastmile_qr_scan", "android": "https://dc.lft.to/lastmile_qr_scan"}, "lon": -77.039632, "type": "electric_scooter"}, {"bike_id": "18e48d9092516ed8e0462d83cbe975fd", "is_reserved": 0, "fusion_lon": 0.0, "lat": 38.8790925, "is_disabled": 0, "name": "18e48d9092516ed8e0462d83cbe975fd", "fusion_lat": 0.0, "rental_uris": {"ios": "https://dc.lft.to/lastmile_qr_scan", "android": "https://dc.lft.to/lastmile_qr_scan"}, "lon": -77.0071815, "type": "electric_scooter"}, {"bike_id": "895167450cba9770cbde694d1444b24a", "is_reserved": 0, "fusion_lon": 0.0, "lat": 38.91705833333333, "is_disabled": 0, "name": "895167450cba9770cbde694d1444b24a", "fusion_lat": 0.0, "rental_uris": {"ios": "https://dc.lft.to/lastmile_qr_scan", "android": "https://dc.lft.to/lastmile_qr_scan"}, "lon": -77.03485833333333, "type": "electric_scooter"}, {"bike_id": "ceb7ab362b0133194a1c36a9ea53abe1", "is_reserved": 0, "fusion_lon": 0.0, "lat": 38.900271000000004, "is_disabled": 0, "name": "ceb7ab362b0133194a1c36a9ea53abe1", "fusion_lat": 0.0, "rental_uris": {"ios": "https://dc.lft.to/lastmile_qr_scan", "android": "https://dc.lft.to/lastmile_qr_scan"}, "lon": -76.98299616666667, "type": "electric_scooter"}, {"bike_id": "1047ed1b7079753e8895fa68ca501ac2", "is_reserved": 0, "fusion_lon": 0.0, "lat": 38.89732733333334, "is_disabled": 0, "name": "1047ed1b7079753e8895fa68ca501ac2", "fusion_lat": 0.0, "rental_uris": {"ios": "https://dc.lft.to/lastmile_qr_scan", "android": "https://dc.lft.to/lastmile_qr_scan"}, "lon": -76.925856, "type": "electric_scooter"}, {"bike_id": "2456a009cd0d650ce50d3e2c8fb65051", "is_reserved": 0, "fusion_lon": 0.0, "lat": 38.957348333333336, "is_disabled": 0, "name": "2456a009cd0d650ce50d3e2c8fb65051", "fusion_lat": 0.0, "rental_uris": {"ios": "https://dc.lft.to/lastmile_qr_scan", "android": "https://dc.lft.to/lastmile_qr_scan"}, "lon": -77.02407683333334, "type": "electric_scooter"}, {"bike_id": "60e44cf0f8413e9be673e8f4ea282208", "is_reserved": 0, "fusion_lon": 0.0, "lat": 38.86571933333333, "is_disabled": 0, "name": "60e44cf0f8413e9be673e8f4ea282208", "fusion_lat": 0.0, "rental_uris": {"ios": "https://dc.lft.to/lastmile_qr_scan", "android": "https://dc.lft.to/lastmile_qr_scan"}, "lon": -76.98951466666666, "type": "electric_scooter"}, {"bike_id": "a7a4ad74fe174d300555719e312606eb", "is_reserved": 0, "fusion_lon": 0.0, "lat": 38.9025365, "is_disabled": 0, "name": "a7a4ad74fe174d300555719e312606eb", "fusion_lat": 0.0, "rental_uris": {"ios": "https://dc.lft.to/lastmile_qr_scan", "android": "https://dc.lft.to/lastmile_qr_scan"}, "lon": -77.01727883333334, "type": "electric_scooter"}, {"bike_id": "0caa42cc1ee755cb4e5375fa171b5f58", "is_reserved": 0, "fusion_lon": 0.0, "lat": 38.851598, "is_disabled": 0, "name": "0caa42cc1ee755cb4e5375fa171b5f58", "fusion_lat": 0.0, "rental_uris": {"ios": "https://dc.lft.to/lastmile_qr_scan", "android": "https://dc.lft.to/lastmile_qr_scan"}, "lon": -77.12880683333333, "type": "electric_bike"}, {"bike_id": "71711dd56adf2cc3ab5554ce1812ad3b", "is_reserved": 0, "fusion_lon": 0.0, "lat": 38.90332033333333, "is_disabled": 0, "name": "71711dd56adf2cc3ab5554ce1812ad3b", "fusion_lat": 0.0, "rental_uris": {"ios": "https://dc.lft.to/lastmile_qr_scan", "android": "https://dc.lft.to/lastmile_qr_scan"}, "lon": -77.03832066666666, "type": "electric_scooter"}, {"bike_id": "e52d8060ac1a900c23e8cc77bbe074c5", "is_reserved": 0, "fusion_lon": 0.0, "lat": 38.9014485, "is_disabled": 0, "name": "e52d8060ac1a900c23e8cc77bbe074c5", "fusion_lat": 0.0, "rental_uris": {"ios": "https://dc.lft.to/lastmile_qr_scan", "android": "https://dc.lft.to/lastmile_qr_scan"}, "lon": -77.044795, "type": "electric_scooter"}, {"bike_id": "7b7d79158b854e8c6916692c86de4ced", "is_reserved": 0, "fusion_lon": 0.0, "lat": 38.8793675, "is_disabled": 0, "name": "7b7d79158b854e8c6916692c86de4ced", "fusion_lat": 0.0, "rental_uris": {"ios": "https://dc.lft.to/lastmile_qr_scan", "android": "https://dc.lft.to/lastmile_qr_scan"}, "lon": -77.00404133333333, "type": "electric_scooter"}, {"bike_id": "580bcbd178dca404aa3ba95f87abaf76", "is_reserved": 0, "fusion_lon": 0.0, "lat": 38.894715, "is_disabled": 0, "name": "580bcbd178dca404aa3ba95f87abaf76", "fusion_lat": 0.0, "rental_uris": {"ios": "https://dc.lft.to/lastmile_qr_scan", "android": "https://dc.lft.to/lastmile_qr_scan"}, "lon": -76.98400733333334, "type": "electric_scooter"}, {"bike_id": "79a7a80b64c8a74f1b89b8cad1d05849", "is_reserved": 0, "fusion_lon": 0.0, "lat": 38.90069283333333, "is_disabled": 0, "name": "79a7a80b64c8a74f1b89b8cad1d05849", "fusion_lat": 0.0, "rental_uris": {"ios": "https://dc.lft.to/lastmile_qr_scan", "android": "https://dc.lft.to/lastmile_qr_scan"}, "lon": -77.05009, "type": "electric_scooter"}, {"bike_id": "46a44a99f046f1561d80a6979e173e31", "is_reserved": 0, "fusion_lon": 0.0, "lat": 38.896202, "is_disabled": 0, "name": "46a44a99f046f1561d80a6979e173e31", "fusion_lat": 0.0, "rental_uris": {"ios": "https://dc.lft.to/lastmile_qr_scan", "android": "https://dc.lft.to/lastmile_qr_scan"}, "lon": -76.98120416666667, "type": "electric_scooter"}, {"bike_id": "2ba4b29e7db2a5f168169031bdf424d3", "is_reserved": 0, "fusion_lon": 0.0, "lat": 38.9108985, "is_disabled": 0, "name": "2ba4b29e7db2a5f168169031bdf424d3", "fusion_lat": 0.0, "rental_uris": {"ios": "https://dc.lft.to/lastmile_qr_scan", "android": "https://dc.lft.to/lastmile_qr_scan"}, "lon": -77.034499, "type": "electric_scooter"}, {"bike_id": "52614769bfa2f6fcaee039fc864bb92e", "is_reserved": 0, "fusion_lon": 0.0, "lat": 38.99091083333333, "is_disabled": 0, "name": "52614769bfa2f6fcaee039fc864bb92e", "fusion_lat": 0.0, "rental_uris": {"ios": "https://dc.lft.to/lastmile_qr_scan", "android": "https://dc.lft.to/lastmile_qr_scan"}, "lon": -76.8749165, "type": "electric_bike"}, {"bike_id": "232052b47fa3195b68e71285793a1708", "is_reserved": 0, "fusion_lon": 0.0, "lat": 38.88413533333333, "is_disabled": 0, "name": "232052b47fa3195b68e71285793a1708", "fusion_lat": 0.0, "rental_uris": {"ios": "https://dc.lft.to/lastmile_qr_scan", "android": "https://dc.lft.to/lastmile_qr_scan"}, "lon": -77.0152825, "type": "electric_scooter"}, {"bike_id": "155176e0a9f9e9c6137588399c4463a7", "is_reserved": 0, "fusion_lon": 0.0, "lat": 38.901995666666664, "is_disabled": 0, "name": "155176e0a9f9e9c6137588399c4463a7", "fusion_lat": 0.0, "rental_uris": {"ios": "https://dc.lft.to/lastmile_qr_scan", "android": "https://dc.lft.to/lastmile_qr_scan"}, "lon": -77.02183583333333, "type": "electric_scooter"}, {"bike_id": "381acab991672efeeea01e119d0f8fa9", "is_reserved": 0, "fusion_lon": 0.0, "lat": 38.828750666666664, "is_disabled": 0, "name": "381acab991672efeeea01e119d0f8fa9", "fusion_lat": 0.0, "rental_uris": {"ios": "https://dc.lft.to/lastmile_qr_scan", "android": "https://dc.lft.to/lastmile_qr_scan"}, "lon": -77.112211, "type": "electric_bike"}, {"bike_id": "72f77ac481aaae4324d78177f67be38a", "is_reserved": 0, "fusion_lon": 0.0, "lat": 38.916760833333335, "is_disabled": 0, "name": "72f77ac481aaae4324d78177f67be38a", "fusion_lat": 0.0, "rental_uris": {"ios": "https://dc.lft.to/lastmile_qr_scan", "android": "https://dc.lft.to/lastmile_qr_scan"}, "lon": -77.03638383333333, "type": "electric_scooter"}, {"bike_id": "7720f8a7d7662ef82b641624185ef86f", "is_reserved": 0, "fusion_lon": 0.0, "lat": 38.91980983333333, "is_disabled": 0, "name": "7720f8a7d7662ef82b641624185ef86f", "fusion_lat": 0.0, "rental_uris": {"ios": "https://dc.lft.to/lastmile_qr_scan", "android": "https://dc.lft.to/lastmile_qr_scan"}, "lon": -77.02387733333333, "type": "electric_scooter"}, {"bike_id": "2278eb2b2370a21abd39f4adb3732c98", "is_reserved": 0, "fusion_lon": 0.0, "lat": 38.919946333333336, "is_disabled": 0, "name": "2278eb2b2370a21abd39f4adb3732c98", "fusion_lat": 0.0, "rental_uris": {"ios": "https://dc.lft.to/lastmile_qr_scan", "android": "https://dc.lft.to/lastmile_qr_scan"}, "lon": -77.03226083333334, "type": "electric_scooter"}, {"bike_id": "791effb19895f27ae06a69163307b6a0", "is_reserved": 0, "fusion_lon": 0.0, "lat": 38.9361285, "is_disabled": 0, "name": "791effb19895f27ae06a69163307b6a0", "fusion_lat": 0.0, "rental_uris": {"ios": "https://dc.lft.to/lastmile_qr_scan", "android": "https://dc.lft.to/lastmile_qr_scan"}, "lon": -77.05864683333333, "type": "electric_scooter"}, {"bike_id": "bf07ae00b4cf32eff999a520b76fc7ba", "is_reserved": 0, "fusion_lon": 0.0, "lat": 38.901060333333334, "is_disabled": 0, "name": "bf07ae00b4cf32eff999a520b76fc7ba", "fusion_lat": 0.0, "rental_uris": {"ios": "https://dc.lft.to/lastmile_qr_scan", "android": "https://dc.lft.to/lastmile_qr_scan"}, "lon": -77.048754, "type": "electric_scooter"}, {"bike_id": "f653e071178a518ea349ca46db73d758", "is_reserved": 0, "fusion_lon": 0.0, "lat": 38.90016133333334, "is_disabled": 0, "name": "f653e071178a518ea349ca46db73d758", "fusion_lat": 0.0, "rental_uris": {"ios": "https://dc.lft.to/lastmile_qr_scan", "android": "https://dc.lft.to/lastmile_qr_scan"}, "lon": -77.0134995, "type": "electric_scooter"}, {"bike_id": "cd1d344ef7b0267abdb79bd6dce6b242", "is_reserved": 0, "fusion_lon": 0.0, "lat": 38.917970833333335, "is_disabled": 0, "name": "cd1d344ef7b0267abdb79bd6dce6b242", "fusion_lat": 0.0, "rental_uris": {"ios": "https://dc.lft.to/lastmile_qr_scan", "android": "https://dc.lft.to/lastmile_qr_scan"}, "lon": -77.03435366666666, "type": "electric_scooter"}, {"bike_id": "b47862fb72c50b183e8a8aa09548360d", "is_reserved": 0, "fusion_lon": 0.0, "lat": 38.899051, "is_disabled": 0, "name": "b47862fb72c50b183e8a8aa09548360d", "fusion_lat": 0.0, "rental_uris": {"ios": "https://dc.lft.to/lastmile_qr_scan", "android": "https://dc.lft.to/lastmile_qr_scan"}, "lon": -76.933507, "type": "electric_scooter"}, {"bike_id": "4f216d541243fe8d52a9c775f4be53de", "is_reserved": 0, "fusion_lon": 0.0, "lat": 38.9156505, "is_disabled": 0, "name": "4f216d541243fe8d52a9c775f4be53de", "fusion_lat": 0.0, "rental_uris": {"ios": "https://dc.lft.to/lastmile_qr_scan", "android": "https://dc.lft.to/lastmile_qr_scan"}, "lon": -77.03862766666667, "type": "electric_scooter"}, {"bike_id": "95397710a34afee8783837b2b50b2504", "is_reserved": 0, "fusion_lon": 0.0, "lat": 38.907978666666665, "is_disabled": 0, "name": "95397710a34afee8783837b2b50b2504", "fusion_lat": 0.0, "rental_uris": {"ios": "https://dc.lft.to/lastmile_qr_scan", "android": "https://dc.lft.to/lastmile_qr_scan"}, "lon": -76.99699066666666, "type": "electric_scooter"}, {"bike_id": "2bb90c9f81e3cebfc29c5340d5536425", "is_reserved": 0, "fusion_lon": 0.0, "lat": 38.90008916666667, "is_disabled": 0, "name": "2bb90c9f81e3cebfc29c5340d5536425", "fusion_lat": 0.0, "rental_uris": {"ios": "https://dc.lft.to/lastmile_qr_scan", "android": "https://dc.lft.to/lastmile_qr_scan"}, "lon": -76.98811183333333, "type": "electric_scooter"}, {"bike_id": "840e25f5b57f4fc5c4dfd5edbdf9903f", "is_reserved": 0, "fusion_lon": 0.0, "lat": 38.858098166666664, "is_disabled": 0, "name": "840e25f5b57f4fc5c4dfd5edbdf9903f", "fusion_lat": 0.0, "rental_uris": {"ios": "https://dc.lft.to/lastmile_qr_scan", "android": "https://dc.lft.to/lastmile_qr_scan"}, "lon": -76.98650733333334, "type": "electric_scooter"}, {"bike_id": "157649637e4bb66677debd375b79c40d", "is_reserved": 0, "fusion_lon": 0.0, "lat": 38.924446333333336, "is_disabled": 0, "name": "157649637e4bb66677debd375b79c40d", "fusion_lat": 0.0, "rental_uris": {"ios": "https://dc.lft.to/lastmile_qr_scan", "android": "https://dc.lft.to/lastmile_qr_scan"}, "lon": -77.04105916666667, "type": "electric_scooter"}, {"bike_id": "a13f5238a9a586946d10499a7ea2a1fb", "is_reserved": 0, "fusion_lon": 0.0, "lat": 38.89956383333333, "is_disabled": 0, "name": "a13f5238a9a586946d10499a7ea2a1fb", "fusion_lat": 0.0, "rental_uris": {"ios": "https://dc.lft.to/lastmile_qr_scan", "android": "https://dc.lft.to/lastmile_qr_scan"}, "lon": -77.05053383333333, "type": "electric_scooter"}, {"bike_id": "f1b0f8cd7c0989132faed98bc530cb34", "is_reserved": 0, "fusion_lon": 0.0, "lat": 38.90872133333333, "is_disabled": 0, "name": "f1b0f8cd7c0989132faed98bc530cb34", "fusion_lat": 0.0, "rental_uris": {"ios": "https://dc.lft.to/lastmile_qr_scan", "android": "https://dc.lft.to/lastmile_qr_scan"}, "lon": -77.0859265, "type": "electric_scooter"}, {"bike_id": "a122ac7f7c20edf06a1deaf7a1f6d65a", "is_reserved": 0, "fusion_lon": 0.0, "lat": 38.94183916666667, "is_disabled": 0, "name": "a122ac7f7c20edf06a1deaf7a1f6d65a", "fusion_lat": 0.0, "rental_uris": {"ios": "https://dc.lft.to/lastmile_qr_scan", "android": "https://dc.lft.to/lastmile_qr_scan"}, "lon": -77.03090016666667, "type": "electric_scooter"}, {"bike_id": "5cf0bcda2bfbc1a418caf1e6e84fb75e", "is_reserved": 0, "fusion_lon": 0.0, "lat": 38.91722516666667, "is_disabled": 0, "name": "5cf0bcda2bfbc1a418caf1e6e84fb75e", "fusion_lat": 0.0, "rental_uris": {"ios": "https://dc.lft.to/lastmile_qr_scan", "android": "https://dc.lft.to/lastmile_qr_scan"}, "lon": -77.0383735, "type": "electric_scooter"}, {"bike_id": "e9db3b84a3ebb509d7cde98e1d3beec2", "is_reserved": 0, "fusion_lon": 0.0, "lat": 38.90200983333333, "is_disabled": 0, "name": "e9db3b84a3ebb509d7cde98e1d3beec2", "fusion_lat": 0.0, "rental_uris": {"ios": "https://dc.lft.to/lastmile_qr_scan", "android": "https://dc.lft.to/lastmile_qr_scan"}, "lon": -76.94192, "type": "electric_scooter"}, {"bike_id": "319796db30e5d0ad0ede9bfe1347ddf7", "is_reserved": 0, "fusion_lon": 0.0, "lat": 38.87189433333333, "is_disabled": 0, "name": "319796db30e5d0ad0ede9bfe1347ddf7", "fusion_lat": 0.0, "rental_uris": {"ios": "https://dc.lft.to/lastmile_qr_scan", "android": "https://dc.lft.to/lastmile_qr_scan"}, "lon": -77.01227133333333, "type": "electric_scooter"}, {"bike_id": "b666bfebb4d17a839b238892ce7e9c75", "is_reserved": 0, "fusion_lon": 0.0, "lat": 38.928445833333335, "is_disabled": 0, "name": "b666bfebb4d17a839b238892ce7e9c75", "fusion_lat": 0.0, "rental_uris": {"ios": "https://dc.lft.to/lastmile_qr_scan", "android": "https://dc.lft.to/lastmile_qr_scan"}, "lon": -77.020524, "type": "electric_bike"}, {"bike_id": "7e1a397dcc085425766f6b1a5697c746", "is_reserved": 0, "fusion_lon": 0.0, "lat": 38.91123116666667, "is_disabled": 0, "name": "7e1a397dcc085425766f6b1a5697c746", "fusion_lat": 0.0, "rental_uris": {"ios": "https://dc.lft.to/lastmile_qr_scan", "android": "https://dc.lft.to/lastmile_qr_scan"}, "lon": -77.00240483333333, "type": "electric_scooter"}, {"bike_id": "dff1429c8483a5183b8c5310e2c12df5", "is_reserved": 0, "fusion_lon": 0.0, "lat": 38.901998666666664, "is_disabled": 0, "name": "dff1429c8483a5183b8c5310e2c12df5", "fusion_lat": 0.0, "rental_uris": {"ios": "https://dc.lft.to/lastmile_qr_scan", "android": "https://dc.lft.to/lastmile_qr_scan"}, "lon": -77.02370833333333, "type": "electric_scooter"}, {"bike_id": "2bd80f4661270ad19fa682ded0098a71", "is_reserved": 0, "fusion_lon": 0.0, "lat": 38.854391, "is_disabled": 0, "name": "2bd80f4661270ad19fa682ded0098a71", "fusion_lat": 0.0, "rental_uris": {"ios": "https://dc.lft.to/lastmile_qr_scan", "android": "https://dc.lft.to/lastmile_qr_scan"}, "lon": -77.11706266666667, "type": "electric_bike"}, {"bike_id": "164e80e6b2b25bc24e033562c99e9e45", "is_reserved": 0, "fusion_lon": 0.0, "lat": 38.887385333333334, "is_disabled": 0, "name": "164e80e6b2b25bc24e033562c99e9e45", "fusion_lat": 0.0, "rental_uris": {"ios": "https://dc.lft.to/lastmile_qr_scan", "android": "https://dc.lft.to/lastmile_qr_scan"}, "lon": -77.01533416666666, "type": "electric_scooter"}, {"bike_id": "4f6b85b87a0a9c54b224defe9dec45c5", "is_reserved": 0, "fusion_lon": 0.0, "lat": 38.8978505, "is_disabled": 0, "name": "4f6b85b87a0a9c54b224defe9dec45c5", "fusion_lat": 0.0, "rental_uris": {"ios": "https://dc.lft.to/lastmile_qr_scan", "android": "https://dc.lft.to/lastmile_qr_scan"}, "lon": -77.00721183333333, "type": "electric_scooter"}, {"bike_id": "3778f7505cd13a153a85fd934539c062", "is_reserved": 0, "fusion_lon": 0.0, "lat": 38.87460933333333, "is_disabled": 0, "name": "3778f7505cd13a153a85fd934539c062", "fusion_lat": 0.0, "rental_uris": {"ios": "https://dc.lft.to/lastmile_qr_scan", "android": "https://dc.lft.to/lastmile_qr_scan"}, "lon": -77.00542616666667, "type": "electric_scooter"}, {"bike_id": "0c9e27f57928b685f0295b615844ab58", "is_reserved": 0, "fusion_lon": 0.0, "lat": 38.922449666666665, "is_disabled": 0, "name": "0c9e27f57928b685f0295b615844ab58", "fusion_lat": 0.0, "rental_uris": {"ios": "https://dc.lft.to/lastmile_qr_scan", "android": "https://dc.lft.to/lastmile_qr_scan"}, "lon": -77.036632, "type": "electric_scooter"}, {"bike_id": "c38416fddfdb0e60d7f61e302d52b4b8", "is_reserved": 0, "fusion_lon": 0.0, "lat": 38.90611833333333, "is_disabled": 0, "name": "c38416fddfdb0e60d7f61e302d52b4b8", "fusion_lat": 0.0, "rental_uris": {"ios": "https://dc.lft.to/lastmile_qr_scan", "android": "https://dc.lft.to/lastmile_qr_scan"}, "lon": -77.03954266666666, "type": "electric_scooter"}, {"bike_id": "f3aa681893958448322b53d28dabb06c", "is_reserved": 0, "fusion_lon": 0.0, "lat": 38.9032715, "is_disabled": 0, "name": "f3aa681893958448322b53d28dabb06c", "fusion_lat": 0.0, "rental_uris": {"ios": "https://dc.lft.to/lastmile_qr_scan", "android": "https://dc.lft.to/lastmile_qr_scan"}, "lon": -77.03796366666667, "type": "electric_scooter"}, {"bike_id": "9eeeca2243e8ce6be14f2b482f40b35d", "is_reserved": 0, "fusion_lon": 0.0, "lat": 38.93889333333333, "is_disabled": 0, "name": "9eeeca2243e8ce6be14f2b482f40b35d", "fusion_lat": 0.0, "rental_uris": {"ios": "https://dc.lft.to/lastmile_qr_scan", "android": "https://dc.lft.to/lastmile_qr_scan"}, "lon": -77.03343466666666, "type": "electric_scooter"}, {"bike_id": "6df074cf2756fc1a0f8ea9513f195eb9", "is_reserved": 0, "fusion_lon": 0.0, "lat": 38.92154433333333, "is_disabled": 0, "name": "6df074cf2756fc1a0f8ea9513f195eb9", "fusion_lat": 0.0, "rental_uris": {"ios": "https://dc.lft.to/lastmile_qr_scan", "android": "https://dc.lft.to/lastmile_qr_scan"}, "lon": -77.0353195, "type": "electric_scooter"}, {"bike_id": "0102a07d86d65c5bd10511e7eba49471", "is_reserved": 0, "fusion_lon": 0.0, "lat": 38.909692, "is_disabled": 0, "name": "0102a07d86d65c5bd10511e7eba49471", "fusion_lat": 0.0, "rental_uris": {"ios": "https://dc.lft.to/lastmile_qr_scan", "android": "https://dc.lft.to/lastmile_qr_scan"}, "lon": -77.02722183333333, "type": "electric_scooter"}, {"bike_id": "6afcf4cf8a775c5068a31ed346979771", "is_reserved": 0, "fusion_lon": 0.0, "lat": 38.8850475, "is_disabled": 0, "name": "6afcf4cf8a775c5068a31ed346979771", "fusion_lat": 0.0, "rental_uris": {"ios": "https://dc.lft.to/lastmile_qr_scan", "android": "https://dc.lft.to/lastmile_qr_scan"}, "lon": -77.00565766666666, "type": "electric_scooter"}, {"bike_id": "a4a9602967f69d986bb962c0d422cc8e", "is_reserved": 0, "fusion_lon": 0.0, "lat": 38.928852666666664, "is_disabled": 0, "name": "a4a9602967f69d986bb962c0d422cc8e", "fusion_lat": 0.0, "rental_uris": {"ios": "https://dc.lft.to/lastmile_qr_scan", "android": "https://dc.lft.to/lastmile_qr_scan"}, "lon": -77.03759083333334, "type": "electric_scooter"}, {"bike_id": "5734fcb0eec66fcbe5c68421dc03d503", "is_reserved": 0, "fusion_lon": 0.0, "lat": 38.92042333333333, "is_disabled": 0, "name": "5734fcb0eec66fcbe5c68421dc03d503", "fusion_lat": 0.0, "rental_uris": {"ios": "https://dc.lft.to/lastmile_qr_scan", "android": "https://dc.lft.to/lastmile_qr_scan"}, "lon": -76.9790745, "type": "electric_scooter"}, {"bike_id": "c743f02c54fed25e1ac2138e98135a07", "is_reserved": 0, "fusion_lon": 0.0, "lat": 38.918479833333336, "is_disabled": 0, "name": "c743f02c54fed25e1ac2138e98135a07", "fusion_lat": 0.0, "rental_uris": {"ios": "https://dc.lft.to/lastmile_qr_scan", "android": "https://dc.lft.to/lastmile_qr_scan"}, "lon": -77.02304166666667, "type": "electric_scooter"}, {"bike_id": "abee57d2e0343bc2ba7d0bb27323d208", "is_reserved": 0, "fusion_lon": 0.0, "lat": 38.959126, "is_disabled": 0, "name": "abee57d2e0343bc2ba7d0bb27323d208", "fusion_lat": 0.0, "rental_uris": {"ios": "https://dc.lft.to/lastmile_qr_scan", "android": "https://dc.lft.to/lastmile_qr_scan"}, "lon": -77.00154066666667, "type": "electric_bike"}, {"bike_id": "b6e80141e54ca6885b699fdd8322e150", "is_reserved": 0, "fusion_lon": 0.0, "lat": 38.903740666666664, "is_disabled": 0, "name": "b6e80141e54ca6885b699fdd8322e150", "fusion_lat": 0.0, "rental_uris": {"ios": "https://dc.lft.to/lastmile_qr_scan", "android": "https://dc.lft.to/lastmile_qr_scan"}, "lon": -77.039805, "type": "electric_scooter"}, {"bike_id": "c8cdcb078db2e204bbc57d48019dd078", "is_reserved": 0, "fusion_lon": 0.0, "lat": 38.93665516666667, "is_disabled": 0, "name": "c8cdcb078db2e204bbc57d48019dd078", "fusion_lat": 0.0, "rental_uris": {"ios": "https://dc.lft.to/lastmile_qr_scan", "android": "https://dc.lft.to/lastmile_qr_scan"}, "lon": -77.03635866666667, "type": "electric_scooter"}, {"bike_id": "e903c3211f2f7b161e318c135589e6d8", "is_reserved": 0, "fusion_lon": 0.0, "lat": 38.904646, "is_disabled": 0, "name": "e903c3211f2f7b161e318c135589e6d8", "fusion_lat": 0.0, "rental_uris": {"ios": "https://dc.lft.to/lastmile_qr_scan", "android": "https://dc.lft.to/lastmile_qr_scan"}, "lon": -77.0293635, "type": "electric_scooter"}, {"bike_id": "fd9fb87dceeb3e9953c7a5347f666959", "is_reserved": 0, "fusion_lon": 0.0, "lat": 38.88220666666667, "is_disabled": 0, "name": "fd9fb87dceeb3e9953c7a5347f666959", "fusion_lat": 0.0, "rental_uris": {"ios": "https://dc.lft.to/lastmile_qr_scan", "android": "https://dc.lft.to/lastmile_qr_scan"}, "lon": -76.941789, "type": "electric_scooter"}, {"bike_id": "a47793263dae018aac73dd2ce1ceeefa", "is_reserved": 0, "fusion_lon": 0.0, "lat": 38.903445, "is_disabled": 0, "name": "a47793263dae018aac73dd2ce1ceeefa", "fusion_lat": 0.0, "rental_uris": {"ios": "https://dc.lft.to/lastmile_qr_scan", "android": "https://dc.lft.to/lastmile_qr_scan"}, "lon": -77.03444683333333, "type": "electric_scooter"}, {"bike_id": "89a449e7add8afa49dbb04c8a85ff1cc", "is_reserved": 0, "fusion_lon": 0.0, "lat": 38.902823166666664, "is_disabled": 0, "name": "89a449e7add8afa49dbb04c8a85ff1cc", "fusion_lat": 0.0, "rental_uris": {"ios": "https://dc.lft.to/lastmile_qr_scan", "android": "https://dc.lft.to/lastmile_qr_scan"}, "lon": -77.03642516666666, "type": "electric_scooter"}, {"bike_id": "657693993b411035a14b1eb1623f7681", "is_reserved": 0, "fusion_lon": 0.0, "lat": 38.915957, "is_disabled": 0, "name": "657693993b411035a14b1eb1623f7681", "fusion_lat": 0.0, "rental_uris": {"ios": "https://dc.lft.to/lastmile_qr_scan", "android": "https://dc.lft.to/lastmile_qr_scan"}, "lon": -77.04686583333333, "type": "electric_scooter"}, {"bike_id": "2f9722a27b6e5a3b4a9a0b678eaa81b5", "is_reserved": 0, "fusion_lon": 0.0, "lat": 38.902348333333336, "is_disabled": 0, "name": "2f9722a27b6e5a3b4a9a0b678eaa81b5", "fusion_lat": 0.0, "rental_uris": {"ios": "https://dc.lft.to/lastmile_qr_scan", "android": "https://dc.lft.to/lastmile_qr_scan"}, "lon": -77.0343195, "type": "electric_scooter"}, {"bike_id": "ca21dc92da59934ad82b7e2b476b27f1", "is_reserved": 0, "fusion_lon": 0.0, "lat": 38.92763383333333, "is_disabled": 0, "name": "ca21dc92da59934ad82b7e2b476b27f1", "fusion_lat": 0.0, "rental_uris": {"ios": "https://dc.lft.to/lastmile_qr_scan", "android": "https://dc.lft.to/lastmile_qr_scan"}, "lon": -77.03243766666667, "type": "electric_scooter"}, {"bike_id": "e0d4ae375219dd88e76fe191ded000e6", "is_reserved": 0, "fusion_lon": 0.0, "lat": 38.91197833333333, "is_disabled": 0, "name": "e0d4ae375219dd88e76fe191ded000e6", "fusion_lat": 0.0, "rental_uris": {"ios": "https://dc.lft.to/lastmile_qr_scan", "android": "https://dc.lft.to/lastmile_qr_scan"}, "lon": -77.00724716666667, "type": "electric_scooter"}, {"bike_id": "f9266cded618ec6c24cb07cbf64e31a9", "is_reserved": 0, "fusion_lon": 0.0, "lat": 38.87882466666667, "is_disabled": 0, "name": "f9266cded618ec6c24cb07cbf64e31a9", "fusion_lat": 0.0, "rental_uris": {"ios": "https://dc.lft.to/lastmile_qr_scan", "android": "https://dc.lft.to/lastmile_qr_scan"}, "lon": -76.99157933333333, "type": "electric_scooter"}, {"bike_id": "6ea215890cd801d3801e02ca8fb7d36e", "is_reserved": 0, "fusion_lon": 0.0, "lat": 38.8924885, "is_disabled": 0, "name": "6ea215890cd801d3801e02ca8fb7d36e", "fusion_lat": 0.0, "rental_uris": {"ios": "https://dc.lft.to/lastmile_qr_scan", "android": "https://dc.lft.to/lastmile_qr_scan"}, "lon": -77.031889, "type": "electric_scooter"}, {"bike_id": "6c68dbb772146658a844e8e3d4eeef19", "is_reserved": 0, "fusion_lon": 0.0, "lat": 38.91721966666667, "is_disabled": 0, "name": "6c68dbb772146658a844e8e3d4eeef19", "fusion_lat": 0.0, "rental_uris": {"ios": "https://dc.lft.to/lastmile_qr_scan", "android": "https://dc.lft.to/lastmile_qr_scan"}, "lon": -77.038406, "type": "electric_scooter"}, {"bike_id": "aaf1579781583e6c3dc02bd1c6bdf0eb", "is_reserved": 0, "fusion_lon": 0.0, "lat": 38.920886833333334, "is_disabled": 0, "name": "aaf1579781583e6c3dc02bd1c6bdf0eb", "fusion_lat": 0.0, "rental_uris": {"ios": "https://dc.lft.to/lastmile_qr_scan", "android": "https://dc.lft.to/lastmile_qr_scan"}, "lon": -77.02422416666667, "type": "electric_scooter"}, {"bike_id": "2dc0c0b55f03e06f416c7bb0752cbe42", "is_reserved": 0, "fusion_lon": 0.0, "lat": 38.902914, "is_disabled": 0, "name": "2dc0c0b55f03e06f416c7bb0752cbe42", "fusion_lat": 0.0, "rental_uris": {"ios": "https://dc.lft.to/lastmile_qr_scan", "android": "https://dc.lft.to/lastmile_qr_scan"}, "lon": -77.0364395, "type": "electric_scooter"}, {"bike_id": "ba802645570371f3acf9fe44ca370189", "is_reserved": 0, "fusion_lon": 0.0, "lat": 38.824452666666666, "is_disabled": 0, "name": "ba802645570371f3acf9fe44ca370189", "fusion_lat": 0.0, "rental_uris": {"ios": "https://dc.lft.to/lastmile_qr_scan", "android": "https://dc.lft.to/lastmile_qr_scan"}, "lon": -77.0704965, "type": "electric_bike"}, {"bike_id": "b733e6475878fbeb1e74f8e964f24ee1", "is_reserved": 0, "fusion_lon": 0.0, "lat": 38.933416, "is_disabled": 0, "name": "b733e6475878fbeb1e74f8e964f24ee1", "fusion_lat": 0.0, "rental_uris": {"ios": "https://dc.lft.to/lastmile_qr_scan", "android": "https://dc.lft.to/lastmile_qr_scan"}, "lon": -77.04197983333333, "type": "electric_bike"}, {"bike_id": "701a32dccc9c528e9bd7d08911419e37", "is_reserved": 0, "fusion_lon": 0.0, "lat": 38.9257845, "is_disabled": 0, "name": "701a32dccc9c528e9bd7d08911419e37", "fusion_lat": 0.0, "rental_uris": {"ios": "https://dc.lft.to/lastmile_qr_scan", "android": "https://dc.lft.to/lastmile_qr_scan"}, "lon": -77.03794766666667, "type": "electric_scooter"}, {"bike_id": "3f0e79da1c77e3f233091d76866bf76f", "is_reserved": 0, "fusion_lon": 0.0, "lat": 38.91855566666667, "is_disabled": 0, "name": "3f0e79da1c77e3f233091d76866bf76f", "fusion_lat": 0.0, "rental_uris": {"ios": "https://dc.lft.to/lastmile_qr_scan", "android": "https://dc.lft.to/lastmile_qr_scan"}, "lon": -76.96093333333333, "type": "electric_bike"}, {"bike_id": "0196c211b8cd0230c6db616f57d7cc5d", "is_reserved": 0, "fusion_lon": 0.0, "lat": 38.9555225, "is_disabled": 0, "name": "0196c211b8cd0230c6db616f57d7cc5d", "fusion_lat": 0.0, "rental_uris": {"ios": "https://dc.lft.to/lastmile_qr_scan", "android": "https://dc.lft.to/lastmile_qr_scan"}, "lon": -76.94011616666667, "type": "electric_bike"}, {"bike_id": "5ffc3df3a16211409575caf7f9674f34", "is_reserved": 0, "fusion_lon": 0.0, "lat": 38.922354, "is_disabled": 0, "name": "5ffc3df3a16211409575caf7f9674f34", "fusion_lat": 0.0, "rental_uris": {"ios": "https://dc.lft.to/lastmile_qr_scan", "android": "https://dc.lft.to/lastmile_qr_scan"}, "lon": -77.04137, "type": "electric_scooter"}, {"bike_id": "73b3afcf113ae53673229d76ca4232f8", "is_reserved": 0, "fusion_lon": 0.0, "lat": 38.905673166666666, "is_disabled": 0, "name": "73b3afcf113ae53673229d76ca4232f8", "fusion_lat": 0.0, "rental_uris": {"ios": "https://dc.lft.to/lastmile_qr_scan", "android": "https://dc.lft.to/lastmile_qr_scan"}, "lon": -77.03467783333333, "type": "electric_scooter"}, {"bike_id": "12d5c1b97971230786dd72ffbcde5d85", "is_reserved": 0, "fusion_lon": 0.0, "lat": 38.88007266666666, "is_disabled": 0, "name": "12d5c1b97971230786dd72ffbcde5d85", "fusion_lat": 0.0, "rental_uris": {"ios": "https://dc.lft.to/lastmile_qr_scan", "android": "https://dc.lft.to/lastmile_qr_scan"}, "lon": -76.91596216666667, "type": "electric_bike"}, {"bike_id": "7893f83ac58bcf34b1fa83b91bff17e0", "is_reserved": 0, "fusion_lon": 0.0, "lat": 38.903748, "is_disabled": 0, "name": "7893f83ac58bcf34b1fa83b91bff17e0", "fusion_lat": 0.0, "rental_uris": {"ios": "https://dc.lft.to/lastmile_qr_scan", "android": "https://dc.lft.to/lastmile_qr_scan"}, "lon": -77.03908166666666, "type": "electric_scooter"}, {"bike_id": "f944f3a12cfded7fbbfb272918c48ec1", "is_reserved": 0, "fusion_lon": 0.0, "lat": 38.93514183333333, "is_disabled": 0, "name": "f944f3a12cfded7fbbfb272918c48ec1", "fusion_lat": 0.0, "rental_uris": {"ios": "https://dc.lft.to/lastmile_qr_scan", "android": "https://dc.lft.to/lastmile_qr_scan"}, "lon": -77.03341883333333, "type": "electric_scooter"}, {"bike_id": "221f9810eb8fa97469853ef665bd4212", "is_reserved": 0, "fusion_lon": 0.0, "lat": 38.90898933333333, "is_disabled": 0, "name": "221f9810eb8fa97469853ef665bd4212", "fusion_lat": 0.0, "rental_uris": {"ios": "https://dc.lft.to/lastmile_qr_scan", "android": "https://dc.lft.to/lastmile_qr_scan"}, "lon": -77.086202, "type": "electric_scooter"}, {"bike_id": "f65857eabadcc409b2c48de08a7bcf3a", "is_reserved": 0, "fusion_lon": 0.0, "lat": 38.9234645, "is_disabled": 0, "name": "f65857eabadcc409b2c48de08a7bcf3a", "fusion_lat": 0.0, "rental_uris": {"ios": "https://dc.lft.to/lastmile_qr_scan", "android": "https://dc.lft.to/lastmile_qr_scan"}, "lon": -77.035109, "type": "electric_scooter"}, {"bike_id": "dc8c7d76712b3d68575cc4b98e3e2ae9", "is_reserved": 0, "fusion_lon": 0.0, "lat": 38.883853, "is_disabled": 0, "name": "dc8c7d76712b3d68575cc4b98e3e2ae9", "fusion_lat": 0.0, "rental_uris": {"ios": "https://dc.lft.to/lastmile_qr_scan", "android": "https://dc.lft.to/lastmile_qr_scan"}, "lon": -76.94925833333333, "type": "electric_scooter"}, {"bike_id": "78f9517b0d48b83e0ef02b5857c4e2a0", "is_reserved": 0, "fusion_lon": 0.0, "lat": 38.905682666666664, "is_disabled": 0, "name": "78f9517b0d48b83e0ef02b5857c4e2a0", "fusion_lat": 0.0, "rental_uris": {"ios": "https://dc.lft.to/lastmile_qr_scan", "android": "https://dc.lft.to/lastmile_qr_scan"}, "lon": -77.0306975, "type": "electric_scooter"}, {"bike_id": "e2f02196298093c714d4fa4ca6f6fe75", "is_reserved": 0, "fusion_lon": 0.0, "lat": 38.920915666666666, "is_disabled": 0, "name": "e2f02196298093c714d4fa4ca6f6fe75", "fusion_lat": 0.0, "rental_uris": {"ios": "https://dc.lft.to/lastmile_qr_scan", "android": "https://dc.lft.to/lastmile_qr_scan"}, "lon": -77.024272, "type": "electric_scooter"}, {"bike_id": "df66481363658f3547ecf504f316d728", "is_reserved": 0, "fusion_lon": 0.0, "lat": 38.925578, "is_disabled": 0, "name": "df66481363658f3547ecf504f316d728", "fusion_lat": 0.0, "rental_uris": {"ios": "https://dc.lft.to/lastmile_qr_scan", "android": "https://dc.lft.to/lastmile_qr_scan"}, "lon": -77.07327066666667, "type": "electric_bike"}, {"bike_id": "836a9c03de423096b07b556befc0da8d", "is_reserved": 0, "fusion_lon": 0.0, "lat": 38.91122633333333, "is_disabled": 0, "name": "836a9c03de423096b07b556befc0da8d", "fusion_lat": 0.0, "rental_uris": {"ios": "https://dc.lft.to/lastmile_qr_scan", "android": "https://dc.lft.to/lastmile_qr_scan"}, "lon": -77.03841733333333, "type": "electric_scooter"}, {"bike_id": "783e1e129620597290f5a6257ddb5611", "is_reserved": 0, "fusion_lon": 0.0, "lat": 38.85874166666667, "is_disabled": 0, "name": "783e1e129620597290f5a6257ddb5611", "fusion_lat": 0.0, "rental_uris": {"ios": "https://dc.lft.to/lastmile_qr_scan", "android": "https://dc.lft.to/lastmile_qr_scan"}, "lon": -77.0955575, "type": "electric_bike"}, {"bike_id": "817202ebe2f82788e54a63ba87a9f9b2", "is_reserved": 0, "fusion_lon": 0.0, "lat": 38.89855283333333, "is_disabled": 0, "name": "817202ebe2f82788e54a63ba87a9f9b2", "fusion_lat": 0.0, "rental_uris": {"ios": "https://dc.lft.to/lastmile_qr_scan", "android": "https://dc.lft.to/lastmile_qr_scan"}, "lon": -76.9903365, "type": "electric_scooter"}, {"bike_id": "54bba2dd8541d1804f13711f37224be8", "is_reserved": 0, "fusion_lon": 0.0, "lat": 38.90104933333333, "is_disabled": 0, "name": "54bba2dd8541d1804f13711f37224be8", "fusion_lat": 0.0, "rental_uris": {"ios": "https://dc.lft.to/lastmile_qr_scan", "android": "https://dc.lft.to/lastmile_qr_scan"}, "lon": -77.0316095, "type": "electric_scooter"}, {"bike_id": "4010ebaee6a45ddafdc1001bd2256d9c", "is_reserved": 0, "fusion_lon": 0.0, "lat": 38.871414, "is_disabled": 0, "name": "4010ebaee6a45ddafdc1001bd2256d9c", "fusion_lat": 0.0, "rental_uris": {"ios": "https://dc.lft.to/lastmile_qr_scan", "android": "https://dc.lft.to/lastmile_qr_scan"}, "lon": -76.9773965, "type": "electric_scooter"}, {"bike_id": "2a718be07d1bd785fa6792df9c922254", "is_reserved": 0, "fusion_lon": 0.0, "lat": 38.901981666666664, "is_disabled": 0, "name": "2a718be07d1bd785fa6792df9c922254", "fusion_lat": 0.0, "rental_uris": {"ios": "https://dc.lft.to/lastmile_qr_scan", "android": "https://dc.lft.to/lastmile_qr_scan"}, "lon": -77.0217695, "type": "electric_scooter"}, {"bike_id": "88503f8725ede3f2e539648940b97d7f", "is_reserved": 0, "fusion_lon": 0.0, "lat": 38.85291633333333, "is_disabled": 0, "name": "88503f8725ede3f2e539648940b97d7f", "fusion_lat": 0.0, "rental_uris": {"ios": "https://dc.lft.to/lastmile_qr_scan", "android": "https://dc.lft.to/lastmile_qr_scan"}, "lon": -77.05274466666667, "type": "electric_bike"}, {"bike_id": "c9e88a7824c1a71ceb8f0b31eebbfa7a", "is_reserved": 0, "fusion_lon": 0.0, "lat": 38.911273, "is_disabled": 0, "name": "c9e88a7824c1a71ceb8f0b31eebbfa7a", "fusion_lat": 0.0, "rental_uris": {"ios": "https://dc.lft.to/lastmile_qr_scan", "android": "https://dc.lft.to/lastmile_qr_scan"}, "lon": -77.02180716666666, "type": "electric_scooter"}, {"bike_id": "ee59ba9721e7da10c70e909f1dd5210e", "is_reserved": 0, "fusion_lon": 0.0, "lat": 38.863757, "is_disabled": 0, "name": "ee59ba9721e7da10c70e909f1dd5210e", "fusion_lat": 0.0, "rental_uris": {"ios": "https://dc.lft.to/lastmile_qr_scan", "android": "https://dc.lft.to/lastmile_qr_scan"}, "lon": -76.9905815, "type": "electric_scooter"}, {"bike_id": "8a9a7ce5dec9d8bb7cd330d8f9c3250c", "is_reserved": 0, "fusion_lon": 0.0, "lat": 38.88728283333333, "is_disabled": 0, "name": "8a9a7ce5dec9d8bb7cd330d8f9c3250c", "fusion_lat": 0.0, "rental_uris": {"ios": "https://dc.lft.to/lastmile_qr_scan", "android": "https://dc.lft.to/lastmile_qr_scan"}, "lon": -77.02583516666667, "type": "electric_scooter"}, {"bike_id": "5b5431f7288e67e1665f6454bb184df2", "is_reserved": 0, "fusion_lon": 0.0, "lat": 38.919971333333336, "is_disabled": 0, "name": "5b5431f7288e67e1665f6454bb184df2", "fusion_lat": 0.0, "rental_uris": {"ios": "https://dc.lft.to/lastmile_qr_scan", "android": "https://dc.lft.to/lastmile_qr_scan"}, "lon": -77.03888066666667, "type": "electric_scooter"}, {"bike_id": "e4a3356d7b121b8ba032de0d4767193f", "is_reserved": 0, "fusion_lon": 0.0, "lat": 38.924809, "is_disabled": 0, "name": "e4a3356d7b121b8ba032de0d4767193f", "fusion_lat": 0.0, "rental_uris": {"ios": "https://dc.lft.to/lastmile_qr_scan", "android": "https://dc.lft.to/lastmile_qr_scan"}, "lon": -77.0521085, "type": "electric_scooter"}, {"bike_id": "10f655171d8ea1ad527f05b58cf45ae4", "is_reserved": 0, "fusion_lon": 0.0, "lat": 38.92515433333333, "is_disabled": 0, "name": "10f655171d8ea1ad527f05b58cf45ae4", "fusion_lat": 0.0, "rental_uris": {"ios": "https://dc.lft.to/lastmile_qr_scan", "android": "https://dc.lft.to/lastmile_qr_scan"}, "lon": -77.01929, "type": "electric_scooter"}, {"bike_id": "632fd2532a7bb58dfd58cea6e6e39c70", "is_reserved": 0, "fusion_lon": 0.0, "lat": 38.86526083333333, "is_disabled": 0, "name": "632fd2532a7bb58dfd58cea6e6e39c70", "fusion_lat": 0.0, "rental_uris": {"ios": "https://dc.lft.to/lastmile_qr_scan", "android": "https://dc.lft.to/lastmile_qr_scan"}, "lon": -76.99024616666667, "type": "electric_scooter"}, {"bike_id": "efd11360574a2f892ee610bb75c2dfd7", "is_reserved": 0, "fusion_lon": 0.0, "lat": 38.9069195, "is_disabled": 0, "name": "efd11360574a2f892ee610bb75c2dfd7", "fusion_lat": 0.0, "rental_uris": {"ios": "https://dc.lft.to/lastmile_qr_scan", "android": "https://dc.lft.to/lastmile_qr_scan"}, "lon": -77.037548, "type": "electric_scooter"}, {"bike_id": "beca0b68895fe0e9f0bab8e98bbf76d5", "is_reserved": 0, "fusion_lon": 0.0, "lat": 38.90366366666667, "is_disabled": 0, "name": "beca0b68895fe0e9f0bab8e98bbf76d5", "fusion_lat": 0.0, "rental_uris": {"ios": "https://dc.lft.to/lastmile_qr_scan", "android": "https://dc.lft.to/lastmile_qr_scan"}, "lon": -77.04350616666666, "type": "electric_scooter"}, {"bike_id": "558f1cd5bf8f18b275c81686071b4c0e", "is_reserved": 0, "fusion_lon": 0.0, "lat": 38.9073475, "is_disabled": 0, "name": "558f1cd5bf8f18b275c81686071b4c0e", "fusion_lat": 0.0, "rental_uris": {"ios": "https://dc.lft.to/lastmile_qr_scan", "android": "https://dc.lft.to/lastmile_qr_scan"}, "lon": -77.03218566666666, "type": "electric_scooter"}, {"bike_id": "800cf3c2a31a9cd05c7181750458a4ae", "is_reserved": 0, "fusion_lon": 0.0, "lat": 38.90567866666667, "is_disabled": 0, "name": "800cf3c2a31a9cd05c7181750458a4ae", "fusion_lat": 0.0, "rental_uris": {"ios": "https://dc.lft.to/lastmile_qr_scan", "android": "https://dc.lft.to/lastmile_qr_scan"}, "lon": -77.0058765, "type": "electric_scooter"}, {"bike_id": "7b2da186562ce948729eceeb19dd32fd", "is_reserved": 0, "fusion_lon": 0.0, "lat": 38.91103316666667, "is_disabled": 0, "name": "7b2da186562ce948729eceeb19dd32fd", "fusion_lat": 0.0, "rental_uris": {"ios": "https://dc.lft.to/lastmile_qr_scan", "android": "https://dc.lft.to/lastmile_qr_scan"}, "lon": -77.00275883333333, "type": "electric_scooter"}, {"bike_id": "6d7bc9bcfb3e9dd28d483716a40ef570", "is_reserved": 0, "fusion_lon": 0.0, "lat": 38.907122666666666, "is_disabled": 0, "name": "6d7bc9bcfb3e9dd28d483716a40ef570", "fusion_lat": 0.0, "rental_uris": {"ios": "https://dc.lft.to/lastmile_qr_scan", "android": "https://dc.lft.to/lastmile_qr_scan"}, "lon": -77.03207883333333, "type": "electric_scooter"}, {"bike_id": "831db37e7c1d6c5ccbf487fe0a264c5c", "is_reserved": 0, "fusion_lon": 0.0, "lat": 38.915891333333335, "is_disabled": 0, "name": "831db37e7c1d6c5ccbf487fe0a264c5c", "fusion_lat": 0.0, "rental_uris": {"ios": "https://dc.lft.to/lastmile_qr_scan", "android": "https://dc.lft.to/lastmile_qr_scan"}, "lon": -77.01245, "type": "electric_scooter"}, {"bike_id": "27d7186c404d6f276c915968cddcd678", "is_reserved": 0, "fusion_lon": 0.0, "lat": 38.9267655, "is_disabled": 0, "name": "27d7186c404d6f276c915968cddcd678", "fusion_lat": 0.0, "rental_uris": {"ios": "https://dc.lft.to/lastmile_qr_scan", "android": "https://dc.lft.to/lastmile_qr_scan"}, "lon": -76.99538033333333, "type": "electric_scooter"}, {"bike_id": "72d956bb76c13f7bbee2f8cd9b04b5dd", "is_reserved": 0, "fusion_lon": 0.0, "lat": 38.917669333333336, "is_disabled": 0, "name": "72d956bb76c13f7bbee2f8cd9b04b5dd", "fusion_lat": 0.0, "rental_uris": {"ios": "https://dc.lft.to/lastmile_qr_scan", "android": "https://dc.lft.to/lastmile_qr_scan"}, "lon": -77.0473675, "type": "electric_scooter"}, {"bike_id": "b6e46dcf259bd88d57bd9872745dee8e", "is_reserved": 0, "fusion_lon": 0.0, "lat": 38.901813, "is_disabled": 0, "name": "b6e46dcf259bd88d57bd9872745dee8e", "fusion_lat": 0.0, "rental_uris": {"ios": "https://dc.lft.to/lastmile_qr_scan", "android": "https://dc.lft.to/lastmile_qr_scan"}, "lon": -76.98078083333333, "type": "electric_scooter"}, {"bike_id": "3770322da966004539b81877c007f729", "is_reserved": 0, "fusion_lon": 0.0, "lat": 38.9071495, "is_disabled": 0, "name": "3770322da966004539b81877c007f729", "fusion_lat": 0.0, "rental_uris": {"ios": "https://dc.lft.to/lastmile_qr_scan", "android": "https://dc.lft.to/lastmile_qr_scan"}, "lon": -77.02935216666667, "type": "electric_scooter"}, {"bike_id": "95c42dacf458a9629bb16baf18b465b0", "is_reserved": 0, "fusion_lon": 0.0, "lat": 38.90269216666667, "is_disabled": 0, "name": "95c42dacf458a9629bb16baf18b465b0", "fusion_lat": 0.0, "rental_uris": {"ios": "https://dc.lft.to/lastmile_qr_scan", "android": "https://dc.lft.to/lastmile_qr_scan"}, "lon": -77.03960983333333, "type": "electric_scooter"}, {"bike_id": "1f31e1b8cc6e0ef397fd7c4bf29b126c", "is_reserved": 0, "fusion_lon": 0.0, "lat": 38.87632933333333, "is_disabled": 0, "name": "1f31e1b8cc6e0ef397fd7c4bf29b126c", "fusion_lat": 0.0, "rental_uris": {"ios": "https://dc.lft.to/lastmile_qr_scan", "android": "https://dc.lft.to/lastmile_qr_scan"}, "lon": -76.96527533333334, "type": "electric_scooter"}, {"bike_id": "e714779abdf4e8ac73baee69043bedf9", "is_reserved": 0, "fusion_lon": 0.0, "lat": 38.893296, "is_disabled": 0, "name": "e714779abdf4e8ac73baee69043bedf9", "fusion_lat": 0.0, "rental_uris": {"ios": "https://dc.lft.to/lastmile_qr_scan", "android": "https://dc.lft.to/lastmile_qr_scan"}, "lon": -76.929941, "type": "electric_scooter"}, {"bike_id": "dc16933ddd376d03be84bfef9d27ebfc", "is_reserved": 0, "fusion_lon": 0.0, "lat": 38.965095, "is_disabled": 0, "name": "dc16933ddd376d03be84bfef9d27ebfc", "fusion_lat": 0.0, "rental_uris": {"ios": "https://dc.lft.to/lastmile_qr_scan", "android": "https://dc.lft.to/lastmile_qr_scan"}, "lon": -77.028166, "type": "electric_bike"}, {"bike_id": "cde848929ba45c0a0ec09ccc59ace70b", "is_reserved": 0, "fusion_lon": 0.0, "lat": 38.899819666666666, "is_disabled": 0, "name": "cde848929ba45c0a0ec09ccc59ace70b", "fusion_lat": 0.0, "rental_uris": {"ios": "https://dc.lft.to/lastmile_qr_scan", "android": "https://dc.lft.to/lastmile_qr_scan"}, "lon": -76.99148733333334, "type": "electric_scooter"}, {"bike_id": "dc7d0f924e4a074d2e4fc9162d0e431a", "is_reserved": 0, "fusion_lon": 0.0, "lat": 38.923233, "is_disabled": 0, "name": "dc7d0f924e4a074d2e4fc9162d0e431a", "fusion_lat": 0.0, "rental_uris": {"ios": "https://dc.lft.to/lastmile_qr_scan", "android": "https://dc.lft.to/lastmile_qr_scan"}, "lon": -77.02962283333333, "type": "electric_scooter"}, {"bike_id": "97d0b1536d1734b6af37a6cf8719ccc6", "is_reserved": 0, "fusion_lon": 0.0, "lat": 38.80692583333333, "is_disabled": 0, "name": "97d0b1536d1734b6af37a6cf8719ccc6", "fusion_lat": 0.0, "rental_uris": {"ios": "https://dc.lft.to/lastmile_qr_scan", "android": "https://dc.lft.to/lastmile_qr_scan"}, "lon": -77.05975083333334, "type": "electric_bike"}, {"bike_id": "423156432ffbf3ed42f019b0e96ec4e9", "is_reserved": 0, "fusion_lon": 0.0, "lat": 38.85223916666666, "is_disabled": 0, "name": "423156432ffbf3ed42f019b0e96ec4e9", "fusion_lat": 0.0, "rental_uris": {"ios": "https://dc.lft.to/lastmile_qr_scan", "android": "https://dc.lft.to/lastmile_qr_scan"}, "lon": -77.12964416666667, "type": "electric_bike"}, {"bike_id": "2e221d43b43693971c730bb19a821d52", "is_reserved": 0, "fusion_lon": 0.0, "lat": 38.939487, "is_disabled": 0, "name": "2e221d43b43693971c730bb19a821d52", "fusion_lat": 0.0, "rental_uris": {"ios": "https://dc.lft.to/lastmile_qr_scan", "android": "https://dc.lft.to/lastmile_qr_scan"}, "lon": -77.0326075, "type": "electric_scooter"}, {"bike_id": "9aef1e6ebb90f3f48f522f33f339473b", "is_reserved": 0, "fusion_lon": 0.0, "lat": 38.927606833333336, "is_disabled": 0, "name": "9aef1e6ebb90f3f48f522f33f339473b", "fusion_lat": 0.0, "rental_uris": {"ios": "https://dc.lft.to/lastmile_qr_scan", "android": "https://dc.lft.to/lastmile_qr_scan"}, "lon": -77.053721, "type": "electric_scooter"}, {"bike_id": "b4b0c1d51fecd2ea088657c8fa377190", "is_reserved": 0, "fusion_lon": 0.0, "lat": 38.920919833333336, "is_disabled": 0, "name": "b4b0c1d51fecd2ea088657c8fa377190", "fusion_lat": 0.0, "rental_uris": {"ios": "https://dc.lft.to/lastmile_qr_scan", "android": "https://dc.lft.to/lastmile_qr_scan"}, "lon": -77.02524416666667, "type": "electric_scooter"}, {"bike_id": "531c2b49c9b741fc77ec88c25dbb878a", "is_reserved": 0, "fusion_lon": 0.0, "lat": 38.92789233333333, "is_disabled": 0, "name": "531c2b49c9b741fc77ec88c25dbb878a", "fusion_lat": 0.0, "rental_uris": {"ios": "https://dc.lft.to/lastmile_qr_scan", "android": "https://dc.lft.to/lastmile_qr_scan"}, "lon": -77.03150783333334, "type": "electric_scooter"}, {"bike_id": "d924250f69632d2100d42a4a67096b1a", "is_reserved": 0, "fusion_lon": 0.0, "lat": 38.984665666666665, "is_disabled": 0, "name": "d924250f69632d2100d42a4a67096b1a", "fusion_lat": 0.0, "rental_uris": {"ios": "https://dc.lft.to/lastmile_qr_scan", "android": "https://dc.lft.to/lastmile_qr_scan"}, "lon": -76.955267, "type": "electric_bike"}, {"bike_id": "6590dae72e3903460c3ed89b235900f4", "is_reserved": 0, "fusion_lon": 0.0, "lat": 38.865641, "is_disabled": 0, "name": "6590dae72e3903460c3ed89b235900f4", "fusion_lat": 0.0, "rental_uris": {"ios": "https://dc.lft.to/lastmile_qr_scan", "android": "https://dc.lft.to/lastmile_qr_scan"}, "lon": -76.98947216666667, "type": "electric_scooter"}, {"bike_id": "87ac4bb5c3ebc0708bd045b329a25eb7", "is_reserved": 0, "fusion_lon": 0.0, "lat": 38.9058765, "is_disabled": 0, "name": "87ac4bb5c3ebc0708bd045b329a25eb7", "fusion_lat": 0.0, "rental_uris": {"ios": "https://dc.lft.to/lastmile_qr_scan", "android": "https://dc.lft.to/lastmile_qr_scan"}, "lon": -77.02984316666667, "type": "electric_scooter"}, {"bike_id": "5c36454826121139758b44a9b0c601cd", "is_reserved": 0, "fusion_lon": 0.0, "lat": 38.90058966666667, "is_disabled": 0, "name": "5c36454826121139758b44a9b0c601cd", "fusion_lat": 0.0, "rental_uris": {"ios": "https://dc.lft.to/lastmile_qr_scan", "android": "https://dc.lft.to/lastmile_qr_scan"}, "lon": -77.00758116666667, "type": "electric_scooter"}, {"bike_id": "b9899dcc8726f649f731b2d9e003649a", "is_reserved": 0, "fusion_lon": 0.0, "lat": 38.93955233333333, "is_disabled": 0, "name": "b9899dcc8726f649f731b2d9e003649a", "fusion_lat": 0.0, "rental_uris": {"ios": "https://dc.lft.to/lastmile_qr_scan", "android": "https://dc.lft.to/lastmile_qr_scan"}, "lon": -77.03260316666666, "type": "electric_scooter"}, {"bike_id": "a3666ca5c0a191ea7f6c6929cd2a8c93", "is_reserved": 0, "fusion_lon": 0.0, "lat": 38.89221933333334, "is_disabled": 0, "name": "a3666ca5c0a191ea7f6c6929cd2a8c93", "fusion_lat": 0.0, "rental_uris": {"ios": "https://dc.lft.to/lastmile_qr_scan", "android": "https://dc.lft.to/lastmile_qr_scan"}, "lon": -77.02839966666667, "type": "electric_scooter"}, {"bike_id": "e311d6040ffd7164e6f5ddb7ec33fc6c", "is_reserved": 0, "fusion_lon": 0.0, "lat": 38.90893166666667, "is_disabled": 0, "name": "e311d6040ffd7164e6f5ddb7ec33fc6c", "fusion_lat": 0.0, "rental_uris": {"ios": "https://dc.lft.to/lastmile_qr_scan", "android": "https://dc.lft.to/lastmile_qr_scan"}, "lon": -77.022864, "type": "electric_scooter"}, {"bike_id": "ddb8f67526c3a299a399ee2c1b7da7b7", "is_reserved": 0, "fusion_lon": 0.0, "lat": 38.900071, "is_disabled": 0, "name": "ddb8f67526c3a299a399ee2c1b7da7b7", "fusion_lat": 0.0, "rental_uris": {"ios": "https://dc.lft.to/lastmile_qr_scan", "android": "https://dc.lft.to/lastmile_qr_scan"}, "lon": -77.02157216666667, "type": "electric_scooter"}, {"bike_id": "5e91feeff59601c8948edefb0f3063a2", "is_reserved": 0, "fusion_lon": 0.0, "lat": 38.94181666666667, "is_disabled": 0, "name": "5e91feeff59601c8948edefb0f3063a2", "fusion_lat": 0.0, "rental_uris": {"ios": "https://dc.lft.to/lastmile_qr_scan", "android": "https://dc.lft.to/lastmile_qr_scan"}, "lon": -77.025306, "type": "electric_scooter"}, {"bike_id": "c32660d74915f1856d9c425110f2e280", "is_reserved": 0, "fusion_lon": 0.0, "lat": 38.89716766666667, "is_disabled": 0, "name": "c32660d74915f1856d9c425110f2e280", "fusion_lat": 0.0, "rental_uris": {"ios": "https://dc.lft.to/lastmile_qr_scan", "android": "https://dc.lft.to/lastmile_qr_scan"}, "lon": -77.02730816666667, "type": "electric_scooter"}, {"bike_id": "d21808cf2a070f4298e277c51439e891", "is_reserved": 0, "fusion_lon": 0.0, "lat": 38.89234916666667, "is_disabled": 0, "name": "d21808cf2a070f4298e277c51439e891", "fusion_lat": 0.0, "rental_uris": {"ios": "https://dc.lft.to/lastmile_qr_scan", "android": "https://dc.lft.to/lastmile_qr_scan"}, "lon": -77.02581883333333, "type": "electric_scooter"}, {"bike_id": "393dd78885722a51de8234acb44739cd", "is_reserved": 0, "fusion_lon": 0.0, "lat": 38.91981883333333, "is_disabled": 0, "name": "393dd78885722a51de8234acb44739cd", "fusion_lat": 0.0, "rental_uris": {"ios": "https://dc.lft.to/lastmile_qr_scan", "android": "https://dc.lft.to/lastmile_qr_scan"}, "lon": -77.02394716666667, "type": "electric_scooter"}, {"bike_id": "98b91c7ac42376357730580c2a98acbb", "is_reserved": 0, "fusion_lon": 0.0, "lat": 38.902756, "is_disabled": 0, "name": "98b91c7ac42376357730580c2a98acbb", "fusion_lat": 0.0, "rental_uris": {"ios": "https://dc.lft.to/lastmile_qr_scan", "android": "https://dc.lft.to/lastmile_qr_scan"}, "lon": -77.040571, "type": "electric_scooter"}, {"bike_id": "4bab2e3de66e0b918875ed2b71dc7212", "is_reserved": 0, "fusion_lon": 0.0, "lat": 38.865967166666664, "is_disabled": 0, "name": "4bab2e3de66e0b918875ed2b71dc7212", "fusion_lat": 0.0, "rental_uris": {"ios": "https://dc.lft.to/lastmile_qr_scan", "android": "https://dc.lft.to/lastmile_qr_scan"}, "lon": -76.93228933333333, "type": "electric_bike"}, {"bike_id": "90aa53c05b51c6d39883063c4e4b059d", "is_reserved": 0, "fusion_lon": 0.0, "lat": 38.91658666666667, "is_disabled": 0, "name": "90aa53c05b51c6d39883063c4e4b059d", "fusion_lat": 0.0, "rental_uris": {"ios": "https://dc.lft.to/lastmile_qr_scan", "android": "https://dc.lft.to/lastmile_qr_scan"}, "lon": -77.03640983333334, "type": "electric_scooter"}, {"bike_id": "64636617ea1758991e720dff0afefec1", "is_reserved": 0, "fusion_lon": 0.0, "lat": 38.951884666666665, "is_disabled": 0, "name": "64636617ea1758991e720dff0afefec1", "fusion_lat": 0.0, "rental_uris": {"ios": "https://dc.lft.to/lastmile_qr_scan", "android": "https://dc.lft.to/lastmile_qr_scan"}, "lon": -76.93546133333334, "type": "electric_bike"}, {"bike_id": "0afa5ed31db46cd8b795f646aaab9078", "is_reserved": 0, "fusion_lon": 0.0, "lat": 38.869339333333336, "is_disabled": 0, "name": "0afa5ed31db46cd8b795f646aaab9078", "fusion_lat": 0.0, "rental_uris": {"ios": "https://dc.lft.to/lastmile_qr_scan", "android": "https://dc.lft.to/lastmile_qr_scan"}, "lon": -76.96016316666666, "type": "electric_bike"}, {"bike_id": "9222d841aba68e33a6d6882f1658e4b4", "is_reserved": 0, "fusion_lon": 0.0, "lat": 38.912494833333334, "is_disabled": 0, "name": "9222d841aba68e33a6d6882f1658e4b4", "fusion_lat": 0.0, "rental_uris": {"ios": "https://dc.lft.to/lastmile_qr_scan", "android": "https://dc.lft.to/lastmile_qr_scan"}, "lon": -77.0364685, "type": "electric_scooter"}, {"bike_id": "c11f0626414cd6cafb536088850a4866", "is_reserved": 0, "fusion_lon": 0.0, "lat": 38.924869666666666, "is_disabled": 0, "name": "c11f0626414cd6cafb536088850a4866", "fusion_lat": 0.0, "rental_uris": {"ios": "https://dc.lft.to/lastmile_qr_scan", "android": "https://dc.lft.to/lastmile_qr_scan"}, "lon": -77.028435, "type": "electric_scooter"}, {"bike_id": "c4e38db21840707643fb188abf1935bf", "is_reserved": 0, "fusion_lon": 0.0, "lat": 38.9179105, "is_disabled": 0, "name": "c4e38db21840707643fb188abf1935bf", "fusion_lat": 0.0, "rental_uris": {"ios": "https://dc.lft.to/lastmile_qr_scan", "android": "https://dc.lft.to/lastmile_qr_scan"}, "lon": -77.02319466666667, "type": "electric_scooter"}, {"bike_id": "f0baed389baa883921f16fe12c459854", "is_reserved": 0, "fusion_lon": 0.0, "lat": 38.9170755, "is_disabled": 0, "name": "f0baed389baa883921f16fe12c459854", "fusion_lat": 0.0, "rental_uris": {"ios": "https://dc.lft.to/lastmile_qr_scan", "android": "https://dc.lft.to/lastmile_qr_scan"}, "lon": -77.001171, "type": "electric_scooter"}, {"bike_id": "2130a8ffb5d53490b6aa78cfeb404125", "is_reserved": 0, "fusion_lon": 0.0, "lat": 38.90764633333333, "is_disabled": 0, "name": "2130a8ffb5d53490b6aa78cfeb404125", "fusion_lat": 0.0, "rental_uris": {"ios": "https://dc.lft.to/lastmile_qr_scan", "android": "https://dc.lft.to/lastmile_qr_scan"}, "lon": -77.032127, "type": "electric_scooter"}, {"bike_id": "83f400ec12ea351a7db6a81a2f071c63", "is_reserved": 0, "fusion_lon": 0.0, "lat": 38.92712366666667, "is_disabled": 0, "name": "83f400ec12ea351a7db6a81a2f071c63", "fusion_lat": 0.0, "rental_uris": {"ios": "https://dc.lft.to/lastmile_qr_scan", "android": "https://dc.lft.to/lastmile_qr_scan"}, "lon": -77.0385365, "type": "electric_scooter"}, {"bike_id": "50858865d5b94d791a7296c914effe21", "is_reserved": 0, "fusion_lon": 0.0, "lat": 38.885882333333335, "is_disabled": 0, "name": "50858865d5b94d791a7296c914effe21", "fusion_lat": 0.0, "rental_uris": {"ios": "https://dc.lft.to/lastmile_qr_scan", "android": "https://dc.lft.to/lastmile_qr_scan"}, "lon": -77.0176645, "type": "electric_scooter"}, {"bike_id": "d958e6eaddabc9039b64b1d8522e68ab", "is_reserved": 0, "fusion_lon": 0.0, "lat": 38.956459833333334, "is_disabled": 0, "name": "d958e6eaddabc9039b64b1d8522e68ab", "fusion_lat": 0.0, "rental_uris": {"ios": "https://dc.lft.to/lastmile_qr_scan", "android": "https://dc.lft.to/lastmile_qr_scan"}, "lon": -76.99740833333334, "type": "electric_bike"}, {"bike_id": "b6e956342db4eff50c94619d2597c0fa", "is_reserved": 0, "fusion_lon": 0.0, "lat": 38.899697333333336, "is_disabled": 0, "name": "b6e956342db4eff50c94619d2597c0fa", "fusion_lat": 0.0, "rental_uris": {"ios": "https://dc.lft.to/lastmile_qr_scan", "android": "https://dc.lft.to/lastmile_qr_scan"}, "lon": -77.016205, "type": "electric_scooter"}, {"bike_id": "2ec791cfaaf6f317890fbd7daa265691", "is_reserved": 0, "fusion_lon": 0.0, "lat": 38.934020333333336, "is_disabled": 0, "name": "2ec791cfaaf6f317890fbd7daa265691", "fusion_lat": 0.0, "rental_uris": {"ios": "https://dc.lft.to/lastmile_qr_scan", "android": "https://dc.lft.to/lastmile_qr_scan"}, "lon": -77.02067816666667, "type": "electric_scooter"}, {"bike_id": "ca6da75bcee0b7bee5a1c3fd4c882d05", "is_reserved": 0, "fusion_lon": 0.0, "lat": 38.95281083333333, "is_disabled": 0, "name": "ca6da75bcee0b7bee5a1c3fd4c882d05", "fusion_lat": 0.0, "rental_uris": {"ios": "https://dc.lft.to/lastmile_qr_scan", "android": "https://dc.lft.to/lastmile_qr_scan"}, "lon": -77.007903, "type": "electric_scooter"}, {"bike_id": "f5188f2809babb48886b187a7c7004f9", "is_reserved": 0, "fusion_lon": 0.0, "lat": 38.900096, "is_disabled": 0, "name": "f5188f2809babb48886b187a7c7004f9", "fusion_lat": 0.0, "rental_uris": {"ios": "https://dc.lft.to/lastmile_qr_scan", "android": "https://dc.lft.to/lastmile_qr_scan"}, "lon": -76.99790666666667, "type": "electric_scooter"}, {"bike_id": "171d3aeba04df3a30381502e77389ccf", "is_reserved": 0, "fusion_lon": 0.0, "lat": 38.92429716666667, "is_disabled": 0, "name": "171d3aeba04df3a30381502e77389ccf", "fusion_lat": 0.0, "rental_uris": {"ios": "https://dc.lft.to/lastmile_qr_scan", "android": "https://dc.lft.to/lastmile_qr_scan"}, "lon": -77.03997483333333, "type": "electric_scooter"}, {"bike_id": "920e1773fc0de3fd9abe3f08bec79fe3", "is_reserved": 0, "fusion_lon": 0.0, "lat": 38.85320816666667, "is_disabled": 0, "name": "920e1773fc0de3fd9abe3f08bec79fe3", "fusion_lat": 0.0, "rental_uris": {"ios": "https://dc.lft.to/lastmile_qr_scan", "android": "https://dc.lft.to/lastmile_qr_scan"}, "lon": -76.98004216666666, "type": "electric_scooter"}, {"bike_id": "06397138926ab4aa5b6e9b660c2f3718", "is_reserved": 0, "fusion_lon": 0.0, "lat": 38.94050333333333, "is_disabled": 0, "name": "06397138926ab4aa5b6e9b660c2f3718", "fusion_lat": 0.0, "rental_uris": {"ios": "https://dc.lft.to/lastmile_qr_scan", "android": "https://dc.lft.to/lastmile_qr_scan"}, "lon": -77.02978283333333, "type": "electric_scooter"}, {"bike_id": "a4e8720a03e39b55a21973c772581a00", "is_reserved": 0, "fusion_lon": 0.0, "lat": 38.92268033333333, "is_disabled": 0, "name": "a4e8720a03e39b55a21973c772581a00", "fusion_lat": 0.0, "rental_uris": {"ios": "https://dc.lft.to/lastmile_qr_scan", "android": "https://dc.lft.to/lastmile_qr_scan"}, "lon": -77.041331, "type": "electric_scooter"}, {"bike_id": "f93d468682ed45b5987ca1971f1a47c3", "is_reserved": 0, "fusion_lon": 0.0, "lat": 38.9208785, "is_disabled": 0, "name": "f93d468682ed45b5987ca1971f1a47c3", "fusion_lat": 0.0, "rental_uris": {"ios": "https://dc.lft.to/lastmile_qr_scan", "android": "https://dc.lft.to/lastmile_qr_scan"}, "lon": -76.99900233333334, "type": "electric_scooter"}, {"bike_id": "9180859937f48c7d32a468b5a70ed074", "is_reserved": 0, "fusion_lon": 0.0, "lat": 38.91874583333333, "is_disabled": 0, "name": "9180859937f48c7d32a468b5a70ed074", "fusion_lat": 0.0, "rental_uris": {"ios": "https://dc.lft.to/lastmile_qr_scan", "android": "https://dc.lft.to/lastmile_qr_scan"}, "lon": -77.03503683333334, "type": "electric_scooter"}, {"bike_id": "5c28ba8f6007f4fea8cad87f227dc537", "is_reserved": 0, "fusion_lon": 0.0, "lat": 38.9080925, "is_disabled": 0, "name": "5c28ba8f6007f4fea8cad87f227dc537", "fusion_lat": 0.0, "rental_uris": {"ios": "https://dc.lft.to/lastmile_qr_scan", "android": "https://dc.lft.to/lastmile_qr_scan"}, "lon": -77.03442933333334, "type": "electric_scooter"}, {"bike_id": "0b5ae2392a3b87f3326ec1e706ecbd02", "is_reserved": 0, "fusion_lon": 0.0, "lat": 38.990635, "is_disabled": 0, "name": "0b5ae2392a3b87f3326ec1e706ecbd02", "fusion_lat": 0.0, "rental_uris": {"ios": "https://dc.lft.to/lastmile_qr_scan", "android": "https://dc.lft.to/lastmile_qr_scan"}, "lon": -77.10029283333333, "type": "electric_bike"}, {"bike_id": "f7097eae26f9da5c068316fb7f8ba9ca", "is_reserved": 0, "fusion_lon": 0.0, "lat": 38.8722785, "is_disabled": 0, "name": "f7097eae26f9da5c068316fb7f8ba9ca", "fusion_lat": 0.0, "rental_uris": {"ios": "https://dc.lft.to/lastmile_qr_scan", "android": "https://dc.lft.to/lastmile_qr_scan"}, "lon": -77.01156733333333, "type": "electric_bike"}, {"bike_id": "583b307e9b4985bd3eb2cb7795857850", "is_reserved": 0, "fusion_lon": 0.0, "lat": 38.920497, "is_disabled": 0, "name": "583b307e9b4985bd3eb2cb7795857850", "fusion_lat": 0.0, "rental_uris": {"ios": "https://dc.lft.to/lastmile_qr_scan", "android": "https://dc.lft.to/lastmile_qr_scan"}, "lon": -76.998205, "type": "electric_scooter"}, {"bike_id": "ce953fe5c937990cef05f60ed3883ac9", "is_reserved": 0, "fusion_lon": 0.0, "lat": 38.92418083333333, "is_disabled": 0, "name": "ce953fe5c937990cef05f60ed3883ac9", "fusion_lat": 0.0, "rental_uris": {"ios": "https://dc.lft.to/lastmile_qr_scan", "android": "https://dc.lft.to/lastmile_qr_scan"}, "lon": -77.035437, "type": "electric_scooter"}, {"bike_id": "8ae095babe0ec28b819dd747e955f1d6", "is_reserved": 0, "fusion_lon": 0.0, "lat": 38.91807416666666, "is_disabled": 0, "name": "8ae095babe0ec28b819dd747e955f1d6", "fusion_lat": 0.0, "rental_uris": {"ios": "https://dc.lft.to/lastmile_qr_scan", "android": "https://dc.lft.to/lastmile_qr_scan"}, "lon": -77.034367, "type": "electric_scooter"}, {"bike_id": "8043f62fec8fbdf4ad9dc52f3fda6166", "is_reserved": 0, "fusion_lon": 0.0, "lat": 38.900135166666665, "is_disabled": 0, "name": "8043f62fec8fbdf4ad9dc52f3fda6166", "fusion_lat": 0.0, "rental_uris": {"ios": "https://dc.lft.to/lastmile_qr_scan", "android": "https://dc.lft.to/lastmile_qr_scan"}, "lon": -77.00189866666666, "type": "electric_scooter"}, {"bike_id": "99ad25a7967904dc97a5a1e94d6a6010", "is_reserved": 0, "fusion_lon": 0.0, "lat": 38.89230283333333, "is_disabled": 0, "name": "99ad25a7967904dc97a5a1e94d6a6010", "fusion_lat": 0.0, "rental_uris": {"ios": "https://dc.lft.to/lastmile_qr_scan", "android": "https://dc.lft.to/lastmile_qr_scan"}, "lon": -77.0217875, "type": "electric_scooter"}, {"bike_id": "ed84637d2b803246778f1645cf1602fd", "is_reserved": 0, "fusion_lon": 0.0, "lat": 38.93953916666667, "is_disabled": 0, "name": "ed84637d2b803246778f1645cf1602fd", "fusion_lat": 0.0, "rental_uris": {"ios": "https://dc.lft.to/lastmile_qr_scan", "android": "https://dc.lft.to/lastmile_qr_scan"}, "lon": -77.03260483333334, "type": "electric_scooter"}, {"bike_id": "5475bdafa951fbf193d7573b27824459", "is_reserved": 0, "fusion_lon": 0.0, "lat": 38.92867566666666, "is_disabled": 0, "name": "5475bdafa951fbf193d7573b27824459", "fusion_lat": 0.0, "rental_uris": {"ios": "https://dc.lft.to/lastmile_qr_scan", "android": "https://dc.lft.to/lastmile_qr_scan"}, "lon": -77.02728583333334, "type": "electric_scooter"}, {"bike_id": "175ed73126cbb6b3136a6c2c3785db2d", "is_reserved": 0, "fusion_lon": 0.0, "lat": 38.9732635, "is_disabled": 0, "name": "175ed73126cbb6b3136a6c2c3785db2d", "fusion_lat": 0.0, "rental_uris": {"ios": "https://dc.lft.to/lastmile_qr_scan", "android": "https://dc.lft.to/lastmile_qr_scan"}, "lon": -77.0214705, "type": "electric_bike"}, {"bike_id": "2462cdb2a2958e28230cec691ba4739c", "is_reserved": 0, "fusion_lon": 0.0, "lat": 38.91713583333333, "is_disabled": 0, "name": "2462cdb2a2958e28230cec691ba4739c", "fusion_lat": 0.0, "rental_uris": {"ios": "https://dc.lft.to/lastmile_qr_scan", "android": "https://dc.lft.to/lastmile_qr_scan"}, "lon": -77.03244233333334, "type": "electric_scooter"}, {"bike_id": "6dbde9dcc2605efd841e0f6f3dc14423", "is_reserved": 0, "fusion_lon": 0.0, "lat": 38.90327666666666, "is_disabled": 0, "name": "6dbde9dcc2605efd841e0f6f3dc14423", "fusion_lat": 0.0, "rental_uris": {"ios": "https://dc.lft.to/lastmile_qr_scan", "android": "https://dc.lft.to/lastmile_qr_scan"}, "lon": -77.03851983333334, "type": "electric_scooter"}, {"bike_id": "0a44a095ad8bf59692825fd2d84ea898", "is_reserved": 0, "fusion_lon": 0.0, "lat": 38.9110505, "is_disabled": 0, "name": "0a44a095ad8bf59692825fd2d84ea898", "fusion_lat": 0.0, "rental_uris": {"ios": "https://dc.lft.to/lastmile_qr_scan", "android": "https://dc.lft.to/lastmile_qr_scan"}, "lon": -77.00215966666667, "type": "electric_scooter"}, {"bike_id": "1e87d0299a1dbccd44c7d9c211a8f53d", "is_reserved": 0, "fusion_lon": 0.0, "lat": 38.90026866666667, "is_disabled": 0, "name": "1e87d0299a1dbccd44c7d9c211a8f53d", "fusion_lat": 0.0, "rental_uris": {"ios": "https://dc.lft.to/lastmile_qr_scan", "android": "https://dc.lft.to/lastmile_qr_scan"}, "lon": -76.99785366666667, "type": "electric_scooter"}, {"bike_id": "b6ceba3dbe0772bc579291742f122275", "is_reserved": 0, "fusion_lon": 0.0, "lat": 38.90010316666667, "is_disabled": 0, "name": "b6ceba3dbe0772bc579291742f122275", "fusion_lat": 0.0, "rental_uris": {"ios": "https://dc.lft.to/lastmile_qr_scan", "android": "https://dc.lft.to/lastmile_qr_scan"}, "lon": -76.997644, "type": "electric_scooter"}, {"bike_id": "72e847f5b1dae6ebf561346a681b373e", "is_reserved": 0, "fusion_lon": 0.0, "lat": 38.9039215, "is_disabled": 0, "name": "72e847f5b1dae6ebf561346a681b373e", "fusion_lat": 0.0, "rental_uris": {"ios": "https://dc.lft.to/lastmile_qr_scan", "android": "https://dc.lft.to/lastmile_qr_scan"}, "lon": -77.0436475, "type": "electric_scooter"}, {"bike_id": "5bc7daf24db7b40fff3a6d4afc172b2f", "is_reserved": 0, "fusion_lon": 0.0, "lat": 38.89801083333333, "is_disabled": 0, "name": "5bc7daf24db7b40fff3a6d4afc172b2f", "fusion_lat": 0.0, "rental_uris": {"ios": "https://dc.lft.to/lastmile_qr_scan", "android": "https://dc.lft.to/lastmile_qr_scan"}, "lon": -77.00643616666666, "type": "electric_scooter"}, {"bike_id": "b31794aed079178a9503ec0b8b1b531a", "is_reserved": 0, "fusion_lon": 0.0, "lat": 38.83859233333333, "is_disabled": 0, "name": "b31794aed079178a9503ec0b8b1b531a", "fusion_lat": 0.0, "rental_uris": {"ios": "https://dc.lft.to/lastmile_qr_scan", "android": "https://dc.lft.to/lastmile_qr_scan"}, "lon": -77.08865633333333, "type": "electric_bike"}, {"bike_id": "aee09682d6ebdd6b4a40c7d13bc8fc9e", "is_reserved": 0, "fusion_lon": 0.0, "lat": 38.904804166666665, "is_disabled": 0, "name": "aee09682d6ebdd6b4a40c7d13bc8fc9e", "fusion_lat": 0.0, "rental_uris": {"ios": "https://dc.lft.to/lastmile_qr_scan", "android": "https://dc.lft.to/lastmile_qr_scan"}, "lon": -77.00729433333333, "type": "electric_scooter"}, {"bike_id": "4767c5704895dfbe5b64598559b6728d", "is_reserved": 0, "fusion_lon": 0.0, "lat": 38.92669216666667, "is_disabled": 0, "name": "4767c5704895dfbe5b64598559b6728d", "fusion_lat": 0.0, "rental_uris": {"ios": "https://dc.lft.to/lastmile_qr_scan", "android": "https://dc.lft.to/lastmile_qr_scan"}, "lon": -77.03117633333333, "type": "electric_scooter"}, {"bike_id": "68671a12ec334a036ef9f6c154b89a92", "is_reserved": 0, "fusion_lon": 0.0, "lat": 38.948347, "is_disabled": 0, "name": "68671a12ec334a036ef9f6c154b89a92", "fusion_lat": 0.0, "rental_uris": {"ios": "https://dc.lft.to/lastmile_qr_scan", "android": "https://dc.lft.to/lastmile_qr_scan"}, "lon": -77.03901433333333, "type": "electric_bike"}, {"bike_id": "69a52a4ce8d7a6c8ddcaf5f4ce37f4f2", "is_reserved": 0, "fusion_lon": 0.0, "lat": 38.933782, "is_disabled": 0, "name": "69a52a4ce8d7a6c8ddcaf5f4ce37f4f2", "fusion_lat": 0.0, "rental_uris": {"ios": "https://dc.lft.to/lastmile_qr_scan", "android": "https://dc.lft.to/lastmile_qr_scan"}, "lon": -77.03464516666666, "type": "electric_scooter"}, {"bike_id": "6645803505ebedb2a929b7af628067f6", "is_reserved": 0, "fusion_lon": 0.0, "lat": 38.892171, "is_disabled": 0, "name": "6645803505ebedb2a929b7af628067f6", "fusion_lat": 0.0, "rental_uris": {"ios": "https://dc.lft.to/lastmile_qr_scan", "android": "https://dc.lft.to/lastmile_qr_scan"}, "lon": -77.03166966666667, "type": "electric_scooter"}, {"bike_id": "a89628dd2789230a98a994252d17ed3e", "is_reserved": 0, "fusion_lon": 0.0, "lat": 38.917316, "is_disabled": 0, "name": "a89628dd2789230a98a994252d17ed3e", "fusion_lat": 0.0, "rental_uris": {"ios": "https://dc.lft.to/lastmile_qr_scan", "android": "https://dc.lft.to/lastmile_qr_scan"}, "lon": -77.06839583333333, "type": "electric_scooter"}, {"bike_id": "ddce74fa177c04ad700ebb59bc22d92f", "is_reserved": 0, "fusion_lon": 0.0, "lat": 38.9073545, "is_disabled": 0, "name": "ddce74fa177c04ad700ebb59bc22d92f", "fusion_lat": 0.0, "rental_uris": {"ios": "https://dc.lft.to/lastmile_qr_scan", "android": "https://dc.lft.to/lastmile_qr_scan"}, "lon": -77.0345155, "type": "electric_scooter"}, {"bike_id": "03e21cf054d26592d7757cb3146491c8", "is_reserved": 0, "fusion_lon": 0.0, "lat": 38.89472166666667, "is_disabled": 0, "name": "03e21cf054d26592d7757cb3146491c8", "fusion_lat": 0.0, "rental_uris": {"ios": "https://dc.lft.to/lastmile_qr_scan", "android": "https://dc.lft.to/lastmile_qr_scan"}, "lon": -77.0306785, "type": "electric_scooter"}, {"bike_id": "90c8a0c1cb6b56d11f7091a92618d3cc", "is_reserved": 0, "fusion_lon": 0.0, "lat": 38.939064, "is_disabled": 0, "name": "90c8a0c1cb6b56d11f7091a92618d3cc", "fusion_lat": 0.0, "rental_uris": {"ios": "https://dc.lft.to/lastmile_qr_scan", "android": "https://dc.lft.to/lastmile_qr_scan"}, "lon": -77.0772605, "type": "electric_scooter"}, {"bike_id": "0dfb587e4303e80319b5089871656531", "is_reserved": 0, "fusion_lon": 0.0, "lat": 38.9221915, "is_disabled": 0, "name": "0dfb587e4303e80319b5089871656531", "fusion_lat": 0.0, "rental_uris": {"ios": "https://dc.lft.to/lastmile_qr_scan", "android": "https://dc.lft.to/lastmile_qr_scan"}, "lon": -77.04259733333333, "type": "electric_scooter"}, {"bike_id": "421dd95fa1370fc04ea9fc404a29ede8", "is_reserved": 0, "fusion_lon": 0.0, "lat": 38.912143666666665, "is_disabled": 0, "name": "421dd95fa1370fc04ea9fc404a29ede8", "fusion_lat": 0.0, "rental_uris": {"ios": "https://dc.lft.to/lastmile_qr_scan", "android": "https://dc.lft.to/lastmile_qr_scan"}, "lon": -77.0280055, "type": "electric_scooter"}, {"bike_id": "23102e29b4d3677afe377f0df93ea7ff", "is_reserved": 0, "fusion_lon": 0.0, "lat": 38.86664066666667, "is_disabled": 0, "name": "23102e29b4d3677afe377f0df93ea7ff", "fusion_lat": 0.0, "rental_uris": {"ios": "https://dc.lft.to/lastmile_qr_scan", "android": "https://dc.lft.to/lastmile_qr_scan"}, "lon": -76.989039, "type": "electric_scooter"}, {"bike_id": "fd30d9501ccf1e1ddf2c90ffe5e2608a", "is_reserved": 0, "fusion_lon": 0.0, "lat": 38.89908033333333, "is_disabled": 0, "name": "fd30d9501ccf1e1ddf2c90ffe5e2608a", "fusion_lat": 0.0, "rental_uris": {"ios": "https://dc.lft.to/lastmile_qr_scan", "android": "https://dc.lft.to/lastmile_qr_scan"}, "lon": -77.03946933333333, "type": "electric_scooter"}, {"bike_id": "9b8beedd8ec48a60715430055338f99d", "is_reserved": 0, "fusion_lon": 0.0, "lat": 38.91879483333334, "is_disabled": 0, "name": "9b8beedd8ec48a60715430055338f99d", "fusion_lat": 0.0, "rental_uris": {"ios": "https://dc.lft.to/lastmile_qr_scan", "android": "https://dc.lft.to/lastmile_qr_scan"}, "lon": -77.0446055, "type": "electric_scooter"}, {"bike_id": "b952a66a153426753a81e29a1d0f6046", "is_reserved": 0, "fusion_lon": 0.0, "lat": 38.931192333333335, "is_disabled": 0, "name": "b952a66a153426753a81e29a1d0f6046", "fusion_lat": 0.0, "rental_uris": {"ios": "https://dc.lft.to/lastmile_qr_scan", "android": "https://dc.lft.to/lastmile_qr_scan"}, "lon": -77.021306, "type": "electric_scooter"}, {"bike_id": "557439999fc891aa3a9b9d83d504512f", "is_reserved": 0, "fusion_lon": 0.0, "lat": 38.9231485, "is_disabled": 0, "name": "557439999fc891aa3a9b9d83d504512f", "fusion_lat": 0.0, "rental_uris": {"ios": "https://dc.lft.to/lastmile_qr_scan", "android": "https://dc.lft.to/lastmile_qr_scan"}, "lon": -77.03656933333333, "type": "electric_scooter"}, {"bike_id": "b9acd46aacc58d0737a5e5b0d7305479", "is_reserved": 0, "fusion_lon": 0.0, "lat": 38.890616666666666, "is_disabled": 0, "name": "b9acd46aacc58d0737a5e5b0d7305479", "fusion_lat": 0.0, "rental_uris": {"ios": "https://dc.lft.to/lastmile_qr_scan", "android": "https://dc.lft.to/lastmile_qr_scan"}, "lon": -77.0230105, "type": "electric_scooter"}, {"bike_id": "6332bc55d95fe2fc61a36b6c27aa4e89", "is_reserved": 0, "fusion_lon": 0.0, "lat": 38.964971166666665, "is_disabled": 0, "name": "6332bc55d95fe2fc61a36b6c27aa4e89", "fusion_lat": 0.0, "rental_uris": {"ios": "https://dc.lft.to/lastmile_qr_scan", "android": "https://dc.lft.to/lastmile_qr_scan"}, "lon": -77.06490616666666, "type": "electric_bike"}, {"bike_id": "7ec3f866a9947868bb8792368a97cf07", "is_reserved": 0, "fusion_lon": 0.0, "lat": 38.88491333333333, "is_disabled": 0, "name": "7ec3f866a9947868bb8792368a97cf07", "fusion_lat": 0.0, "rental_uris": {"ios": "https://dc.lft.to/lastmile_qr_scan", "android": "https://dc.lft.to/lastmile_qr_scan"}, "lon": -77.03472216666667, "type": "electric_scooter"}, {"bike_id": "e5546a1a2d6b2f46ba0d8bfa6b1e5c07", "is_reserved": 0, "fusion_lon": 0.0, "lat": 38.9103565, "is_disabled": 0, "name": "e5546a1a2d6b2f46ba0d8bfa6b1e5c07", "fusion_lat": 0.0, "rental_uris": {"ios": "https://dc.lft.to/lastmile_qr_scan", "android": "https://dc.lft.to/lastmile_qr_scan"}, "lon": -77.04388216666666, "type": "electric_scooter"}, {"bike_id": "f1d0c3faafeed9cdf80f3bc5278e148d", "is_reserved": 0, "fusion_lon": 0.0, "lat": 38.90045, "is_disabled": 0, "name": "f1d0c3faafeed9cdf80f3bc5278e148d", "fusion_lat": 0.0, "rental_uris": {"ios": "https://dc.lft.to/lastmile_qr_scan", "android": "https://dc.lft.to/lastmile_qr_scan"}, "lon": -77.00537466666667, "type": "electric_scooter"}, {"bike_id": "52583fb164ad5bed5ace9e61bbfcaf31", "is_reserved": 0, "fusion_lon": 0.0, "lat": 38.90977933333333, "is_disabled": 0, "name": "52583fb164ad5bed5ace9e61bbfcaf31", "fusion_lat": 0.0, "rental_uris": {"ios": "https://dc.lft.to/lastmile_qr_scan", "android": "https://dc.lft.to/lastmile_qr_scan"}, "lon": -77.04871883333334, "type": "electric_scooter"}, {"bike_id": "4d6df019aa22d3327586c3807d618db2", "is_reserved": 0, "fusion_lon": 0.0, "lat": 38.88435616666666, "is_disabled": 0, "name": "4d6df019aa22d3327586c3807d618db2", "fusion_lat": 0.0, "rental_uris": {"ios": "https://dc.lft.to/lastmile_qr_scan", "android": "https://dc.lft.to/lastmile_qr_scan"}, "lon": -76.95755933333334, "type": "electric_scooter"}, {"bike_id": "d6fa349fc1fdb854f5f631caeb156481", "is_reserved": 0, "fusion_lon": 0.0, "lat": 38.93146983333333, "is_disabled": 0, "name": "d6fa349fc1fdb854f5f631caeb156481", "fusion_lat": 0.0, "rental_uris": {"ios": "https://dc.lft.to/lastmile_qr_scan", "android": "https://dc.lft.to/lastmile_qr_scan"}, "lon": -77.05708133333333, "type": "electric_scooter"}, {"bike_id": "161c0386585d9ad2ede0e8c22f184c4a", "is_reserved": 0, "fusion_lon": 0.0, "lat": 38.917760333333334, "is_disabled": 0, "name": "161c0386585d9ad2ede0e8c22f184c4a", "fusion_lat": 0.0, "rental_uris": {"ios": "https://dc.lft.to/lastmile_qr_scan", "android": "https://dc.lft.to/lastmile_qr_scan"}, "lon": -77.01503166666667, "type": "electric_scooter"}, {"bike_id": "deee3969a4adee68e99e8918a18108d8", "is_reserved": 0, "fusion_lon": 0.0, "lat": 38.898336666666665, "is_disabled": 0, "name": "deee3969a4adee68e99e8918a18108d8", "fusion_lat": 0.0, "rental_uris": {"ios": "https://dc.lft.to/lastmile_qr_scan", "android": "https://dc.lft.to/lastmile_qr_scan"}, "lon": -76.94629683333334, "type": "electric_scooter"}, {"bike_id": "5a8e5857f2cb58cf6cdec0ce5c3dd738", "is_reserved": 0, "fusion_lon": 0.0, "lat": 38.923515, "is_disabled": 0, "name": "5a8e5857f2cb58cf6cdec0ce5c3dd738", "fusion_lat": 0.0, "rental_uris": {"ios": "https://dc.lft.to/lastmile_qr_scan", "android": "https://dc.lft.to/lastmile_qr_scan"}, "lon": -77.035221, "type": "electric_scooter"}, {"bike_id": "63a5912e6741fb340cc20cef4de6a6a3", "is_reserved": 0, "fusion_lon": 0.0, "lat": 38.933473166666666, "is_disabled": 0, "name": "63a5912e6741fb340cc20cef4de6a6a3", "fusion_lat": 0.0, "rental_uris": {"ios": "https://dc.lft.to/lastmile_qr_scan", "android": "https://dc.lft.to/lastmile_qr_scan"}, "lon": -77.05862083333334, "type": "electric_scooter"}, {"bike_id": "5b29e3f6aa551091c74f97827010b52f", "is_reserved": 0, "fusion_lon": 0.0, "lat": 38.92097233333333, "is_disabled": 0, "name": "5b29e3f6aa551091c74f97827010b52f", "fusion_lat": 0.0, "rental_uris": {"ios": "https://dc.lft.to/lastmile_qr_scan", "android": "https://dc.lft.to/lastmile_qr_scan"}, "lon": -77.07476933333334, "type": "electric_scooter"}, {"bike_id": "3675601a7ae66e8ea66908c18e14dfd7", "is_reserved": 0, "fusion_lon": 0.0, "lat": 38.900175, "is_disabled": 0, "name": "3675601a7ae66e8ea66908c18e14dfd7", "fusion_lat": 0.0, "rental_uris": {"ios": "https://dc.lft.to/lastmile_qr_scan", "android": "https://dc.lft.to/lastmile_qr_scan"}, "lon": -77.01131433333333, "type": "electric_scooter"}, {"bike_id": "cc4c98a160366ad0195cf6161cbe5be8", "is_reserved": 0, "fusion_lon": 0.0, "lat": 38.862421833333336, "is_disabled": 0, "name": "cc4c98a160366ad0195cf6161cbe5be8", "fusion_lat": 0.0, "rental_uris": {"ios": "https://dc.lft.to/lastmile_qr_scan", "android": "https://dc.lft.to/lastmile_qr_scan"}, "lon": -76.99486183333333, "type": "electric_scooter"}, {"bike_id": "70dd76e95b1deb3b910e7550bf9a6a03", "is_reserved": 0, "fusion_lon": 0.0, "lat": 38.90139516666667, "is_disabled": 0, "name": "70dd76e95b1deb3b910e7550bf9a6a03", "fusion_lat": 0.0, "rental_uris": {"ios": "https://dc.lft.to/lastmile_qr_scan", "android": "https://dc.lft.to/lastmile_qr_scan"}, "lon": -77.04483216666667, "type": "electric_scooter"}, {"bike_id": "d9a798bbcb1a43d7bb2abc74a76466c1", "is_reserved": 0, "fusion_lon": 0.0, "lat": 38.905204833333336, "is_disabled": 0, "name": "d9a798bbcb1a43d7bb2abc74a76466c1", "fusion_lat": 0.0, "rental_uris": {"ios": "https://dc.lft.to/lastmile_qr_scan", "android": "https://dc.lft.to/lastmile_qr_scan"}, "lon": -77.04163216666667, "type": "electric_scooter"}, {"bike_id": "04e64b710a5437cf5b5b9c29b722f09b", "is_reserved": 0, "fusion_lon": 0.0, "lat": 38.911097166666664, "is_disabled": 0, "name": "04e64b710a5437cf5b5b9c29b722f09b", "fusion_lat": 0.0, "rental_uris": {"ios": "https://dc.lft.to/lastmile_qr_scan", "android": "https://dc.lft.to/lastmile_qr_scan"}, "lon": -77.0038815, "type": "electric_scooter"}, {"bike_id": "edcad9d0bd6dce6e6f8611df46212b1c", "is_reserved": 0, "fusion_lon": 0.0, "lat": 38.898298833333335, "is_disabled": 0, "name": "edcad9d0bd6dce6e6f8611df46212b1c", "fusion_lat": 0.0, "rental_uris": {"ios": "https://dc.lft.to/lastmile_qr_scan", "android": "https://dc.lft.to/lastmile_qr_scan"}, "lon": -77.0334615, "type": "electric_scooter"}, {"bike_id": "a1b9f846098a743cda20998af0a30a23", "is_reserved": 0, "fusion_lon": 0.0, "lat": 38.905647333333334, "is_disabled": 0, "name": "a1b9f846098a743cda20998af0a30a23", "fusion_lat": 0.0, "rental_uris": {"ios": "https://dc.lft.to/lastmile_qr_scan", "android": "https://dc.lft.to/lastmile_qr_scan"}, "lon": -77.00561133333333, "type": "electric_scooter"}, {"bike_id": "2cfdc48f8f5c1343bc9ec4df56888791", "is_reserved": 0, "fusion_lon": 0.0, "lat": 38.883335833333334, "is_disabled": 0, "name": "2cfdc48f8f5c1343bc9ec4df56888791", "fusion_lat": 0.0, "rental_uris": {"ios": "https://dc.lft.to/lastmile_qr_scan", "android": "https://dc.lft.to/lastmile_qr_scan"}, "lon": -77.017569, "type": "electric_scooter"}, {"bike_id": "717f719510e7318b54e7f32e255cdc33", "is_reserved": 0, "fusion_lon": 0.0, "lat": 38.91846283333334, "is_disabled": 0, "name": "717f719510e7318b54e7f32e255cdc33", "fusion_lat": 0.0, "rental_uris": {"ios": "https://dc.lft.to/lastmile_qr_scan", "android": "https://dc.lft.to/lastmile_qr_scan"}, "lon": -77.03902733333334, "type": "electric_scooter"}, {"bike_id": "cb8028d63198c9fc5b89f25cd1861a69", "is_reserved": 0, "fusion_lon": 0.0, "lat": 38.9170215, "is_disabled": 0, "name": "cb8028d63198c9fc5b89f25cd1861a69", "fusion_lat": 0.0, "rental_uris": {"ios": "https://dc.lft.to/lastmile_qr_scan", "android": "https://dc.lft.to/lastmile_qr_scan"}, "lon": -77.02285, "type": "electric_scooter"}, {"bike_id": "478ecca49629b302e76c65b72ceabe12", "is_reserved": 0, "fusion_lon": 0.0, "lat": 38.897680666666666, "is_disabled": 0, "name": "478ecca49629b302e76c65b72ceabe12", "fusion_lat": 0.0, "rental_uris": {"ios": "https://dc.lft.to/lastmile_qr_scan", "android": "https://dc.lft.to/lastmile_qr_scan"}, "lon": -77.026932, "type": "electric_scooter"}, {"bike_id": "e797b18e24d773a694fe1054ede2c2c8", "is_reserved": 0, "fusion_lon": 0.0, "lat": 38.88503733333334, "is_disabled": 0, "name": "e797b18e24d773a694fe1054ede2c2c8", "fusion_lat": 0.0, "rental_uris": {"ios": "https://dc.lft.to/lastmile_qr_scan", "android": "https://dc.lft.to/lastmile_qr_scan"}, "lon": -77.005654, "type": "electric_scooter"}, {"bike_id": "9921fa37490506bad3a9735853bdc046", "is_reserved": 0, "fusion_lon": 0.0, "lat": 38.9344715, "is_disabled": 0, "name": "9921fa37490506bad3a9735853bdc046", "fusion_lat": 0.0, "rental_uris": {"ios": "https://dc.lft.to/lastmile_qr_scan", "android": "https://dc.lft.to/lastmile_qr_scan"}, "lon": -77.02846783333334, "type": "electric_scooter"}, {"bike_id": "4b2cdd6874f032bb9d8342323823596e", "is_reserved": 0, "fusion_lon": 0.0, "lat": 38.897745666666665, "is_disabled": 0, "name": "4b2cdd6874f032bb9d8342323823596e", "fusion_lat": 0.0, "rental_uris": {"ios": "https://dc.lft.to/lastmile_qr_scan", "android": "https://dc.lft.to/lastmile_qr_scan"}, "lon": -76.9043455, "type": "electric_bike"}, {"bike_id": "1a5e9f837ea99f09a67be8c2f8ea6da9", "is_reserved": 0, "fusion_lon": 0.0, "lat": 38.92839433333333, "is_disabled": 0, "name": "1a5e9f837ea99f09a67be8c2f8ea6da9", "fusion_lat": 0.0, "rental_uris": {"ios": "https://dc.lft.to/lastmile_qr_scan", "android": "https://dc.lft.to/lastmile_qr_scan"}, "lon": -77.0551165, "type": "electric_scooter"}, {"bike_id": "99b143b9c48e224a52403637a5041dcd", "is_reserved": 0, "fusion_lon": 0.0, "lat": 38.8672255, "is_disabled": 0, "name": "99b143b9c48e224a52403637a5041dcd", "fusion_lat": 0.0, "rental_uris": {"ios": "https://dc.lft.to/lastmile_qr_scan", "android": "https://dc.lft.to/lastmile_qr_scan"}, "lon": -76.9878755, "type": "electric_scooter"}, {"bike_id": "efa909fef0bfb9c3724f9a1486187851", "is_reserved": 0, "fusion_lon": 0.0, "lat": 38.86632783333334, "is_disabled": 0, "name": "efa909fef0bfb9c3724f9a1486187851", "fusion_lat": 0.0, "rental_uris": {"ios": "https://dc.lft.to/lastmile_qr_scan", "android": "https://dc.lft.to/lastmile_qr_scan"}, "lon": -76.98718416666667, "type": "electric_scooter"}, {"bike_id": "ad46865b55d5515b7e4d1c838d9000ad", "is_reserved": 0, "fusion_lon": 0.0, "lat": 38.8804025, "is_disabled": 0, "name": "ad46865b55d5515b7e4d1c838d9000ad", "fusion_lat": 0.0, "rental_uris": {"ios": "https://dc.lft.to/lastmile_qr_scan", "android": "https://dc.lft.to/lastmile_qr_scan"}, "lon": -77.02511516666667, "type": "electric_scooter"}, {"bike_id": "b81191689308a0d5abec4d78c718e822", "is_reserved": 0, "fusion_lon": 0.0, "lat": 38.89005216666666, "is_disabled": 0, "name": "b81191689308a0d5abec4d78c718e822", "fusion_lat": 0.0, "rental_uris": {"ios": "https://dc.lft.to/lastmile_qr_scan", "android": "https://dc.lft.to/lastmile_qr_scan"}, "lon": -76.93742183333333, "type": "electric_scooter"}, {"bike_id": "adc06d7add15f984b2bad38e65f72f26", "is_reserved": 0, "fusion_lon": 0.0, "lat": 38.9067055, "is_disabled": 0, "name": "adc06d7add15f984b2bad38e65f72f26", "fusion_lat": 0.0, "rental_uris": {"ios": "https://dc.lft.to/lastmile_qr_scan", "android": "https://dc.lft.to/lastmile_qr_scan"}, "lon": -77.02710583333334, "type": "electric_scooter"}, {"bike_id": "9481ea0c3402affb0e2bc3f84ff959a3", "is_reserved": 0, "fusion_lon": 0.0, "lat": 38.97076533333333, "is_disabled": 0, "name": "9481ea0c3402affb0e2bc3f84ff959a3", "fusion_lat": 0.0, "rental_uris": {"ios": "https://dc.lft.to/lastmile_qr_scan", "android": "https://dc.lft.to/lastmile_qr_scan"}, "lon": -76.93619116666666, "type": "electric_bike"}, {"bike_id": "f576dbd1bd4887f7559bb21bf2ba79ba", "is_reserved": 0, "fusion_lon": 0.0, "lat": 38.900325333333335, "is_disabled": 0, "name": "f576dbd1bd4887f7559bb21bf2ba79ba", "fusion_lat": 0.0, "rental_uris": {"ios": "https://dc.lft.to/lastmile_qr_scan", "android": "https://dc.lft.to/lastmile_qr_scan"}, "lon": -76.99543116666666, "type": "electric_scooter"}, {"bike_id": "f5883d0db6286c90c18eb36812bc6a4a", "is_reserved": 0, "fusion_lon": 0.0, "lat": 38.916061, "is_disabled": 0, "name": "f5883d0db6286c90c18eb36812bc6a4a", "fusion_lat": 0.0, "rental_uris": {"ios": "https://dc.lft.to/lastmile_qr_scan", "android": "https://dc.lft.to/lastmile_qr_scan"}, "lon": -77.04347183333333, "type": "electric_scooter"}, {"bike_id": "f6fd807bf219adf3cce8e558b6bcc136", "is_reserved": 0, "fusion_lon": 0.0, "lat": 38.92857333333333, "is_disabled": 0, "name": "f6fd807bf219adf3cce8e558b6bcc136", "fusion_lat": 0.0, "rental_uris": {"ios": "https://dc.lft.to/lastmile_qr_scan", "android": "https://dc.lft.to/lastmile_qr_scan"}, "lon": -77.03603283333334, "type": "electric_scooter"}, {"bike_id": "7c8f7f5534451c97d357eba25678bc37", "is_reserved": 0, "fusion_lon": 0.0, "lat": 38.905787333333336, "is_disabled": 0, "name": "7c8f7f5534451c97d357eba25678bc37", "fusion_lat": 0.0, "rental_uris": {"ios": "https://dc.lft.to/lastmile_qr_scan", "android": "https://dc.lft.to/lastmile_qr_scan"}, "lon": -77.02208433333334, "type": "electric_scooter"}, {"bike_id": "25d77437918e47ea9a9091786f825540", "is_reserved": 0, "fusion_lon": 0.0, "lat": 38.93618383333333, "is_disabled": 0, "name": "25d77437918e47ea9a9091786f825540", "fusion_lat": 0.0, "rental_uris": {"ios": "https://dc.lft.to/lastmile_qr_scan", "android": "https://dc.lft.to/lastmile_qr_scan"}, "lon": -77.05588066666667, "type": "electric_scooter"}, {"bike_id": "898de04d0680714ab7b47729fdccb1b5", "is_reserved": 0, "fusion_lon": 0.0, "lat": 38.892269166666665, "is_disabled": 0, "name": "898de04d0680714ab7b47729fdccb1b5", "fusion_lat": 0.0, "rental_uris": {"ios": "https://dc.lft.to/lastmile_qr_scan", "android": "https://dc.lft.to/lastmile_qr_scan"}, "lon": -77.03978383333333, "type": "electric_scooter"}, {"bike_id": "2b346f423c96bea3e2dc4a60b6c96a7f", "is_reserved": 0, "fusion_lon": 0.0, "lat": 38.90154233333333, "is_disabled": 0, "name": "2b346f423c96bea3e2dc4a60b6c96a7f", "fusion_lat": 0.0, "rental_uris": {"ios": "https://dc.lft.to/lastmile_qr_scan", "android": "https://dc.lft.to/lastmile_qr_scan"}, "lon": -76.93062333333333, "type": "electric_scooter"}, {"bike_id": "f6b7f3e06c50207959d5c9dd377041ea", "is_reserved": 0, "fusion_lon": 0.0, "lat": 38.90029666666667, "is_disabled": 0, "name": "f6b7f3e06c50207959d5c9dd377041ea", "fusion_lat": 0.0, "rental_uris": {"ios": "https://dc.lft.to/lastmile_qr_scan", "android": "https://dc.lft.to/lastmile_qr_scan"}, "lon": -77.012078, "type": "electric_scooter"}, {"bike_id": "411fc913aa0c16c2de793fcb4efe53bc", "is_reserved": 0, "fusion_lon": 0.0, "lat": 38.94066633333333, "is_disabled": 0, "name": "411fc913aa0c16c2de793fcb4efe53bc", "fusion_lat": 0.0, "rental_uris": {"ios": "https://dc.lft.to/lastmile_qr_scan", "android": "https://dc.lft.to/lastmile_qr_scan"}, "lon": -76.99462783333334, "type": "electric_scooter"},