{"data": {"bikes": [{"fusion_lon": 0.0, "name": "7a5c50e282ea37150e97d647dd025ce6", "rental_uris": {"android": "https://dc.lft.to/lastmile_qr_scan", "ios": "https://dc.lft.to/lastmile_qr_scan"}, "lat": 38.92407866666667, "bike_id": "7a5c50e282ea37150e97d647dd025ce6", "is_disabled": 0, "lon": -77.0271665, "is_reserved": 0, "fusion_lat": 0.0, "type": "electric_scooter"}, {"fusion_lon": 0.0, "name": "370b81f9e819f1fb95635f62c0e5fbab", "rental_uris": {"android": "https://dc.lft.to/lastmile_qr_scan", "ios": "https://dc.lft.to/lastmile_qr_scan"}, "lat": 38.92407816666667, "bike_id": "370b81f9e819f1fb95635f62c0e5fbab", "is_disabled": 0, "lon": -77.019424, "is_reserved": 0, "fusion_lat": 0.0, "type": "electric_scooter"}, {"fusion_lon": 0.0, "name": "136df94e707b4b4e53e50a928e670a50", "rental_uris": {"android": "https://dc.lft.to/lastmile_qr_scan", "ios": "https://dc.lft.to/lastmile_qr_scan"}, "lat": 38.91694283333333, "bike_id": "136df94e707b4b4e53e50a928e670a50", "is_disabled": 0, "lon": -77.038323, "is_reserved": 0, "fusion_lat": 0.0, "type": "electric_scooter"}, {"fusion_lon": 0.0, "name": "b0cc1aa6af343b857b787ca1c06ffb08", "rental_uris": {"android": "https://dc.lft.to/lastmile_qr_scan", "ios": "https://dc.lft.to/lastmile_qr_scan"}, "lat": 38.842189833333336, "bike_id": "b0cc1aa6af343b857b787ca1c06ffb08", "is_disabled": 0, "lon": -76.94902483333334, "is_reserved": 0, "fusion_lat": 0.0, "type": "electric_bike"}, {"fusion_lon": 0.0, "name": "6539d8eb59dbd6c60a60e1dca048cd39", "rental_uris": {"android": "https://dc.lft.to/lastmile_qr_scan", "ios": "https://dc.lft.to/lastmile_qr_scan"}, "lat": 38.91564366666667, "bike_id": "6539d8eb59dbd6c60a60e1dca048cd39", "is_disabled": 0, "lon": -77.01968883333333, "is_reserved": 0, "fusion_lat": 0.0, "type": "electric_scooter"}, {"fusion_lon": 0.0, "name": "5797199915b3cd1e0374f7e858403a54", "rental_uris": {"android": "https://dc.lft.to/lastmile_qr_scan", "ios": "https://dc.lft.to/lastmile_qr_scan"}, "lat": 38.89732, "bike_id": "5797199915b3cd1e0374f7e858403a54", "is_disabled": 0, "lon": -77.04589833333333, "is_reserved": 0, "fusion_lat": 0.0, "type": "electric_scooter"}, {"fusion_lon": 0.0, "name": "a512a285ff19eabc6f57295bf4fc6ee5", "rental_uris": {"android": "https://dc.lft.to/lastmile_qr_scan", "ios": "https://dc.lft.to/lastmile_qr_scan"}, "lat": 38.92562566666667, "bike_id": "a512a285ff19eabc6f57295bf4fc6ee5", "is_disabled": 0, "lon": -77.02696316666666, "is_reserved": 0, "fusion_lat": 0.0, "type": "electric_scooter"}, {"fusion_lon": 0.0, "name": "e9293c40fd6d86e7f2baabfca7b079d4", "rental_uris": {"android": "https://dc.lft.to/lastmile_qr_scan", "ios": "https://dc.lft.to/lastmile_qr_scan"}, "lat": 38.9130195, "bike_id": "e9293c40fd6d86e7f2baabfca7b079d4", "is_disabled": 0, "lon": -77.040378, "is_reserved": 0, "fusion_lat": 0.0, "type": "electric_scooter"}, {"fusion_lon": 0.0, "name": "25a58a6fe068feaad019ee8cacbe1d2d", "rental_uris": {"android": "https://dc.lft.to/lastmile_qr_scan", "ios": "https://dc.lft.to/lastmile_qr_scan"}, "lat": 38.94968466666667, "bike_id": "25a58a6fe068feaad019ee8cacbe1d2d", "is_disabled": 0, "lon": -77.02346, "is_reserved": 0, "fusion_lat": 0.0, "type": "electric_scooter"}, {"fusion_lon": 0.0, "name": "5af43375190ecd633cf261e2fb4d426e", "rental_uris": {"android": "https://dc.lft.to/lastmile_qr_scan", "ios": "https://dc.lft.to/lastmile_qr_scan"}, "lat": 38.91430183333333, "bike_id": "5af43375190ecd633cf261e2fb4d426e", "is_disabled": 0, "lon": -77.03183533333333, "is_reserved": 0, "fusion_lat": 0.0, "type": "electric_scooter"}, {"fusion_lon": 0.0, "name": "b90785e607b8f090d932fb669b58e084", "rental_uris": {"android": "https://dc.lft.to/lastmile_qr_scan", "ios": "https://dc.lft.to/lastmile_qr_scan"}, "lat": 38.91510566666667, "bike_id": "b90785e607b8f090d932fb669b58e084", "is_disabled": 0, "lon": -77.04339416666667, "is_reserved": 0, "fusion_lat": 0.0, "type": "electric_scooter"}, {"fusion_lon": 0.0, "name": "3625d66ec8e006d6ed1660261c7ce4c3", "rental_uris": {"android": "https://dc.lft.to/lastmile_qr_scan", "ios": "https://dc.lft.to/lastmile_qr_scan"}, "lat": 38.88614666666667, "bike_id": "3625d66ec8e006d6ed1660261c7ce4c3", "is_disabled": 0, "lon": -77.02169483333333, "is_reserved": 0, "fusion_lat": 0.0, "type": "electric_scooter"}, {"fusion_lon": 0.0, "name": "d57410333e84fb51e1f6ae65feb203a5", "rental_uris": {"android": "https://dc.lft.to/lastmile_qr_scan", "ios": "https://dc.lft.to/lastmile_qr_scan"}, "lat": 38.9056145, "bike_id": "d57410333e84fb51e1f6ae65feb203a5", "is_disabled": 0, "lon": -77.02188916666667, "is_reserved": 0, "fusion_lat": 0.0, "type": "electric_scooter"}, {"fusion_lon": 0.0, "name": "9844e09ef7acb8225569b9b06e54bd8d", "rental_uris": {"android": "https://dc.lft.to/lastmile_qr_scan", "ios": "https://dc.lft.to/lastmile_qr_scan"}, "lat": 38.96608283333333, "bike_id": "9844e09ef7acb8225569b9b06e54bd8d", "is_disabled": 0, "lon": -77.02290933333333, "is_reserved": 0, "fusion_lat": 0.0, "type": "electric_scooter"}, {"fusion_lon": 0.0, "name": "8518701d6411abb77b6065fd6db3a87e", "rental_uris": {"android": "https://dc.lft.to/lastmile_qr_scan", "ios": "https://dc.lft.to/lastmile_qr_scan"}, "lat": 38.92867183333333, "bike_id": "8518701d6411abb77b6065fd6db3a87e", "is_disabled": 0, "lon": -77.03347883333333, "is_reserved": 0, "fusion_lat": 0.0, "type": "electric_scooter"}, {"fusion_lon": 0.0, "name": "c9fe79ccbd9a0233937687142784db4a", "rental_uris": {"android": "https://dc.lft.to/lastmile_qr_scan", "ios": "https://dc.lft.to/lastmile_qr_scan"}, "lat": 38.9287645, "bike_id": "c9fe79ccbd9a0233937687142784db4a", "is_disabled": 0, "lon": -77.0123195, "is_reserved": 0, "fusion_lat": 0.0, "type": "electric_scooter"}, {"fusion_lon": 0.0, "name": "b645143812ef3ee552cdd9c109a4b49d", "rental_uris": {"android": "https://dc.lft.to/lastmile_qr_scan", "ios": "https://dc.lft.to/lastmile_qr_scan"}, "lat": 38.920711, "bike_id": "b645143812ef3ee552cdd9c109a4b49d", "is_disabled": 0, "lon": -77.02322, "is_reserved": 0, "fusion_lat": 0.0, "type": "electric_scooter"}, {"fusion_lon": 0.0, "name": "c62c7d32ff661a436556768f50070c5b", "rental_uris": {"android": "https://dc.lft.to/lastmile_qr_scan", "ios": "https://dc.lft.to/lastmile_qr_scan"}, "lat": 38.992285833333334, "bike_id": "c62c7d32ff661a436556768f50070c5b", "is_disabled": 0, "lon": -77.0237755, "is_reserved": 0, "fusion_lat": 0.0, "type": "electric_bike"}, {"fusion_lon": 0.0, "name": "c4e6ddb83c4e4695c881ef9878cefad8", "rental_uris": {"android": "https://dc.lft.to/lastmile_qr_scan", "ios": "https://dc.lft.to/lastmile_qr_scan"}, "lat": 38.895323, "bike_id": "c4e6ddb83c4e4695c881ef9878cefad8", "is_disabled": 0, "lon": -77.01200166666666, "is_reserved": 0, "fusion_lat": 0.0, "type": "electric_scooter"}, {"fusion_lon": 0.0, "name": "464c1585f0a17a60c16e626c0543d505", "rental_uris": {"android": "https://dc.lft.to/lastmile_qr_scan", "ios": "https://dc.lft.to/lastmile_qr_scan"}, "lat": 38.857828, "bike_id": "464c1585f0a17a60c16e626c0543d505", "is_disabled": 0, "lon": -76.98756666666667, "is_reserved": 0, "fusion_lat": 0.0, "type": "electric_bike"}, {"fusion_lon": 0.0, "name": "6d41deb50ff58f4f5fdc2ffa65e420de", "rental_uris": {"android": "https://dc.lft.to/lastmile_qr_scan", "ios": "https://dc.lft.to/lastmile_qr_scan"}, "lat": 38.894200166666664, "bike_id": "6d41deb50ff58f4f5fdc2ffa65e420de", "is_disabled": 0, "lon": -76.99771816666667, "is_reserved": 0, "fusion_lat": 0.0, "type": "electric_scooter"}, {"fusion_lon": 0.0, "name": "bf0a0869074e05e557201aabba8993e3", "rental_uris": {"android": "https://dc.lft.to/lastmile_qr_scan", "ios": "https://dc.lft.to/lastmile_qr_scan"}, "lat": 38.96123933333333, "bike_id": "bf0a0869074e05e557201aabba8993e3", "is_disabled": 0, "lon": -77.032776, "is_reserved": 0, "fusion_lat": 0.0, "type": "electric_bike"}, {"fusion_lon": 0.0, "name": "2d8e3fe8144153f3ea765b806db5c96a", "rental_uris": {"android": "https://dc.lft.to/lastmile_qr_scan", "ios": "https://dc.lft.to/lastmile_qr_scan"}, "lat": 38.88879033333333, "bike_id": "2d8e3fe8144153f3ea765b806db5c96a", "is_disabled": 0, "lon": -76.97733516666666, "is_reserved": 0, "fusion_lat": 0.0, "type": "electric_scooter"}, {"fusion_lon": 0.0, "name": "b71851387dc51e0ea319ac0af9ed82fa", "rental_uris": {"android": "https://dc.lft.to/lastmile_qr_scan", "ios": "https://dc.lft.to/lastmile_qr_scan"}, "lat": 38.9416215, "bike_id": "b71851387dc51e0ea319ac0af9ed82fa", "is_disabled": 0, "lon": -77.02560583333333, "is_reserved": 0, "fusion_lat": 0.0, "type": "electric_scooter"}, {"fusion_lon": 0.0, "name": "cd93477f2854703221503ff2240b4509", "rental_uris": {"android": "https://dc.lft.to/lastmile_qr_scan", "ios": "https://dc.lft.to/lastmile_qr_scan"}, "lat": 38.89847133333333, "bike_id": "cd93477f2854703221503ff2240b4509", "is_disabled": 0, "lon": -77.043744, "is_reserved": 0, "fusion_lat": 0.0, "type": "electric_scooter"}, {"fusion_lon": 0.0, "name": "52d7f10618a13533d89806fe082d539e", "rental_uris": {"android": "https://dc.lft.to/lastmile_qr_scan", "ios": "https://dc.lft.to/lastmile_qr_scan"}, "lat": 38.9093245, "bike_id": "52d7f10618a13533d89806fe082d539e", "is_disabled": 0, "lon": -77.0384805, "is_reserved": 0, "fusion_lat": 0.0, "type": "electric_scooter"}, {"fusion_lon": 0.0, "name": "8a286ba56bbef608bd1701ee5c5d58bf", "rental_uris": {"android": "https://dc.lft.to/lastmile_qr_scan", "ios": "https://dc.lft.to/lastmile_qr_scan"}, "lat": 38.888788, "bike_id": "8a286ba56bbef608bd1701ee5c5d58bf", "is_disabled": 0, "lon": -76.99030866666666, "is_reserved": 0, "fusion_lat": 0.0, "type": "electric_scooter"}, {"fusion_lon": 0.0, "name": "0854b1036e4a46a14db5a2aaf53e0cf1", "rental_uris": {"android": "https://dc.lft.to/lastmile_qr_scan", "ios": "https://dc.lft.to/lastmile_qr_scan"}, "lat": 38.92481183333334, "bike_id": "0854b1036e4a46a14db5a2aaf53e0cf1", "is_disabled": 0, "lon": -77.02244016666667, "is_reserved": 0, "fusion_lat": 0.0, "type": "electric_scooter"}, {"fusion_lon": 0.0, "name": "bff9338edc2cf49e0a74a9d43d4c9fd1", "rental_uris": {"android": "https://dc.lft.to/lastmile_qr_scan", "ios": "https://dc.lft.to/lastmile_qr_scan"}, "lat": 38.905796, "bike_id": "bff9338edc2cf49e0a74a9d43d4c9fd1", "is_disabled": 0, "lon": -77.005741, "is_reserved": 0, "fusion_lat": 0.0, "type": "electric_scooter"}, {"fusion_lon": 0.0, "name": "5970091dc8d8ff6bd25ae15261b6dca8", "rental_uris": {"android": "https://dc.lft.to/lastmile_qr_scan", "ios": "https://dc.lft.to/lastmile_qr_scan"}, "lat": 38.944972666666665, "bike_id": "5970091dc8d8ff6bd25ae15261b6dca8", "is_disabled": 0, "lon": -77.06379033333333, "is_reserved": 0, "fusion_lat": 0.0, "type": "electric_scooter"}, {"fusion_lon": 0.0, "name": "412614d9af401b087e73a3545c5560c0", "rental_uris": {"android": "https://dc.lft.to/lastmile_qr_scan", "ios": "https://dc.lft.to/lastmile_qr_scan"}, "lat": 38.87905816666667, "bike_id": "412614d9af401b087e73a3545c5560c0", "is_disabled": 0, "lon": -77.0059775, "is_reserved": 0, "fusion_lat": 0.0, "type": "electric_scooter"}, {"fusion_lon": 0.0, "name": "24607b63718a688aaa9401a69422ae02", "rental_uris": {"android": "https://dc.lft.to/lastmile_qr_scan", "ios": "https://dc.lft.to/lastmile_qr_scan"}, "lat": 38.920737333333335, "bike_id": "24607b63718a688aaa9401a69422ae02", "is_disabled": 0, "lon": -77.03458983333333, "is_reserved": 0, "fusion_lat": 0.0, "type": "electric_scooter"}, {"fusion_lon": 0.0, "name": "3a82af761ca706dd88ee68f3f22aa7e1", "rental_uris": {"android": "https://dc.lft.to/lastmile_qr_scan", "ios": "https://dc.lft.to/lastmile_qr_scan"}, "lat": 38.9182335, "bike_id": "3a82af761ca706dd88ee68f3f22aa7e1", "is_disabled": 0, "lon": -77.04173883333333, "is_reserved": 0, "fusion_lat": 0.0, "type": "electric_scooter"}, {"fusion_lon": 0.0, "name": "29cf32db2eecd88a23f885eb5b46edfd", "rental_uris": {"android": "https://dc.lft.to/lastmile_qr_scan", "ios": "https://dc.lft.to/lastmile_qr_scan"}, "lat": 38.9023745, "bike_id": "29cf32db2eecd88a23f885eb5b46edfd", "is_disabled": 0, "lon": -77.053408, "is_reserved": 0, "fusion_lat": 0.0, "type": "electric_scooter"}, {"fusion_lon": 0.0, "name": "b0ce01bc990bfef94ccd4670d8a6132c", "rental_uris": {"android": "https://dc.lft.to/lastmile_qr_scan", "ios": "https://dc.lft.to/lastmile_qr_scan"}, "lat": 38.91790533333333, "bike_id": "b0ce01bc990bfef94ccd4670d8a6132c", "is_disabled": 0, "lon": -77.04023433333333, "is_reserved": 0, "fusion_lat": 0.0, "type": "electric_scooter"}, {"fusion_lon": 0.0, "name": "8877446281c4975d495dc9005bc95bef", "rental_uris": {"android": "https://dc.lft.to/lastmile_qr_scan", "ios": "https://dc.lft.to/lastmile_qr_scan"}, "lat": 38.937166, "bike_id": "8877446281c4975d495dc9005bc95bef", "is_disabled": 0, "lon": -77.03291583333333, "is_reserved": 0, "fusion_lat": 0.0, "type": "electric_scooter"}, {"fusion_lon": 0.0, "name": "10084cf354f06a306699daf8af06837e", "rental_uris": {"android": "https://dc.lft.to/lastmile_qr_scan", "ios": "https://dc.lft.to/lastmile_qr_scan"}, "lat": 38.90951483333333, "bike_id": "10084cf354f06a306699daf8af06837e", "is_disabled": 0, "lon": -77.0386775, "is_reserved": 0, "fusion_lat": 0.0, "type": "electric_scooter"}, {"fusion_lon": 0.0, "name": "617a618e05343b7aa57a26a045ef11ad", "rental_uris": {"android": "https://dc.lft.to/lastmile_qr_scan", "ios": "https://dc.lft.to/lastmile_qr_scan"}, "lat": 38.9272525, "bike_id": "617a618e05343b7aa57a26a045ef11ad", "is_disabled": 0, "lon": -77.035527, "is_reserved": 0, "fusion_lat": 0.0, "type": "electric_scooter"}, {"fusion_lon": 0.0, "name": "fd56b52c10f4599c7e41364aa157899a", "rental_uris": {"android": "https://dc.lft.to/lastmile_qr_scan", "ios": "https://dc.lft.to/lastmile_qr_scan"}, "lat": 38.9287885, "bike_id": "fd56b52c10f4599c7e41364aa157899a", "is_disabled": 0, "lon": -77.03340266666666, "is_reserved": 0, "fusion_lat": 0.0, "type": "electric_scooter"}, {"fusion_lon": 0.0, "name": "2fd7a423764471ddb4463c9401ba71bb", "rental_uris": {"android": "https://dc.lft.to/lastmile_qr_scan", "ios": "https://dc.lft.to/lastmile_qr_scan"}, "lat": 38.89217216666667, "bike_id": "2fd7a423764471ddb4463c9401ba71bb", "is_disabled": 0, "lon": -77.04360033333333, "is_reserved": 0, "fusion_lat": 0.0, "type": "electric_scooter"}, {"fusion_lon": 0.0, "name": "57946fa563a0fa50e81c3e8398f90b74", "rental_uris": {"android": "https://dc.lft.to/lastmile_qr_scan", "ios": "https://dc.lft.to/lastmile_qr_scan"}, "lat": 38.78462366666667, "bike_id": "57946fa563a0fa50e81c3e8398f90b74", "is_disabled": 0, "lon": -77.0543935, "is_reserved": 0, "fusion_lat": 0.0, "type": "electric_bike"}, {"fusion_lon": 0.0, "name": "45c9137abf359dd2d897a937e7948ae0", "rental_uris": {"android": "https://dc.lft.to/lastmile_qr_scan", "ios": "https://dc.lft.to/lastmile_qr_scan"}, "lat": 38.89641233333333, "bike_id": "45c9137abf359dd2d897a937e7948ae0", "is_disabled": 0, "lon": -77.02289566666667, "is_reserved": 0, "fusion_lat": 0.0, "type": "electric_scooter"}, {"fusion_lon": 0.0, "name": "fd56024e6677dc4ac0ad2a7776d7b281", "rental_uris": {"android": "https://dc.lft.to/lastmile_qr_scan", "ios": "https://dc.lft.to/lastmile_qr_scan"}, "lat": 38.897676833333335, "bike_id": "fd56024e6677dc4ac0ad2a7776d7b281", "is_disabled": 0, "lon": -77.0270585, "is_reserved": 0, "fusion_lat": 0.0, "type": "electric_scooter"}, {"fusion_lon": 0.0, "name": "59ca0c2b39f974ecb7dd1004c39c4980", "rental_uris": {"android": "https://dc.lft.to/lastmile_qr_scan", "ios": "https://dc.lft.to/lastmile_qr_scan"}, "lat": 38.96223916666667, "bike_id": "59ca0c2b39f974ecb7dd1004c39c4980", "is_disabled": 0, "lon": -77.01360383333333, "is_reserved": 0, "fusion_lat": 0.0, "type": "electric_scooter"}, {"fusion_lon": 0.0, "name": "bebcc55cdf58247aa73af5006d85b9b9", "rental_uris": {"android": "https://dc.lft.to/lastmile_qr_scan", "ios": "https://dc.lft.to/lastmile_qr_scan"}, "lat": 38.93163366666667, "bike_id": "bebcc55cdf58247aa73af5006d85b9b9", "is_disabled": 0, "lon": -77.03882466666667, "is_reserved": 0, "fusion_lat": 0.0, "type": "electric_scooter"}, {"fusion_lon": 0.0, "name": "ed014eb3c2f64d83778514688b6a6176", "rental_uris": {"android": "https://dc.lft.to/lastmile_qr_scan", "ios": "https://dc.lft.to/lastmile_qr_scan"}, "lat": 38.908486333333336, "bike_id": "ed014eb3c2f64d83778514688b6a6176", "is_disabled": 0, "lon": -77.04352633333333, "is_reserved": 0, "fusion_lat": 0.0, "type": "electric_scooter"}, {"fusion_lon": 0.0, "name": "034c35ea2b420730f41f0b246c16226f", "rental_uris": {"android": "https://dc.lft.to/lastmile_qr_scan", "ios": "https://dc.lft.to/lastmile_qr_scan"}, "lat": 38.896257, "bike_id": "034c35ea2b420730f41f0b246c16226f", "is_disabled": 0, "lon": -77.02939116666667, "is_reserved": 0, "fusion_lat": 0.0, "type": "electric_scooter"}, {"fusion_lon": 0.0, "name": "fa66f458fff6a64d6b5c5745d089b330", "rental_uris": {"android": "https://dc.lft.to/lastmile_qr_scan", "ios": "https://dc.lft.to/lastmile_qr_scan"}, "lat": 38.872907, "bike_id": "fa66f458fff6a64d6b5c5745d089b330", "is_disabled": 0, "lon": -77.00231116666667, "is_reserved": 0, "fusion_lat": 0.0, "type": "electric_scooter"}, {"fusion_lon": 0.0, "name": "21a9bffc480cf8e6a3e7399335354cc9", "rental_uris": {"android": "https://dc.lft.to/lastmile_qr_scan", "ios": "https://dc.lft.to/lastmile_qr_scan"}, "lat": 38.9230925, "bike_id": "21a9bffc480cf8e6a3e7399335354cc9", "is_disabled": 0, "lon": -77.03019283333333, "is_reserved": 0, "fusion_lat": 0.0, "type": "electric_scooter"}, {"fusion_lon": 0.0, "name": "e8686f8808787911ad49d09059f28edc", "rental_uris": {"android": "https://dc.lft.to/lastmile_qr_scan", "ios": "https://dc.lft.to/lastmile_qr_scan"}, "lat": 38.902639, "bike_id": "e8686f8808787911ad49d09059f28edc", "is_disabled": 0, "lon": -77.01763733333334, "is_reserved": 0, "fusion_lat": 0.0, "type": "electric_scooter"}, {"fusion_lon": 0.0, "name": "ac22091953a0873e6002e609ac5a009b", "rental_uris": {"android": "https://dc.lft.to/lastmile_qr_scan", "ios": "https://dc.lft.to/lastmile_qr_scan"}, "lat": 38.9071835, "bike_id": "ac22091953a0873e6002e609ac5a009b", "is_disabled": 0, "lon": -77.025435, "is_reserved": 0, "fusion_lat": 0.0, "type": "electric_scooter"}, {"fusion_lon": 0.0, "name": "8c372ea304c3beea13b718e42c418af7", "rental_uris": {"android": "https://dc.lft.to/lastmile_qr_scan", "ios": "https://dc.lft.to/lastmile_qr_scan"}, "lat": 38.924024, "bike_id": "8c372ea304c3beea13b718e42c418af7", "is_disabled": 0, "lon": -76.99593583333333, "is_reserved": 0, "fusion_lat": 0.0, "type": "electric_scooter"}, {"fusion_lon": 0.0, "name": "0f9df0cc49fe37dd5316817e1cbc3a75", "rental_uris": {"android": "https://dc.lft.to/lastmile_qr_scan", "ios": "https://dc.lft.to/lastmile_qr_scan"}, "lat": 38.80386333333333, "bike_id": "0f9df0cc49fe37dd5316817e1cbc3a75", "is_disabled": 0, "lon": -76.9881805, "is_reserved": 0, "fusion_lat": 0.0, "type": "electric_bike"}, {"fusion_lon": 0.0, "name": "ffab9dfa0794c95249abf0143abf7702", "rental_uris": {"android": "https://dc.lft.to/lastmile_qr_scan", "ios": "https://dc.lft.to/lastmile_qr_scan"}, "lat": 38.90557066666667, "bike_id": "ffab9dfa0794c95249abf0143abf7702", "is_disabled": 0, "lon": -77.03488916666667, "is_reserved": 0, "fusion_lat": 0.0, "type": "electric_scooter"}, {"fusion_lon": 0.0, "name": "8b5ed32046940f42d26dcb420d121594", "rental_uris": {"android": "https://dc.lft.to/lastmile_qr_scan", "ios": "https://dc.lft.to/lastmile_qr_scan"}, "lat": 38.918814166666664, "bike_id": "8b5ed32046940f42d26dcb420d121594", "is_disabled": 0, "lon": -77.02745933333334, "is_reserved": 0, "fusion_lat": 0.0, "type": "electric_scooter"}, {"fusion_lon": 0.0, "name": "53295352556f9f719fbd3e7ac2208240", "rental_uris": {"android": "https://dc.lft.to/lastmile_qr_scan", "ios": "https://dc.lft.to/lastmile_qr_scan"}, "lat": 38.880253333333336, "bike_id": "53295352556f9f719fbd3e7ac2208240", "is_disabled": 0, "lon": -76.9432495, "is_reserved": 0, "fusion_lat": 0.0, "type": "electric_scooter"}, {"fusion_lon": 0.0, "name": "58a12a97879f4c7b9846d17eee134dc7", "rental_uris": {"android": "https://dc.lft.to/lastmile_qr_scan", "ios": "https://dc.lft.to/lastmile_qr_scan"}, "lat": 38.896816333333334, "bike_id": "58a12a97879f4c7b9846d17eee134dc7", "is_disabled": 0, "lon": -76.93665016666667, "is_reserved": 0, "fusion_lat": 0.0, "type": "electric_scooter"}, {"fusion_lon": 0.0, "name": "3a580e56a25b52f21bde09b5af5a0bc5", "rental_uris": {"android": "https://dc.lft.to/lastmile_qr_scan", "ios": "https://dc.lft.to/lastmile_qr_scan"}, "lat": 38.866594666666664, "bike_id": "3a580e56a25b52f21bde09b5af5a0bc5", "is_disabled": 0, "lon": -76.97910933333333, "is_reserved": 0, "fusion_lat": 0.0, "type": "electric_scooter"}, {"fusion_lon": 0.0, "name": "a6a6efd1e2df47553a8c8ff4265deb2b", "rental_uris": {"android": "https://dc.lft.to/lastmile_qr_scan", "ios": "https://dc.lft.to/lastmile_qr_scan"}, "lat": 38.90541616666667, "bike_id": "a6a6efd1e2df47553a8c8ff4265deb2b", "is_disabled": 0, "lon": -77.02201183333334, "is_reserved": 0, "fusion_lat": 0.0, "type": "electric_scooter"}, {"fusion_lon": 0.0, "name": "786bd6210eee68c9d45361415aae7027", "rental_uris": {"android": "https://dc.lft.to/lastmile_qr_scan", "ios": "https://dc.lft.to/lastmile_qr_scan"}, "lat": 38.91127783333334, "bike_id": "786bd6210eee68c9d45361415aae7027", "is_disabled": 0, "lon": -77.02200316666666, "is_reserved": 0, "fusion_lat": 0.0, "type": "electric_scooter"}, {"fusion_lon": 0.0, "name": "94d4ff063582675edc2b6a922ed5d69a", "rental_uris": {"android": "https://dc.lft.to/lastmile_qr_scan", "ios": "https://dc.lft.to/lastmile_qr_scan"}, "lat": 38.91350683333334, "bike_id": "94d4ff063582675edc2b6a922ed5d69a", "is_disabled": 0, "lon": -76.98890716666666, "is_reserved": 0, "fusion_lat": 0.0, "type": "electric_scooter"}, {"fusion_lon": 0.0, "name": "e6bdfe8adc5d1d0328b11fe91095ab78", "rental_uris": {"android": "https://dc.lft.to/lastmile_qr_scan", "ios": "https://dc.lft.to/lastmile_qr_scan"}, "lat": 38.90155716666666, "bike_id": "e6bdfe8adc5d1d0328b11fe91095ab78", "is_disabled": 0, "lon": -76.92132583333333, "is_reserved": 0, "fusion_lat": 0.0, "type": "electric_scooter"}, {"fusion_lon": 0.0, "name": "85679d6d763f6a9eb71ee471517e7553", "rental_uris": {"android": "https://dc.lft.to/lastmile_qr_scan", "ios": "https://dc.lft.to/lastmile_qr_scan"}, "lat": 38.85215816666667, "bike_id": "85679d6d763f6a9eb71ee471517e7553", "is_disabled": 0, "lon": -76.99431433333334, "is_reserved": 0, "fusion_lat": 0.0, "type": "electric_scooter"}, {"fusion_lon": 0.0, "name": "360a999a0f36e18cddffe1150b8312e6", "rental_uris": {"android": "https://dc.lft.to/lastmile_qr_scan", "ios": "https://dc.lft.to/lastmile_qr_scan"}, "lat": 38.92852216666667, "bike_id": "360a999a0f36e18cddffe1150b8312e6", "is_disabled": 0, "lon": -77.0542985, "is_reserved": 0, "fusion_lat": 0.0, "type": "electric_scooter"}, {"fusion_lon": 0.0, "name": "3493117a6aaf14daec6e4d6c83bb323d", "rental_uris": {"android": "https://dc.lft.to/lastmile_qr_scan", "ios": "https://dc.lft.to/lastmile_qr_scan"}, "lat": 38.9360625, "bike_id": "3493117a6aaf14daec6e4d6c83bb323d", "is_disabled": 0, "lon": -77.03214116666666, "is_reserved": 0, "fusion_lat": 0.0, "type": "electric_scooter"}, {"fusion_lon": 0.0, "name": "af6c504800ca4ff1d3a8fa737eff9f4b", "rental_uris": {"android": "https://dc.lft.to/lastmile_qr_scan", "ios": "https://dc.lft.to/lastmile_qr_scan"}, "lat": 38.87552783333334, "bike_id": "af6c504800ca4ff1d3a8fa737eff9f4b", "is_disabled": 0, "lon": -77.00574633333333, "is_reserved": 0, "fusion_lat": 0.0, "type": "electric_scooter"}, {"fusion_lon": 0.0, "name": "944cb7cb9488da8272f952d6b173e13e", "rental_uris": {"android": "https://dc.lft.to/lastmile_qr_scan", "ios": "https://dc.lft.to/lastmile_qr_scan"}, "lat": 38.90526, "bike_id": "944cb7cb9488da8272f952d6b173e13e", "is_disabled": 0, "lon": -77.06174666666666, "is_reserved": 0, "fusion_lat": 0.0, "type": "electric_scooter"}, {"fusion_lon": 0.0, "name": "be553b3c1f92b05f3ecbb459fc8b6b57", "rental_uris": {"android": "https://dc.lft.to/lastmile_qr_scan", "ios": "https://dc.lft.to/lastmile_qr_scan"}, "lat": 38.87173216666667, "bike_id": "be553b3c1f92b05f3ecbb459fc8b6b57", "is_disabled": 0, "lon": -77.00624983333333, "is_reserved": 0, "fusion_lat": 0.0, "type": "electric_scooter"}, {"fusion_lon": 0.0, "name": "e3fa8cf548b8bff6071fd58824a9954a", "rental_uris": {"android": "https://dc.lft.to/lastmile_qr_scan", "ios": "https://dc.lft.to/lastmile_qr_scan"}, "lat": 38.9612135, "bike_id": "e3fa8cf548b8bff6071fd58824a9954a", "is_disabled": 0, "lon": -77.02795933333333, "is_reserved": 0, "fusion_lat": 0.0, "type": "electric_scooter"}, {"fusion_lon": 0.0, "name": "3b1d5eed6d36ab737ed1c4b66793b61c", "rental_uris": {"android": "https://dc.lft.to/lastmile_qr_scan", "ios": "https://dc.lft.to/lastmile_qr_scan"}, "lat": 38.88631433333333, "bike_id": "3b1d5eed6d36ab737ed1c4b66793b61c", "is_disabled": 0, "lon": -77.0152775, "is_reserved": 0, "fusion_lat": 0.0, "type": "electric_scooter"}, {"fusion_lon": 0.0, "name": "fe710285379189124780842d3055974c", "rental_uris": {"android": "https://dc.lft.to/lastmile_qr_scan", "ios": "https://dc.lft.to/lastmile_qr_scan"}, "lat": 38.904498, "bike_id": "fe710285379189124780842d3055974c", "is_disabled": 0, "lon": -77.05152133333333, "is_reserved": 0, "fusion_lat": 0.0, "type": "electric_scooter"}, {"fusion_lon": 0.0, "name": "4ef919713422e9cf9e1fdc39e5967c47", "rental_uris": {"android": "https://dc.lft.to/lastmile_qr_scan", "ios": "https://dc.lft.to/lastmile_qr_scan"}, "lat": 38.91923116666667, "bike_id": "4ef919713422e9cf9e1fdc39e5967c47", "is_disabled": 0, "lon": -77.00973983333333, "is_reserved": 0, "fusion_lat": 0.0, "type": "electric_scooter"}, {"fusion_lon": 0.0, "name": "28a728bb7833b2d182432d34e8b15aef", "rental_uris": {"android": "https://dc.lft.to/lastmile_qr_scan", "ios": "https://dc.lft.to/lastmile_qr_scan"}, "lat": 38.89848116666667, "bike_id": "28a728bb7833b2d182432d34e8b15aef", "is_disabled": 0, "lon": -76.99032283333334, "is_reserved": 0, "fusion_lat": 0.0, "type": "electric_scooter"}, {"fusion_lon": 0.0, "name": "f806a7adb3b6782f173ababbabd12df9", "rental_uris": {"android": "https://dc.lft.to/lastmile_qr_scan", "ios": "https://dc.lft.to/lastmile_qr_scan"}, "lat": 38.90355383333333, "bike_id": "f806a7adb3b6782f173ababbabd12df9", "is_disabled": 0, "lon": -77.02612783333333, "is_reserved": 0, "fusion_lat": 0.0, "type": "electric_scooter"}, {"fusion_lon": 0.0, "name": "a16a6eabfefc22f8fcd4ed4761b3fadf", "rental_uris": {"android": "https://dc.lft.to/lastmile_qr_scan", "ios": "https://dc.lft.to/lastmile_qr_scan"}, "lat": 38.906215333333336, "bike_id": "a16a6eabfefc22f8fcd4ed4761b3fadf", "is_disabled": 0, "lon": -76.950145, "is_reserved": 0, "fusion_lat": 0.0, "type": "electric_scooter"}, {"fusion_lon": 0.0, "name": "d1ec927517fad01ec65d9933602e517f", "rental_uris": {"android": "https://dc.lft.to/lastmile_qr_scan", "ios": "https://dc.lft.to/lastmile_qr_scan"}, "lat": 38.8850915, "bike_id": "d1ec927517fad01ec65d9933602e517f", "is_disabled": 0, "lon": -77.01117383333333, "is_reserved": 0, "fusion_lat": 0.0, "type": "electric_scooter"}, {"fusion_lon": 0.0, "name": "57cbec4bdcaa245c5cf87e12dd69278b", "rental_uris": {"android": "https://dc.lft.to/lastmile_qr_scan", "ios": "https://dc.lft.to/lastmile_qr_scan"}, "lat": 38.91805, "bike_id": "57cbec4bdcaa245c5cf87e12dd69278b", "is_disabled": 0, "lon": -77.02491266666667, "is_reserved": 0, "fusion_lat": 0.0, "type": "electric_scooter"}, {"fusion_lon": 0.0, "name": "2d80daa8f0a0334884be5a01d9fdd899", "rental_uris": {"android": "https://dc.lft.to/lastmile_qr_scan", "ios": "https://dc.lft.to/lastmile_qr_scan"}, "lat": 38.90730083333333, "bike_id": "2d80daa8f0a0334884be5a01d9fdd899", "is_disabled": 0, "lon": -77.02796233333333, "is_reserved": 0, "fusion_lat": 0.0, "type": "electric_scooter"}, {"fusion_lon": 0.0, "name": "d5be25efe880689da7217a38963598c0", "rental_uris": {"android": "https://dc.lft.to/lastmile_qr_scan", "ios": "https://dc.lft.to/lastmile_qr_scan"}, "lat": 38.90083683333334, "bike_id": "d5be25efe880689da7217a38963598c0", "is_disabled": 0, "lon": -77.0216845, "is_reserved": 0, "fusion_lat": 0.0, "type": "electric_scooter"}, {"fusion_lon": 0.0, "name": "5cb4eeb234bd63b615ae732b9fd3cc9f", "rental_uris": {"android": "https://dc.lft.to/lastmile_qr_scan", "ios": "https://dc.lft.to/lastmile_qr_scan"}, "lat": 38.923837166666665, "bike_id": "5cb4eeb234bd63b615ae732b9fd3cc9f", "is_disabled": 0, "lon": -77.03051566666667, "is_reserved": 0, "fusion_lat": 0.0, "type": "electric_scooter"}, {"fusion_lon": 0.0, "name": "e399dc64e51ad6a4fdcdcced6e6c0587", "rental_uris": {"android": "https://dc.lft.to/lastmile_qr_scan", "ios": "https://dc.lft.to/lastmile_qr_scan"}, "lat": 38.9161385, "bike_id": "e399dc64e51ad6a4fdcdcced6e6c0587", "is_disabled": 0, "lon": -77.0415105, "is_reserved": 0, "fusion_lat": 0.0, "type": "electric_scooter"}, {"fusion_lon": 0.0, "name": "510b2c37a09d9604962b32a47d089a3a", "rental_uris": {"android": "https://dc.lft.to/lastmile_qr_scan", "ios": "https://dc.lft.to/lastmile_qr_scan"}, "lat": 38.9057095, "bike_id": "510b2c37a09d9604962b32a47d089a3a", "is_disabled": 0, "lon": -77.02173816666667, "is_reserved": 0, "fusion_lat": 0.0, "type": "electric_scooter"}, {"fusion_lon": 0.0, "name": "cc511184013f71279a0f261451cfd5b8", "rental_uris": {"android": "https://dc.lft.to/lastmile_qr_scan", "ios": "https://dc.lft.to/lastmile_qr_scan"}, "lat": 38.908620166666665, "bike_id": "cc511184013f71279a0f261451cfd5b8", "is_disabled": 0, "lon": -77.03220683333333, "is_reserved": 0, "fusion_lat": 0.0, "type": "electric_scooter"}, {"fusion_lon": 0.0, "name": "fa48ef3530f32c1131d52bbbd1065b2d", "rental_uris": {"android": "https://dc.lft.to/lastmile_qr_scan", "ios": "https://dc.lft.to/lastmile_qr_scan"}, "lat": 38.87523383333333, "bike_id": "fa48ef3530f32c1131d52bbbd1065b2d", "is_disabled": 0, "lon": -77.012311, "is_reserved": 0, "fusion_lat": 0.0, "type": "electric_scooter"}, {"fusion_lon": 0.0, "name": "77d5e6b1791f4e7c8ad0ec5c8ac7acb3", "rental_uris": {"android": "https://dc.lft.to/lastmile_qr_scan", "ios": "https://dc.lft.to/lastmile_qr_scan"}, "lat": 38.9226045, "bike_id": "77d5e6b1791f4e7c8ad0ec5c8ac7acb3", "is_disabled": 0, "lon": -76.98649616666667, "is_reserved": 0, "fusion_lat": 0.0, "type": "electric_scooter"}, {"fusion_lon": 0.0, "name": "da43ef60125b445fc7361346914cfe90", "rental_uris": {"android": "https://dc.lft.to/lastmile_qr_scan", "ios": "https://dc.lft.to/lastmile_qr_scan"}, "lat": 38.97314216666667, "bike_id": "da43ef60125b445fc7361346914cfe90", "is_disabled": 0, "lon": -77.02708333333334, "is_reserved": 0, "fusion_lat": 0.0, "type": "electric_scooter"}, {"fusion_lon": 0.0, "name": "e5650a1d3c7b2a744006d95ffa4bf7fd", "rental_uris": {"android": "https://dc.lft.to/lastmile_qr_scan", "ios": "https://dc.lft.to/lastmile_qr_scan"}, "lat": 38.90430416666667, "bike_id": "e5650a1d3c7b2a744006d95ffa4bf7fd", "is_disabled": 0, "lon": -77.05332833333334, "is_reserved": 0, "fusion_lat": 0.0, "type": "electric_scooter"}, {"fusion_lon": 0.0, "name": "d0014a8df23f5247e2e58712a5707a76", "rental_uris": {"android": "https://dc.lft.to/lastmile_qr_scan", "ios": "https://dc.lft.to/lastmile_qr_scan"}, "lat": 38.920621833333335, "bike_id": "d0014a8df23f5247e2e58712a5707a76", "is_disabled": 0, "lon": -77.02304233333334, "is_reserved": 0, "fusion_lat": 0.0, "type": "electric_scooter"}, {"fusion_lon": 0.0, "name": "2895d61380108c48a73a1b0129d89a1f", "rental_uris": {"android": "https://dc.lft.to/lastmile_qr_scan", "ios": "https://dc.lft.to/lastmile_qr_scan"}, "lat": 38.9101775, "bike_id": "2895d61380108c48a73a1b0129d89a1f", "is_disabled": 0, "lon": -76.993734, "is_reserved": 0, "fusion_lat": 0.0, "type": "electric_scooter"}, {"fusion_lon": 0.0, "name": "746fe302c24b28f1fee899d65bd99cbf", "rental_uris": {"android": "https://dc.lft.to/lastmile_qr_scan", "ios": "https://dc.lft.to/lastmile_qr_scan"}, "lat": 38.90622116666667, "bike_id": "746fe302c24b28f1fee899d65bd99cbf", "is_disabled": 0, "lon": -76.993293, "is_reserved": 0, "fusion_lat": 0.0, "type": "electric_scooter"}, {"fusion_lon": 0.0, "name": "2b78276154a0e9e4382e381fc2b68c30", "rental_uris": {"android": "https://dc.lft.to/lastmile_qr_scan", "ios": "https://dc.lft.to/lastmile_qr_scan"}, "lat": 38.9169685, "bike_id": "2b78276154a0e9e4382e381fc2b68c30", "is_disabled": 0, "lon": -77.03836866666667, "is_reserved": 0, "fusion_lat": 0.0, "type": "electric_scooter"}, {"fusion_lon": 0.0, "name": "b0358d0abb088b184ee80313e2376334", "rental_uris": {"android": "https://dc.lft.to/lastmile_qr_scan", "ios": "https://dc.lft.to/lastmile_qr_scan"}, "lat": 38.920821333333336, "bike_id": "b0358d0abb088b184ee80313e2376334", "is_disabled": 0, "lon": -77.02304133333334, "is_reserved": 0, "fusion_lat": 0.0, "type": "electric_scooter"}, {"fusion_lon": 0.0, "name": "9e55ce01b4111b4c38a3154e3c610f5d", "rental_uris": {"android": "https://dc.lft.to/lastmile_qr_scan", "ios": "https://dc.lft.to/lastmile_qr_scan"}, "lat": 38.88443083333333, "bike_id": "9e55ce01b4111b4c38a3154e3c610f5d", "is_disabled": 0, "lon": -76.957653, "is_reserved": 0, "fusion_lat": 0.0, "type": "electric_scooter"}, {"fusion_lon": 0.0, "name": "91d2d5911743a488f739dcf9ecbc0d5c", "rental_uris": {"android": "https://dc.lft.to/lastmile_qr_scan", "ios": "https://dc.lft.to/lastmile_qr_scan"}, "lat": 38.928156, "bike_id": "91d2d5911743a488f739dcf9ecbc0d5c", "is_disabled": 0, "lon": -77.02241683333334, "is_reserved": 0, "fusion_lat": 0.0, "type": "electric_scooter"}, {"fusion_lon": 0.0, "name": "f70a66690978bd2046e406abfde3777e", "rental_uris": {"android": "https://dc.lft.to/lastmile_qr_scan", "ios": "https://dc.lft.to/lastmile_qr_scan"}, "lat": 38.91578633333334, "bike_id": "f70a66690978bd2046e406abfde3777e", "is_disabled": 0, "lon": -77.01230066666666, "is_reserved": 0, "fusion_lat": 0.0, "type": "electric_scooter"}, {"fusion_lon": 0.0, "name": "7f6e4ae022ae73b0ee76bf90f8825fa0", "rental_uris": {"android": "https://dc.lft.to/lastmile_qr_scan", "ios": "https://dc.lft.to/lastmile_qr_scan"}, "lat": 38.917994, "bike_id": "7f6e4ae022ae73b0ee76bf90f8825fa0", "is_disabled": 0, "lon": -77.03444933333333, "is_reserved": 0, "fusion_lat": 0.0, "type": "electric_scooter"}, {"fusion_lon": 0.0, "name": "eb3a54681675262aac1dd86ab5e6b92e", "rental_uris": {"android": "https://dc.lft.to/lastmile_qr_scan", "ios": "https://dc.lft.to/lastmile_qr_scan"}, "lat": 38.91026316666667, "bike_id": "eb3a54681675262aac1dd86ab5e6b92e", "is_disabled": 0, "lon": -77.04259216666667, "is_reserved": 0, "fusion_lat": 0.0, "type": "electric_scooter"}, {"fusion_lon": 0.0, "name": "25bb70af2cb1d1ead0248fc77bb8854b", "rental_uris": {"android": "https://dc.lft.to/lastmile_qr_scan", "ios": "https://dc.lft.to/lastmile_qr_scan"}, "lat": 38.89483216666667, "bike_id": "25bb70af2cb1d1ead0248fc77bb8854b", "is_disabled": 0, "lon": -76.9951995, "is_reserved": 0, "fusion_lat": 0.0, "type": "electric_scooter"}, {"fusion_lon": 0.0, "name": "3017c78fe9ffc33a72e28b7b71a53b79", "rental_uris": {"android": "https://dc.lft.to/lastmile_qr_scan", "ios": "https://dc.lft.to/lastmile_qr_scan"}, "lat": 38.898973, "bike_id": "3017c78fe9ffc33a72e28b7b71a53b79", "is_disabled": 0, "lon": -77.02456866666667, "is_reserved": 0, "fusion_lat": 0.0, "type": "electric_scooter"}, {"fusion_lon": 0.0, "name": "b92dd2c58cd2c5479f9f858cc7b8e12d", "rental_uris": {"android": "https://dc.lft.to/lastmile_qr_scan", "ios": "https://dc.lft.to/lastmile_qr_scan"}, "lat": 38.90582166666667, "bike_id": "b92dd2c58cd2c5479f9f858cc7b8e12d", "is_disabled": 0, "lon": -77.00596966666667, "is_reserved": 0, "fusion_lat": 0.0, "type": "electric_scooter"}, {"fusion_lon": 0.0, "name": "d55e10190ad01b6eae358155af9a950b", "rental_uris": {"android": "https://dc.lft.to/lastmile_qr_scan", "ios": "https://dc.lft.to/lastmile_qr_scan"}, "lat": 38.83299233333334, "bike_id": "d55e10190ad01b6eae358155af9a950b", "is_disabled": 0, "lon": -77.08414383333333, "is_reserved": 0, "fusion_lat": 0.0, "type": "electric_bike"}, {"fusion_lon": 0.0, "name": "34a7e3ade9cc5c0c7bfa528a6945df8e", "rental_uris": {"android": "https://dc.lft.to/lastmile_qr_scan", "ios": "https://dc.lft.to/lastmile_qr_scan"}, "lat": 38.91837533333333, "bike_id": "34a7e3ade9cc5c0c7bfa528a6945df8e", "is_disabled": 0, "lon": -77.023063, "is_reserved": 0, "fusion_lat": 0.0, "type": "electric_scooter"}, {"fusion_lon": 0.0, "name": "ac56d874e8a91282bb6d3e26fa78fc77", "rental_uris": {"android": "https://dc.lft.to/lastmile_qr_scan", "ios": "https://dc.lft.to/lastmile_qr_scan"}, "lat": 38.9036945, "bike_id": "ac56d874e8a91282bb6d3e26fa78fc77", "is_disabled": 0, "lon": -77.0058845, "is_reserved": 0, "fusion_lat": 0.0, "type": "electric_scooter"}, {"fusion_lon": 0.0, "name": "6f1ad225b54df704482d03394a20a00e", "rental_uris": {"android": "https://dc.lft.to/lastmile_qr_scan", "ios": "https://dc.lft.to/lastmile_qr_scan"}, "lat": 38.92172883333333, "bike_id": "6f1ad225b54df704482d03394a20a00e", "is_disabled": 0, "lon": -77.04026533333334, "is_reserved": 0, "fusion_lat": 0.0, "type": "electric_scooter"}, {"fusion_lon": 0.0, "name": "674f6b44af912bd31db3c378796f5905", "rental_uris": {"android": "https://dc.lft.to/lastmile_qr_scan", "ios": "https://dc.lft.to/lastmile_qr_scan"}, "lat": 38.8847825, "bike_id": "674f6b44af912bd31db3c378796f5905", "is_disabled": 0, "lon": -77.01982683333334, "is_reserved": 0, "fusion_lat": 0.0, "type": "electric_scooter"}, {"fusion_lon": 0.0, "name": "e211cc3d4587689f9bbb830a683d1fbf", "rental_uris": {"android": "https://dc.lft.to/lastmile_qr_scan", "ios": "https://dc.lft.to/lastmile_qr_scan"}, "lat": 38.87578233333333, "bike_id": "e211cc3d4587689f9bbb830a683d1fbf", "is_disabled": 0, "lon": -77.00572916666667, "is_reserved": 0, "fusion_lat": 0.0, "type": "electric_scooter"}, {"fusion_lon": 0.0, "name": "4c44d22eb7a48300217a1ea9e80ac65a", "rental_uris": {"android": "https://dc.lft.to/lastmile_qr_scan", "ios": "https://dc.lft.to/lastmile_qr_scan"}, "lat": 38.87669966666667, "bike_id": "4c44d22eb7a48300217a1ea9e80ac65a", "is_disabled": 0, "lon": -77.0143175, "is_reserved": 0, "fusion_lat": 0.0, "type": "electric_bike"}, {"fusion_lon": 0.0, "name": "8520fbb4338fbef6d9ff93c63feeba99", "rental_uris": {"android": "https://dc.lft.to/lastmile_qr_scan", "ios": "https://dc.lft.to/lastmile_qr_scan"}, "lat": 38.89908583333333, "bike_id": "8520fbb4338fbef6d9ff93c63feeba99", "is_disabled": 0, "lon": -76.93392016666667, "is_reserved": 0, "fusion_lat": 0.0, "type": "electric_scooter"}, {"fusion_lon": 0.0, "name": "8bb0d18de91f2e77844d4e86efc93c51", "rental_uris": {"android": "https://dc.lft.to/lastmile_qr_scan", "ios": "https://dc.lft.to/lastmile_qr_scan"}, "lat": 38.90567683333333, "bike_id": "8bb0d18de91f2e77844d4e86efc93c51", "is_disabled": 0, "lon": -77.0218455, "is_reserved": 0, "fusion_lat": 0.0, "type": "electric_scooter"}, {"fusion_lon": 0.0, "name": "825f320651bb9609f450f68cd9f81d53", "rental_uris": {"android": "https://dc.lft.to/lastmile_qr_scan", "ios": "https://dc.lft.to/lastmile_qr_scan"}, "lat": 38.987323333333336, "bike_id": "825f320651bb9609f450f68cd9f81d53", "is_disabled": 0, "lon": -77.00920066666667, "is_reserved": 0, "fusion_lat": 0.0, "type": "electric_bike"}, {"fusion_lon": 0.0, "name": "1d45cf449e78ea3d1ee0fe8a32f24208", "rental_uris": {"android": "https://dc.lft.to/lastmile_qr_scan", "ios": "https://dc.lft.to/lastmile_qr_scan"}, "lat": 38.92895333333333, "bike_id": "1d45cf449e78ea3d1ee0fe8a32f24208", "is_disabled": 0, "lon": -77.0348285, "is_reserved": 0, "fusion_lat": 0.0, "type": "electric_scooter"}, {"fusion_lon": 0.0, "name": "b1a23581816382250241dabcdb3e7a77", "rental_uris": {"android": "https://dc.lft.to/lastmile_qr_scan", "ios": "https://dc.lft.to/lastmile_qr_scan"}, "lat": 38.90445016666666, "bike_id": "b1a23581816382250241dabcdb3e7a77", "is_disabled": 0, "lon": -77.05328183333333, "is_reserved": 0, "fusion_lat": 0.0, "type": "electric_scooter"}, {"fusion_lon": 0.0, "name": "96bc1b2860959da3ef72348fb0e34b5d", "rental_uris": {"android": "https://dc.lft.to/lastmile_qr_scan", "ios": "https://dc.lft.to/lastmile_qr_scan"}, "lat": 38.91789633333333, "bike_id": "96bc1b2860959da3ef72348fb0e34b5d", "is_disabled": 0, "lon": -77.04024066666666, "is_reserved": 0, "fusion_lat": 0.0, "type": "electric_scooter"}, {"fusion_lon": 0.0, "name": "453414f7f6d9de2ef3d0d4439d42f629", "rental_uris": {"android": "https://dc.lft.to/lastmile_qr_scan", "ios": "https://dc.lft.to/lastmile_qr_scan"}, "lat": 38.91986216666667, "bike_id": "453414f7f6d9de2ef3d0d4439d42f629", "is_disabled": 0, "lon": -77.0326005, "is_reserved": 0, "fusion_lat": 0.0, "type": "electric_scooter"}, {"fusion_lon": 0.0, "name": "454f0f953b06333bb0f01676c2cafc6b", "rental_uris": {"android": "https://dc.lft.to/lastmile_qr_scan", "ios": "https://dc.lft.to/lastmile_qr_scan"}, "lat": 38.93355833333333, "bike_id": "454f0f953b06333bb0f01676c2cafc6b", "is_disabled": 0, "lon": -77.08573283333334, "is_reserved": 0, "fusion_lat": 0.0, "type": "electric_scooter"}, {"fusion_lon": 0.0, "name": "bbe50cc124831732f823cc9ddf13ecad", "rental_uris": {"android": "https://dc.lft.to/lastmile_qr_scan", "ios": "https://dc.lft.to/lastmile_qr_scan"}, "lat": 38.901129833333336, "bike_id": "bbe50cc124831732f823cc9ddf13ecad", "is_disabled": 0, "lon": -77.04483183333333, "is_reserved": 0, "fusion_lat": 0.0, "type": "electric_scooter"}, {"fusion_lon": 0.0, "name": "7550c4b62a46859436abe36fc069a49b", "rental_uris": {"android": "https://dc.lft.to/lastmile_qr_scan", "ios": "https://dc.lft.to/lastmile_qr_scan"}, "lat": 38.8624435, "bike_id": "7550c4b62a46859436abe36fc069a49b", "is_disabled": 0, "lon": -76.99498966666667, "is_reserved": 0, "fusion_lat": 0.0, "type": "electric_scooter"}, {"fusion_lon": 0.0, "name": "756ea550e38bc8aa3a55147576f2967c", "rental_uris": {"android": "https://dc.lft.to/lastmile_qr_scan", "ios": "https://dc.lft.to/lastmile_qr_scan"}, "lat": 38.904810499999996, "bike_id": "756ea550e38bc8aa3a55147576f2967c", "is_disabled": 0, "lon": -77.04869583333333, "is_reserved": 0, "fusion_lat": 0.0, "type": "electric_scooter"}, {"fusion_lon": 0.0, "name": "fad845ccf4b8c17d63b057832e6230f5", "rental_uris": {"android": "https://dc.lft.to/lastmile_qr_scan", "ios": "https://dc.lft.to/lastmile_qr_scan"}, "lat": 38.923262333333334, "bike_id": "fad845ccf4b8c17d63b057832e6230f5", "is_disabled": 0, "lon": -77.019493, "is_reserved": 0, "fusion_lat": 0.0, "type": "electric_scooter"}, {"fusion_lon": 0.0, "name": "1888b8dd7782ed6fd2403cbb87992bda", "rental_uris": {"android": "https://dc.lft.to/lastmile_qr_scan", "ios": "https://dc.lft.to/lastmile_qr_scan"}, "lat": 38.92599, "bike_id": "1888b8dd7782ed6fd2403cbb87992bda", "is_disabled": 0, "lon": -77.02439166666667, "is_reserved": 0, "fusion_lat": 0.0, "type": "electric_bike"}, {"fusion_lon": 0.0, "name": "72bb8598a11c9a45178406f51e8caf7e", "rental_uris": {"android": "https://dc.lft.to/lastmile_qr_scan", "ios": "https://dc.lft.to/lastmile_qr_scan"}, "lat": 38.89708366666667, "bike_id": "72bb8598a11c9a45178406f51e8caf7e", "is_disabled": 0, "lon": -76.99120316666666, "is_reserved": 0, "fusion_lat": 0.0, "type": "electric_scooter"}, {"fusion_lon": 0.0, "name": "c3e0322d8a6d0959d17f7bcb7ab5cffb", "rental_uris": {"android": "https://dc.lft.to/lastmile_qr_scan", "ios": "https://dc.lft.to/lastmile_qr_scan"}, "lat": 38.8988005, "bike_id": "c3e0322d8a6d0959d17f7bcb7ab5cffb", "is_disabled": 0, "lon": -76.988408, "is_reserved": 0, "fusion_lat": 0.0, "type": "electric_scooter"}, {"fusion_lon": 0.0, "name": "cd3c48782865bdb42a11a7a3797e07d8", "rental_uris": {"android": "https://dc.lft.to/lastmile_qr_scan", "ios": "https://dc.lft.to/lastmile_qr_scan"}, "lat": 38.93278766666667, "bike_id": "cd3c48782865bdb42a11a7a3797e07d8", "is_disabled": 0, "lon": -77.03936916666666, "is_reserved": 0, "fusion_lat": 0.0, "type": "electric_scooter"}, {"fusion_lon": 0.0, "name": "0e653122beff8908220b9ecbe657d71f", "rental_uris": {"android": "https://dc.lft.to/lastmile_qr_scan", "ios": "https://dc.lft.to/lastmile_qr_scan"}, "lat": 38.989882333333334, "bike_id": "0e653122beff8908220b9ecbe657d71f", "is_disabled": 0, "lon": -77.03360866666667, "is_reserved": 0, "fusion_lat": 0.0, "type": "electric_scooter"}, {"fusion_lon": 0.0, "name": "e931656cdb512b562c226d98ebd16464", "rental_uris": {"android": "https://dc.lft.to/lastmile_qr_scan", "ios": "https://dc.lft.to/lastmile_qr_scan"}, "lat": 38.926398166666665, "bike_id": "e931656cdb512b562c226d98ebd16464", "is_disabled": 0, "lon": -77.02506816666667, "is_reserved": 0, "fusion_lat": 0.0, "type": "electric_scooter"}, {"fusion_lon": 0.0, "name": "b810954e2f6d81b30364c5fa3faa8c31", "rental_uris": {"android": "https://dc.lft.to/lastmile_qr_scan", "ios": "https://dc.lft.to/lastmile_qr_scan"}, "lat": 38.89805833333333, "bike_id": "b810954e2f6d81b30364c5fa3faa8c31", "is_disabled": 0, "lon": -76.99077816666667, "is_reserved": 0, "fusion_lat": 0.0, "type": "electric_bike"}, {"fusion_lon": 0.0, "name": "802d3db5075763333f8ef612d66cdd51", "rental_uris": {"android": "https://dc.lft.to/lastmile_qr_scan", "ios": "https://dc.lft.to/lastmile_qr_scan"}, "lat": 38.886027166666665, "bike_id": "802d3db5075763333f8ef612d66cdd51", "is_disabled": 0, "lon": -77.045133, "is_reserved": 0, "fusion_lat": 0.0, "type": "electric_scooter"}, {"fusion_lon": 0.0, "name": "936a1f45f9237ba38c8f1fe044f5c1b8", "rental_uris": {"android": "https://dc.lft.to/lastmile_qr_scan", "ios": "https://dc.lft.to/lastmile_qr_scan"}, "lat": 38.9236955, "bike_id": "936a1f45f9237ba38c8f1fe044f5c1b8", "is_disabled": 0, "lon": -77.01955416666667, "is_reserved": 0, "fusion_lat": 0.0, "type": "electric_scooter"}, {"fusion_lon": 0.0, "name": "df9429feac64051d38f20c8c4c9ddb9d", "rental_uris": {"android": "https://dc.lft.to/lastmile_qr_scan", "ios": "https://dc.lft.to/lastmile_qr_scan"}, "lat": 38.92348116666667, "bike_id": "df9429feac64051d38f20c8c4c9ddb9d", "is_disabled": 0, "lon": -77.05427416666667, "is_reserved": 0, "fusion_lat": 0.0, "type": "electric_scooter"}, {"fusion_lon": 0.0, "name": "a138bdb35f300da37121d7ab2ae367a0", "rental_uris": {"android": "https://dc.lft.to/lastmile_qr_scan", "ios": "https://dc.lft.to/lastmile_qr_scan"}, "lat": 38.89690866666667, "bike_id": "a138bdb35f300da37121d7ab2ae367a0", "is_disabled": 0, "lon": -77.00497383333334, "is_reserved": 0, "fusion_lat": 0.0, "type": "electric_scooter"}, {"fusion_lon": 0.0, "name": "b41f994403f0582a5dd38b1be34eb2ef", "rental_uris": {"android": "https://dc.lft.to/lastmile_qr_scan", "ios": "https://dc.lft.to/lastmile_qr_scan"}, "lat": 38.92050533333333, "bike_id": "b41f994403f0582a5dd38b1be34eb2ef", "is_disabled": 0, "lon": -77.04187283333333, "is_reserved": 0, "fusion_lat": 0.0, "type": "electric_scooter"}, {"fusion_lon": 0.0, "name": "cdeff1afc1a9cdac591ab7e11f6ade36", "rental_uris": {"android": "https://dc.lft.to/lastmile_qr_scan", "ios": "https://dc.lft.to/lastmile_qr_scan"}, "lat": 38.9518395, "bike_id": "cdeff1afc1a9cdac591ab7e11f6ade36", "is_disabled": 0, "lon": -77.02613316666667, "is_reserved": 0, "fusion_lat": 0.0, "type": "electric_scooter"}, {"fusion_lon": 0.0, "name": "6f3ea12bc6b7c0719190a049c94ba63b", "rental_uris": {"android": "https://dc.lft.to/lastmile_qr_scan", "ios": "https://dc.lft.to/lastmile_qr_scan"}, "lat": 38.93495866666667, "bike_id": "6f3ea12bc6b7c0719190a049c94ba63b", "is_disabled": 0, "lon": -77.0445515, "is_reserved": 0, "fusion_lat": 0.0, "type": "electric_scooter"}, {"fusion_lon": 0.0, "name": "b3b6f66122ca83c10fb96f60a9dff104", "rental_uris": {"android": "https://dc.lft.to/lastmile_qr_scan", "ios": "https://dc.lft.to/lastmile_qr_scan"}, "lat": 38.92887533333333, "bike_id": "b3b6f66122ca83c10fb96f60a9dff104", "is_disabled": 0, "lon": -77.01373683333334, "is_reserved": 0, "fusion_lat": 0.0, "type": "electric_scooter"}, {"fusion_lon": 0.0, "name": "9244740ef1df5fe6948391c5fcdfd073", "rental_uris": {"android": "https://dc.lft.to/lastmile_qr_scan", "ios": "https://dc.lft.to/lastmile_qr_scan"}, "lat": 38.911238833333336, "bike_id": "9244740ef1df5fe6948391c5fcdfd073", "is_disabled": 0, "lon": -77.021996, "is_reserved": 0, "fusion_lat": 0.0, "type": "electric_scooter"}, {"fusion_lon": 0.0, "name": "1e883bc3196722a319a69636511621d1", "rental_uris": {"android": "https://dc.lft.to/lastmile_qr_scan", "ios": "https://dc.lft.to/lastmile_qr_scan"}, "lat": 38.9168225, "bike_id": "1e883bc3196722a319a69636511621d1", "is_disabled": 0, "lon": -77.02389816666667, "is_reserved": 0, "fusion_lat": 0.0, "type": "electric_scooter"}, {"fusion_lon": 0.0, "name": "784899b5b14eb4136a522759372ebeb5", "rental_uris": {"android": "https://dc.lft.to/lastmile_qr_scan", "ios": "https://dc.lft.to/lastmile_qr_scan"}, "lat": 38.92971716666667, "bike_id": "784899b5b14eb4136a522759372ebeb5", "is_disabled": 0, "lon": -77.0279665, "is_reserved": 0, "fusion_lat": 0.0, "type": "electric_scooter"}, {"fusion_lon": 0.0, "name": "0498552775bd0fc8719ae916c96da14f", "rental_uris": {"android": "https://dc.lft.to/lastmile_qr_scan", "ios": "https://dc.lft.to/lastmile_qr_scan"}, "lat": 38.9246995, "bike_id": "0498552775bd0fc8719ae916c96da14f", "is_disabled": 0, "lon": -77.02203316666667, "is_reserved": 0, "fusion_lat": 0.0, "type": "electric_scooter"}, {"fusion_lon": 0.0, "name": "014271d1cbe489a137764e6ed6b70b6d", "rental_uris": {"android": "https://dc.lft.to/lastmile_qr_scan", "ios": "https://dc.lft.to/lastmile_qr_scan"}, "lat": 38.90885266666667, "bike_id": "014271d1cbe489a137764e6ed6b70b6d", "is_disabled": 0, "lon": -77.04399033333333, "is_reserved": 0, "fusion_lat": 0.0, "type": "electric_scooter"}, {"fusion_lon": 0.0, "name": "36df18ef3d75a54ea4046516280ee26b", "rental_uris": {"android": "https://dc.lft.to/lastmile_qr_scan", "ios": "https://dc.lft.to/lastmile_qr_scan"}, "lat": 38.9156225, "bike_id": "36df18ef3d75a54ea4046516280ee26b", "is_disabled": 0, "lon": -77.031704, "is_reserved": 0, "fusion_lat": 0.0, "type": "electric_scooter"}, {"fusion_lon": 0.0, "name": "e547a3497ad9567458572ae92e467ff4", "rental_uris": {"android": "https://dc.lft.to/lastmile_qr_scan", "ios": "https://dc.lft.to/lastmile_qr_scan"}, "lat": 38.9014265, "bike_id": "e547a3497ad9567458572ae92e467ff4", "is_disabled": 0, "lon": -77.04441266666667, "is_reserved": 0, "fusion_lat": 0.0, "type": "electric_scooter"}, {"fusion_lon": 0.0, "name": "b67a1e50b2ae84f4aced60a6eb542581", "rental_uris": {"android": "https://dc.lft.to/lastmile_qr_scan", "ios": "https://dc.lft.to/lastmile_qr_scan"}, "lat": 38.90767266666667, "bike_id": "b67a1e50b2ae84f4aced60a6eb542581", "is_disabled": 0, "lon": -77.04158766666667, "is_reserved": 0, "fusion_lat": 0.0, "type": "electric_scooter"}, {"fusion_lon": 0.0, "name": "343564ca6ed4494b95f5cf975dae9b07", "rental_uris": {"android": "https://dc.lft.to/lastmile_qr_scan", "ios": "https://dc.lft.to/lastmile_qr_scan"}, "lat": 38.89043233333334, "bike_id": "343564ca6ed4494b95f5cf975dae9b07", "is_disabled": 0, "lon": -76.9375375, "is_reserved": 0, "fusion_lat": 0.0, "type": "electric_scooter"}, {"fusion_lon": 0.0, "name": "dea24dfe67ff17c2bdc989f244c6f8a2", "rental_uris": {"android": "https://dc.lft.to/lastmile_qr_scan", "ios": "https://dc.lft.to/lastmile_qr_scan"}, "lat": 38.941911166666664, "bike_id": "dea24dfe67ff17c2bdc989f244c6f8a2", "is_disabled": 0, "lon": -77.03553316666667, "is_reserved": 0, "fusion_lat": 0.0, "type": "electric_scooter"}, {"fusion_lon": 0.0, "name": "2463d5a760139b2d002c7c20794d1584", "rental_uris": {"android": "https://dc.lft.to/lastmile_qr_scan", "ios": "https://dc.lft.to/lastmile_qr_scan"}, "lat": 38.91128366666667, "bike_id": "2463d5a760139b2d002c7c20794d1584", "is_disabled": 0, "lon": -77.02201983333333, "is_reserved": 0, "fusion_lat": 0.0, "type": "electric_scooter"}, {"fusion_lon": 0.0, "name": "36ba255359c38ddb04ffabcb3db89c80", "rental_uris": {"android": "https://dc.lft.to/lastmile_qr_scan", "ios": "https://dc.lft.to/lastmile_qr_scan"}, "lat": 38.90343083333333, "bike_id": "36ba255359c38ddb04ffabcb3db89c80", "is_disabled": 0, "lon": -76.98266833333334, "is_reserved": 0, "fusion_lat": 0.0, "type": "electric_scooter"}, {"fusion_lon": 0.0, "name": "accb9507ccb787dd317bdcc94eecd699", "rental_uris": {"android": "https://dc.lft.to/lastmile_qr_scan", "ios": "https://dc.lft.to/lastmile_qr_scan"}, "lat": 38.92330783333333, "bike_id": "accb9507ccb787dd317bdcc94eecd699", "is_disabled": 0, "lon": -77.0547535, "is_reserved": 0, "fusion_lat": 0.0, "type": "electric_scooter"}, {"fusion_lon": 0.0, "name": "4feb5853629dced0743b01d7b482f49d", "rental_uris": {"android": "https://dc.lft.to/lastmile_qr_scan", "ios": "https://dc.lft.to/lastmile_qr_scan"}, "lat": 38.93542866666667, "bike_id": "4feb5853629dced0743b01d7b482f49d", "is_disabled": 0, "lon": -77.03428066666666, "is_reserved": 0, "fusion_lat": 0.0, "type": "electric_scooter"}, {"fusion_lon": 0.0, "name": "00134a75dce4a8542f6adffc83ae7df9", "rental_uris": {"android": "https://dc.lft.to/lastmile_qr_scan", "ios": "https://dc.lft.to/lastmile_qr_scan"}, "lat": 38.9224485, "bike_id": "00134a75dce4a8542f6adffc83ae7df9", "is_disabled": 0, "lon": -77.03071066666666, "is_reserved": 0, "fusion_lat": 0.0, "type": "electric_scooter"}, {"fusion_lon": 0.0, "name": "78f0efb6eae5771719a33f30396ad747", "rental_uris": {"android": "https://dc.lft.to/lastmile_qr_scan", "ios": "https://dc.lft.to/lastmile_qr_scan"}, "lat": 38.92965516666667, "bike_id": "78f0efb6eae5771719a33f30396ad747", "is_disabled": 0, "lon": -77.01965933333334, "is_reserved": 0, "fusion_lat": 0.0, "type": "electric_scooter"}, {"fusion_lon": 0.0, "name": "8de5fd3b7e6f9547873e0d01c28b0e89", "rental_uris": {"android": "https://dc.lft.to/lastmile_qr_scan", "ios": "https://dc.lft.to/lastmile_qr_scan"}, "lat": 38.90389166666667, "bike_id": "8de5fd3b7e6f9547873e0d01c28b0e89", "is_disabled": 0, "lon": -77.06856866666666, "is_reserved": 0, "fusion_lat": 0.0, "type": "electric_scooter"}, {"fusion_lon": 0.0, "name": "1892b6e7ff1d1d4c5c0fe010485c5d2d", "rental_uris": {"android": "https://dc.lft.to/lastmile_qr_scan", "ios": "https://dc.lft.to/lastmile_qr_scan"}, "lat": 38.912534666666666, "bike_id": "1892b6e7ff1d1d4c5c0fe010485c5d2d", "is_disabled": 0, "lon": -77.01149783333334, "is_reserved": 0, "fusion_lat": 0.0, "type": "electric_scooter"}, {"fusion_lon": 0.0, "name": "464e61f880ec63cf303790924593cefa", "rental_uris": {"android": "https://dc.lft.to/lastmile_qr_scan", "ios": "https://dc.lft.to/lastmile_qr_scan"}, "lat": 38.91789833333333, "bike_id": "464e61f880ec63cf303790924593cefa", "is_disabled": 0, "lon": -77.040293, "is_reserved": 0, "fusion_lat": 0.0, "type": "electric_scooter"}, {"fusion_lon": 0.0, "name": "ff116ea0b31d77a8580bcf5c314ea61f", "rental_uris": {"android": "https://dc.lft.to/lastmile_qr_scan", "ios": "https://dc.lft.to/lastmile_qr_scan"}, "lat": 38.919811833333334, "bike_id": "ff116ea0b31d77a8580bcf5c314ea61f", "is_disabled": 0, "lon": -77.07098716666667, "is_reserved": 0, "fusion_lat": 0.0, "type": "electric_scooter"}, {"fusion_lon": 0.0, "name": "ccbbf14cabfd778b586b7c95ce9c202d", "rental_uris": {"android": "https://dc.lft.to/lastmile_qr_scan", "ios": "https://dc.lft.to/lastmile_qr_scan"}, "lat": 38.895766333333334, "bike_id": "ccbbf14cabfd778b586b7c95ce9c202d", "is_disabled": 0, "lon": -77.01112216666667, "is_reserved": 0, "fusion_lat": 0.0, "type": "electric_scooter"}, {"fusion_lon": 0.0, "name": "5ac2548b9bd80b226e4dcd1dfecfacbe", "rental_uris": {"android": "https://dc.lft.to/lastmile_qr_scan", "ios": "https://dc.lft.to/lastmile_qr_scan"}, "lat": 38.9648135, "bike_id": "5ac2548b9bd80b226e4dcd1dfecfacbe", "is_disabled": 0, "lon": -77.03166816666666, "is_reserved": 0, "fusion_lat": 0.0, "type": "electric_bike"}, {"fusion_lon": 0.0, "name": "33407b984a985826aa4ce50c053f2b8d", "rental_uris": {"android": "https://dc.lft.to/lastmile_qr_scan", "ios": "https://dc.lft.to/lastmile_qr_scan"}, "lat": 38.89348366666667, "bike_id": "33407b984a985826aa4ce50c053f2b8d", "is_disabled": 0, "lon": -76.95246566666667, "is_reserved": 0, "fusion_lat": 0.0, "type": "electric_scooter"}, {"fusion_lon": 0.0, "name": "82d4a5f589d911650328b0d018a97000", "rental_uris": {"android": "https://dc.lft.to/lastmile_qr_scan", "ios": "https://dc.lft.to/lastmile_qr_scan"}, "lat": 38.919205, "bike_id": "82d4a5f589d911650328b0d018a97000", "is_disabled": 0, "lon": -77.03341333333333, "is_reserved": 0, "fusion_lat": 0.0, "type": "electric_scooter"}, {"fusion_lon": 0.0, "name": "594ac24e0eecd5922e110e64f6986b38", "rental_uris": {"android": "https://dc.lft.to/lastmile_qr_scan", "ios": "https://dc.lft.to/lastmile_qr_scan"}, "lat": 38.9261395, "bike_id": "594ac24e0eecd5922e110e64f6986b38", "is_disabled": 0, "lon": -77.021632, "is_reserved": 0, "fusion_lat": 0.0, "type": "electric_scooter"}, {"fusion_lon": 0.0, "name": "bd2d9558ef24f64b31eddb77ee6106d5", "rental_uris": {"android": "https://dc.lft.to/lastmile_qr_scan", "ios": "https://dc.lft.to/lastmile_qr_scan"}, "lat": 38.925121833333336, "bike_id": "bd2d9558ef24f64b31eddb77ee6106d5", "is_disabled": 0, "lon": -77.00873583333333, "is_reserved": 0, "fusion_lat": 0.0, "type": "electric_scooter"}, {"fusion_lon": 0.0, "name": "ab7efbf2e1f27af4abedda79626d9ec5", "rental_uris": {"android": "https://dc.lft.to/lastmile_qr_scan", "ios": "https://dc.lft.to/lastmile_qr_scan"}, "lat": 38.90064066666667, "bike_id": "ab7efbf2e1f27af4abedda79626d9ec5", "is_disabled": 0, "lon": -77.03360283333333, "is_reserved": 0, "fusion_lat": 0.0, "type": "electric_scooter"}, {"fusion_lon": 0.0, "name": "45b72a05a83af31f5a989a04e003494e", "rental_uris": {"android": "https://dc.lft.to/lastmile_qr_scan", "ios": "https://dc.lft.to/lastmile_qr_scan"}, "lat": 38.9431035, "bike_id": "45b72a05a83af31f5a989a04e003494e", "is_disabled": 0, "lon": -77.0614925, "is_reserved": 0, "fusion_lat": 0.0, "type": "electric_scooter"}, {"fusion_lon": 0.0, "name": "6b55b607dfed0c9df632094b9c5b23fd", "rental_uris": {"android": "https://dc.lft.to/lastmile_qr_scan", "ios": "https://dc.lft.to/lastmile_qr_scan"}, "lat": 38.91646983333333, "bike_id": "6b55b607dfed0c9df632094b9c5b23fd", "is_disabled": 0, "lon": -77.069469, "is_reserved": 0, "fusion_lat": 0.0, "type": "electric_scooter"}, {"fusion_lon": 0.0, "name": "8c9f6ba97fac164fa8bcb21b969f4512", "rental_uris": {"android": "https://dc.lft.to/lastmile_qr_scan", "ios": "https://dc.lft.to/lastmile_qr_scan"}, "lat": 38.898829666666664, "bike_id": "8c9f6ba97fac164fa8bcb21b969f4512", "is_disabled": 0, "lon": -76.979991, "is_reserved": 0, "fusion_lat": 0.0, "type": "electric_scooter"}, {"fusion_lon": 0.0, "name": "67da2031429229d6f67927d4e6b36b8a", "rental_uris": {"android": "https://dc.lft.to/lastmile_qr_scan", "ios": "https://dc.lft.to/lastmile_qr_scan"}, "lat": 38.90419266666667, "bike_id": "67da2031429229d6f67927d4e6b36b8a", "is_disabled": 0, "lon": -77.02594333333333, "is_reserved": 0, "fusion_lat": 0.0, "type": "electric_scooter"}, {"fusion_lon": 0.0, "name": "0a0177184ea4fd571d93593fad5dca4a", "rental_uris": {"android": "https://dc.lft.to/lastmile_qr_scan", "ios": "https://dc.lft.to/lastmile_qr_scan"}, "lat": 38.86482066666667, "bike_id": "0a0177184ea4fd571d93593fad5dca4a", "is_disabled": 0, "lon": -76.97749683333333, "is_reserved": 0, "fusion_lat": 0.0, "type": "electric_bike"}, {"fusion_lon": 0.0, "name": "f09356577e08df8a4b235cc8245b9f8d", "rental_uris": {"android": "https://dc.lft.to/lastmile_qr_scan", "ios": "https://dc.lft.to/lastmile_qr_scan"}, "lat": 38.91560116666667, "bike_id": "f09356577e08df8a4b235cc8245b9f8d", "is_disabled": 0, "lon": -77.02275733333333, "is_reserved": 0, "fusion_lat": 0.0, "type": "electric_scooter"}, {"fusion_lon": 0.0, "name": "99f5aede1bd6dcaf8067d7dbf9731512", "rental_uris": {"android": "https://dc.lft.to/lastmile_qr_scan", "ios": "https://dc.lft.to/lastmile_qr_scan"}, "lat": 38.92160416666667, "bike_id": "99f5aede1bd6dcaf8067d7dbf9731512", "is_disabled": 0, "lon": -77.0208425, "is_reserved": 0, "fusion_lat": 0.0, "type": "electric_scooter"}, {"fusion_lon": 0.0, "name": "74f4a408080373e121acde74659d2996", "rental_uris": {"android": "https://dc.lft.to/lastmile_qr_scan", "ios": "https://dc.lft.to/lastmile_qr_scan"}, "lat": 38.9376545, "bike_id": "74f4a408080373e121acde74659d2996", "is_disabled": 0, "lon": -77.03244583333333, "is_reserved": 0, "fusion_lat": 0.0, "type": "electric_scooter"}, {"fusion_lon": 0.0, "name": "6d13f6854af0ff9fc0964ced7f794d32", "rental_uris": {"android": "https://dc.lft.to/lastmile_qr_scan", "ios": "https://dc.lft.to/lastmile_qr_scan"}, "lat": 38.907037, "bike_id": "6d13f6854af0ff9fc0964ced7f794d32", "is_disabled": 0, "lon": -76.9869745, "is_reserved": 0, "fusion_lat": 0.0, "type": "electric_scooter"}, {"fusion_lon": 0.0, "name": "acaa799241824013f164e633ba3eb341", "rental_uris": {"android": "https://dc.lft.to/lastmile_qr_scan", "ios": "https://dc.lft.to/lastmile_qr_scan"}, "lat": 38.922840666666666, "bike_id": "acaa799241824013f164e633ba3eb341", "is_disabled": 0, "lon": -76.99772133333333, "is_reserved": 0, "fusion_lat": 0.0, "type": "electric_scooter"}, {"fusion_lon": 0.0, "name": "8c8f80de4e00deceda2ca70e06b7797d", "rental_uris": {"android": "https://dc.lft.to/lastmile_qr_scan", "ios": "https://dc.lft.to/lastmile_qr_scan"}, "lat": 38.892227166666665, "bike_id": "8c8f80de4e00deceda2ca70e06b7797d", "is_disabled": 0, "lon": -77.04506166666667, "is_reserved": 0, "fusion_lat": 0.0, "type": "electric_scooter"}, {"fusion_lon": 0.0, "name": "41dddf84b68c0aac658e9821cf4ae9a4", "rental_uris": {"android": "https://dc.lft.to/lastmile_qr_scan", "ios": "https://dc.lft.to/lastmile_qr_scan"}, "lat": 38.901787, "bike_id": "41dddf84b68c0aac658e9821cf4ae9a4", "is_disabled": 0, "lon": -77.02403933333333, "is_reserved": 0, "fusion_lat": 0.0, "type": "electric_scooter"}, {"fusion_lon": 0.0, "name": "07e22444bef432c541e18188e1317d18", "rental_uris": {"android": "https://dc.lft.to/lastmile_qr_scan", "ios": "https://dc.lft.to/lastmile_qr_scan"}, "lat": 38.92724233333333, "bike_id": "07e22444bef432c541e18188e1317d18", "is_disabled": 0, "lon": -77.0355185, "is_reserved": 0, "fusion_lat": 0.0, "type": "electric_scooter"}, {"fusion_lon": 0.0, "name": "2b15ab1ab88606f254b62b6e80e1acca", "rental_uris": {"android": "https://dc.lft.to/lastmile_qr_scan", "ios": "https://dc.lft.to/lastmile_qr_scan"}, "lat": 38.92062283333333, "bike_id": "2b15ab1ab88606f254b62b6e80e1acca", "is_disabled": 0, "lon": -77.02289133333333, "is_reserved": 0, "fusion_lat": 0.0, "type": "electric_scooter"}, {"fusion_lon": 0.0, "name": "8607340fafe796af63456303f4ace09e", "rental_uris": {"android": "https://dc.lft.to/lastmile_qr_scan", "ios": "https://dc.lft.to/lastmile_qr_scan"}, "lat": 38.933565333333334, "bike_id": "8607340fafe796af63456303f4ace09e", "is_disabled": 0, "lon": -77.073845, "is_reserved": 0, "fusion_lat": 0.0, "type": "electric_scooter"}, {"fusion_lon": 0.0, "name": "3a3b18c7496298ff7c4b88817ea9fedb", "rental_uris": {"android": "https://dc.lft.to/lastmile_qr_scan", "ios": "https://dc.lft.to/lastmile_qr_scan"}, "lat": 38.95186433333333, "bike_id": "3a3b18c7496298ff7c4b88817ea9fedb", "is_disabled": 0, "lon": -76.9917715, "is_reserved": 0, "fusion_lat": 0.0, "type": "electric_scooter"}, {"fusion_lon": 0.0, "name": "8171a5056acec18e2c5ceb5659f700b6", "rental_uris": {"android": "https://dc.lft.to/lastmile_qr_scan", "ios": "https://dc.lft.to/lastmile_qr_scan"}, "lat": 38.886584, "bike_id": "8171a5056acec18e2c5ceb5659f700b6", "is_disabled": 0, "lon": -76.93675683333333, "is_reserved": 0, "fusion_lat": 0.0, "type": "electric_scooter"}, {"fusion_lon": 0.0, "name": "248de0f4baf4103b32e2a2e8bcb6101e", "rental_uris": {"android": "https://dc.lft.to/lastmile_qr_scan", "ios": "https://dc.lft.to/lastmile_qr_scan"}, "lat": 38.9181365, "bike_id": "248de0f4baf4103b32e2a2e8bcb6101e", "is_disabled": 0, "lon": -77.02479166666667, "is_reserved": 0, "fusion_lat": 0.0, "type": "electric_scooter"}, {"fusion_lon": 0.0, "name": "6aaaeeccef00d560e48b98f68efa8737", "rental_uris": {"android": "https://dc.lft.to/lastmile_qr_scan", "ios": "https://dc.lft.to/lastmile_qr_scan"}, "lat": 39.08431316666667, "bike_id": "6aaaeeccef00d560e48b98f68efa8737", "is_disabled": 0, "lon": -76.95145233333334, "is_reserved": 0, "fusion_lat": 0.0, "type": "electric_bike"}, {"fusion_lon": 0.0, "name": "0e88a120747ae590de0afd795d3430db", "rental_uris": {"android": "https://dc.lft.to/lastmile_qr_scan", "ios": "https://dc.lft.to/lastmile_qr_scan"}, "lat": 38.91856283333333, "bike_id": "0e88a120747ae590de0afd795d3430db", "is_disabled": 0, "lon": -77.02545783333333, "is_reserved": 0, "fusion_lat": 0.0, "type": "electric_scooter"}, {"fusion_lon": 0.0, "name": "237b08f94b93fce4c211f0edbee80ea2", "rental_uris": {"android": "https://dc.lft.to/lastmile_qr_scan", "ios": "https://dc.lft.to/lastmile_qr_scan"}, "lat": 38.89221833333333, "bike_id": "237b08f94b93fce4c211f0edbee80ea2", "is_disabled": 0, "lon": -77.045016, "is_reserved": 0, "fusion_lat": 0.0, "type": "electric_scooter"}, {"fusion_lon": 0.0, "name": "5549bfb208dc802967d549ccde408088", "rental_uris": {"android": "https://dc.lft.to/lastmile_qr_scan", "ios": "https://dc.lft.to/lastmile_qr_scan"}, "lat": 38.9053545, "bike_id": "5549bfb208dc802967d549ccde408088", "is_disabled": 0, "lon": -77.0652385, "is_reserved": 0, "fusion_lat": 0.0, "type": "electric_scooter"}, {"fusion_lon": 0.0, "name": "a483b0a01c6f86bd29d79971f0cdbbea", "rental_uris": {"android": "https://dc.lft.to/lastmile_qr_scan", "ios": "https://dc.lft.to/lastmile_qr_scan"}, "lat": 38.89592733333333, "bike_id": "a483b0a01c6f86bd29d79971f0cdbbea", "is_disabled": 0, "lon": -77.02527916666666, "is_reserved": 0, "fusion_lat": 0.0, "type": "electric_scooter"}, {"fusion_lon": 0.0, "name": "4730b575a8466e55768979cea59e60a2", "rental_uris": {"android": "https://dc.lft.to/lastmile_qr_scan", "ios": "https://dc.lft.to/lastmile_qr_scan"}, "lat": 38.94543616666667, "bike_id": "4730b575a8466e55768979cea59e60a2", "is_disabled": 0, "lon": -77.34462533333334, "is_reserved": 0, "fusion_lat": 0.0, "type": "electric_bike"}, {"fusion_lon": 0.0, "name": "53099391f1defbf0d601e799ad42db4c", "rental_uris": {"android": "https://dc.lft.to/lastmile_qr_scan", "ios": "https://dc.lft.to/lastmile_qr_scan"}, "lat": 38.91922983333333, "bike_id": "53099391f1defbf0d601e799ad42db4c", "is_disabled": 0, "lon": -77.0099475, "is_reserved": 0, "fusion_lat": 0.0, "type": "electric_scooter"}, {"fusion_lon": 0.0, "name": "198988576bd849e4e075311c235c4f03", "rental_uris": {"android": "https://dc.lft.to/lastmile_qr_scan", "ios": "https://dc.lft.to/lastmile_qr_scan"}, "lat": 38.93122133333333, "bike_id": "198988576bd849e4e075311c235c4f03", "is_disabled": 0, "lon": -77.0360165, "is_reserved": 0, "fusion_lat": 0.0, "type": "electric_scooter"}, {"fusion_lon": 0.0, "name": "bc0cd88bc0a5195c843d34278d034a9c", "rental_uris": {"android": "https://dc.lft.to/lastmile_qr_scan", "ios": "https://dc.lft.to/lastmile_qr_scan"}, "lat": 38.9097405, "bike_id": "bc0cd88bc0a5195c843d34278d034a9c", "is_disabled": 0, "lon": -77.03217733333334, "is_reserved": 0, "fusion_lat": 0.0, "type": "electric_scooter"}, {"fusion_lon": 0.0, "name": "f148843b807545fafe63c766a0fb2450", "rental_uris": {"android": "https://dc.lft.to/lastmile_qr_scan", "ios": "https://dc.lft.to/lastmile_qr_scan"}, "lat": 38.924540666666665, "bike_id": "f148843b807545fafe63c766a0fb2450", "is_disabled": 0, "lon": -77.02158583333333, "is_reserved": 0, "fusion_lat": 0.0, "type": "electric_scooter"}, {"fusion_lon": 0.0, "name": "607b1840d52ba18265b12efa9793692f", "rental_uris": {"android": "https://dc.lft.to/lastmile_qr_scan", "ios": "https://dc.lft.to/lastmile_qr_scan"}, "lat": 38.93293666666667, "bike_id": "607b1840d52ba18265b12efa9793692f", "is_disabled": 0, "lon": -77.04006516666666, "is_reserved": 0, "fusion_lat": 0.0, "type": "electric_scooter"}, {"fusion_lon": 0.0, "name": "9e37dfa05ae7faf4961ada7c434c6fac", "rental_uris": {"android": "https://dc.lft.to/lastmile_qr_scan", "ios": "https://dc.lft.to/lastmile_qr_scan"}, "lat": 38.950243666666665, "bike_id": "9e37dfa05ae7faf4961ada7c434c6fac", "is_disabled": 0, "lon": -76.97103166666666, "is_reserved": 0, "fusion_lat": 0.0, "type": "electric_bike"}, {"fusion_lon": 0.0, "name": "5a82a1ea190c3ce902424a404857c886", "rental_uris": {"android": "https://dc.lft.to/lastmile_qr_scan", "ios": "https://dc.lft.to/lastmile_qr_scan"}, "lat": 38.9068915, "bike_id": "5a82a1ea190c3ce902424a404857c886", "is_disabled": 0, "lon": -77.035926, "is_reserved": 0, "fusion_lat": 0.0, "type": "electric_scooter"}, {"fusion_lon": 0.0, "name": "62103f0fd35290f81b0ecee5a789b082", "rental_uris": {"android": "https://dc.lft.to/lastmile_qr_scan", "ios": "https://dc.lft.to/lastmile_qr_scan"}, "lat": 38.926048, "bike_id": "62103f0fd35290f81b0ecee5a789b082", "is_disabled": 0, "lon": -77.02154166666666, "is_reserved": 0, "fusion_lat": 0.0, "type": "electric_scooter"}, {"fusion_lon": 0.0, "name": "214b19d1bf089fe8737b2ac0870037cc", "rental_uris": {"android": "https://dc.lft.to/lastmile_qr_scan", "ios": "https://dc.lft.to/lastmile_qr_scan"}, "lat": 38.917089833333335, "bike_id": "214b19d1bf089fe8737b2ac0870037cc", "is_disabled": 0, "lon": -77.03866666666667, "is_reserved": 0, "fusion_lat": 0.0, "type": "electric_scooter"}, {"fusion_lon": 0.0, "name": "79e5f80f9db169d36fcce96843bbe637", "rental_uris": {"android": "https://dc.lft.to/lastmile_qr_scan", "ios": "https://dc.lft.to/lastmile_qr_scan"}, "lat": 38.897136833333334, "bike_id": "79e5f80f9db169d36fcce96843bbe637", "is_disabled": 0, "lon": -77.0216425, "is_reserved": 0, "fusion_lat": 0.0, "type": "electric_scooter"}, {"fusion_lon": 0.0, "name": "f9f3b1a2078c53165631628b7b7f4dc6", "rental_uris": {"android": "https://dc.lft.to/lastmile_qr_scan", "ios": "https://dc.lft.to/lastmile_qr_scan"}, "lat": 38.900270166666665, "bike_id": "f9f3b1a2078c53165631628b7b7f4dc6", "is_disabled": 0, "lon": -77.011965, "is_reserved": 0, "fusion_lat": 0.0, "type": "electric_scooter"}, {"fusion_lon": 0.0, "name": "e2315a0d7fe888ebd1eba77c281faf41", "rental_uris": {"android": "https://dc.lft.to/lastmile_qr_scan", "ios": "https://dc.lft.to/lastmile_qr_scan"}, "lat": 38.931993, "bike_id": "e2315a0d7fe888ebd1eba77c281faf41", "is_disabled": 0, "lon": -77.0374955, "is_reserved": 0, "fusion_lat": 0.0, "type": "electric_scooter"}, {"fusion_lon": 0.0, "name": "733b4c061c173303e9d7d1bb3c3298e9", "rental_uris": {"android": "https://dc.lft.to/lastmile_qr_scan", "ios": "https://dc.lft.to/lastmile_qr_scan"}, "lat": 38.91342316666667, "bike_id": "733b4c061c173303e9d7d1bb3c3298e9", "is_disabled": 0, "lon": -77.0122395, "is_reserved": 0, "fusion_lat": 0.0, "type": "electric_scooter"}, {"fusion_lon": 0.0, "name": "9f80e99d08e55e84161dd8465dfda83e", "rental_uris": {"android": "https://dc.lft.to/lastmile_qr_scan", "ios": "https://dc.lft.to/lastmile_qr_scan"}, "lat": 38.90564633333334, "bike_id": "9f80e99d08e55e84161dd8465dfda83e", "is_disabled": 0, "lon": -77.0488225, "is_reserved": 0, "fusion_lat": 0.0, "type": "electric_scooter"}, {"fusion_lon": 0.0, "name": "3afe2e325136247d67123f8ab5660d88", "rental_uris": {"android": "https://dc.lft.to/lastmile_qr_scan", "ios": "https://dc.lft.to/lastmile_qr_scan"}, "lat": 38.900283333333334, "bike_id": "3afe2e325136247d67123f8ab5660d88", "is_disabled": 0, "lon": -76.988551, "is_reserved": 0, "fusion_lat": 0.0, "type": "electric_scooter"}, {"fusion_lon": 0.0, "name": "561e6d23f4913468770cf594b037a480", "rental_uris": {"android": "https://dc.lft.to/lastmile_qr_scan", "ios": "https://dc.lft.to/lastmile_qr_scan"}, "lat": 38.964754166666665, "bike_id": "561e6d23f4913468770cf594b037a480", "is_disabled": 0, "lon": -77.03564983333334, "is_reserved": 0, "fusion_lat": 0.0, "type": "electric_bike"}, {"fusion_lon": 0.0, "name": "75915ff2022cd4061cb1b33e33c7559c", "rental_uris": {"android": "https://dc.lft.to/lastmile_qr_scan", "ios": "https://dc.lft.to/lastmile_qr_scan"}, "lat": 38.888222999999996, "bike_id": "75915ff2022cd4061cb1b33e33c7559c", "is_disabled": 0, "lon": -76.97708183333333, "is_reserved": 0, "fusion_lat": 0.0, "type": "electric_scooter"}, {"fusion_lon": 0.0, "name": "a79ede56272474b963630e88c531f601", "rental_uris": {"android": "https://dc.lft.to/lastmile_qr_scan", "ios": "https://dc.lft.to/lastmile_qr_scan"}, "lat": 39.02923633333333, "bike_id": "a79ede56272474b963630e88c531f601", "is_disabled": 0, "lon": -77.01361016666667, "is_reserved": 0, "fusion_lat": 0.0, "type": "electric_bike"}, {"fusion_lon": 0.0, "name": "698c3890d640b3c62a6c41cc8d4b209c", "rental_uris": {"android": "https://dc.lft.to/lastmile_qr_scan", "ios": "https://dc.lft.to/lastmile_qr_scan"}, "lat": 38.8922445, "bike_id": "698c3890d640b3c62a6c41cc8d4b209c", "is_disabled": 0, "lon": -77.03342333333333, "is_reserved": 0, "fusion_lat": 0.0, "type": "electric_scooter"}, {"fusion_lon": 0.0, "name": "540c77b2c202e71ae1aa3a9f2b8e5003", "rental_uris": {"android": "https://dc.lft.to/lastmile_qr_scan", "ios": "https://dc.lft.to/lastmile_qr_scan"}, "lat": 38.902292, "bike_id": "540c77b2c202e71ae1aa3a9f2b8e5003", "is_disabled": 0, "lon": -77.03443483333334, "is_reserved": 0, "fusion_lat": 0.0, "type": "electric_scooter"}, {"fusion_lon": 0.0, "name": "f28720d0968783939480dd55dc4105c6", "rental_uris": {"android": "https://dc.lft.to/lastmile_qr_scan", "ios": "https://dc.lft.to/lastmile_qr_scan"}, "lat": 38.90270483333333, "bike_id": "f28720d0968783939480dd55dc4105c6", "is_disabled": 0, "lon": -77.01742683333333, "is_reserved": 0, "fusion_lat": 0.0, "type": "electric_scooter"}, {"fusion_lon": 0.0, "name": "3b0f31352c22b32b72a8ab3d63a5f10a", "rental_uris": {"android": "https://dc.lft.to/lastmile_qr_scan", "ios": "https://dc.lft.to/lastmile_qr_scan"}, "lat": 38.905429166666664, "bike_id": "3b0f31352c22b32b72a8ab3d63a5f10a", "is_disabled": 0, "lon": -77.045714, "is_reserved": 0, "fusion_lat": 0.0, "type": "electric_scooter"}, {"fusion_lon": 0.0, "name": "73ea5269e3e18d47c2d5cc6c748cfbb0", "rental_uris": {"android": "https://dc.lft.to/lastmile_qr_scan", "ios": "https://dc.lft.to/lastmile_qr_scan"}, "lat": 38.90155266666667, "bike_id": "73ea5269e3e18d47c2d5cc6c748cfbb0", "is_disabled": 0, "lon": -76.9807425, "is_reserved": 0, "fusion_lat": 0.0, "type": "electric_scooter"}, {"fusion_lon": 0.0, "name": "31eb606117597d4f143c4e312dd7cdba", "rental_uris": {"android": "https://dc.lft.to/lastmile_qr_scan", "ios": "https://dc.lft.to/lastmile_qr_scan"}, "lat": 38.91685866666667, "bike_id": "31eb606117597d4f143c4e312dd7cdba", "is_disabled": 0, "lon": -77.01579833333334, "is_reserved": 0, "fusion_lat": 0.0, "type": "electric_scooter"}, {"fusion_lon": 0.0, "name": "d6141e1ac1a84667246d6f63d74a363e", "rental_uris": {"android": "https://dc.lft.to/lastmile_qr_scan", "ios": "https://dc.lft.to/lastmile_qr_scan"}, "lat": 38.906784, "bike_id": "d6141e1ac1a84667246d6f63d74a363e", "is_disabled": 0, "lon": -77.02691866666666, "is_reserved": 0, "fusion_lat": 0.0, "type": "electric_scooter"}, {"fusion_lon": 0.0, "name": "9d6a2b162bbf131d5614e6b57ee3b284", "rental_uris": {"android": "https://dc.lft.to/lastmile_qr_scan", "ios": "https://dc.lft.to/lastmile_qr_scan"}, "lat": 38.94438866666667, "bike_id": "9d6a2b162bbf131d5614e6b57ee3b284", "is_disabled": 0, "lon": -77.0635675, "is_reserved": 0, "fusion_lat": 0.0, "type": "electric_scooter"}, {"fusion_lon": 0.0, "name": "15c0d987ab0f9d73a23be6e9727960b3", "rental_uris": {"android": "https://dc.lft.to/lastmile_qr_scan", "ios": "https://dc.lft.to/lastmile_qr_scan"}, "lat": 38.908449166666664, "bike_id": "15c0d987ab0f9d73a23be6e9727960b3", "is_disabled": 0, "lon": -77.03556833333333, "is_reserved": 0, "fusion_lat": 0.0, "type": "electric_scooter"}, {"fusion_lon": 0.0, "name": "b0806425290a79736675bec1c9035017", "rental_uris": {"android": "https://dc.lft.to/lastmile_qr_scan", "ios": "https://dc.lft.to/lastmile_qr_scan"}, "lat": 38.892346, "bike_id": "b0806425290a79736675bec1c9035017", "is_disabled": 0, "lon": -77.0125965, "is_reserved": 0, "fusion_lat": 0.0, "type": "electric_scooter"}, {"fusion_lon": 0.0, "name": "7638fc5a635d7ffbc7a9da427053d1bb", "rental_uris": {"android": "https://dc.lft.to/lastmile_qr_scan", "ios": "https://dc.lft.to/lastmile_qr_scan"}, "lat": 38.90919933333333, "bike_id": "7638fc5a635d7ffbc7a9da427053d1bb", "is_disabled": 0, "lon": -76.98983166666666, "is_reserved": 0, "fusion_lat": 0.0, "type": "electric_scooter"}, {"fusion_lon": 0.0, "name": "718d8a3de03b936b992bd3fc6feead32", "rental_uris": {"android": "https://dc.lft.to/lastmile_qr_scan", "ios": "https://dc.lft.to/lastmile_qr_scan"}, "lat": 38.910532833333335, "bike_id": "718d8a3de03b936b992bd3fc6feead32", "is_disabled": 0, "lon": -77.021788, "is_reserved": 0, "fusion_lat": 0.0, "type": "electric_scooter"}, {"fusion_lon": 0.0, "name": "b45e2cb5302887fe3b5aa8a9fa384a44", "rental_uris": {"android": "https://dc.lft.to/lastmile_qr_scan", "ios": "https://dc.lft.to/lastmile_qr_scan"}, "lat": 38.90139716666667, "bike_id": "b45e2cb5302887fe3b5aa8a9fa384a44", "is_disabled": 0, "lon": -76.98963966666666, "is_reserved": 0, "fusion_lat": 0.0, "type": "electric_scooter"}, {"fusion_lon": 0.0, "name": "7e5c7d65bb72890d1e99be8039318e79", "rental_uris": {"android": "https://dc.lft.to/lastmile_qr_scan", "ios": "https://dc.lft.to/lastmile_qr_scan"}, "lat": 38.907424, "bike_id": "7e5c7d65bb72890d1e99be8039318e79", "is_disabled": 0, "lon": -76.9834615, "is_reserved": 0, "fusion_lat": 0.0, "type": "electric_scooter"}, {"fusion_lon": 0.0, "name": "1160b1b7b153530177e7dede28a350aa", "rental_uris": {"android": "https://dc.lft.to/lastmile_qr_scan", "ios": "https://dc.lft.to/lastmile_qr_scan"}, "lat": 38.886189, "bike_id": "1160b1b7b153530177e7dede28a350aa", "is_disabled": 0, "lon": -77.03184583333334, "is_reserved": 0, "fusion_lat": 0.0, "type": "electric_scooter"}, {"fusion_lon": 0.0, "name": "763373c8f83908c203c1a132957db096", "rental_uris": {"android": "https://dc.lft.to/lastmile_qr_scan", "ios": "https://dc.lft.to/lastmile_qr_scan"}, "lat": 38.924361166666664, "bike_id": "763373c8f83908c203c1a132957db096", "is_disabled": 0, "lon": -77.00321366666667, "is_reserved": 0, "fusion_lat": 0.0, "type": "electric_scooter"}, {"fusion_lon": 0.0, "name": "c2e7960e3a0291be0df3eefb1d24f1c7", "rental_uris": {"android": "https://dc.lft.to/lastmile_qr_scan", "ios": "https://dc.lft.to/lastmile_qr_scan"}, "lat": 38.865678, "bike_id": "c2e7960e3a0291be0df3eefb1d24f1c7", "is_disabled": 0, "lon": -76.9784185, "is_reserved": 0, "fusion_lat": 0.0, "type": "electric_scooter"}, {"fusion_lon": 0.0, "name": "68b15dbfe54eb0cec1b758a358918970", "rental_uris": {"android": "https://dc.lft.to/lastmile_qr_scan", "ios": "https://dc.lft.to/lastmile_qr_scan"}, "lat": 38.87452116666667, "bike_id": "68b15dbfe54eb0cec1b758a358918970", "is_disabled": 0, "lon": -77.0004765, "is_reserved": 0, "fusion_lat": 0.0, "type": "electric_scooter"}, {"fusion_lon": 0.0, "name": "bfde59bf871bc1e11f4d76aff2ea056c", "rental_uris": {"android": "https://dc.lft.to/lastmile_qr_scan", "ios": "https://dc.lft.to/lastmile_qr_scan"}, "lat": 38.956035, "bike_id": "bfde59bf871bc1e11f4d76aff2ea056c", "is_disabled": 0, "lon": -76.96475766666667, "is_reserved": 0, "fusion_lat": 0.0, "type": "electric_bike"}, {"fusion_lon": 0.0, "name": "4e20914e8060dcc8fb37528fec0aabe9", "rental_uris": {"android": "https://dc.lft.to/lastmile_qr_scan", "ios": "https://dc.lft.to/lastmile_qr_scan"}, "lat": 38.8974095, "bike_id": "4e20914e8060dcc8fb37528fec0aabe9", "is_disabled": 0, "lon": -77.0249335, "is_reserved": 0, "fusion_lat": 0.0, "type": "electric_scooter"}, {"fusion_lon": 0.0, "name": "49ed809baf04b7d3b913537db109b3cb", "rental_uris": {"android": "https://dc.lft.to/lastmile_qr_scan", "ios": "https://dc.lft.to/lastmile_qr_scan"}, "lat": 38.928740833333336, "bike_id": "49ed809baf04b7d3b913537db109b3cb", "is_disabled": 0, "lon": -77.01380866666666, "is_reserved": 0, "fusion_lat": 0.0, "type": "electric_scooter"}, {"fusion_lon": 0.0, "name": "3c2fe10c4b2055a06227cba66b9da6a3", "rental_uris": {"android": "https://dc.lft.to/lastmile_qr_scan", "ios": "https://dc.lft.to/lastmile_qr_scan"}, "lat": 38.888993, "bike_id": "3c2fe10c4b2055a06227cba66b9da6a3", "is_disabled": 0, "lon": -76.952302, "is_reserved": 0, "fusion_lat": 0.0, "type": "electric_scooter"}, {"fusion_lon": 0.0, "name": "8f3bf52bb31ee7207cdf370d0f3cc9b8", "rental_uris": {"android": "https://dc.lft.to/lastmile_qr_scan", "ios": "https://dc.lft.to/lastmile_qr_scan"}, "lat": 38.91551533333333, "bike_id": "8f3bf52bb31ee7207cdf370d0f3cc9b8", "is_disabled": 0, "lon": -77.03513483333333, "is_reserved": 0, "fusion_lat": 0.0, "type": "electric_scooter"}, {"fusion_lon": 0.0, "name": "8eb439a8ca2286944e391d95ec0840db", "rental_uris": {"android": "https://dc.lft.to/lastmile_qr_scan", "ios": "https://dc.lft.to/lastmile_qr_scan"}, "lat": 38.92444, "bike_id": "8eb439a8ca2286944e391d95ec0840db", "is_disabled": 0, "lon": -77.04030316666666, "is_reserved": 0, "fusion_lat": 0.0, "type": "electric_scooter"}, {"fusion_lon": 0.0, "name": "5ea02f94661a7a336658d30fe9bdc5e3", "rental_uris": {"android": "https://dc.lft.to/lastmile_qr_scan", "ios": "https://dc.lft.to/lastmile_qr_scan"}, "lat": 38.90724783333334, "bike_id": "5ea02f94661a7a336658d30fe9bdc5e3", "is_disabled": 0, "lon": -77.03215333333333, "is_reserved": 0, "fusion_lat": 0.0, "type": "electric_scooter"}, {"fusion_lon": 0.0, "name": "a36f7f6efd671fbafde2dcdbbc764e78", "rental_uris": {"android": "https://dc.lft.to/lastmile_qr_scan", "ios": "https://dc.lft.to/lastmile_qr_scan"}, "lat": 38.92507633333334, "bike_id": "a36f7f6efd671fbafde2dcdbbc764e78", "is_disabled": 0, "lon": -77.07643366666667, "is_reserved": 0, "fusion_lat": 0.0, "type": "electric_scooter"}, {"fusion_lon": 0.0, "name": "249af059ef5c759a776e71528bd39caf", "rental_uris": {"android": "https://dc.lft.to/lastmile_qr_scan", "ios": "https://dc.lft.to/lastmile_qr_scan"}, "lat": 38.90040716666667, "bike_id": "249af059ef5c759a776e71528bd39caf", "is_disabled": 0, "lon": -77.0119565, "is_reserved": 0, "fusion_lat": 0.0, "type": "electric_scooter"}, {"fusion_lon": 0.0, "name": "77ce231c138a54605f7f7336316cb7e7", "rental_uris": {"android": "https://dc.lft.to/lastmile_qr_scan", "ios": "https://dc.lft.to/lastmile_qr_scan"}, "lat": 38.90235666666667, "bike_id": "77ce231c138a54605f7f7336316cb7e7", "is_disabled": 0, "lon": -77.01519066666667, "is_reserved": 0, "fusion_lat": 0.0, "type": "electric_scooter"}, {"fusion_lon": 0.0, "name": "89d89d755bb9096d2218a2256af313ce", "rental_uris": {"android": "https://dc.lft.to/lastmile_qr_scan", "ios": "https://dc.lft.to/lastmile_qr_scan"}, "lat": 38.9005745, "bike_id": "89d89d755bb9096d2218a2256af313ce", "is_disabled": 0, "lon": -76.98704416666666, "is_reserved": 0, "fusion_lat": 0.0, "type": "electric_scooter"}, {"fusion_lon": 0.0, "name": "68c0c7caaa16162473637f8fc7470f9c", "rental_uris": {"android": "https://dc.lft.to/lastmile_qr_scan", "ios": "https://dc.lft.to/lastmile_qr_scan"}, "lat": 38.862459666666666, "bike_id": "68c0c7caaa16162473637f8fc7470f9c", "is_disabled": 0, "lon": -76.99501316666667, "is_reserved": 0, "fusion_lat": 0.0, "type": "electric_scooter"}, {"fusion_lon": 0.0, "name": "bbdcbeab12c56bf87ef36cf2476e75c0", "rental_uris": {"android": "https://dc.lft.to/lastmile_qr_scan", "ios": "https://dc.lft.to/lastmile_qr_scan"}, "lat": 38.899527, "bike_id": "bbdcbeab12c56bf87ef36cf2476e75c0", "is_disabled": 0, "lon": -77.0503015, "is_reserved": 0, "fusion_lat": 0.0, "type": "electric_scooter"}, {"fusion_lon": 0.0, "name": "ae827aa2dca1c4a2a340d3ef97374398", "rental_uris": {"android": "https://dc.lft.to/lastmile_qr_scan", "ios": "https://dc.lft.to/lastmile_qr_scan"}, "lat": 38.906073166666665, "bike_id": "ae827aa2dca1c4a2a340d3ef97374398", "is_disabled": 0, "lon": -77.12895733333333, "is_reserved": 0, "fusion_lat": 0.0, "type": "electric_bike"}, {"fusion_lon": 0.0, "name": "00ad7cb17a092b071bbeb58a5a4d0b29", "rental_uris": {"android": "https://dc.lft.to/lastmile_qr_scan", "ios": "https://dc.lft.to/lastmile_qr_scan"}, "lat": 38.923812166666664, "bike_id": "00ad7cb17a092b071bbeb58a5a4d0b29", "is_disabled": 0, "lon": -77.0304775, "is_reserved": 0, "fusion_lat": 0.0, "type": "electric_scooter"}, {"fusion_lon": 0.0, "name": "27641bfc8186ee67fbd0a515da56fa71", "rental_uris": {"android": "https://dc.lft.to/lastmile_qr_scan", "ios": "https://dc.lft.to/lastmile_qr_scan"}, "lat": 38.88051433333333, "bike_id": "27641bfc8186ee67fbd0a515da56fa71", "is_disabled": 0, "lon": -77.0118065, "is_reserved": 0, "fusion_lat": 0.0, "type": "electric_scooter"}, {"fusion_lon": 0.0, "name": "82a5c9e2854192039ad3ecf14f788ecc", "rental_uris": {"android": "https://dc.lft.to/lastmile_qr_scan", "ios": "https://dc.lft.to/lastmile_qr_scan"}, "lat": 38.90553516666667, "bike_id": "82a5c9e2854192039ad3ecf14f788ecc", "is_disabled": 0, "lon": -77.03478783333334, "is_reserved": 0, "fusion_lat": 0.0, "type": "electric_scooter"}, {"fusion_lon": 0.0, "name": "7b25a70a8cac54dcdd683d856e64abd2", "rental_uris": {"android": "https://dc.lft.to/lastmile_qr_scan", "ios": "https://dc.lft.to/lastmile_qr_scan"}, "lat": 38.9011295, "bike_id": "7b25a70a8cac54dcdd683d856e64abd2", "is_disabled": 0, "lon": -77.0499575, "is_reserved": 0, "fusion_lat": 0.0, "type": "electric_scooter"}, {"fusion_lon": 0.0, "name": "a900eb6e32404c045b9351569bd463da", "rental_uris": {"android": "https://dc.lft.to/lastmile_qr_scan", "ios": "https://dc.lft.to/lastmile_qr_scan"}, "lat": 38.9157265, "bike_id": "a900eb6e32404c045b9351569bd463da", "is_disabled": 0, "lon": -77.05023716666666, "is_reserved": 0, "fusion_lat": 0.0, "type": "electric_scooter"}, {"fusion_lon": 0.0, "name": "b82dc2e9ef745527acf74d94e93f6cec", "rental_uris": {"android": "https://dc.lft.to/lastmile_qr_scan", "ios": "https://dc.lft.to/lastmile_qr_scan"}, "lat": 38.901743, "bike_id": "b82dc2e9ef745527acf74d94e93f6cec", "is_disabled": 0, "lon": -77.058972, "is_reserved": 0, "fusion_lat": 0.0, "type": "electric_scooter"}, {"fusion_lon": 0.0, "name": "e0c39c3106cb4896ff57fefad3236651", "rental_uris": {"android": "https://dc.lft.to/lastmile_qr_scan", "ios": "https://dc.lft.to/lastmile_qr_scan"}, "lat": 38.92568833333333, "bike_id": "e0c39c3106cb4896ff57fefad3236651", "is_disabled": 0, "lon": -76.9995785, "is_reserved": 0, "fusion_lat": 0.0, "type": "electric_scooter"}, {"fusion_lon": 0.0, "name": "9e6887dba75b53a53a150e30eedfe388", "rental_uris": {"android": "https://dc.lft.to/lastmile_qr_scan", "ios": "https://dc.lft.to/lastmile_qr_scan"}, "lat": 38.924356, "bike_id": "9e6887dba75b53a53a150e30eedfe388", "is_disabled": 0, "lon": -77.03789783333333, "is_reserved": 0, "fusion_lat": 0.0, "type": "electric_scooter"}, {"fusion_lon": 0.0, "name": "3c933978fde7271a767728f99059e951", "rental_uris": {"android": "https://dc.lft.to/lastmile_qr_scan", "ios": "https://dc.lft.to/lastmile_qr_scan"}, "lat": 38.896333, "bike_id": "3c933978fde7271a767728f99059e951", "is_disabled": 0, "lon": -77.032161, "is_reserved": 0, "fusion_lat": 0.0, "type": "electric_scooter"}, {"fusion_lon": 0.0, "name": "a863e4f05d9110d200df7d94deb96781", "rental_uris": {"android": "https://dc.lft.to/lastmile_qr_scan", "ios": "https://dc.lft.to/lastmile_qr_scan"}, "lat": 38.882831833333334, "bike_id": "a863e4f05d9110d200df7d94deb96781", "is_disabled": 0, "lon": -77.0259605, "is_reserved": 0, "fusion_lat": 0.0, "type": "electric_scooter"}, {"fusion_lon": 0.0, "name": "60d87f72c3a97681690fae8fab586370", "rental_uris": {"android": "https://dc.lft.to/lastmile_qr_scan", "ios": "https://dc.lft.to/lastmile_qr_scan"}, "lat": 38.8922065, "bike_id": "60d87f72c3a97681690fae8fab586370", "is_disabled": 0, "lon": -77.0139755, "is_reserved": 0, "fusion_lat": 0.0, "type": "electric_scooter"}, {"fusion_lon": 0.0, "name": "bac1f81449122860774c1af3bfa770b8", "rental_uris": {"android": "https://dc.lft.to/lastmile_qr_scan", "ios": "https://dc.lft.to/lastmile_qr_scan"}, "lat": 38.86222766666667, "bike_id": "bac1f81449122860774c1af3bfa770b8", "is_disabled": 0, "lon": -76.99462883333334, "is_reserved": 0, "fusion_lat": 0.0, "type": "electric_scooter"}, {"fusion_lon": 0.0, "name": "8a6f63c2bbc7520e156cd426e653fcdb", "rental_uris": {"android": "https://dc.lft.to/lastmile_qr_scan", "ios": "https://dc.lft.to/lastmile_qr_scan"}, "lat": 38.8947555, "bike_id": "8a6f63c2bbc7520e156cd426e653fcdb", "is_disabled": 0, "lon": -77.02082466666667, "is_reserved": 0, "fusion_lat": 0.0, "type": "electric_scooter"}, {"fusion_lon": 0.0, "name": "bb0f214c362c35953b36cc1d5811c783", "rental_uris": {"android": "https://dc.lft.to/lastmile_qr_scan", "ios": "https://dc.lft.to/lastmile_qr_scan"}, "lat": 38.904381, "bike_id": "bb0f214c362c35953b36cc1d5811c783", "is_disabled": 0, "lon": -77.02843683333333, "is_reserved": 0, "fusion_lat": 0.0, "type": "electric_scooter"}, {"fusion_lon": 0.0, "name": "31fbba0d38197ee03f613991fbda8b57", "rental_uris": {"android": "https://dc.lft.to/lastmile_qr_scan", "ios": "https://dc.lft.to/lastmile_qr_scan"}, "lat": 38.835861, "bike_id": "31fbba0d38197ee03f613991fbda8b57", "is_disabled": 0, "lon": -76.99019166666666, "is_reserved": 0, "fusion_lat": 0.0, "type": "electric_bike"}, {"fusion_lon": 0.0, "name": "a87aa863ded0e06bb986c2f69d9d6995", "rental_uris": {"android": "https://dc.lft.to/lastmile_qr_scan", "ios": "https://dc.lft.to/lastmile_qr_scan"}, "lat": 38.934756166666666, "bike_id": "a87aa863ded0e06bb986c2f69d9d6995", "is_disabled": 0, "lon": -77.086632, "is_reserved": 0, "fusion_lat": 0.0, "type": "electric_scooter"}, {"fusion_lon": 0.0, "name": "a986ff5b29c6a001adebba83b2df6d8b", "rental_uris": {"android": "https://dc.lft.to/lastmile_qr_scan", "ios": "https://dc.lft.to/lastmile_qr_scan"}, "lat": 38.893384833333336, "bike_id": "a986ff5b29c6a001adebba83b2df6d8b", "is_disabled": 0, "lon": -77.048699, "is_reserved": 0, "fusion_lat": 0.0, "type": "electric_scooter"}, {"fusion_lon": 0.0, "name": "cd5e2619ccff9f96dee36e50226a4b3a", "rental_uris": {"android": "https://dc.lft.to/lastmile_qr_scan", "ios": "https://dc.lft.to/lastmile_qr_scan"}, "lat": 38.898227, "bike_id": "cd5e2619ccff9f96dee36e50226a4b3a", "is_disabled": 0, "lon": -76.93011966666667, "is_reserved": 0, "fusion_lat": 0.0, "type": "electric_scooter"}, {"fusion_lon": 0.0, "name": "aafc66c3317ab8c763bc748762aebd86", "rental_uris": {"android": "https://dc.lft.to/lastmile_qr_scan", "ios": "https://dc.lft.to/lastmile_qr_scan"}, "lat": 38.926128, "bike_id": "aafc66c3317ab8c763bc748762aebd86", "is_disabled": 0, "lon": -77.02161483333333, "is_reserved": 0, "fusion_lat": 0.0, "type": "electric_scooter"}, {"fusion_lon": 0.0, "name": "c16e38a159130a00e91eedb89ebe28b1", "rental_uris": {"android": "https://dc.lft.to/lastmile_qr_scan", "ios": "https://dc.lft.to/lastmile_qr_scan"}, "lat": 38.90147533333333, "bike_id": "c16e38a159130a00e91eedb89ebe28b1", "is_disabled": 0, "lon": -77.04989666666667, "is_reserved": 0, "fusion_lat": 0.0, "type": "electric_scooter"}, {"fusion_lon": 0.0, "name": "ff028d6d30dc6cb9d687830a4ab1deb9", "rental_uris": {"android": "https://dc.lft.to/lastmile_qr_scan", "ios": "https://dc.lft.to/lastmile_qr_scan"}, "lat": 38.896208666666666, "bike_id": "ff028d6d30dc6cb9d687830a4ab1deb9", "is_disabled": 0, "lon": -76.99418033333333, "is_reserved": 0, "fusion_lat": 0.0, "type": "electric_scooter"}, {"fusion_lon": 0.0, "name": "d1c95d53baabcf3172be9a7d6fd29ef9", "rental_uris": {"android": "https://dc.lft.to/lastmile_qr_scan", "ios": "https://dc.lft.to/lastmile_qr_scan"}, "lat": 38.90786116666666, "bike_id": "d1c95d53baabcf3172be9a7d6fd29ef9", "is_disabled": 0, "lon": -77.03520433333334, "is_reserved": 0, "fusion_lat": 0.0, "type": "electric_scooter"}, {"fusion_lon": 0.0, "name": "4a9f6e88e775cc108650b0eed9920df8", "rental_uris": {"android": "https://dc.lft.to/lastmile_qr_scan", "ios": "https://dc.lft.to/lastmile_qr_scan"}, "lat": 38.87197833333333, "bike_id": "4a9f6e88e775cc108650b0eed9920df8", "is_disabled": 0, "lon": -77.00934533333333, "is_reserved": 0, "fusion_lat": 0.0, "type": "electric_scooter"}, {"fusion_lon": 0.0, "name": "2d3c8eec9ce0cf6bcca4b997e71c7856", "rental_uris": {"android": "https://dc.lft.to/lastmile_qr_scan", "ios": "https://dc.lft.to/lastmile_qr_scan"}, "lat": 38.808660833333334, "bike_id": "2d3c8eec9ce0cf6bcca4b997e71c7856", "is_disabled": 0, "lon": -77.11253516666666, "is_reserved": 0, "fusion_lat": 0.0, "type": "electric_bike"}, {"fusion_lon": 0.0, "name": "195184912180faf2398520ae8f409833", "rental_uris": {"android": "https://dc.lft.to/lastmile_qr_scan", "ios": "https://dc.lft.to/lastmile_qr_scan"}, "lat": 38.8757425, "bike_id": "195184912180faf2398520ae8f409833", "is_disabled": 0, "lon": -77.00576616666666, "is_reserved": 0, "fusion_lat": 0.0, "type": "electric_scooter"}, {"fusion_lon": 0.0, "name": "da99fb392284ad34549df569eb5748f7", "rental_uris": {"android": "https://dc.lft.to/lastmile_qr_scan", "ios": "https://dc.lft.to/lastmile_qr_scan"}, "lat": 38.8717385, "bike_id": "da99fb392284ad34549df569eb5748f7", "is_disabled": 0, "lon": -77.23385366666666, "is_reserved": 0, "fusion_lat": 0.0, "type": "electric_bike"}, {"fusion_lon": 0.0, "name": "386e670ad6f8cbfb89450f6fdf789c28", "rental_uris": {"android": "https://dc.lft.to/lastmile_qr_scan", "ios": "https://dc.lft.to/lastmile_qr_scan"}, "lat": 38.909631833333336, "bike_id": "386e670ad6f8cbfb89450f6fdf789c28", "is_disabled": 0, "lon": -77.0243965, "is_reserved": 0, "fusion_lat": 0.0, "type": "electric_scooter"}, {"fusion_lon": 0.0, "name": "1c9f3b6c1fb57d797bf88b4cfa2a7629", "rental_uris": {"android": "https://dc.lft.to/lastmile_qr_scan", "ios": "https://dc.lft.to/lastmile_qr_scan"}, "lat": 38.916112, "bike_id": "1c9f3b6c1fb57d797bf88b4cfa2a7629", "is_disabled": 0, "lon": -77.02304466666666, "is_reserved": 0, "fusion_lat": 0.0, "type": "electric_scooter"}, {"fusion_lon": 0.0, "name": "a09872cce6c83b47fcc6ab347570052c", "rental_uris": {"android": "https://dc.lft.to/lastmile_qr_scan", "ios": "https://dc.lft.to/lastmile_qr_scan"}, "lat": 38.909471, "bike_id": "a09872cce6c83b47fcc6ab347570052c", "is_disabled": 0, "lon": -77.04499183333333, "is_reserved": 0, "fusion_lat": 0.0, "type": "electric_scooter"}, {"fusion_lon": 0.0, "name": "aa3a78496c2bd7317e92b9eccff7fddd", "rental_uris": {"android": "https://dc.lft.to/lastmile_qr_scan", "ios": "https://dc.lft.to/lastmile_qr_scan"}, "lat": 38.941644, "bike_id": "aa3a78496c2bd7317e92b9eccff7fddd", "is_disabled": 0, "lon": -77.02557833333333, "is_reserved": 0, "fusion_lat": 0.0, "type": "electric_scooter"}, {"fusion_lon": 0.0, "name": "efc6073b504930f6f4101696a68f42bf", "rental_uris": {"android": "https://dc.lft.to/lastmile_qr_scan", "ios": "https://dc.lft.to/lastmile_qr_scan"}, "lat": 38.9736675, "bike_id": "efc6073b504930f6f4101696a68f42bf", "is_disabled": 0, "lon": -77.018649, "is_reserved": 0, "fusion_lat": 0.0, "type": "electric_scooter"}, {"fusion_lon": 0.0, "name": "ffc8bb2718e7da4d684f6930f0f96eeb", "rental_uris": {"android": "https://dc.lft.to/lastmile_qr_scan", "ios": "https://dc.lft.to/lastmile_qr_scan"}, "lat": 38.95746316666666, "bike_id": "ffc8bb2718e7da4d684f6930f0f96eeb", "is_disabled": 0, "lon": -76.96750933333334, "is_reserved": 0, "fusion_lat": 0.0, "type": "electric_bike"}, {"fusion_lon": 0.0, "name": "fc516fcb3575a2c4618a33c8760c23cc", "rental_uris": {"android": "https://dc.lft.to/lastmile_qr_scan", "ios": "https://dc.lft.to/lastmile_qr_scan"}, "lat": 38.91762166666667, "bike_id": "fc516fcb3575a2c4618a33c8760c23cc", "is_disabled": 0, "lon": -77.00918933333334, "is_reserved": 0, "fusion_lat": 0.0, "type": "electric_scooter"}, {"fusion_lon": 0.0, "name": "ac4e1cb5490d7dc6eb2dcf965f3cb0ff", "rental_uris": {"android": "https://dc.lft.to/lastmile_qr_scan", "ios": "https://dc.lft.to/lastmile_qr_scan"}, "lat": 38.899585, "bike_id": "ac4e1cb5490d7dc6eb2dcf965f3cb0ff", "is_disabled": 0, "lon": -77.05156066666666, "is_reserved": 0, "fusion_lat": 0.0, "type": "electric_scooter"}, {"fusion_lon": 0.0, "name": "29ef95b24fd878a85cfb8bb41afc9c99", "rental_uris": {"android": "https://dc.lft.to/lastmile_qr_scan", "ios": "https://dc.lft.to/lastmile_qr_scan"}, "lat": 38.90364233333333, "bike_id": "29ef95b24fd878a85cfb8bb41afc9c99", "is_disabled": 0, "lon": -76.99836633333334, "is_reserved": 0, "fusion_lat": 0.0, "type": "electric_scooter"}, {"fusion_lon": 0.0, "name": "56d2461df02f0507f2c25102eed99125", "rental_uris": {"android": "https://dc.lft.to/lastmile_qr_scan", "ios": "https://dc.lft.to/lastmile_qr_scan"}, "lat": 38.9052595, "bike_id": "56d2461df02f0507f2c25102eed99125", "is_disabled": 0, "lon": -77.06237866666666, "is_reserved": 0, "fusion_lat": 0.0, "type": "electric_scooter"}, {"fusion_lon": 0.0, "name": "73569c4ac94518242ca234c379e59ad7", "rental_uris": {"android": "https://dc.lft.to/lastmile_qr_scan", "ios": "https://dc.lft.to/lastmile_qr_scan"}, "lat": 38.90031466666667, "bike_id": "73569c4ac94518242ca234c379e59ad7", "is_disabled": 0, "lon": -76.987491, "is_reserved": 0, "fusion_lat": 0.0, "type": "electric_scooter"}, {"fusion_lon": 0.0, "name": "acf63e2bf73f08e95071ac0e93b096be", "rental_uris": {"android": "https://dc.lft.to/lastmile_qr_scan", "ios": "https://dc.lft.to/lastmile_qr_scan"}, "lat": 38.91480983333334, "bike_id": "acf63e2bf73f08e95071ac0e93b096be", "is_disabled": 0, "lon": -77.0401495, "is_reserved": 0, "fusion_lat": 0.0, "type": "electric_scooter"}, {"fusion_lon": 0.0, "name": "8dd2dd612c026eb5bb3d2fdfcf568c3e", "rental_uris": {"android": "https://dc.lft.to/lastmile_qr_scan", "ios": "https://dc.lft.to/lastmile_qr_scan"}, "lat": 38.91651133333333, "bike_id": "8dd2dd612c026eb5bb3d2fdfcf568c3e", "is_disabled": 0, "lon": -77.00947133333334, "is_reserved": 0, "fusion_lat": 0.0, "type": "electric_scooter"}, {"fusion_lon": 0.0, "name": "396fa803d7b065733711f41f8ccd77ad", "rental_uris": {"android": "https://dc.lft.to/lastmile_qr_scan", "ios": "https://dc.lft.to/lastmile_qr_scan"}, "lat": 38.84615816666667, "bike_id": "396fa803d7b065733711f41f8ccd77ad", "is_disabled": 0, "lon": -76.969332, "is_reserved": 0, "fusion_lat": 0.0, "type": "electric_bike"}, {"fusion_lon": 0.0, "name": "a600441ce34763d2c58ed3c79c48e380", "rental_uris": {"android": "https://dc.lft.to/lastmile_qr_scan", "ios": "https://dc.lft.to/lastmile_qr_scan"}, "lat": 38.90126383333333, "bike_id": "a600441ce34763d2c58ed3c79c48e380", "is_disabled": 0, "lon": -77.003206, "is_reserved": 0, "fusion_lat": 0.0, "type": "electric_scooter"}, {"fusion_lon": 0.0, "name": "20eb5e329d67dbcae4942d975e6553d3", "rental_uris": {"android": "https://dc.lft.to/lastmile_qr_scan", "ios": "https://dc.lft.to/lastmile_qr_scan"}, "lat": 38.88436466666667, "bike_id": "20eb5e329d67dbcae4942d975e6553d3", "is_disabled": 0, "lon": -77.02354, "is_reserved": 0, "fusion_lat": 0.0, "type": "electric_scooter"}, {"fusion_lon": 0.0, "name": "872e99e0806dbdacbe5e63fe872094b6", "rental_uris": {"android": "https://dc.lft.to/lastmile_qr_scan", "ios": "https://dc.lft.to/lastmile_qr_scan"}, "lat": 38.9228065, "bike_id": "872e99e0806dbdacbe5e63fe872094b6", "is_disabled": 0, "lon": -77.0429555, "is_reserved": 0, "fusion_lat": 0.0, "type": "electric_scooter"}, {"fusion_lon": 0.0, "name": "00d0c3a7dd4eda531d4fbbdc67000ae6", "rental_uris": {"android": "https://dc.lft.to/lastmile_qr_scan", "ios": "https://dc.lft.to/lastmile_qr_scan"}, "lat": 38.91951683333333, "bike_id": "00d0c3a7dd4eda531d4fbbdc67000ae6", "is_disabled": 0, "lon": -77.01385816666667, "is_reserved": 0, "fusion_lat": 0.0, "type": "electric_scooter"}, {"fusion_lon": 0.0, "name": "126e0ba66d93297bece5312884608ab1", "rental_uris": {"android": "https://dc.lft.to/lastmile_qr_scan", "ios": "https://dc.lft.to/lastmile_qr_scan"}, "lat": 38.9310145, "bike_id": "126e0ba66d93297bece5312884608ab1", "is_disabled": 0, "lon": -77.03023766666666, "is_reserved": 0, "fusion_lat": 0.0, "type": "electric_scooter"}, {"fusion_lon": 0.0, "name": "4b68ac18bd282b91ec9a5e2ab6b7b681", "rental_uris": {"android": "https://dc.lft.to/lastmile_qr_scan", "ios": "https://dc.lft.to/lastmile_qr_scan"}, "lat": 38.85447116666667, "bike_id": "4b68ac18bd282b91ec9a5e2ab6b7b681", "is_disabled": 0, "lon": -76.98606966666667, "is_reserved": 0, "fusion_lat": 0.0, "type": "electric_bike"}, {"fusion_lon": 0.0, "name": "221386bc0ea41f2c0dbdcdd022221ee0", "rental_uris": {"android": "https://dc.lft.to/lastmile_qr_scan", "ios": "https://dc.lft.to/lastmile_qr_scan"}, "lat": 38.90403283333333, "bike_id": "221386bc0ea41f2c0dbdcdd022221ee0", "is_disabled": 0, "lon": -76.97365383333333, "is_reserved": 0, "fusion_lat": 0.0, "type": "electric_scooter"}, {"fusion_lon": 0.0, "name": "4aa82a825d764a20130b5eab9bf0bd92", "rental_uris": {"android": "https://dc.lft.to/lastmile_qr_scan", "ios": "https://dc.lft.to/lastmile_qr_scan"},