{"data": {"bikes": [{"lon": -76.99545083333334, "bike_id": "5f127b827ebbce25b053ac1d8982b8d2", "lat": 38.8625935, "fusion_lon": 0.0, "fusion_lat": 0.0, "type": "electric_scooter", "name": "5f127b827ebbce25b053ac1d8982b8d2", "is_disabled": 0, "rental_uris": {"ios": "https://dc.lft.to/lastmile_qr_scan", "android": "https://dc.lft.to/lastmile_qr_scan"}, "is_reserved": 0}, {"lon": -77.0162325, "bike_id": "6f1821f2e331c138804612e4a09eab69", "lat": 38.900620833333335, "fusion_lon": 0.0, "fusion_lat": 0.0, "type": "electric_scooter", "name": "6f1821f2e331c138804612e4a09eab69", "is_disabled": 0, "rental_uris": {"ios": "https://dc.lft.to/lastmile_qr_scan", "android": "https://dc.lft.to/lastmile_qr_scan"}, "is_reserved": 0}, {"lon": -76.96386566666666, "bike_id": "790c789ef741a8d4dc7bf00c88dfeecb", "lat": 38.951820166666664, "fusion_lon": 0.0, "fusion_lat": 0.0, "type": "electric_bike", "name": "790c789ef741a8d4dc7bf00c88dfeecb", "is_disabled": 0, "rental_uris": {"ios": "https://dc.lft.to/lastmile_qr_scan", "android": "https://dc.lft.to/lastmile_qr_scan"}, "is_reserved": 0}, {"lon": -77.00556066666667, "bike_id": "311b904792c6b04a6fd9ab0583a5db3b", "lat": 38.91180666666666, "fusion_lon": 0.0, "fusion_lat": 0.0, "type": "electric_scooter", "name": "311b904792c6b04a6fd9ab0583a5db3b", "is_disabled": 0, "rental_uris": {"ios": "https://dc.lft.to/lastmile_qr_scan", "android": "https://dc.lft.to/lastmile_qr_scan"}, "is_reserved": 0}, {"lon": -77.048182, "bike_id": "e70f5e440b93435b97cedda8312448e6", "lat": 38.9164175, "fusion_lon": 0.0, "fusion_lat": 0.0, "type": "electric_scooter", "name": "e70f5e440b93435b97cedda8312448e6", "is_disabled": 0, "rental_uris": {"ios": "https://dc.lft.to/lastmile_qr_scan", "android": "https://dc.lft.to/lastmile_qr_scan"}, "is_reserved": 0}, {"lon": -77.02188866666667, "bike_id": "13f1e0d6796086024f46e6b8c60895c4", "lat": 38.90413983333333, "fusion_lon": 0.0, "fusion_lat": 0.0, "type": "electric_scooter", "name": "13f1e0d6796086024f46e6b8c60895c4", "is_disabled": 0, "rental_uris": {"ios": "https://dc.lft.to/lastmile_qr_scan", "android": "https://dc.lft.to/lastmile_qr_scan"}, "is_reserved": 0}, {"lon": -77.0278895, "bike_id": "4302abd1367d8e3eab2841f676962df3", "lat": 38.954164666666664, "fusion_lon": 0.0, "fusion_lat": 0.0, "type": "electric_scooter", "name": "4302abd1367d8e3eab2841f676962df3", "is_disabled": 0, "rental_uris": {"ios": "https://dc.lft.to/lastmile_qr_scan", "android": "https://dc.lft.to/lastmile_qr_scan"}, "is_reserved": 0}, {"lon": -77.03868066666666, "bike_id": "fa9bc7fd21949beb99c0152781f68970", "lat": 38.91413583333333, "fusion_lon": 0.0, "fusion_lat": 0.0, "type": "electric_scooter", "name": "fa9bc7fd21949beb99c0152781f68970", "is_disabled": 0, "rental_uris": {"ios": "https://dc.lft.to/lastmile_qr_scan", "android": "https://dc.lft.to/lastmile_qr_scan"}, "is_reserved": 0}, {"lon": -76.99123816666666, "bike_id": "40efc06bcbb33d88bd74e5b4fedcbcee", "lat": 38.922687833333335, "fusion_lon": 0.0, "fusion_lat": 0.0, "type": "electric_scooter", "name": "40efc06bcbb33d88bd74e5b4fedcbcee", "is_disabled": 0, "rental_uris": {"ios": "https://dc.lft.to/lastmile_qr_scan", "android": "https://dc.lft.to/lastmile_qr_scan"}, "is_reserved": 0}, {"lon": -77.02690216666667, "bike_id": "1a1622d10e82deb6d8ba52d506ff0743", "lat": 38.984601166666664, "fusion_lon": 0.0, "fusion_lat": 0.0, "type": "electric_scooter", "name": "1a1622d10e82deb6d8ba52d506ff0743", "is_disabled": 0, "rental_uris": {"ios": "https://dc.lft.to/lastmile_qr_scan", "android": "https://dc.lft.to/lastmile_qr_scan"}, "is_reserved": 0}, {"lon": -77.02000333333334, "bike_id": "42658afb5165009b17cd8538bdea4489", "lat": 38.90448283333333, "fusion_lon": 0.0, "fusion_lat": 0.0, "type": "electric_scooter", "name": "42658afb5165009b17cd8538bdea4489", "is_disabled": 0, "rental_uris": {"ios": "https://dc.lft.to/lastmile_qr_scan", "android": "https://dc.lft.to/lastmile_qr_scan"}, "is_reserved": 0}, {"lon": -77.02816483333334, "bike_id": "c7afe23394eaf0d58467c54d8b5fc779", "lat": 38.881758833333336, "fusion_lon": 0.0, "fusion_lat": 0.0, "type": "electric_scooter", "name": "c7afe23394eaf0d58467c54d8b5fc779", "is_disabled": 0, "rental_uris": {"ios": "https://dc.lft.to/lastmile_qr_scan", "android": "https://dc.lft.to/lastmile_qr_scan"}, "is_reserved": 0}, {"lon": -77.034398, "bike_id": "2c7502e058bda3093f003562b9c4f101", "lat": 38.902839166666666, "fusion_lon": 0.0, "fusion_lat": 0.0, "type": "electric_scooter", "name": "2c7502e058bda3093f003562b9c4f101", "is_disabled": 0, "rental_uris": {"ios": "https://dc.lft.to/lastmile_qr_scan", "android": "https://dc.lft.to/lastmile_qr_scan"}, "is_reserved": 0}, {"lon": -77.02974933333333, "bike_id": "0975161fb41d77b591c174aab3971eef", "lat": 38.92192, "fusion_lon": 0.0, "fusion_lat": 0.0, "type": "electric_scooter", "name": "0975161fb41d77b591c174aab3971eef", "is_disabled": 0, "rental_uris": {"ios": "https://dc.lft.to/lastmile_qr_scan", "android": "https://dc.lft.to/lastmile_qr_scan"}, "is_reserved": 0}, {"lon": -77.024433, "bike_id": "3081d07fb1431f7af570b1a2e82bdb56", "lat": 38.92494416666667, "fusion_lon": 0.0, "fusion_lat": 0.0, "type": "electric_scooter", "name": "3081d07fb1431f7af570b1a2e82bdb56", "is_disabled": 0, "rental_uris": {"ios": "https://dc.lft.to/lastmile_qr_scan", "android": "https://dc.lft.to/lastmile_qr_scan"}, "is_reserved": 0}, {"lon": -77.0209735, "bike_id": "0fad2f11dd1d4cf5935f51f4b440e6cd", "lat": 38.90974283333333, "fusion_lon": 0.0, "fusion_lat": 0.0, "type": "electric_scooter", "name": "0fad2f11dd1d4cf5935f51f4b440e6cd", "is_disabled": 0, "rental_uris": {"ios": "https://dc.lft.to/lastmile_qr_scan", "android": "https://dc.lft.to/lastmile_qr_scan"}, "is_reserved": 0}, {"lon": -77.01420166666666, "bike_id": "810efb9eb4ed745e952f6614db131c5f", "lat": 38.9287965, "fusion_lon": 0.0, "fusion_lat": 0.0, "type": "electric_scooter", "name": "810efb9eb4ed745e952f6614db131c5f", "is_disabled": 0, "rental_uris": {"ios": "https://dc.lft.to/lastmile_qr_scan", "android": "https://dc.lft.to/lastmile_qr_scan"}, "is_reserved": 0}, {"lon": -77.02169, "bike_id": "710705bef64e4b903ee7f0d68d953e3b", "lat": 38.94290566666667, "fusion_lon": 0.0, "fusion_lat": 0.0, "type": "electric_scooter", "name": "710705bef64e4b903ee7f0d68d953e3b", "is_disabled": 0, "rental_uris": {"ios": "https://dc.lft.to/lastmile_qr_scan", "android": "https://dc.lft.to/lastmile_qr_scan"}, "is_reserved": 0}, {"lon": -77.026925, "bike_id": "42911f75e8c087b520ee4360e2f18de5", "lat": 38.948832333333335, "fusion_lon": 0.0, "fusion_lat": 0.0, "type": "electric_scooter", "name": "42911f75e8c087b520ee4360e2f18de5", "is_disabled": 0, "rental_uris": {"ios": "https://dc.lft.to/lastmile_qr_scan", "android": "https://dc.lft.to/lastmile_qr_scan"}, "is_reserved": 0}, {"lon": -77.01535166666666, "bike_id": "4e02fe25e3d40e67fa83d180be4b6435", "lat": 38.88323533333333, "fusion_lon": 0.0, "fusion_lat": 0.0, "type": "electric_scooter", "name": "4e02fe25e3d40e67fa83d180be4b6435", "is_disabled": 0, "rental_uris": {"ios": "https://dc.lft.to/lastmile_qr_scan", "android": "https://dc.lft.to/lastmile_qr_scan"}, "is_reserved": 0}, {"lon": -77.068718, "bike_id": "b90d4e0a5519cf2fb1dc04339bf43a07", "lat": 38.952778333333335, "fusion_lon": 0.0, "fusion_lat": 0.0, "type": "electric_scooter", "name": "b90d4e0a5519cf2fb1dc04339bf43a07", "is_disabled": 0, "rental_uris": {"ios": "https://dc.lft.to/lastmile_qr_scan", "android": "https://dc.lft.to/lastmile_qr_scan"}, "is_reserved": 0}, {"lon": -76.9853685, "bike_id": "c7211a8498a540c2bada986e110a15fe", "lat": 38.91020066666667, "fusion_lon": 0.0, "fusion_lat": 0.0, "type": "electric_scooter", "name": "c7211a8498a540c2bada986e110a15fe", "is_disabled": 0, "rental_uris": {"ios": "https://dc.lft.to/lastmile_qr_scan", "android": "https://dc.lft.to/lastmile_qr_scan"}, "is_reserved": 0}, {"lon": -77.0268565, "bike_id": "f028bd34d0ad7f795be51eefefeb438e", "lat": 38.984862666666665, "fusion_lon": 0.0, "fusion_lat": 0.0, "type": "electric_scooter", "name": "f028bd34d0ad7f795be51eefefeb438e", "is_disabled": 0, "rental_uris": {"ios": "https://dc.lft.to/lastmile_qr_scan", "android": "https://dc.lft.to/lastmile_qr_scan"}, "is_reserved": 0}, {"lon": -77.01497783333333, "bike_id": "f56800e0778a03816e525bd9bd6d0f8b", "lat": 38.926788333333334, "fusion_lon": 0.0, "fusion_lat": 0.0, "type": "electric_scooter", "name": "f56800e0778a03816e525bd9bd6d0f8b", "is_disabled": 0, "rental_uris": {"ios": "https://dc.lft.to/lastmile_qr_scan", "android": "https://dc.lft.to/lastmile_qr_scan"}, "is_reserved": 0}, {"lon": -76.987546, "bike_id": "be14d3120a048a6f3b86505e290a3c7d", "lat": 38.903824, "fusion_lon": 0.0, "fusion_lat": 0.0, "type": "electric_scooter", "name": "be14d3120a048a6f3b86505e290a3c7d", "is_disabled": 0, "rental_uris": {"ios": "https://dc.lft.to/lastmile_qr_scan", "android": "https://dc.lft.to/lastmile_qr_scan"}, "is_reserved": 0}, {"lon": -77.02158133333333, "bike_id": "e08abed998d2f8db19e6605ed151557e", "lat": 38.926033833333335, "fusion_lon": 0.0, "fusion_lat": 0.0, "type": "electric_scooter", "name": "e08abed998d2f8db19e6605ed151557e", "is_disabled": 0, "rental_uris": {"ios": "https://dc.lft.to/lastmile_qr_scan", "android": "https://dc.lft.to/lastmile_qr_scan"}, "is_reserved": 0}, {"lon": -77.00142783333334, "bike_id": "a12a29856256fa27f3ec43a0891f526a", "lat": 38.84283, "fusion_lon": 0.0, "fusion_lat": 0.0, "type": "electric_scooter", "name": "a12a29856256fa27f3ec43a0891f526a", "is_disabled": 0, "rental_uris": {"ios": "https://dc.lft.to/lastmile_qr_scan", "android": "https://dc.lft.to/lastmile_qr_scan"}, "is_reserved": 0}, {"lon": -77.0366315, "bike_id": "107a28f9deed48ad80a4ac79a59bc32c", "lat": 38.921071833333336, "fusion_lon": 0.0, "fusion_lat": 0.0, "type": "electric_scooter", "name": "107a28f9deed48ad80a4ac79a59bc32c", "is_disabled": 0, "rental_uris": {"ios": "https://dc.lft.to/lastmile_qr_scan", "android": "https://dc.lft.to/lastmile_qr_scan"}, "is_reserved": 0}, {"lon": -76.93175983333333, "bike_id": "0413df52b6e3a8721cca7acd24b601e8", "lat": 38.8988345, "fusion_lon": 0.0, "fusion_lat": 0.0, "type": "electric_scooter", "name": "0413df52b6e3a8721cca7acd24b601e8", "is_disabled": 0, "rental_uris": {"ios": "https://dc.lft.to/lastmile_qr_scan", "android": "https://dc.lft.to/lastmile_qr_scan"}, "is_reserved": 0}, {"lon": -77.03270416666666, "bike_id": "a9b9179993f21b681e41864cc89440c0", "lat": 38.9344055, "fusion_lon": 0.0, "fusion_lat": 0.0, "type": "electric_scooter", "name": "a9b9179993f21b681e41864cc89440c0", "is_disabled": 0, "rental_uris": {"ios": "https://dc.lft.to/lastmile_qr_scan", "android": "https://dc.lft.to/lastmile_qr_scan"}, "is_reserved": 0}, {"lon": -77.04325416666667, "bike_id": "3f0d4397d786fab3315dc6a8111840b6", "lat": 38.918744, "fusion_lon": 0.0, "fusion_lat": 0.0, "type": "electric_scooter", "name": "3f0d4397d786fab3315dc6a8111840b6", "is_disabled": 0, "rental_uris": {"ios": "https://dc.lft.to/lastmile_qr_scan", "android": "https://dc.lft.to/lastmile_qr_scan"}, "is_reserved": 0}, {"lon": -77.0447765, "bike_id": "63843c5d0a78e6ba5960d0c049393c43", "lat": 38.90061866666667, "fusion_lon": 0.0, "fusion_lat": 0.0, "type": "electric_scooter", "name": "63843c5d0a78e6ba5960d0c049393c43", "is_disabled": 0, "rental_uris": {"ios": "https://dc.lft.to/lastmile_qr_scan", "android": "https://dc.lft.to/lastmile_qr_scan"}, "is_reserved": 0}, {"lon": -77.03244483333333, "bike_id": "b016dbcf2cd49176f66b5024ad60ee51", "lat": 38.89734383333333, "fusion_lon": 0.0, "fusion_lat": 0.0, "type": "electric_bike", "name": "b016dbcf2cd49176f66b5024ad60ee51", "is_disabled": 0, "rental_uris": {"ios": "https://dc.lft.to/lastmile_qr_scan", "android": "https://dc.lft.to/lastmile_qr_scan"}, "is_reserved": 0}, {"lon": -77.04311233333334, "bike_id": "156de0c555828aa6710a502b036dba16", "lat": 38.90892516666667, "fusion_lon": 0.0, "fusion_lat": 0.0, "type": "electric_scooter", "name": "156de0c555828aa6710a502b036dba16", "is_disabled": 0, "rental_uris": {"ios": "https://dc.lft.to/lastmile_qr_scan", "android": "https://dc.lft.to/lastmile_qr_scan"}, "is_reserved": 0}, {"lon": -77.03171883333333, "bike_id": "c1e16056f89f2f4e5d0b295f2df1b891", "lat": 38.88402966666666, "fusion_lon": 0.0, "fusion_lat": 0.0, "type": "electric_scooter", "name": "c1e16056f89f2f4e5d0b295f2df1b891", "is_disabled": 0, "rental_uris": {"ios": "https://dc.lft.to/lastmile_qr_scan", "android": "https://dc.lft.to/lastmile_qr_scan"}, "is_reserved": 0}, {"lon": -76.95013066666667, "bike_id": "206dff2ec53ef6535578d1cbc8a40b92", "lat": 38.89395116666667, "fusion_lon": 0.0, "fusion_lat": 0.0, "type": "electric_scooter", "name": "206dff2ec53ef6535578d1cbc8a40b92", "is_disabled": 0, "rental_uris": {"ios": "https://dc.lft.to/lastmile_qr_scan", "android": "https://dc.lft.to/lastmile_qr_scan"}, "is_reserved": 0}, {"lon": -77.068315, "bike_id": "75ac0e0e088432edf627fba4217e8d6f", "lat": 38.80569633333333, "fusion_lon": 0.0, "fusion_lat": 0.0, "type": "electric_bike", "name": "75ac0e0e088432edf627fba4217e8d6f", "is_disabled": 0, "rental_uris": {"ios": "https://dc.lft.to/lastmile_qr_scan", "android": "https://dc.lft.to/lastmile_qr_scan"}, "is_reserved": 0}, {"lon": -77.02769216666667, "bike_id": "71626ab3e0ded3e34f42bf0c4ab76749", "lat": 38.954216833333334, "fusion_lon": 0.0, "fusion_lat": 0.0, "type": "electric_scooter", "name": "71626ab3e0ded3e34f42bf0c4ab76749", "is_disabled": 0, "rental_uris": {"ios": "https://dc.lft.to/lastmile_qr_scan", "android": "https://dc.lft.to/lastmile_qr_scan"}, "is_reserved": 0}, {"lon": -77.00332566666667, "bike_id": "8b6b7d0fddcab3a30a9416b817f53997", "lat": 38.89725966666666, "fusion_lon": 0.0, "fusion_lat": 0.0, "type": "electric_scooter", "name": "8b6b7d0fddcab3a30a9416b817f53997", "is_disabled": 0, "rental_uris": {"ios": "https://dc.lft.to/lastmile_qr_scan", "android": "https://dc.lft.to/lastmile_qr_scan"}, "is_reserved": 0}, {"lon": -77.067225, "bike_id": "2959f38ee52dad33f23b66e9bb4b1495", "lat": 38.91493066666666, "fusion_lon": 0.0, "fusion_lat": 0.0, "type": "electric_scooter", "name": "2959f38ee52dad33f23b66e9bb4b1495", "is_disabled": 0, "rental_uris": {"ios": "https://dc.lft.to/lastmile_qr_scan", "android": "https://dc.lft.to/lastmile_qr_scan"}, "is_reserved": 0}, {"lon": -77.04357066666667, "bike_id": "cef2cb73b6c13aaba06abd25769a75ae", "lat": 38.91048933333333, "fusion_lon": 0.0, "fusion_lat": 0.0, "type": "electric_scooter", "name": "cef2cb73b6c13aaba06abd25769a75ae", "is_disabled": 0, "rental_uris": {"ios": "https://dc.lft.to/lastmile_qr_scan", "android": "https://dc.lft.to/lastmile_qr_scan"}, "is_reserved": 0}, {"lon": -76.9808555, "bike_id": "36eab7f415699408803128ae5407c584", "lat": 38.9070825, "fusion_lon": 0.0, "fusion_lat": 0.0, "type": "electric_scooter", "name": "36eab7f415699408803128ae5407c584", "is_disabled": 0, "rental_uris": {"ios": "https://dc.lft.to/lastmile_qr_scan", "android": "https://dc.lft.to/lastmile_qr_scan"}, "is_reserved": 0}, {"lon": -77.03264166666666, "bike_id": "f1151d4344387dbc15649556131c20e9", "lat": 38.9372305, "fusion_lon": 0.0, "fusion_lat": 0.0, "type": "electric_scooter", "name": "f1151d4344387dbc15649556131c20e9", "is_disabled": 0, "rental_uris": {"ios": "https://dc.lft.to/lastmile_qr_scan", "android": "https://dc.lft.to/lastmile_qr_scan"}, "is_reserved": 0}, {"lon": -76.98771666666667, "bike_id": "9864f56ff47ac3ce2e3747854fcc2cbf", "lat": 38.8577345, "fusion_lon": 0.0, "fusion_lat": 0.0, "type": "electric_bike", "name": "9864f56ff47ac3ce2e3747854fcc2cbf", "is_disabled": 0, "rental_uris": {"ios": "https://dc.lft.to/lastmile_qr_scan", "android": "https://dc.lft.to/lastmile_qr_scan"}, "is_reserved": 0}, {"lon": -77.03869716666667, "bike_id": "7f1608bfe175833bf36231e80a588d70", "lat": 38.91413166666667, "fusion_lon": 0.0, "fusion_lat": 0.0, "type": "electric_scooter", "name": "7f1608bfe175833bf36231e80a588d70", "is_disabled": 0, "rental_uris": {"ios": "https://dc.lft.to/lastmile_qr_scan", "android": "https://dc.lft.to/lastmile_qr_scan"}, "is_reserved": 0}, {"lon": -77.03327283333333, "bike_id": "8f981591256dce8a5d119bd4b200e0ba", "lat": 38.9156785, "fusion_lon": 0.0, "fusion_lat": 0.0, "type": "electric_scooter", "name": "8f981591256dce8a5d119bd4b200e0ba", "is_disabled": 0, "rental_uris": {"ios": "https://dc.lft.to/lastmile_qr_scan", "android": "https://dc.lft.to/lastmile_qr_scan"}, "is_reserved": 0}, {"lon": -77.0328865, "bike_id": "d4049ecac219b886f309d52231f6a971", "lat": 38.94172783333333, "fusion_lon": 0.0, "fusion_lat": 0.0, "type": "electric_scooter", "name": "d4049ecac219b886f309d52231f6a971", "is_disabled": 0, "rental_uris": {"ios": "https://dc.lft.to/lastmile_qr_scan", "android": "https://dc.lft.to/lastmile_qr_scan"}, "is_reserved": 0}, {"lon": -77.0532305, "bike_id": "9aeeea9a2a5cf6d7fc4211846b7bd6f0", "lat": 38.9065355, "fusion_lon": 0.0, "fusion_lat": 0.0, "type": "electric_scooter", "name": "9aeeea9a2a5cf6d7fc4211846b7bd6f0", "is_disabled": 0, "rental_uris": {"ios": "https://dc.lft.to/lastmile_qr_scan", "android": "https://dc.lft.to/lastmile_qr_scan"}, "is_reserved": 0}, {"lon": -77.0215445, "bike_id": "a983e5c7bb82e5abc872678022e38c5a", "lat": 38.892110833333334, "fusion_lon": 0.0, "fusion_lat": 0.0, "type": "electric_scooter", "name": "a983e5c7bb82e5abc872678022e38c5a", "is_disabled": 0, "rental_uris": {"ios": "https://dc.lft.to/lastmile_qr_scan", "android": "https://dc.lft.to/lastmile_qr_scan"}, "is_reserved": 0}, {"lon": -77.068973, "bike_id": "09b809e313e08e7f7a206f8a8c6529bd", "lat": 38.907346, "fusion_lon": 0.0, "fusion_lat": 0.0, "type": "electric_bike", "name": "09b809e313e08e7f7a206f8a8c6529bd", "is_disabled": 0, "rental_uris": {"ios": "https://dc.lft.to/lastmile_qr_scan", "android": "https://dc.lft.to/lastmile_qr_scan"}, "is_reserved": 0}, {"lon": -77.02197066666666, "bike_id": "0c74911b3720f74081008aa081de86ca", "lat": 38.89265783333333, "fusion_lon": 0.0, "fusion_lat": 0.0, "type": "electric_scooter", "name": "0c74911b3720f74081008aa081de86ca", "is_disabled": 0, "rental_uris": {"ios": "https://dc.lft.to/lastmile_qr_scan", "android": "https://dc.lft.to/lastmile_qr_scan"}, "is_reserved": 0}, {"lon": -77.00920916666666, "bike_id": "78eb35584222ced7c945fe8a80bfa9f8", "lat": 38.896142166666664, "fusion_lon": 0.0, "fusion_lat": 0.0, "type": "electric_scooter", "name": "78eb35584222ced7c945fe8a80bfa9f8", "is_disabled": 0, "rental_uris": {"ios": "https://dc.lft.to/lastmile_qr_scan", "android": "https://dc.lft.to/lastmile_qr_scan"}, "is_reserved": 0}, {"lon": -77.05807766666666, "bike_id": "eebe220016a7df91aef1078b82d1ac5f", "lat": 38.90107033333334, "fusion_lon": 0.0, "fusion_lat": 0.0, "type": "electric_scooter", "name": "eebe220016a7df91aef1078b82d1ac5f", "is_disabled": 0, "rental_uris": {"ios": "https://dc.lft.to/lastmile_qr_scan", "android": "https://dc.lft.to/lastmile_qr_scan"}, "is_reserved": 0}, {"lon": -77.00467566666667, "bike_id": "20ec8a04057f7f6ec8eb4f1be9bf8fd3", "lat": 38.897308833333334, "fusion_lon": 0.0, "fusion_lat": 0.0, "type": "electric_bike", "name": "20ec8a04057f7f6ec8eb4f1be9bf8fd3", "is_disabled": 0, "rental_uris": {"ios": "https://dc.lft.to/lastmile_qr_scan", "android": "https://dc.lft.to/lastmile_qr_scan"}, "is_reserved": 0}, {"lon": -77.03830333333333, "bike_id": "630eb537bf312de7a6a4d3cb27d37c6a", "lat": 38.914795833333336, "fusion_lon": 0.0, "fusion_lat": 0.0, "type": "electric_scooter", "name": "630eb537bf312de7a6a4d3cb27d37c6a", "is_disabled": 0, "rental_uris": {"ios": "https://dc.lft.to/lastmile_qr_scan", "android": "https://dc.lft.to/lastmile_qr_scan"}, "is_reserved": 0}, {"lon": -76.978079, "bike_id": "a584e3ec8e9dfae0bd5497f00a01b093", "lat": 38.906698, "fusion_lon": 0.0, "fusion_lat": 0.0, "type": "electric_scooter", "name": "a584e3ec8e9dfae0bd5497f00a01b093", "is_disabled": 0, "rental_uris": {"ios": "https://dc.lft.to/lastmile_qr_scan", "android": "https://dc.lft.to/lastmile_qr_scan"}, "is_reserved": 0}, {"lon": -77.0400825, "bike_id": "f105e1e68475b56d7383652d550d1b58", "lat": 38.9099855, "fusion_lon": 0.0, "fusion_lat": 0.0, "type": "electric_scooter", "name": "f105e1e68475b56d7383652d550d1b58", "is_disabled": 0, "rental_uris": {"ios": "https://dc.lft.to/lastmile_qr_scan", "android": "https://dc.lft.to/lastmile_qr_scan"}, "is_reserved": 0}, {"lon": -77.03180866666666, "bike_id": "4c7da6f50fe2bb2797b82b38e2ec49f8", "lat": 38.88733833333333, "fusion_lon": 0.0, "fusion_lat": 0.0, "type": "electric_scooter", "name": "4c7da6f50fe2bb2797b82b38e2ec49f8", "is_disabled": 0, "rental_uris": {"ios": "https://dc.lft.to/lastmile_qr_scan", "android": "https://dc.lft.to/lastmile_qr_scan"}, "is_reserved": 0}, {"lon": -77.05596883333334, "bike_id": "6bc0b0ea90ae01c5531334549be296c7", "lat": 38.9161895, "fusion_lon": 0.0, "fusion_lat": 0.0, "type": "electric_scooter", "name": "6bc0b0ea90ae01c5531334549be296c7", "is_disabled": 0, "rental_uris": {"ios": "https://dc.lft.to/lastmile_qr_scan", "android": "https://dc.lft.to/lastmile_qr_scan"}, "is_reserved": 0}, {"lon": -77.00114833333333, "bike_id": "f8662a019a6bb056ca2f4a5f3f259159", "lat": 38.91701116666667, "fusion_lon": 0.0, "fusion_lat": 0.0, "type": "electric_scooter", "name": "f8662a019a6bb056ca2f4a5f3f259159", "is_disabled": 0, "rental_uris": {"ios": "https://dc.lft.to/lastmile_qr_scan", "android": "https://dc.lft.to/lastmile_qr_scan"}, "is_reserved": 0}, {"lon": -77.041612, "bike_id": "db66cd972f106e9d963ed6464b62db0c", "lat": 38.908140833333334, "fusion_lon": 0.0, "fusion_lat": 0.0, "type": "electric_scooter", "name": "db66cd972f106e9d963ed6464b62db0c", "is_disabled": 0, "rental_uris": {"ios": "https://dc.lft.to/lastmile_qr_scan", "android": "https://dc.lft.to/lastmile_qr_scan"}, "is_reserved": 0}, {"lon": -76.895404, "bike_id": "5bc70dc733655fa6c95983c10a97d467", "lat": 38.94552266666667, "fusion_lon": 0.0, "fusion_lat": 0.0, "type": "electric_bike", "name": "5bc70dc733655fa6c95983c10a97d467", "is_disabled": 0, "rental_uris": {"ios": "https://dc.lft.to/lastmile_qr_scan", "android": "https://dc.lft.to/lastmile_qr_scan"}, "is_reserved": 0}, {"lon": -77.0354205, "bike_id": "f30a790ec8cdaad05b8e0c91d866454d", "lat": 38.91827283333333, "fusion_lon": 0.0, "fusion_lat": 0.0, "type": "electric_scooter", "name": "f30a790ec8cdaad05b8e0c91d866454d", "is_disabled": 0, "rental_uris": {"ios": "https://dc.lft.to/lastmile_qr_scan", "android": "https://dc.lft.to/lastmile_qr_scan"}, "is_reserved": 0}, {"lon": -77.03165433333334, "bike_id": "959ff80a8e461cf6243a77f5550310c8", "lat": 38.89215133333333, "fusion_lon": 0.0, "fusion_lat": 0.0, "type": "electric_scooter", "name": "959ff80a8e461cf6243a77f5550310c8", "is_disabled": 0, "rental_uris": {"ios": "https://dc.lft.to/lastmile_qr_scan", "android": "https://dc.lft.to/lastmile_qr_scan"}, "is_reserved": 0}, {"lon": -77.03844033333333, "bike_id": "c5097ade863c17d44d337ec881e4b96f", "lat": 38.91091333333333, "fusion_lon": 0.0, "fusion_lat": 0.0, "type": "electric_scooter", "name": "c5097ade863c17d44d337ec881e4b96f", "is_disabled": 0, "rental_uris": {"ios": "https://dc.lft.to/lastmile_qr_scan", "android": "https://dc.lft.to/lastmile_qr_scan"}, "is_reserved": 0}, {"lon": -77.027267, "bike_id": "f5b0421908389365f433794684da675c", "lat": 38.940862333333335, "fusion_lon": 0.0, "fusion_lat": 0.0, "type": "electric_scooter", "name": "f5b0421908389365f433794684da675c", "is_disabled": 0, "rental_uris": {"ios": "https://dc.lft.to/lastmile_qr_scan", "android": "https://dc.lft.to/lastmile_qr_scan"}, "is_reserved": 0}, {"lon": -77.02210783333334, "bike_id": "7ad8b7a25ff12bd464fb5f0c061e0f39", "lat": 38.878962333333334, "fusion_lon": 0.0, "fusion_lat": 0.0, "type": "electric_bike", "name": "7ad8b7a25ff12bd464fb5f0c061e0f39", "is_disabled": 0, "rental_uris": {"ios": "https://dc.lft.to/lastmile_qr_scan", "android": "https://dc.lft.to/lastmile_qr_scan"}, "is_reserved": 0}, {"lon": -76.99160566666667, "bike_id": "86a251a10630e654d2c3db2ea0855f1a", "lat": 38.90949783333333, "fusion_lon": 0.0, "fusion_lat": 0.0, "type": "electric_scooter", "name": "86a251a10630e654d2c3db2ea0855f1a", "is_disabled": 0, "rental_uris": {"ios": "https://dc.lft.to/lastmile_qr_scan", "android": "https://dc.lft.to/lastmile_qr_scan"}, "is_reserved": 0}, {"lon": -77.07333916666667, "bike_id": "5a579a91e3c23c722cb48c79e64a5c10", "lat": 38.9347495, "fusion_lon": 0.0, "fusion_lat": 0.0, "type": "electric_scooter", "name": "5a579a91e3c23c722cb48c79e64a5c10", "is_disabled": 0, "rental_uris": {"ios": "https://dc.lft.to/lastmile_qr_scan", "android": "https://dc.lft.to/lastmile_qr_scan"}, "is_reserved": 0}, {"lon": -77.00199266666667, "bike_id": "a063a4a0938cc7c2a0ac23a3d89a58c4", "lat": 38.9003165, "fusion_lon": 0.0, "fusion_lat": 0.0, "type": "electric_scooter", "name": "a063a4a0938cc7c2a0ac23a3d89a58c4", "is_disabled": 0, "rental_uris": {"ios": "https://dc.lft.to/lastmile_qr_scan", "android": "https://dc.lft.to/lastmile_qr_scan"}, "is_reserved": 0}, {"lon": -77.17837916666667, "bike_id": "1be9b87ccd5e3c6394d5372338647581", "lat": 39.08859016666667, "fusion_lon": 0.0, "fusion_lat": 0.0, "type": "electric_bike", "name": "1be9b87ccd5e3c6394d5372338647581", "is_disabled": 0, "rental_uris": {"ios": "https://dc.lft.to/lastmile_qr_scan", "android": "https://dc.lft.to/lastmile_qr_scan"}, "is_reserved": 0}, {"lon": -77.03293116666667, "bike_id": "3a0e5da72e19d7abb14092bfe37efc59", "lat": 38.95651016666667, "fusion_lon": 0.0, "fusion_lat": 0.0, "type": "electric_scooter", "name": "3a0e5da72e19d7abb14092bfe37efc59", "is_disabled": 0, "rental_uris": {"ios": "https://dc.lft.to/lastmile_qr_scan", "android": "https://dc.lft.to/lastmile_qr_scan"}, "is_reserved": 0}, {"lon": -77.03661533333333, "bike_id": "9a31c0938209dee0296343d58983cb5e", "lat": 38.924935833333336, "fusion_lon": 0.0, "fusion_lat": 0.0, "type": "electric_bike", "name": "9a31c0938209dee0296343d58983cb5e", "is_disabled": 0, "rental_uris": {"ios": "https://dc.lft.to/lastmile_qr_scan", "android": "https://dc.lft.to/lastmile_qr_scan"}, "is_reserved": 0}, {"lon": -77.03218383333333, "bike_id": "3a54b9d98c35b03a042e12ee5187c9a0", "lat": 38.91819816666667, "fusion_lon": 0.0, "fusion_lat": 0.0, "type": "electric_scooter", "name": "3a54b9d98c35b03a042e12ee5187c9a0", "is_disabled": 0, "rental_uris": {"ios": "https://dc.lft.to/lastmile_qr_scan", "android": "https://dc.lft.to/lastmile_qr_scan"}, "is_reserved": 0}, {"lon": -77.03286433333334, "bike_id": "0717f541a6ff58288fde486d449e6b0b", "lat": 38.93640933333333, "fusion_lon": 0.0, "fusion_lat": 0.0, "type": "electric_scooter", "name": "0717f541a6ff58288fde486d449e6b0b", "is_disabled": 0, "rental_uris": {"ios": "https://dc.lft.to/lastmile_qr_scan", "android": "https://dc.lft.to/lastmile_qr_scan"}, "is_reserved": 0}, {"lon": -77.03215033333333, "bike_id": "4285e0595bbe200db413f7b29db163b9", "lat": 38.892467, "fusion_lon": 0.0, "fusion_lat": 0.0, "type": "electric_scooter", "name": "4285e0595bbe200db413f7b29db163b9", "is_disabled": 0, "rental_uris": {"ios": "https://dc.lft.to/lastmile_qr_scan", "android": "https://dc.lft.to/lastmile_qr_scan"}, "is_reserved": 0}, {"lon": -77.0293295, "bike_id": "8c889fd3d2a4e68f70de63c105120224", "lat": 38.9169845, "fusion_lon": 0.0, "fusion_lat": 0.0, "type": "electric_scooter", "name": "8c889fd3d2a4e68f70de63c105120224", "is_disabled": 0, "rental_uris": {"ios": "https://dc.lft.to/lastmile_qr_scan", "android": "https://dc.lft.to/lastmile_qr_scan"}, "is_reserved": 0}, {"lon": -77.05944033333333, "bike_id": "22a5f983c94dacccf658998df4e6e17d", "lat": 38.862184666666664, "fusion_lon": 0.0, "fusion_lat": 0.0, "type": "electric_scooter", "name": "22a5f983c94dacccf658998df4e6e17d", "is_disabled": 0, "rental_uris": {"ios": "https://dc.lft.to/lastmile_qr_scan", "android": "https://dc.lft.to/lastmile_qr_scan"}, "is_reserved": 0}, {"lon": -77.01467116666667, "bike_id": "1ceeef7c191e06e231acd17530788e5f", "lat": 38.896226166666665, "fusion_lon": 0.0, "fusion_lat": 0.0, "type": "electric_scooter", "name": "1ceeef7c191e06e231acd17530788e5f", "is_disabled": 0, "rental_uris": {"ios": "https://dc.lft.to/lastmile_qr_scan", "android": "https://dc.lft.to/lastmile_qr_scan"}, "is_reserved": 0}, {"lon": -77.0335505, "bike_id": "a9a1920acb0a43b383c37091f4b1b8f8", "lat": 38.90151316666667, "fusion_lon": 0.0, "fusion_lat": 0.0, "type": "electric_scooter", "name": "a9a1920acb0a43b383c37091f4b1b8f8", "is_disabled": 0, "rental_uris": {"ios": "https://dc.lft.to/lastmile_qr_scan", "android": "https://dc.lft.to/lastmile_qr_scan"}, "is_reserved": 0}, {"lon": -77.0122125, "bike_id": "7d9eb4f79965f881ef710b55b7b95230", "lat": 38.916882333333334, "fusion_lon": 0.0, "fusion_lat": 0.0, "type": "electric_scooter", "name": "7d9eb4f79965f881ef710b55b7b95230", "is_disabled": 0, "rental_uris": {"ios": "https://dc.lft.to/lastmile_qr_scan", "android": "https://dc.lft.to/lastmile_qr_scan"}, "is_reserved": 0}, {"lon": -77.02731083333333, "bike_id": "5821a9eac749ce47e4568e2668c2f000", "lat": 38.933782, "fusion_lon": 0.0, "fusion_lat": 0.0, "type": "electric_scooter", "name": "5821a9eac749ce47e4568e2668c2f000", "is_disabled": 0, "rental_uris": {"ios": "https://dc.lft.to/lastmile_qr_scan", "android": "https://dc.lft.to/lastmile_qr_scan"}, "is_reserved": 0}, {"lon": -77.01970033333333, "bike_id": "aa610c2eca74b76ac24af17c4f4df451", "lat": 38.977452666666665, "fusion_lon": 0.0, "fusion_lat": 0.0, "type": "electric_scooter", "name": "aa610c2eca74b76ac24af17c4f4df451", "is_disabled": 0, "rental_uris": {"ios": "https://dc.lft.to/lastmile_qr_scan", "android": "https://dc.lft.to/lastmile_qr_scan"}, "is_reserved": 0}, {"lon": -77.00203716666667, "bike_id": "882220bd7fbed787ec9245330d401676", "lat": 38.90237283333333, "fusion_lon": 0.0, "fusion_lat": 0.0, "type": "electric_scooter", "name": "882220bd7fbed787ec9245330d401676", "is_disabled": 0, "rental_uris": {"ios": "https://dc.lft.to/lastmile_qr_scan", "android": "https://dc.lft.to/lastmile_qr_scan"}, "is_reserved": 0}, {"lon": -77.039709, "bike_id": "d90ab56d29e1808aebe82b87e60c128d", "lat": 38.92322083333333, "fusion_lon": 0.0, "fusion_lat": 0.0, "type": "electric_scooter", "name": "d90ab56d29e1808aebe82b87e60c128d", "is_disabled": 0, "rental_uris": {"ios": "https://dc.lft.to/lastmile_qr_scan", "android": "https://dc.lft.to/lastmile_qr_scan"}, "is_reserved": 0}, {"lon": -77.00842733333333, "bike_id": "4ab8c0da8caa763c6cceea477b176a69", "lat": 38.916243333333334, "fusion_lon": 0.0, "fusion_lat": 0.0, "type": "electric_scooter", "name": "4ab8c0da8caa763c6cceea477b176a69", "is_disabled": 0, "rental_uris": {"ios": "https://dc.lft.to/lastmile_qr_scan", "android": "https://dc.lft.to/lastmile_qr_scan"}, "is_reserved": 0}, {"lon": -77.03072266666666, "bike_id": "ed9ac19decc2a5e9f3fee3eb28c080c6", "lat": 38.90754533333333, "fusion_lon": 0.0, "fusion_lat": 0.0, "type": "electric_scooter", "name": "ed9ac19decc2a5e9f3fee3eb28c080c6", "is_disabled": 0, "rental_uris": {"ios": "https://dc.lft.to/lastmile_qr_scan", "android": "https://dc.lft.to/lastmile_qr_scan"}, "is_reserved": 0}, {"lon": -77.02432866666666, "bike_id": "fbdfa12787ea1dfa7b521e7c2e6223a5", "lat": 38.91401466666667, "fusion_lon": 0.0, "fusion_lat": 0.0, "type": "electric_scooter", "name": "fbdfa12787ea1dfa7b521e7c2e6223a5", "is_disabled": 0, "rental_uris": {"ios": "https://dc.lft.to/lastmile_qr_scan", "android": "https://dc.lft.to/lastmile_qr_scan"}, "is_reserved": 0}, {"lon": -77.029738, "bike_id": "1bd68b64db95d9f7f83a046d82a0b514", "lat": 38.89631816666667, "fusion_lon": 0.0, "fusion_lat": 0.0, "type": "electric_scooter", "name": "1bd68b64db95d9f7f83a046d82a0b514", "is_disabled": 0, "rental_uris": {"ios": "https://dc.lft.to/lastmile_qr_scan", "android": "https://dc.lft.to/lastmile_qr_scan"}, "is_reserved": 0}, {"lon": -77.03659916666666, "bike_id": "ffd091db04e72faa262514dfbc0ff056", "lat": 38.9209885, "fusion_lon": 0.0, "fusion_lat": 0.0, "type": "electric_scooter", "name": "ffd091db04e72faa262514dfbc0ff056", "is_disabled": 0, "rental_uris": {"ios": "https://dc.lft.to/lastmile_qr_scan", "android": "https://dc.lft.to/lastmile_qr_scan"}, "is_reserved": 0}, {"lon": -77.04155333333334, "bike_id": "b1efea2f27f6bf29e034d15eca709dc7", "lat": 38.903576, "fusion_lon": 0.0, "fusion_lat": 0.0, "type": "electric_scooter", "name": "b1efea2f27f6bf29e034d15eca709dc7", "is_disabled": 0, "rental_uris": {"ios": "https://dc.lft.to/lastmile_qr_scan", "android": "https://dc.lft.to/lastmile_qr_scan"}, "is_reserved": 0}, {"lon": -77.042541, "bike_id": "74235640b1cbde0e1b5fd047cfbc28e3", "lat": 38.9224735, "fusion_lon": 0.0, "fusion_lat": 0.0, "type": "electric_scooter", "name": "74235640b1cbde0e1b5fd047cfbc28e3", "is_disabled": 0, "rental_uris": {"ios": "https://dc.lft.to/lastmile_qr_scan", "android": "https://dc.lft.to/lastmile_qr_scan"}, "is_reserved": 0}, {"lon": -77.02301033333333, "bike_id": "e21daff6c13d39865aec0792993aa827", "lat": 38.92667983333333, "fusion_lon": 0.0, "fusion_lat": 0.0, "type": "electric_scooter", "name": "e21daff6c13d39865aec0792993aa827", "is_disabled": 0, "rental_uris": {"ios": "https://dc.lft.to/lastmile_qr_scan", "android": "https://dc.lft.to/lastmile_qr_scan"}, "is_reserved": 0}, {"lon": -77.0217145, "bike_id": "54abc34cc1c63cd2aaf767edf5970cb4", "lat": 38.94293283333333, "fusion_lon": 0.0, "fusion_lat": 0.0, "type": "electric_scooter", "name": "54abc34cc1c63cd2aaf767edf5970cb4", "is_disabled": 0, "rental_uris": {"ios": "https://dc.lft.to/lastmile_qr_scan", "android": "https://dc.lft.to/lastmile_qr_scan"}, "is_reserved": 0}, {"lon": -77.04038583333333, "bike_id": "76b12fb241290850d4545f95cfe42465", "lat": 38.91862916666667, "fusion_lon": 0.0, "fusion_lat": 0.0, "type": "electric_scooter", "name": "76b12fb241290850d4545f95cfe42465", "is_disabled": 0, "rental_uris": {"ios": "https://dc.lft.to/lastmile_qr_scan", "android": "https://dc.lft.to/lastmile_qr_scan"}, "is_reserved": 0}, {"lon": -77.07666783333333, "bike_id": "6786daf772490c0551bfc87482021976", "lat": 38.94322733333333, "fusion_lon": 0.0, "fusion_lat": 0.0, "type": "electric_scooter", "name": "6786daf772490c0551bfc87482021976", "is_disabled": 0, "rental_uris": {"ios": "https://dc.lft.to/lastmile_qr_scan", "android": "https://dc.lft.to/lastmile_qr_scan"}, "is_reserved": 0}, {"lon": -77.00934, "bike_id": "ffca46896bd14e61e182426b59371bec", "lat": 38.896509, "fusion_lon": 0.0, "fusion_lat": 0.0, "type": "electric_scooter", "name": "ffca46896bd14e61e182426b59371bec", "is_disabled": 0, "rental_uris": {"ios": "https://dc.lft.to/lastmile_qr_scan", "android": "https://dc.lft.to/lastmile_qr_scan"}, "is_reserved": 0}, {"lon": -77.0455855, "bike_id": "023dffb8f2642af96c007b4173d6788d", "lat": 38.919322, "fusion_lon": 0.0, "fusion_lat": 0.0, "type": "electric_scooter", "name": "023dffb8f2642af96c007b4173d6788d", "is_disabled": 0, "rental_uris": {"ios": "https://dc.lft.to/lastmile_qr_scan", "android": "https://dc.lft.to/lastmile_qr_scan"}, "is_reserved": 0}, {"lon": -77.05622566666666, "bike_id": "4608f3d612d02739f9c2f4c5165b9e32", "lat": 38.9233515, "fusion_lon": 0.0, "fusion_lat": 0.0, "type": "electric_scooter", "name": "4608f3d612d02739f9c2f4c5165b9e32", "is_disabled": 0, "rental_uris": {"ios": "https://dc.lft.to/lastmile_qr_scan", "android": "https://dc.lft.to/lastmile_qr_scan"}, "is_reserved": 0}, {"lon": -76.94633916666666, "bike_id": "ba66d8e198f017cda41bb888212b568e", "lat": 38.898303166666665, "fusion_lon": 0.0, "fusion_lat": 0.0, "type": "electric_scooter", "name": "ba66d8e198f017cda41bb888212b568e", "is_disabled": 0, "rental_uris": {"ios": "https://dc.lft.to/lastmile_qr_scan", "android": "https://dc.lft.to/lastmile_qr_scan"}, "is_reserved": 0}, {"lon": -77.03852533333334, "bike_id": "cf9d00a5f2e0221b1e00726042d21408", "lat": 38.9166035, "fusion_lon": 0.0, "fusion_lat": 0.0, "type": "electric_scooter", "name": "cf9d00a5f2e0221b1e00726042d21408", "is_disabled": 0, "rental_uris": {"ios": "https://dc.lft.to/lastmile_qr_scan", "android": "https://dc.lft.to/lastmile_qr_scan"}, "is_reserved": 0}, {"lon": -77.02810783333334, "bike_id": "7d3d00b9e5e24924b2252472fb1f55ed", "lat": 38.917043166666666, "fusion_lon": 0.0, "fusion_lat": 0.0, "type": "electric_scooter", "name": "7d3d00b9e5e24924b2252472fb1f55ed", "is_disabled": 0, "rental_uris": {"ios": "https://dc.lft.to/lastmile_qr_scan", "android": "https://dc.lft.to/lastmile_qr_scan"}, "is_reserved": 0}, {"lon": -76.96532316666666, "bike_id": "253487826e19c4edb03697f56605cf6a", "lat": 38.8747995, "fusion_lon": 0.0, "fusion_lat": 0.0, "type": "electric_scooter", "name": "253487826e19c4edb03697f56605cf6a", "is_disabled": 0, "rental_uris": {"ios": "https://dc.lft.to/lastmile_qr_scan", "android": "https://dc.lft.to/lastmile_qr_scan"}, "is_reserved": 0}, {"lon": -77.032793, "bike_id": "c553bdbbdaac99c609c2d73c07333810", "lat": 38.927601833333334, "fusion_lon": 0.0, "fusion_lat": 0.0, "type": "electric_scooter", "name": "c553bdbbdaac99c609c2d73c07333810", "is_disabled": 0, "rental_uris": {"ios": "https://dc.lft.to/lastmile_qr_scan", "android": "https://dc.lft.to/lastmile_qr_scan"}, "is_reserved": 0}, {"lon": -76.9920355, "bike_id": "d62dcb7e3dfbb714b94c11039836e41f", "lat": 38.8982965, "fusion_lon": 0.0, "fusion_lat": 0.0, "type": "electric_scooter", "name": "d62dcb7e3dfbb714b94c11039836e41f", "is_disabled": 0, "rental_uris": {"ios": "https://dc.lft.to/lastmile_qr_scan", "android": "https://dc.lft.to/lastmile_qr_scan"}, "is_reserved": 0}, {"lon": -77.01226183333333, "bike_id": "ba3c8a661d41757f401378bfb1609f6b", "lat": 38.9006325, "fusion_lon": 0.0, "fusion_lat": 0.0, "type": "electric_scooter", "name": "ba3c8a661d41757f401378bfb1609f6b", "is_disabled": 0, "rental_uris": {"ios": "https://dc.lft.to/lastmile_qr_scan", "android": "https://dc.lft.to/lastmile_qr_scan"}, "is_reserved": 0}, {"lon": -76.99740883333334, "bike_id": "7cad9908216b73b00ee9b30a6647ae01", "lat": 38.9204025, "fusion_lon": 0.0, "fusion_lat": 0.0, "type": "electric_scooter", "name": "7cad9908216b73b00ee9b30a6647ae01", "is_disabled": 0, "rental_uris": {"ios": "https://dc.lft.to/lastmile_qr_scan", "android": "https://dc.lft.to/lastmile_qr_scan"}, "is_reserved": 0}, {"lon": -77.03382316666666, "bike_id": "7c76ed889b3ae30045e1bd060f08ba09", "lat": 38.901509833333336, "fusion_lon": 0.0, "fusion_lat": 0.0, "type": "electric_scooter", "name": "7c76ed889b3ae30045e1bd060f08ba09", "is_disabled": 0, "rental_uris": {"ios": "https://dc.lft.to/lastmile_qr_scan", "android": "https://dc.lft.to/lastmile_qr_scan"}, "is_reserved": 0}, {"lon": -76.99233083333333, "bike_id": "d2f03e2a6e4149a10738049b02d8ef14", "lat": 38.90792416666667, "fusion_lon": 0.0, "fusion_lat": 0.0, "type": "electric_scooter", "name": "d2f03e2a6e4149a10738049b02d8ef14", "is_disabled": 0, "rental_uris": {"ios": "https://dc.lft.to/lastmile_qr_scan", "android": "https://dc.lft.to/lastmile_qr_scan"}, "is_reserved": 0}, {"lon": -77.0386945, "bike_id": "0ff88fe7b93ac8bda0e6beadabd0615a", "lat": 38.932392166666666, "fusion_lon": 0.0, "fusion_lat": 0.0, "type": "electric_scooter", "name": "0ff88fe7b93ac8bda0e6beadabd0615a", "is_disabled": 0, "rental_uris": {"ios": "https://dc.lft.to/lastmile_qr_scan", "android": "https://dc.lft.to/lastmile_qr_scan"}, "is_reserved": 0}, {"lon": -77.03865583333334, "bike_id": "58eac598539756b5de1733669aebbb26", "lat": 38.915508833333334, "fusion_lon": 0.0, "fusion_lat": 0.0, "type": "electric_scooter", "name": "58eac598539756b5de1733669aebbb26", "is_disabled": 0, "rental_uris": {"ios": "https://dc.lft.to/lastmile_qr_scan", "android": "https://dc.lft.to/lastmile_qr_scan"}, "is_reserved": 0}, {"lon": -77.02931933333333, "bike_id": "138085f4e19c5e40008a918d521150e0", "lat": 38.93462233333333, "fusion_lon": 0.0, "fusion_lat": 0.0, "type": "electric_scooter", "name": "138085f4e19c5e40008a918d521150e0", "is_disabled": 0, "rental_uris": {"ios": "https://dc.lft.to/lastmile_qr_scan", "android": "https://dc.lft.to/lastmile_qr_scan"}, "is_reserved": 0}, {"lon": -77.0546495, "bike_id": "b0cc91aad9d68a817e0c96825494d18b", "lat": 38.855476333333336, "fusion_lon": 0.0, "fusion_lat": 0.0, "type": "electric_bike", "name": "b0cc91aad9d68a817e0c96825494d18b", "is_disabled": 0, "rental_uris": {"ios": "https://dc.lft.to/lastmile_qr_scan", "android": "https://dc.lft.to/lastmile_qr_scan"}, "is_reserved": 0}, {"lon": -77.006757, "bike_id": "136424212631efe09cf1f51af0ebaa4a", "lat": 38.90008483333333, "fusion_lon": 0.0, "fusion_lat": 0.0, "type": "electric_scooter", "name": "136424212631efe09cf1f51af0ebaa4a", "is_disabled": 0, "rental_uris": {"ios": "https://dc.lft.to/lastmile_qr_scan", "android": "https://dc.lft.to/lastmile_qr_scan"}, "is_reserved": 0}, {"lon": -77.12980333333333, "bike_id": "417ad5eec5f435b305bf41669af1b035", "lat": 38.7998055, "fusion_lon": 0.0, "fusion_lat": 0.0, "type": "electric_bike", "name": "417ad5eec5f435b305bf41669af1b035", "is_disabled": 0, "rental_uris": {"ios": "https://dc.lft.to/lastmile_qr_scan", "android": "https://dc.lft.to/lastmile_qr_scan"}, "is_reserved": 0}, {"lon": -77.0286805, "bike_id": "3489cb1926d6fb3260cd36e15a6424d9", "lat": 38.884955833333336, "fusion_lon": 0.0, "fusion_lat": 0.0, "type": "electric_scooter", "name": "3489cb1926d6fb3260cd36e15a6424d9", "is_disabled": 0, "rental_uris": {"ios": "https://dc.lft.to/lastmile_qr_scan", "android": "https://dc.lft.to/lastmile_qr_scan"}, "is_reserved": 0}, {"lon": -77.00657983333333, "bike_id": "df21a354249a48e371931771499b44db", "lat": 38.944626166666666, "fusion_lon": 0.0, "fusion_lat": 0.0, "type": "electric_scooter", "name": "df21a354249a48e371931771499b44db", "is_disabled": 0, "rental_uris": {"ios": "https://dc.lft.to/lastmile_qr_scan", "android": "https://dc.lft.to/lastmile_qr_scan"}, "is_reserved": 0}, {"lon": -77.01367583333334, "bike_id": "19dd21d65db532889bc3530e3f1d6462", "lat": 38.887065166666666, "fusion_lon": 0.0, "fusion_lat": 0.0, "type": "electric_scooter", "name": "19dd21d65db532889bc3530e3f1d6462", "is_disabled": 0, "rental_uris": {"ios": "https://dc.lft.to/lastmile_qr_scan", "android": "https://dc.lft.to/lastmile_qr_scan"}, "is_reserved": 0}, {"lon": -77.04600466666666, "bike_id": "9c4a1e6923c0717620f5fef13afa6ea6", "lat": 38.91608733333333, "fusion_lon": 0.0, "fusion_lat": 0.0, "type": "electric_scooter", "name": "9c4a1e6923c0717620f5fef13afa6ea6", "is_disabled": 0, "rental_uris": {"ios": "https://dc.lft.to/lastmile_qr_scan", "android": "https://dc.lft.to/lastmile_qr_scan"}, "is_reserved": 0}, {"lon": -77.02398466666666, "bike_id": "c5f71d6bf43891990e226a8d76a24abf", "lat": 38.920068666666666, "fusion_lon": 0.0, "fusion_lat": 0.0, "type": "electric_scooter", "name": "c5f71d6bf43891990e226a8d76a24abf", "is_disabled": 0, "rental_uris": {"ios": "https://dc.lft.to/lastmile_qr_scan", "android": "https://dc.lft.to/lastmile_qr_scan"}, "is_reserved": 0}, {"lon": -77.02920233333333, "bike_id": "ff4969cb9996e6ed802965ad56e307ab", "lat": 38.89819416666667, "fusion_lon": 0.0, "fusion_lat": 0.0, "type": "electric_scooter", "name": "ff4969cb9996e6ed802965ad56e307ab", "is_disabled": 0, "rental_uris": {"ios": "https://dc.lft.to/lastmile_qr_scan", "android": "https://dc.lft.to/lastmile_qr_scan"}, "is_reserved": 0}, {"lon": -77.02715366666666, "bike_id": "6e5134df16810b415da20e4dda3b9a70", "lat": 38.91017033333333, "fusion_lon": 0.0, "fusion_lat": 0.0, "type": "electric_scooter", "name": "6e5134df16810b415da20e4dda3b9a70", "is_disabled": 0, "rental_uris": {"ios": "https://dc.lft.to/lastmile_qr_scan", "android": "https://dc.lft.to/lastmile_qr_scan"}, "is_reserved": 0}, {"lon": -77.05384983333333, "bike_id": "8376b2ca741f3c8687b6992e93d80bab", "lat": 38.92730383333333, "fusion_lon": 0.0, "fusion_lat": 0.0, "type": "electric_scooter", "name": "8376b2ca741f3c8687b6992e93d80bab", "is_disabled": 0, "rental_uris": {"ios": "https://dc.lft.to/lastmile_qr_scan", "android": "https://dc.lft.to/lastmile_qr_scan"}, "is_reserved": 0}, {"lon": -77.00738816666667, "bike_id": "f4f01984248fe6bbd57bc3500948d750", "lat": 38.876451333333335, "fusion_lon": 0.0, "fusion_lat": 0.0, "type": "electric_scooter", "name": "f4f01984248fe6bbd57bc3500948d750", "is_disabled": 0, "rental_uris": {"ios": "https://dc.lft.to/lastmile_qr_scan", "android": "https://dc.lft.to/lastmile_qr_scan"}, "is_reserved": 0}, {"lon": -76.99141816666666, "bike_id": "20791c4c7023ff29154364bc7c7b1480", "lat": 38.882436166666665, "fusion_lon": 0.0, "fusion_lat": 0.0, "type": "electric_scooter", "name": "20791c4c7023ff29154364bc7c7b1480", "is_disabled": 0, "rental_uris": {"ios": "https://dc.lft.to/lastmile_qr_scan", "android": "https://dc.lft.to/lastmile_qr_scan"}, "is_reserved": 0}, {"lon": -77.03197483333334, "bike_id": "485c8803a39f079255c93664b1012240", "lat": 38.930582, "fusion_lon": 0.0, "fusion_lat": 0.0, "type": "electric_scooter", "name": "485c8803a39f079255c93664b1012240", "is_disabled": 0, "rental_uris": {"ios": "https://dc.lft.to/lastmile_qr_scan", "android": "https://dc.lft.to/lastmile_qr_scan"}, "is_reserved": 0}, {"lon": -76.98821733333334, "bike_id": "c74fdc5a40e07f30996bb41ded0d3719", "lat": 38.890755166666665, "fusion_lon": 0.0, "fusion_lat": 0.0, "type": "electric_scooter", "name": "c74fdc5a40e07f30996bb41ded0d3719", "is_disabled": 0, "rental_uris": {"ios": "https://dc.lft.to/lastmile_qr_scan", "android": "https://dc.lft.to/lastmile_qr_scan"}, "is_reserved": 0}, {"lon": -77.0223985, "bike_id": "77ceb2446ac4ba87207958b85e556587", "lat": 38.92245166666667, "fusion_lon": 0.0, "fusion_lat": 0.0, "type": "electric_scooter", "name": "77ceb2446ac4ba87207958b85e556587", "is_disabled": 0, "rental_uris": {"ios": "https://dc.lft.to/lastmile_qr_scan", "android": "https://dc.lft.to/lastmile_qr_scan"}, "is_reserved": 0}, {"lon": -77.05231766666667, "bike_id": "1d3e868f6a19cabc6e3af8b535816a95", "lat": 38.92458666666667, "fusion_lon": 0.0, "fusion_lat": 0.0, "type": "electric_scooter", "name": "1d3e868f6a19cabc6e3af8b535816a95", "is_disabled": 0, "rental_uris": {"ios": "https://dc.lft.to/lastmile_qr_scan", "android": "https://dc.lft.to/lastmile_qr_scan"}, "is_reserved": 0}, {"lon": -77.02408766666667, "bike_id": "fe96b975665a44a41ccb7d44dbb013cd", "lat": 38.906751, "fusion_lon": 0.0, "fusion_lat": 0.0, "type": "electric_scooter", "name": "fe96b975665a44a41ccb7d44dbb013cd", "is_disabled": 0, "rental_uris": {"ios": "https://dc.lft.to/lastmile_qr_scan", "android": "https://dc.lft.to/lastmile_qr_scan"}, "is_reserved": 0}, {"lon": -77.03324583333334, "bike_id": "65f3024b4876e54d68d16f0ebece5925", "lat": 38.938967166666664, "fusion_lon": 0.0, "fusion_lat": 0.0, "type": "electric_scooter", "name": "65f3024b4876e54d68d16f0ebece5925", "is_disabled": 0, "rental_uris": {"ios": "https://dc.lft.to/lastmile_qr_scan", "android": "https://dc.lft.to/lastmile_qr_scan"}, "is_reserved": 0}, {"lon": -77.0206885, "bike_id": "dfeabe5bede829127d407a38029f14d0", "lat": 38.90254066666667, "fusion_lon": 0.0, "fusion_lat": 0.0, "type": "electric_scooter", "name": "dfeabe5bede829127d407a38029f14d0", "is_disabled": 0, "rental_uris": {"ios": "https://dc.lft.to/lastmile_qr_scan", "android": "https://dc.lft.to/lastmile_qr_scan"}, "is_reserved": 0}, {"lon": -77.073258, "bike_id": "045210f8422d883d44f4a28fe833ef2f", "lat": 38.91400633333333, "fusion_lon": 0.0, "fusion_lat": 0.0, "type": "electric_scooter", "name": "045210f8422d883d44f4a28fe833ef2f", "is_disabled": 0, "rental_uris": {"ios": "https://dc.lft.to/lastmile_qr_scan", "android": "https://dc.lft.to/lastmile_qr_scan"}, "is_reserved": 0}, {"lon": -76.96216633333333, "bike_id": "4504e38980da40dfc6720364fafc9f73", "lat": 38.87783866666667, "fusion_lon": 0.0, "fusion_lat": 0.0, "type": "electric_scooter", "name": "4504e38980da40dfc6720364fafc9f73", "is_disabled": 0, "rental_uris": {"ios": "https://dc.lft.to/lastmile_qr_scan", "android": "https://dc.lft.to/lastmile_qr_scan"}, "is_reserved": 0}, {"lon": -77.02686483333333, "bike_id": "4fd1c331d0463b4ebecf8f1075ef5949", "lat": 38.912509666666665, "fusion_lon": 0.0, "fusion_lat": 0.0, "type": "electric_scooter", "name": "4fd1c331d0463b4ebecf8f1075ef5949", "is_disabled": 0, "rental_uris": {"ios": "https://dc.lft.to/lastmile_qr_scan", "android": "https://dc.lft.to/lastmile_qr_scan"}, "is_reserved": 0}, {"lon": -77.03361883333334, "bike_id": "eb251165753477866b36246dc00a0917", "lat": 38.9352425, "fusion_lon": 0.0, "fusion_lat": 0.0, "type": "electric_scooter", "name": "eb251165753477866b36246dc00a0917", "is_disabled": 0, "rental_uris": {"ios": "https://dc.lft.to/lastmile_qr_scan", "android": "https://dc.lft.to/lastmile_qr_scan"}, "is_reserved": 0}, {"lon": -77.039866, "bike_id": "c306f1be3849d1e70ef1bc017b094e4c", "lat": 38.913328, "fusion_lon": 0.0, "fusion_lat": 0.0, "type": "electric_scooter", "name": "c306f1be3849d1e70ef1bc017b094e4c", "is_disabled": 0, "rental_uris": {"ios": "https://dc.lft.to/lastmile_qr_scan", "android": "https://dc.lft.to/lastmile_qr_scan"}, "is_reserved": 0}, {"lon": -77.0228045, "bike_id": "e40b3a1e85e1d7e944a056df809434c2", "lat": 38.9268585, "fusion_lon": 0.0, "fusion_lat": 0.0, "type": "electric_scooter", "name": "e40b3a1e85e1d7e944a056df809434c2", "is_disabled": 0, "rental_uris": {"ios": "https://dc.lft.to/lastmile_qr_scan", "android": "https://dc.lft.to/lastmile_qr_scan"}, "is_reserved": 0}, {"lon": -77.0304225, "bike_id": "3d19d3111e698e2eafcff28d28bb25af", "lat": 38.905794666666665, "fusion_lon": 0.0, "fusion_lat": 0.0, "type": "electric_scooter", "name": "3d19d3111e698e2eafcff28d28bb25af", "is_disabled": 0, "rental_uris": {"ios": "https://dc.lft.to/lastmile_qr_scan", "android": "https://dc.lft.to/lastmile_qr_scan"}, "is_reserved": 0}, {"lon": -77.02197183333334, "bike_id": "bd1ade2a60c14dd24524a4e9b620b975", "lat": 38.91014216666667, "fusion_lon": 0.0, "fusion_lat": 0.0, "type": "electric_scooter", "name": "bd1ade2a60c14dd24524a4e9b620b975", "is_disabled": 0, "rental_uris": {"ios": "https://dc.lft.to/lastmile_qr_scan", "android": "https://dc.lft.to/lastmile_qr_scan"}, "is_reserved": 0}, {"lon": -76.98555516666667, "bike_id": "6a04c46c12b7493359e0328b9ba17953", "lat": 38.92013016666667, "fusion_lon": 0.0, "fusion_lat": 0.0, "type": "electric_scooter", "name": "6a04c46c12b7493359e0328b9ba17953", "is_disabled": 0, "rental_uris": {"ios": "https://dc.lft.to/lastmile_qr_scan", "android": "https://dc.lft.to/lastmile_qr_scan"}, "is_reserved": 0}, {"lon": -77.03438933333334, "bike_id": "9a7d6b64c93b23ede7fedbbace624abf", "lat": 38.908897333333336, "fusion_lon": 0.0, "fusion_lat": 0.0, "type": "electric_scooter", "name": "9a7d6b64c93b23ede7fedbbace624abf", "is_disabled": 0, "rental_uris": {"ios": "https://dc.lft.to/lastmile_qr_scan", "android": "https://dc.lft.to/lastmile_qr_scan"}, "is_reserved": 0}, {"lon": -77.01427733333334, "bike_id": "abf3263cbd59c54ac7620d1955244963", "lat": 38.876552, "fusion_lon": 0.0, "fusion_lat": 0.0, "type": "electric_scooter", "name": "abf3263cbd59c54ac7620d1955244963", "is_disabled": 0, "rental_uris": {"ios": "https://dc.lft.to/lastmile_qr_scan", "android": "https://dc.lft.to/lastmile_qr_scan"}, "is_reserved": 0}, {"lon": -76.92737116666666, "bike_id": "bae427e00f44d884aa60e232341ca4bb", "lat": 38.88962566666667, "fusion_lon": 0.0, "fusion_lat": 0.0, "type": "electric_scooter", "name": "bae427e00f44d884aa60e232341ca4bb", "is_disabled": 0, "rental_uris": {"ios": "https://dc.lft.to/lastmile_qr_scan", "android": "https://dc.lft.to/lastmile_qr_scan"}, "is_reserved": 0}, {"lon": -76.93356583333333, "bike_id": "cd514ae586da5a316f427d5ebfbfa9b1", "lat": 38.899073666666666, "fusion_lon": 0.0, "fusion_lat": 0.0, "type": "electric_scooter", "name": "cd514ae586da5a316f427d5ebfbfa9b1", "is_disabled": 0, "rental_uris": {"ios": "https://dc.lft.to/lastmile_qr_scan", "android": "https://dc.lft.to/lastmile_qr_scan"}, "is_reserved": 0}, {"lon": -76.98284, "bike_id": "76aa58f28bb30ffd952cb6a33d1306e5", "lat": 38.9004605, "fusion_lon": 0.0, "fusion_lat": 0.0, "type": "electric_scooter", "name": "76aa58f28bb30ffd952cb6a33d1306e5", "is_disabled": 0, "rental_uris": {"ios": "https://dc.lft.to/lastmile_qr_scan", "android": "https://dc.lft.to/lastmile_qr_scan"}, "is_reserved": 0}, {"lon": -77.04518883333333, "bike_id": "26d6293a32cb998d087b7b0537043211", "lat": 38.90969366666667, "fusion_lon": 0.0, "fusion_lat": 0.0, "type": "electric_scooter", "name": "26d6293a32cb998d087b7b0537043211", "is_disabled": 0, "rental_uris": {"ios": "https://dc.lft.to/lastmile_qr_scan", "android": "https://dc.lft.to/lastmile_qr_scan"}, "is_reserved": 0}, {"lon": -77.04369516666667, "bike_id": "30ba90b05e848353b7d12e44e670e463", "lat": 38.92319716666667, "fusion_lon": 0.0, "fusion_lat": 0.0, "type": "electric_scooter", "name": "30ba90b05e848353b7d12e44e670e463", "is_disabled": 0, "rental_uris": {"ios": "https://dc.lft.to/lastmile_qr_scan", "android": "https://dc.lft.to/lastmile_qr_scan"}, "is_reserved": 0}, {"lon": -77.0513525, "bike_id": "c7d22420d2e0b24144e0ad804f6ac9c3", "lat": 38.9236155, "fusion_lon": 0.0, "fusion_lat": 0.0, "type": "electric_scooter", "name": "c7d22420d2e0b24144e0ad804f6ac9c3", "is_disabled": 0, "rental_uris": {"ios": "https://dc.lft.to/lastmile_qr_scan", "android": "https://dc.lft.to/lastmile_qr_scan"}, "is_reserved": 0}, {"lon": -77.02153733333333, "bike_id": "e8ebf7ea66c5b6cf2950cd5435db237f", "lat": 38.925993166666665, "fusion_lon": 0.0, "fusion_lat": 0.0, "type": "electric_bike", "name": "e8ebf7ea66c5b6cf2950cd5435db237f", "is_disabled": 0, "rental_uris": {"ios": "https://dc.lft.to/lastmile_qr_scan", "android": "https://dc.lft.to/lastmile_qr_scan"}, "is_reserved": 0}, {"lon": -77.02947333333333, "bike_id": "a1a57469b245f613e07d712a2a85b6fc", "lat": 38.904967, "fusion_lon": 0.0, "fusion_lat": 0.0, "type": "electric_scooter", "name": "a1a57469b245f613e07d712a2a85b6fc", "is_disabled": 0, "rental_uris": {"ios": "https://dc.lft.to/lastmile_qr_scan", "android": "https://dc.lft.to/lastmile_qr_scan"}, "is_reserved": 0}, {"lon": -77.03992483333333, "bike_id": "54bed781c8251f3182711e961848d62c", "lat": 38.9246235, "fusion_lon": 0.0, "fusion_lat": 0.0, "type": "electric_scooter", "name": "54bed781c8251f3182711e961848d62c", "is_disabled": 0, "rental_uris": {"ios": "https://dc.lft.to/lastmile_qr_scan", "android": "https://dc.lft.to/lastmile_qr_scan"}, "is_reserved": 0}, {"lon": -77.08351066666667, "bike_id": "c9be1544b4da5111611851e8c3643aee", "lat": 38.92978033333333, "fusion_lon": 0.0, "fusion_lat": 0.0, "type": "electric_scooter", "name": "c9be1544b4da5111611851e8c3643aee", "is_disabled": 0, "rental_uris": {"ios": "https://dc.lft.to/lastmile_qr_scan", "android": "https://dc.lft.to/lastmile_qr_scan"}, "is_reserved": 0}, {"lon": -77.12655383333333, "bike_id": "4047a69b761ebfee24be87e62736cd42", "lat": 38.815102833333334, "fusion_lon": 0.0, "fusion_lat": 0.0, "type": "electric_bike", "name": "4047a69b761ebfee24be87e62736cd42", "is_disabled": 0, "rental_uris": {"ios": "https://dc.lft.to/lastmile_qr_scan", "android": "https://dc.lft.to/lastmile_qr_scan"}, "is_reserved": 0}, {"lon": -77.03995833333333, "bike_id": "bfa2d8e1e8c0186e0cc1208ea5beb8ec", "lat": 38.924535, "fusion_lon": 0.0, "fusion_lat": 0.0, "type": "electric_scooter", "name": "bfa2d8e1e8c0186e0cc1208ea5beb8ec", "is_disabled": 0, "rental_uris": {"ios": "https://dc.lft.to/lastmile_qr_scan", "android": "https://dc.lft.to/lastmile_qr_scan"}, "is_reserved": 0}, {"lon": -77.021593, "bike_id": "b651f5d3bd2742005c2072794bb5ed93", "lat": 38.892188833333336, "fusion_lon": 0.0, "fusion_lat": 0.0, "type": "electric_scooter", "name": "b651f5d3bd2742005c2072794bb5ed93", "is_disabled": 0, "rental_uris": {"ios": "https://dc.lft.to/lastmile_qr_scan", "android": "https://dc.lft.to/lastmile_qr_scan"}, "is_reserved": 0}, {"lon": -77.04649066666667, "bike_id": "697b718d54f31e30d4d35de2048e9628", "lat": 38.903222166666666, "fusion_lon": 0.0, "fusion_lat": 0.0, "type": "electric_scooter", "name": "697b718d54f31e30d4d35de2048e9628", "is_disabled": 0, "rental_uris": {"ios": "https://dc.lft.to/lastmile_qr_scan", "android": "https://dc.lft.to/lastmile_qr_scan"}, "is_reserved": 0}, {"lon": -77.02401016666667, "bike_id": "9ee13807c65861cb28e76fa868e38bfc", "lat": 38.919974333333336, "fusion_lon": 0.0, "fusion_lat": 0.0, "type": "electric_scooter", "name": "9ee13807c65861cb28e76fa868e38bfc", "is_disabled": 0, "rental_uris": {"ios": "https://dc.lft.to/lastmile_qr_scan", "android": "https://dc.lft.to/lastmile_qr_scan"}, "is_reserved": 0}, {"lon": -77.02601866666667, "bike_id": "00181b1bf3a922d7da1b54893962693d", "lat": 38.92657916666667, "fusion_lon": 0.0, "fusion_lat": 0.0, "type": "electric_scooter", "name": "00181b1bf3a922d7da1b54893962693d", "is_disabled": 0, "rental_uris": {"ios": "https://dc.lft.to/lastmile_qr_scan", "android": "https://dc.lft.to/lastmile_qr_scan"}, "is_reserved": 0}, {"lon": -77.05088533333333, "bike_id": "51840d5c6908e9d103bb3073c1b45b50", "lat": 39.036745333333336, "fusion_lon": 0.0, "fusion_lat": 0.0, "type": "electric_bike", "name": "51840d5c6908e9d103bb3073c1b45b50", "is_disabled": 0, "rental_uris": {"ios": "https://dc.lft.to/lastmile_qr_scan", "android": "https://dc.lft.to/lastmile_qr_scan"}, "is_reserved": 0}, {"lon": -77.02430016666666, "bike_id": "4dee0d3ec93664dbe259e27f6d86ce53", "lat": 38.914042, "fusion_lon": 0.0, "fusion_lat": 0.0, "type": "electric_scooter", "name": "4dee0d3ec93664dbe259e27f6d86ce53", "is_disabled": 0, "rental_uris": {"ios": "https://dc.lft.to/lastmile_qr_scan", "android": "https://dc.lft.to/lastmile_qr_scan"}, "is_reserved": 0}, {"lon": -77.00381383333334, "bike_id": "2a7b0c1022dd6072208ebbb2db8694d4", "lat": 38.905969999999996, "fusion_lon": 0.0, "fusion_lat": 0.0, "type": "electric_scooter", "name": "2a7b0c1022dd6072208ebbb2db8694d4", "is_disabled": 0, "rental_uris": {"ios": "https://dc.lft.to/lastmile_qr_scan", "android": "https://dc.lft.to/lastmile_qr_scan"}, "is_reserved": 0}, {"lon": -77.02167416666667, "bike_id": "28aa81057bd6d0f427465c5351eeb966", "lat": 38.887438, "fusion_lon": 0.0, "fusion_lat": 0.0, "type": "electric_scooter", "name": "28aa81057bd6d0f427465c5351eeb966", "is_disabled": 0, "rental_uris": {"ios": "https://dc.lft.to/lastmile_qr_scan", "android": "https://dc.lft.to/lastmile_qr_scan"}, "is_reserved": 0}, {"lon": -77.029736, "bike_id": "e3b1cab5dc70d0b6c5bc00314bb9c559", "lat": 38.91679716666667, "fusion_lon": 0.0, "fusion_lat": 0.0, "type": "electric_scooter", "name": "e3b1cab5dc70d0b6c5bc00314bb9c559", "is_disabled": 0, "rental_uris": {"ios": "https://dc.lft.to/lastmile_qr_scan", "android": "https://dc.lft.to/lastmile_qr_scan"}, "is_reserved": 0}, {"lon": -77.03452633333333, "bike_id": "5af9b5d85166ce88a3815b66de078713", "lat": 38.90558166666667, "fusion_lon": 0.0, "fusion_lat": 0.0, "type": "electric_scooter", "name": "5af9b5d85166ce88a3815b66de078713", "is_disabled": 0, "rental_uris": {"ios": "https://dc.lft.to/lastmile_qr_scan", "android": "https://dc.lft.to/lastmile_qr_scan"}, "is_reserved": 0}, {"lon": -76.98880366666667, "bike_id": "bfd839012030da31fbc7533611f5129c", "lat": 38.866574666666665, "fusion_lon": 0.0, "fusion_lat": 0.0, "type": "electric_scooter", "name": "bfd839012030da31fbc7533611f5129c", "is_disabled": 0, "rental_uris": {"ios": "https://dc.lft.to/lastmile_qr_scan", "android": "https://dc.lft.to/lastmile_qr_scan"}, "is_reserved": 0}, {"lon": -77.02308666666667, "bike_id": "7d338af88ef7b202a275c761627431d4", "lat": 38.940904, "fusion_lon": 0.0, "fusion_lat": 0.0, "type": "electric_scooter", "name": "7d338af88ef7b202a275c761627431d4", "is_disabled": 0, "rental_uris": {"ios": "https://dc.lft.to/lastmile_qr_scan", "android": "https://dc.lft.to/lastmile_qr_scan"}, "is_reserved": 0}, {"lon": -77.0481825, "bike_id": "47ce7e5ed2b75d34abe2e37c3230ed80", "lat": 38.91332466666667, "fusion_lon": 0.0, "fusion_lat": 0.0, "type": "electric_scooter", "name": "47ce7e5ed2b75d34abe2e37c3230ed80", "is_disabled": 0, "rental_uris": {"ios": "https://dc.lft.to/lastmile_qr_scan", "android": "https://dc.lft.to/lastmile_qr_scan"}, "is_reserved": 0}, {"lon": -76.93964933333334, "bike_id": "d6eefc856a46b7d2b175c4597f4cf224", "lat": 38.89836233333333, "fusion_lon": 0.0, "fusion_lat": 0.0, "type": "electric_scooter", "name": "d6eefc856a46b7d2b175c4597f4cf224", "is_disabled": 0, "rental_uris": {"ios": "https://dc.lft.to/lastmile_qr_scan", "android": "https://dc.lft.to/lastmile_qr_scan"}, "is_reserved": 0}, {"lon": -76.98231283333334, "bike_id": "a0eae4ebfb33f88a33cd66bb10606561", "lat": 38.86467583333334, "fusion_lon": 0.0, "fusion_lat": 0.0, "type": "electric_scooter", "name": "a0eae4ebfb33f88a33cd66bb10606561", "is_disabled": 0, "rental_uris": {"ios": "https://dc.lft.to/lastmile_qr_scan", "android": "https://dc.lft.to/lastmile_qr_scan"}, "is_reserved": 0}, {"lon": -77.02576483333333, "bike_id": "893efed7fc1abac46b994de3f346d336", "lat": 38.914064333333336, "fusion_lon": 0.0, "fusion_lat": 0.0, "type": "electric_scooter", "name": "893efed7fc1abac46b994de3f346d336", "is_disabled": 0, "rental_uris": {"ios": "https://dc.lft.to/lastmile_qr_scan", "android": "https://dc.lft.to/lastmile_qr_scan"}, "is_reserved": 0}, {"lon": -77.04913033333334, "bike_id": "ac79d9f43029821a9b5b7464abf51b85", "lat": 38.915996666666665, "fusion_lon": 0.0, "fusion_lat": 0.0, "type": "electric_scooter", "name": "ac79d9f43029821a9b5b7464abf51b85", "is_disabled": 0, "rental_uris": {"ios": "https://dc.lft.to/lastmile_qr_scan", "android": "https://dc.lft.to/lastmile_qr_scan"}, "is_reserved": 0}, {"lon": -77.053174, "bike_id": "39893f62b7387db44bfda2c55cd48534", "lat": 38.90078, "fusion_lon": 0.0, "fusion_lat": 0.0, "type": "electric_scooter", "name": "39893f62b7387db44bfda2c55cd48534", "is_disabled": 0, "rental_uris": {"ios": "https://dc.lft.to/lastmile_qr_scan", "android": "https://dc.lft.to/lastmile_qr_scan"}, "is_reserved": 0}, {"lon": -76.99535783333333, "bike_id": "49ac0667b7c46dacda8136046f577510", "lat": 38.86204716666667, "fusion_lon": 0.0, "fusion_lat": 0.0, "type": "electric_scooter", "name": "49ac0667b7c46dacda8136046f577510", "is_disabled": 0, "rental_uris": {"ios": "https://dc.lft.to/lastmile_qr_scan", "android": "https://dc.lft.to/lastmile_qr_scan"}, "is_reserved": 0}, {"lon": -77.04708916666667, "bike_id": "85fc1839f132374e8f4f1162fda2b46b", "lat": 38.92221966666666, "fusion_lon": 0.0, "fusion_lat": 0.0, "type": "electric_scooter", "name": "85fc1839f132374e8f4f1162fda2b46b", "is_disabled": 0, "rental_uris": {"ios": "https://dc.lft.to/lastmile_qr_scan", "android": "https://dc.lft.to/lastmile_qr_scan"}, "is_reserved": 0}, {"lon": -77.0343205, "bike_id": "a7a7d2b07ccf7d9dca1a00e56bd1403c", "lat": 38.965340833333336, "fusion_lon": 0.0, "fusion_lat": 0.0, "type": "electric_bike", "name": "a7a7d2b07ccf7d9dca1a00e56bd1403c", "is_disabled": 0, "rental_uris": {"ios": "https://dc.lft.to/lastmile_qr_scan", "android": "https://dc.lft.to/lastmile_qr_scan"}, "is_reserved": 0}, {"lon": -77.1393455, "bike_id": "3dad71b9bc5833f269a1701ca4606333", "lat": 38.872950333333335, "fusion_lon": 0.0, "fusion_lat": 0.0, "type": "electric_bike", "name": "3dad71b9bc5833f269a1701ca4606333", "is_disabled": 0, "rental_uris": {"ios": "https://dc.lft.to/lastmile_qr_scan", "android": "https://dc.lft.to/lastmile_qr_scan"}, "is_reserved": 0}, {"lon": -77.0305295, "bike_id": "4f95d1f5fe70d74230263a4d5e7628f0", "lat": 38.926806, "fusion_lon": 0.0, "fusion_lat": 0.0, "type": "electric_scooter", "name": "4f95d1f5fe70d74230263a4d5e7628f0", "is_disabled": 0, "rental_uris": {"ios": "https://dc.lft.to/lastmile_qr_scan", "android": "https://dc.lft.to/lastmile_qr_scan"}, "is_reserved": 0}, {"lon": -77.05563633333334, "bike_id": "88f06504fd78714961c51e272329ceb1", "lat": 38.8973075, "fusion_lon": 0.0, "fusion_lat": 0.0, "type": "electric_scooter", "name": "88f06504fd78714961c51e272329ceb1", "is_disabled": 0, "rental_uris": {"ios": "https://dc.lft.to/lastmile_qr_scan", "android": "https://dc.lft.to/lastmile_qr_scan"}, "is_reserved": 0}, {"lon": -77.02703383333333, "bike_id": "e29231c8d5da6536f84ea27ea019d77f", "lat": 38.89755616666667, "fusion_lon": 0.0, "fusion_lat": 0.0, "type": "electric_scooter", "name": "e29231c8d5da6536f84ea27ea019d77f", "is_disabled": 0, "rental_uris": {"ios": "https://dc.lft.to/lastmile_qr_scan", "android": "https://dc.lft.to/lastmile_qr_scan"}, "is_reserved": 0}, {"lon": -76.990309, "bike_id": "d96a1649a7b7f2ac318b001a337a2a44", "lat": 38.89602683333333, "fusion_lon": 0.0, "fusion_lat": 0.0, "type": "electric_scooter", "name": "d96a1649a7b7f2ac318b001a337a2a44", "is_disabled": 0, "rental_uris": {"ios": "https://dc.lft.to/lastmile_qr_scan", "android": "https://dc.lft.to/lastmile_qr_scan"}, "is_reserved": 0}, {"lon": -77.0178515, "bike_id": "2bd804762522547a47d3a64d26fbdd06", "lat": 38.900349166666665, "fusion_lon": 0.0, "fusion_lat": 0.0, "type": "electric_scooter", "name": "2bd804762522547a47d3a64d26fbdd06", "is_disabled": 0, "rental_uris": {"ios": "https://dc.lft.to/lastmile_qr_scan", "android": "https://dc.lft.to/lastmile_qr_scan"}, "is_reserved": 0}, {"lon": -77.00842883333334, "bike_id": "6c5c1d93e5ef6da707b2a6cd7ae24043", "lat": 38.9123975, "fusion_lon": 0.0, "fusion_lat": 0.0, "type": "electric_scooter", "name": "6c5c1d93e5ef6da707b2a6cd7ae24043", "is_disabled": 0, "rental_uris": {"ios": "https://dc.lft.to/lastmile_qr_scan", "android": "https://dc.lft.to/lastmile_qr_scan"}, "is_reserved": 0}, {"lon": -77.034246, "bike_id": "2acdb14fe0880c0c7724895101227d09", "lat": 38.92743166666666, "fusion_lon": 0.0, "fusion_lat": 0.0, "type": "electric_scooter", "name": "2acdb14fe0880c0c7724895101227d09", "is_disabled": 0, "rental_uris": {"ios": "https://dc.lft.to/lastmile_qr_scan", "android": "https://dc.lft.to/lastmile_qr_scan"}, "is_reserved": 0}, {"lon": -77.031994, "bike_id": "d84e7ffe6ff0b575e7d139880710b232", "lat": 38.912481666666665, "fusion_lon": 0.0, "fusion_lat": 0.0, "type": "electric_scooter", "name": "d84e7ffe6ff0b575e7d139880710b232", "is_disabled": 0, "rental_uris": {"ios": "https://dc.lft.to/lastmile_qr_scan", "android": "https://dc.lft.to/lastmile_qr_scan"}, "is_reserved": 0}, {"lon": -77.03393133333333, "bike_id": "5f004fa162200924e9b24ce008e6b48a", "lat": 38.92048883333333, "fusion_lon": 0.0, "fusion_lat": 0.0, "type": "electric_scooter", "name": "5f004fa162200924e9b24ce008e6b48a", "is_disabled": 0, "rental_uris": {"ios": "https://dc.lft.to/lastmile_qr_scan", "android": "https://dc.lft.to/lastmile_qr_scan"}, "is_reserved": 0}, {"lon": -76.98137533333333, "bike_id": "86c9891050575667c8eebab853cf21f8", "lat": 38.95424233333333, "fusion_lon": 0.0, "fusion_lat": 0.0, "type": "electric_bike", "name": "86c9891050575667c8eebab853cf21f8", "is_disabled": 0, "rental_uris": {"ios": "https://dc.lft.to/lastmile_qr_scan", "android": "https://dc.lft.to/lastmile_qr_scan"}, "is_reserved": 0}, {"lon": -77.01745, "bike_id": "7510821a4397afa5166a6e5fc43f75eb", "lat": 38.885848, "fusion_lon": 0.0, "fusion_lat": 0.0, "type": "electric_scooter", "name": "7510821a4397afa5166a6e5fc43f75eb", "is_disabled": 0, "rental_uris": {"ios": "https://dc.lft.to/lastmile_qr_scan", "android": "https://dc.lft.to/lastmile_qr_scan"}, "is_reserved": 0}, {"lon": -77.04382983333333, "bike_id": "9c2e3e04011c8a7d20ecb449e242d2a4", "lat": 38.92112766666666, "fusion_lon": 0.0, "fusion_lat": 0.0, "type": "electric_scooter", "name": "9c2e3e04011c8a7d20ecb449e242d2a4", "is_disabled": 0, "rental_uris": {"ios": "https://dc.lft.to/lastmile_qr_scan", "android": "https://dc.lft.to/lastmile_qr_scan"}, "is_reserved": 0}, {"lon": -77.067147, "bike_id": "0c075a1166e1291611b69fbe572ccb05", "lat": 38.903497, "fusion_lon": 0.0, "fusion_lat": 0.0, "type": "electric_scooter", "name": "0c075a1166e1291611b69fbe572ccb05", "is_disabled": 0, "rental_uris": {"ios": "https://dc.lft.to/lastmile_qr_scan", "android": "https://dc.lft.to/lastmile_qr_scan"}, "is_reserved": 0}, {"lon": -77.03088966666667, "bike_id": "6ffd8b5aac2e79bd8cb05e58e5979105", "lat": 38.9339165, "fusion_lon": 0.0, "fusion_lat": 0.0, "type": "electric_scooter", "name": "6ffd8b5aac2e79bd8cb05e58e5979105", "is_disabled": 0, "rental_uris": {"ios": "https://dc.lft.to/lastmile_qr_scan", "android": "https://dc.lft.to/lastmile_qr_scan"}, "is_reserved": 0}, {"lon": -77.03346483333333, "bike_id": "5f01ef3384f890c0587580012420bd54", "lat": 38.962513666666666, "fusion_lon": 0.0, "fusion_lat": 0.0, "type": "electric_scooter", "name": "5f01ef3384f890c0587580012420bd54", "is_disabled": 0, "rental_uris": {"ios": "https://dc.lft.to/lastmile_qr_scan", "android": "https://dc.lft.to/lastmile_qr_scan"}, "is_reserved": 0}, {"lon": -77.0384765, "bike_id": "502bc9e709f33a2da3879b0cfee790a1", "lat": 38.906853166666664, "fusion_lon": 0.0, "fusion_lat": 0.0, "type": "electric_scooter", "name": "502bc9e709f33a2da3879b0cfee790a1", "is_disabled": 0, "rental_uris": {"ios": "https://dc.lft.to/lastmile_qr_scan", "android": "https://dc.lft.to/lastmile_qr_scan"}, "is_reserved": 0}, {"lon": -77.01234783333334, "bike_id": "f5adff8e306aabc6d5799d6839b76527", "lat": 38.90721666666666, "fusion_lon": 0.0, "fusion_lat": 0.0, "type": "electric_scooter", "name": "f5adff8e306aabc6d5799d6839b76527", "is_disabled": 0, "rental_uris": {"ios": "https://dc.lft.to/lastmile_qr_scan", "android": "https://dc.lft.to/lastmile_qr_scan"}, "is_reserved": 0}, {"lon": -76.97333816666666, "bike_id": "39695442dedab49e55004f215b6503ab", "lat": 38.9048285, "fusion_lon": 0.0, "fusion_lat": 0.0, "type": "electric_bike", "name": "39695442dedab49e55004f215b6503ab", "is_disabled": 0, "rental_uris": {"ios": "https://dc.lft.to/lastmile_qr_scan", "android": "https://dc.lft.to/lastmile_qr_scan"}, "is_reserved": 0}, {"lon": -77.065222, "bike_id": "eeb8494d7896cb9f69ff62774b033eca", "lat": 38.90883733333333, "fusion_lon": 0.0, "fusion_lat": 0.0, "type": "electric_scooter", "name": "eeb8494d7896cb9f69ff62774b033eca", "is_disabled": 0, "rental_uris": {"ios": "https://dc.lft.to/lastmile_qr_scan", "android": "https://dc.lft.to/lastmile_qr_scan"}, "is_reserved": 0}, {"lon": -76.99796333333333, "bike_id": "72dc65f662d36b56bc6fcd014c5886e7", "lat": 38.95642, "fusion_lon": 0.0, "fusion_lat": 0.0, "type": "electric_bike", "name": "72dc65f662d36b56bc6fcd014c5886e7", "is_disabled": 0, "rental_uris": {"ios": "https://dc.lft.to/lastmile_qr_scan", "android": "https://dc.lft.to/lastmile_qr_scan"}, "is_reserved": 0}, {"lon": -76.984953, "bike_id": "fe803c5474d7541e8e0fac2f0356ddc7", "lat": 38.8934965, "fusion_lon": 0.0, "fusion_lat": 0.0, "type": "electric_scooter", "name": "fe803c5474d7541e8e0fac2f0356ddc7", "is_disabled": 0, "rental_uris": {"ios": "https://dc.lft.to/lastmile_qr_scan", "android": "https://dc.lft.to/lastmile_qr_scan"}, "is_reserved": 0}, {"lon": -76.9553885, "bike_id": "00cade1ef674ef5ae18a004a77823f88", "lat": 38.88767966666666, "fusion_lon": 0.0, "fusion_lat": 0.0, "type": "electric_scooter", "name": "00cade1ef674ef5ae18a004a77823f88", "is_disabled": 0, "rental_uris": {"ios": "https://dc.lft.to/lastmile_qr_scan", "android": "https://dc.lft.to/lastmile_qr_scan"}, "is_reserved": 0}, {"lon": -77.03862016666666, "bike_id": "36b21974ee6776d3f2142f171f114a7e", "lat": 38.92517466666666, "fusion_lon": 0.0, "fusion_lat": 0.0, "type": "electric_scooter", "name": "36b21974ee6776d3f2142f171f114a7e", "is_disabled": 0, "rental_uris": {"ios": "https://dc.lft.to/lastmile_qr_scan", "android": "https://dc.lft.to/lastmile_qr_scan"}, "is_reserved": 0}, {"lon": -76.9790735, "bike_id": "7bb9b9730553c2012cfd13d19ec356cc", "lat": 38.924629333333336, "fusion_lon": 0.0, "fusion_lat": 0.0, "type": "electric_bike", "name": "7bb9b9730553c2012cfd13d19ec356cc", "is_disabled": 0, "rental_uris": {"ios": "https://dc.lft.to/lastmile_qr_scan", "android": "https://dc.lft.to/lastmile_qr_scan"}, "is_reserved": 0}, {"lon": -77.02681866666667, "bike_id": "060cc5f13b8a1caccef58a820c566b98", "lat": 38.912556333333335, "fusion_lon": 0.0, "fusion_lat": 0.0, "type": "electric_scooter", "name": "060cc5f13b8a1caccef58a820c566b98", "is_disabled": 0, "rental_uris": {"ios": "https://dc.lft.to/lastmile_qr_scan", "android": "https://dc.lft.to/lastmile_qr_scan"}, "is_reserved": 0}, {"lon": -77.041031, "bike_id": "1f9d21c65c43fae42cefefe99b7e9324", "lat": 38.9252995, "fusion_lon": 0.0, "fusion_lat": 0.0, "type": "electric_scooter", "name": "1f9d21c65c43fae42cefefe99b7e9324", "is_disabled": 0, "rental_uris": {"ios": "https://dc.lft.to/lastmile_qr_scan", "android": "https://dc.lft.to/lastmile_qr_scan"}, "is_reserved": 0}, {"lon": -77.02968483333333, "bike_id": "5964eefa10832ed7c1fb6710c96356fe", "lat": 38.91672583333333, "fusion_lon": 0.0, "fusion_lat": 0.0, "type": "electric_scooter", "name": "5964eefa10832ed7c1fb6710c96356fe", "is_disabled": 0, "rental_uris": {"ios": "https://dc.lft.to/lastmile_qr_scan", "android": "https://dc.lft.to/lastmile_qr_scan"}, "is_reserved": 0}, {"lon": -77.04326116666667, "bike_id": "d0ffe57908634fb9a40425a490058b50", "lat": 38.89220816666667, "fusion_lon": 0.0, "fusion_lat": 0.0, "type": "electric_scooter", "name": "d0ffe57908634fb9a40425a490058b50", "is_disabled": 0, "rental_uris": {"ios": "https://dc.lft.to/lastmile_qr_scan", "android": "https://dc.lft.to/lastmile_qr_scan"}, "is_reserved": 0}, {"lon": -77.02326383333333, "bike_id": "85f6cab1f7bb4d62e8ee6d46575f2c5c", "lat": 38.90406383333333, "fusion_lon": 0.0, "fusion_lat": 0.0, "type": "electric_scooter", "name": "85f6cab1f7bb4d62e8ee6d46575f2c5c", "is_disabled": 0, "rental_uris": {"ios": "https://dc.lft.to/lastmile_qr_scan", "android": "https://dc.lft.to/lastmile_qr_scan"}, "is_reserved": 0}, {"lon": -77.05727416666667, "bike_id": "401c558885c110f6818dbd3b4b920fe0", "lat": 38.933605166666666, "fusion_lon": 0.0, "fusion_lat": 0.0, "type": "electric_scooter", "name": "401c558885c110f6818dbd3b4b920fe0", "is_disabled": 0, "rental_uris": {"ios": "https://dc.lft.to/lastmile_qr_scan", "android": "https://dc.lft.to/lastmile_qr_scan"}, "is_reserved": 0}, {"lon": -77.004804, "bike_id": "47bfee301d8f3edc59d638299a8a179f", "lat": 38.87474616666667, "fusion_lon": 0.0, "fusion_lat": 0.0, "type": "electric_scooter", "name": "47bfee301d8f3edc59d638299a8a179f", "is_disabled": 0, "rental_uris": {"ios": "https://dc.lft.to/lastmile_qr_scan", "android": "https://dc.lft.to/lastmile_qr_scan"}, "is_reserved": 0}, {"lon": -77.03465366666667, "bike_id": "951def7514699cf82287cc1ba2e27bba", "lat": 38.91869233333333, "fusion_lon": 0.0, "fusion_lat": 0.0, "type": "electric_scooter", "name": "951def7514699cf82287cc1ba2e27bba", "is_disabled": 0, "rental_uris": {"ios": "https://dc.lft.to/lastmile_qr_scan", "android": "https://dc.lft.to/lastmile_qr_scan"}, "is_reserved": 0}, {"lon": -77.03248583333334, "bike_id": "62ba2d9c7739f61ddc0e07aa7e5a5fb2", "lat": 38.92762233333333, "fusion_lon": 0.0, "fusion_lat": 0.0, "type": "electric_scooter", "name": "62ba2d9c7739f61ddc0e07aa7e5a5fb2", "is_disabled": 0, "rental_uris": {"ios": "https://dc.lft.to/lastmile_qr_scan", "android": "https://dc.lft.to/lastmile_qr_scan"}, "is_reserved": 0}, {"lon": -77.02157483333333, "bike_id": "25a1ecd5195e4b7fa1a29af8b0078336", "lat": 38.92602566666667, "fusion_lon": 0.0, "fusion_lat": 0.0, "type": "electric_scooter", "name": "25a1ecd5195e4b7fa1a29af8b0078336", "is_disabled": 0, "rental_uris": {"ios": "https://dc.lft.to/lastmile_qr_scan", "android": "https://dc.lft.to/lastmile_qr_scan"}, "is_reserved": 0}, {"lon": -77.02591833333334, "bike_id": "cb19591817f9712ab2c0346d32079d61", "lat": 38.90091966666667, "fusion_lon": 0.0, "fusion_lat": 0.0, "type": "electric_scooter", "name": "cb19591817f9712ab2c0346d32079d61", "is_disabled": 0, "rental_uris": {"ios": "https://dc.lft.to/lastmile_qr_scan", "android": "https://dc.lft.to/lastmile_qr_scan"}, "is_reserved": 0}, {"lon": -77.02515216666667, "bike_id": "fab974c1356fdcfbdbcfed77522712bc", "lat": 38.94201966666667, "fusion_lon": 0.0, "fusion_lat": 0.0, "type": "electric_scooter", "name": "fab974c1356fdcfbdbcfed77522712bc", "is_disabled": 0, "rental_uris": {"ios": "https://dc.lft.to/lastmile_qr_scan", "android": "https://dc.lft.to/lastmile_qr_scan"}, "is_reserved": 0}, {"lon": -76.9970735, "bike_id": "b97f2376c97429e3eeb6b10404ca661c", "lat": 38.844303333333336, "fusion_lon": 0.0, "fusion_lat": 0.0, "type": "electric_scooter", "name": "b97f2376c97429e3eeb6b10404ca661c", "is_disabled": 0, "rental_uris": {"ios": "https://dc.lft.to/lastmile_qr_scan", "android": "https://dc.lft.to/lastmile_qr_scan"}, "is_reserved": 0}, {"lon": -77.01765116666667, "bike_id": "b1fb8bb442bf017fbb569298680f4052", "lat": 38.88197133333333, "fusion_lon": 0.0, "fusion_lat": 0.0, "type": "electric_scooter", "name": "b1fb8bb442bf017fbb569298680f4052", "is_disabled": 0, "rental_uris": {"ios": "https://dc.lft.to/lastmile_qr_scan", "android": "https://dc.lft.to/lastmile_qr_scan"}, "is_reserved": 0}, {"lon": -77.00535416666666, "bike_id": "c8edb39b4510e7447319c89caa500665", "lat": 38.87541933333333, "fusion_lon": 0.0, "fusion_lat": 0.0, "type": "electric_scooter", "name": "c8edb39b4510e7447319c89caa500665", "is_disabled": 0, "rental_uris": {"ios": "https://dc.lft.to/lastmile_qr_scan", "android": "https://dc.lft.to/lastmile_qr_scan"}, "is_reserved": 0}, {"lon": -76.97890783333334, "bike_id": "06672591891c328b74cad0dfefd9b4d2", "lat": 38.88539183333334, "fusion_lon": 0.0, "fusion_lat": 0.0, "type": "electric_scooter", "name": "06672591891c328b74cad0dfefd9b4d2", "is_disabled": 0, "rental_uris": {"ios": "https://dc.lft.to/lastmile_qr_scan", "android": "https://dc.lft.to/lastmile_qr_scan"}, "is_reserved": 0}, {"lon": -76.985558, "bike_id": "10c9213893619e4ff032fd30e3c2bef0", "lat": 38.90717866666667, "fusion_lon": 0.0, "fusion_lat": 0.0, "type": "electric_scooter", "name": "10c9213893619e4ff032fd30e3c2bef0", "is_disabled": 0, "rental_uris": {"ios": "https://dc.lft.to/lastmile_qr_scan", "android": "https://dc.lft.to/lastmile_qr_scan"}, "is_reserved": 0}, {"lon": -76.9833345, "bike_id": "7eadafc378a226b1b979880007063b21", "lat": 38.8954395, "fusion_lon": 0.0, "fusion_lat": 0.0, "type": "electric_scooter", "name": "7eadafc378a226b1b979880007063b21", "is_disabled": 0, "rental_uris": {"ios": "https://dc.lft.to/lastmile_qr_scan", "android": "https://dc.lft.to/lastmile_qr_scan"}, "is_reserved": 0}, {"lon": -77.03164933333333, "bike_id": "d5b333383d1654fbb371a24e72199591", "lat": 38.892167666666666, "fusion_lon": 0.0, "fusion_lat": 0.0, "type": "electric_scooter", "name": "d5b333383d1654fbb371a24e72199591", "is_disabled": 0, "rental_uris": {"ios": "https://dc.lft.to/lastmile_qr_scan", "android": "https://dc.lft.to/lastmile_qr_scan"}, "is_reserved": 0}, {"lon": -77.02965533333334, "bike_id": "ff2102739bec576c6393e2b1e1abfecd", "lat": 38.912740666666664, "fusion_lon": 0.0, "fusion_lat": 0.0, "type": "electric_scooter", "name": "ff2102739bec576c6393e2b1e1abfecd", "is_disabled": 0, "rental_uris": {"ios": "https://dc.lft.to/lastmile_qr_scan", "android": "https://dc.lft.to/lastmile_qr_scan"}, "is_reserved": 0}, {"lon": -76.97962916666667, "bike_id": "3246739e9d7b7d0e2f260f80279efaa4", "lat": 38.89974983333333, "fusion_lon": 0.0, "fusion_lat": 0.0, "type": "electric_scooter", "name": "3246739e9d7b7d0e2f260f80279efaa4", "is_disabled": 0, "rental_uris": {"ios": "https://dc.lft.to/lastmile_qr_scan", "android": "https://dc.lft.to/lastmile_qr_scan"}, "is_reserved": 0}, {"lon": -77.0247455, "bike_id": "72d33538a18024f1be0b6ea4258e1733", "lat": 38.902524166666666, "fusion_lon": 0.0, "fusion_lat": 0.0, "type": "electric_scooter", "name": "72d33538a18024f1be0b6ea4258e1733", "is_disabled": 0, "rental_uris": {"ios": "https://dc.lft.to/lastmile_qr_scan", "android": "https://dc.lft.to/lastmile_qr_scan"}, "is_reserved": 0}, {"lon": -77.02315516666667, "bike_id": "385e9dd83e51ed46ac0dc0074559402b", "lat": 38.95526, "fusion_lon": 0.0, "fusion_lat": 0.0, "type": "electric_scooter", "name": "385e9dd83e51ed46ac0dc0074559402b", "is_disabled": 0, "rental_uris": {"ios": "https://dc.lft.to/lastmile_qr_scan", "android": "https://dc.lft.to/lastmile_qr_scan"}, "is_reserved": 0}, {"lon": -77.01746666666666, "bike_id": "96abe7111dbda570c81675d89e15796d", "lat": 38.87665966666667, "fusion_lon": 0.0, "fusion_lat": 0.0, "type": "electric_scooter", "name": "96abe7111dbda570c81675d89e15796d", "is_disabled": 0, "rental_uris": {"ios": "https://dc.lft.to/lastmile_qr_scan", "android": "https://dc.lft.to/lastmile_qr_scan"}, "is_reserved": 0}, {"lon": -77.01997983333334, "bike_id": "38caadcffebe4f56a235dde2b573cc27", "lat": 38.912592833333335, "fusion_lon": 0.0, "fusion_lat": 0.0, "type": "electric_scooter", "name": "38caadcffebe4f56a235dde2b573cc27", "is_disabled": 0, "rental_uris": {"ios": "https://dc.lft.to/lastmile_qr_scan", "android": "https://dc.lft.to/lastmile_qr_scan"}, "is_reserved": 0}, {"lon": -77.038579, "bike_id": "05b203d6e78d05f8674f320479ed8f46", "lat": 38.9120285, "fusion_lon": 0.0, "fusion_lat": 0.0, "type": "electric_scooter", "name": "05b203d6e78d05f8674f320479ed8f46", "is_disabled": 0, "rental_uris": {"ios": "https://dc.lft.to/lastmile_qr_scan", "android": "https://dc.lft.to/lastmile_qr_scan"}, "is_reserved": 0}, {"lon": -77.0386825, "bike_id": "1dfc6178f01e3981c13d721b3a55a818", "lat": 38.914129, "fusion_lon": 0.0, "fusion_lat": 0.0, "type": "electric_scooter", "name": "1dfc6178f01e3981c13d721b3a55a818", "is_disabled": 0, "rental_uris": {"ios": "https://dc.lft.to/lastmile_qr_scan", "android": "https://dc.lft.to/lastmile_qr_scan"}, "is_reserved": 0}, {"lon": -77.04326183333333, "bike_id": "ce1f109e190b72693caaac1a9f336193", "lat": 38.91880883333333, "fusion_lon": 0.0, "fusion_lat": 0.0, "type": "electric_scooter", "name": "ce1f109e190b72693caaac1a9f336193", "is_disabled": 0, "rental_uris": {"ios": "https://dc.lft.to/lastmile_qr_scan", "android": "https://dc.lft.to/lastmile_qr_scan"}, "is_reserved": 0}, {"lon": -76.985355, "bike_id": "ca56082d4d1f3ec5428958e2771f2bdb", "lat": 38.89945316666667, "fusion_lon": 0.0, "fusion_lat": 0.0, "type": "electric_scooter", "name": "ca56082d4d1f3ec5428958e2771f2bdb", "is_disabled": 0, "rental_uris": {"ios": "https://dc.lft.to/lastmile_qr_scan", "android": "https://dc.lft.to/lastmile_qr_scan"}, "is_reserved": 0}, {"lon": -76.94576566666667, "bike_id": "a64a1b87cda4fc3dfd83af37da0fce56", "lat": 38.93747366666667, "fusion_lon": 0.0, "fusion_lat": 0.0, "type": "electric_bike", "name": "a64a1b87cda4fc3dfd83af37da0fce56", "is_disabled": 0, "rental_uris": {"ios": "https://dc.lft.to/lastmile_qr_scan", "android": "https://dc.lft.to/lastmile_qr_scan"}, "is_reserved": 0}, {"lon": -77.03660216666667, "bike_id": "1cbadac4ba640752b86117e492a736cd", "lat": 38.92120833333333, "fusion_lon": 0.0, "fusion_lat": 0.0, "type": "electric_scooter", "name": "1cbadac4ba640752b86117e492a736cd", "is_disabled": 0, "rental_uris": {"ios": "https://dc.lft.to/lastmile_qr_scan", "android": "https://dc.lft.to/lastmile_qr_scan"}, "is_reserved": 0}, {"lon": -77.02386366666667, "bike_id": "5c618250148e51fced033077b8414e58", "lat": 38.90625383333333, "fusion_lon": 0.0, "fusion_lat": 0.0, "type": "electric_scooter", "name": "5c618250148e51fced033077b8414e58", "is_disabled": 0, "rental_uris": {"ios": "https://dc.lft.to/lastmile_qr_scan", "android": "https://dc.lft.to/lastmile_qr_scan"}, "is_reserved": 0}, {"lon": -77.03465166666666, "bike_id": "5254a797177e74648b120fd2eb53829b", "lat": 38.91667783333333, "fusion_lon": 0.0, "fusion_lat": 0.0, "type": "electric_scooter", "name": "5254a797177e74648b120fd2eb53829b", "is_disabled": 0, "rental_uris": {"ios": "https://dc.lft.to/lastmile_qr_scan", "android": "https://dc.lft.to/lastmile_qr_scan"}, "is_reserved": 0}, {"lon": -77.00525616666667, "bike_id": "7b495335ca10b9a406d4f0f9afbb32dc", "lat": 38.87915266666667, "fusion_lon": 0.0, "fusion_lat": 0.0, "type": "electric_scooter", "name": "7b495335ca10b9a406d4f0f9afbb32dc", "is_disabled": 0, "rental_uris": {"ios": "https://dc.lft.to/lastmile_qr_scan", "android": "https://dc.lft.to/lastmile_qr_scan"}, "is_reserved": 0}, {"lon": -77.01131033333333, "bike_id": "81ef39f7ae485e4c3328afc7fe50549a", "lat": 38.89484316666667, "fusion_lon": 0.0, "fusion_lat": 0.0, "type": "electric_scooter", "name": "81ef39f7ae485e4c3328afc7fe50549a", "is_disabled": 0, "rental_uris": {"ios": "https://dc.lft.to/lastmile_qr_scan", "android": "https://dc.lft.to/lastmile_qr_scan"}, "is_reserved": 0}, {"lon": -77.01133366666667, "bike_id": "082e252733c4f81b4d0dd7221c114296", "lat": 38.895701333333335, "fusion_lon": 0.0, "fusion_lat": 0.0, "type": "electric_scooter", "name": "082e252733c4f81b4d0dd7221c114296", "is_disabled": 0, "rental_uris": {"ios": "https://dc.lft.to/lastmile_qr_scan", "android": "https://dc.lft.to/lastmile_qr_scan"}, "is_reserved": 0}, {"lon": -76.98847616666667, "bike_id": "92ba14c1b5007568e4ef3b56fc600044", "lat": 38.90124383333333, "fusion_lon": 0.0, "fusion_lat": 0.0, "type": "electric_scooter", "name": "92ba14c1b5007568e4ef3b56fc600044", "is_disabled": 0, "rental_uris": {"ios": "https://dc.lft.to/lastmile_qr_scan", "android": "https://dc.lft.to/lastmile_qr_scan"}, "is_reserved": 0}, {"lon": -77.03187516666667, "bike_id": "8c0acdd7a1e67d7e8e963f3ff719563e", "lat": 38.91467466666667, "fusion_lon": 0.0, "fusion_lat": 0.0, "type": "electric_scooter", "name": "8c0acdd7a1e67d7e8e963f3ff719563e", "is_disabled": 0, "rental_uris": {"ios": "https://dc.lft.to/lastmile_qr_scan", "android": "https://dc.lft.to/lastmile_qr_scan"}, "is_reserved": 0}, {"lon": -76.97744583333333, "bike_id": "be4407a0dc2b7bb9750d35ddae75b053", "lat": 38.86505616666667, "fusion_lon": 0.0, "fusion_lat": 0.0, "type": "electric_scooter", "name": "be4407a0dc2b7bb9750d35ddae75b053", "is_disabled": 0, "rental_uris": {"ios": "https://dc.lft.to/lastmile_qr_scan", "android": "https://dc.lft.to/lastmile_qr_scan"}, "is_reserved": 0}, {"lon": -77.12224766666667, "bike_id": "1d22c5fe0266cc389f1ca89fd19d5705", "lat": 38.85299933333334, "fusion_lon": 0.0, "fusion_lat": 0.0, "type": "electric_bike", "name": "1d22c5fe0266cc389f1ca89fd19d5705", "is_disabled": 0, "rental_uris": {"ios": "https://dc.lft.to/lastmile_qr_scan", "android": "https://dc.lft.to/lastmile_qr_scan"}, "is_reserved": 0}, {"lon": -77.04133933333334, "bike_id": "326d213ef5e3991c5a479f5ce209590f", "lat": 38.9024315, "fusion_lon": 0.0, "fusion_lat": 0.0, "type": "electric_scooter", "name": "326d213ef5e3991c5a479f5ce209590f", "is_disabled": 0, "rental_uris": {"ios": "https://dc.lft.to/lastmile_qr_scan", "android": "https://dc.lft.to/lastmile_qr_scan"}, "is_reserved": 0}, {"lon": -77.04469766666666, "bike_id": "19fd865f17b7f040d0e0b95311664741", "lat": 38.903159333333335, "fusion_lon": 0.0, "fusion_lat": 0.0, "type": "electric_scooter", "name": "19fd865f17b7f040d0e0b95311664741", "is_disabled": 0, "rental_uris": {"ios": "https://dc.lft.to/lastmile_qr_scan", "android": "https://dc.lft.to/lastmile_qr_scan"}, "is_reserved": 0}, {"lon": -77.02977783333333, "bike_id": "8e37af7c0efa5382809b2ad2e8800cf5", "lat": 38.9299815, "fusion_lon": 0.0, "fusion_lat": 0.0, "type": "electric_scooter", "name": "8e37af7c0efa5382809b2ad2e8800cf5", "is_disabled": 0, "rental_uris": {"ios": "https://dc.lft.to/lastmile_qr_scan", "android": "https://dc.lft.to/lastmile_qr_scan"}, "is_reserved": 0}, {"lon": -77.02109966666667, "bike_id": "0a386d93566f657b548056e700a77c70", "lat": 38.91770983333333, "fusion_lon": 0.0, "fusion_lat": 0.0, "type": "electric_scooter", "name": "0a386d93566f657b548056e700a77c70", "is_disabled": 0, "rental_uris": {"ios": "https://dc.lft.to/lastmile_qr_scan", "android": "https://dc.lft.to/lastmile_qr_scan"}, "is_reserved": 0}, {"lon": -77.07415666666667, "bike_id": "6218616934b66f2c25e6d34858290696", "lat": 38.9288365, "fusion_lon": 0.0, "fusion_lat": 0.0, "type": "electric_scooter", "name": "6218616934b66f2c25e6d34858290696", "is_disabled": 0, "rental_uris": {"ios": "https://dc.lft.to/lastmile_qr_scan", "android": "https://dc.lft.to/lastmile_qr_scan"}, "is_reserved": 0}, {"lon": -77.0904035, "bike_id": "a1367bea42713e9e7f3276b2771e8265", "lat": 38.84970416666667, "fusion_lon": 0.0, "fusion_lat": 0.0, "type": "electric_bike", "name": "a1367bea42713e9e7f3276b2771e8265", "is_disabled": 0, "rental_uris": {"ios": "https://dc.lft.to/lastmile_qr_scan", "android": "https://dc.lft.to/lastmile_qr_scan"}, "is_reserved": 0}, {"lon": -77.01020366666667, "bike_id": "8241ffa2c91287aa61a89e4947880631", "lat": 38.908515, "fusion_lon": 0.0, "fusion_lat": 0.0, "type": "electric_scooter", "name": "8241ffa2c91287aa61a89e4947880631", "is_disabled": 0, "rental_uris": {"ios": "https://dc.lft.to/lastmile_qr_scan", "android": "https://dc.lft.to/lastmile_qr_scan"}, "is_reserved": 0}, {"lon": -77.0226395, "bike_id": "94dbb35b046d003c143b54eda8a4d1ed", "lat": 38.927427, "fusion_lon": 0.0, "fusion_lat": 0.0, "type": "electric_scooter", "name": "94dbb35b046d003c143b54eda8a4d1ed", "is_disabled": 0, "rental_uris": {"ios": "https://dc.lft.to/lastmile_qr_scan", "android": "https://dc.lft.to/lastmile_qr_scan"}, "is_reserved": 0}, {"lon": -77.01649583333334, "bike_id": "397331c33d843428bbd1eb5a08361734", "lat": 38.9038215, "fusion_lon": 0.0, "fusion_lat": 0.0, "type": "electric_scooter", "name": "397331c33d843428bbd1eb5a08361734", "is_disabled": 0, "rental_uris": {"ios": "https://dc.lft.to/lastmile_qr_scan", "android": "https://dc.lft.to/lastmile_qr_scan"}, "is_reserved": 0}, {"lon": -77.03228316666667, "bike_id": "8acdcfee037d348a51b56190e0b99d3e", "lat": 38.92746433333333, "fusion_lon": 0.0, "fusion_lat": 0.0, "type": "electric_scooter", "name": "8acdcfee037d348a51b56190e0b99d3e", "is_disabled": 0, "rental_uris": {"ios": "https://dc.lft.to/lastmile_qr_scan", "android": "https://dc.lft.to/lastmile_qr_scan"}, "is_reserved": 0}, {"lon": -77.02582783333334, "bike_id": "6f1b1fc2bac704a32ac828db7c7508a3", "lat": 38.9269555, "fusion_lon": 0.0, "fusion_lat": 0.0, "type": "electric_scooter", "name": "6f1b1fc2bac704a32ac828db7c7508a3", "is_disabled": 0, "rental_uris": {"ios": "https://dc.lft.to/lastmile_qr_scan", "android": "https://dc.lft.to/lastmile_qr_scan"}, "is_reserved": 0}, {"lon": -76.98062633333333, "bike_id": "4008c04d78ecab0ca894ea239ed0c8f5", "lat": 38.88491166666667, "fusion_lon": 0.0, "fusion_lat": 0.0, "type": "electric_scooter", "name": "4008c04d78ecab0ca894ea239ed0c8f5", "is_disabled": 0, "rental_uris": {"ios": "https://dc.lft.to/lastmile_qr_scan", "android": "https://dc.lft.to/lastmile_qr_scan"}, "is_reserved": 0}, {"lon": -77.0394455, "bike_id": "2545ca5d115159f3e67a4712f0f3e5d3", "lat": 38.915686666666666, "fusion_lon": 0.0, "fusion_lat": 0.0, "type": "electric_scooter", "name": "2545ca5d115159f3e67a4712f0f3e5d3", "is_disabled": 0, "rental_uris": {"ios": "https://dc.lft.to/lastmile_qr_scan", "android": "https://dc.lft.to/lastmile_qr_scan"}, "is_reserved": 0}, {"lon": -77.08807766666666, "bike_id": "3ca779f2de640c6aad20a213520f79a6", "lat": 38.911771, "fusion_lon": 0.0, "fusion_lat": 0.0, "type": "electric_scooter", "name": "3ca779f2de640c6aad20a213520f79a6", "is_disabled": 0, "rental_uris": {"ios": "https://dc.lft.to/lastmile_qr_scan", "android": "https://dc.lft.to/lastmile_qr_scan"}, "is_reserved": 0}, {"lon": -77.0247075, "bike_id": "3c1c4155ec9eef06f85d60cab147706e", "lat": 38.918737166666666, "fusion_lon": 0.0, "fusion_lat": 0.0, "type": "electric_scooter", "name": "3c1c4155ec9eef06f85d60cab147706e", "is_disabled": 0, "rental_uris": {"ios": "https://dc.lft.to/lastmile_qr_scan", "android": "https://dc.lft.to/lastmile_qr_scan"}, "is_reserved": 0}, {"lon": -76.9950585, "bike_id": "143742a097a301922cd7b2e2abcf7862", "lat": 38.8825195, "fusion_lon": 0.0, "fusion_lat": 0.0, "type": "electric_scooter", "name": "143742a097a301922cd7b2e2abcf7862", "is_disabled": 0, "rental_uris": {"ios": "https://dc.lft.to/lastmile_qr_scan", "android": "https://dc.lft.to/lastmile_qr_scan"}, "is_reserved": 0}, {"lon": -77.026105, "bike_id": "19bafa5c8d59c7c6285afcfb6099e44c", "lat": 38.916959166666665, "fusion_lon": 0.0, "fusion_lat": 0.0, "type": "electric_scooter", "name": "19bafa5c8d59c7c6285afcfb6099e44c", "is_disabled": 0, "rental_uris": {"ios": "https://dc.lft.to/lastmile_qr_scan", "android": "https://dc.lft.to/lastmile_qr_scan"}, "is_reserved": 0}, {"lon": -77.00289266666667, "bike_id": "e1535a23fa1dc26d74e85a88680a0e88", "lat": 38.909012833333335, "fusion_lon": 0.0, "fusion_lat": 0.0, "type": "electric_scooter", "name": "e1535a23fa1dc26d74e85a88680a0e88", "is_disabled": 0, "rental_uris": {"ios": "https://dc.lft.to/lastmile_qr_scan", "android": "https://dc.lft.to/lastmile_qr_scan"}, "is_reserved": 0}, {"lon": -76.97399183333333, "bike_id": "34864c4e0475118668a4c33130879e13", "lat": 38.902992833333336, "fusion_lon": 0.0, "fusion_lat": 0.0, "type": "electric_scooter", "name": "34864c4e0475118668a4c33130879e13", "is_disabled": 0, "rental_uris": {"ios": "https://dc.lft.to/lastmile_qr_scan", "android": "https://dc.lft.to/lastmile_qr_scan"}, "is_reserved": 0}, {"lon": -76.9891475, "bike_id": "bd93274e5986f80a25cfd329d737fbff", "lat": 38.864927333333334, "fusion_lon": 0.0, "fusion_lat": 0.0, "type": "electric_scooter", "name": "bd93274e5986f80a25cfd329d737fbff", "is_disabled": 0, "rental_uris": {"ios": "https://dc.lft.to/lastmile_qr_scan", "android": "https://dc.lft.to/lastmile_qr_scan"}, "is_reserved": 0}, {"lon": -76.945953, "bike_id": "08669f260f294a2da4700cf978fe40c3", "lat": 38.901468666666666, "fusion_lon": 0.0, "fusion_lat": 0.0, "type": "electric_scooter", "name": "08669f260f294a2da4700cf978fe40c3", "is_disabled": 0, "rental_uris": {"ios": "https://dc.lft.to/lastmile_qr_scan", "android": "https://dc.lft.to/lastmile_qr_scan"}, "is_reserved": 0}, {"lon": -77.03999316666666, "bike_id": "06ff7eae54dc54a29596756711d37ba5", "lat": 38.934316, "fusion_lon": 0.0, "fusion_lat": 0.0, "type": "electric_scooter", "name": "06ff7eae54dc54a29596756711d37ba5", "is_disabled": 0, "rental_uris": {"ios": "https://dc.lft.to/lastmile_qr_scan", "android": "https://dc.lft.to/lastmile_qr_scan"}, "is_reserved": 0}, {"lon": -77.03041416666667, "bike_id": "03d69d01bd3f464139f844a0e4fb1460", "lat": 38.937164333333335, "fusion_lon": 0.0, "fusion_lat": 0.0, "type": "electric_scooter", "name": "03d69d01bd3f464139f844a0e4fb1460", "is_disabled": 0, "rental_uris": {"ios": "https://dc.lft.to/lastmile_qr_scan", "android": "https://dc.lft.to/lastmile_qr_scan"}, "is_reserved": 0}, {"lon": -77.05941333333334, "bike_id": "a632ba35eef641911c13466747cb3418", "lat": 38.912424666666666, "fusion_lon": 0.0, "fusion_lat": 0.0, "type": "electric_scooter", "name": "a632ba35eef641911c13466747cb3418", "is_disabled": 0, "rental_uris": {"ios": "https://dc.lft.to/lastmile_qr_scan", "android": "https://dc.lft.to/lastmile_qr_scan"}, "is_reserved": 0}, {"lon": -77.03860633333333, "bike_id": "9edb0b506e5556c05d8268d5013af0d7", "lat": 38.917151833333335, "fusion_lon": 0.0, "fusion_lat": 0.0, "type": "electric_scooter", "name": "9edb0b506e5556c05d8268d5013af0d7", "is_disabled": 0, "rental_uris": {"ios": "https://dc.lft.to/lastmile_qr_scan", "android": "https://dc.lft.to/lastmile_qr_scan"}, "is_reserved": 0}, {"lon": -77.06728316666667, "bike_id": "4cd2401ae13d2dfca1a649858364bfdd", "lat": 38.90969283333333, "fusion_lon": 0.0, "fusion_lat": 0.0, "type": "electric_scooter", "name": "4cd2401ae13d2dfca1a649858364bfdd", "is_disabled": 0, "rental_uris": {"ios": "https://dc.lft.to/lastmile_qr_scan", "android": "https://dc.lft.to/lastmile_qr_scan"}, "is_reserved": 0}, {"lon": -76.93003283333333, "bike_id": "fd9c028f8b5b873b5287f071c23ae2c9", "lat": 38.901888, "fusion_lon": 0.0, "fusion_lat": 0.0, "type": "electric_scooter", "name": "fd9c028f8b5b873b5287f071c23ae2c9", "is_disabled": 0, "rental_uris": {"ios": "https://dc.lft.to/lastmile_qr_scan", "android": "https://dc.lft.to/lastmile_qr_scan"}, "is_reserved": 0}, {"lon": -77.01428466666667, "bike_id": "01367f6884affca9f983e0452aa8bd76", "lat": 38.972216833333334, "fusion_lon": 0.0, "fusion_lat": 0.0, "type": "electric_bike", "name": "01367f6884affca9f983e0452aa8bd76", "is_disabled": 0, "rental_uris": {"ios": "https://dc.lft.to/lastmile_qr_scan", "android": "https://dc.lft.to/lastmile_qr_scan"}, "is_reserved": 0}, {"lon": -77.021158, "bike_id": "d4e7b40a80434b2ba21187e701e51043", "lat": 38.91739416666667, "fusion_lon": 0.0, "fusion_lat": 0.0, "type": "electric_scooter", "name": "d4e7b40a80434b2ba21187e701e51043", "is_disabled": 0, "rental_uris": {"ios": "https://dc.lft.to/lastmile_qr_scan", "android": "https://dc.lft.to/lastmile_qr_scan"}, "is_reserved": 0}, {"lon": -77.03184183333333, "bike_id": "4d8a306827ef9164008bd735b1b68875", "lat": 38.914186, "fusion_lon": 0.0, "fusion_lat": 0.0, "type": "electric_scooter", "name": "4d8a306827ef9164008bd735b1b68875", "is_disabled": 0, "rental_uris": {"ios": "https://dc.lft.to/lastmile_qr_scan", "android": "https://dc.lft.to/lastmile_qr_scan"}, "is_reserved": 0}, {"lon": -77.03209183333334, "bike_id": "63df2b1c28218f6608b0970370398ae8", "lat": 38.907892, "fusion_lon": 0.0, "fusion_lat": 0.0, "type": "electric_scooter", "name": "63df2b1c28218f6608b0970370398ae8", "is_disabled": 0, "rental_uris": {"ios": "https://dc.lft.to/lastmile_qr_scan", "android": "https://dc.lft.to/lastmile_qr_scan"}, "is_reserved": 0}, {"lon": -77.0345855, "bike_id": "3933b3f637c43d035aeb5dcdc3824a31", "lat": 38.908628, "fusion_lon": 0.0, "fusion_lat": 0.0, "type": "electric_scooter", "name": "3933b3f637c43d035aeb5dcdc3824a31", "is_disabled": 0, "rental_uris": {"ios": "https://dc.lft.to/lastmile_qr_scan", "android": "https://dc.lft.to/lastmile_qr_scan"}, "is_reserved": 0}, {"lon": -76.9971415, "bike_id": "c24461afa73bdc505b4af305cd7fd9a0", "lat": 38.911136166666665, "fusion_lon": 0.0, "fusion_lat": 0.0, "type": "electric_scooter", "name": "c24461afa73bdc505b4af305cd7fd9a0", "is_disabled": 0, "rental_uris": {"ios": "https://dc.lft.to/lastmile_qr_scan", "android": "https://dc.lft.to/lastmile_qr_scan"}, "is_reserved": 0}, {"lon": -77.08577133333333, "bike_id": "a9c6908caa37c91eb547e758797f2f57", "lat": 38.93352733333333, "fusion_lon": 0.0, "fusion_lat": 0.0, "type": "electric_scooter", "name": "a9c6908caa37c91eb547e758797f2f57", "is_disabled": 0, "rental_uris": {"ios": "https://dc.lft.to/lastmile_qr_scan", "android": "https://dc.lft.to/lastmile_qr_scan"}, "is_reserved": 0}, {"lon": -77.10918633333333, "bike_id": "9bcf81c6d96f51b70f41bd9598cf7b6a", "lat": 39.0519505, "fusion_lon": 0.0, "fusion_lat": 0.0, "type": "electric_bike", "name": "9bcf81c6d96f51b70f41bd9598cf7b6a", "is_disabled": 0, "rental_uris": {"ios": "https://dc.lft.to/lastmile_qr_scan", "android": "https://dc.lft.to/lastmile_qr_scan"}, "is_reserved": 0}, {"lon": -77.0419, "bike_id": "d7a4f4abcd4cd4cd9b8dc2f512d55f9d", "lat": 38.91269783333333, "fusion_lon": 0.0, "fusion_lat": 0.0, "type": "electric_scooter", "name": "d7a4f4abcd4cd4cd9b8dc2f512d55f9d", "is_disabled": 0, "rental_uris": {"ios": "https://dc.lft.to/lastmile_qr_scan", "android": "https://dc.lft.to/lastmile_qr_scan"}, "is_reserved": 0}, {"lon": -77.02811, "bike_id": "3c931a8a652f3e2b16983077990fe18f", "lat": 38.88178383333333, "fusion_lon": 0.0, "fusion_lat": 0.0, "type": "electric_scooter", "name": "3c931a8a652f3e2b16983077990fe18f", "is_disabled": 0, "rental_uris": {"ios": "https://dc.lft.to/lastmile_qr_scan", "android": "https://dc.lft.to/lastmile_qr_scan"}, "is_reserved": 0}, {"lon": -77.01427183333334, "bike_id": "2e7185f6604e048c2e1ca91bb6bf31d4", "lat": 38.9287245, "fusion_lon": 0.0, "fusion_lat": 0.0, "type": "electric_scooter", "name": "2e7185f6604e048c2e1ca91bb6bf31d4", "is_disabled": 0, "rental_uris": {"ios": "https://dc.lft.to/lastmile_qr_scan", "android": "https://dc.lft.to/lastmile_qr_scan"}, "is_reserved": 0}, {"lon": -77.036481, "bike_id": "85511dfacd6413a43fc0f397287d0417", "lat": 38.902801833333335, "fusion_lon": 0.0, "fusion_lat": 0.0, "type": "electric_scooter", "name": "85511dfacd6413a43fc0f397287d0417", "is_disabled": 0, "rental_uris": {"ios": "https://dc.lft.to/lastmile_qr_scan", "android": "https://dc.lft.to/lastmile_qr_scan"}, "is_reserved": 0}, {"lon": -77.0238205, "bike_id": "f1b6f3e0d72157feae0e9bc8ad448ef9", "lat": 38.9337655, "fusion_lon": 0.0, "fusion_lat": 0.0, "type": "electric_scooter", "name": "f1b6f3e0d72157feae0e9bc8ad448ef9", "is_disabled": 0, "rental_uris": {"ios": "https://dc.lft.to/lastmile_qr_scan", "android": "https://dc.lft.to/lastmile_qr_scan"}, "is_reserved": 0}, {"lon": -77.029538, "bike_id": "1033d14ebd47223a8016b732694052d1", "lat": 38.91176316666667, "fusion_lon": 0.0, "fusion_lat": 0.0, "type": "electric_scooter", "name": "1033d14ebd47223a8016b732694052d1", "is_disabled": 0, "rental_uris": {"ios": "https://dc.lft.to/lastmile_qr_scan", "android": "https://dc.lft.to/lastmile_qr_scan"}, "is_reserved": 0},