{"data": {"bikes": [{"is_reserved": 0, "type": "electric_bike", "fusion_lat": 0.0, "is_disabled": 0, "rental_uris": {"ios": "https://dc.lft.to/lastmile_qr_scan", "android": "https://dc.lft.to/lastmile_qr_scan"}, "bike_id": "b28a7e979275445dc3ebb12e9c2e2032", "lat": 38.93842433333333, "name": "b28a7e979275445dc3ebb12e9c2e2032", "lon": -76.94336, "fusion_lon": 0.0}, {"is_reserved": 0, "type": "electric_scooter", "fusion_lat": 0.0, "is_disabled": 0, "rental_uris": {"ios": "https://dc.lft.to/lastmile_qr_scan", "android": "https://dc.lft.to/lastmile_qr_scan"}, "bike_id": "831df75607773687336c3119abfb5bd8", "lat": 38.9650075, "name": "831df75607773687336c3119abfb5bd8", "lon": -77.06284333333333, "fusion_lon": 0.0}, {"is_reserved": 0, "type": "electric_scooter", "fusion_lat": 0.0, "is_disabled": 0, "rental_uris": {"ios": "https://dc.lft.to/lastmile_qr_scan", "android": "https://dc.lft.to/lastmile_qr_scan"}, "bike_id": "439f8be8a3db58e3d4b792e1ad95b4e4", "lat": 38.9138335, "name": "439f8be8a3db58e3d4b792e1ad95b4e4", "lon": -77.03209216666667, "fusion_lon": 0.0}, {"is_reserved": 0, "type": "electric_scooter", "fusion_lat": 0.0, "is_disabled": 0, "rental_uris": {"ios": "https://dc.lft.to/lastmile_qr_scan", "android": "https://dc.lft.to/lastmile_qr_scan"}, "bike_id": "f2242d73f6e89d17c542e6e553f617fa", "lat": 38.883836333333335, "name": "f2242d73f6e89d17c542e6e553f617fa", "lon": -77.030293, "fusion_lon": 0.0}, {"is_reserved": 0, "type": "electric_scooter", "fusion_lat": 0.0, "is_disabled": 0, "rental_uris": {"ios": "https://dc.lft.to/lastmile_qr_scan", "android": "https://dc.lft.to/lastmile_qr_scan"}, "bike_id": "45fcc7ea3ee2e2dfb8bb24f88e4ae9ea", "lat": 38.90275833333333, "name": "45fcc7ea3ee2e2dfb8bb24f88e4ae9ea", "lon": -77.0406545, "fusion_lon": 0.0}, {"is_reserved": 0, "type": "electric_scooter", "fusion_lat": 0.0, "is_disabled": 0, "rental_uris": {"ios": "https://dc.lft.to/lastmile_qr_scan", "android": "https://dc.lft.to/lastmile_qr_scan"}, "bike_id": "f7637ffc3c21c23c4b5ee0e9a25336c9", "lat": 38.90657933333333, "name": "f7637ffc3c21c23c4b5ee0e9a25336c9", "lon": -77.01612883333334, "fusion_lon": 0.0}, {"is_reserved": 0, "type": "electric_bike", "fusion_lat": 0.0, "is_disabled": 0, "rental_uris": {"ios": "https://dc.lft.to/lastmile_qr_scan", "android": "https://dc.lft.to/lastmile_qr_scan"}, "bike_id": "73ddfb49efbbd8b9da093288d4d175bc", "lat": 38.89423516666667, "name": "73ddfb49efbbd8b9da093288d4d175bc", "lon": -77.094447, "fusion_lon": 0.0}, {"is_reserved": 0, "type": "electric_scooter", "fusion_lat": 0.0, "is_disabled": 0, "rental_uris": {"ios": "https://dc.lft.to/lastmile_qr_scan", "android": "https://dc.lft.to/lastmile_qr_scan"}, "bike_id": "c1928e1a2a930263bff0787ba8d66d56", "lat": 38.89837133333333, "name": "c1928e1a2a930263bff0787ba8d66d56", "lon": -77.01876933333334, "fusion_lon": 0.0}, {"is_reserved": 0, "type": "electric_bike", "fusion_lat": 0.0, "is_disabled": 0, "rental_uris": {"ios": "https://dc.lft.to/lastmile_qr_scan", "android": "https://dc.lft.to/lastmile_qr_scan"}, "bike_id": "a70d086ff4fa41014ad5c38a76ad524e", "lat": 38.98229633333333, "name": "a70d086ff4fa41014ad5c38a76ad524e", "lon": -77.0955655, "fusion_lon": 0.0}, {"is_reserved": 0, "type": "electric_bike", "fusion_lat": 0.0, "is_disabled": 0, "rental_uris": {"ios": "https://dc.lft.to/lastmile_qr_scan", "android": "https://dc.lft.to/lastmile_qr_scan"}, "bike_id": "7f8dbfca16ad20cb1aafb11bef636906", "lat": 38.84093133333333, "name": "7f8dbfca16ad20cb1aafb11bef636906", "lon": -76.970314, "fusion_lon": 0.0}, {"is_reserved": 0, "type": "electric_scooter", "fusion_lat": 0.0, "is_disabled": 0, "rental_uris": {"ios": "https://dc.lft.to/lastmile_qr_scan", "android": "https://dc.lft.to/lastmile_qr_scan"}, "bike_id": "c07c0dbceade17c28be1bf56164e7a13", "lat": 38.90768833333333, "name": "c07c0dbceade17c28be1bf56164e7a13", "lon": -77.00248833333333, "fusion_lon": 0.0}, {"is_reserved": 0, "type": "electric_scooter", "fusion_lat": 0.0, "is_disabled": 0, "rental_uris": {"ios": "https://dc.lft.to/lastmile_qr_scan", "android": "https://dc.lft.to/lastmile_qr_scan"}, "bike_id": "97f244055ed5f33fb7d8c3322f366215", "lat": 38.912158, "name": "97f244055ed5f33fb7d8c3322f366215", "lon": -77.038419, "fusion_lon": 0.0}, {"is_reserved": 0, "type": "electric_bike", "fusion_lat": 0.0, "is_disabled": 0, "rental_uris": {"ios": "https://dc.lft.to/lastmile_qr_scan", "android": "https://dc.lft.to/lastmile_qr_scan"}, "bike_id": "c483d61c4782f95138f39c387254afed", "lat": 39.022973, "name": "c483d61c4782f95138f39c387254afed", "lon": -77.02101216666667, "fusion_lon": 0.0}, {"is_reserved": 0, "type": "electric_bike", "fusion_lat": 0.0, "is_disabled": 0, "rental_uris": {"ios": "https://dc.lft.to/lastmile_qr_scan", "android": "https://dc.lft.to/lastmile_qr_scan"}, "bike_id": "dd2b402d2d00a67cd8895f1b583d176f", "lat": 38.97476616666667, "name": "dd2b402d2d00a67cd8895f1b583d176f", "lon": -76.986714, "fusion_lon": 0.0}, {"is_reserved": 0, "type": "electric_scooter", "fusion_lat": 0.0, "is_disabled": 0, "rental_uris": {"ios": "https://dc.lft.to/lastmile_qr_scan", "android": "https://dc.lft.to/lastmile_qr_scan"}, "bike_id": "4b73106a4b863e78f001e5c13e350fa3", "lat": 38.89950066666667, "name": "4b73106a4b863e78f001e5c13e350fa3", "lon": -77.04746633333333, "fusion_lon": 0.0}, {"is_reserved": 0, "type": "electric_scooter", "fusion_lat": 0.0, "is_disabled": 0, "rental_uris": {"ios": "https://dc.lft.to/lastmile_qr_scan", "android": "https://dc.lft.to/lastmile_qr_scan"}, "bike_id": "582aa35fc84e52dc738f333421efd1de", "lat": 38.88370283333333, "name": "582aa35fc84e52dc738f333421efd1de", "lon": -76.99515383333333, "fusion_lon": 0.0}, {"is_reserved": 0, "type": "electric_scooter", "fusion_lat": 0.0, "is_disabled": 0, "rental_uris": {"ios": "https://dc.lft.to/lastmile_qr_scan", "android": "https://dc.lft.to/lastmile_qr_scan"}, "bike_id": "a8f9eb335b9963816a2b93f98fb14582", "lat": 38.92408783333333, "name": "a8f9eb335b9963816a2b93f98fb14582", "lon": -77.02977883333334, "fusion_lon": 0.0}, {"is_reserved": 0, "type": "electric_scooter", "fusion_lat": 0.0, "is_disabled": 0, "rental_uris": {"ios": "https://dc.lft.to/lastmile_qr_scan", "android": "https://dc.lft.to/lastmile_qr_scan"}, "bike_id": "e91404990f8797f8b6782b2915c11648", "lat": 38.9206745, "name": "e91404990f8797f8b6782b2915c11648", "lon": -77.02820783333334, "fusion_lon": 0.0}, {"is_reserved": 0, "type": "electric_scooter", "fusion_lat": 0.0, "is_disabled": 0, "rental_uris": {"ios": "https://dc.lft.to/lastmile_qr_scan", "android": "https://dc.lft.to/lastmile_qr_scan"}, "bike_id": "c772d5036b123aaf979476b189fa6646", "lat": 38.90444466666667, "name": "c772d5036b123aaf979476b189fa6646", "lon": -77.01680283333333, "fusion_lon": 0.0}, {"is_reserved": 0, "type": "electric_scooter", "fusion_lat": 0.0, "is_disabled": 0, "rental_uris": {"ios": "https://dc.lft.to/lastmile_qr_scan", "android": "https://dc.lft.to/lastmile_qr_scan"}, "bike_id": "0ad71165a95091061fe4d6d185fc0770", "lat": 38.902492333333335, "name": "0ad71165a95091061fe4d6d185fc0770", "lon": -77.0167485, "fusion_lon": 0.0}, {"is_reserved": 0, "type": "electric_scooter", "fusion_lat": 0.0, "is_disabled": 0, "rental_uris": {"ios": "https://dc.lft.to/lastmile_qr_scan", "android": "https://dc.lft.to/lastmile_qr_scan"}, "bike_id": "2f70312234b6dbef5e1db21fcb4bb317", "lat": 38.93779333333333, "name": "2f70312234b6dbef5e1db21fcb4bb317", "lon": -76.9937125, "fusion_lon": 0.0}, {"is_reserved": 0, "type": "electric_scooter", "fusion_lat": 0.0, "is_disabled": 0, "rental_uris": {"ios": "https://dc.lft.to/lastmile_qr_scan", "android": "https://dc.lft.to/lastmile_qr_scan"}, "bike_id": "5f34756979956b55f02bea7fe265b24c", "lat": 38.88267166666667, "name": "5f34756979956b55f02bea7fe265b24c", "lon": -76.99520866666667, "fusion_lon": 0.0}, {"is_reserved": 0, "type": "electric_scooter", "fusion_lat": 0.0, "is_disabled": 0, "rental_uris": {"ios": "https://dc.lft.to/lastmile_qr_scan", "android": "https://dc.lft.to/lastmile_qr_scan"}, "bike_id": "79d98c7a4d76daab669b5b2dfe61f747", "lat": 38.90335133333333, "name": "79d98c7a4d76daab669b5b2dfe61f747", "lon": -76.97590416666667, "fusion_lon": 0.0}, {"is_reserved": 0, "type": "electric_scooter", "fusion_lat": 0.0, "is_disabled": 0, "rental_uris": {"ios": "https://dc.lft.to/lastmile_qr_scan", "android": "https://dc.lft.to/lastmile_qr_scan"}, "bike_id": "96cbd0d1d743f8166fdec325cab24ea7", "lat": 38.89678116666666, "name": "96cbd0d1d743f8166fdec325cab24ea7", "lon": -77.01212316666667, "fusion_lon": 0.0}, {"is_reserved": 0, "type": "electric_scooter", "fusion_lat": 0.0, "is_disabled": 0, "rental_uris": {"ios": "https://dc.lft.to/lastmile_qr_scan", "android": "https://dc.lft.to/lastmile_qr_scan"}, "bike_id": "117bcf960cf09d4e2aaf0efb93934504", "lat": 38.91197433333333, "name": "117bcf960cf09d4e2aaf0efb93934504", "lon": -77.00202066666667, "fusion_lon": 0.0}, {"is_reserved": 0, "type": "electric_scooter", "fusion_lat": 0.0, "is_disabled": 0, "rental_uris": {"ios": "https://dc.lft.to/lastmile_qr_scan", "android": "https://dc.lft.to/lastmile_qr_scan"}, "bike_id": "82992cdcd74c28bcce38ff307ee9e8c1", "lat": 38.90961566666667, "name": "82992cdcd74c28bcce38ff307ee9e8c1", "lon": -77.02383, "fusion_lon": 0.0}, {"is_reserved": 0, "type": "electric_scooter", "fusion_lat": 0.0, "is_disabled": 0, "rental_uris": {"ios": "https://dc.lft.to/lastmile_qr_scan", "android": "https://dc.lft.to/lastmile_qr_scan"}, "bike_id": "953b9da4ad3b4f72791f0481abb79ed1", "lat": 38.92382083333333, "name": "953b9da4ad3b4f72791f0481abb79ed1", "lon": -77.05181016666667, "fusion_lon": 0.0}, {"is_reserved": 0, "type": "electric_scooter", "fusion_lat": 0.0, "is_disabled": 0, "rental_uris": {"ios": "https://dc.lft.to/lastmile_qr_scan", "android": "https://dc.lft.to/lastmile_qr_scan"}, "bike_id": "1ff5ffe04ec0c00d0dc5858a1ad7898a", "lat": 38.93187183333333, "name": "1ff5ffe04ec0c00d0dc5858a1ad7898a", "lon": -77.01961066666667, "fusion_lon": 0.0}, {"is_reserved": 0, "type": "electric_scooter", "fusion_lat": 0.0, "is_disabled": 0, "rental_uris": {"ios": "https://dc.lft.to/lastmile_qr_scan", "android": "https://dc.lft.to/lastmile_qr_scan"}, "bike_id": "53a5af14540018e6feae679170150d8f", "lat": 38.9018625, "name": "53a5af14540018e6feae679170150d8f", "lon": -76.93464016666667, "fusion_lon": 0.0}, {"is_reserved": 0, "type": "electric_scooter", "fusion_lat": 0.0, "is_disabled": 0, "rental_uris": {"ios": "https://dc.lft.to/lastmile_qr_scan", "android": "https://dc.lft.to/lastmile_qr_scan"}, "bike_id": "e4404938f50a7ce97134fd0251eea9dd", "lat": 38.930787333333335, "name": "e4404938f50a7ce97134fd0251eea9dd", "lon": -77.07761683333334, "fusion_lon": 0.0}, {"is_reserved": 0, "type": "electric_scooter", "fusion_lat": 0.0, "is_disabled": 0, "rental_uris": {"ios": "https://dc.lft.to/lastmile_qr_scan", "android": "https://dc.lft.to/lastmile_qr_scan"}, "bike_id": "3a1e4ce25d1daacdc51b5f3deffdfc01", "lat": 38.924765, "name": "3a1e4ce25d1daacdc51b5f3deffdfc01", "lon": -77.02628416666667, "fusion_lon": 0.0}, {"is_reserved": 0, "type": "electric_scooter", "fusion_lat": 0.0, "is_disabled": 0, "rental_uris": {"ios": "https://dc.lft.to/lastmile_qr_scan", "android": "https://dc.lft.to/lastmile_qr_scan"}, "bike_id": "af050a8b6fd7275f75c3c1262b999e1a", "lat": 38.930148333333335, "name": "af050a8b6fd7275f75c3c1262b999e1a", "lon": -77.04047816666667, "fusion_lon": 0.0}, {"is_reserved": 0, "type": "electric_scooter", "fusion_lat": 0.0, "is_disabled": 0, "rental_uris": {"ios": "https://dc.lft.to/lastmile_qr_scan", "android": "https://dc.lft.to/lastmile_qr_scan"}, "bike_id": "e8f2b37b18ab8cbfeb967950b1ddbbc0", "lat": 38.898407, "name": "e8f2b37b18ab8cbfeb967950b1ddbbc0", "lon": -77.0500255, "fusion_lon": 0.0}, {"is_reserved": 0, "type": "electric_bike", "fusion_lat": 0.0, "is_disabled": 0, "rental_uris": {"ios": "https://dc.lft.to/lastmile_qr_scan", "android": "https://dc.lft.to/lastmile_qr_scan"}, "bike_id": "fac92c0e1577c7b8e5d07a93d0fa64fe", "lat": 38.99492866666667, "name": "fac92c0e1577c7b8e5d07a93d0fa64fe", "lon": -77.00132816666667, "fusion_lon": 0.0}, {"is_reserved": 0, "type": "electric_bike", "fusion_lat": 0.0, "is_disabled": 0, "rental_uris": {"ios": "https://dc.lft.to/lastmile_qr_scan", "android": "https://dc.lft.to/lastmile_qr_scan"}, "bike_id": "7804dc9a56666b8d5f69387417833a82", "lat": 38.94735683333333, "name": "7804dc9a56666b8d5f69387417833a82", "lon": -76.99584316666666, "fusion_lon": 0.0}, {"is_reserved": 0, "type": "electric_scooter", "fusion_lat": 0.0, "is_disabled": 0, "rental_uris": {"ios": "https://dc.lft.to/lastmile_qr_scan", "android": "https://dc.lft.to/lastmile_qr_scan"}, "bike_id": "84f963fd45d8de308a4d874eb70f47b4", "lat": 38.919142, "name": "84f963fd45d8de308a4d874eb70f47b4", "lon": -77.0480325, "fusion_lon": 0.0}, {"is_reserved": 0, "type": "electric_scooter", "fusion_lat": 0.0, "is_disabled": 0, "rental_uris": {"ios": "https://dc.lft.to/lastmile_qr_scan", "android": "https://dc.lft.to/lastmile_qr_scan"}, "bike_id": "a9778a2f4a6ba519bf7216a41d0a04c2", "lat": 38.87651733333333, "name": "a9778a2f4a6ba519bf7216a41d0a04c2", "lon": -77.01581366666667, "fusion_lon": 0.0}, {"is_reserved": 0, "type": "electric_scooter", "fusion_lat": 0.0, "is_disabled": 0, "rental_uris": {"ios": "https://dc.lft.to/lastmile_qr_scan", "android": "https://dc.lft.to/lastmile_qr_scan"}, "bike_id": "87ac9c63d9a927c31c1f000f19910843", "lat": 38.883624166666664, "name": "87ac9c63d9a927c31c1f000f19910843", "lon": -76.92792416666667, "fusion_lon": 0.0}, {"is_reserved": 0, "type": "electric_scooter", "fusion_lat": 0.0, "is_disabled": 0, "rental_uris": {"ios": "https://dc.lft.to/lastmile_qr_scan", "android": "https://dc.lft.to/lastmile_qr_scan"}, "bike_id": "b1841529f532bf75be50209ec5b6b3a3", "lat": 38.9165515, "name": "b1841529f532bf75be50209ec5b6b3a3", "lon": -77.021845, "fusion_lon": 0.0}, {"is_reserved": 0, "type": "electric_scooter", "fusion_lat": 0.0, "is_disabled": 0, "rental_uris": {"ios": "https://dc.lft.to/lastmile_qr_scan", "android": "https://dc.lft.to/lastmile_qr_scan"}, "bike_id": "46f538bfb4763c3a3d2d2a29caf1952e", "lat": 38.9211, "name": "46f538bfb4763c3a3d2d2a29caf1952e", "lon": -77.03642916666666, "fusion_lon": 0.0}, {"is_reserved": 0, "type": "electric_scooter", "fusion_lat": 0.0, "is_disabled": 0, "rental_uris": {"ios": "https://dc.lft.to/lastmile_qr_scan", "android": "https://dc.lft.to/lastmile_qr_scan"}, "bike_id": "3f7f4f14fd21b6a9c4b9b791e86d474a", "lat": 38.92215766666666, "name": "3f7f4f14fd21b6a9c4b9b791e86d474a", "lon": -77.02034016666667, "fusion_lon": 0.0}, {"is_reserved": 0, "type": "electric_scooter", "fusion_lat": 0.0, "is_disabled": 0, "rental_uris": {"ios": "https://dc.lft.to/lastmile_qr_scan", "android": "https://dc.lft.to/lastmile_qr_scan"}, "bike_id": "d8cdb3427e410c9d9990c2b9d25c3436", "lat": 38.9174595, "name": "d8cdb3427e410c9d9990c2b9d25c3436", "lon": -77.01087983333333, "fusion_lon": 0.0}, {"is_reserved": 0, "type": "electric_bike", "fusion_lat": 0.0, "is_disabled": 0, "rental_uris": {"ios": "https://dc.lft.to/lastmile_qr_scan", "android": "https://dc.lft.to/lastmile_qr_scan"}, "bike_id": "06e3e4ab373348e00498d50fda12b675", "lat": 38.925538833333334, "name": "06e3e4ab373348e00498d50fda12b675", "lon": -77.00139066666667, "fusion_lon": 0.0}, {"is_reserved": 0, "type": "electric_bike", "fusion_lat": 0.0, "is_disabled": 0, "rental_uris": {"ios": "https://dc.lft.to/lastmile_qr_scan", "android": "https://dc.lft.to/lastmile_qr_scan"}, "bike_id": "e574ba2002bd5cb4cbfe05b6b0072dbf", "lat": 38.9145125, "name": "e574ba2002bd5cb4cbfe05b6b0072dbf", "lon": -76.97278033333333, "fusion_lon": 0.0}, {"is_reserved": 0, "type": "electric_scooter", "fusion_lat": 0.0, "is_disabled": 0, "rental_uris": {"ios": "https://dc.lft.to/lastmile_qr_scan", "android": "https://dc.lft.to/lastmile_qr_scan"}, "bike_id": "0272d44a9b5f7c178421c5eeedb9a494", "lat": 38.90136233333333, "name": "0272d44a9b5f7c178421c5eeedb9a494", "lon": -76.97415316666667, "fusion_lon": 0.0}, {"is_reserved": 0, "type": "electric_bike", "fusion_lat": 0.0, "is_disabled": 0, "rental_uris": {"ios": "https://dc.lft.to/lastmile_qr_scan", "android": "https://dc.lft.to/lastmile_qr_scan"}, "bike_id": "14c35b27415f6c59e028ae25662a3a28", "lat": 38.835867, "name": "14c35b27415f6c59e028ae25662a3a28", "lon": -76.99021383333333, "fusion_lon": 0.0}, {"is_reserved": 0, "type": "electric_bike", "fusion_lat": 0.0, "is_disabled": 0, "rental_uris": {"ios": "https://dc.lft.to/lastmile_qr_scan", "android": "https://dc.lft.to/lastmile_qr_scan"}, "bike_id": "a502221d3d9d4572d50b49d787311d20", "lat": 38.96731666666667, "name": "a502221d3d9d4572d50b49d787311d20", "lon": -77.0891025, "fusion_lon": 0.0}, {"is_reserved": 0, "type": "electric_bike", "fusion_lat": 0.0, "is_disabled": 0, "rental_uris": {"ios": "https://dc.lft.to/lastmile_qr_scan", "android": "https://dc.lft.to/lastmile_qr_scan"}, "bike_id": "8d456ba85b510d5dfb191ff970669523", "lat": 38.8508605, "name": "8d456ba85b510d5dfb191ff970669523", "lon": -76.98158183333334, "fusion_lon": 0.0}, {"is_reserved": 0, "type": "electric_scooter", "fusion_lat": 0.0, "is_disabled": 0, "rental_uris": {"ios": "https://dc.lft.to/lastmile_qr_scan", "android": "https://dc.lft.to/lastmile_qr_scan"}, "bike_id": "536626267efa3aaca7586cc2b92f2086", "lat": 38.88765083333333, "name": "536626267efa3aaca7586cc2b92f2086", "lon": -77.0004685, "fusion_lon": 0.0}, {"is_reserved": 0, "type": "electric_scooter", "fusion_lat": 0.0, "is_disabled": 0, "rental_uris": {"ios": "https://dc.lft.to/lastmile_qr_scan", "android": "https://dc.lft.to/lastmile_qr_scan"}, "bike_id": "ffe7033889e1a9ad8fa38b4d4bf1b411", "lat": 38.922326166666664, "name": "ffe7033889e1a9ad8fa38b4d4bf1b411", "lon": -77.0283425, "fusion_lon": 0.0}, {"is_reserved": 0, "type": "electric_scooter", "fusion_lat": 0.0, "is_disabled": 0, "rental_uris": {"ios": "https://dc.lft.to/lastmile_qr_scan", "android": "https://dc.lft.to/lastmile_qr_scan"}, "bike_id": "4d005380c81eda78fa0875c1d4e5cb62", "lat": 38.90997816666667, "name": "4d005380c81eda78fa0875c1d4e5cb62", "lon": -77.0269555, "fusion_lon": 0.0}, {"is_reserved": 0, "type": "electric_bike", "fusion_lat": 0.0, "is_disabled": 0, "rental_uris": {"ios": "https://dc.lft.to/lastmile_qr_scan", "android": "https://dc.lft.to/lastmile_qr_scan"}, "bike_id": "e4169818f3c332a6c485ffa1b88458eb", "lat": 38.926006, "name": "e4169818f3c332a6c485ffa1b88458eb", "lon": -77.0243315, "fusion_lon": 0.0}, {"is_reserved": 0, "type": "electric_scooter", "fusion_lat": 0.0, "is_disabled": 0, "rental_uris": {"ios": "https://dc.lft.to/lastmile_qr_scan", "android": "https://dc.lft.to/lastmile_qr_scan"}, "bike_id": "4e57225b3de7361ecebda618ccea4d2a", "lat": 38.9333035, "name": "4e57225b3de7361ecebda618ccea4d2a", "lon": -77.02907733333333, "fusion_lon": 0.0}, {"is_reserved": 0, "type": "electric_scooter", "fusion_lat": 0.0, "is_disabled": 0, "rental_uris": {"ios": "https://dc.lft.to/lastmile_qr_scan", "android": "https://dc.lft.to/lastmile_qr_scan"}, "bike_id": "4b9e2b27bddac5460e4c91d4309771d5", "lat": 38.948384833333336, "name": "4b9e2b27bddac5460e4c91d4309771d5", "lon": -77.02713566666667, "fusion_lon": 0.0}, {"is_reserved": 0, "type": "electric_scooter", "fusion_lat": 0.0, "is_disabled": 0, "rental_uris": {"ios": "https://dc.lft.to/lastmile_qr_scan", "android": "https://dc.lft.to/lastmile_qr_scan"}, "bike_id": "b2664e4189fff76dfb2299fcf1de9d91", "lat": 38.901203333333335, "name": "b2664e4189fff76dfb2299fcf1de9d91", "lon": -77.016006, "fusion_lon": 0.0}, {"is_reserved": 0, "type": "electric_scooter", "fusion_lat": 0.0, "is_disabled": 0, "rental_uris": {"ios": "https://dc.lft.to/lastmile_qr_scan", "android": "https://dc.lft.to/lastmile_qr_scan"}, "bike_id": "05409f830375f05307c38207b09392ec", "lat": 38.91646033333333, "name": "05409f830375f05307c38207b09392ec", "lon": -77.04819416666666, "fusion_lon": 0.0}, {"is_reserved": 0, "type": "electric_scooter", "fusion_lat": 0.0, "is_disabled": 0, "rental_uris": {"ios": "https://dc.lft.to/lastmile_qr_scan", "android": "https://dc.lft.to/lastmile_qr_scan"}, "bike_id": "638f0036c5c395c30cb9f516d556dfd9", "lat": 38.88240066666667, "name": "638f0036c5c395c30cb9f516d556dfd9", "lon": -77.00635266666667, "fusion_lon": 0.0}, {"is_reserved": 0, "type": "electric_scooter", "fusion_lat": 0.0, "is_disabled": 0, "rental_uris": {"ios": "https://dc.lft.to/lastmile_qr_scan", "android": "https://dc.lft.to/lastmile_qr_scan"}, "bike_id": "aaf831fbcb290c83154ba4ac4b13edac", "lat": 38.891997, "name": "aaf831fbcb290c83154ba4ac4b13edac", "lon": -77.02221, "fusion_lon": 0.0}, {"is_reserved": 0, "type": "electric_scooter", "fusion_lat": 0.0, "is_disabled": 0, "rental_uris": {"ios": "https://dc.lft.to/lastmile_qr_scan", "android": "https://dc.lft.to/lastmile_qr_scan"}, "bike_id": "997ecd2c76675085e36ef736bc6fe908", "lat": 38.899072, "name": "997ecd2c76675085e36ef736bc6fe908", "lon": -76.97830616666667, "fusion_lon": 0.0}, {"is_reserved": 0, "type": "electric_scooter", "fusion_lat": 0.0, "is_disabled": 0, "rental_uris": {"ios": "https://dc.lft.to/lastmile_qr_scan", "android": "https://dc.lft.to/lastmile_qr_scan"}, "bike_id": "3ece556d4676a7f97abf68a38475c7d2", "lat": 38.897060833333335, "name": "3ece556d4676a7f97abf68a38475c7d2", "lon": -77.0254765, "fusion_lon": 0.0}, {"is_reserved": 0, "type": "electric_bike", "fusion_lat": 0.0, "is_disabled": 0, "rental_uris": {"ios": "https://dc.lft.to/lastmile_qr_scan", "android": "https://dc.lft.to/lastmile_qr_scan"}, "bike_id": "4ae53c40f9d21ea4e5d506c93a728f12", "lat": 38.90696533333333, "name": "4ae53c40f9d21ea4e5d506c93a728f12", "lon": -76.95251666666667, "fusion_lon": 0.0}, {"is_reserved": 0, "type": "electric_scooter", "fusion_lat": 0.0, "is_disabled": 0, "rental_uris": {"ios": "https://dc.lft.to/lastmile_qr_scan", "android": "https://dc.lft.to/lastmile_qr_scan"}, "bike_id": "3049fc9ad26ab639f9e8468ca88969b2", "lat": 38.94267166666667, "name": "3049fc9ad26ab639f9e8468ca88969b2", "lon": -76.9846985, "fusion_lon": 0.0}, {"is_reserved": 0, "type": "electric_scooter", "fusion_lat": 0.0, "is_disabled": 0, "rental_uris": {"ios": "https://dc.lft.to/lastmile_qr_scan", "android": "https://dc.lft.to/lastmile_qr_scan"}, "bike_id": "7ed0febd31aab15cb23124cf019c82ef", "lat": 38.88357383333334, "name": "7ed0febd31aab15cb23124cf019c82ef", "lon": -76.95766033333334, "fusion_lon": 0.0}, {"is_reserved": 0, "type": "electric_scooter", "fusion_lat": 0.0, "is_disabled": 0, "rental_uris": {"ios": "https://dc.lft.to/lastmile_qr_scan", "android": "https://dc.lft.to/lastmile_qr_scan"}, "bike_id": "9b23f2ae3d390e1c4fb7f78562af560b", "lat": 38.896731333333335, "name": "9b23f2ae3d390e1c4fb7f78562af560b", "lon": -77.05114733333333, "fusion_lon": 0.0}, {"is_reserved": 0, "type": "electric_scooter", "fusion_lat": 0.0, "is_disabled": 0, "rental_uris": {"ios": "https://dc.lft.to/lastmile_qr_scan", "android": "https://dc.lft.to/lastmile_qr_scan"}, "bike_id": "36ceb77d9b785544730614fb3d57b204", "lat": 38.911914833333334, "name": "36ceb77d9b785544730614fb3d57b204", "lon": -77.06103283333333, "fusion_lon": 0.0}, {"is_reserved": 0, "type": "electric_scooter", "fusion_lat": 0.0, "is_disabled": 0, "rental_uris": {"ios": "https://dc.lft.to/lastmile_qr_scan", "android": "https://dc.lft.to/lastmile_qr_scan"}, "bike_id": "b369bb9ca5ca41c935c5603c050bae5d", "lat": 38.94718433333333, "name": "b369bb9ca5ca41c935c5603c050bae5d", "lon": -77.06804466666667, "fusion_lon": 0.0}, {"is_reserved": 0, "type": "electric_scooter", "fusion_lat": 0.0, "is_disabled": 0, "rental_uris": {"ios": "https://dc.lft.to/lastmile_qr_scan", "android": "https://dc.lft.to/lastmile_qr_scan"}, "bike_id": "8349f6d4a96d0b4fd55e5e594d96bd2e", "lat": 38.8953785, "name": "8349f6d4a96d0b4fd55e5e594d96bd2e", "lon": -76.98836383333334, "fusion_lon": 0.0}, {"is_reserved": 0, "type": "electric_scooter", "fusion_lat": 0.0, "is_disabled": 0, "rental_uris": {"ios": "https://dc.lft.to/lastmile_qr_scan", "android": "https://dc.lft.to/lastmile_qr_scan"}, "bike_id": "c506405948bf360a920c56c4d8586b6a", "lat": 38.924349666666664, "name": "c506405948bf360a920c56c4d8586b6a", "lon": -77.042438, "fusion_lon": 0.0}, {"is_reserved": 0, "type": "electric_scooter", "fusion_lat": 0.0, "is_disabled": 0, "rental_uris": {"ios": "https://dc.lft.to/lastmile_qr_scan", "android": "https://dc.lft.to/lastmile_qr_scan"}, "bike_id": "025c9bfe557dfe950794d36d92e3ce8c", "lat": 38.870706, "name": "025c9bfe557dfe950794d36d92e3ce8c", "lon": -76.98126466666666, "fusion_lon": 0.0}, {"is_reserved": 0, "type": "electric_scooter", "fusion_lat": 0.0, "is_disabled": 0, "rental_uris": {"ios": "https://dc.lft.to/lastmile_qr_scan", "android": "https://dc.lft.to/lastmile_qr_scan"}, "bike_id": "e2bf001deb8a6576dcdfcb3b392d8bca", "lat": 38.916563833333335, "name": "e2bf001deb8a6576dcdfcb3b392d8bca", "lon": -77.022886, "fusion_lon": 0.0}, {"is_reserved": 0, "type": "electric_scooter", "fusion_lat": 0.0, "is_disabled": 0, "rental_uris": {"ios": "https://dc.lft.to/lastmile_qr_scan", "android": "https://dc.lft.to/lastmile_qr_scan"}, "bike_id": "96072ba5243c27a1c0f08df897dfb1cb", "lat": 38.93032983333333, "name": "96072ba5243c27a1c0f08df897dfb1cb", "lon": -77.06076033333333, "fusion_lon": 0.0}, {"is_reserved": 0, "type": "electric_scooter", "fusion_lat": 0.0, "is_disabled": 0, "rental_uris": {"ios": "https://dc.lft.to/lastmile_qr_scan", "android": "https://dc.lft.to/lastmile_qr_scan"}, "bike_id": "1b25e55c633065ad8eed0f63cea48c9e", "lat": 38.914033833333335, "name": "1b25e55c633065ad8eed0f63cea48c9e", "lon": -77.045061, "fusion_lon": 0.0}, {"is_reserved": 0, "type": "electric_scooter", "fusion_lat": 0.0, "is_disabled": 0, "rental_uris": {"ios": "https://dc.lft.to/lastmile_qr_scan", "android": "https://dc.lft.to/lastmile_qr_scan"}, "bike_id": "4da4d308a16859ac7e01e5e889271540", "lat": 38.908553, "name": "4da4d308a16859ac7e01e5e889271540", "lon": -77.02461833333334, "fusion_lon": 0.0}, {"is_reserved": 0, "type": "electric_scooter", "fusion_lat": 0.0, "is_disabled": 0, "rental_uris": {"ios": "https://dc.lft.to/lastmile_qr_scan", "android": "https://dc.lft.to/lastmile_qr_scan"}, "bike_id": "5185704858efa117ff03415e03871f29", "lat": 38.894793, "name": "5185704858efa117ff03415e03871f29", "lon": -76.9487275, "fusion_lon": 0.0}, {"is_reserved": 0, "type": "electric_scooter", "fusion_lat": 0.0, "is_disabled": 0, "rental_uris": {"ios": "https://dc.lft.to/lastmile_qr_scan", "android": "https://dc.lft.to/lastmile_qr_scan"}, "bike_id": "f8efef45404702872210ad48ca8dbc3a", "lat": 38.91159866666667, "name": "f8efef45404702872210ad48ca8dbc3a", "lon": -77.044861, "fusion_lon": 0.0}, {"is_reserved": 0, "type": "electric_scooter", "fusion_lat": 0.0, "is_disabled": 0, "rental_uris": {"ios": "https://dc.lft.to/lastmile_qr_scan", "android": "https://dc.lft.to/lastmile_qr_scan"}, "bike_id": "6778027e36a930f36482c310731e4468", "lat": 38.89328733333333, "name": "6778027e36a930f36482c310731e4468", "lon": -76.9393095, "fusion_lon": 0.0}, {"is_reserved": 0, "type": "electric_scooter", "fusion_lat": 0.0, "is_disabled": 0, "rental_uris": {"ios": "https://dc.lft.to/lastmile_qr_scan", "android": "https://dc.lft.to/lastmile_qr_scan"}, "bike_id": "bb9ea06423bc0efef5c9605812e37dd6", "lat": 38.91761316666667, "name": "bb9ea06423bc0efef5c9605812e37dd6", "lon": -77.00458933333333, "fusion_lon": 0.0}, {"is_reserved": 0, "type": "electric_bike", "fusion_lat": 0.0, "is_disabled": 0, "rental_uris": {"ios": "https://dc.lft.to/lastmile_qr_scan", "android": "https://dc.lft.to/lastmile_qr_scan"}, "bike_id": "39b06a046b51583d355e10b82dadf615", "lat": 38.875805666666665, "name": "39b06a046b51583d355e10b82dadf615", "lon": -77.2341075, "fusion_lon": 0.0}, {"is_reserved": 0, "type": "electric_bike", "fusion_lat": 0.0, "is_disabled": 0, "rental_uris": {"ios": "https://dc.lft.to/lastmile_qr_scan", "android": "https://dc.lft.to/lastmile_qr_scan"}, "bike_id": "a2f681e45bb5fe817241f3c1660400e5", "lat": 38.876675666666664, "name": "a2f681e45bb5fe817241f3c1660400e5", "lon": -77.02089766666667, "fusion_lon": 0.0}, {"is_reserved": 0, "type": "electric_scooter", "fusion_lat": 0.0, "is_disabled": 0, "rental_uris": {"ios": "https://dc.lft.to/lastmile_qr_scan", "android": "https://dc.lft.to/lastmile_qr_scan"}, "bike_id": "508d37fc54c116300b9a63a8ea05f2a1", "lat": 38.90257733333333, "name": "508d37fc54c116300b9a63a8ea05f2a1", "lon": -77.01729066666667, "fusion_lon": 0.0}, {"is_reserved": 0, "type": "electric_scooter", "fusion_lat": 0.0, "is_disabled": 0, "rental_uris": {"ios": "https://dc.lft.to/lastmile_qr_scan", "android": "https://dc.lft.to/lastmile_qr_scan"}, "bike_id": "ad8ead9775214975eface54448b4e37f", "lat": 38.92467216666667, "name": "ad8ead9775214975eface54448b4e37f", "lon": -77.02241733333334, "fusion_lon": 0.0}, {"is_reserved": 0, "type": "electric_scooter", "fusion_lat": 0.0, "is_disabled": 0, "rental_uris": {"ios": "https://dc.lft.to/lastmile_qr_scan", "android": "https://dc.lft.to/lastmile_qr_scan"}, "bike_id": "fab7d9a9eeca8ce8d69c5c129d0c9567", "lat": 38.918784, "name": "fab7d9a9eeca8ce8d69c5c129d0c9567", "lon": -77.03508366666667, "fusion_lon": 0.0}, {"is_reserved": 0, "type": "electric_scooter", "fusion_lat": 0.0, "is_disabled": 0, "rental_uris": {"ios": "https://dc.lft.to/lastmile_qr_scan", "android": "https://dc.lft.to/lastmile_qr_scan"}, "bike_id": "b8631670a8e0667f48d3e9c74ade7c59", "lat": 38.916547333333334, "name": "b8631670a8e0667f48d3e9c74ade7c59", "lon": -77.01026333333333, "fusion_lon": 0.0}, {"is_reserved": 0, "type": "electric_scooter", "fusion_lat": 0.0, "is_disabled": 0, "rental_uris": {"ios": "https://dc.lft.to/lastmile_qr_scan", "android": "https://dc.lft.to/lastmile_qr_scan"}, "bike_id": "0e6300d71dff8a80d51df45a59ef322b", "lat": 38.9215375, "name": "0e6300d71dff8a80d51df45a59ef322b", "lon": -77.033854, "fusion_lon": 0.0}, {"is_reserved": 0, "type": "electric_scooter", "fusion_lat": 0.0, "is_disabled": 0, "rental_uris": {"ios": "https://dc.lft.to/lastmile_qr_scan", "android": "https://dc.lft.to/lastmile_qr_scan"}, "bike_id": "acd7288f103aadfc3e8142131c794398", "lat": 38.93592666666667, "name": "acd7288f103aadfc3e8142131c794398", "lon": -77.0376245, "fusion_lon": 0.0}, {"is_reserved": 0, "type": "electric_scooter", "fusion_lat": 0.0, "is_disabled": 0, "rental_uris": {"ios": "https://dc.lft.to/lastmile_qr_scan", "android": "https://dc.lft.to/lastmile_qr_scan"}, "bike_id": "dd5034a6b6d0308f7f62664466007513", "lat": 38.89638133333333, "name": "dd5034a6b6d0308f7f62664466007513", "lon": -77.028478, "fusion_lon": 0.0}, {"is_reserved": 0, "type": "electric_scooter", "fusion_lat": 0.0, "is_disabled": 0, "rental_uris": {"ios": "https://dc.lft.to/lastmile_qr_scan", "android": "https://dc.lft.to/lastmile_qr_scan"}, "bike_id": "dac1d05fb874216970f334cea9fcaac4", "lat": 38.94486366666667, "name": "dac1d05fb874216970f334cea9fcaac4", "lon": -77.09502233333333, "fusion_lon": 0.0}, {"is_reserved": 0, "type": "electric_bike", "fusion_lat": 0.0, "is_disabled": 0, "rental_uris": {"ios": "https://dc.lft.to/lastmile_qr_scan", "android": "https://dc.lft.to/lastmile_qr_scan"}, "bike_id": "4ce250deb68ce05691a86c2f3003fcef", "lat": 38.883041, "name": "4ce250deb68ce05691a86c2f3003fcef", "lon": -77.002011, "fusion_lon": 0.0}, {"is_reserved": 0, "type": "electric_scooter", "fusion_lat": 0.0, "is_disabled": 0, "rental_uris": {"ios": "https://dc.lft.to/lastmile_qr_scan", "android": "https://dc.lft.to/lastmile_qr_scan"}, "bike_id": "fe8ec12ea36e7849101eae8b42771afb", "lat": 38.89223966666667, "name": "fe8ec12ea36e7849101eae8b42771afb", "lon": -77.04640383333333, "fusion_lon": 0.0}, {"is_reserved": 0, "type": "electric_scooter", "fusion_lat": 0.0, "is_disabled": 0, "rental_uris": {"ios": "https://dc.lft.to/lastmile_qr_scan", "android": "https://dc.lft.to/lastmile_qr_scan"}, "bike_id": "ef9780b6fcf0f1fc48e99a762cbf954b", "lat": 38.8982185, "name": "ef9780b6fcf0f1fc48e99a762cbf954b", "lon": -76.93005933333333, "fusion_lon": 0.0}, {"is_reserved": 0, "type": "electric_scooter", "fusion_lat": 0.0, "is_disabled": 0, "rental_uris": {"ios": "https://dc.lft.to/lastmile_qr_scan", "android": "https://dc.lft.to/lastmile_qr_scan"}, "bike_id": "db43e85844e4e5c74229a1e8dd8dcc1b", "lat": 38.922123666666664, "name": "db43e85844e4e5c74229a1e8dd8dcc1b", "lon": -77.0424445, "fusion_lon": 0.0}, {"is_reserved": 0, "type": "electric_scooter", "fusion_lat": 0.0, "is_disabled": 0, "rental_uris": {"ios": "https://dc.lft.to/lastmile_qr_scan", "android": "https://dc.lft.to/lastmile_qr_scan"}, "bike_id": "cf50b486d8e5ac1eef2f73b180371477", "lat": 38.89769716666667, "name": "cf50b486d8e5ac1eef2f73b180371477", "lon": -77.0476445, "fusion_lon": 0.0}, {"is_reserved": 0, "type": "electric_bike", "fusion_lat": 0.0, "is_disabled": 0, "rental_uris": {"ios": "https://dc.lft.to/lastmile_qr_scan", "android": "https://dc.lft.to/lastmile_qr_scan"}, "bike_id": "256972fa1a1abf0879eb1574e437df01", "lat": 38.80979883333333, "name": "256972fa1a1abf0879eb1574e437df01", "lon": -77.07663733333334, "fusion_lon": 0.0}, {"is_reserved": 0, "type": "electric_scooter", "fusion_lat": 0.0, "is_disabled": 0, "rental_uris": {"ios": "https://dc.lft.to/lastmile_qr_scan", "android": "https://dc.lft.to/lastmile_qr_scan"}, "bike_id": "a9014bdf8d75444a8a5f687b12c056ac", "lat": 38.89818233333333, "name": "a9014bdf8d75444a8a5f687b12c056ac", "lon": -77.01269666666667, "fusion_lon": 0.0}, {"is_reserved": 0, "type": "electric_bike", "fusion_lat": 0.0, "is_disabled": 0, "rental_uris": {"ios": "https://dc.lft.to/lastmile_qr_scan", "android": "https://dc.lft.to/lastmile_qr_scan"}, "bike_id": "c81e4559aba0fd85b64da11a9e3e7292", "lat": 38.92021233333333, "name": "c81e4559aba0fd85b64da11a9e3e7292", "lon": -77.00330916666667, "fusion_lon": 0.0}, {"is_reserved": 0, "type": "electric_scooter", "fusion_lat": 0.0, "is_disabled": 0, "rental_uris": {"ios": "https://dc.lft.to/lastmile_qr_scan", "android": "https://dc.lft.to/lastmile_qr_scan"}, "bike_id": "9a4d7960d50cf1df42e258714af82d3f", "lat": 38.92667616666667, "name": "9a4d7960d50cf1df42e258714af82d3f", "lon": -76.99540983333333, "fusion_lon": 0.0}, {"is_reserved": 0, "type": "electric_scooter", "fusion_lat": 0.0, "is_disabled": 0, "rental_uris": {"ios": "https://dc.lft.to/lastmile_qr_scan", "android": "https://dc.lft.to/lastmile_qr_scan"}, "bike_id": "f4363e9215daf0536d4b600d1ca9a106", "lat": 38.89441583333333, "name": "f4363e9215daf0536d4b600d1ca9a106", "lon": -76.980843, "fusion_lon": 0.0}, {"is_reserved": 0, "type": "electric_bike", "fusion_lat": 0.0, "is_disabled": 0, "rental_uris": {"ios": "https://dc.lft.to/lastmile_qr_scan", "android": "https://dc.lft.to/lastmile_qr_scan"}, "bike_id": "1ed26a79c0c3388601b3bd39f64ba5a6", "lat": 38.936423833333336, "name": "1ed26a79c0c3388601b3bd39f64ba5a6", "lon": -76.95455416666667, "fusion_lon": 0.0}, {"is_reserved": 0, "type": "electric_scooter", "fusion_lat": 0.0, "is_disabled": 0, "rental_uris": {"ios": "https://dc.lft.to/lastmile_qr_scan", "android": "https://dc.lft.to/lastmile_qr_scan"}, "bike_id": "a32b76fcc0109b4c0f5987b21feff1c7", "lat": 38.90754233333333, "name": "a32b76fcc0109b4c0f5987b21feff1c7", "lon": -77.00763533333334, "fusion_lon": 0.0}, {"is_reserved": 0, "type": "electric_scooter", "fusion_lat": 0.0, "is_disabled": 0, "rental_uris": {"ios": "https://dc.lft.to/lastmile_qr_scan", "android": "https://dc.lft.to/lastmile_qr_scan"}, "bike_id": "f227eba5c396cd843ef89b1af5bc3a19", "lat": 38.896676, "name": "f227eba5c396cd843ef89b1af5bc3a19", "lon": -76.9320955, "fusion_lon": 0.0}, {"is_reserved": 0, "type": "electric_scooter", "fusion_lat": 0.0, "is_disabled": 0, "rental_uris": {"ios": "https://dc.lft.to/lastmile_qr_scan", "android": "https://dc.lft.to/lastmile_qr_scan"}, "bike_id": "6599dc8a12b91a415911c3d4ee964034", "lat": 38.872070666666666, "name": "6599dc8a12b91a415911c3d4ee964034", "lon": -76.97837533333333, "fusion_lon": 0.0}, {"is_reserved": 0, "type": "electric_scooter", "fusion_lat": 0.0, "is_disabled": 0, "rental_uris": {"ios": "https://dc.lft.to/lastmile_qr_scan", "android": "https://dc.lft.to/lastmile_qr_scan"}, "bike_id": "8312bcd647491c01d9709bac5a6aedac", "lat": 38.89964466666667, "name": "8312bcd647491c01d9709bac5a6aedac", "lon": -77.019903, "fusion_lon": 0.0}, {"is_reserved": 0, "type": "electric_scooter", "fusion_lat": 0.0, "is_disabled": 0, "rental_uris": {"ios": "https://dc.lft.to/lastmile_qr_scan", "android": "https://dc.lft.to/lastmile_qr_scan"}, "bike_id": "fafed8fd6dd94289dfcaf4127823d94f", "lat": 38.905109, "name": "fafed8fd6dd94289dfcaf4127823d94f", "lon": -76.951867, "fusion_lon": 0.0}, {"is_reserved": 0, "type": "electric_scooter", "fusion_lat": 0.0, "is_disabled": 0, "rental_uris": {"ios": "https://dc.lft.to/lastmile_qr_scan", "android": "https://dc.lft.to/lastmile_qr_scan"}, "bike_id": "e10ec55efb23cedcbcd6be4db4a10c90", "lat": 38.883615166666665, "name": "e10ec55efb23cedcbcd6be4db4a10c90", "lon": -76.95766866666666, "fusion_lon": 0.0}, {"is_reserved": 0, "type": "electric_scooter", "fusion_lat": 0.0, "is_disabled": 0, "rental_uris": {"ios": "https://dc.lft.to/lastmile_qr_scan", "android": "https://dc.lft.to/lastmile_qr_scan"}, "bike_id": "9c0018b6516b1616174cda73859d5629", "lat": 38.91950666666666, "name": "9c0018b6516b1616174cda73859d5629", "lon": -77.013879, "fusion_lon": 0.0}, {"is_reserved": 0, "type": "electric_scooter", "fusion_lat": 0.0, "is_disabled": 0, "rental_uris": {"ios": "https://dc.lft.to/lastmile_qr_scan", "android": "https://dc.lft.to/lastmile_qr_scan"}, "bike_id": "f8fb6430ccd432a63955458a3f555359", "lat": 38.902799, "name": "f8fb6430ccd432a63955458a3f555359", "lon": -77.0201325, "fusion_lon": 0.0}, {"is_reserved": 0, "type": "electric_scooter", "fusion_lat": 0.0, "is_disabled": 0, "rental_uris": {"ios": "https://dc.lft.to/lastmile_qr_scan", "android": "https://dc.lft.to/lastmile_qr_scan"}, "bike_id": "42ded5253e0182abb13b5354dfe6b0b4", "lat": 38.883064833333336, "name": "42ded5253e0182abb13b5354dfe6b0b4", "lon": -76.9937355, "fusion_lon": 0.0}, {"is_reserved": 0, "type": "electric_scooter", "fusion_lat": 0.0, "is_disabled": 0, "rental_uris": {"ios": "https://dc.lft.to/lastmile_qr_scan", "android": "https://dc.lft.to/lastmile_qr_scan"}, "bike_id": "5a73a8eb68d55ea880ba9e09a6b10341", "lat": 38.93846166666667, "name": "5a73a8eb68d55ea880ba9e09a6b10341", "lon": -77.01956166666666, "fusion_lon": 0.0}, {"is_reserved": 0, "type": "electric_bike", "fusion_lat": 0.0, "is_disabled": 0, "rental_uris": {"ios": "https://dc.lft.to/lastmile_qr_scan", "android": "https://dc.lft.to/lastmile_qr_scan"}, "bike_id": "a4aedc9285e81bac65d8730904f0e035", "lat": 38.860104, "name": "a4aedc9285e81bac65d8730904f0e035", "lon": -77.06529233333333, "fusion_lon": 0.0}, {"is_reserved": 0, "type": "electric_scooter", "fusion_lat": 0.0, "is_disabled": 0, "rental_uris": {"ios": "https://dc.lft.to/lastmile_qr_scan", "android": "https://dc.lft.to/lastmile_qr_scan"}, "bike_id": "4d750bed72f6ec89af1c82d6b8ee80e4", "lat": 38.897291, "name": "4d750bed72f6ec89af1c82d6b8ee80e4", "lon": -77.01917033333334, "fusion_lon": 0.0}, {"is_reserved": 0, "type": "electric_scooter", "fusion_lat": 0.0, "is_disabled": 0, "rental_uris": {"ios": "https://dc.lft.to/lastmile_qr_scan", "android": "https://dc.lft.to/lastmile_qr_scan"}, "bike_id": "60b3c1ccd2ebae51c84b366677f3cab8", "lat": 38.92655283333333, "name": "60b3c1ccd2ebae51c84b366677f3cab8", "lon": -77.02434333333333, "fusion_lon": 0.0}, {"is_reserved": 0, "type": "electric_scooter", "fusion_lat": 0.0, "is_disabled": 0, "rental_uris": {"ios": "https://dc.lft.to/lastmile_qr_scan", "android": "https://dc.lft.to/lastmile_qr_scan"}, "bike_id": "926859ca8825eb35e7789e7bd6945311", "lat": 38.900315166666665, "name": "926859ca8825eb35e7789e7bd6945311", "lon": -76.99850033333334, "fusion_lon": 0.0}, {"is_reserved": 0, "type": "electric_scooter", "fusion_lat": 0.0, "is_disabled": 0, "rental_uris": {"ios": "https://dc.lft.to/lastmile_qr_scan", "android": "https://dc.lft.to/lastmile_qr_scan"}, "bike_id": "957210f33c2c8be0a3a588f1d1f267a6", "lat": 38.90259966666667, "name": "957210f33c2c8be0a3a588f1d1f267a6", "lon": -77.02723733333333, "fusion_lon": 0.0}, {"is_reserved": 0, "type": "electric_bike", "fusion_lat": 0.0, "is_disabled": 0, "rental_uris": {"ios": "https://dc.lft.to/lastmile_qr_scan", "android": "https://dc.lft.to/lastmile_qr_scan"}, "bike_id": "a796aa6535cc9b3b36412cb7ad400061", "lat": 38.92534083333334, "name": "a796aa6535cc9b3b36412cb7ad400061", "lon": -77.07335466666666, "fusion_lon": 0.0}, {"is_reserved": 0, "type": "electric_scooter", "fusion_lat": 0.0, "is_disabled": 0, "rental_uris": {"ios": "https://dc.lft.to/lastmile_qr_scan", "android": "https://dc.lft.to/lastmile_qr_scan"}, "bike_id": "2295984e21f08ed38f9d983d2686fc4d", "lat": 38.92030116666667, "name": "2295984e21f08ed38f9d983d2686fc4d", "lon": -76.99542483333333, "fusion_lon": 0.0}, {"is_reserved": 0, "type": "electric_scooter", "fusion_lat": 0.0, "is_disabled": 0, "rental_uris": {"ios": "https://dc.lft.to/lastmile_qr_scan", "android": "https://dc.lft.to/lastmile_qr_scan"}, "bike_id": "ce8f59cdea42dba128276b5341986124", "lat": 38.9156225, "name": "ce8f59cdea42dba128276b5341986124", "lon": -77.0367245, "fusion_lon": 0.0}, {"is_reserved": 0, "type": "electric_scooter", "fusion_lat": 0.0, "is_disabled": 0, "rental_uris": {"ios": "https://dc.lft.to/lastmile_qr_scan", "android": "https://dc.lft.to/lastmile_qr_scan"}, "bike_id": "e2c84619a6490274ac90d82e588fcd33", "lat": 38.936651166666664, "name": "e2c84619a6490274ac90d82e588fcd33", "lon": -77.06612233333334, "fusion_lon": 0.0}, {"is_reserved": 0, "type": "electric_scooter", "fusion_lat": 0.0, "is_disabled": 0, "rental_uris": {"ios": "https://dc.lft.to/lastmile_qr_scan", "android": "https://dc.lft.to/lastmile_qr_scan"}, "bike_id": "e02a21ac2b6f79c62e2ae637351584c3", "lat": 38.90227016666667, "name": "e02a21ac2b6f79c62e2ae637351584c3", "lon": -77.04830666666666, "fusion_lon": 0.0}, {"is_reserved": 0, "type": "electric_scooter", "fusion_lat": 0.0, "is_disabled": 0, "rental_uris": {"ios": "https://dc.lft.to/lastmile_qr_scan", "android": "https://dc.lft.to/lastmile_qr_scan"}, "bike_id": "9215e45b16d7d5d0e787afe3e31d6287", "lat": 38.89952616666667, "name": "9215e45b16d7d5d0e787afe3e31d6287", "lon": -77.02541633333334, "fusion_lon": 0.0}, {"is_reserved": 0, "type": "electric_scooter", "fusion_lat": 0.0, "is_disabled": 0, "rental_uris": {"ios": "https://dc.lft.to/lastmile_qr_scan", "android": "https://dc.lft.to/lastmile_qr_scan"}, "bike_id": "a30d838c4a0ec5d8f81ac057a3d745c7", "lat": 38.89534533333333, "name": "a30d838c4a0ec5d8f81ac057a3d745c7", "lon": -76.948922, "fusion_lon": 0.0}, {"is_reserved": 0, "type": "electric_scooter", "fusion_lat": 0.0, "is_disabled": 0, "rental_uris": {"ios": "https://dc.lft.to/lastmile_qr_scan", "android": "https://dc.lft.to/lastmile_qr_scan"}, "bike_id": "bee19eeb9d6d68e37211f800902a057c", "lat": 38.914922833333335, "name": "bee19eeb9d6d68e37211f800902a057c", "lon": -77.0494665, "fusion_lon": 0.0}, {"is_reserved": 0, "type": "electric_scooter", "fusion_lat": 0.0, "is_disabled": 0, "rental_uris": {"ios": "https://dc.lft.to/lastmile_qr_scan", "android": "https://dc.lft.to/lastmile_qr_scan"}, "bike_id": "831b57a832cdeaf58a72c95bedfdcebb", "lat": 38.92024633333333, "name": "831b57a832cdeaf58a72c95bedfdcebb", "lon": -77.0251155, "fusion_lon": 0.0}, {"is_reserved": 0, "type": "electric_scooter", "fusion_lat": 0.0, "is_disabled": 0, "rental_uris": {"ios": "https://dc.lft.to/lastmile_qr_scan", "android": "https://dc.lft.to/lastmile_qr_scan"}, "bike_id": "6ec14a6dd43e68f2ccf20f5a5e736d7e", "lat": 38.91922116666667, "name": "6ec14a6dd43e68f2ccf20f5a5e736d7e", "lon": -77.03424083333333, "fusion_lon": 0.0}, {"is_reserved": 0, "type": "electric_scooter", "fusion_lat": 0.0, "is_disabled": 0, "rental_uris": {"ios": "https://dc.lft.to/lastmile_qr_scan", "android": "https://dc.lft.to/lastmile_qr_scan"}, "bike_id": "f728a074719b0f86b7d3e4f45dc94d1f", "lat": 38.9182205, "name": "f728a074719b0f86b7d3e4f45dc94d1f", "lon": -77.0121575, "fusion_lon": 0.0}, {"is_reserved": 0, "type": "electric_scooter", "fusion_lat": 0.0, "is_disabled": 0, "rental_uris": {"ios": "https://dc.lft.to/lastmile_qr_scan", "android": "https://dc.lft.to/lastmile_qr_scan"}, "bike_id": "16ce45b7325d7a63a2291a0c63961dbb", "lat": 38.9395325, "name": "16ce45b7325d7a63a2291a0c63961dbb", "lon": -77.07241833333333, "fusion_lon": 0.0}, {"is_reserved": 0, "type": "electric_scooter", "fusion_lat": 0.0, "is_disabled": 0, "rental_uris": {"ios": "https://dc.lft.to/lastmile_qr_scan", "android": "https://dc.lft.to/lastmile_qr_scan"}, "bike_id": "523c8e6ef055ad71aaabf75d1fe98cbf", "lat": 38.9172515, "name": "523c8e6ef055ad71aaabf75d1fe98cbf", "lon": -77.06846833333333, "fusion_lon": 0.0}, {"is_reserved": 0, "type": "electric_scooter", "fusion_lat": 0.0, "is_disabled": 0, "rental_uris": {"ios": "https://dc.lft.to/lastmile_qr_scan", "android": "https://dc.lft.to/lastmile_qr_scan"}, "bike_id": "c1e60a15901f22044328cf738d17871d", "lat": 38.919543833333336, "name": "c1e60a15901f22044328cf738d17871d", "lon": -77.0234965, "fusion_lon": 0.0}, {"is_reserved": 0, "type": "electric_scooter", "fusion_lat": 0.0, "is_disabled": 0, "rental_uris": {"ios": "https://dc.lft.to/lastmile_qr_scan", "android": "https://dc.lft.to/lastmile_qr_scan"}, "bike_id": "d162c2ed354fc00656214a9572657600", "lat": 38.8965415, "name": "d162c2ed354fc00656214a9572657600", "lon": -77.04348883333333, "fusion_lon": 0.0}, {"is_reserved": 0, "type": "electric_bike", "fusion_lat": 0.0, "is_disabled": 0, "rental_uris": {"ios": "https://dc.lft.to/lastmile_qr_scan", "android": "https://dc.lft.to/lastmile_qr_scan"}, "bike_id": "c5bc543ec7eff5f0ae097f0586233ded", "lat": 38.82207416666667, "name": "c5bc543ec7eff5f0ae097f0586233ded", "lon": -76.97704066666667, "fusion_lon": 0.0}, {"is_reserved": 0, "type": "electric_scooter", "fusion_lat": 0.0, "is_disabled": 0, "rental_uris": {"ios": "https://dc.lft.to/lastmile_qr_scan", "android": "https://dc.lft.to/lastmile_qr_scan"}, "bike_id": "8dab855eaeaf7f1a17622fccb1094a29", "lat": 38.929444833333335, "name": "8dab855eaeaf7f1a17622fccb1094a29", "lon": -77.03273616666667, "fusion_lon": 0.0}, {"is_reserved": 0, "type": "electric_scooter", "fusion_lat": 0.0, "is_disabled": 0, "rental_uris": {"ios": "https://dc.lft.to/lastmile_qr_scan", "android": "https://dc.lft.to/lastmile_qr_scan"}, "bike_id": "38b64a75ad0f4ed65a9e0826945d3a97", "lat": 38.9173265, "name": "38b64a75ad0f4ed65a9e0826945d3a97", "lon": -77.04597416666667, "fusion_lon": 0.0}, {"is_reserved": 0, "type": "electric_bike", "fusion_lat": 0.0, "is_disabled": 0, "rental_uris": {"ios": "https://dc.lft.to/lastmile_qr_scan", "android": "https://dc.lft.to/lastmile_qr_scan"}, "bike_id": "5049004a3bac7781bc7c8c78a46d6fce", "lat": 38.88028966666667, "name": "5049004a3bac7781bc7c8c78a46d6fce", "lon": -76.98629116666666, "fusion_lon": 0.0}, {"is_reserved": 0, "type": "electric_scooter", "fusion_lat": 0.0, "is_disabled": 0, "rental_uris": {"ios": "https://dc.lft.to/lastmile_qr_scan", "android": "https://dc.lft.to/lastmile_qr_scan"}, "bike_id": "1a1cedca26e6d8169f6b73e0a49119d5", "lat": 38.91470366666667, "name": "1a1cedca26e6d8169f6b73e0a49119d5", "lon": -77.00213933333333, "fusion_lon": 0.0}, {"is_reserved": 0, "type": "electric_scooter", "fusion_lat": 0.0, "is_disabled": 0, "rental_uris": {"ios": "https://dc.lft.to/lastmile_qr_scan", "android": "https://dc.lft.to/lastmile_qr_scan"}, "bike_id": "508e6a36b4275a65d9ffa178d57405eb", "lat": 38.916995666666665, "name": "508e6a36b4275a65d9ffa178d57405eb", "lon": -77.053002, "fusion_lon": 0.0}, {"is_reserved": 0, "type": "electric_scooter", "fusion_lat": 0.0, "is_disabled": 0, "rental_uris": {"ios": "https://dc.lft.to/lastmile_qr_scan", "android": "https://dc.lft.to/lastmile_qr_scan"}, "bike_id": "46bd183e7164bad9a618dc47ddea54dc", "lat": 38.91567383333334, "name": "46bd183e7164bad9a618dc47ddea54dc", "lon": -77.031769, "fusion_lon": 0.0}, {"is_reserved": 0, "type": "electric_scooter", "fusion_lat": 0.0, "is_disabled": 0, "rental_uris": {"ios": "https://dc.lft.to/lastmile_qr_scan", "android": "https://dc.lft.to/lastmile_qr_scan"}, "bike_id": "2f24760885cc916bad133084f786e3a3", "lat": 38.946766, "name": "2f24760885cc916bad133084f786e3a3", "lon": -77.0327745, "fusion_lon": 0.0}, {"is_reserved": 0, "type": "electric_scooter", "fusion_lat": 0.0, "is_disabled": 0, "rental_uris": {"ios": "https://dc.lft.to/lastmile_qr_scan", "android": "https://dc.lft.to/lastmile_qr_scan"}, "bike_id": "39c3c1b7023700ec0216fc2219ca8fc8", "lat": 38.93902466666667, "name": "39c3c1b7023700ec0216fc2219ca8fc8", "lon": -77.03284566666666, "fusion_lon": 0.0}, {"is_reserved": 0, "type": "electric_scooter", "fusion_lat": 0.0, "is_disabled": 0, "rental_uris": {"ios": "https://dc.lft.to/lastmile_qr_scan", "android": "https://dc.lft.to/lastmile_qr_scan"}, "bike_id": "25064863b6fab1d828528c3833bb0177", "lat": 38.89534183333333, "name": "25064863b6fab1d828528c3833bb0177", "lon": -76.94891316666667, "fusion_lon": 0.0}, {"is_reserved": 0, "type": "electric_bike", "fusion_lat": 0.0, "is_disabled": 0, "rental_uris": {"ios": "https://dc.lft.to/lastmile_qr_scan", "android": "https://dc.lft.to/lastmile_qr_scan"}, "bike_id": "fed92043abfa40bf6840e5b2bc70f689", "lat": 38.8133105, "name": "fed92043abfa40bf6840e5b2bc70f689", "lon": -77.05087766666666, "fusion_lon": 0.0}, {"is_reserved": 0, "type": "electric_scooter", "fusion_lat": 0.0, "is_disabled": 0, "rental_uris": {"ios": "https://dc.lft.to/lastmile_qr_scan", "android": "https://dc.lft.to/lastmile_qr_scan"}, "bike_id": "df3b6e1ac8ec594ca497dbf6c077f0ab", "lat": 38.877285, "name": "df3b6e1ac8ec594ca497dbf6c077f0ab", "lon": -77.00580466666666, "fusion_lon": 0.0}, {"is_reserved": 0, "type": "electric_scooter", "fusion_lat": 0.0, "is_disabled": 0, "rental_uris": {"ios": "https://dc.lft.to/lastmile_qr_scan", "android": "https://dc.lft.to/lastmile_qr_scan"}, "bike_id": "4bc2571ab760bda69d7bde0d1f60d474", "lat": 38.9319425, "name": "4bc2571ab760bda69d7bde0d1f60d474", "lon": -77.03263083333333, "fusion_lon": 0.0}, {"is_reserved": 0, "type": "electric_scooter", "fusion_lat": 0.0, "is_disabled": 0, "rental_uris": {"ios": "https://dc.lft.to/lastmile_qr_scan", "android": "https://dc.lft.to/lastmile_qr_scan"}, "bike_id": "6651616b2e8331ef9fa6b70531841ba8", "lat": 38.92291816666667, "name": "6651616b2e8331ef9fa6b70531841ba8", "lon": -77.02072633333333, "fusion_lon": 0.0}, {"is_reserved": 0, "type": "electric_bike", "fusion_lat": 0.0, "is_disabled": 0, "rental_uris": {"ios": "https://dc.lft.to/lastmile_qr_scan", "android": "https://dc.lft.to/lastmile_qr_scan"}, "bike_id": "47e05fdc3cf271629357cd604d9153b1", "lat": 38.9612615, "name": "47e05fdc3cf271629357cd604d9153b1", "lon": -77.03277766666666, "fusion_lon": 0.0}, {"is_reserved": 0, "type": "electric_scooter", "fusion_lat": 0.0, "is_disabled": 0, "rental_uris": {"ios": "https://dc.lft.to/lastmile_qr_scan", "android": "https://dc.lft.to/lastmile_qr_scan"}, "bike_id": "59d51e0af3eb3c787af722ab7c52b4d1", "lat": 38.9133945, "name": "59d51e0af3eb3c787af722ab7c52b4d1", "lon": -77.01068566666666, "fusion_lon": 0.0}, {"is_reserved": 0, "type": "electric_scooter", "fusion_lat": 0.0, "is_disabled": 0, "rental_uris": {"ios": "https://dc.lft.to/lastmile_qr_scan", "android": "https://dc.lft.to/lastmile_qr_scan"}, "bike_id": "a3a9040b9798322343fb998d846fa9f7", "lat": 38.874741666666665, "name": "a3a9040b9798322343fb998d846fa9f7", "lon": -76.99166083333333, "fusion_lon": 0.0}, {"is_reserved": 0, "type": "electric_bike", "fusion_lat": 0.0, "is_disabled": 0, "rental_uris": {"ios": "https://dc.lft.to/lastmile_qr_scan", "android": "https://dc.lft.to/lastmile_qr_scan"}, "bike_id": "55eed5726b800c33a4ec7832ca8428c0", "lat": 38.804026, "name": "55eed5726b800c33a4ec7832ca8428c0", "lon": -77.11340533333333, "fusion_lon": 0.0}, {"is_reserved": 0, "type": "electric_scooter", "fusion_lat": 0.0, "is_disabled": 0, "rental_uris": {"ios": "https://dc.lft.to/lastmile_qr_scan", "android": "https://dc.lft.to/lastmile_qr_scan"}, "bike_id": "7b85a8bef279d8e396d81467c58d16e2", "lat": 38.91780833333333, "name": "7b85a8bef279d8e396d81467c58d16e2", "lon": -77.02315333333334, "fusion_lon": 0.0}, {"is_reserved": 0, "type": "electric_scooter", "fusion_lat": 0.0, "is_disabled": 0, "rental_uris": {"ios": "https://dc.lft.to/lastmile_qr_scan", "android": "https://dc.lft.to/lastmile_qr_scan"}, "bike_id": "efb67e1f1922ed049bed94ee63183dbd", "lat": 38.932624833333335, "name": "efb67e1f1922ed049bed94ee63183dbd", "lon": -77.02093433333333, "fusion_lon": 0.0}, {"is_reserved": 0, "type": "electric_bike", "fusion_lat": 0.0, "is_disabled": 0, "rental_uris": {"ios": "https://dc.lft.to/lastmile_qr_scan", "android": "https://dc.lft.to/lastmile_qr_scan"}, "bike_id": "84c868f751db655e6245d1cd88bb79bd", "lat": 38.855903833333336, "name": "84c868f751db655e6245d1cd88bb79bd", "lon": -76.97289333333333, "fusion_lon": 0.0}, {"is_reserved": 0, "type": "electric_scooter", "fusion_lat": 0.0, "is_disabled": 0, "rental_uris": {"ios": "https://dc.lft.to/lastmile_qr_scan", "android": "https://dc.lft.to/lastmile_qr_scan"}, "bike_id": "0ec8320d15acb31ef148126969656e23", "lat": 38.9090695, "name": "0ec8320d15acb31ef148126969656e23", "lon": -76.99117083333333, "fusion_lon": 0.0}, {"is_reserved": 0, "type": "electric_scooter", "fusion_lat": 0.0, "is_disabled": 0, "rental_uris": {"ios": "https://dc.lft.to/lastmile_qr_scan", "android": "https://dc.lft.to/lastmile_qr_scan"}, "bike_id": "4af289f617940e4e72c80bdeef1c546e", "lat": 38.920587833333336, "name": "4af289f617940e4e72c80bdeef1c546e", "lon": -77.03479866666666, "fusion_lon": 0.0}, {"is_reserved": 0, "type": "electric_scooter", "fusion_lat": 0.0, "is_disabled": 0, "rental_uris": {"ios": "https://dc.lft.to/lastmile_qr_scan", "android": "https://dc.lft.to/lastmile_qr_scan"}, "bike_id": "3b4524044e6a1641fc865f72e0d3f531", "lat": 38.9247495, "name": "3b4524044e6a1641fc865f72e0d3f531", "lon": -77.022235, "fusion_lon": 0.0}, {"is_reserved": 0, "type": "electric_scooter", "fusion_lat": 0.0, "is_disabled": 0, "rental_uris": {"ios": "https://dc.lft.to/lastmile_qr_scan", "android": "https://dc.lft.to/lastmile_qr_scan"}, "bike_id": "53b407534d550ef1a411685ece123da8", "lat": 38.93867516666667, "name": "53b407534d550ef1a411685ece123da8", "lon": -77.0782755, "fusion_lon": 0.0}, {"is_reserved": 0, "type": "electric_scooter", "fusion_lat": 0.0, "is_disabled": 0, "rental_uris": {"ios": "https://dc.lft.to/lastmile_qr_scan", "android": "https://dc.lft.to/lastmile_qr_scan"}, "bike_id": "29ad4cb8b7c03b9f2ecdb2594b54c590", "lat": 38.89227316666667, "name": "29ad4cb8b7c03b9f2ecdb2594b54c590", "lon": -77.0436875, "fusion_lon": 0.0}, {"is_reserved": 0, "type": "electric_scooter", "fusion_lat": 0.0, "is_disabled": 0, "rental_uris": {"ios": "https://dc.lft.to/lastmile_qr_scan", "android": "https://dc.lft.to/lastmile_qr_scan"}, "bike_id": "6d85df2cce481dcd88feed509b585bbf", "lat": 38.92232516666667, "name": "6d85df2cce481dcd88feed509b585bbf", "lon": -76.97532883333334, "fusion_lon": 0.0}, {"is_reserved": 0, "type": "electric_scooter", "fusion_lat": 0.0, "is_disabled": 0, "rental_uris": {"ios": "https://dc.lft.to/lastmile_qr_scan", "android": "https://dc.lft.to/lastmile_qr_scan"}, "bike_id": "47236cbbe75df62c9c34aa058ae8c792", "lat": 38.933952833333336, "name": "47236cbbe75df62c9c34aa058ae8c792", "lon": -77.07383716666666, "fusion_lon": 0.0}, {"is_reserved": 0, "type": "electric_scooter", "fusion_lat": 0.0, "is_disabled": 0, "rental_uris": {"ios": "https://dc.lft.to/lastmile_qr_scan", "android": "https://dc.lft.to/lastmile_qr_scan"}, "bike_id": "4db14a3ab387ed3ff0a3c75db4c0e83e", "lat": 38.90674766666667, "name": "4db14a3ab387ed3ff0a3c75db4c0e83e", "lon": -77.048794, "fusion_lon": 0.0}, {"is_reserved": 0, "type": "electric_scooter", "fusion_lat": 0.0, "is_disabled": 0, "rental_uris": {"ios": "https://dc.lft.to/lastmile_qr_scan", "android": "https://dc.lft.to/lastmile_qr_scan"}, "bike_id": "932427b4dc55ce28608cdf64742427e1", "lat": 38.92668483333333, "name": "932427b4dc55ce28608cdf64742427e1", "lon": -77.0271305, "fusion_lon": 0.0}, {"is_reserved": 0, "type": "electric_scooter", "fusion_lat": 0.0, "is_disabled": 0, "rental_uris": {"ios": "https://dc.lft.to/lastmile_qr_scan", "android": "https://dc.lft.to/lastmile_qr_scan"}, "bike_id": "2ee04d2a37057f33a0937d68ab8107fe", "lat": 38.900738, "name": "2ee04d2a37057f33a0937d68ab8107fe", "lon": -77.0436095, "fusion_lon": 0.0}, {"is_reserved": 0, "type": "electric_scooter", "fusion_lat": 0.0, "is_disabled": 0, "rental_uris": {"ios": "https://dc.lft.to/lastmile_qr_scan", "android": "https://dc.lft.to/lastmile_qr_scan"}, "bike_id": "1fc891a21381fb70e7e311336d56e3a2", "lat": 38.92178883333333, "name": "1fc891a21381fb70e7e311336d56e3a2", "lon": -77.021229, "fusion_lon": 0.0}, {"is_reserved": 0, "type": "electric_scooter", "fusion_lat": 0.0, "is_disabled": 0, "rental_uris": {"ios": "https://dc.lft.to/lastmile_qr_scan", "android": "https://dc.lft.to/lastmile_qr_scan"}, "bike_id": "2238c78811fc1c1a75a3b88780956ca6", "lat": 38.91017516666667, "name": "2238c78811fc1c1a75a3b88780956ca6", "lon": -77.0198985, "fusion_lon": 0.0}, {"is_reserved": 0, "type": "electric_scooter", "fusion_lat": 0.0, "is_disabled": 0, "rental_uris": {"ios": "https://dc.lft.to/lastmile_qr_scan", "android": "https://dc.lft.to/lastmile_qr_scan"}, "bike_id": "01625c179f6150a346ab62ed0803423f", "lat": 38.90321566666667, "name": "01625c179f6150a346ab62ed0803423f", "lon": -76.99128933333333, "fusion_lon": 0.0}, {"is_reserved": 0, "type": "electric_scooter", "fusion_lat": 0.0, "is_disabled": 0, "rental_uris": {"ios": "https://dc.lft.to/lastmile_qr_scan", "android": "https://dc.lft.to/lastmile_qr_scan"}, "bike_id": "33b6d044774c9065ce1fd7810eb35cc6", "lat": 38.96426616666667, "name": "33b6d044774c9065ce1fd7810eb35cc6", "lon": -77.0742655, "fusion_lon": 0.0}, {"is_reserved": 0, "type": "electric_scooter", "fusion_lat": 0.0, "is_disabled": 0, "rental_uris": {"ios": "https://dc.lft.to/lastmile_qr_scan", "android": "https://dc.lft.to/lastmile_qr_scan"}, "bike_id": "69f2a294615ce5c44a771dc2afde1f5a", "lat": 38.902084333333335, "name": "69f2a294615ce5c44a771dc2afde1f5a", "lon": -77.02197533333333, "fusion_lon": 0.0}, {"is_reserved": 0, "type": "electric_scooter", "fusion_lat": 0.0, "is_disabled": 0, "rental_uris": {"ios": "https://dc.lft.to/lastmile_qr_scan", "android": "https://dc.lft.to/lastmile_qr_scan"}, "bike_id": "a058ab7bb190c55237ba5973133dd6d5", "lat": 38.935609, "name": "a058ab7bb190c55237ba5973133dd6d5", "lon": -77.07343, "fusion_lon": 0.0}, {"is_reserved": 0, "type": "electric_scooter", "fusion_lat": 0.0, "is_disabled": 0, "rental_uris": {"ios": "https://dc.lft.to/lastmile_qr_scan", "android": "https://dc.lft.to/lastmile_qr_scan"}, "bike_id": "dcc1efc90a9fd035b8fe10212031e12c", "lat": 38.85717266666666, "name": "dcc1efc90a9fd035b8fe10212031e12c", "lon": -76.98096833333334, "fusion_lon": 0.0}, {"is_reserved": 0, "type": "electric_bike", "fusion_lat": 0.0, "is_disabled": 0, "rental_uris": {"ios": "https://dc.lft.to/lastmile_qr_scan", "android": "https://dc.lft.to/lastmile_qr_scan"}, "bike_id": "00c938098589d18d7303f23caa7181fc", "lat": 38.928073, "name": "00c938098589d18d7303f23caa7181fc", "lon": -77.2295, "fusion_lon": 0.0}, {"is_reserved": 0, "type": "electric_scooter", "fusion_lat": 0.0, "is_disabled": 0, "rental_uris": {"ios": "https://dc.lft.to/lastmile_qr_scan", "android": "https://dc.lft.to/lastmile_qr_scan"}, "bike_id": "8bac94f2806a6df6afc68a233136c993", "lat": 38.927566666666664, "name": "8bac94f2806a6df6afc68a233136c993", "lon": -77.032734, "fusion_lon": 0.0}, {"is_reserved": 0, "type": "electric_scooter", "fusion_lat": 0.0, "is_disabled": 0, "rental_uris": {"ios": "https://dc.lft.to/lastmile_qr_scan", "android": "https://dc.lft.to/lastmile_qr_scan"}, "bike_id": "69c46e5ca9a45dddc7c7e303b1615125", "lat": 38.8854245, "name": "69c46e5ca9a45dddc7c7e303b1615125", "lon": -76.9853805, "fusion_lon": 0.0}, {"is_reserved": 0, "type": "electric_scooter", "fusion_lat": 0.0, "is_disabled": 0, "rental_uris": {"ios": "https://dc.lft.to/lastmile_qr_scan", "android": "https://dc.lft.to/lastmile_qr_scan"}, "bike_id": "3a7b7158b96592556ae40e1ee3099faf", "lat": 38.9472845, "name": "3a7b7158b96592556ae40e1ee3099faf", "lon": -77.026671, "fusion_lon": 0.0}, {"is_reserved": 0, "type": "electric_scooter", "fusion_lat": 0.0, "is_disabled": 0, "rental_uris": {"ios": "https://dc.lft.to/lastmile_qr_scan", "android": "https://dc.lft.to/lastmile_qr_scan"}, "bike_id": "0beb5add628c9cc4faf69ae9f6ec4c13", "lat": 38.91693266666667, "name": "0beb5add628c9cc4faf69ae9f6ec4c13", "lon": -77.05299133333334, "fusion_lon": 0.0}, {"is_reserved": 0, "type": "electric_bike", "fusion_lat": 0.0, "is_disabled": 0, "rental_uris": {"ios": "https://dc.lft.to/lastmile_qr_scan", "android": "https://dc.lft.to/lastmile_qr_scan"}, "bike_id": "17d3af71d880c99ad88379977b5b2caf", "lat": 38.834096833333334, "name": "17d3af71d880c99ad88379977b5b2caf", "lon": -77.05020516666667, "fusion_lon": 0.0}, {"is_reserved": 0, "type": "electric_scooter", "fusion_lat": 0.0, "is_disabled": 0, "rental_uris": {"ios": "https://dc.lft.to/lastmile_qr_scan", "android": "https://dc.lft.to/lastmile_qr_scan"}, "bike_id": "19034684dbbf68ef977144337885a5dd", "lat": 38.91765266666667, "name": "19034684dbbf68ef977144337885a5dd", "lon": -77.01497766666667, "fusion_lon": 0.0}, {"is_reserved": 0, "type": "electric_scooter", "fusion_lat": 0.0, "is_disabled": 0, "rental_uris": {"ios": "https://dc.lft.to/lastmile_qr_scan", "android": "https://dc.lft.to/lastmile_qr_scan"}, "bike_id": "11f8bbdae22424921a18c7d490e7ce3a", "lat": 38.9002425, "name": "11f8bbdae22424921a18c7d490e7ce3a", "lon": -77.04346866666667, "fusion_lon": 0.0}, {"is_reserved": 0, "type": "electric_scooter", "fusion_lat": 0.0, "is_disabled": 0, "rental_uris": {"ios": "https://dc.lft.to/lastmile_qr_scan", "android": "https://dc.lft.to/lastmile_qr_scan"}, "bike_id": "f4897eb5220c0825e0045724cec7b1e9", "lat": 38.89879416666667, "name": "f4897eb5220c0825e0045724cec7b1e9", "lon": -76.93182183333333, "fusion_lon": 0.0}, {"is_reserved": 0, "type": "electric_scooter", "fusion_lat": 0.0, "is_disabled": 0, "rental_uris": {"ios": "https://dc.lft.to/lastmile_qr_scan", "android": "https://dc.lft.to/lastmile_qr_scan"}, "bike_id": "59c92a8ed38e7f1473292e3f235f04a8", "lat": 38.933362833333334, "name": "59c92a8ed38e7f1473292e3f235f04a8", "lon": -77.03884983333333, "fusion_lon": 0.0}, {"is_reserved": 0, "type": "electric_scooter", "fusion_lat": 0.0, "is_disabled": 0, "rental_uris": {"ios": "https://dc.lft.to/lastmile_qr_scan", "android": "https://dc.lft.to/lastmile_qr_scan"}, "bike_id": "f896b5046fd23753504ab2c8f70ff07e", "lat": 38.923437166666666, "name": "f896b5046fd23753504ab2c8f70ff07e", "lon": -77.04032466666666, "fusion_lon": 0.0}, {"is_reserved": 0, "type": "electric_scooter", "fusion_lat": 0.0, "is_disabled": 0, "rental_uris": {"ios": "https://dc.lft.to/lastmile_qr_scan", "android": "https://dc.lft.to/lastmile_qr_scan"}, "bike_id": "81aee628a6391bc68d738908b93ea8aa", "lat": 38.92561233333333, "name": "81aee628a6391bc68d738908b93ea8aa", "lon": -77.05278983333334, "fusion_lon": 0.0}, {"is_reserved": 0, "type": "electric_bike", "fusion_lat": 0.0, "is_disabled": 0, "rental_uris": {"ios": "https://dc.lft.to/lastmile_qr_scan", "android": "https://dc.lft.to/lastmile_qr_scan"}, "bike_id": "8899072ebe050b5052e9f61bc105225e", "lat": 38.963804, "name": "8899072ebe050b5052e9f61bc105225e", "lon": -77.01982, "fusion_lon": 0.0}, {"is_reserved": 0, "type": "electric_scooter", "fusion_lat": 0.0, "is_disabled": 0, "rental_uris": {"ios": "https://dc.lft.to/lastmile_qr_scan", "android": "https://dc.lft.to/lastmile_qr_scan"}, "bike_id": "0ffb61af00e1cfd7b765f44b961b65b0", "lat": 38.924745333333334, "name": "0ffb61af00e1cfd7b765f44b961b65b0", "lon": -77.02843316666667, "fusion_lon": 0.0}, {"is_reserved": 0, "type": "electric_scooter", "fusion_lat": 0.0, "is_disabled": 0, "rental_uris": {"ios": "https://dc.lft.to/lastmile_qr_scan", "android": "https://dc.lft.to/lastmile_qr_scan"}, "bike_id": "f1d48e0208091b4207a5d88cd0c14d6c", "lat": 38.92049983333333, "name": "f1d48e0208091b4207a5d88cd0c14d6c", "lon": -77.0180645, "fusion_lon": 0.0}, {"is_reserved": 0, "type": "electric_scooter", "fusion_lat": 0.0, "is_disabled": 0, "rental_uris": {"ios": "https://dc.lft.to/lastmile_qr_scan", "android": "https://dc.lft.to/lastmile_qr_scan"}, "bike_id": "12e2dc598d3561653ff1283602590149", "lat": 38.89545716666667, "name": "12e2dc598d3561653ff1283602590149", "lon": -76.98339133333333, "fusion_lon": 0.0}, {"is_reserved": 0, "type": "electric_scooter", "fusion_lat": 0.0, "is_disabled": 0, "rental_uris": {"ios": "https://dc.lft.to/lastmile_qr_scan", "android": "https://dc.lft.to/lastmile_qr_scan"}, "bike_id": "965e7e796f5f5807f9c0d033d393f6a2", "lat": 38.884317, "name": "965e7e796f5f5807f9c0d033d393f6a2", "lon": -77.02497483333333, "fusion_lon": 0.0}, {"is_reserved": 0, "type": "electric_scooter", "fusion_lat": 0.0, "is_disabled": 0, "rental_uris": {"ios": "https://dc.lft.to/lastmile_qr_scan", "android": "https://dc.lft.to/lastmile_qr_scan"}, "bike_id": "0d9874f1772fac18413f756bbf8563ee", "lat": 38.928398, "name": "0d9874f1772fac18413f756bbf8563ee", "lon": -77.01405216666667, "fusion_lon": 0.0}, {"is_reserved": 0, "type": "electric_bike", "fusion_lat": 0.0, "is_disabled": 0, "rental_uris": {"ios": "https://dc.lft.to/lastmile_qr_scan", "android": "https://dc.lft.to/lastmile_qr_scan"}, "bike_id": "acdb071639a0dae6e35c1fc3d552fc86", "lat": 39.02649016666667, "name": "acdb071639a0dae6e35c1fc3d552fc86", "lon": -77.036823, "fusion_lon": 0.0}, {"is_reserved": 0, "type": "electric_scooter", "fusion_lat": 0.0, "is_disabled": 0, "rental_uris": {"ios": "https://dc.lft.to/lastmile_qr_scan", "android": "https://dc.lft.to/lastmile_qr_scan"}, "bike_id": "98e76b591099665d1d89d3e7fb69940f", "lat": 38.908739833333335, "name": "98e76b591099665d1d89d3e7fb69940f", "lon": -77.0236055, "fusion_lon": 0.0}, {"is_reserved": 0, "type": "electric_scooter", "fusion_lat": 0.0, "is_disabled": 0, "rental_uris": {"ios": "https://dc.lft.to/lastmile_qr_scan", "android": "https://dc.lft.to/lastmile_qr_scan"}, "bike_id": "3a1e560dda08e8d9db7402b118aeab98", "lat": 38.922034, "name": "3a1e560dda08e8d9db7402b118aeab98", "lon": -77.02043833333333, "fusion_lon": 0.0}, {"is_reserved": 0, "type": "electric_scooter", "fusion_lat": 0.0, "is_disabled": 0, "rental_uris": {"ios": "https://dc.lft.to/lastmile_qr_scan", "android": "https://dc.lft.to/lastmile_qr_scan"}, "bike_id": "55c71d50fb2d2a89c7318264c6fdaae0", "lat": 38.88042983333333, "name": "55c71d50fb2d2a89c7318264c6fdaae0", "lon": -77.017358, "fusion_lon": 0.0}, {"is_reserved": 0, "type": "electric_scooter", "fusion_lat": 0.0, "is_disabled": 0, "rental_uris": {"ios": "https://dc.lft.to/lastmile_qr_scan", "android": "https://dc.lft.to/lastmile_qr_scan"}, "bike_id": "a5f64220c6ab87efceec8600cf923b0a", "lat": 38.914033, "name": "a5f64220c6ab87efceec8600cf923b0a", "lon": -77.02050766666666, "fusion_lon": 0.0}, {"is_reserved": 0, "type": "electric_scooter", "fusion_lat": 0.0, "is_disabled": 0, "rental_uris": {"ios": "https://dc.lft.to/lastmile_qr_scan", "android": "https://dc.lft.to/lastmile_qr_scan"}, "bike_id": "9ad9ebeceec64b4c3e66e82a0443474c", "lat": 38.9238275, "name": "9ad9ebeceec64b4c3e66e82a0443474c", "lon": -77.02957133333334, "fusion_lon": 0.0}, {"is_reserved": 0, "type": "electric_scooter", "fusion_lat": 0.0, "is_disabled": 0, "rental_uris": {"ios": "https://dc.lft.to/lastmile_qr_scan", "android": "https://dc.lft.to/lastmile_qr_scan"}, "bike_id": "9012663c3da42328162845273c77990b", "lat": 38.90091283333334, "name": "9012663c3da42328162845273c77990b", "lon": -76.98334683333333, "fusion_lon": 0.0}, {"is_reserved": 0, "type": "electric_scooter", "fusion_lat": 0.0, "is_disabled": 0, "rental_uris": {"ios": "https://dc.lft.to/lastmile_qr_scan", "android": "https://dc.lft.to/lastmile_qr_scan"}, "bike_id": "bef84d4c0716fb73df2f7c70e51c6ff5", "lat": 38.89745416666667, "name": "bef84d4c0716fb73df2f7c70e51c6ff5", "lon": -76.94693116666667, "fusion_lon": 0.0}, {"is_reserved": 0, "type": "electric_scooter", "fusion_lat": 0.0, "is_disabled": 0, "rental_uris": {"ios": "https://dc.lft.to/lastmile_qr_scan", "android": "https://dc.lft.to/lastmile_qr_scan"}, "bike_id": "579453d66b7c9a182d9a63e820f3c1f1", "lat": 38.927593, "name": "579453d66b7c9a182d9a63e820f3c1f1", "lon": -77.05268683333334, "fusion_lon": 0.0}, {"is_reserved": 0, "type": "electric_scooter", "fusion_lat": 0.0, "is_disabled": 0, "rental_uris": {"ios": "https://dc.lft.to/lastmile_qr_scan", "android": "https://dc.lft.to/lastmile_qr_scan"}, "bike_id": "0fef5c85abb7eac38637342b1b551e25", "lat": 38.88619583333333, "name": "0fef5c85abb7eac38637342b1b551e25", "lon": -76.92635116666666, "fusion_lon": 0.0}, {"is_reserved": 0, "type": "electric_scooter", "fusion_lat": 0.0, "is_disabled": 0, "rental_uris": {"ios": "https://dc.lft.to/lastmile_qr_scan", "android": "https://dc.lft.to/lastmile_qr_scan"}, "bike_id": "5aa345a2273f46bf275e76aa7885a78e", "lat": 38.92806133333333, "name": "5aa345a2273f46bf275e76aa7885a78e", "lon": -77.04331366666666, "fusion_lon": 0.0}, {"is_reserved": 0, "type": "electric_scooter", "fusion_lat": 0.0, "is_disabled": 0, "rental_uris": {"ios": "https://dc.lft.to/lastmile_qr_scan", "android": "https://dc.lft.to/lastmile_qr_scan"}, "bike_id": "cf178a23a2d01e8870fe0e50cf8661a3", "lat": 38.9110815, "name": "cf178a23a2d01e8870fe0e50cf8661a3", "lon": -77.01164933333334, "fusion_lon": 0.0}, {"is_reserved": 0, "type": "electric_scooter", "fusion_lat": 0.0, "is_disabled": 0, "rental_uris": {"ios": "https://dc.lft.to/lastmile_qr_scan", "android": "https://dc.lft.to/lastmile_qr_scan"}, "bike_id": "651e5d04e95c1e78a2fc5dc5bf037c7c", "lat": 38.879208166666665, "name": "651e5d04e95c1e78a2fc5dc5bf037c7c", "lon": -77.02153816666667, "fusion_lon": 0.0}, {"is_reserved": 0, "type": "electric_scooter", "fusion_lat": 0.0, "is_disabled": 0, "rental_uris": {"ios": "https://dc.lft.to/lastmile_qr_scan", "android": "https://dc.lft.to/lastmile_qr_scan"}, "bike_id": "eff1d5dc12867a7e5cb81bcc44920727", "lat": 38.95588016666667, "name": "eff1d5dc12867a7e5cb81bcc44920727", "lon": -77.01782566666667, "fusion_lon": 0.0}, {"is_reserved": 0, "type": "electric_scooter", "fusion_lat": 0.0, "is_disabled": 0, "rental_uris": {"ios": "https://dc.lft.to/lastmile_qr_scan", "android": "https://dc.lft.to/lastmile_qr_scan"}, "bike_id": "78b485ffa157c20a508ac136d57654d5", "lat": 38.873691666666666, "name": "78b485ffa157c20a508ac136d57654d5", "lon": -77.00134333333334, "fusion_lon": 0.0}, {"is_reserved": 0, "type": "electric_scooter", "fusion_lat": 0.0, "is_disabled": 0, "rental_uris": {"ios": "https://dc.lft.to/lastmile_qr_scan", "android": "https://dc.lft.to/lastmile_qr_scan"}, "bike_id": "e1657368adf76d656d1482d456f53677", "lat": 38.932649166666664, "name": "e1657368adf76d656d1482d456f53677", "lon": -77.02097483333333, "fusion_lon": 0.0}, {"is_reserved": 0, "type": "electric_scooter", "fusion_lat": 0.0, "is_disabled": 0, "rental_uris": {"ios": "https://dc.lft.to/lastmile_qr_scan", "android": "https://dc.lft.to/lastmile_qr_scan"}, "bike_id": "ec1120eeb128c0daf413a9ae6820d3bf", "lat": 38.91409433333333, "name": "ec1120eeb128c0daf413a9ae6820d3bf", "lon": -77.0333495, "fusion_lon": 0.0}, {"is_reserved": 0, "type": "electric_scooter", "fusion_lat": 0.0, "is_disabled": 0, "rental_uris": {"ios": "https://dc.lft.to/lastmile_qr_scan", "android": "https://dc.lft.to/lastmile_qr_scan"}, "bike_id": "fa2ff2e6253774267f7e64a2eabfe0ff", "lat": 38.889868, "name": "fa2ff2e6253774267f7e64a2eabfe0ff", "lon": -76.9880875, "fusion_lon": 0.0}, {"is_reserved": 0, "type": "electric_scooter", "fusion_lat": 0.0, "is_disabled": 0, "rental_uris": {"ios": "https://dc.lft.to/lastmile_qr_scan", "android": "https://dc.lft.to/lastmile_qr_scan"}, "bike_id": "5dfd48bcd863c36aea0883a7d381ffb3", "lat": 38.893699166666664, "name": "5dfd48bcd863c36aea0883a7d381ffb3", "lon": -77.01976616666667, "fusion_lon": 0.0}, {"is_reserved": 0, "type": "electric_bike", "fusion_lat": 0.0, "is_disabled": 0, "rental_uris": {"ios": "https://dc.lft.to/lastmile_qr_scan", "android": "https://dc.lft.to/lastmile_qr_scan"}, "bike_id": "7fe38e228dcabec4ea10c7045b6760d7", "lat": 38.88600383333333, "name": "7fe38e228dcabec4ea10c7045b6760d7", "lon": -77.00080316666667, "fusion_lon": 0.0}, {"is_reserved": 0, "type": "electric_scooter", "fusion_lat": 0.0, "is_disabled": 0, "rental_uris": {"ios": "https://dc.lft.to/lastmile_qr_scan", "android": "https://dc.lft.to/lastmile_qr_scan"}, "bike_id": "d5e0abbc35419d4b176030679b0275ca", "lat": 38.92127633333333, "name": "d5e0abbc35419d4b176030679b0275ca", "lon": -77.04432833333334, "fusion_lon": 0.0}, {"is_reserved": 0, "type": "electric_scooter", "fusion_lat": 0.0, "is_disabled": 0, "rental_uris": {"ios": "https://dc.lft.to/lastmile_qr_scan", "android": "https://dc.lft.to/lastmile_qr_scan"}, "bike_id": "5211eb38f2c25dcdcc980ee3f8a017ae", "lat": 38.92152316666667, "name": "5211eb38f2c25dcdcc980ee3f8a017ae", "lon": -77.03465266666667, "fusion_lon": 0.0}, {"is_reserved": 0, "type": "electric_scooter", "fusion_lat": 0.0, "is_disabled": 0, "rental_uris": {"ios": "https://dc.lft.to/lastmile_qr_scan", "android": "https://dc.lft.to/lastmile_qr_scan"}, "bike_id": "e7ea60f7d8ee1f2d53c1ace60b42ffe9", "lat": 38.97240633333333, "name": "e7ea60f7d8ee1f2d53c1ace60b42ffe9", "lon": -77.02716966666667, "fusion_lon": 0.0}, {"is_reserved": 0, "type": "electric_bike", "fusion_lat": 0.0, "is_disabled": 0, "rental_uris": {"ios": "https://dc.lft.to/lastmile_qr_scan", "android": "https://dc.lft.to/lastmile_qr_scan"}, "bike_id": "dbaaf3159d4e8122aa614a2eacf44b44", "lat": 38.89720783333333, "name": "dbaaf3159d4e8122aa614a2eacf44b44", "lon": -76.9723655, "fusion_lon": 0.0}, {"is_reserved": 0, "type": "electric_scooter", "fusion_lat": 0.0, "is_disabled": 0, "rental_uris": {"ios": "https://dc.lft.to/lastmile_qr_scan", "android": "https://dc.lft.to/lastmile_qr_scan"}, "bike_id": "9766d2d05a48adb3e34c38b4b615a81a", "lat": 38.915615333333335, "name": "9766d2d05a48adb3e34c38b4b615a81a", "lon": -77.03671116666666, "fusion_lon": 0.0}, {"is_reserved": 0, "type": "electric_scooter", "fusion_lat": 0.0, "is_disabled": 0, "rental_uris": {"ios": "https://dc.lft.to/lastmile_qr_scan", "android": "https://dc.lft.to/lastmile_qr_scan"}, "bike_id": "80c2262724133e744d1417acbdbef4c3", "lat": 38.89777866666667, "name": "80c2262724133e744d1417acbdbef4c3", "lon": -77.05013483333333, "fusion_lon": 0.0}, {"is_reserved": 0, "type": "electric_scooter", "fusion_lat": 0.0, "is_disabled": 0, "rental_uris": {"ios": "https://dc.lft.to/lastmile_qr_scan", "android": "https://dc.lft.to/lastmile_qr_scan"}, "bike_id": "b21e3751f8c857f2e250b51074f4f9c3", "lat": 38.9486115, "name": "b21e3751f8c857f2e250b51074f4f9c3", "lon": -77.07881966666666, "fusion_lon": 0.0}, {"is_reserved": 0, "type": "electric_scooter", "fusion_lat": 0.0, "is_disabled": 0, "rental_uris": {"ios": "https://dc.lft.to/lastmile_qr_scan", "android": "https://dc.lft.to/lastmile_qr_scan"}, "bike_id": "df8e8f55f888bf81e5674e15dc5bc826", "lat": 38.916546833333335, "name": "df8e8f55f888bf81e5674e15dc5bc826", "lon": -77.04177666666666, "fusion_lon": 0.0}, {"is_reserved": 0, "type": "electric_scooter", "fusion_lat": 0.0, "is_disabled": 0, "rental_uris": {"ios": "https://dc.lft.to/lastmile_qr_scan", "android": "https://dc.lft.to/lastmile_qr_scan"}, "bike_id": "ce385043e34724f40544501c5e67a18b", "lat": 38.92281766666667, "name": "ce385043e34724f40544501c5e67a18b", "lon": -76.997816, "fusion_lon": 0.0}, {"is_reserved": 0, "type": "electric_scooter", "fusion_lat": 0.0, "is_disabled": 0, "rental_uris": {"ios": "https://dc.lft.to/lastmile_qr_scan", "android": "https://dc.lft.to/lastmile_qr_scan"}, "bike_id": "5051db6d4429562f574e8ecab1cae2e0", "lat": 38.896877, "name": "5051db6d4429562f574e8ecab1cae2e0", "lon": -77.04348733333333, "fusion_lon": 0.0}, {"is_reserved": 0, "type": "electric_scooter", "fusion_lat": 0.0, "is_disabled": 0, "rental_uris": {"ios": "https://dc.lft.to/lastmile_qr_scan", "android": "https://dc.lft.to/lastmile_qr_scan"}, "bike_id": "2711b0663d972e212d83b6f7e04a967b", "lat": 38.93439216666667, "name": "2711b0663d972e212d83b6f7e04a967b", "lon": -77.03275633333334, "fusion_lon": 0.0}, {"is_reserved": 0, "type": "electric_scooter", "fusion_lat": 0.0, "is_disabled": 0, "rental_uris": {"ios": "https://dc.lft.to/lastmile_qr_scan", "android": "https://dc.lft.to/lastmile_qr_scan"}, "bike_id": "53891494c3d1e5712389d94b94106693", "lat": 38.880135833333334, "name": "53891494c3d1e5712389d94b94106693", "lon": -76.99740333333334, "fusion_lon": 0.0}, {"is_reserved": 0, "type": "electric_scooter", "fusion_lat": 0.0, "is_disabled": 0, "rental_uris": {"ios": "https://dc.lft.to/lastmile_qr_scan", "android": "https://dc.lft.to/lastmile_qr_scan"}, "bike_id": "49ea12134384d32f2cd2721d12ed632f", "lat": 38.898831333333334, "name": "49ea12134384d32f2cd2721d12ed632f", "lon": -76.93177683333333, "fusion_lon": 0.0}, {"is_reserved": 0, "type": "electric_scooter", "fusion_lat": 0.0, "is_disabled": 0, "rental_uris": {"ios": "https://dc.lft.to/lastmile_qr_scan", "android": "https://dc.lft.to/lastmile_qr_scan"}, "bike_id": "2c7a8b0e9ac8d93e2b59939a9a502089", "lat": 38.91329483333333, "name": "2c7a8b0e9ac8d93e2b59939a9a502089", "lon": -77.03038333333333, "fusion_lon": 0.0}, {"is_reserved": 0, "type": "electric_scooter", "fusion_lat": 0.0, "is_disabled": 0, "rental_uris": {"ios": "https://dc.lft.to/lastmile_qr_scan", "android": "https://dc.lft.to/lastmile_qr_scan"}, "bike_id": "0a5d521470c52172f0e40efe413eb6c0", "lat": 38.9057865, "name": "0a5d521470c52172f0e40efe413eb6c0", "lon": -77.0445755, "fusion_lon": 0.0}, {"is_reserved": 0, "type": "electric_bike", "fusion_lat": 0.0, "is_disabled": 0, "rental_uris": {"ios": "https://dc.lft.to/lastmile_qr_scan", "android": "https://dc.lft.to/lastmile_qr_scan"}, "bike_id": "ee8583254ec032ac754f8e3d23bfab4e", "lat": 38.968945833333336, "name": "ee8583254ec032ac754f8e3d23bfab4e", "lon": -76.95568283333333, "fusion_lon": 0.0}, {"is_reserved": 0, "type": "electric_scooter", "fusion_lat": 0.0, "is_disabled": 0, "rental_uris": {"ios": "https://dc.lft.to/lastmile_qr_scan", "android": "https://dc.lft.to/lastmile_qr_scan"}, "bike_id": "c72536201a6b645f1b0df73702a472e9", "lat": 38.931927333333334, "name": "c72536201a6b645f1b0df73702a472e9", "lon": -77.01987266666667, "fusion_lon": 0.0}, {"is_reserved": 0, "type": "electric_scooter", "fusion_lat": 0.0, "is_disabled": 0, "rental_uris": {"ios": "https://dc.lft.to/lastmile_qr_scan", "android": "https://dc.lft.to/lastmile_qr_scan"}, "bike_id": "8bb4b57d687a07fe20c0085b0b03d0f6", "lat": 38.881756333333335, "name": "8bb4b57d687a07fe20c0085b0b03d0f6", "lon": -77.01769466666667, "fusion_lon": 0.0}, {"is_reserved": 0, "type": "electric_scooter", "fusion_lat": 0.0, "is_disabled": 0, "rental_uris": {"ios": "https://dc.lft.to/lastmile_qr_scan", "android": "https://dc.lft.to/lastmile_qr_scan"}, "bike_id": "d83c7fda16c06d28e6097a75e7c9c756", "lat": 38.9105175, "name": "d83c7fda16c06d28e6097a75e7c9c756", "lon": -77.04345616666667, "fusion_lon": 0.0}, {"is_reserved": 0, "type": "electric_scooter", "fusion_lat": 0.0, "is_disabled": 0, "rental_uris": {"ios": "https://dc.lft.to/lastmile_qr_scan", "android": "https://dc.lft.to/lastmile_qr_scan"}, "bike_id": "975509a8a3eb4cf6a656eec2d24ef3b0", "lat": 38.91916333333333, "name": "975509a8a3eb4cf6a656eec2d24ef3b0", "lon": -77.011693, "fusion_lon": 0.0}, {"is_reserved": 0, "type": "electric_scooter", "fusion_lat": 0.0, "is_disabled": 0, "rental_uris": {"ios": "https://dc.lft.to/lastmile_qr_scan", "android": "https://dc.lft.to/lastmile_qr_scan"}, "bike_id": "d89b11287e4c625b77fe0eb089d9be21", "lat": 38.89866766666667, "name": "d89b11287e4c625b77fe0eb089d9be21", "lon": -77.04651216666667, "fusion_lon": 0.0}, {"is_reserved": 0, "type": "electric_scooter", "fusion_lat": 0.0, "is_disabled": 0, "rental_uris": {"ios": "https://dc.lft.to/lastmile_qr_scan", "android": "https://dc.lft.to/lastmile_qr_scan"}, "bike_id": "ebf5f091fc256ff2c3c39984e2b52147", "lat": 38.894336, "name": "ebf5f091fc256ff2c3c39984e2b52147", "lon": -77.04465966666666, "fusion_lon": 0.0}, {"is_reserved": 0, "type": "electric_scooter", "fusion_lat": 0.0, "is_disabled": 0, "rental_uris": {"ios": "https://dc.lft.to/lastmile_qr_scan", "android": "https://dc.lft.to/lastmile_qr_scan"}, "bike_id": "4f94611d137b71efd299f3911281b4cc", "lat": 38.927957666666664, "name": "4f94611d137b71efd299f3911281b4cc", "lon": -77.031511, "fusion_lon": 0.0}, {"is_reserved": 0, "type": "electric_scooter", "fusion_lat": 0.0, "is_disabled": 0, "rental_uris": {"ios": "https://dc.lft.to/lastmile_qr_scan", "android": "https://dc.lft.to/lastmile_qr_scan"}, "bike_id": "3e870da9b1b2f042a39e11df993cf273", "lat": 38.88608516666667, "name": "3e870da9b1b2f042a39e11df993cf273", "lon": -77.00340066666666, "fusion_lon": 0.0}, {"is_reserved": 0, "type": "electric_scooter", "fusion_lat": 0.0, "is_disabled": 0, "rental_uris": {"ios": "https://dc.lft.to/lastmile_qr_scan", "android": "https://dc.lft.to/lastmile_qr_scan"}, "bike_id": "e0e6ba218c346675f235bef930bcb96f", "lat": 38.87665583333333, "name": "e0e6ba218c346675f235bef930bcb96f", "lon": -77.003247, "fusion_lon": 0.0}, {"is_reserved": 0, "type": "electric_scooter", "fusion_lat": 0.0, "is_disabled": 0, "rental_uris": {"ios": "https://dc.lft.to/lastmile_qr_scan", "android": "https://dc.lft.to/lastmile_qr_scan"}, "bike_id": "cdf252b41867ad22ad3ff78412dc2a38", "lat": 38.92367816666667, "name": "cdf252b41867ad22ad3ff78412dc2a38", "lon": -77.02978166666666, "fusion_lon": 0.0}, {"is_reserved": 0, "type": "electric_scooter", "fusion_lat": 0.0, "is_disabled": 0, "rental_uris": {"ios": "https://dc.lft.to/lastmile_qr_scan", "android": "https://dc.lft.to/lastmile_qr_scan"}, "bike_id": "eecd31ff4c554e2fe9158996176da3f6", "lat": 38.9280465, "name": "eecd31ff4c554e2fe9158996176da3f6", "lon": -77.023902, "fusion_lon": 0.0}, {"is_reserved": 0, "type": "electric_scooter", "fusion_lat": 0.0, "is_disabled": 0, "rental_uris": {"ios": "https://dc.lft.to/lastmile_qr_scan", "android": "https://dc.lft.to/lastmile_qr_scan"}, "bike_id": "023a0a71bfe44e19bda259dacc628a1b", "lat": 38.898543333333336, "name": "023a0a71bfe44e19bda259dacc628a1b", "lon": -76.9903995, "fusion_lon": 0.0}, {"is_reserved": 0, "type": "electric_bike", "fusion_lat": 0.0, "is_disabled": 0, "rental_uris": {"ios": "https://dc.lft.to/lastmile_qr_scan", "android": "https://dc.lft.to/lastmile_qr_scan"}, "bike_id": "f5e9e0b837d966bebe097b30b48371d3", "lat": 39.084354166666664, "name": "f5e9e0b837d966bebe097b30b48371d3", "lon": -76.95144516666667, "fusion_lon": 0.0}, {"is_reserved": 0, "type": "electric_scooter", "fusion_lat": 0.0, "is_disabled": 0, "rental_uris": {"ios": "https://dc.lft.to/lastmile_qr_scan", "android": "https://dc.lft.to/lastmile_qr_scan"}, "bike_id": "219f165ef9ff01cfd64f33a3a211ad26", "lat": 38.92678016666667, "name": "219f165ef9ff01cfd64f33a3a211ad26", "lon": -77.00875616666667, "fusion_lon": 0.0}, {"is_reserved": 0, "type": "electric_scooter", "fusion_lat": 0.0, "is_disabled": 0, "rental_uris": {"ios": "https://dc.lft.to/lastmile_qr_scan", "android": "https://dc.lft.to/lastmile_qr_scan"}, "bike_id": "eeb983be456ededd731217419dd5d5ac", "lat": 38.9012205, "name": "eeb983be456ededd731217419dd5d5ac", "lon": -77.05144716666666, "fusion_lon": 0.0}, {"is_reserved": 0, "type": "electric_bike", "fusion_lat": 0.0, "is_disabled": 0, "rental_uris": {"ios": "https://dc.lft.to/lastmile_qr_scan", "android": "https://dc.lft.to/lastmile_qr_scan"}, "bike_id": "4b0915e0ae2c0c1c7a797725234d2d99", "lat": 38.883747, "name": "4b0915e0ae2c0c1c7a797725234d2d99", "lon": -76.9237295, "fusion_lon": 0.0}, {"is_reserved": 0, "type": "electric_scooter", "fusion_lat": 0.0, "is_disabled": 0, "rental_uris": {"ios": "https://dc.lft.to/lastmile_qr_scan", "android": "https://dc.lft.to/lastmile_qr_scan"}, "bike_id": "a9e423ab095f13ac7b36fcf3665f2d62", "lat": 38.9241745, "name": "a9e423ab095f13ac7b36fcf3665f2d62", "lon": -77.01947466666667, "fusion_lon": 0.0}, {"is_reserved": 0, "type": "electric_scooter", "fusion_lat": 0.0, "is_disabled": 0, "rental_uris": {"ios": "https://dc.lft.to/lastmile_qr_scan", "android": "https://dc.lft.to/lastmile_qr_scan"}, "bike_id": "afb3a52bb018254ddad606796bc78ac6", "lat": 38.93159333333333, "name": "afb3a52bb018254ddad606796bc78ac6", "lon": -77.056086, "fusion_lon": 0.0}, {"is_reserved": 0, "type": "electric_scooter", "fusion_lat": 0.0, "is_disabled": 0, "rental_uris": {"ios": "https://dc.lft.to/lastmile_qr_scan", "android": "https://dc.lft.to/lastmile_qr_scan"}, "bike_id": "1f810adf6897dd8bae47477bce5d1a5c", "lat": 38.907364, "name": "1f810adf6897dd8bae47477bce5d1a5c", "lon": -77.04506916666666, "fusion_lon": 0.0}, {"is_reserved": 0, "type": "electric_scooter", "fusion_lat": 0.0, "is_disabled": 0, "rental_uris": {"ios": "https://dc.lft.to/lastmile_qr_scan", "android": "https://dc.lft.to/lastmile_qr_scan"}, "bike_id": "6d7b9db43853ab43b4456e4e543747af", "lat": 38.90390216666667, "name": "6d7b9db43853ab43b4456e4e543747af", "lon": -77.0508795, "fusion_lon": 0.0}, {"is_reserved": 0, "type": "electric_scooter", "fusion_lat": 0.0, "is_disabled": 0, "rental_uris": {"ios": "https://dc.lft.to/lastmile_qr_scan", "android": "https://dc.lft.to/lastmile_qr_scan"}, "bike_id": "05e6ce2317e43f4f423a4b0e079f3451", "lat": 38.883925166666664, "name": "05e6ce2317e43f4f423a4b0e079f3451", "lon": -76.93043916666667, "fusion_lon": 0.0}, {"is_reserved": 0, "type": "electric_scooter", "fusion_lat": 0.0, "is_disabled": 0, "rental_uris": {"ios": "https://dc.lft.to/lastmile_qr_scan", "android": "https://dc.lft.to/lastmile_qr_scan"}, "bike_id": "5b116390ed0e56b760a6c241c7d7fea8", "lat": 38.90360066666667, "name": "5b116390ed0e56b760a6c241c7d7fea8", "lon": -77.0056885, "fusion_lon": 0.0}, {"is_reserved": 0, "type": "electric_bike", "fusion_lat": 0.0, "is_disabled": 0, "rental_uris": {"ios": "https://dc.lft.to/lastmile_qr_scan", "android": "https://dc.lft.to/lastmile_qr_scan"}, "bike_id": "e234c93da06b97f9478aad9be47433db", "lat": 38.857888333333335, "name": "e234c93da06b97f9478aad9be47433db", "lon": -77.09960983333333, "fusion_lon": 0.0}, {"is_reserved": 0, "type": "electric_scooter", "fusion_lat": 0.0, "is_disabled": 0, "rental_uris": {"ios": "https://dc.lft.to/lastmile_qr_scan", "android": "https://dc.lft.to/lastmile_qr_scan"}, "bike_id": "484e33d3ca62a9f34b2d1adf1ba469f2", "lat": 38.9067055, "name": "484e33d3ca62a9f34b2d1adf1ba469f2", "lon": -77.027094, "fusion_lon": 0.0}, {"is_reserved": 0, "type": "electric_scooter", "fusion_lat": 0.0, "is_disabled": 0, "rental_uris": {"ios": "https://dc.lft.to/lastmile_qr_scan", "android": "https://dc.lft.to/lastmile_qr_scan"}, "bike_id": "78978b777bce6ecaf8b9cf689a43f566", "lat": 38.91565083333333, "name": "78978b777bce6ecaf8b9cf689a43f566", "lon": -77.04009766666667, "fusion_lon": 0.0}, {"is_reserved": 0, "type": "electric_scooter", "fusion_lat": 0.0, "is_disabled": 0, "rental_uris": {"ios": "https://dc.lft.to/lastmile_qr_scan", "android": "https://dc.lft.to/lastmile_qr_scan"}, "bike_id": "025a838e91f3c5bbd59f2aaeea6e15aa", "lat": 38.89892416666667, "name": "025a838e91f3c5bbd59f2aaeea6e15aa", "lon": -77.02265416666667, "fusion_lon": 0.0}, {"is_reserved": 0, "type": "electric_bike", "fusion_lat": 0.0, "is_disabled": 0, "rental_uris": {"ios": "https://dc.lft.to/lastmile_qr_scan", "android": "https://dc.lft.to/lastmile_qr_scan"}, "bike_id": "a7b2a5683b463f2c1206052ad91e86e6", "lat": 38.956837166666666, "name": "a7b2a5683b463f2c1206052ad91e86e6", "lon": -77.022287, "fusion_lon": 0.0}, {"is_reserved": 0, "type": "electric_scooter", "fusion_lat": 0.0, "is_disabled": 0, "rental_uris": {"ios": "https://dc.lft.to/lastmile_qr_scan", "android": "https://dc.lft.to/lastmile_qr_scan"}, "bike_id": "134a6613d09facb6c9a527be2ab359ac", "lat": 38.91268633333333, "name": "134a6613d09facb6c9a527be2ab359ac", "lon": -77.03670816666667, "fusion_lon": 0.0}, {"is_reserved": 0, "type": "electric_scooter", "fusion_lat": 0.0, "is_disabled": 0, "rental_uris": {"ios": "https://dc.lft.to/lastmile_qr_scan", "android": "https://dc.lft.to/lastmile_qr_scan"}, "bike_id": "1f6717fdfadf7997fdafe3d38f3fcd81", "lat": 38.94327283333333, "name": "1f6717fdfadf7997fdafe3d38f3fcd81", "lon": -77.013111, "fusion_lon": 0.0}, {"is_reserved": 0, "type": "electric_scooter", "fusion_lat": 0.0, "is_disabled": 0, "rental_uris": {"ios": "https://dc.lft.to/lastmile_qr_scan", "android": "https://dc.lft.to/lastmile_qr_scan"}, "bike_id": "bf087c78a20197ec288440664f9edf69", "lat": 38.899680833333335, "name": "bf087c78a20197ec288440664f9edf69", "lon": -77.02583483333333, "fusion_lon": 0.0}, {"is_reserved": 0, "type": "electric_scooter", "fusion_lat": 0.0, "is_disabled": 0, "rental_uris": {"ios": "https://dc.lft.to/lastmile_qr_scan", "android": "https://dc.lft.to/lastmile_qr_scan"}, "bike_id": "c8d1407490aad6c32ec7b02509fec6e8", "lat": 38.937000833333336, "name": "c8d1407490aad6c32ec7b02509fec6e8", "lon": -77.0560225, "fusion_lon": 0.0}, {"is_reserved": 0, "type": "electric_scooter", "fusion_lat": 0.0, "is_disabled": 0, "rental_uris": {"ios": "https://dc.lft.to/lastmile_qr_scan", "android": "https://dc.lft.to/lastmile_qr_scan"}, "bike_id": "8834056e12cf532171da66b2027dcc77", "lat": 38.893321666666665, "name": "8834056e12cf532171da66b2027dcc77", "lon": -76.93932, "fusion_lon": 0.0}, {"is_reserved": 0, "type": "electric_scooter", "fusion_lat": 0.0, "is_disabled": 0, "rental_uris": {"ios": "https://dc.lft.to/lastmile_qr_scan", "android": "https://dc.lft.to/lastmile_qr_scan"}, "bike_id": "f38f45f724bd03349eb7be5089db9e9f", "lat": 38.912733333333335, "name": "f38f45f724bd03349eb7be5089db9e9f", "lon": -77.01026466666667, "fusion_lon": 0.0}, {"is_reserved": 0, "type": "electric_scooter", "fusion_lat": 0.0, "is_disabled": 0, "rental_uris": {"ios": "https://dc.lft.to/lastmile_qr_scan", "android": "https://dc.lft.to/lastmile_qr_scan"}, "bike_id": "c1d198e9f74f710daac49583e6545cf7", "lat": 38.908612, "name": "c1d198e9f74f710daac49583e6545cf7", "lon": -77.04163766666667, "fusion_lon": 0.0}, {"is_reserved": 0, "type": "electric_scooter", "fusion_lat": 0.0, "is_disabled": 0, "rental_uris": {"ios": "https://dc.lft.to/lastmile_qr_scan", "android": "https://dc.lft.to/lastmile_qr_scan"}, "bike_id": "3b6cebb5326a962a9c8e188e6af2616b", "lat": 38.8858225, "name": "3b6cebb5326a962a9c8e188e6af2616b", "lon": -77.01227816666666, "fusion_lon": 0.0}, {"is_reserved": 0, "type": "electric_scooter", "fusion_lat": 0.0, "is_disabled": 0, "rental_uris": {"ios": "https://dc.lft.to/lastmile_qr_scan", "android": "https://dc.lft.to/lastmile_qr_scan"}, "bike_id": "78839707f305062dc094df13a9b9ae94", "lat": 38.95255866666667, "name": "78839707f305062dc094df13a9b9ae94", "lon": -77.02076333333333, "fusion_lon": 0.0}, {"is_reserved": 0, "type": "electric_scooter", "fusion_lat": 0.0, "is_disabled": 0, "rental_uris": {"ios": "https://dc.lft.to/lastmile_qr_scan", "android": "https://dc.lft.to/lastmile_qr_scan"}, "bike_id": "8286677726b7c1b16eb6419149cc5cd7", "lat": 38.923613833333334, "name": "8286677726b7c1b16eb6419149cc5cd7", "lon": -77.0523815, "fusion_lon": 0.0}, {"is_reserved": 0, "type": "electric_bike", "fusion_lat": 0.0, "is_disabled": 0, "rental_uris": {"ios": "https://dc.lft.to/lastmile_qr_scan", "android": "https://dc.lft.to/lastmile_qr_scan"}, "bike_id": "156945fc1b2c4ff757bba3340da3f8b1", "lat": 38.838697, "name": "156945fc1b2c4ff757bba3340da3f8b1", "lon": -76.99695533333333, "fusion_lon": 0.0}, {"is_reserved": 0, "type": "electric_scooter", "fusion_lat": 0.0, "is_disabled": 0, "rental_uris": {"ios": "https://dc.lft.to/lastmile_qr_scan", "android": "https://dc.lft.to/lastmile_qr_scan"}, "bike_id": "857ec6010df50f7ed6d621a498dc2185", "lat": 38.93485066666667, "name": "857ec6010df50f7ed6d621a498dc2185", "lon": -77.036389, "fusion_lon": 0.0}, {"is_reserved": 0, "type": "electric_bike", "fusion_lat": 0.0, "is_disabled": 0, "rental_uris": {"ios": "https://dc.lft.to/lastmile_qr_scan", "android": "https://dc.lft.to/lastmile_qr_scan"}, "bike_id": "5b16fc86c65613c4ea403d2984acfd2c", "lat": 38.90377, "name": "5b16fc86c65613c4ea403d2984acfd2c", "lon": -76.93742966666667, "fusion_lon": 0.0}, {"is_reserved": 0, "type": "electric_scooter", "fusion_lat": 0.0, "is_disabled": 0, "rental_uris": {"ios": "https://dc.lft.to/lastmile_qr_scan", "android": "https://dc.lft.to/lastmile_qr_scan"}, "bike_id": "ebd076e2c1803924934e70b34e2c0c84", "lat": 38.915633166666666, "name": "ebd076e2c1803924934e70b34e2c0c84", "lon": -77.04091116666666, "fusion_lon": 0.0}, {"is_reserved": 0, "type": "electric_scooter", "fusion_lat": 0.0, "is_disabled": 0, "rental_uris": {"ios": "https://dc.lft.to/lastmile_qr_scan", "android": "https://dc.lft.to/lastmile_qr_scan"}, "bike_id": "098765896ab9082bd3953d06234ac4bf", "lat": 38.936012, "name": "098765896ab9082bd3953d06234ac4bf", "lon": -77.056002, "fusion_lon": 0.0}, {"is_reserved": 0, "type": "electric_scooter", "fusion_lat": 0.0, "is_disabled": 0, "rental_uris": {"ios": "https://dc.lft.to/lastmile_qr_scan", "android": "https://dc.lft.to/lastmile_qr_scan"}, "bike_id": "178d9eba28a09d1f9e489cfa3f795ddb", "lat": 38.903793, "name": "178d9eba28a09d1f9e489cfa3f795ddb", "lon": -77.00752666666666, "fusion_lon": 0.0}, {"is_reserved": 0, "type": "electric_scooter", "fusion_lat": 0.0, "is_disabled": 0, "rental_uris": {"ios": "https://dc.lft.to/lastmile_qr_scan", "android": "https://dc.lft.to/lastmile_qr_scan"}, "bike_id": "e1f510c884c6083c8201d857f86a5b18", "lat": 38.921275666666666, "name": "e1f510c884c6083c8201d857f86a5b18", "lon": -77.04429066666667, "fusion_lon": 0.0}, {"is_reserved": 0, "type": "electric_scooter", "fusion_lat": 0.0, "is_disabled": 0, "rental_uris": {"ios": "https://dc.lft.to/lastmile_qr_scan", "android": "https://dc.lft.to/lastmile_qr_scan"}, "bike_id": "e1cc0d8d288ab901680f1e66fdda4f3f", "lat": 38.90356933333333, "name": "e1cc0d8d288ab901680f1e66fdda4f3f", "lon": -77.06006716666667, "fusion_lon": 0.0}, {"is_reserved": 0, "type": "electric_scooter", "fusion_lat": 0.0, "is_disabled": 0, "rental_uris": {"ios": "https://dc.lft.to/lastmile_qr_scan", "android": "https://dc.lft.to/lastmile_qr_scan"}, "bike_id": "a7753fcb990f439cf32e313015466851", "lat": 38.899380666666666, "name": "a7753fcb990f439cf32e313015466851", "lon": -77.0539745, "fusion_lon": 0.0}, {"is_reserved": 0, "type": "electric_scooter", "fusion_lat": 0.0, "is_disabled": 0, "rental_uris": {"ios": "https://dc.lft.to/lastmile_qr_scan", "android": "https://dc.lft.to/lastmile_qr_scan"}, "bike_id": "41d8f6f9924151ecda4770b63672c696", "lat": 38.8852985, "name": "41d8f6f9924151ecda4770b63672c696", "lon": -76.98051, "fusion_lon": 0.0}, {"is_reserved": 0, "type": "electric_bike", "fusion_lat": 0.0, "is_disabled": 0, "rental_uris": {"ios": "https://dc.lft.to/lastmile_qr_scan", "android": "https://dc.lft.to/lastmile_qr_scan"}, "bike_id": "03887acd8bb7ccf4759a7c8ca9b94955", "lat": 39.00533716666666, "name": "03887acd8bb7ccf4759a7c8ca9b94955", "lon": -77.10402333333333, "fusion_lon": 0.0}, {"is_reserved": 0, "type": "electric_scooter", "fusion_lat": 0.0, "is_disabled": 0, "rental_uris": {"ios": "https://dc.lft.to/lastmile_qr_scan", "android": "https://dc.lft.to/lastmile_qr_scan"}, "bike_id": "b5e4e78a864805074c0d082b6ac6f0fe", "lat": 38.905729666666666, "name": "b5e4e78a864805074c0d082b6ac6f0fe", "lon": -77.03114266666667, "fusion_lon": 0.0}, {"is_reserved": 0, "type": "electric_scooter", "fusion_lat": 0.0, "is_disabled": 0, "rental_uris": {"ios": "https://dc.lft.to/lastmile_qr_scan", "android": "https://dc.lft.to/lastmile_qr_scan"}, "bike_id": "153a1bb3408210169c4a62dfdbb445cd", "lat": 38.9297015, "name": "153a1bb3408210169c4a62dfdbb445cd", "lon": -77.02345666666666, "fusion_lon": 0.0}, {"is_reserved": 0, "type": "electric_scooter", "fusion_lat": 0.0, "is_disabled": 0, "rental_uris": {"ios": "https://dc.lft.to/lastmile_qr_scan", "android": "https://dc.lft.to/lastmile_qr_scan"}, "bike_id": "408f9ca7aeceec98935dd4c0916cc90c", "lat": 38.9146995, "name": "408f9ca7aeceec98935dd4c0916cc90c", "lon": -77.00923883333333, "fusion_lon": 0.0}, {"is_reserved": 0, "type": "electric_bike", "fusion_lat": 0.0, "is_disabled": 0, "rental_uris": {"ios": "https://dc.lft.to/lastmile_qr_scan", "android": "https://dc.lft.to/lastmile_qr_scan"}, "bike_id": "7ae70da9326a440782b4954b2f940028", "lat": 38.86513033333333, "name": "7ae70da9326a440782b4954b2f940028", "lon": -76.97341266666666, "fusion_lon": 0.0}, {"is_reserved": 0, "type": "electric_scooter", "fusion_lat": 0.0, "is_disabled": 0, "rental_uris": {"ios": "https://dc.lft.to/lastmile_qr_scan", "android": "https://dc.lft.to/lastmile_qr_scan"}, "bike_id": "a0fb88fad30586dee05c633b762f5ee7", "lat": 38.89850416666667, "name": "a0fb88fad30586dee05c633b762f5ee7", "lon": -76.994892, "fusion_lon": 0.0}, {"is_reserved": 0, "type": "electric_scooter", "fusion_lat": 0.0, "is_disabled": 0, "rental_uris": {"ios": "https://dc.lft.to/lastmile_qr_scan", "android": "https://dc.lft.to/lastmile_qr_scan"}, "bike_id": "cf19e9e513b04473f81a53aec9373d0e", "lat": 38.8977055, "name": "cf19e9e513b04473f81a53aec9373d0e", "lon": -77.012125, "fusion_lon": 0.0}, {"is_reserved": 0, "type": "electric_scooter", "fusion_lat": 0.0, "is_disabled": 0, "rental_uris": {"ios": "https://dc.lft.to/lastmile_qr_scan", "android": "https://dc.lft.to/lastmile_qr_scan"}, "bike_id": "27f3e66d26e4f69422b0a70564f984ae", "lat": 38.91461433333333, "name": "27f3e66d26e4f69422b0a70564f984ae", "lon": -77.02290233333333, "fusion_lon": 0.0}, {"is_reserved": 0, "type": "electric_bike", "fusion_lat": 0.0, "is_disabled": 0, "rental_uris": {"ios": "https://dc.lft.to/lastmile_qr_scan", "android": "https://dc.lft.to/lastmile_qr_scan"}, "bike_id": "c69f19f2bd0d6a1e9c5be96b084c638f", "lat": 38.8774035, "name": "c69f19f2bd0d6a1e9c5be96b084c638f", "lon": -77.148707, "fusion_lon": 0.0}, {"is_reserved": 0, "type": "electric_scooter", "fusion_lat": 0.0, "is_disabled": 0, "rental_uris": {"ios": "https://dc.lft.to/lastmile_qr_scan", "android": "https://dc.lft.to/lastmile_qr_scan"}, "bike_id": "f65c391821a903844bb8fd24748aab57", "lat": 38.919541333333335, "name": "f65c391821a903844bb8fd24748aab57", "lon": -77.0250605, "fusion_lon": 0.0}, {"is_reserved": 0, "type": "electric_scooter", "fusion_lat": 0.0, "is_disabled": 0, "rental_uris": {"ios": "https://dc.lft.to/lastmile_qr_scan", "android": "https://dc.lft.to/lastmile_qr_scan"}, "bike_id": "07181afd392f5c71cb73d0f519cc43f0", "lat": 38.907606333333334, "name": "07181afd392f5c71cb73d0f519cc43f0", "lon": -77.0169925, "fusion_lon": 0.0}, {"is_reserved": 0, "type": "electric_scooter", "fusion_lat": 0.0, "is_disabled": 0, "rental_uris": {"ios": "https://dc.lft.to/lastmile_qr_scan", "android": "https://dc.lft.to/lastmile_qr_scan"}, "bike_id": "923c5a95b2b20e18382f3326b156254f", "lat": 38.8783035, "name": "923c5a95b2b20e18382f3326b156254f", "lon": -77.00857416666666, "fusion_lon": 0.0}, {"is_reserved": 0, "type": "electric_scooter", "fusion_lat": 0.0, "is_disabled": 0, "rental_uris": {"ios": "https://dc.lft.to/lastmile_qr_scan", "android": "https://dc.lft.to/lastmile_qr_scan"}, "bike_id": "9385e2eb9dc36900054674c5877ad417", "lat": 38.885197, "name": "9385e2eb9dc36900054674c5877ad417", "lon": -76.99618033333333, "fusion_lon": 0.0}, {"is_reserved": 0, "type": "electric_scooter", "fusion_lat": 0.0, "is_disabled": 0, "rental_uris": {"ios": "https://dc.lft.to/lastmile_qr_scan", "android": "https://dc.lft.to/lastmile_qr_scan"}, "bike_id": "93fe363833a580f8792181d2c1190c94", "lat": 38.8792275, "name": "93fe363833a580f8792181d2c1190c94", "lon": -77.01332716666667, "fusion_lon": 0.0}, {"is_reserved": 0, "type": "electric_bike", "fusion_lat": 0.0, "is_disabled": 0, "rental_uris": {"ios": "https://dc.lft.to/lastmile_qr_scan", "android": "https://dc.lft.to/lastmile_qr_scan"}, "bike_id": "454abc677c7e88296ea80b38ab7e55b3", "lat": 38.967768166666666, "name": "454abc677c7e88296ea80b38ab7e55b3", "lon": -76.9965465, "fusion_lon": 0.0}, {"is_reserved": 0, "type": "electric_scooter", "fusion_lat": 0.0, "is_disabled": 0, "rental_uris": {"ios": "https://dc.lft.to/lastmile_qr_scan", "android": "https://dc.lft.to/lastmile_qr_scan"},