{"data": {"bikes": [{"is_disabled": 0, "fusion_lat": 0.0, "lat": 38.9105145, "type": "electric_scooter", "lon": -77.01523783333333, "is_reserved": 0, "fusion_lon": 0.0, "bike_id": "5dd23eb81a894a772396688899ace741", "name": "5dd23eb81a894a772396688899ace741", "rental_uris": {"ios": "https://dc.lft.to/lastmile_qr_scan", "android": "https://dc.lft.to/lastmile_qr_scan"}}, {"is_disabled": 0, "fusion_lat": 0.0, "lat": 38.933581, "type": "electric_scooter", "lon": -77.05716666666666, "is_reserved": 0, "fusion_lon": 0.0, "bike_id": "2d37887ca178546b14501c349a02ff73", "name": "2d37887ca178546b14501c349a02ff73", "rental_uris": {"ios": "https://dc.lft.to/lastmile_qr_scan", "android": "https://dc.lft.to/lastmile_qr_scan"}}, {"is_disabled": 0, "fusion_lat": 0.0, "lat": 38.918246833333335, "type": "electric_scooter", "lon": -77.03841183333333, "is_reserved": 0, "fusion_lon": 0.0, "bike_id": "ad30a76fe48a77297b14d787a54489a6", "name": "ad30a76fe48a77297b14d787a54489a6", "rental_uris": {"ios": "https://dc.lft.to/lastmile_qr_scan", "android": "https://dc.lft.to/lastmile_qr_scan"}}, {"is_disabled": 0, "fusion_lat": 0.0, "lat": 38.874818, "type": "electric_scooter", "lon": -77.00118433333333, "is_reserved": 0, "fusion_lon": 0.0, "bike_id": "8589234fbae111940913e4daf84b216a", "name": "8589234fbae111940913e4daf84b216a", "rental_uris": {"ios": "https://dc.lft.to/lastmile_qr_scan", "android": "https://dc.lft.to/lastmile_qr_scan"}}, {"is_disabled": 0, "fusion_lat": 0.0, "lat": 38.885024666666666, "type": "electric_scooter", "lon": -77.01587966666666, "is_reserved": 0, "fusion_lon": 0.0, "bike_id": "5ebb29e97105df05ceee1a98445e2b8b", "name": "5ebb29e97105df05ceee1a98445e2b8b", "rental_uris": {"ios": "https://dc.lft.to/lastmile_qr_scan", "android": "https://dc.lft.to/lastmile_qr_scan"}}, {"is_disabled": 0, "fusion_lat": 0.0, "lat": 38.905457, "type": "electric_scooter", "lon": -77.04564183333333, "is_reserved": 0, "fusion_lon": 0.0, "bike_id": "832ca91e5a7a78265a15b5db750d0ef2", "name": "832ca91e5a7a78265a15b5db750d0ef2", "rental_uris": {"ios": "https://dc.lft.to/lastmile_qr_scan", "android": "https://dc.lft.to/lastmile_qr_scan"}}, {"is_disabled": 0, "fusion_lat": 0.0, "lat": 38.92342583333333, "type": "electric_scooter", "lon": -77.05074783333333, "is_reserved": 0, "fusion_lon": 0.0, "bike_id": "9a888d664e38422906674dd60f7e5de2", "name": "9a888d664e38422906674dd60f7e5de2", "rental_uris": {"ios": "https://dc.lft.to/lastmile_qr_scan", "android": "https://dc.lft.to/lastmile_qr_scan"}}, {"is_disabled": 0, "fusion_lat": 0.0, "lat": 38.9050465, "type": "electric_scooter", "lon": -77.06657633333333, "is_reserved": 0, "fusion_lon": 0.0, "bike_id": "f7f0df49905c7cc4e841cad865007717", "name": "f7f0df49905c7cc4e841cad865007717", "rental_uris": {"ios": "https://dc.lft.to/lastmile_qr_scan", "android": "https://dc.lft.to/lastmile_qr_scan"}}, {"is_disabled": 0, "fusion_lat": 0.0, "lat": 38.892208, "type": "electric_scooter", "lon": -77.04645933333333, "is_reserved": 0, "fusion_lon": 0.0, "bike_id": "7885d95924565f2929a1b0a918c0fb18", "name": "7885d95924565f2929a1b0a918c0fb18", "rental_uris": {"ios": "https://dc.lft.to/lastmile_qr_scan", "android": "https://dc.lft.to/lastmile_qr_scan"}}, {"is_disabled": 0, "fusion_lat": 0.0, "lat": 38.90261733333333, "type": "electric_scooter", "lon": -77.04908566666667, "is_reserved": 0, "fusion_lon": 0.0, "bike_id": "43074b305b0bfdea4afc9ba770b4d5eb", "name": "43074b305b0bfdea4afc9ba770b4d5eb", "rental_uris": {"ios": "https://dc.lft.to/lastmile_qr_scan", "android": "https://dc.lft.to/lastmile_qr_scan"}}, {"is_disabled": 0, "fusion_lat": 0.0, "lat": 38.956359, "type": "electric_scooter", "lon": -77.03302416666666, "is_reserved": 0, "fusion_lon": 0.0, "bike_id": "2ba66b64ce2fc66dfb9d0174c0ff2c35", "name": "2ba66b64ce2fc66dfb9d0174c0ff2c35", "rental_uris": {"ios": "https://dc.lft.to/lastmile_qr_scan", "android": "https://dc.lft.to/lastmile_qr_scan"}}, {"is_disabled": 0, "fusion_lat": 0.0, "lat": 38.90073533333333, "type": "electric_scooter", "lon": -77.05008133333334, "is_reserved": 0, "fusion_lon": 0.0, "bike_id": "b016fbbafe8bc64bab57d14c98ab23c4", "name": "b016fbbafe8bc64bab57d14c98ab23c4", "rental_uris": {"ios": "https://dc.lft.to/lastmile_qr_scan", "android": "https://dc.lft.to/lastmile_qr_scan"}}, {"is_disabled": 0, "fusion_lat": 0.0, "lat": 38.90485733333333, "type": "electric_scooter", "lon": -77.06790366666667, "is_reserved": 0, "fusion_lon": 0.0, "bike_id": "ed45fc3fd1de0b35b8f910905cbb36e2", "name": "ed45fc3fd1de0b35b8f910905cbb36e2", "rental_uris": {"ios": "https://dc.lft.to/lastmile_qr_scan", "android": "https://dc.lft.to/lastmile_qr_scan"}}, {"is_disabled": 0, "fusion_lat": 0.0, "lat": 38.909571166666666, "type": "electric_scooter", "lon": -77.04647133333333, "is_reserved": 0, "fusion_lon": 0.0, "bike_id": "b4534dca000ac073673baa11a4f9853b", "name": "b4534dca000ac073673baa11a4f9853b", "rental_uris": {"ios": "https://dc.lft.to/lastmile_qr_scan", "android": "https://dc.lft.to/lastmile_qr_scan"}}, {"is_disabled": 0, "fusion_lat": 0.0, "lat": 38.87197666666667, "type": "electric_scooter", "lon": -77.00608583333333, "is_reserved": 0, "fusion_lon": 0.0, "bike_id": "e97714c281e8c6c9f8a2156bf1c382b8", "name": "e97714c281e8c6c9f8a2156bf1c382b8", "rental_uris": {"ios": "https://dc.lft.to/lastmile_qr_scan", "android": "https://dc.lft.to/lastmile_qr_scan"}}, {"is_disabled": 0, "fusion_lat": 0.0, "lat": 38.89225966666667, "type": "electric_scooter", "lon": -77.04444683333334, "is_reserved": 0, "fusion_lon": 0.0, "bike_id": "2bfee7c60a45420fb3ea86d181cd7849", "name": "2bfee7c60a45420fb3ea86d181cd7849", "rental_uris": {"ios": "https://dc.lft.to/lastmile_qr_scan", "android": "https://dc.lft.to/lastmile_qr_scan"}}, {"is_disabled": 0, "fusion_lat": 0.0, "lat": 38.92359783333333, "type": "electric_scooter", "lon": -77.05129983333333, "is_reserved": 0, "fusion_lon": 0.0, "bike_id": "27ba82f06f63fbef108078ee9de835e8", "name": "27ba82f06f63fbef108078ee9de835e8", "rental_uris": {"ios": "https://dc.lft.to/lastmile_qr_scan", "android": "https://dc.lft.to/lastmile_qr_scan"}}, {"is_disabled": 0, "fusion_lat": 0.0, "lat": 38.91763, "type": "electric_scooter", "lon": -77.00400766666667, "is_reserved": 0, "fusion_lon": 0.0, "bike_id": "5a534c716ac3cd7c71c128117b8983e4", "name": "5a534c716ac3cd7c71c128117b8983e4", "rental_uris": {"ios": "https://dc.lft.to/lastmile_qr_scan", "android": "https://dc.lft.to/lastmile_qr_scan"}}, {"is_disabled": 0, "fusion_lat": 0.0, "lat": 38.91397333333333, "type": "electric_scooter", "lon": -77.039263, "is_reserved": 0, "fusion_lon": 0.0, "bike_id": "b12d37e247debca59ff731651a18be65", "name": "b12d37e247debca59ff731651a18be65", "rental_uris": {"ios": "https://dc.lft.to/lastmile_qr_scan", "android": "https://dc.lft.to/lastmile_qr_scan"}}, {"is_disabled": 0, "fusion_lat": 0.0, "lat": 38.872494, "type": "electric_scooter", "lon": -76.97724633333333, "is_reserved": 0, "fusion_lon": 0.0, "bike_id": "b1ad7287546e858c786578d717ad5823", "name": "b1ad7287546e858c786578d717ad5823", "rental_uris": {"ios": "https://dc.lft.to/lastmile_qr_scan", "android": "https://dc.lft.to/lastmile_qr_scan"}}, {"is_disabled": 0, "fusion_lat": 0.0, "lat": 38.895343833333335, "type": "electric_scooter", "lon": -76.94891766666667, "is_reserved": 0, "fusion_lon": 0.0, "bike_id": "477ee3073871ad7f2be0e2ad08a7bf85", "name": "477ee3073871ad7f2be0e2ad08a7bf85", "rental_uris": {"ios": "https://dc.lft.to/lastmile_qr_scan", "android": "https://dc.lft.to/lastmile_qr_scan"}}, {"is_disabled": 0, "fusion_lat": 0.0, "lat": 38.85525416666667, "type": "electric_scooter", "lon": -76.969204, "is_reserved": 0, "fusion_lon": 0.0, "bike_id": "884de3020ad7311e84d6e4873e85a1d9", "name": "884de3020ad7311e84d6e4873e85a1d9", "rental_uris": {"ios": "https://dc.lft.to/lastmile_qr_scan", "android": "https://dc.lft.to/lastmile_qr_scan"}}, {"is_disabled": 0, "fusion_lat": 0.0, "lat": 38.89753783333333, "type": "electric_scooter", "lon": -77.00774183333333, "is_reserved": 0, "fusion_lon": 0.0, "bike_id": "155a17d88420c64614779dcc6ed3de87", "name": "155a17d88420c64614779dcc6ed3de87", "rental_uris": {"ios": "https://dc.lft.to/lastmile_qr_scan", "android": "https://dc.lft.to/lastmile_qr_scan"}}, {"is_disabled": 0, "fusion_lat": 0.0, "lat": 38.923145833333336, "type": "electric_scooter", "lon": -77.02121066666666, "is_reserved": 0, "fusion_lon": 0.0, "bike_id": "7439d100c20a581f7ab74df3dac0be19", "name": "7439d100c20a581f7ab74df3dac0be19", "rental_uris": {"ios": "https://dc.lft.to/lastmile_qr_scan", "android": "https://dc.lft.to/lastmile_qr_scan"}}, {"is_disabled": 0, "fusion_lat": 0.0, "lat": 38.931607, "type": "electric_scooter", "lon": -77.03630016666666, "is_reserved": 0, "fusion_lon": 0.0, "bike_id": "201f5a902565721b4b818eca2d729295", "name": "201f5a902565721b4b818eca2d729295", "rental_uris": {"ios": "https://dc.lft.to/lastmile_qr_scan", "android": "https://dc.lft.to/lastmile_qr_scan"}}, {"is_disabled": 0, "fusion_lat": 0.0, "lat": 38.89466733333333, "type": "electric_scooter", "lon": -76.99384616666667, "is_reserved": 0, "fusion_lon": 0.0, "bike_id": "06878897bc1d4d996e7b35d2946ac8e7", "name": "06878897bc1d4d996e7b35d2946ac8e7", "rental_uris": {"ios": "https://dc.lft.to/lastmile_qr_scan", "android": "https://dc.lft.to/lastmile_qr_scan"}}, {"is_disabled": 0, "fusion_lat": 0.0, "lat": 38.9170195, "type": "electric_scooter", "lon": -77.0289525, "is_reserved": 0, "fusion_lon": 0.0, "bike_id": "6213f436f6cb377e7b98d8b170de24e7", "name": "6213f436f6cb377e7b98d8b170de24e7", "rental_uris": {"ios": "https://dc.lft.to/lastmile_qr_scan", "android": "https://dc.lft.to/lastmile_qr_scan"}}, {"is_disabled": 0, "fusion_lat": 0.0, "lat": 38.92053633333333, "type": "electric_scooter", "lon": -77.04668716666667, "is_reserved": 0, "fusion_lon": 0.0, "bike_id": "3d3f6bd8e1ececa28da96ddfbe30f55d", "name": "3d3f6bd8e1ececa28da96ddfbe30f55d", "rental_uris": {"ios": "https://dc.lft.to/lastmile_qr_scan", "android": "https://dc.lft.to/lastmile_qr_scan"}}, {"is_disabled": 0, "fusion_lat": 0.0, "lat": 38.89223333333333, "type": "electric_scooter", "lon": -77.0284665, "is_reserved": 0, "fusion_lon": 0.0, "bike_id": "756298c17b3cae3c321ff5f51aa53441", "name": "756298c17b3cae3c321ff5f51aa53441", "rental_uris": {"ios": "https://dc.lft.to/lastmile_qr_scan", "android": "https://dc.lft.to/lastmile_qr_scan"}}, {"is_disabled": 0, "fusion_lat": 0.0, "lat": 38.90228883333333, "type": "electric_scooter", "lon": -77.06034166666667, "is_reserved": 0, "fusion_lon": 0.0, "bike_id": "127fa46e99941057c6cb87536b249bbc", "name": "127fa46e99941057c6cb87536b249bbc", "rental_uris": {"ios": "https://dc.lft.to/lastmile_qr_scan", "android": "https://dc.lft.to/lastmile_qr_scan"}}, {"is_disabled": 0, "fusion_lat": 0.0, "lat": 38.92181083333333, "type": "electric_scooter", "lon": -77.04228883333333, "is_reserved": 0, "fusion_lon": 0.0, "bike_id": "fc58300bb444b2b02ff90a3e11d5ae03", "name": "fc58300bb444b2b02ff90a3e11d5ae03", "rental_uris": {"ios": "https://dc.lft.to/lastmile_qr_scan", "android": "https://dc.lft.to/lastmile_qr_scan"}}, {"is_disabled": 0, "fusion_lat": 0.0, "lat": 38.923243166666666, "type": "electric_scooter", "lon": -77.039013, "is_reserved": 0, "fusion_lon": 0.0, "bike_id": "c5e89b94276e54615c3fe9804e0db320", "name": "c5e89b94276e54615c3fe9804e0db320", "rental_uris": {"ios": "https://dc.lft.to/lastmile_qr_scan", "android": "https://dc.lft.to/lastmile_qr_scan"}}, {"is_disabled": 0, "fusion_lat": 0.0, "lat": 38.905566666666665, "type": "electric_scooter", "lon": -77.04665233333333, "is_reserved": 0, "fusion_lon": 0.0, "bike_id": "249fa3686435ab80143c0ea60fdf0625", "name": "249fa3686435ab80143c0ea60fdf0625", "rental_uris": {"ios": "https://dc.lft.to/lastmile_qr_scan", "android": "https://dc.lft.to/lastmile_qr_scan"}}, {"is_disabled": 0, "fusion_lat": 0.0, "lat": 39.03049033333333, "type": "electric_bike", "lon": -77.09485116666667, "is_reserved": 0, "fusion_lon": 0.0, "bike_id": "a07432027409dbb1c4cee1bb31c20350", "name": "a07432027409dbb1c4cee1bb31c20350", "rental_uris": {"ios": "https://dc.lft.to/lastmile_qr_scan", "android": "https://dc.lft.to/lastmile_qr_scan"}}, {"is_disabled": 0, "fusion_lat": 0.0, "lat": 38.88705733333333, "type": "electric_scooter", "lon": -77.00154016666667, "is_reserved": 0, "fusion_lon": 0.0, "bike_id": "93f3084257b65f7206e277d67d2ca6fc", "name": "93f3084257b65f7206e277d67d2ca6fc", "rental_uris": {"ios": "https://dc.lft.to/lastmile_qr_scan", "android": "https://dc.lft.to/lastmile_qr_scan"}}, {"is_disabled": 0, "fusion_lat": 0.0, "lat": 38.907851, "type": "electric_scooter", "lon": -77.03205516666667, "is_reserved": 0, "fusion_lon": 0.0, "bike_id": "c950934543b8104d04e518afae3c6077", "name": "c950934543b8104d04e518afae3c6077", "rental_uris": {"ios": "https://dc.lft.to/lastmile_qr_scan", "android": "https://dc.lft.to/lastmile_qr_scan"}}, {"is_disabled": 0, "fusion_lat": 0.0, "lat": 38.89771133333333, "type": "electric_scooter", "lon": -76.977279, "is_reserved": 0, "fusion_lon": 0.0, "bike_id": "c2f95712e727ec4530f745ca4b2197c8", "name": "c2f95712e727ec4530f745ca4b2197c8", "rental_uris": {"ios": "https://dc.lft.to/lastmile_qr_scan", "android": "https://dc.lft.to/lastmile_qr_scan"}}, {"is_disabled": 0, "fusion_lat": 0.0, "lat": 38.91547683333334, "type": "electric_scooter", "lon": -77.03507316666666, "is_reserved": 0, "fusion_lon": 0.0, "bike_id": "06edbc126d9f469595f0c10fd7a34cd8", "name": "06edbc126d9f469595f0c10fd7a34cd8", "rental_uris": {"ios": "https://dc.lft.to/lastmile_qr_scan", "android": "https://dc.lft.to/lastmile_qr_scan"}}, {"is_disabled": 0, "fusion_lat": 0.0, "lat": 38.89829816666666, "type": "electric_scooter", "lon": -77.03322416666667, "is_reserved": 0, "fusion_lon": 0.0, "bike_id": "ccbd0fcf24017d1cfece55ab61fdefb8", "name": "ccbd0fcf24017d1cfece55ab61fdefb8", "rental_uris": {"ios": "https://dc.lft.to/lastmile_qr_scan", "android": "https://dc.lft.to/lastmile_qr_scan"}}, {"is_disabled": 0, "fusion_lat": 0.0, "lat": 38.842688, "type": "electric_bike", "lon": -76.988456, "is_reserved": 0, "fusion_lon": 0.0, "bike_id": "92a69e775abfe4fb9336ec783620105d", "name": "92a69e775abfe4fb9336ec783620105d", "rental_uris": {"ios": "https://dc.lft.to/lastmile_qr_scan", "android": "https://dc.lft.to/lastmile_qr_scan"}}, {"is_disabled": 0, "fusion_lat": 0.0, "lat": 38.88121966666667, "type": "electric_scooter", "lon": -77.001039, "is_reserved": 0, "fusion_lon": 0.0, "bike_id": "8deb231da30cfe03a51784ddc1a83af9", "name": "8deb231da30cfe03a51784ddc1a83af9", "rental_uris": {"ios": "https://dc.lft.to/lastmile_qr_scan", "android": "https://dc.lft.to/lastmile_qr_scan"}}, {"is_disabled": 0, "fusion_lat": 0.0, "lat": 38.88412366666667, "type": "electric_scooter", "lon": -77.0176985, "is_reserved": 0, "fusion_lon": 0.0, "bike_id": "f22207d35691eed88a1e9d1f3af4d418", "name": "f22207d35691eed88a1e9d1f3af4d418", "rental_uris": {"ios": "https://dc.lft.to/lastmile_qr_scan", "android": "https://dc.lft.to/lastmile_qr_scan"}}, {"is_disabled": 0, "fusion_lat": 0.0, "lat": 38.903319, "type": "electric_scooter", "lon": -76.97593833333333, "is_reserved": 0, "fusion_lon": 0.0, "bike_id": "28cbf831772d7829f29109e744a18790", "name": "28cbf831772d7829f29109e744a18790", "rental_uris": {"ios": "https://dc.lft.to/lastmile_qr_scan", "android": "https://dc.lft.to/lastmile_qr_scan"}}, {"is_disabled": 0, "fusion_lat": 0.0, "lat": 38.9169615, "type": "electric_scooter", "lon": -77.0321535, "is_reserved": 0, "fusion_lon": 0.0, "bike_id": "e80baf0513d99fce68e23ec236c031e1", "name": "e80baf0513d99fce68e23ec236c031e1", "rental_uris": {"ios": "https://dc.lft.to/lastmile_qr_scan", "android": "https://dc.lft.to/lastmile_qr_scan"}}, {"is_disabled": 0, "fusion_lat": 0.0, "lat": 38.924310166666665, "type": "electric_scooter", "lon": -77.05210316666667, "is_reserved": 0, "fusion_lon": 0.0, "bike_id": "f9026fc43efacada845b49cd9729b642", "name": "f9026fc43efacada845b49cd9729b642", "rental_uris": {"ios": "https://dc.lft.to/lastmile_qr_scan", "android": "https://dc.lft.to/lastmile_qr_scan"}}, {"is_disabled": 0, "fusion_lat": 0.0, "lat": 38.902069, "type": "electric_scooter", "lon": -77.03417416666667, "is_reserved": 0, "fusion_lon": 0.0, "bike_id": "0affda74c40764c7aefcf6cc9138fa1b", "name": "0affda74c40764c7aefcf6cc9138fa1b", "rental_uris": {"ios": "https://dc.lft.to/lastmile_qr_scan", "android": "https://dc.lft.to/lastmile_qr_scan"}}, {"is_disabled": 0, "fusion_lat": 0.0, "lat": 38.916936, "type": "electric_scooter", "lon": -77.03218216666667, "is_reserved": 0, "fusion_lon": 0.0, "bike_id": "7575cd24732478aa58b3a1dea795a7ad", "name": "7575cd24732478aa58b3a1dea795a7ad", "rental_uris": {"ios": "https://dc.lft.to/lastmile_qr_scan", "android": "https://dc.lft.to/lastmile_qr_scan"}}, {"is_disabled": 0, "fusion_lat": 0.0, "lat": 38.894561333333336, "type": "electric_bike", "lon": -76.97037083333333, "is_reserved": 0, "fusion_lon": 0.0, "bike_id": "4f48f8949ac2ad258273524850108e94", "name": "4f48f8949ac2ad258273524850108e94", "rental_uris": {"ios": "https://dc.lft.to/lastmile_qr_scan", "android": "https://dc.lft.to/lastmile_qr_scan"}}, {"is_disabled": 0, "fusion_lat": 0.0, "lat": 38.887477, "type": "electric_scooter", "lon": -77.021673, "is_reserved": 0, "fusion_lon": 0.0, "bike_id": "72561cc8c134859e0019a2c32e2b6cf4", "name": "72561cc8c134859e0019a2c32e2b6cf4", "rental_uris": {"ios": "https://dc.lft.to/lastmile_qr_scan", "android": "https://dc.lft.to/lastmile_qr_scan"}}, {"is_disabled": 0, "fusion_lat": 0.0, "lat": 38.919815166666666, "type": "electric_scooter", "lon": -77.04164, "is_reserved": 0, "fusion_lon": 0.0, "bike_id": "e3cc31e5ece62fcca9a7b7a5bd421dd5", "name": "e3cc31e5ece62fcca9a7b7a5bd421dd5", "rental_uris": {"ios": "https://dc.lft.to/lastmile_qr_scan", "android": "https://dc.lft.to/lastmile_qr_scan"}}, {"is_disabled": 0, "fusion_lat": 0.0, "lat": 38.866563166666666, "type": "electric_scooter", "lon": -76.9901765, "is_reserved": 0, "fusion_lon": 0.0, "bike_id": "f503123e1f4c65470cf0e54d7aa56013", "name": "f503123e1f4c65470cf0e54d7aa56013", "rental_uris": {"ios": "https://dc.lft.to/lastmile_qr_scan", "android": "https://dc.lft.to/lastmile_qr_scan"}}, {"is_disabled": 0, "fusion_lat": 0.0, "lat": 38.88130966666667, "type": "electric_bike", "lon": -76.980941, "is_reserved": 0, "fusion_lon": 0.0, "bike_id": "588a1f953880bc1cfe235734bdf099e2", "name": "588a1f953880bc1cfe235734bdf099e2", "rental_uris": {"ios": "https://dc.lft.to/lastmile_qr_scan", "android": "https://dc.lft.to/lastmile_qr_scan"}}, {"is_disabled": 0, "fusion_lat": 0.0, "lat": 38.8999225, "type": "electric_scooter", "lon": -77.05241833333334, "is_reserved": 0, "fusion_lon": 0.0, "bike_id": "7c5964da08db95f90505747a7c9f0405", "name": "7c5964da08db95f90505747a7c9f0405", "rental_uris": {"ios": "https://dc.lft.to/lastmile_qr_scan", "android": "https://dc.lft.to/lastmile_qr_scan"}}, {"is_disabled": 0, "fusion_lat": 0.0, "lat": 38.9077565, "type": "electric_scooter", "lon": -77.03827683333333, "is_reserved": 0, "fusion_lon": 0.0, "bike_id": "c039a984d6d07016379da71ccb8648e4", "name": "c039a984d6d07016379da71ccb8648e4", "rental_uris": {"ios": "https://dc.lft.to/lastmile_qr_scan", "android": "https://dc.lft.to/lastmile_qr_scan"}}, {"is_disabled": 0, "fusion_lat": 0.0, "lat": 38.91569716666667, "type": "electric_scooter", "lon": -77.011956, "is_reserved": 0, "fusion_lon": 0.0, "bike_id": "6a2e1854add92d8631eedb7b2cc8ec89", "name": "6a2e1854add92d8631eedb7b2cc8ec89", "rental_uris": {"ios": "https://dc.lft.to/lastmile_qr_scan", "android": "https://dc.lft.to/lastmile_qr_scan"}}, {"is_disabled": 0, "fusion_lat": 0.0, "lat": 38.8989385, "type": "electric_scooter", "lon": -76.93301316666667, "is_reserved": 0, "fusion_lon": 0.0, "bike_id": "a7b6ef379ca33bc33d9601788a36619f", "name": "a7b6ef379ca33bc33d9601788a36619f", "rental_uris": {"ios": "https://dc.lft.to/lastmile_qr_scan", "android": "https://dc.lft.to/lastmile_qr_scan"}}, {"is_disabled": 0, "fusion_lat": 0.0, "lat": 38.92413783333333, "type": "electric_scooter", "lon": -77.0194155, "is_reserved": 0, "fusion_lon": 0.0, "bike_id": "f61859349b7cabf82847ab1903c548c0", "name": "f61859349b7cabf82847ab1903c548c0", "rental_uris": {"ios": "https://dc.lft.to/lastmile_qr_scan", "android": "https://dc.lft.to/lastmile_qr_scan"}}, {"is_disabled": 0, "fusion_lat": 0.0, "lat": 38.90978783333333, "type": "electric_scooter", "lon": -77.0318635, "is_reserved": 0, "fusion_lon": 0.0, "bike_id": "39bef3cefd1a57e563080d16ac3a783f", "name": "39bef3cefd1a57e563080d16ac3a783f", "rental_uris": {"ios": "https://dc.lft.to/lastmile_qr_scan", "android": "https://dc.lft.to/lastmile_qr_scan"}}, {"is_disabled": 0, "fusion_lat": 0.0, "lat": 38.8398615, "type": "electric_bike", "lon": -77.00571266666667, "is_reserved": 0, "fusion_lon": 0.0, "bike_id": "e79100662412132d9a74f033ff8e8638", "name": "e79100662412132d9a74f033ff8e8638", "rental_uris": {"ios": "https://dc.lft.to/lastmile_qr_scan", "android": "https://dc.lft.to/lastmile_qr_scan"}}, {"is_disabled": 0, "fusion_lat": 0.0, "lat": 38.88703683333333, "type": "electric_scooter", "lon": -77.0137425, "is_reserved": 0, "fusion_lon": 0.0, "bike_id": "118b8e0d7e383cf3ae1f80fcd32eb53e", "name": "118b8e0d7e383cf3ae1f80fcd32eb53e", "rental_uris": {"ios": "https://dc.lft.to/lastmile_qr_scan", "android": "https://dc.lft.to/lastmile_qr_scan"}}, {"is_disabled": 0, "fusion_lat": 0.0, "lat": 38.93091, "type": "electric_scooter", "lon": -77.03763, "is_reserved": 0, "fusion_lon": 0.0, "bike_id": "8da87ac1f432cf08631b84f28dd9b0bf", "name": "8da87ac1f432cf08631b84f28dd9b0bf", "rental_uris": {"ios": "https://dc.lft.to/lastmile_qr_scan", "android": "https://dc.lft.to/lastmile_qr_scan"}}, {"is_disabled": 0, "fusion_lat": 0.0, "lat": 38.90366083333333, "type": "electric_bike", "lon": -77.06762433333333, "is_reserved": 0, "fusion_lon": 0.0, "bike_id": "ea01b910316f0ac2b559d99b58f5f4fa", "name": "ea01b910316f0ac2b559d99b58f5f4fa", "rental_uris": {"ios": "https://dc.lft.to/lastmile_qr_scan", "android": "https://dc.lft.to/lastmile_qr_scan"}}, {"is_disabled": 0, "fusion_lat": 0.0, "lat": 39.09432433333333, "type": "electric_bike", "lon": -77.13462033333333, "is_reserved": 0, "fusion_lon": 0.0, "bike_id": "ec97dbbdbddfd90ce0ce208f10c223a1", "name": "ec97dbbdbddfd90ce0ce208f10c223a1", "rental_uris": {"ios": "https://dc.lft.to/lastmile_qr_scan", "android": "https://dc.lft.to/lastmile_qr_scan"}}, {"is_disabled": 0, "fusion_lat": 0.0, "lat": 38.925828333333335, "type": "electric_scooter", "lon": -77.03985016666667, "is_reserved": 0, "fusion_lon": 0.0, "bike_id": "0ca56bdd4878454470a70ac22f66ad43", "name": "0ca56bdd4878454470a70ac22f66ad43", "rental_uris": {"ios": "https://dc.lft.to/lastmile_qr_scan", "android": "https://dc.lft.to/lastmile_qr_scan"}}, {"is_disabled": 0, "fusion_lat": 0.0, "lat": 38.8628665, "type": "electric_scooter", "lon": -76.9923935, "is_reserved": 0, "fusion_lon": 0.0, "bike_id": "5d61a26e9e41baca05df94daa8829f41", "name": "5d61a26e9e41baca05df94daa8829f41", "rental_uris": {"ios": "https://dc.lft.to/lastmile_qr_scan", "android": "https://dc.lft.to/lastmile_qr_scan"}}, {"is_disabled": 0, "fusion_lat": 0.0, "lat": 38.892213, "type": "electric_scooter", "lon": -77.04198633333333, "is_reserved": 0, "fusion_lon": 0.0, "bike_id": "ccf945fa8a78b8b460eabb62ce4ecb01", "name": "ccf945fa8a78b8b460eabb62ce4ecb01", "rental_uris": {"ios": "https://dc.lft.to/lastmile_qr_scan", "android": "https://dc.lft.to/lastmile_qr_scan"}}, {"is_disabled": 0, "fusion_lat": 0.0, "lat": 38.89845583333334, "type": "electric_scooter", "lon": -76.94477283333333, "is_reserved": 0, "fusion_lon": 0.0, "bike_id": "b307ffd7b5cc01829bd583914efeee17", "name": "b307ffd7b5cc01829bd583914efeee17", "rental_uris": {"ios": "https://dc.lft.to/lastmile_qr_scan", "android": "https://dc.lft.to/lastmile_qr_scan"}}, {"is_disabled": 0, "fusion_lat": 0.0, "lat": 38.872589833333336, "type": "electric_bike", "lon": -76.9790505, "is_reserved": 0, "fusion_lon": 0.0, "bike_id": "5c5abe95680a233aa849c4008aa42be5", "name": "5c5abe95680a233aa849c4008aa42be5", "rental_uris": {"ios": "https://dc.lft.to/lastmile_qr_scan", "android": "https://dc.lft.to/lastmile_qr_scan"}}, {"is_disabled": 0, "fusion_lat": 0.0, "lat": 38.90276266666667, "type": "electric_scooter", "lon": -77.04281416666667, "is_reserved": 0, "fusion_lon": 0.0, "bike_id": "281ea3ad098719ab12c2464a0dd43e7e", "name": "281ea3ad098719ab12c2464a0dd43e7e", "rental_uris": {"ios": "https://dc.lft.to/lastmile_qr_scan", "android": "https://dc.lft.to/lastmile_qr_scan"}}, {"is_disabled": 0, "fusion_lat": 0.0, "lat": 38.920120833333335, "type": "electric_scooter", "lon": -77.03152683333333, "is_reserved": 0, "fusion_lon": 0.0, "bike_id": "8fc6fef5155385b68ea95b8b540661b7", "name": "8fc6fef5155385b68ea95b8b540661b7", "rental_uris": {"ios": "https://dc.lft.to/lastmile_qr_scan", "android": "https://dc.lft.to/lastmile_qr_scan"}}, {"is_disabled": 0, "fusion_lat": 0.0, "lat": 38.898773, "type": "electric_scooter", "lon": -76.9316265, "is_reserved": 0, "fusion_lon": 0.0, "bike_id": "2e0e52b2692d8becb801eba082d88358", "name": "2e0e52b2692d8becb801eba082d88358", "rental_uris": {"ios": "https://dc.lft.to/lastmile_qr_scan", "android": "https://dc.lft.to/lastmile_qr_scan"}}, {"is_disabled": 0, "fusion_lat": 0.0, "lat": 38.9323885, "type": "electric_scooter", "lon": -77.030742, "is_reserved": 0, "fusion_lon": 0.0, "bike_id": "0d72b0105a3f1a2a94cce0f5882671de", "name": "0d72b0105a3f1a2a94cce0f5882671de", "rental_uris": {"ios": "https://dc.lft.to/lastmile_qr_scan", "android": "https://dc.lft.to/lastmile_qr_scan"}}, {"is_disabled": 0, "fusion_lat": 0.0, "lat": 38.934257833333334, "type": "electric_scooter", "lon": -77.044084, "is_reserved": 0, "fusion_lon": 0.0, "bike_id": "a57c20a7318c5f311a75a550b59d23de", "name": "a57c20a7318c5f311a75a550b59d23de", "rental_uris": {"ios": "https://dc.lft.to/lastmile_qr_scan", "android": "https://dc.lft.to/lastmile_qr_scan"}}, {"is_disabled": 0, "fusion_lat": 0.0, "lat": 38.919659, "type": "electric_scooter", "lon": -77.04157083333334, "is_reserved": 0, "fusion_lon": 0.0, "bike_id": "9e1d938034c8e80a757e844f889ef6d9", "name": "9e1d938034c8e80a757e844f889ef6d9", "rental_uris": {"ios": "https://dc.lft.to/lastmile_qr_scan", "android": "https://dc.lft.to/lastmile_qr_scan"}}, {"is_disabled": 0, "fusion_lat": 0.0, "lat": 38.92450766666666, "type": "electric_scooter", "lon": -77.03275233333333, "is_reserved": 0, "fusion_lon": 0.0, "bike_id": "06cfd43063c35b2a7fcae609bcafb987", "name": "06cfd43063c35b2a7fcae609bcafb987", "rental_uris": {"ios": "https://dc.lft.to/lastmile_qr_scan", "android": "https://dc.lft.to/lastmile_qr_scan"}}, {"is_disabled": 0, "fusion_lat": 0.0, "lat": 38.90272266666667, "type": "electric_scooter", "lon": -77.0343935, "is_reserved": 0, "fusion_lon": 0.0, "bike_id": "f4eb77ec68b14d45fdbf0feb11a4f5f1", "name": "f4eb77ec68b14d45fdbf0feb11a4f5f1", "rental_uris": {"ios": "https://dc.lft.to/lastmile_qr_scan", "android": "https://dc.lft.to/lastmile_qr_scan"}}, {"is_disabled": 0, "fusion_lat": 0.0, "lat": 38.9027505, "type": "electric_scooter", "lon": -77.046058, "is_reserved": 0, "fusion_lon": 0.0, "bike_id": "927deaf799c5c28635bb2cf436038d99", "name": "927deaf799c5c28635bb2cf436038d99", "rental_uris": {"ios": "https://dc.lft.to/lastmile_qr_scan", "android": "https://dc.lft.to/lastmile_qr_scan"}}, {"is_disabled": 0, "fusion_lat": 0.0, "lat": 38.921455333333334, "type": "electric_scooter", "lon": -77.0242915, "is_reserved": 0, "fusion_lon": 0.0, "bike_id": "152145c60b503d4a9877ab936ec832c4", "name": "152145c60b503d4a9877ab936ec832c4", "rental_uris": {"ios": "https://dc.lft.to/lastmile_qr_scan", "android": "https://dc.lft.to/lastmile_qr_scan"}}, {"is_disabled": 0, "fusion_lat": 0.0, "lat": 38.9376405, "type": "electric_scooter", "lon": -77.031409, "is_reserved": 0, "fusion_lon": 0.0, "bike_id": "aaf3f5f1aad6b075859a4c8e52ca94ef", "name": "aaf3f5f1aad6b075859a4c8e52ca94ef", "rental_uris": {"ios": "https://dc.lft.to/lastmile_qr_scan", "android": "https://dc.lft.to/lastmile_qr_scan"}}, {"is_disabled": 0, "fusion_lat": 0.0, "lat": 38.948217166666666, "type": "electric_scooter", "lon": -77.02427216666666, "is_reserved": 0, "fusion_lon": 0.0, "bike_id": "62a2a5fc6b38e8fe0b01baf77caee4ce", "name": "62a2a5fc6b38e8fe0b01baf77caee4ce", "rental_uris": {"ios": "https://dc.lft.to/lastmile_qr_scan", "android": "https://dc.lft.to/lastmile_qr_scan"}}, {"is_disabled": 0, "fusion_lat": 0.0, "lat": 38.887261, "type": "electric_scooter", "lon": -77.0319545, "is_reserved": 0, "fusion_lon": 0.0, "bike_id": "bb9c8f6077b4f3fdae685b9541ace398", "name": "bb9c8f6077b4f3fdae685b9541ace398", "rental_uris": {"ios": "https://dc.lft.to/lastmile_qr_scan", "android": "https://dc.lft.to/lastmile_qr_scan"}}, {"is_disabled": 0, "fusion_lat": 0.0, "lat": 38.92546866666667, "type": "electric_scooter", "lon": -77.04082616666666, "is_reserved": 0, "fusion_lon": 0.0, "bike_id": "5e6088683562064eab405a1eccbcf70e", "name": "5e6088683562064eab405a1eccbcf70e", "rental_uris": {"ios": "https://dc.lft.to/lastmile_qr_scan", "android": "https://dc.lft.to/lastmile_qr_scan"}}, {"is_disabled": 0, "fusion_lat": 0.0, "lat": 38.92854416666667, "type": "electric_bike", "lon": -77.10673233333333, "is_reserved": 0, "fusion_lon": 0.0, "bike_id": "ba6cfa7ab2e7c539a2933c76ca079374", "name": "ba6cfa7ab2e7c539a2933c76ca079374", "rental_uris": {"ios": "https://dc.lft.to/lastmile_qr_scan", "android": "https://dc.lft.to/lastmile_qr_scan"}}, {"is_disabled": 0, "fusion_lat": 0.0, "lat": 38.90614716666666, "type": "electric_scooter", "lon": -77.06524866666666, "is_reserved": 0, "fusion_lon": 0.0, "bike_id": "ce395509226f0668d1d0bf6a1e5f97fd", "name": "ce395509226f0668d1d0bf6a1e5f97fd", "rental_uris": {"ios": "https://dc.lft.to/lastmile_qr_scan", "android": "https://dc.lft.to/lastmile_qr_scan"}}, {"is_disabled": 0, "fusion_lat": 0.0, "lat": 38.929994666666666, "type": "electric_scooter", "lon": -77.0443235, "is_reserved": 0, "fusion_lon": 0.0, "bike_id": "179073dbf93cad27c1c845e746ce31ca", "name": "179073dbf93cad27c1c845e746ce31ca", "rental_uris": {"ios": "https://dc.lft.to/lastmile_qr_scan", "android": "https://dc.lft.to/lastmile_qr_scan"}}, {"is_disabled": 0, "fusion_lat": 0.0, "lat": 38.901696, "type": "electric_scooter", "lon": -77.049904, "is_reserved": 0, "fusion_lon": 0.0, "bike_id": "19d791a1c11e24c75453dfb20a1542bf", "name": "19d791a1c11e24c75453dfb20a1542bf", "rental_uris": {"ios": "https://dc.lft.to/lastmile_qr_scan", "android": "https://dc.lft.to/lastmile_qr_scan"}}, {"is_disabled": 0, "fusion_lat": 0.0, "lat": 38.910548166666665, "type": "electric_scooter", "lon": -77.04583383333333, "is_reserved": 0, "fusion_lon": 0.0, "bike_id": "cf63eb8fecfa8527025f457a4c1095dc", "name": "cf63eb8fecfa8527025f457a4c1095dc", "rental_uris": {"ios": "https://dc.lft.to/lastmile_qr_scan", "android": "https://dc.lft.to/lastmile_qr_scan"}}, {"is_disabled": 0, "fusion_lat": 0.0, "lat": 38.807484, "type": "electric_bike", "lon": -77.094295, "is_reserved": 0, "fusion_lon": 0.0, "bike_id": "f3ed2688798b14e77fa9e9b60af43f01", "name": "f3ed2688798b14e77fa9e9b60af43f01", "rental_uris": {"ios": "https://dc.lft.to/lastmile_qr_scan", "android": "https://dc.lft.to/lastmile_qr_scan"}}, {"is_disabled": 0, "fusion_lat": 0.0, "lat": 38.892422, "type": "electric_scooter", "lon": -77.0319395, "is_reserved": 0, "fusion_lon": 0.0, "bike_id": "51f477e13a02e5a690c7091bb4c200d1", "name": "51f477e13a02e5a690c7091bb4c200d1", "rental_uris": {"ios": "https://dc.lft.to/lastmile_qr_scan", "android": "https://dc.lft.to/lastmile_qr_scan"}}, {"is_disabled": 0, "fusion_lat": 0.0, "lat": 38.94618366666667, "type": "electric_bike", "lon": -76.94637116666667, "is_reserved": 0, "fusion_lon": 0.0, "bike_id": "4777dfdd80bce1467c3f08185e4f0320", "name": "4777dfdd80bce1467c3f08185e4f0320", "rental_uris": {"ios": "https://dc.lft.to/lastmile_qr_scan", "android": "https://dc.lft.to/lastmile_qr_scan"}}, {"is_disabled": 0, "fusion_lat": 0.0, "lat": 38.921299166666664, "type": "electric_scooter", "lon": -77.01838483333333, "is_reserved": 0, "fusion_lon": 0.0, "bike_id": "b4b34eadcc7a89ebe62c4eba9bf9ae10", "name": "b4b34eadcc7a89ebe62c4eba9bf9ae10", "rental_uris": {"ios": "https://dc.lft.to/lastmile_qr_scan", "android": "https://dc.lft.to/lastmile_qr_scan"}}, {"is_disabled": 0, "fusion_lat": 0.0, "lat": 38.917422333333334, "type": "electric_scooter", "lon": -77.0109575, "is_reserved": 0, "fusion_lon": 0.0, "bike_id": "276a1922cfdf6acc2735097fd46e2e7d", "name": "276a1922cfdf6acc2735097fd46e2e7d", "rental_uris": {"ios": "https://dc.lft.to/lastmile_qr_scan", "android": "https://dc.lft.to/lastmile_qr_scan"}}, {"is_disabled": 0, "fusion_lat": 0.0, "lat": 38.91447016666667, "type": "electric_scooter", "lon": -77.03840883333334, "is_reserved": 0, "fusion_lon": 0.0, "bike_id": "ecc2beecae0c3474042b9be9320dcb67", "name": "ecc2beecae0c3474042b9be9320dcb67", "rental_uris": {"ios": "https://dc.lft.to/lastmile_qr_scan", "android": "https://dc.lft.to/lastmile_qr_scan"}}, {"is_disabled": 0, "fusion_lat": 0.0, "lat": 38.90742633333333, "type": "electric_scooter", "lon": -77.042695, "is_reserved": 0, "fusion_lon": 0.0, "bike_id": "a2acd2f6c606afb06776d32ba00ad113", "name": "a2acd2f6c606afb06776d32ba00ad113", "rental_uris": {"ios": "https://dc.lft.to/lastmile_qr_scan", "android": "https://dc.lft.to/lastmile_qr_scan"}}, {"is_disabled": 0, "fusion_lat": 0.0, "lat": 38.90901266666667, "type": "electric_scooter", "lon": -77.08620883333333, "is_reserved": 0, "fusion_lon": 0.0, "bike_id": "cc4b9fc84bcf1d10627c995a2f1621e9", "name": "cc4b9fc84bcf1d10627c995a2f1621e9", "rental_uris": {"ios": "https://dc.lft.to/lastmile_qr_scan", "android": "https://dc.lft.to/lastmile_qr_scan"}}, {"is_disabled": 0, "fusion_lat": 0.0, "lat": 38.906972333333336, "type": "electric_scooter", "lon": -77.04404916666667, "is_reserved": 0, "fusion_lon": 0.0, "bike_id": "792ffc7bda48f709a2c1e297c91f369c", "name": "792ffc7bda48f709a2c1e297c91f369c", "rental_uris": {"ios": "https://dc.lft.to/lastmile_qr_scan", "android": "https://dc.lft.to/lastmile_qr_scan"}}, {"is_disabled": 0, "fusion_lat": 0.0, "lat": 38.8842685, "type": "electric_bike", "lon": -76.98086566666667, "is_reserved": 0, "fusion_lon": 0.0, "bike_id": "d6ce2bf04af956b82db8d6610fd88b71", "name": "d6ce2bf04af956b82db8d6610fd88b71", "rental_uris": {"ios": "https://dc.lft.to/lastmile_qr_scan", "android": "https://dc.lft.to/lastmile_qr_scan"}}, {"is_disabled": 0, "fusion_lat": 0.0, "lat": 38.93488466666667, "type": "electric_scooter", "lon": -77.07248266666667, "is_reserved": 0, "fusion_lon": 0.0, "bike_id": "49119d670276b3c242407f35196f25a2", "name": "49119d670276b3c242407f35196f25a2", "rental_uris": {"ios": "https://dc.lft.to/lastmile_qr_scan", "android": "https://dc.lft.to/lastmile_qr_scan"}}, {"is_disabled": 0, "fusion_lat": 0.0, "lat": 38.906075666666666, "type": "electric_scooter", "lon": -77.05865116666666, "is_reserved": 0, "fusion_lon": 0.0, "bike_id": "2ca20b6435eb845173433d27eacbb5d5", "name": "2ca20b6435eb845173433d27eacbb5d5", "rental_uris": {"ios": "https://dc.lft.to/lastmile_qr_scan", "android": "https://dc.lft.to/lastmile_qr_scan"}}, {"is_disabled": 0, "fusion_lat": 0.0, "lat": 38.908190166666664, "type": "electric_scooter", "lon": -77.039413, "is_reserved": 0, "fusion_lon": 0.0, "bike_id": "b3cce5dde4ce68673830b24fb95fcb94", "name": "b3cce5dde4ce68673830b24fb95fcb94", "rental_uris": {"ios": "https://dc.lft.to/lastmile_qr_scan", "android": "https://dc.lft.to/lastmile_qr_scan"}}, {"is_disabled": 0, "fusion_lat": 0.0, "lat": 38.901565833333336, "type": "electric_scooter", "lon": -76.976309, "is_reserved": 0, "fusion_lon": 0.0, "bike_id": "851f0c8c54e4f5a716dc684a15dac094", "name": "851f0c8c54e4f5a716dc684a15dac094", "rental_uris": {"ios": "https://dc.lft.to/lastmile_qr_scan", "android": "https://dc.lft.to/lastmile_qr_scan"}}, {"is_disabled": 0, "fusion_lat": 0.0, "lat": 38.91547683333334, "type": "electric_scooter", "lon": -77.0384115, "is_reserved": 0, "fusion_lon": 0.0, "bike_id": "7502c5e86cfbb901a81602030bfa8fa1", "name": "7502c5e86cfbb901a81602030bfa8fa1", "rental_uris": {"ios": "https://dc.lft.to/lastmile_qr_scan", "android": "https://dc.lft.to/lastmile_qr_scan"}}, {"is_disabled": 0, "fusion_lat": 0.0, "lat": 38.922103, "type": "electric_scooter", "lon": -77.03296583333334, "is_reserved": 0, "fusion_lon": 0.0, "bike_id": "2a629b9137cc094586acf593e4dbef50", "name": "2a629b9137cc094586acf593e4dbef50", "rental_uris": {"ios": "https://dc.lft.to/lastmile_qr_scan", "android": "https://dc.lft.to/lastmile_qr_scan"}}, {"is_disabled": 0, "fusion_lat": 0.0, "lat": 38.92852116666667, "type": "electric_bike", "lon": -77.22228833333334, "is_reserved": 0, "fusion_lon": 0.0, "bike_id": "b23e2f90dee4096d3e634029e9f4e6ee", "name": "b23e2f90dee4096d3e634029e9f4e6ee", "rental_uris": {"ios": "https://dc.lft.to/lastmile_qr_scan", "android": "https://dc.lft.to/lastmile_qr_scan"}}, {"is_disabled": 0, "fusion_lat": 0.0, "lat": 38.932426, "type": "electric_scooter", "lon": -77.03861266666667, "is_reserved": 0, "fusion_lon": 0.0, "bike_id": "a06c1d2b8b722e7c63976b7c181b4398", "name": "a06c1d2b8b722e7c63976b7c181b4398", "rental_uris": {"ios": "https://dc.lft.to/lastmile_qr_scan", "android": "https://dc.lft.to/lastmile_qr_scan"}}, {"is_disabled": 0, "fusion_lat": 0.0, "lat": 38.8996095, "type": "electric_bike", "lon": -77.05503883333333, "is_reserved": 0, "fusion_lon": 0.0, "bike_id": "ba93c16c9abef6fdd3181517f677c852", "name": "ba93c16c9abef6fdd3181517f677c852", "rental_uris": {"ios": "https://dc.lft.to/lastmile_qr_scan", "android": "https://dc.lft.to/lastmile_qr_scan"}}, {"is_disabled": 0, "fusion_lat": 0.0, "lat": 38.887222, "type": "electric_scooter", "lon": -77.03207433333333, "is_reserved": 0, "fusion_lon": 0.0, "bike_id": "c517870db401c2d042d4ab0f90363ecd", "name": "c517870db401c2d042d4ab0f90363ecd", "rental_uris": {"ios": "https://dc.lft.to/lastmile_qr_scan", "android": "https://dc.lft.to/lastmile_qr_scan"}}, {"is_disabled": 0, "fusion_lat": 0.0, "lat": 38.907278833333336, "type": "electric_scooter", "lon": -77.040085, "is_reserved": 0, "fusion_lon": 0.0, "bike_id": "b28656035b904e0384af0221b0bf6049", "name": "b28656035b904e0384af0221b0bf6049", "rental_uris": {"ios": "https://dc.lft.to/lastmile_qr_scan", "android": "https://dc.lft.to/lastmile_qr_scan"}}, {"is_disabled": 0, "fusion_lat": 0.0, "lat": 38.983665333333335, "type": "electric_scooter", "lon": -77.026468, "is_reserved": 0, "fusion_lon": 0.0, "bike_id": "396caacf76e717a7b7d0ec6b5daaae3e", "name": "396caacf76e717a7b7d0ec6b5daaae3e", "rental_uris": {"ios": "https://dc.lft.to/lastmile_qr_scan", "android": "https://dc.lft.to/lastmile_qr_scan"}}, {"is_disabled": 0, "fusion_lat": 0.0, "lat": 38.9280255, "type": "electric_bike", "lon": -77.04370783333333, "is_reserved": 0, "fusion_lon": 0.0, "bike_id": "8371990ad3520653c7fe24677d0dda65", "name": "8371990ad3520653c7fe24677d0dda65", "rental_uris": {"ios": "https://dc.lft.to/lastmile_qr_scan", "android": "https://dc.lft.to/lastmile_qr_scan"}}, {"is_disabled": 0, "fusion_lat": 0.0, "lat": 38.907289, "type": "electric_scooter", "lon": -77.02314033333333, "is_reserved": 0, "fusion_lon": 0.0, "bike_id": "398564c41672071c259e5e9fc5354dd7", "name": "398564c41672071c259e5e9fc5354dd7", "rental_uris": {"ios": "https://dc.lft.to/lastmile_qr_scan", "android": "https://dc.lft.to/lastmile_qr_scan"}}, {"is_disabled": 0, "fusion_lat": 0.0, "lat": 38.89853566666667, "type": "electric_bike", "lon": -76.9318995, "is_reserved": 0, "fusion_lon": 0.0, "bike_id": "9375bcc3eda65b4f261ab9641fc497ab", "name": "9375bcc3eda65b4f261ab9641fc497ab", "rental_uris": {"ios": "https://dc.lft.to/lastmile_qr_scan", "android": "https://dc.lft.to/lastmile_qr_scan"}}, {"is_disabled": 0, "fusion_lat": 0.0, "lat": 38.92947016666667, "type": "electric_bike", "lon": -77.0440105, "is_reserved": 0, "fusion_lon": 0.0, "bike_id": "db3cb681eed2aa26fa4b3a00aaf418d7", "name": "db3cb681eed2aa26fa4b3a00aaf418d7", "rental_uris": {"ios": "https://dc.lft.to/lastmile_qr_scan", "android": "https://dc.lft.to/lastmile_qr_scan"}}, {"is_disabled": 0, "fusion_lat": 0.0, "lat": 38.905154833333334, "type": "electric_scooter", "lon": -77.0433025, "is_reserved": 0, "fusion_lon": 0.0, "bike_id": "6ca90bb067b3966c05d2f1b9f8a824d5", "name": "6ca90bb067b3966c05d2f1b9f8a824d5", "rental_uris": {"ios": "https://dc.lft.to/lastmile_qr_scan", "android": "https://dc.lft.to/lastmile_qr_scan"}}, {"is_disabled": 0, "fusion_lat": 0.0, "lat": 38.9232225, "type": "electric_scooter", "lon": -77.04517983333334, "is_reserved": 0, "fusion_lon": 0.0, "bike_id": "29422deb6e4be5dc782d83f9c65d9161", "name": "29422deb6e4be5dc782d83f9c65d9161", "rental_uris": {"ios": "https://dc.lft.to/lastmile_qr_scan", "android": "https://dc.lft.to/lastmile_qr_scan"}}, {"is_disabled": 0, "fusion_lat": 0.0, "lat": 39.088540333333334, "type": "electric_bike", "lon": -77.178453, "is_reserved": 0, "fusion_lon": 0.0, "bike_id": "b61018e219a3e0b33c32c5432047c0ce", "name": "b61018e219a3e0b33c32c5432047c0ce", "rental_uris": {"ios": "https://dc.lft.to/lastmile_qr_scan", "android": "https://dc.lft.to/lastmile_qr_scan"}}, {"is_disabled": 0, "fusion_lat": 0.0, "lat": 38.9156735, "type": "electric_scooter", "lon": -77.0470105, "is_reserved": 0, "fusion_lon": 0.0, "bike_id": "34b339bab9b6138be4b2eb90ac361f50", "name": "34b339bab9b6138be4b2eb90ac361f50", "rental_uris": {"ios": "https://dc.lft.to/lastmile_qr_scan", "android": "https://dc.lft.to/lastmile_qr_scan"}}, {"is_disabled": 0, "fusion_lat": 0.0, "lat": 38.97881016666667, "type": "electric_scooter", "lon": -77.02546883333333, "is_reserved": 0, "fusion_lon": 0.0, "bike_id": "f0141fe898f5726091cedc4fb45dbd11", "name": "f0141fe898f5726091cedc4fb45dbd11", "rental_uris": {"ios": "https://dc.lft.to/lastmile_qr_scan", "android": "https://dc.lft.to/lastmile_qr_scan"}}, {"is_disabled": 0, "fusion_lat": 0.0, "lat": 38.91736066666667, "type": "electric_scooter", "lon": -77.0319365, "is_reserved": 0, "fusion_lon": 0.0, "bike_id": "99a29e1df04f00dad210a96cbe8e0c9a", "name": "99a29e1df04f00dad210a96cbe8e0c9a", "rental_uris": {"ios": "https://dc.lft.to/lastmile_qr_scan", "android": "https://dc.lft.to/lastmile_qr_scan"}}, {"is_disabled": 0, "fusion_lat": 0.0, "lat": 38.90924833333333, "type": "electric_scooter", "lon": -77.0438605, "is_reserved": 0, "fusion_lon": 0.0, "bike_id": "dd40268044e4bc90ae55d0994a45c88e", "name": "dd40268044e4bc90ae55d0994a45c88e", "rental_uris": {"ios": "https://dc.lft.to/lastmile_qr_scan", "android": "https://dc.lft.to/lastmile_qr_scan"}}, {"is_disabled": 0, "fusion_lat": 0.0, "lat": 38.91108966666667, "type": "electric_scooter", "lon": -77.0450235, "is_reserved": 0, "fusion_lon": 0.0, "bike_id": "ebe65f4056122aa5084c201bfb69052a", "name": "ebe65f4056122aa5084c201bfb69052a", "rental_uris": {"ios": "https://dc.lft.to/lastmile_qr_scan", "android": "https://dc.lft.to/lastmile_qr_scan"}}, {"is_disabled": 0, "fusion_lat": 0.0, "lat": 38.905918166666666, "type": "electric_scooter", "lon": -77.0325275, "is_reserved": 0, "fusion_lon": 0.0, "bike_id": "1851877c6669e9e676d2265db6d2358b", "name": "1851877c6669e9e676d2265db6d2358b", "rental_uris": {"ios": "https://dc.lft.to/lastmile_qr_scan", "android": "https://dc.lft.to/lastmile_qr_scan"}}, {"is_disabled": 0, "fusion_lat": 0.0, "lat": 38.889961166666666, "type": "electric_scooter", "lon": -76.94704833333333, "is_reserved": 0, "fusion_lon": 0.0, "bike_id": "b63f75f4979f176a42c541ee0fa559da", "name": "b63f75f4979f176a42c541ee0fa559da", "rental_uris": {"ios": "https://dc.lft.to/lastmile_qr_scan", "android": "https://dc.lft.to/lastmile_qr_scan"}}, {"is_disabled": 0, "fusion_lat": 0.0, "lat": 38.92447933333333, "type": "electric_scooter", "lon": -77.02034416666666, "is_reserved": 0, "fusion_lon": 0.0, "bike_id": "76fc312a1d198c3156b83ae7747303ad", "name": "76fc312a1d198c3156b83ae7747303ad", "rental_uris": {"ios": "https://dc.lft.to/lastmile_qr_scan", "android": "https://dc.lft.to/lastmile_qr_scan"}}, {"is_disabled": 0, "fusion_lat": 0.0, "lat": 38.90353983333333, "type": "electric_scooter", "lon": -77.031793, "is_reserved": 0, "fusion_lon": 0.0, "bike_id": "95c88a3edea2ca82619a97eca887d60c", "name": "95c88a3edea2ca82619a97eca887d60c", "rental_uris": {"ios": "https://dc.lft.to/lastmile_qr_scan", "android": "https://dc.lft.to/lastmile_qr_scan"}}, {"is_disabled": 0, "fusion_lat": 0.0, "lat": 38.91990966666667, "type": "electric_scooter", "lon": -77.041658, "is_reserved": 0, "fusion_lon": 0.0, "bike_id": "cc9daba7f1d8639e968d858e521bc025", "name": "cc9daba7f1d8639e968d858e521bc025", "rental_uris": {"ios": "https://dc.lft.to/lastmile_qr_scan", "android": "https://dc.lft.to/lastmile_qr_scan"}}, {"is_disabled": 0, "fusion_lat": 0.0, "lat": 38.86454416666667, "type": "electric_scooter", "lon": -76.98245516666667, "is_reserved": 0, "fusion_lon": 0.0, "bike_id": "feb88cd8cf3e14af414b5b2e82e20310", "name": "feb88cd8cf3e14af414b5b2e82e20310", "rental_uris": {"ios": "https://dc.lft.to/lastmile_qr_scan", "android": "https://dc.lft.to/lastmile_qr_scan"}}, {"is_disabled": 0, "fusion_lat": 0.0, "lat": 38.92736766666667, "type": "electric_scooter", "lon": -77.03555216666666, "is_reserved": 0, "fusion_lon": 0.0, "bike_id": "4512b7ffce4d429b58f717ad9dfe92c6", "name": "4512b7ffce4d429b58f717ad9dfe92c6", "rental_uris": {"ios": "https://dc.lft.to/lastmile_qr_scan", "android": "https://dc.lft.to/lastmile_qr_scan"}}, {"is_disabled": 0, "fusion_lat": 0.0, "lat": 38.832389666666664, "type": "electric_bike", "lon": -76.94631116666666, "is_reserved": 0, "fusion_lon": 0.0, "bike_id": "bea5a86c0a038edbae0f9baa293a98e2", "name": "bea5a86c0a038edbae0f9baa293a98e2", "rental_uris": {"ios": "https://dc.lft.to/lastmile_qr_scan", "android": "https://dc.lft.to/lastmile_qr_scan"}}, {"is_disabled": 0, "fusion_lat": 0.0, "lat": 38.90075266666667, "type": "electric_scooter", "lon": -76.99844583333334, "is_reserved": 0, "fusion_lon": 0.0, "bike_id": "bbaeefd2a89cf4332136ff9e2fd6e6ca", "name": "bbaeefd2a89cf4332136ff9e2fd6e6ca", "rental_uris": {"ios": "https://dc.lft.to/lastmile_qr_scan", "android": "https://dc.lft.to/lastmile_qr_scan"}}, {"is_disabled": 0, "fusion_lat": 0.0, "lat": 38.88177116666667, "type": "electric_scooter", "lon": -77.02811916666667, "is_reserved": 0, "fusion_lon": 0.0, "bike_id": "cf01c935f04ee00acf88b89ad892b794", "name": "cf01c935f04ee00acf88b89ad892b794", "rental_uris": {"ios": "https://dc.lft.to/lastmile_qr_scan", "android": "https://dc.lft.to/lastmile_qr_scan"}}, {"is_disabled": 0, "fusion_lat": 0.0, "lat": 38.925475166666665, "type": "electric_scooter", "lon": -76.9812375, "is_reserved": 0, "fusion_lon": 0.0, "bike_id": "58f95a790db28cd8c99fd994ad768018", "name": "58f95a790db28cd8c99fd994ad768018", "rental_uris": {"ios": "https://dc.lft.to/lastmile_qr_scan", "android": "https://dc.lft.to/lastmile_qr_scan"}}, {"is_disabled": 0, "fusion_lat": 0.0, "lat": 38.903229833333334, "type": "electric_scooter", "lon": -77.03846666666666, "is_reserved": 0, "fusion_lon": 0.0, "bike_id": "136c66d70ac4fc00bb0363ede006828c", "name": "136c66d70ac4fc00bb0363ede006828c", "rental_uris": {"ios": "https://dc.lft.to/lastmile_qr_scan", "android": "https://dc.lft.to/lastmile_qr_scan"}}, {"is_disabled": 0, "fusion_lat": 0.0, "lat": 38.973236666666665, "type": "electric_bike", "lon": -77.02151016666667, "is_reserved": 0, "fusion_lon": 0.0, "bike_id": "67399d5b7be85d4929e39a85411c4a94", "name": "67399d5b7be85d4929e39a85411c4a94", "rental_uris": {"ios": "https://dc.lft.to/lastmile_qr_scan", "android": "https://dc.lft.to/lastmile_qr_scan"}}, {"is_disabled": 0, "fusion_lat": 0.0, "lat": 38.957437166666665, "type": "electric_scooter", "lon": -77.020662, "is_reserved": 0, "fusion_lon": 0.0, "bike_id": "7dff44728b08c9f81ab9cb96c6bb6cf5", "name": "7dff44728b08c9f81ab9cb96c6bb6cf5", "rental_uris": {"ios": "https://dc.lft.to/lastmile_qr_scan", "android": "https://dc.lft.to/lastmile_qr_scan"}}, {"is_disabled": 0, "fusion_lat": 0.0, "lat": 38.958809333333335, "type": "electric_bike", "lon": -76.9248675, "is_reserved": 0, "fusion_lon": 0.0, "bike_id": "00ccbed1239251a3ca0cf2f9e988b0a5", "name": "00ccbed1239251a3ca0cf2f9e988b0a5", "rental_uris": {"ios": "https://dc.lft.to/lastmile_qr_scan", "android": "https://dc.lft.to/lastmile_qr_scan"}}, {"is_disabled": 0, "fusion_lat": 0.0, "lat": 38.893744166666664, "type": "electric_scooter", "lon": -76.94999166666666, "is_reserved": 0, "fusion_lon": 0.0, "bike_id": "e3cbc46c0ee4d593d0d72a76c1456f2d", "name": "e3cbc46c0ee4d593d0d72a76c1456f2d", "rental_uris": {"ios": "https://dc.lft.to/lastmile_qr_scan", "android": "https://dc.lft.to/lastmile_qr_scan"}}, {"is_disabled": 0, "fusion_lat": 0.0, "lat": 38.90346916666667, "type": "electric_scooter", "lon": -77.04520283333333, "is_reserved": 0, "fusion_lon": 0.0, "bike_id": "92391a7e657753a459783ad81357ba65", "name": "92391a7e657753a459783ad81357ba65", "rental_uris": {"ios": "https://dc.lft.to/lastmile_qr_scan", "android": "https://dc.lft.to/lastmile_qr_scan"}}, {"is_disabled": 0, "fusion_lat": 0.0, "lat": 38.884197, "type": "electric_scooter", "lon": -77.02564316666667, "is_reserved": 0, "fusion_lon": 0.0, "bike_id": "21853f9bce2342e9279197257b7e45a9", "name": "21853f9bce2342e9279197257b7e45a9", "rental_uris": {"ios": "https://dc.lft.to/lastmile_qr_scan", "android": "https://dc.lft.to/lastmile_qr_scan"}}, {"is_disabled": 0, "fusion_lat": 0.0, "lat": 38.856431, "type": "electric_bike", "lon": -77.11250533333333, "is_reserved": 0, "fusion_lon": 0.0, "bike_id": "25755fb3cd613f2b6ac55826a3554bae", "name": "25755fb3cd613f2b6ac55826a3554bae", "rental_uris": {"ios": "https://dc.lft.to/lastmile_qr_scan", "android": "https://dc.lft.to/lastmile_qr_scan"}}, {"is_disabled": 0, "fusion_lat": 0.0, "lat": 38.918730833333335, "type": "electric_scooter", "lon": -77.0360055, "is_reserved": 0, "fusion_lon": 0.0, "bike_id": "9632ba77d95581ab4e289f62b86314ca", "name": "9632ba77d95581ab4e289f62b86314ca", "rental_uris": {"ios": "https://dc.lft.to/lastmile_qr_scan", "android": "https://dc.lft.to/lastmile_qr_scan"}}, {"is_disabled": 0, "fusion_lat": 0.0, "lat": 38.92012666666667, "type": "electric_scooter", "lon": -77.07110766666666, "is_reserved": 0, "fusion_lon": 0.0, "bike_id": "295d6e5755bcfa483105a63e12d0af81", "name": "295d6e5755bcfa483105a63e12d0af81", "rental_uris": {"ios": "https://dc.lft.to/lastmile_qr_scan", "android": "https://dc.lft.to/lastmile_qr_scan"}}, {"is_disabled": 0, "fusion_lat": 0.0, "lat": 38.90374633333333, "type": "electric_scooter", "lon": -77.04110866666667, "is_reserved": 0, "fusion_lon": 0.0, "bike_id": "438b8e51611aa3061232be6d623e8187", "name": "438b8e51611aa3061232be6d623e8187", "rental_uris": {"ios": "https://dc.lft.to/lastmile_qr_scan", "android": "https://dc.lft.to/lastmile_qr_scan"}}, {"is_disabled": 0, "fusion_lat": 0.0, "lat": 38.916955, "type": "electric_scooter", "lon": -77.0310505, "is_reserved": 0, "fusion_lon": 0.0, "bike_id": "0024532ac2f7ed3fd7a6e4f38cd9c81a", "name": "0024532ac2f7ed3fd7a6e4f38cd9c81a", "rental_uris": {"ios": "https://dc.lft.to/lastmile_qr_scan", "android": "https://dc.lft.to/lastmile_qr_scan"}}, {"is_disabled": 0, "fusion_lat": 0.0, "lat": 38.907136333333334, "type": "electric_scooter", "lon": -77.030927, "is_reserved": 0, "fusion_lon": 0.0, "bike_id": "c75c79ddad75fbb77872b76a15d64752", "name": "c75c79ddad75fbb77872b76a15d64752", "rental_uris": {"ios": "https://dc.lft.to/lastmile_qr_scan", "android": "https://dc.lft.to/lastmile_qr_scan"}}, {"is_disabled": 0, "fusion_lat": 0.0, "lat": 38.925713, "type": "electric_scooter", "lon": -77.03924316666667, "is_reserved": 0, "fusion_lon": 0.0, "bike_id": "51decb3946d543e59f0b31cfb37a3e35", "name": "51decb3946d543e59f0b31cfb37a3e35", "rental_uris": {"ios": "https://dc.lft.to/lastmile_qr_scan", "android": "https://dc.lft.to/lastmile_qr_scan"}}, {"is_disabled": 0, "fusion_lat": 0.0, "lat": 38.906745666666666, "type": "electric_scooter", "lon": -77.03827433333333, "is_reserved": 0, "fusion_lon": 0.0, "bike_id": "cc1778ae76941ebfbcb8566fe45e2a8e", "name": "cc1778ae76941ebfbcb8566fe45e2a8e", "rental_uris": {"ios": "https://dc.lft.to/lastmile_qr_scan", "android": "https://dc.lft.to/lastmile_qr_scan"}}, {"is_disabled": 0, "fusion_lat": 0.0, "lat": 38.912156, "type": "electric_scooter", "lon": -77.012041, "is_reserved": 0, "fusion_lon": 0.0, "bike_id": "faee861dfa78671b1add480a3916ad1c", "name": "faee861dfa78671b1add480a3916ad1c", "rental_uris": {"ios": "https://dc.lft.to/lastmile_qr_scan", "android": "https://dc.lft.to/lastmile_qr_scan"}}, {"is_disabled": 0, "fusion_lat": 0.0, "lat": 38.85771233333333, "type": "electric_bike", "lon": -76.987685, "is_reserved": 0, "fusion_lon": 0.0, "bike_id": "4f06b8b345ce8da3bc5eaf282c6bbf4c", "name": "4f06b8b345ce8da3bc5eaf282c6bbf4c", "rental_uris": {"ios": "https://dc.lft.to/lastmile_qr_scan", "android": "https://dc.lft.to/lastmile_qr_scan"}}, {"is_disabled": 0, "fusion_lat": 0.0, "lat": 38.905582, "type": "electric_scooter", "lon": -77.03816633333334, "is_reserved": 0, "fusion_lon": 0.0, "bike_id": "04cc7e213cf204b4fd0f82532cbbabe1", "name": "04cc7e213cf204b4fd0f82532cbbabe1", "rental_uris": {"ios": "https://dc.lft.to/lastmile_qr_scan", "android": "https://dc.lft.to/lastmile_qr_scan"}}, {"is_disabled": 0, "fusion_lat": 0.0, "lat": 38.884879833333336, "type": "electric_scooter", "lon": -77.015356, "is_reserved": 0, "fusion_lon": 0.0, "bike_id": "53bae083da11f2db9a8150f5fb498524", "name": "53bae083da11f2db9a8150f5fb498524", "rental_uris": {"ios": "https://dc.lft.to/lastmile_qr_scan", "android": "https://dc.lft.to/lastmile_qr_scan"}}, {"is_disabled": 0, "fusion_lat": 0.0, "lat": 38.905296666666665, "type": "electric_scooter", "lon": -77.05116133333334, "is_reserved": 0, "fusion_lon": 0.0, "bike_id": "833e7b77047fef93ea1b9e0f39321473", "name": "833e7b77047fef93ea1b9e0f39321473", "rental_uris": {"ios": "https://dc.lft.to/lastmile_qr_scan", "android": "https://dc.lft.to/lastmile_qr_scan"}}, {"is_disabled": 0, "fusion_lat": 0.0, "lat": 38.919953166666666, "type": "electric_scooter", "lon": -77.0318625, "is_reserved": 0, "fusion_lon": 0.0, "bike_id": "515d0d310f26e8a65950d8332d4f827c", "name": "515d0d310f26e8a65950d8332d4f827c", "rental_uris": {"ios": "https://dc.lft.to/lastmile_qr_scan", "android": "https://dc.lft.to/lastmile_qr_scan"}}, {"is_disabled": 0, "fusion_lat": 0.0, "lat": 38.95269033333334, "type": "electric_bike", "lon": -77.00193666666667, "is_reserved": 0, "fusion_lon": 0.0, "bike_id": "1da5651bec03d80cf4091e92ae3a66bc", "name": "1da5651bec03d80cf4091e92ae3a66bc", "rental_uris": {"ios": "https://dc.lft.to/lastmile_qr_scan", "android": "https://dc.lft.to/lastmile_qr_scan"}}, {"is_disabled": 0, "fusion_lat": 0.0, "lat": 38.930558833333336, "type": "electric_scooter", "lon": -77.02656816666666, "is_reserved": 0, "fusion_lon": 0.0, "bike_id": "0e3185d4cda399339d20682a72a84cfb", "name": "0e3185d4cda399339d20682a72a84cfb", "rental_uris": {"ios": "https://dc.lft.to/lastmile_qr_scan", "android": "https://dc.lft.to/lastmile_qr_scan"}}, {"is_disabled": 0, "fusion_lat": 0.0, "lat": 38.921395, "type": "electric_scooter", "lon": -77.017876, "is_reserved": 0, "fusion_lon": 0.0, "bike_id": "0091ed727c21ab34a463fa819bfd66c8", "name": "0091ed727c21ab34a463fa819bfd66c8", "rental_uris": {"ios": "https://dc.lft.to/lastmile_qr_scan", "android": "https://dc.lft.to/lastmile_qr_scan"}}, {"is_disabled": 0, "fusion_lat": 0.0, "lat": 38.90545083333333, "type": "electric_scooter", "lon": -77.02204816666666, "is_reserved": 0, "fusion_lon": 0.0, "bike_id": "92ae53dadf88208856b040f3d07d1870", "name": "92ae53dadf88208856b040f3d07d1870", "rental_uris": {"ios": "https://dc.lft.to/lastmile_qr_scan", "android": "https://dc.lft.to/lastmile_qr_scan"}}, {"is_disabled": 0, "fusion_lat": 0.0, "lat": 38.849331666666664, "type": "electric_bike", "lon": -77.100169, "is_reserved": 0, "fusion_lon": 0.0, "bike_id": "47c0141f18200859404eccfca1024438", "name": "47c0141f18200859404eccfca1024438", "rental_uris": {"ios": "https://dc.lft.to/lastmile_qr_scan", "android": "https://dc.lft.to/lastmile_qr_scan"}}, {"is_disabled": 0, "fusion_lat": 0.0, "lat": 38.90128333333333, "type": "electric_scooter", "lon": -77.00284933333333, "is_reserved": 0, "fusion_lon": 0.0, "bike_id": "e958aa9250ce6f90117cd580f5d43b1c", "name": "e958aa9250ce6f90117cd580f5d43b1c", "rental_uris": {"ios": "https://dc.lft.to/lastmile_qr_scan", "android": "https://dc.lft.to/lastmile_qr_scan"}}, {"is_disabled": 0, "fusion_lat": 0.0, "lat": 38.866212833333336, "type": "electric_scooter", "lon": -76.98692766666667, "is_reserved": 0, "fusion_lon": 0.0, "bike_id": "5958f3a97cfd6e5b4ce3eaf5ebe25767", "name": "5958f3a97cfd6e5b4ce3eaf5ebe25767", "rental_uris": {"ios": "https://dc.lft.to/lastmile_qr_scan", "android": "https://dc.lft.to/lastmile_qr_scan"}}, {"is_disabled": 0, "fusion_lat": 0.0, "lat": 38.89371933333334, "type": "electric_scooter", "lon": -76.9499915, "is_reserved": 0, "fusion_lon": 0.0, "bike_id": "25fc5929ada702fae936d248a15779c1", "name": "25fc5929ada702fae936d248a15779c1", "rental_uris": {"ios": "https://dc.lft.to/lastmile_qr_scan", "android": "https://dc.lft.to/lastmile_qr_scan"}}, {"is_disabled": 0, "fusion_lat": 0.0, "lat": 38.8429695, "type": "electric_scooter", "lon": -76.99950933333334, "is_reserved": 0, "fusion_lon": 0.0, "bike_id": "e7427f4a3122bf9a9184630db2220ab3", "name": "e7427f4a3122bf9a9184630db2220ab3", "rental_uris": {"ios": "https://dc.lft.to/lastmile_qr_scan", "android": "https://dc.lft.to/lastmile_qr_scan"}}, {"is_disabled": 0, "fusion_lat": 0.0, "lat": 38.91884533333333, "type": "electric_scooter", "lon": -77.0297265, "is_reserved": 0, "fusion_lon": 0.0, "bike_id": "ecf679cce99b80833fcd91d7f5d0320f", "name": "ecf679cce99b80833fcd91d7f5d0320f", "rental_uris": {"ios": "https://dc.lft.to/lastmile_qr_scan", "android": "https://dc.lft.to/lastmile_qr_scan"}}, {"is_disabled": 0, "fusion_lat": 0.0, "lat": 38.90704133333333, "type": "electric_scooter", "lon": -77.043527, "is_reserved": 0, "fusion_lon": 0.0, "bike_id": "57f61e8a835da58193e023ceba5cbeb8", "name": "57f61e8a835da58193e023ceba5cbeb8", "rental_uris": {"ios": "https://dc.lft.to/lastmile_qr_scan", "android": "https://dc.lft.to/lastmile_qr_scan"}}, {"is_disabled": 0, "fusion_lat": 0.0, "lat": 38.93082866666666, "type": "electric_scooter", "lon": -77.0374805, "is_reserved": 0, "fusion_lon": 0.0, "bike_id": "5031cfe3368e7eb0b3299cf76c3758ef", "name": "5031cfe3368e7eb0b3299cf76c3758ef", "rental_uris": {"ios": "https://dc.lft.to/lastmile_qr_scan", "android": "https://dc.lft.to/lastmile_qr_scan"}}, {"is_disabled": 0, "fusion_lat": 0.0, "lat": 38.907661, "type": "electric_scooter", "lon": -77.0691825, "is_reserved": 0, "fusion_lon": 0.0, "bike_id": "4158762c8b854780a20cb7844db7d92b", "name": "4158762c8b854780a20cb7844db7d92b", "rental_uris": {"ios": "https://dc.lft.to/lastmile_qr_scan", "android": "https://dc.lft.to/lastmile_qr_scan"}}, {"is_disabled": 0, "fusion_lat": 0.0, "lat": 38.9360915, "type": "electric_scooter", "lon": -77.032125, "is_reserved": 0, "fusion_lon": 0.0, "bike_id": "7abf7cdbfd2657d3f378a12bbae4b88e", "name": "7abf7cdbfd2657d3f378a12bbae4b88e", "rental_uris": {"ios": "https://dc.lft.to/lastmile_qr_scan", "android": "https://dc.lft.to/lastmile_qr_scan"}}, {"is_disabled": 0, "fusion_lat": 0.0, "lat": 38.9023925, "type": "electric_scooter", "lon": -77.04861866666667, "is_reserved": 0, "fusion_lon": 0.0, "bike_id": "5a57a1cc57cf8578fce15d77951c7258", "name": "5a57a1cc57cf8578fce15d77951c7258", "rental_uris": {"ios": "https://dc.lft.to/lastmile_qr_scan", "android": "https://dc.lft.to/lastmile_qr_scan"}}, {"is_disabled": 0, "fusion_lat": 0.0, "lat": 38.915731, "type": "electric_scooter", "lon": -77.03192083333333, "is_reserved": 0, "fusion_lon": 0.0, "bike_id": "a0a9d9810ef14fa087fe313c2e1d40eb", "name": "a0a9d9810ef14fa087fe313c2e1d40eb", "rental_uris": {"ios": "https://dc.lft.to/lastmile_qr_scan", "android": "https://dc.lft.to/lastmile_qr_scan"}}, {"is_disabled": 0, "fusion_lat": 0.0, "lat": 38.92189316666666, "type": "electric_scooter", "lon": -77.01835866666667, "is_reserved": 0, "fusion_lon": 0.0, "bike_id": "a408254e5c2e10843c0c4591bcb9ff2b", "name": "a408254e5c2e10843c0c4591bcb9ff2b", "rental_uris": {"ios": "https://dc.lft.to/lastmile_qr_scan", "android": "https://dc.lft.to/lastmile_qr_scan"}}, {"is_disabled": 0, "fusion_lat": 0.0, "lat": 38.9182655, "type": "electric_scooter", "lon": -77.03841716666666, "is_reserved": 0, "fusion_lon": 0.0, "bike_id": "0b4fa8e560f6bcc81cbf12550b3ae9cf", "name": "0b4fa8e560f6bcc81cbf12550b3ae9cf", "rental_uris": {"ios": "https://dc.lft.to/lastmile_qr_scan", "android": "https://dc.lft.to/lastmile_qr_scan"}}, {"is_disabled": 0, "fusion_lat": 0.0, "lat": 38.99826233333334, "type": "electric_bike", "lon": -76.883758, "is_reserved": 0, "fusion_lon": 0.0, "bike_id": "d161bf38c867ebbefe14f83499dad06f", "name": "d161bf38c867ebbefe14f83499dad06f", "rental_uris": {"ios": "https://dc.lft.to/lastmile_qr_scan", "android": "https://dc.lft.to/lastmile_qr_scan"}}, {"is_disabled": 0, "fusion_lat": 0.0, "lat": 38.885798666666666, "type": "electric_scooter", "lon": -77.01226266666667, "is_reserved": 0, "fusion_lon": 0.0, "bike_id": "6d8077fb9b38dd0dab32764ab88e13d3", "name": "6d8077fb9b38dd0dab32764ab88e13d3", "rental_uris": {"ios": "https://dc.lft.to/lastmile_qr_scan", "android": "https://dc.lft.to/lastmile_qr_scan"}}, {"is_disabled": 0, "fusion_lat": 0.0, "lat": 39.030451, "type": "electric_bike", "lon": -77.09475466666666, "is_reserved": 0, "fusion_lon": 0.0, "bike_id": "8cbd29fe0e222e63d369cc8bf2d4a1cd", "name": "8cbd29fe0e222e63d369cc8bf2d4a1cd", "rental_uris": {"ios": "https://dc.lft.to/lastmile_qr_scan", "android": "https://dc.lft.to/lastmile_qr_scan"}}, {"is_disabled": 0, "fusion_lat": 0.0, "lat": 38.9308505, "type": "electric_scooter", "lon": -76.96714166666666, "is_reserved": 0, "fusion_lon": 0.0, "bike_id": "918105b5934fa1b604726147bfd2f580", "name": "918105b5934fa1b604726147bfd2f580", "rental_uris": {"ios": "https://dc.lft.to/lastmile_qr_scan", "android": "https://dc.lft.to/lastmile_qr_scan"}}, {"is_disabled": 0, "fusion_lat": 0.0, "lat": 38.92822666666667, "type": "electric_scooter", "lon": -77.02256016666666, "is_reserved": 0, "fusion_lon": 0.0, "bike_id": "0d4c0d375dd872ccf34e4dd7f03e7655", "name": "0d4c0d375dd872ccf34e4dd7f03e7655", "rental_uris": {"ios": "https://dc.lft.to/lastmile_qr_scan", "android": "https://dc.lft.to/lastmile_qr_scan"}}, {"is_disabled": 0, "fusion_lat": 0.0, "lat": 39.024272, "type": "electric_bike", "lon": -77.131049, "is_reserved": 0, "fusion_lon": 0.0, "bike_id": "eacd467bcf53a4d1ce49fd76ba90e72e", "name": "eacd467bcf53a4d1ce49fd76ba90e72e", "rental_uris": {"ios": "https://dc.lft.to/lastmile_qr_scan", "android": "https://dc.lft.to/lastmile_qr_scan"}}, {"is_disabled": 0, "fusion_lat": 0.0, "lat": 38.89917483333333, "type": "electric_scooter", "lon": -76.93381833333333, "is_reserved": 0, "fusion_lon": 0.0, "bike_id": "810d64bf86d433938f64513a28d91b33", "name": "810d64bf86d433938f64513a28d91b33", "rental_uris": {"ios": "https://dc.lft.to/lastmile_qr_scan", "android": "https://dc.lft.to/lastmile_qr_scan"}}, {"is_disabled": 0, "fusion_lat": 0.0, "lat": 38.89501083333333, "type": "electric_scooter", "lon": -77.0229345, "is_reserved": 0, "fusion_lon": 0.0, "bike_id": "762ea17e38c2738366afaa65aae13d08", "name": "762ea17e38c2738366afaa65aae13d08", "rental_uris": {"ios": "https://dc.lft.to/lastmile_qr_scan", "android": "https://dc.lft.to/lastmile_qr_scan"}}, {"is_disabled": 0, "fusion_lat": 0.0, "lat": 38.924156333333336, "type": "electric_scooter", "lon": -77.01945616666667, "is_reserved": 0, "fusion_lon": 0.0, "bike_id": "2aeeec50508637faea9d9982c8c3d126", "name": "2aeeec50508637faea9d9982c8c3d126", "rental_uris": {"ios": "https://dc.lft.to/lastmile_qr_scan", "android": "https://dc.lft.to/lastmile_qr_scan"}}, {"is_disabled": 0, "fusion_lat": 0.0, "lat": 38.90076, "type": "electric_scooter", "lon": -77.03934316666667, "is_reserved": 0, "fusion_lon": 0.0, "bike_id": "1df0aa74f709e45dc39629776dd1769e", "name": "1df0aa74f709e45dc39629776dd1769e", "rental_uris": {"ios": "https://dc.lft.to/lastmile_qr_scan", "android": "https://dc.lft.to/lastmile_qr_scan"}}, {"is_disabled": 0, "fusion_lat": 0.0, "lat": 38.88446183333333, "type": "electric_scooter", "lon": -76.95099383333333, "is_reserved": 0, "fusion_lon": 0.0, "bike_id": "4f9eebcf980cfa1b4b12133ea17dd0c6", "name": "4f9eebcf980cfa1b4b12133ea17dd0c6", "rental_uris": {"ios": "https://dc.lft.to/lastmile_qr_scan", "android": "https://dc.lft.to/lastmile_qr_scan"}}, {"is_disabled": 0, "fusion_lat": 0.0, "lat": 38.917588, "type": "electric_scooter", "lon": -77.03661433333333, "is_reserved": 0, "fusion_lon": 0.0, "bike_id": "a2fd67b648778d5c107e35803b310744", "name": "a2fd67b648778d5c107e35803b310744", "rental_uris": {"ios": "https://dc.lft.to/lastmile_qr_scan", "android": "https://dc.lft.to/lastmile_qr_scan"}}, {"is_disabled": 0, "fusion_lat": 0.0, "lat": 38.9287235, "type": "electric_scooter", "lon": -77.01369033333333, "is_reserved": 0, "fusion_lon": 0.0, "bike_id": "1b1ff4ad0afff2861ddaa4a68b4b7269", "name": "1b1ff4ad0afff2861ddaa4a68b4b7269", "rental_uris": {"ios": "https://dc.lft.to/lastmile_qr_scan", "android": "https://dc.lft.to/lastmile_qr_scan"}}, {"is_disabled": 0, "fusion_lat": 0.0, "lat": 38.9157265, "type": "electric_scooter", "lon": -77.030415, "is_reserved": 0, "fusion_lon": 0.0, "bike_id": "305ebd8ce63418c5df594d6f9c13e055", "name": "305ebd8ce63418c5df594d6f9c13e055", "rental_uris": {"ios": "https://dc.lft.to/lastmile_qr_scan", "android": "https://dc.lft.to/lastmile_qr_scan"}}, {"is_disabled": 0, "fusion_lat": 0.0, "lat": 38.89684, "type": "electric_scooter", "lon": -76.99628533333333, "is_reserved": 0, "fusion_lon": 0.0, "bike_id": "e105cad71c1532b9914dcaa8d30fb9c4", "name": "e105cad71c1532b9914dcaa8d30fb9c4", "rental_uris": {"ios": "https://dc.lft.to/lastmile_qr_scan", "android": "https://dc.lft.to/lastmile_qr_scan"}}, {"is_disabled": 0, "fusion_lat": 0.0, "lat": 38.900716833333334, "type": "electric_scooter", "lon": -77.04645883333333, "is_reserved": 0, "fusion_lon": 0.0, "bike_id": "2dad9f75159bc608aca3dbb35eed7281", "name": "2dad9f75159bc608aca3dbb35eed7281", "rental_uris": {"ios": "https://dc.lft.to/lastmile_qr_scan", "android": "https://dc.lft.to/lastmile_qr_scan"}}, {"is_disabled": 0, "fusion_lat": 0.0, "lat": 38.92367683333333, "type": "electric_scooter", "lon": -77.04129516666667, "is_reserved": 0, "fusion_lon": 0.0, "bike_id": "7a318d06615d95225f4a4ac682501318", "name": "7a318d06615d95225f4a4ac682501318", "rental_uris": {"ios": "https://dc.lft.to/lastmile_qr_scan", "android": "https://dc.lft.to/lastmile_qr_scan"}}, {"is_disabled": 0, "fusion_lat": 0.0, "lat": 38.88509416666667, "type": "electric_scooter", "lon": -77.00572333333334, "is_reserved": 0, "fusion_lon": 0.0, "bike_id": "277be3046c7486d1074a34e427f225e2", "name": "277be3046c7486d1074a34e427f225e2", "rental_uris": {"ios": "https://dc.lft.to/lastmile_qr_scan", "android": "https://dc.lft.to/lastmile_qr_scan"}}, {"is_disabled": 0, "fusion_lat": 0.0, "lat": 38.88639216666667, "type": "electric_bike", "lon": -76.95472583333333, "is_reserved": 0, "fusion_lon": 0.0, "bike_id": "652888cffb10b6b4617971125d096b52", "name": "652888cffb10b6b4617971125d096b52", "rental_uris": {"ios": "https://dc.lft.to/lastmile_qr_scan", "android": "https://dc.lft.to/lastmile_qr_scan"}}, {"is_disabled": 0, "fusion_lat": 0.0, "lat": 38.9074005, "type": "electric_scooter", "lon": -76.9983835, "is_reserved": 0, "fusion_lon": 0.0, "bike_id": "a75cdda4d3f0b6befa51ad19d914b51b", "name": "a75cdda4d3f0b6befa51ad19d914b51b", "rental_uris": {"ios": "https://dc.lft.to/lastmile_qr_scan", "android": "https://dc.lft.to/lastmile_qr_scan"}}, {"is_disabled": 0, "fusion_lat": 0.0, "lat": 38.907753166666666, "type": "electric_scooter", "lon": -77.03829933333333, "is_reserved": 0, "fusion_lon": 0.0, "bike_id": "054d8d2e47668cb63717105087552e8a", "name": "054d8d2e47668cb63717105087552e8a", "rental_uris": {"ios": "https://dc.lft.to/lastmile_qr_scan", "android": "https://dc.lft.to/lastmile_qr_scan"}}, {"is_disabled": 0, "fusion_lat": 0.0, "lat": 38.9614235, "type": "electric_scooter", "lon": -77.02784566666666, "is_reserved": 0, "fusion_lon": 0.0, "bike_id": "669bc01d426ab13869b1fd3e65b41934", "name": "669bc01d426ab13869b1fd3e65b41934", "rental_uris": {"ios": "https://dc.lft.to/lastmile_qr_scan", "android": "https://dc.lft.to/lastmile_qr_scan"}}, {"is_disabled": 0, "fusion_lat": 0.0, "lat": 38.901259833333334, "type": "electric_scooter", "lon": -77.0288725, "is_reserved": 0, "fusion_lon": 0.0, "bike_id": "16a803b8fc4d8d2ceb840195347adccf", "name": "16a803b8fc4d8d2ceb840195347adccf", "rental_uris": {"ios": "https://dc.lft.to/lastmile_qr_scan", "android": "https://dc.lft.to/lastmile_qr_scan"}}, {"is_disabled": 0, "fusion_lat": 0.0, "lat": 38.9252695, "type": "electric_scooter", "lon": -77.038468, "is_reserved": 0, "fusion_lon": 0.0, "bike_id": "3ff292df5ba83c6de76f06fb6fc974fa", "name": "3ff292df5ba83c6de76f06fb6fc974fa", "rental_uris": {"ios": "https://dc.lft.to/lastmile_qr_scan", "android": "https://dc.lft.to/lastmile_qr_scan"}}, {"is_disabled": 0, "fusion_lat": 0.0, "lat": 38.9140125, "type": "electric_scooter", "lon": -77.03928266666667, "is_reserved": 0, "fusion_lon": 0.0, "bike_id": "9416fe83b442f4b796373fc511a124c4", "name": "9416fe83b442f4b796373fc511a124c4", "rental_uris": {"ios": "https://dc.lft.to/lastmile_qr_scan", "android": "https://dc.lft.to/lastmile_qr_scan"}}, {"is_disabled": 0, "fusion_lat": 0.0, "lat": 38.9077535, "type": "electric_scooter", "lon": -77.07153833333334, "is_reserved": 0, "fusion_lon": 0.0, "bike_id": "d69a5bcb0fb462bf50a4ac4bb7f0bbc1", "name": "d69a5bcb0fb462bf50a4ac4bb7f0bbc1", "rental_uris": {"ios": "https://dc.lft.to/lastmile_qr_scan", "android": "https://dc.lft.to/lastmile_qr_scan"}}, {"is_disabled": 0, "fusion_lat": 0.0, "lat": 39.056329833333336, "type": "electric_bike", "lon": -77.12530766666667, "is_reserved": 0, "fusion_lon": 0.0, "bike_id": "262c5b5eca10c6447a0601e67ab2295a", "name": "262c5b5eca10c6447a0601e67ab2295a", "rental_uris": {"ios": "https://dc.lft.to/lastmile_qr_scan", "android": "https://dc.lft.to/lastmile_qr_scan"}}, {"is_disabled": 0, "fusion_lat": 0.0, "lat": 38.916139, "type": "electric_scooter", "lon": -77.03290716666666, "is_reserved": 0, "fusion_lon": 0.0, "bike_id": "a328562081e8e91fdd334e6b89df8782", "name": "a328562081e8e91fdd334e6b89df8782", "rental_uris": {"ios": "https://dc.lft.to/lastmile_qr_scan", "android": "https://dc.lft.to/lastmile_qr_scan"}}, {"is_disabled": 0, "fusion_lat": 0.0, "lat": 38.900526, "type": "electric_scooter", "lon": -77.007443, "is_reserved": 0, "fusion_lon": 0.0, "bike_id": "573300f8769aa5967cf0cb082b77da56", "name": "573300f8769aa5967cf0cb082b77da56", "rental_uris": {"ios": "https://dc.lft.to/lastmile_qr_scan", "android": "https://dc.lft.to/lastmile_qr_scan"}}, {"is_disabled": 0, "fusion_lat": 0.0, "lat": 38.9388665, "type": "electric_scooter", "lon": -77.03322733333333, "is_reserved": 0, "fusion_lon": 0.0, "bike_id": "20187de1be7bbc84f321a52fa879f31c", "name": "20187de1be7bbc84f321a52fa879f31c", "rental_uris": {"ios": "https://dc.lft.to/lastmile_qr_scan", "android": "https://dc.lft.to/lastmile_qr_scan"}}, {"is_disabled": 0, "fusion_lat": 0.0, "lat": 38.921054833333336, "type": "electric_scooter", "lon": -77.04214, "is_reserved": 0, "fusion_lon": 0.0, "bike_id": "c81b48abbfc064880583915d49543544", "name": "c81b48abbfc064880583915d49543544", "rental_uris": {"ios": "https://dc.lft.to/lastmile_qr_scan", "android": "https://dc.lft.to/lastmile_qr_scan"}}, {"is_disabled": 0, "fusion_lat": 0.0, "lat": 38.88269716666667, "type": "electric_scooter", "lon": -76.99581833333333, "is_reserved": 0, "fusion_lon": 0.0, "bike_id": "a13237270ee9ab89406018e0c4698971", "name": "a13237270ee9ab89406018e0c4698971", "rental_uris": {"ios": "https://dc.lft.to/lastmile_qr_scan", "android": "https://dc.lft.to/lastmile_qr_scan"}}, {"is_disabled": 0, "fusion_lat": 0.0, "lat": 38.984346, "type": "electric_scooter", "lon": -77.02675383333333, "is_reserved": 0, "fusion_lon": 0.0, "bike_id": "8c45c0f01bca5c5ddf92a3f827bba27a", "name": "8c45c0f01bca5c5ddf92a3f827bba27a", "rental_uris": {"ios": "https://dc.lft.to/lastmile_qr_scan", "android": "https://dc.lft.to/lastmile_qr_scan"}}, {"is_disabled": 0, "fusion_lat": 0.0, "lat": 38.804458, "type": "electric_bike", "lon": -77.04234466666666, "is_reserved": 0, "fusion_lon": 0.0, "bike_id": "083cdbabff6d705927154a74bb7b6bcb", "name": "083cdbabff6d705927154a74bb7b6bcb", "rental_uris": {"ios": "https://dc.lft.to/lastmile_qr_scan", "android": "https://dc.lft.to/lastmile_qr_scan"}}, {"is_disabled": 0, "fusion_lat": 0.0, "lat": 38.887988, "type": "electric_scooter", "lon": -76.93365816666666, "is_reserved": 0, "fusion_lon": 0.0, "bike_id": "4c0bb3608200537d09188b26bb03f59a", "name": "4c0bb3608200537d09188b26bb03f59a", "rental_uris": {"ios": "https://dc.lft.to/lastmile_qr_scan", "android": "https://dc.lft.to/lastmile_qr_scan"}}, {"is_disabled": 0, "fusion_lat": 0.0, "lat": 38.9660655, "type": "electric_scooter", "lon": -77.02318616666666, "is_reserved": 0, "fusion_lon": 0.0, "bike_id": "bc64a3567d70a307130f79cfd8c3a002", "name": "bc64a3567d70a307130f79cfd8c3a002", "rental_uris": {"ios": "https://dc.lft.to/lastmile_qr_scan", "android": "https://dc.lft.to/lastmile_qr_scan"}}, {"is_disabled": 0, "fusion_lat": 0.0, "lat": 38.96490383333333, "type": "electric_bike", "lon": -77.08781016666667, "is_reserved": 0, "fusion_lon": 0.0, "bike_id": "022ebe0eff2f0b282b2f9a3de27c70cb", "name": "022ebe0eff2f0b282b2f9a3de27c70cb", "rental_uris": {"ios": "https://dc.lft.to/lastmile_qr_scan", "android": "https://dc.lft.to/lastmile_qr_scan"}}, {"is_disabled": 0, "fusion_lat": 0.0, "lat": 38.91100083333333, "type": "electric_scooter", "lon": -77.04838066666667, "is_reserved": 0, "fusion_lon": 0.0, "bike_id": "8914399743b23ca7142cfd867ecdebc8", "name": "8914399743b23ca7142cfd867ecdebc8", "rental_uris": {"ios": "https://dc.lft.to/lastmile_qr_scan", "android": "https://dc.lft.to/lastmile_qr_scan"}}, {"is_disabled": 0, "fusion_lat": 0.0, "lat": 38.82780733333333, "type": "electric_bike", "lon": -77.00921966666667, "is_reserved": 0, "fusion_lon": 0.0, "bike_id": "668d4cf409c6f33296121e238429400f", "name": "668d4cf409c6f33296121e238429400f", "rental_uris": {"ios": "https://dc.lft.to/lastmile_qr_scan", "android": "https://dc.lft.to/lastmile_qr_scan"}}, {"is_disabled": 0, "fusion_lat": 0.0, "lat": 38.90096966666667, "type": "electric_scooter", "lon": -77.04781383333334, "is_reserved": 0, "fusion_lon": 0.0, "bike_id": "25e966f1060e516c99b92ef195d3f5f0", "name": "25e966f1060e516c99b92ef195d3f5f0", "rental_uris": {"ios": "https://dc.lft.to/lastmile_qr_scan", "android": "https://dc.lft.to/lastmile_qr_scan"}}, {"is_disabled": 0, "fusion_lat": 0.0, "lat": 38.8922295, "type": "electric_scooter", "lon": -77.04635316666666, "is_reserved": 0, "fusion_lon": 0.0, "bike_id": "4651469304d356de9479d06c9164847d", "name": "4651469304d356de9479d06c9164847d", "rental_uris": {"ios": "https://dc.lft.to/lastmile_qr_scan", "android": "https://dc.lft.to/lastmile_qr_scan"}}, {"is_disabled": 0, "fusion_lat": 0.0, "lat": 38.9190525, "type": "electric_scooter", "lon": -77.02174383333333, "is_reserved": 0, "fusion_lon": 0.0, "bike_id": "3c5919cb8ac733f199d743e0a87ce14d", "name": "3c5919cb8ac733f199d743e0a87ce14d", "rental_uris": {"ios": "https://dc.lft.to/lastmile_qr_scan", "android": "https://dc.lft.to/lastmile_qr_scan"}}, {"is_disabled": 0, "fusion_lat": 0.0, "lat": 38.87686266666667, "type": "electric_scooter", "lon": -77.01758183333334, "is_reserved": 0, "fusion_lon": 0.0, "bike_id": "6e12e46fa2c4ae9757058f6a51e09635", "name": "6e12e46fa2c4ae9757058f6a51e09635", "rental_uris": {"ios": "https://dc.lft.to/lastmile_qr_scan", "android": "https://dc.lft.to/lastmile_qr_scan"}}, {"is_disabled": 0, "fusion_lat": 0.0, "lat": 38.907570666666665, "type": "electric_scooter", "lon": -77.04363716666667, "is_reserved": 0, "fusion_lon": 0.0, "bike_id": "a515dd0a794c08c79c2e36ee23cd7316", "name": "a515dd0a794c08c79c2e36ee23cd7316", "rental_uris": {"ios": "https://dc.lft.to/lastmile_qr_scan", "android": "https://dc.lft.to/lastmile_qr_scan"}}, {"is_disabled": 0, "fusion_lat": 0.0, "lat": 38.9081595, "type": "electric_scooter", "lon": -77.04333, "is_reserved": 0, "fusion_lon": 0.0, "bike_id": "94648eec9679114cce5900befb21f00f", "name": "94648eec9679114cce5900befb21f00f", "rental_uris": {"ios": "https://dc.lft.to/lastmile_qr_scan", "android": "https://dc.lft.to/lastmile_qr_scan"}}, {"is_disabled": 0, "fusion_lat": 0.0, "lat": 38.900028666666664, "type": "electric_scooter", "lon": -76.99843383333334, "is_reserved": 0, "fusion_lon": 0.0, "bike_id": "081b14c526cb36ab2b64e486ff3fb444", "name": "081b14c526cb36ab2b64e486ff3fb444", "rental_uris": {"ios": "https://dc.lft.to/lastmile_qr_scan", "android": "https://dc.lft.to/lastmile_qr_scan"}}, {"is_disabled": 0, "fusion_lat": 0.0, "lat": 38.905551833333334, "type": "electric_scooter", "lon": -77.02489216666666, "is_reserved": 0, "fusion_lon": 0.0, "bike_id": "92f952929ff3f86e21f2742f254c70ac", "name": "92f952929ff3f86e21f2742f254c70ac", "rental_uris": {"ios": "https://dc.lft.to/lastmile_qr_scan", "android": "https://dc.lft.to/lastmile_qr_scan"}}, {"is_disabled": 0, "fusion_lat": 0.0, "lat": 38.9666845, "type": "electric_scooter", "lon": -77.02412966666667, "is_reserved": 0, "fusion_lon": 0.0, "bike_id": "d76a0ffa96a3229205d1f5a84206b6db", "name": "d76a0ffa96a3229205d1f5a84206b6db", "rental_uris": {"ios": "https://dc.lft.to/lastmile_qr_scan", "android": "https://dc.lft.to/lastmile_qr_scan"}}, {"is_disabled": 0, "fusion_lat": 0.0, "lat": 38.883361666666666, "type": "electric_scooter", "lon": -77.031537, "is_reserved": 0, "fusion_lon": 0.0, "bike_id": "7fca826ffd013ff1216a412317adeccd", "name": "7fca826ffd013ff1216a412317adeccd", "rental_uris": {"ios": "https://dc.lft.to/lastmile_qr_scan", "android": "https://dc.lft.to/lastmile_qr_scan"}}, {"is_disabled": 0, "fusion_lat": 0.0, "lat": 38.899094, "type": "electric_scooter", "lon": -77.040654, "is_reserved": 0, "fusion_lon": 0.0, "bike_id": "46ee6050a984fdabcf328240c19ab466", "name": "46ee6050a984fdabcf328240c19ab466", "rental_uris": {"ios": "https://dc.lft.to/lastmile_qr_scan", "android": "https://dc.lft.to/lastmile_qr_scan"}}, {"is_disabled": 0, "fusion_lat": 0.0, "lat": 38.86103833333333, "type": "electric_scooter", "lon": -76.98361383333334, "is_reserved": 0, "fusion_lon": 0.0, "bike_id": "e7bc8b7d47dd71b476eec744ad53c3ff", "name": "e7bc8b7d47dd71b476eec744ad53c3ff", "rental_uris": {"ios": "https://dc.lft.to/lastmile_qr_scan", "android": "https://dc.lft.to/lastmile_qr_scan"}}, {"is_disabled": 0, "fusion_lat": 0.0, "lat": 38.9101085, "type": "electric_scooter", "lon": -76.99389683333334, "is_reserved": 0, "fusion_lon": 0.0, "bike_id": "d5ef6a1c24d2dab7c124bf0db88412b3", "name": "d5ef6a1c24d2dab7c124bf0db88412b3", "rental_uris": {"ios": "https://dc.lft.to/lastmile_qr_scan", "android": "https://dc.lft.to/lastmile_qr_scan"}}, {"is_disabled": 0, "fusion_lat": 0.0, "lat": 38.923427333333336, "type": "electric_scooter", "lon": -77.0189725, "is_reserved": 0, "fusion_lon": 0.0, "bike_id": "02782826d3e56f3362d21213581961fb", "name": "02782826d3e56f3362d21213581961fb", "rental_uris": {"ios": "https://dc.lft.to/lastmile_qr_scan", "android": "https://dc.lft.to/lastmile_qr_scan"}}, {"is_disabled": 0, "fusion_lat": 0.0, "lat": 38.91333766666666, "type": "electric_scooter", "lon": -77.00221166666667, "is_reserved": 0, "fusion_lon": 0.0, "bike_id": "76eee869babbb2dbe9e124c803bea78c", "name": "76eee869babbb2dbe9e124c803bea78c", "rental_uris": {"ios": "https://dc.lft.to/lastmile_qr_scan", "android": "https://dc.lft.to/lastmile_qr_scan"}}, {"is_disabled": 0, "fusion_lat": 0.0, "lat": 38.919349, "type": "electric_scooter", "lon": -77.08136716666667, "is_reserved": 0, "fusion_lon": 0.0, "bike_id": "4e494ad285098d74ba1b6f978f42090b", "name": "4e494ad285098d74ba1b6f978f42090b", "rental_uris": {"ios": "https://dc.lft.to/lastmile_qr_scan", "android": "https://dc.lft.to/lastmile_qr_scan"}}, {"is_disabled": 0, "fusion_lat": 0.0, "lat": 38.9079675, "type": "electric_scooter", "lon": -77.023909, "is_reserved": 0, "fusion_lon": 0.0, "bike_id": "ee179e1c9a560986d25bcf5bf5a1f69d", "name": "ee179e1c9a560986d25bcf5bf5a1f69d", "rental_uris": {"ios": "https://dc.lft.to/lastmile_qr_scan", "android": "https://dc.lft.to/lastmile_qr_scan"}}, {"is_disabled": 0, "fusion_lat": 0.0, "lat": 38.8610735, "type": "electric_scooter", "lon": -76.98338683333333, "is_reserved": 0, "fusion_lon": 0.0, "bike_id": "a3c2685f4a58e2e44f670acbf4efc9dd", "name": "a3c2685f4a58e2e44f670acbf4efc9dd", "rental_uris": {"ios": "https://dc.lft.to/lastmile_qr_scan", "android": "https://dc.lft.to/lastmile_qr_scan"}}, {"is_disabled": 0, "fusion_lat": 0.0, "lat": 38.91930983333334, "type": "electric_scooter", "lon": -77.03173583333333, "is_reserved": 0, "fusion_lon": 0.0, "bike_id": "6aa69775525db5eee1fb517226aea332", "name": "6aa69775525db5eee1fb517226aea332", "rental_uris": {"ios": "https://dc.lft.to/lastmile_qr_scan", "android": "https://dc.lft.to/lastmile_qr_scan"}}, {"is_disabled": 0, "fusion_lat": 0.0, "lat": 38.89196316666666, "type": "electric_scooter", "lon": -77.03107766666666, "is_reserved": 0, "fusion_lon": 0.0, "bike_id": "760687acbc0bfb9a0045e60df45dc170", "name": "760687acbc0bfb9a0045e60df45dc170", "rental_uris": {"ios": "https://dc.lft.to/lastmile_qr_scan", "android": "https://dc.lft.to/lastmile_qr_scan"}}, {"is_disabled": 0, "fusion_lat": 0.0, "lat": 38.931833, "type": "electric_scooter", "lon": -77.0283575, "is_reserved": 0, "fusion_lon": 0.0, "bike_id": "cd85a22290c9dc70e60cc9b311a06a41", "name": "cd85a22290c9dc70e60cc9b311a06a41", "rental_uris": {"ios": "https://dc.lft.to/lastmile_qr_scan", "android": "https://dc.lft.to/lastmile_qr_scan"}}, {"is_disabled": 0, "fusion_lat": 0.0, "lat": 38.88767816666667, "type": "electric_scooter", "lon": -77.02231033333334, "is_reserved": 0, "fusion_lon": 0.0, "bike_id": "3b06b8fe79aa5387497c76b40ec1135b", "name": "3b06b8fe79aa5387497c76b40ec1135b", "rental_uris": {"ios": "https://dc.lft.to/lastmile_qr_scan", "android": "https://dc.lft.to/lastmile_qr_scan"}}, {"is_disabled": 0, "fusion_lat": 0.0, "lat": 38.90063033333333, "type": "electric_scooter", "lon": -76.93388366666667, "is_reserved": 0, "fusion_lon": 0.0, "bike_id": "2df9fa0ab8486d458bb9c98ed2038157", "name": "2df9fa0ab8486d458bb9c98ed2038157", "rental_uris": {"ios": "https://dc.lft.to/lastmile_qr_scan", "android": "https://dc.lft.to/lastmile_qr_scan"}}, {"is_disabled": 0, "fusion_lat": 0.0, "lat": 38.915510833333336, "type": "electric_scooter", "lon": -77.0306855, "is_reserved": 0, "fusion_lon": 0.0, "bike_id": "86a21ff3b0bd89c5e916b379c7459cf4", "name": "86a21ff3b0bd89c5e916b379c7459cf4", "rental_uris": {"ios": "https://dc.lft.to/lastmile_qr_scan", "android": "https://dc.lft.to/lastmile_qr_scan"}}, {"is_disabled": 0, "fusion_lat": 0.0, "lat": 39.01053516666666, "type": "electric_bike", "lon": -76.91104466666667, "is_reserved": 0, "fusion_lon": 0.0, "bike_id": "deae16fb1fe94ca03fcd6d891a6cf05e", "name": "deae16fb1fe94ca03fcd6d891a6cf05e", "rental_uris": {"ios": "https://dc.lft.to/lastmile_qr_scan", "android": "https://dc.lft.to/lastmile_qr_scan"}}, {"is_disabled": 0, "fusion_lat": 0.0, "lat": 38.92287733333333, "type": "electric_scooter", "lon": -77.02069583333333, "is_reserved": 0, "fusion_lon": 0.0, "bike_id": "2a6a5d9654110979dfd03e75cc2e0433", "name": "2a6a5d9654110979dfd03e75cc2e0433", "rental_uris": {"ios": "https://dc.lft.to/lastmile_qr_scan", "android": "https://dc.lft.to/lastmile_qr_scan"}}, {"is_disabled": 0, "fusion_lat": 0.0, "lat": 38.88431083333333, "type": "electric_scooter", "lon": -76.95757116666667, "is_reserved": 0, "fusion_lon": 0.0, "bike_id": "3bb5d37acc7be6e504d48e66068be093", "name": "3bb5d37acc7be6e504d48e66068be093", "rental_uris": {"ios": "https://dc.lft.to/lastmile_qr_scan", "android": "https://dc.lft.to/lastmile_qr_scan"}}, {"is_disabled": 0, "fusion_lat": 0.0, "lat": 38.884793, "type": "electric_scooter", "lon": -76.94529666666666, "is_reserved": 0, "fusion_lon": 0.0, "bike_id": "2300fb4c2abe06d85542b60acabfb53f", "name": "2300fb4c2abe06d85542b60acabfb53f", "rental_uris": {"ios": "https://dc.lft.to/lastmile_qr_scan", "android": "https://dc.lft.to/lastmile_qr_scan"}}, {"is_disabled": 0, "fusion_lat": 0.0, "lat": 38.919146833333336, "type": "electric_scooter", "lon": -77.04632716666667, "is_reserved": 0, "fusion_lon": 0.0, "bike_id": "36f9983c54b77245602b34380f2991aa", "name": "36f9983c54b77245602b34380f2991aa", "rental_uris": {"ios": "https://dc.lft.to/lastmile_qr_scan", "android": "https://dc.lft.to/lastmile_qr_scan"}}, {"is_disabled": 0, "fusion_lat": 0.0, "lat": 38.93636033333333, "type": "electric_scooter", "lon": -77.0587985, "is_reserved": 0, "fusion_lon": 0.0, "bike_id": "40b587cdc710d7625b96c3d495f66540", "name": "40b587cdc710d7625b96c3d495f66540", "rental_uris": {"ios": "https://dc.lft.to/lastmile_qr_scan", "android": "https://dc.lft.to/lastmile_qr_scan"}}, {"is_disabled": 0, "fusion_lat": 0.0, "lat": 38.92107266666667, "type": "electric_scooter", "lon": -77.04206916666666, "is_reserved": 0, "fusion_lon": 0.0, "bike_id": "0bd4f9aba28c2776c15af37c7d932e63", "name": "0bd4f9aba28c2776c15af37c7d932e63", "rental_uris": {"ios": "https://dc.lft.to/lastmile_qr_scan", "android": "https://dc.lft.to/lastmile_qr_scan"}}, {"is_disabled": 0, "fusion_lat": 0.0, "lat": 38.9087485, "type": "electric_scooter", "lon": -76.99786566666667, "is_reserved": 0, "fusion_lon": 0.0, "bike_id": "555a25fbbb89db1a44231e424863bde6", "name": "555a25fbbb89db1a44231e424863bde6", "rental_uris": {"ios": "https://dc.lft.to/lastmile_qr_scan", "android": "https://dc.lft.to/lastmile_qr_scan"}}, {"is_disabled": 0, "fusion_lat": 0.0, "lat": 38.92361416666667, "type": "electric_scooter", "lon": -77.01907133333333, "is_reserved": 0, "fusion_lon": 0.0, "bike_id": "6a5f4d7eee691f958389c3a3976cf324", "name": "6a5f4d7eee691f958389c3a3976cf324", "rental_uris": {"ios": "https://dc.lft.to/lastmile_qr_scan", "android": "https://dc.lft.to/lastmile_qr_scan"}}, {"is_disabled": 0, "fusion_lat": 0.0, "lat": 38.915262166666665, "type": "electric_scooter", "lon": -77.02003133333334, "is_reserved": 0, "fusion_lon": 0.0, "bike_id": "c355388d7825edfc0d315fc2881e0b9d", "name": "c355388d7825edfc0d315fc2881e0b9d", "rental_uris": {"ios": "https://dc.lft.to/lastmile_qr_scan", "android": "https://dc.lft.to/lastmile_qr_scan"}}, {"is_disabled": 0, "fusion_lat": 0.0, "lat": 38.903557, "type": "electric_scooter", "lon": -77.0258375, "is_reserved": 0, "fusion_lon": 0.0, "bike_id": "b3d5b151a5ba5c485c0e4e3cabf0e953", "name": "b3d5b151a5ba5c485c0e4e3cabf0e953", "rental_uris": {"ios": "https://dc.lft.to/lastmile_qr_scan", "android": "https://dc.lft.to/lastmile_qr_scan"}}, {"is_disabled": 0, "fusion_lat": 0.0, "lat": 38.880408333333335, "type": "electric_scooter", "lon": -77.00558083333334, "is_reserved": 0, "fusion_lon": 0.0, "bike_id": "9c58ab3010fa76f72861ae26dc956830", "name": "9c58ab3010fa76f72861ae26dc956830", "rental_uris": {"ios": "https://dc.lft.to/lastmile_qr_scan", "android": "https://dc.lft.to/lastmile_qr_scan"}}, {"is_disabled": 0, "fusion_lat": 0.0, "lat": 38.89598066666667, "type": "electric_scooter", "lon": -76.95523, "is_reserved": 0, "fusion_lon": 0.0, "bike_id": "04ecfface3e770cd845ee2b54aab3c61", "name": "04ecfface3e770cd845ee2b54aab3c61", "rental_uris": {"ios": "https://dc.lft.to/lastmile_qr_scan", "android": "https://dc.lft.to/lastmile_qr_scan"}}, {"is_disabled": 0, "fusion_lat": 0.0, "lat": 38.924755, "type": "electric_scooter", "lon": -77.0338245, "is_reserved": 0, "fusion_lon": 0.0, "bike_id": "58c2c244b8e90854a939ab637e3eebad", "name": "58c2c244b8e90854a939ab637e3eebad", "rental_uris": {"ios": "https://dc.lft.to/lastmile_qr_scan", "android": "https://dc.lft.to/lastmile_qr_scan"}}, {"is_disabled": 0, "fusion_lat": 0.0, "lat": 38.92122166666667, "type": "electric_scooter", "lon": -77.04117033333333, "is_reserved": 0, "fusion_lon": 0.0, "bike_id": "556224d5a033c163d755be8a61d093da", "name": "556224d5a033c163d755be8a61d093da", "rental_uris": {"ios": "https://dc.lft.to/lastmile_qr_scan", "android": "https://dc.lft.to/lastmile_qr_scan"}}, {"is_disabled": 0, "fusion_lat": 0.0, "lat": 38.88887366666667, "type": "electric_scooter", "lon": -76.93156116666667, "is_reserved": 0, "fusion_lon": 0.0, "bike_id": "764c555958eb4cd80825c941ba03ab7a", "name": "764c555958eb4cd80825c941ba03ab7a", "rental_uris": {"ios": "https://dc.lft.to/lastmile_qr_scan", "android": "https://dc.lft.to/lastmile_qr_scan"}}, {"is_disabled": 0, "fusion_lat": 0.0, "lat": 38.92453616666667, "type": "electric_scooter", "lon": -77.05757083333333, "is_reserved": 0, "fusion_lon": 0.0, "bike_id": "61dd522e2aa6d1f62ddf35ce8821378a", "name": "61dd522e2aa6d1f62ddf35ce8821378a", "rental_uris": {"ios": "https://dc.lft.to/lastmile_qr_scan", "android": "https://dc.lft.to/lastmile_qr_scan"}}, {"is_disabled": 0, "fusion_lat": 0.0, "lat": 38.94629466666667, "type": "electric_scooter", "lon": -77.02521133333333, "is_reserved": 0, "fusion_lon": 0.0, "bike_id": "c476021aec4b2bdf3c2ab91a74394f5f", "name": "c476021aec4b2bdf3c2ab91a74394f5f", "rental_uris": {"ios": "https://dc.lft.to/lastmile_qr_scan", "android": "https://dc.lft.to/lastmile_qr_scan"}}, {"is_disabled": 0, "fusion_lat": 0.0, "lat": 38.892300666666664, "type": "electric_scooter", "lon": -77.02207666666666, "is_reserved": 0, "fusion_lon": 0.0, "bike_id": "19ada8f8fba4e7a3cbfd98a15822f65e", "name": "19ada8f8fba4e7a3cbfd98a15822f65e", "rental_uris": {"ios": "https://dc.lft.to/lastmile_qr_scan", "android": "https://dc.lft.to/lastmile_qr_scan"}}, {"is_disabled": 0, "fusion_lat": 0.0, "lat": 38.91338833333333, "type": "electric_scooter", "lon": -77.01061333333334, "is_reserved": 0, "fusion_lon": 0.0, "bike_id": "820c3ebb65cec14d35e2407575561e08", "name": "820c3ebb65cec14d35e2407575561e08", "rental_uris": {"ios": "https://dc.lft.to/lastmile_qr_scan", "android": "https://dc.lft.to/lastmile_qr_scan"}}, {"is_disabled": 0, "fusion_lat": 0.0, "lat": 38.93144566666667, "type": "electric_scooter", "lon": -77.0383295, "is_reserved": 0, "fusion_lon": 0.0, "bike_id": "33ca38ddc4099749e7fe827e5ddcb5e1", "name": "33ca38ddc4099749e7fe827e5ddcb5e1", "rental_uris": {"ios": "https://dc.lft.to/lastmile_qr_scan", "android": "https://dc.lft.to/lastmile_qr_scan"}}, {"is_disabled": 0, "fusion_lat": 0.0, "lat": 38.906787666666666, "type": "electric_scooter", "lon": -77.03835483333333, "is_reserved": 0, "fusion_lon": 0.0, "bike_id": "28551f0cddf2c3a0df543e9804e1de28", "name": "28551f0cddf2c3a0df543e9804e1de28", "rental_uris": {"ios": "https://dc.lft.to/lastmile_qr_scan", "android": "https://dc.lft.to/lastmile_qr_scan"}}, {"is_disabled": 0, "fusion_lat": 0.0, "lat": 38.89196866666666, "type": "electric_scooter", "lon": -77.0238175, "is_reserved": 0, "fusion_lon": 0.0, "bike_id": "6559313a3bc8d802ff389f3b03cde0cc", "name": "6559313a3bc8d802ff389f3b03cde0cc", "rental_uris": {"ios": "https://dc.lft.to/lastmile_qr_scan", "android": "https://dc.lft.to/lastmile_qr_scan"}}, {"is_disabled": 0, "fusion_lat": 0.0, "lat": 38.917462, "type": "electric_bike", "lon": -76.9898765, "is_reserved": 0, "fusion_lon": 0.0, "bike_id": "c3a0758cfa05cfd325e018e2a07d2ae0", "name": "c3a0758cfa05cfd325e018e2a07d2ae0", "rental_uris": {"ios": "https://dc.lft.to/lastmile_qr_scan", "android": "https://dc.lft.to/lastmile_qr_scan"}}, {"is_disabled": 0, "fusion_lat": 0.0, "lat": 38.93605016666667, "type": "electric_scooter", "lon": -77.057278, "is_reserved": 0, "fusion_lon": 0.0, "bike_id": "d4f5211bc1b320b7deb1ecb0ef140fe7", "name": "d4f5211bc1b320b7deb1ecb0ef140fe7", "rental_uris": {"ios": "https://dc.lft.to/lastmile_qr_scan", "android": "https://dc.lft.to/lastmile_qr_scan"}}, {"is_disabled": 0, "fusion_lat": 0.0, "lat": 38.9204735, "type": "electric_scooter", "lon": -77.03193166666667, "is_reserved": 0, "fusion_lon": 0.0, "bike_id": "a1b7ffcfa41122615bf0cc0d0b0cc99c", "name": "a1b7ffcfa41122615bf0cc0d0b0cc99c", "rental_uris": {"ios": "https://dc.lft.to/lastmile_qr_scan", "android": "https://dc.lft.to/lastmile_qr_scan"}}, {"is_disabled": 0, "fusion_lat": 0.0, "lat": 38.89966783333333, "type": "electric_scooter", "lon": -77.04781333333334, "is_reserved": 0, "fusion_lon": 0.0, "bike_id": "29e55a6cd7dda703e45cd2d629c7f010", "name": "29e55a6cd7dda703e45cd2d629c7f010", "rental_uris": {"ios": "https://dc.lft.to/lastmile_qr_scan", "android": "https://dc.lft.to/lastmile_qr_scan"}}, {"is_disabled": 0, "fusion_lat": 0.0, "lat": 38.887066, "type": "electric_scooter", "lon": -77.0283155, "is_reserved": 0, "fusion_lon": 0.0, "bike_id": "3ba651536b5792be25d7b03ddc039074", "name": "3ba651536b5792be25d7b03ddc039074", "rental_uris": {"ios": "https://dc.lft.to/lastmile_qr_scan", "android": "https://dc.lft.to/lastmile_qr_scan"}}, {"is_disabled": 0, "fusion_lat": 0.0, "lat": 38.922344833333334, "type": "electric_scooter", "lon": -77.03351683333334, "is_reserved": 0, "fusion_lon": 0.0, "bike_id": "cdb62121f6295fad865f63df5e871e6f", "name": "cdb62121f6295fad865f63df5e871e6f", "rental_uris": {"ios": "https://dc.lft.to/lastmile_qr_scan", "android": "https://dc.lft.to/lastmile_qr_scan"}}, {"is_disabled": 0, "fusion_lat": 0.0, "lat": 38.923646833333336, "type": "electric_scooter", "lon": -77.05131833333333, "is_reserved": 0, "fusion_lon": 0.0, "bike_id": "087a9a509205956209dc94ba15ecbe66", "name": "087a9a509205956209dc94ba15ecbe66", "rental_uris": {"ios": "https://dc.lft.to/lastmile_qr_scan", "android": "https://dc.lft.to/lastmile_qr_scan"}}, {"is_disabled": 0, "fusion_lat": 0.0, "lat": 38.8820035, "type": "electric_scooter", "lon": -77.00598166666667, "is_reserved": 0, "fusion_lon": 0.0, "bike_id": "8903acf573b36fec2ec9a30c2fe4e588", "name": "8903acf573b36fec2ec9a30c2fe4e588", "rental_uris": {"ios": "https://dc.lft.to/lastmile_qr_scan", "android": "https://dc.lft.to/lastmile_qr_scan"}}, {"is_disabled": 0, "fusion_lat": 0.0, "lat": 38.92968416666667, "type": "electric_scooter", "lon": -77.02822616666667, "is_reserved": 0, "fusion_lon": 0.0, "bike_id": "18f13d599cd2941fd6d8c468e46a8740", "name": "18f13d599cd2941fd6d8c468e46a8740", "rental_uris": {"ios": "https://dc.lft.to/lastmile_qr_scan", "android": "https://dc.lft.to/lastmile_qr_scan"}}, {"is_disabled": 0, "fusion_lat": 0.0, "lat": 38.90696066666667, "type": "electric_scooter", "lon": -77.04350616666666, "is_reserved": 0, "fusion_lon": 0.0, "bike_id": "35492da6b1f0158e72e76519bf1167f6", "name": "35492da6b1f0158e72e76519bf1167f6", "rental_uris": {"ios": "https://dc.lft.to/lastmile_qr_scan", "android": "https://dc.lft.to/lastmile_qr_scan"}}, {"is_disabled": 0, "fusion_lat": 0.0, "lat": 38.905712333333334, "type": "electric_scooter", "lon": -77.0383215, "is_reserved": 0, "fusion_lon": 0.0, "bike_id": "0758ba1bdee0c05daf530089cac93e0a", "name": "0758ba1bdee0c05daf530089cac93e0a", "rental_uris": {"ios": "https://dc.lft.to/lastmile_qr_scan", "android": "https://dc.lft.to/lastmile_qr_scan"}}, {"is_disabled": 0, "fusion_lat": 0.0, "lat": 38.938644, "type": "electric_scooter", "lon": -77.0304925, "is_reserved": 0, "fusion_lon": 0.0, "bike_id": "f6f41e94078eb7c6144fba39610880b3", "name": "f6f41e94078eb7c6144fba39610880b3", "rental_uris": {"ios": "https://dc.lft.to/lastmile_qr_scan", "android": "https://dc.lft.to/lastmile_qr_scan"}}, {"is_disabled": 0, "fusion_lat": 0.0, "lat": 38.908028, "type": "electric_scooter", "lon": -76.9984095, "is_reserved": 0, "fusion_lon": 0.0, "bike_id": "fe90d7cb55e268789407bf0da532cf5b", "name": "fe90d7cb55e268789407bf0da532cf5b", "rental_uris": {"ios": "https://dc.lft.to/lastmile_qr_scan", "android": "https://dc.lft.to/lastmile_qr_scan"}}, {"is_disabled": 0, "fusion_lat": 0.0, "lat": 38.894535833333336, "type": "electric_bike", "lon": -76.97035166666667, "is_reserved": 0, "fusion_lon": 0.0, "bike_id": "85eb5e8818f3062e2b878051ab4747dc", "name": "85eb5e8818f3062e2b878051ab4747dc", "rental_uris": {"ios": "https://dc.lft.to/lastmile_qr_scan", "android": "https://dc.lft.to/lastmile_qr_scan"}}, {"is_disabled": 0, "fusion_lat": 0.0, "lat": 38.8997605, "type": "electric_scooter", "lon": -77.05179183333334, "is_reserved": 0, "fusion_lon": 0.0, "bike_id": "a3b0ea729377baef2ab423753f64043c", "name": "a3b0ea729377baef2ab423753f64043c", "rental_uris": {"ios": "https://dc.lft.to/lastmile_qr_scan", "android": "https://dc.lft.to/lastmile_qr_scan"}}, {"is_disabled": 0, "fusion_lat": 0.0, "lat": 38.90054083333333, "type": "electric_scooter", "lon": -77.05039866666667, "is_reserved": 0, "fusion_lon": 0.0, "bike_id": "a378f2ff6e1e169bd154cb7506c766b8", "name": "a378f2ff6e1e169bd154cb7506c766b8", "rental_uris": {"ios": "https://dc.lft.to/lastmile_qr_scan", "android": "https://dc.lft.to/lastmile_qr_scan"}}, {"is_disabled": 0, "fusion_lat": 0.0, "lat": 38.922562166666665, "type": "electric_scooter", "lon": -77.0413, "is_reserved": 0, "fusion_lon": 0.0, "bike_id": "c7f7cdca25f2b97842d2871d5dac8936", "name": "c7f7cdca25f2b97842d2871d5dac8936", "rental_uris": {"ios": "https://dc.lft.to/lastmile_qr_scan", "android": "https://dc.lft.to/lastmile_qr_scan"}}, {"is_disabled": 0, "fusion_lat": 0.0, "lat": 38.892237, "type": "electric_scooter", "lon": -77.02646533333333, "is_reserved": 0, "fusion_lon": 0.0, "bike_id": "ce0d58587c95a059b390f3923f5b1113", "name": "ce0d58587c95a059b390f3923f5b1113", "rental_uris": {"ios": "https://dc.lft.to/lastmile_qr_scan", "android": "https://dc.lft.to/lastmile_qr_scan"}}, {"is_disabled": 0, "fusion_lat": 0.0, "lat": 38.898324833333334, "type": "electric_scooter", "lon": -77.029292, "is_reserved": 0, "fusion_lon": 0.0, "bike_id": "97b2d7285f422a457fbf0525fcbe884b", "name": "97b2d7285f422a457fbf0525fcbe884b", "rental_uris": {"ios": "https://dc.lft.to/lastmile_qr_scan", "android": "https://dc.lft.to/lastmile_qr_scan"}}, {"is_disabled": 0, "fusion_lat": 0.0, "lat": 38.892599, "type": "electric_scooter", "lon": -76.94156466666666, "is_reserved": 0, "fusion_lon": 0.0, "bike_id": "2d758346e7df185d5aee2da9f4c5358f", "name": "2d758346e7df185d5aee2da9f4c5358f", "rental_uris": {"ios": "https://dc.lft.to/lastmile_qr_scan", "android": "https://dc.lft.to/lastmile_qr_scan"}}, {"is_disabled": 0, "fusion_lat": 0.0, "lat": 38.897408166666665, "type": "electric_scooter", "lon": -77.04682716666667, "is_reserved": 0, "fusion_lon": 0.0, "bike_id": "a83479c549b3346717a62e0f87e3e0d1", "name": "a83479c549b3346717a62e0f87e3e0d1", "rental_uris": {"ios": "https://dc.lft.to/lastmile_qr_scan", "android": "https://dc.lft.to/lastmile_qr_scan"}}, {"is_disabled": 0, "fusion_lat": 0.0, "lat": 38.926191333333335, "type": "electric_scooter", "lon": -77.03778433333333, "is_reserved": 0, "fusion_lon": 0.0, "bike_id": "2570580affb07ee606f56ed4b60f7397", "name": "2570580affb07ee606f56ed4b60f7397", "rental_uris": {"ios": "https://dc.lft.to/lastmile_qr_scan", "android": "https://dc.lft.to/lastmile_qr_scan"}}, {"is_disabled": 0, "fusion_lat": 0.0, "lat": 38.922559, "type": "electric_scooter", "lon": -77.03407566666667, "is_reserved": 0, "fusion_lon": 0.0, "bike_id": "838d64f0d7ea17c81e40b522d90a9131", "name": "838d64f0d7ea17c81e40b522d90a9131", "rental_uris": {"ios": "https://dc.lft.to/lastmile_qr_scan", "android": "https://dc.lft.to/lastmile_qr_scan"}}, {"is_disabled": 0, "fusion_lat": 0.0, "lat": 38.89613033333333, "type": "electric_scooter", "lon": -77.04499933333334, "is_reserved": 0, "fusion_lon": 0.0, "bike_id": "bac3d7e09fa2f3f7060861b1c9a6a6ba", "name": "bac3d7e09fa2f3f7060861b1c9a6a6ba", "rental_uris": {"ios": "https://dc.lft.to/lastmile_qr_scan", "android": "https://dc.lft.to/lastmile_qr_scan"}}, {"is_disabled": 0, "fusion_lat": 0.0, "lat": 38.822478333333336, "type": "electric_bike", "lon": -77.0055225, "is_reserved": 0, "fusion_lon": 0.0, "bike_id": "5c980c9681e47e818a177297132dc2b4", "name": "5c980c9681e47e818a177297132dc2b4", "rental_uris": {"ios": "https://dc.lft.to/lastmile_qr_scan", "android": "https://dc.lft.to/lastmile_qr_scan"}},