{"data": {"bikes": [{"lat": 38.912608666666664, "is_disabled": 0, "type": "electric_scooter", "lon": -77.03874533333334, "bike_id": "f693dbbb8946279bd8dcb187acc4ee6d", "fusion_lat": 0.0, "name": "f693dbbb8946279bd8dcb187acc4ee6d", "is_reserved": 0, "rental_uris": {"android": "https://dc.lft.to/lastmile_qr_scan", "ios": "https://dc.lft.to/lastmile_qr_scan"}, "fusion_lon": 0.0}, {"lat": 38.926301, "is_disabled": 0, "type": "electric_scooter", "lon": -77.041975, "bike_id": "d10d37a67fb84f5acb45020861581825", "fusion_lat": 0.0, "name": "d10d37a67fb84f5acb45020861581825", "is_reserved": 0, "rental_uris": {"android": "https://dc.lft.to/lastmile_qr_scan", "ios": "https://dc.lft.to/lastmile_qr_scan"}, "fusion_lon": 0.0}, {"lat": 38.9374755, "is_disabled": 0, "type": "electric_scooter", "lon": -77.034535, "bike_id": "079ab939f0f268519811c0c066395ec5", "fusion_lat": 0.0, "name": "079ab939f0f268519811c0c066395ec5", "is_reserved": 0, "rental_uris": {"android": "https://dc.lft.to/lastmile_qr_scan", "ios": "https://dc.lft.to/lastmile_qr_scan"}, "fusion_lon": 0.0}, {"lat": 38.907518333333336, "is_disabled": 0, "type": "electric_scooter", "lon": -76.99906966666667, "bike_id": "ead27955430d08ae8ba2a62fdf3c72a4", "fusion_lat": 0.0, "name": "ead27955430d08ae8ba2a62fdf3c72a4", "is_reserved": 0, "rental_uris": {"android": "https://dc.lft.to/lastmile_qr_scan", "ios": "https://dc.lft.to/lastmile_qr_scan"}, "fusion_lon": 0.0}, {"lat": 38.89621283333334, "is_disabled": 0, "type": "electric_scooter", "lon": -77.04485433333333, "bike_id": "852b5b3e17649475a7c902e339641283", "fusion_lat": 0.0, "name": "852b5b3e17649475a7c902e339641283", "is_reserved": 0, "rental_uris": {"android": "https://dc.lft.to/lastmile_qr_scan", "ios": "https://dc.lft.to/lastmile_qr_scan"}, "fusion_lon": 0.0}, {"lat": 38.92722766666667, "is_disabled": 0, "type": "electric_bike", "lon": -77.02970483333333, "bike_id": "33120723cda0d104399aa03a1f83d619", "fusion_lat": 0.0, "name": "33120723cda0d104399aa03a1f83d619", "is_reserved": 0, "rental_uris": {"android": "https://dc.lft.to/lastmile_qr_scan", "ios": "https://dc.lft.to/lastmile_qr_scan"}, "fusion_lon": 0.0}, {"lat": 38.94420133333333, "is_disabled": 0, "type": "electric_scooter", "lon": -77.06251766666666, "bike_id": "ecac5f382506ce9a7af09bc58f697501", "fusion_lat": 0.0, "name": "ecac5f382506ce9a7af09bc58f697501", "is_reserved": 0, "rental_uris": {"android": "https://dc.lft.to/lastmile_qr_scan", "ios": "https://dc.lft.to/lastmile_qr_scan"}, "fusion_lon": 0.0}, {"lat": 38.920265, "is_disabled": 0, "type": "electric_scooter", "lon": -77.013265, "bike_id": "2e6b3cbf04617e0e93b7035a232e1f15", "fusion_lat": 0.0, "name": "2e6b3cbf04617e0e93b7035a232e1f15", "is_reserved": 0, "rental_uris": {"android": "https://dc.lft.to/lastmile_qr_scan", "ios": "https://dc.lft.to/lastmile_qr_scan"}, "fusion_lon": 0.0}, {"lat": 38.89499333333333, "is_disabled": 0, "type": "electric_scooter", "lon": -77.00210633333333, "bike_id": "82f7af16e23da5800e767ffec5456b14", "fusion_lat": 0.0, "name": "82f7af16e23da5800e767ffec5456b14", "is_reserved": 0, "rental_uris": {"android": "https://dc.lft.to/lastmile_qr_scan", "ios": "https://dc.lft.to/lastmile_qr_scan"}, "fusion_lon": 0.0}, {"lat": 38.93474483333333, "is_disabled": 0, "type": "electric_scooter", "lon": -77.04117883333333, "bike_id": "e203642c1a8d773556193357f4c4a580", "fusion_lat": 0.0, "name": "e203642c1a8d773556193357f4c4a580", "is_reserved": 0, "rental_uris": {"android": "https://dc.lft.to/lastmile_qr_scan", "ios": "https://dc.lft.to/lastmile_qr_scan"}, "fusion_lon": 0.0}, {"lat": 38.8954765, "is_disabled": 0, "type": "electric_scooter", "lon": -77.00911116666667, "bike_id": "e0d3c500f320a1a06435d5abff2dd8a5", "fusion_lat": 0.0, "name": "e0d3c500f320a1a06435d5abff2dd8a5", "is_reserved": 0, "rental_uris": {"android": "https://dc.lft.to/lastmile_qr_scan", "ios": "https://dc.lft.to/lastmile_qr_scan"}, "fusion_lon": 0.0}, {"lat": 38.9241045, "is_disabled": 0, "type": "electric_scooter", "lon": -77.044473, "bike_id": "735d84b11f99ad8cab346283778f05f8", "fusion_lat": 0.0, "name": "735d84b11f99ad8cab346283778f05f8", "is_reserved": 0, "rental_uris": {"android": "https://dc.lft.to/lastmile_qr_scan", "ios": "https://dc.lft.to/lastmile_qr_scan"}, "fusion_lon": 0.0}, {"lat": 38.935288666666665, "is_disabled": 0, "type": "electric_scooter", "lon": -77.07294966666667, "bike_id": "ed508dbf58b3c2fce3f9218511964945", "fusion_lat": 0.0, "name": "ed508dbf58b3c2fce3f9218511964945", "is_reserved": 0, "rental_uris": {"android": "https://dc.lft.to/lastmile_qr_scan", "ios": "https://dc.lft.to/lastmile_qr_scan"}, "fusion_lon": 0.0}, {"lat": 38.90372816666667, "is_disabled": 0, "type": "electric_scooter", "lon": -76.992297, "bike_id": "f8594f93193dc1eb45aa62a63399f4c7", "fusion_lat": 0.0, "name": "f8594f93193dc1eb45aa62a63399f4c7", "is_reserved": 0, "rental_uris": {"android": "https://dc.lft.to/lastmile_qr_scan", "ios": "https://dc.lft.to/lastmile_qr_scan"}, "fusion_lon": 0.0}, {"lat": 38.90852666666667, "is_disabled": 0, "type": "electric_scooter", "lon": -77.019722, "bike_id": "38a80b9a8a9faa0b524f3e3830e1a2c4", "fusion_lat": 0.0, "name": "38a80b9a8a9faa0b524f3e3830e1a2c4", "is_reserved": 0, "rental_uris": {"android": "https://dc.lft.to/lastmile_qr_scan", "ios": "https://dc.lft.to/lastmile_qr_scan"}, "fusion_lon": 0.0}, {"lat": 38.897438, "is_disabled": 0, "type": "electric_scooter", "lon": -77.02380216666667, "bike_id": "744fb0f50da689284b4c4297211a1ea2", "fusion_lat": 0.0, "name": "744fb0f50da689284b4c4297211a1ea2", "is_reserved": 0, "rental_uris": {"android": "https://dc.lft.to/lastmile_qr_scan", "ios": "https://dc.lft.to/lastmile_qr_scan"}, "fusion_lon": 0.0}, {"lat": 38.95074283333334, "is_disabled": 0, "type": "electric_scooter", "lon": -77.02718133333333, "bike_id": "a156052a39da001629ba8c99aefca089", "fusion_lat": 0.0, "name": "a156052a39da001629ba8c99aefca089", "is_reserved": 0, "rental_uris": {"android": "https://dc.lft.to/lastmile_qr_scan", "ios": "https://dc.lft.to/lastmile_qr_scan"}, "fusion_lon": 0.0}, {"lat": 38.941904, "is_disabled": 0, "type": "electric_scooter", "lon": -77.04016783333333, "bike_id": "c62be1ec46204a1a8bbdf11ba0e9dbcd", "fusion_lat": 0.0, "name": "c62be1ec46204a1a8bbdf11ba0e9dbcd", "is_reserved": 0, "rental_uris": {"android": "https://dc.lft.to/lastmile_qr_scan", "ios": "https://dc.lft.to/lastmile_qr_scan"}, "fusion_lon": 0.0}, {"lat": 38.9191425, "is_disabled": 0, "type": "electric_scooter", "lon": -77.02387566666667, "bike_id": "e3143ba38f0067460b17d6031031113b", "fusion_lat": 0.0, "name": "e3143ba38f0067460b17d6031031113b", "is_reserved": 0, "rental_uris": {"android": "https://dc.lft.to/lastmile_qr_scan", "ios": "https://dc.lft.to/lastmile_qr_scan"}, "fusion_lon": 0.0}, {"lat": 38.88650966666667, "is_disabled": 0, "type": "electric_scooter", "lon": -77.02151833333333, "bike_id": "fa51422f541d83f066e93884c5e33965", "fusion_lat": 0.0, "name": "fa51422f541d83f066e93884c5e33965", "is_reserved": 0, "rental_uris": {"android": "https://dc.lft.to/lastmile_qr_scan", "ios": "https://dc.lft.to/lastmile_qr_scan"}, "fusion_lon": 0.0}, {"lat": 38.921604, "is_disabled": 0, "type": "electric_scooter", "lon": -77.03516733333333, "bike_id": "57c97a5e6303c80194a83f3037f9d449", "fusion_lat": 0.0, "name": "57c97a5e6303c80194a83f3037f9d449", "is_reserved": 0, "rental_uris": {"android": "https://dc.lft.to/lastmile_qr_scan", "ios": "https://dc.lft.to/lastmile_qr_scan"}, "fusion_lon": 0.0}, {"lat": 38.90812716666667, "is_disabled": 0, "type": "electric_scooter", "lon": -77.04330183333333, "bike_id": "7bbc000a3caa2773686f24b7d8e8289b", "fusion_lat": 0.0, "name": "7bbc000a3caa2773686f24b7d8e8289b", "is_reserved": 0, "rental_uris": {"android": "https://dc.lft.to/lastmile_qr_scan", "ios": "https://dc.lft.to/lastmile_qr_scan"}, "fusion_lon": 0.0}, {"lat": 38.93409916666667, "is_disabled": 0, "type": "electric_scooter", "lon": -77.04265516666666, "bike_id": "c534874a00c0f195e9da6a336df87bca", "fusion_lat": 0.0, "name": "c534874a00c0f195e9da6a336df87bca", "is_reserved": 0, "rental_uris": {"android": "https://dc.lft.to/lastmile_qr_scan", "ios": "https://dc.lft.to/lastmile_qr_scan"}, "fusion_lon": 0.0}, {"lat": 38.90470966666667, "is_disabled": 0, "type": "electric_scooter", "lon": -77.04861066666666, "bike_id": "3c88b9dd640dbf882c55ff296b97a379", "fusion_lat": 0.0, "name": "3c88b9dd640dbf882c55ff296b97a379", "is_reserved": 0, "rental_uris": {"android": "https://dc.lft.to/lastmile_qr_scan", "ios": "https://dc.lft.to/lastmile_qr_scan"}, "fusion_lon": 0.0}, {"lat": 38.91744583333333, "is_disabled": 0, "type": "electric_scooter", "lon": -77.02399516666667, "bike_id": "120111a8400e2e0ff973b85a21e92dce", "fusion_lat": 0.0, "name": "120111a8400e2e0ff973b85a21e92dce", "is_reserved": 0, "rental_uris": {"android": "https://dc.lft.to/lastmile_qr_scan", "ios": "https://dc.lft.to/lastmile_qr_scan"}, "fusion_lon": 0.0}, {"lat": 38.9065255, "is_disabled": 0, "type": "electric_scooter", "lon": -77.029576, "bike_id": "23540c59187795db2c3edb6f5938f774", "fusion_lat": 0.0, "name": "23540c59187795db2c3edb6f5938f774", "is_reserved": 0, "rental_uris": {"android": "https://dc.lft.to/lastmile_qr_scan", "ios": "https://dc.lft.to/lastmile_qr_scan"}, "fusion_lon": 0.0}, {"lat": 38.85031716666667, "is_disabled": 0, "type": "electric_bike", "lon": -77.100964, "bike_id": "bfe07a37c240c60f2d787a187df6f0e8", "fusion_lat": 0.0, "name": "bfe07a37c240c60f2d787a187df6f0e8", "is_reserved": 0, "rental_uris": {"android": "https://dc.lft.to/lastmile_qr_scan", "ios": "https://dc.lft.to/lastmile_qr_scan"}, "fusion_lon": 0.0}, {"lat": 38.87719533333333, "is_disabled": 0, "type": "electric_scooter", "lon": -77.0176885, "bike_id": "848da773f264d70edf3d4ccb1a9a5c3e", "fusion_lat": 0.0, "name": "848da773f264d70edf3d4ccb1a9a5c3e", "is_reserved": 0, "rental_uris": {"android": "https://dc.lft.to/lastmile_qr_scan", "ios": "https://dc.lft.to/lastmile_qr_scan"}, "fusion_lon": 0.0}, {"lat": 38.892193, "is_disabled": 0, "type": "electric_scooter", "lon": -77.04859283333333, "bike_id": "5f0c394336bfe87b28cb323fe4d5289c", "fusion_lat": 0.0, "name": "5f0c394336bfe87b28cb323fe4d5289c", "is_reserved": 0, "rental_uris": {"android": "https://dc.lft.to/lastmile_qr_scan", "ios": "https://dc.lft.to/lastmile_qr_scan"}, "fusion_lon": 0.0}, {"lat": 38.899077, "is_disabled": 0, "type": "electric_scooter", "lon": -76.93360266666667, "bike_id": "bdc79a3b0ac780d085e99ebb6aa2e137", "fusion_lat": 0.0, "name": "bdc79a3b0ac780d085e99ebb6aa2e137", "is_reserved": 0, "rental_uris": {"android": "https://dc.lft.to/lastmile_qr_scan", "ios": "https://dc.lft.to/lastmile_qr_scan"}, "fusion_lon": 0.0}, {"lat": 38.9407995, "is_disabled": 0, "type": "electric_scooter", "lon": -77.023897, "bike_id": "5626c90662db2a48e8943bbed6b26f8f", "fusion_lat": 0.0, "name": "5626c90662db2a48e8943bbed6b26f8f", "is_reserved": 0, "rental_uris": {"android": "https://dc.lft.to/lastmile_qr_scan", "ios": "https://dc.lft.to/lastmile_qr_scan"}, "fusion_lon": 0.0}, {"lat": 38.90293466666667, "is_disabled": 0, "type": "electric_scooter", "lon": -77.06360316666667, "bike_id": "c17ab62865157da32335acda01a779fd", "fusion_lat": 0.0, "name": "c17ab62865157da32335acda01a779fd", "is_reserved": 0, "rental_uris": {"android": "https://dc.lft.to/lastmile_qr_scan", "ios": "https://dc.lft.to/lastmile_qr_scan"}, "fusion_lon": 0.0}, {"lat": 38.917170666666664, "is_disabled": 0, "type": "electric_scooter", "lon": -77.035687, "bike_id": "242e1b5fdf8f4806efe1114f5db084f4", "fusion_lat": 0.0, "name": "242e1b5fdf8f4806efe1114f5db084f4", "is_reserved": 0, "rental_uris": {"android": "https://dc.lft.to/lastmile_qr_scan", "ios": "https://dc.lft.to/lastmile_qr_scan"}, "fusion_lon": 0.0}, {"lat": 38.91345066666667, "is_disabled": 0, "type": "electric_scooter", "lon": -77.0318955, "bike_id": "ea92e9d68670742628a60f6d89893d13", "fusion_lat": 0.0, "name": "ea92e9d68670742628a60f6d89893d13", "is_reserved": 0, "rental_uris": {"android": "https://dc.lft.to/lastmile_qr_scan", "ios": "https://dc.lft.to/lastmile_qr_scan"}, "fusion_lon": 0.0}, {"lat": 38.958886, "is_disabled": 0, "type": "electric_bike", "lon": -76.92483883333334, "bike_id": "3a0a9506853110d272538713f0b9f28c", "fusion_lat": 0.0, "name": "3a0a9506853110d272538713f0b9f28c", "is_reserved": 0, "rental_uris": {"android": "https://dc.lft.to/lastmile_qr_scan", "ios": "https://dc.lft.to/lastmile_qr_scan"}, "fusion_lon": 0.0}, {"lat": 38.93123333333333, "is_disabled": 0, "type": "electric_scooter", "lon": -77.03409616666667, "bike_id": "3e3aa740e2e6ec7aaeccc91c9a861edf", "fusion_lat": 0.0, "name": "3e3aa740e2e6ec7aaeccc91c9a861edf", "is_reserved": 0, "rental_uris": {"android": "https://dc.lft.to/lastmile_qr_scan", "ios": "https://dc.lft.to/lastmile_qr_scan"}, "fusion_lon": 0.0}, {"lat": 38.91186916666667, "is_disabled": 0, "type": "electric_scooter", "lon": -77.04327266666667, "bike_id": "796ae57e55249c77782442b1b54816ab", "fusion_lat": 0.0, "name": "796ae57e55249c77782442b1b54816ab", "is_reserved": 0, "rental_uris": {"android": "https://dc.lft.to/lastmile_qr_scan", "ios": "https://dc.lft.to/lastmile_qr_scan"}, "fusion_lon": 0.0}, {"lat": 38.90802733333334, "is_disabled": 0, "type": "electric_scooter", "lon": -77.04014366666667, "bike_id": "23d7ff4e456149b02679ef242f8d0969", "fusion_lat": 0.0, "name": "23d7ff4e456149b02679ef242f8d0969", "is_reserved": 0, "rental_uris": {"android": "https://dc.lft.to/lastmile_qr_scan", "ios": "https://dc.lft.to/lastmile_qr_scan"}, "fusion_lon": 0.0}, {"lat": 38.9300985, "is_disabled": 0, "type": "electric_scooter", "lon": -77.02083116666667, "bike_id": "bb37913b4e2c21683d39c5dc56c6b42b", "fusion_lat": 0.0, "name": "bb37913b4e2c21683d39c5dc56c6b42b", "is_reserved": 0, "rental_uris": {"android": "https://dc.lft.to/lastmile_qr_scan", "ios": "https://dc.lft.to/lastmile_qr_scan"}, "fusion_lon": 0.0}, {"lat": 38.90998033333334, "is_disabled": 0, "type": "electric_scooter", "lon": -77.0401195, "bike_id": "68349086ae799b3bc36478db49b6e6d4", "fusion_lat": 0.0, "name": "68349086ae799b3bc36478db49b6e6d4", "is_reserved": 0, "rental_uris": {"android": "https://dc.lft.to/lastmile_qr_scan", "ios": "https://dc.lft.to/lastmile_qr_scan"}, "fusion_lon": 0.0}, {"lat": 38.92068533333333, "is_disabled": 0, "type": "electric_scooter", "lon": -77.01427133333334, "bike_id": "b0ed15caa557da132df2fbf9c7eef219", "fusion_lat": 0.0, "name": "b0ed15caa557da132df2fbf9c7eef219", "is_reserved": 0, "rental_uris": {"android": "https://dc.lft.to/lastmile_qr_scan", "ios": "https://dc.lft.to/lastmile_qr_scan"}, "fusion_lon": 0.0}, {"lat": 38.853081, "is_disabled": 0, "type": "electric_bike", "lon": -77.131263, "bike_id": "f6f96e60ed10d91744cda2cae69bc230", "fusion_lat": 0.0, "name": "f6f96e60ed10d91744cda2cae69bc230", "is_reserved": 0, "rental_uris": {"android": "https://dc.lft.to/lastmile_qr_scan", "ios": "https://dc.lft.to/lastmile_qr_scan"}, "fusion_lon": 0.0}, {"lat": 38.9098625, "is_disabled": 0, "type": "electric_bike", "lon": -77.00500033333333, "bike_id": "a16590bf6d5c348f2ec2e8963d43cbe9", "fusion_lat": 0.0, "name": "a16590bf6d5c348f2ec2e8963d43cbe9", "is_reserved": 0, "rental_uris": {"android": "https://dc.lft.to/lastmile_qr_scan", "ios": "https://dc.lft.to/lastmile_qr_scan"}, "fusion_lon": 0.0}, {"lat": 38.90796016666667, "is_disabled": 0, "type": "electric_scooter", "lon": -77.04320666666666, "bike_id": "573b36cd976540b6539e8693279d00ea", "fusion_lat": 0.0, "name": "573b36cd976540b6539e8693279d00ea", "is_reserved": 0, "rental_uris": {"android": "https://dc.lft.to/lastmile_qr_scan", "ios": "https://dc.lft.to/lastmile_qr_scan"}, "fusion_lon": 0.0}, {"lat": 38.892481, "is_disabled": 0, "type": "electric_scooter", "lon": -77.03961233333334, "bike_id": "7e3cebb7d28340a15adba66b673b313a", "fusion_lat": 0.0, "name": "7e3cebb7d28340a15adba66b673b313a", "is_reserved": 0, "rental_uris": {"android": "https://dc.lft.to/lastmile_qr_scan", "ios": "https://dc.lft.to/lastmile_qr_scan"}, "fusion_lon": 0.0}, {"lat": 38.922869, "is_disabled": 0, "type": "electric_scooter", "lon": -77.036603, "bike_id": "6e06f312409b853fe0b4576191ee9e92", "fusion_lat": 0.0, "name": "6e06f312409b853fe0b4576191ee9e92", "is_reserved": 0, "rental_uris": {"android": "https://dc.lft.to/lastmile_qr_scan", "ios": "https://dc.lft.to/lastmile_qr_scan"}, "fusion_lon": 0.0}, {"lat": 38.950570166666665, "is_disabled": 0, "type": "electric_bike", "lon": -77.00720933333334, "bike_id": "271a850c40e4556e663231a1f411a2d3", "fusion_lat": 0.0, "name": "271a850c40e4556e663231a1f411a2d3", "is_reserved": 0, "rental_uris": {"android": "https://dc.lft.to/lastmile_qr_scan", "ios": "https://dc.lft.to/lastmile_qr_scan"}, "fusion_lon": 0.0}, {"lat": 38.91678233333333, "is_disabled": 0, "type": "electric_scooter", "lon": -77.02278916666667, "bike_id": "59263f20f4aaf6dee00ea52c374b894f", "fusion_lat": 0.0, "name": "59263f20f4aaf6dee00ea52c374b894f", "is_reserved": 0, "rental_uris": {"android": "https://dc.lft.to/lastmile_qr_scan", "ios": "https://dc.lft.to/lastmile_qr_scan"}, "fusion_lon": 0.0}, {"lat": 38.8985595, "is_disabled": 0, "type": "electric_scooter", "lon": -77.0200415, "bike_id": "8e7d0c91496485ea2dc68ed1ceb92325", "fusion_lat": 0.0, "name": "8e7d0c91496485ea2dc68ed1ceb92325", "is_reserved": 0, "rental_uris": {"android": "https://dc.lft.to/lastmile_qr_scan", "ios": "https://dc.lft.to/lastmile_qr_scan"}, "fusion_lon": 0.0}, {"lat": 38.93923133333333, "is_disabled": 0, "type": "electric_scooter", "lon": -77.02798866666667, "bike_id": "66b4c793e207c1fe4758556e67be3f7c", "fusion_lat": 0.0, "name": "66b4c793e207c1fe4758556e67be3f7c", "is_reserved": 0, "rental_uris": {"android": "https://dc.lft.to/lastmile_qr_scan", "ios": "https://dc.lft.to/lastmile_qr_scan"}, "fusion_lon": 0.0}, {"lat": 38.8552275, "is_disabled": 0, "type": "electric_bike", "lon": -76.9844025, "bike_id": "3d8819a0ea4806714bb813ae728e3543", "fusion_lat": 0.0, "name": "3d8819a0ea4806714bb813ae728e3543", "is_reserved": 0, "rental_uris": {"android": "https://dc.lft.to/lastmile_qr_scan", "ios": "https://dc.lft.to/lastmile_qr_scan"}, "fusion_lon": 0.0}, {"lat": 38.889258833333336, "is_disabled": 0, "type": "electric_scooter", "lon": -76.9737635, "bike_id": "64c890e9bf6cf01d5c649c015d530971", "fusion_lat": 0.0, "name": "64c890e9bf6cf01d5c649c015d530971", "is_reserved": 0, "rental_uris": {"android": "https://dc.lft.to/lastmile_qr_scan", "ios": "https://dc.lft.to/lastmile_qr_scan"}, "fusion_lon": 0.0}, {"lat": 38.898280166666666, "is_disabled": 0, "type": "electric_scooter", "lon": -77.02966916666666, "bike_id": "eddf1c55812fd86e62269a4b602c5be8", "fusion_lat": 0.0, "name": "eddf1c55812fd86e62269a4b602c5be8", "is_reserved": 0, "rental_uris": {"android": "https://dc.lft.to/lastmile_qr_scan", "ios": "https://dc.lft.to/lastmile_qr_scan"}, "fusion_lon": 0.0}, {"lat": 38.916939, "is_disabled": 0, "type": "electric_scooter", "lon": -77.033497, "bike_id": "93915debd3e0e31ab6daaaafc9265859", "fusion_lat": 0.0, "name": "93915debd3e0e31ab6daaaafc9265859", "is_reserved": 0, "rental_uris": {"android": "https://dc.lft.to/lastmile_qr_scan", "ios": "https://dc.lft.to/lastmile_qr_scan"}, "fusion_lon": 0.0}, {"lat": 38.944025, "is_disabled": 0, "type": "electric_scooter", "lon": -77.02644183333334, "bike_id": "f5ad50c33e8853fdcfee59a28709bef5", "fusion_lat": 0.0, "name": "f5ad50c33e8853fdcfee59a28709bef5", "is_reserved": 0, "rental_uris": {"android": "https://dc.lft.to/lastmile_qr_scan", "ios": "https://dc.lft.to/lastmile_qr_scan"}, "fusion_lon": 0.0}, {"lat": 38.90894933333333, "is_disabled": 0, "type": "electric_scooter", "lon": -77.03204516666666, "bike_id": "e47b57826efe95ca009169a2887e7c0e", "fusion_lat": 0.0, "name": "e47b57826efe95ca009169a2887e7c0e", "is_reserved": 0, "rental_uris": {"android": "https://dc.lft.to/lastmile_qr_scan", "ios": "https://dc.lft.to/lastmile_qr_scan"}, "fusion_lon": 0.0}, {"lat": 38.908535666666666, "is_disabled": 0, "type": "electric_scooter", "lon": -77.04776016666666, "bike_id": "a2095554a4d0654f0c31af1ccf2fdff1", "fusion_lat": 0.0, "name": "a2095554a4d0654f0c31af1ccf2fdff1", "is_reserved": 0, "rental_uris": {"android": "https://dc.lft.to/lastmile_qr_scan", "ios": "https://dc.lft.to/lastmile_qr_scan"}, "fusion_lon": 0.0}, {"lat": 38.87069366666667, "is_disabled": 0, "type": "electric_scooter", "lon": -76.96852866666667, "bike_id": "35976af1a6dd698b792bbba98ec446d5", "fusion_lat": 0.0, "name": "35976af1a6dd698b792bbba98ec446d5", "is_reserved": 0, "rental_uris": {"android": "https://dc.lft.to/lastmile_qr_scan", "ios": "https://dc.lft.to/lastmile_qr_scan"}, "fusion_lon": 0.0}, {"lat": 38.900625166666664, "is_disabled": 0, "type": "electric_scooter", "lon": -77.00215883333334, "bike_id": "c49d92427e26316b895a439408864230", "fusion_lat": 0.0, "name": "c49d92427e26316b895a439408864230", "is_reserved": 0, "rental_uris": {"android": "https://dc.lft.to/lastmile_qr_scan", "ios": "https://dc.lft.to/lastmile_qr_scan"}, "fusion_lon": 0.0}, {"lat": 38.902010833333335, "is_disabled": 0, "type": "electric_scooter", "lon": -77.0237265, "bike_id": "af270eb9d547fe621da2a35a46b64bf4", "fusion_lat": 0.0, "name": "af270eb9d547fe621da2a35a46b64bf4", "is_reserved": 0, "rental_uris": {"android": "https://dc.lft.to/lastmile_qr_scan", "ios": "https://dc.lft.to/lastmile_qr_scan"}, "fusion_lon": 0.0}, {"lat": 38.9128685, "is_disabled": 0, "type": "electric_bike", "lon": -77.04480183333334, "bike_id": "8d33fdb875e10061eadc0df0a6ebc759", "fusion_lat": 0.0, "name": "8d33fdb875e10061eadc0df0a6ebc759", "is_reserved": 0, "rental_uris": {"android": "https://dc.lft.to/lastmile_qr_scan", "ios": "https://dc.lft.to/lastmile_qr_scan"}, "fusion_lon": 0.0}, {"lat": 38.87245683333333, "is_disabled": 0, "type": "electric_scooter", "lon": -76.97725866666667, "bike_id": "ae210f5f149913ab2db2a28451eb137a", "fusion_lat": 0.0, "name": "ae210f5f149913ab2db2a28451eb137a", "is_reserved": 0, "rental_uris": {"android": "https://dc.lft.to/lastmile_qr_scan", "ios": "https://dc.lft.to/lastmile_qr_scan"}, "fusion_lon": 0.0}, {"lat": 38.905305166666665, "is_disabled": 0, "type": "electric_scooter", "lon": -77.06244216666667, "bike_id": "0d9ca9e4d1d3d3317d3a1ae52d812c1c", "fusion_lat": 0.0, "name": "0d9ca9e4d1d3d3317d3a1ae52d812c1c", "is_reserved": 0, "rental_uris": {"android": "https://dc.lft.to/lastmile_qr_scan", "ios": "https://dc.lft.to/lastmile_qr_scan"}, "fusion_lon": 0.0}, {"lat": 38.92405683333333, "is_disabled": 0, "type": "electric_scooter", "lon": -77.02741366666666, "bike_id": "ad8445ab172e06a2db1a281b49f52bc8", "fusion_lat": 0.0, "name": "ad8445ab172e06a2db1a281b49f52bc8", "is_reserved": 0, "rental_uris": {"android": "https://dc.lft.to/lastmile_qr_scan", "ios": "https://dc.lft.to/lastmile_qr_scan"}, "fusion_lon": 0.0}, {"lat": 38.906077833333335, "is_disabled": 0, "type": "electric_scooter", "lon": -76.98984466666667, "bike_id": "bdf38d2c890ceb9c5cd798d14af528bb", "fusion_lat": 0.0, "name": "bdf38d2c890ceb9c5cd798d14af528bb", "is_reserved": 0, "rental_uris": {"android": "https://dc.lft.to/lastmile_qr_scan", "ios": "https://dc.lft.to/lastmile_qr_scan"}, "fusion_lon": 0.0}, {"lat": 38.90920916666666, "is_disabled": 0, "type": "electric_scooter", "lon": -77.0442685, "bike_id": "b7c46ddd37eb7ea32b297750de4bd741", "fusion_lat": 0.0, "name": "b7c46ddd37eb7ea32b297750de4bd741", "is_reserved": 0, "rental_uris": {"android": "https://dc.lft.to/lastmile_qr_scan", "ios": "https://dc.lft.to/lastmile_qr_scan"}, "fusion_lon": 0.0}, {"lat": 38.949221, "is_disabled": 0, "type": "electric_bike", "lon": -77.00801233333334, "bike_id": "93636af355a5fd852f8230f3d29bda1e", "fusion_lat": 0.0, "name": "93636af355a5fd852f8230f3d29bda1e", "is_reserved": 0, "rental_uris": {"android": "https://dc.lft.to/lastmile_qr_scan", "ios": "https://dc.lft.to/lastmile_qr_scan"}, "fusion_lon": 0.0}, {"lat": 38.877204166666665, "is_disabled": 0, "type": "electric_scooter", "lon": -77.01766916666666, "bike_id": "02bd45dac07efd7459c1ee5a31b61270", "fusion_lat": 0.0, "name": "02bd45dac07efd7459c1ee5a31b61270", "is_reserved": 0, "rental_uris": {"android": "https://dc.lft.to/lastmile_qr_scan", "ios": "https://dc.lft.to/lastmile_qr_scan"}, "fusion_lon": 0.0}, {"lat": 38.917497833333336, "is_disabled": 0, "type": "electric_scooter", "lon": -77.02287333333334, "bike_id": "1e1827c8efd7428eced50f9c013b8ac0", "fusion_lat": 0.0, "name": "1e1827c8efd7428eced50f9c013b8ac0", "is_reserved": 0, "rental_uris": {"android": "https://dc.lft.to/lastmile_qr_scan", "ios": "https://dc.lft.to/lastmile_qr_scan"}, "fusion_lon": 0.0}, {"lat": 38.91261016666667, "is_disabled": 0, "type": "electric_scooter", "lon": -77.02546066666666, "bike_id": "4e4e57e9e194a4025fd3a85243b357e7", "fusion_lat": 0.0, "name": "4e4e57e9e194a4025fd3a85243b357e7", "is_reserved": 0, "rental_uris": {"android": "https://dc.lft.to/lastmile_qr_scan", "ios": "https://dc.lft.to/lastmile_qr_scan"}, "fusion_lon": 0.0}, {"lat": 38.90350216666667, "is_disabled": 0, "type": "electric_scooter", "lon": -77.0425155, "bike_id": "f01a24eeba842cdeb661d2143d2cca0c", "fusion_lat": 0.0, "name": "f01a24eeba842cdeb661d2143d2cca0c", "is_reserved": 0, "rental_uris": {"android": "https://dc.lft.to/lastmile_qr_scan", "ios": "https://dc.lft.to/lastmile_qr_scan"}, "fusion_lon": 0.0}, {"lat": 38.89401866666667, "is_disabled": 0, "type": "electric_scooter", "lon": -76.98667683333333, "bike_id": "f54e42b7ebcf798e8cbcfe98bc6d4b81", "fusion_lat": 0.0, "name": "f54e42b7ebcf798e8cbcfe98bc6d4b81", "is_reserved": 0, "rental_uris": {"android": "https://dc.lft.to/lastmile_qr_scan", "ios": "https://dc.lft.to/lastmile_qr_scan"}, "fusion_lon": 0.0}, {"lat": 38.929621166666664, "is_disabled": 0, "type": "electric_scooter", "lon": -77.02785716666666, "bike_id": "8f0d57c0f09477da1bf1a58f0de059b2", "fusion_lat": 0.0, "name": "8f0d57c0f09477da1bf1a58f0de059b2", "is_reserved": 0, "rental_uris": {"android": "https://dc.lft.to/lastmile_qr_scan", "ios": "https://dc.lft.to/lastmile_qr_scan"}, "fusion_lon": 0.0}, {"lat": 38.8699555, "is_disabled": 0, "type": "electric_bike", "lon": -77.06567166666666, "bike_id": "c7a981922f28ab8d284bf5d8f09ed685", "fusion_lat": 0.0, "name": "c7a981922f28ab8d284bf5d8f09ed685", "is_reserved": 0, "rental_uris": {"android": "https://dc.lft.to/lastmile_qr_scan", "ios": "https://dc.lft.to/lastmile_qr_scan"}, "fusion_lon": 0.0}, {"lat": 38.899827333333334, "is_disabled": 0, "type": "electric_scooter", "lon": -76.99265283333334, "bike_id": "eea5edb72cdab1a201ec83b806da4c83", "fusion_lat": 0.0, "name": "eea5edb72cdab1a201ec83b806da4c83", "is_reserved": 0, "rental_uris": {"android": "https://dc.lft.to/lastmile_qr_scan", "ios": "https://dc.lft.to/lastmile_qr_scan"}, "fusion_lon": 0.0}, {"lat": 38.9182135, "is_disabled": 0, "type": "electric_scooter", "lon": -77.0253505, "bike_id": "20adb9e6851024362a6dba2454e7f428", "fusion_lat": 0.0, "name": "20adb9e6851024362a6dba2454e7f428", "is_reserved": 0, "rental_uris": {"android": "https://dc.lft.to/lastmile_qr_scan", "ios": "https://dc.lft.to/lastmile_qr_scan"}, "fusion_lon": 0.0}, {"lat": 38.91710116666667, "is_disabled": 0, "type": "electric_scooter", "lon": -77.03737266666667, "bike_id": "8d7df1a3b6a1a1d5f02e5d8f2ab6002f", "fusion_lat": 0.0, "name": "8d7df1a3b6a1a1d5f02e5d8f2ab6002f", "is_reserved": 0, "rental_uris": {"android": "https://dc.lft.to/lastmile_qr_scan", "ios": "https://dc.lft.to/lastmile_qr_scan"}, "fusion_lon": 0.0}, {"lat": 38.84546016666667, "is_disabled": 0, "type": "electric_bike", "lon": -76.99062333333333, "bike_id": "6494fad693c364280c065bad1b4e997e", "fusion_lat": 0.0, "name": "6494fad693c364280c065bad1b4e997e", "is_reserved": 0, "rental_uris": {"android": "https://dc.lft.to/lastmile_qr_scan", "ios": "https://dc.lft.to/lastmile_qr_scan"}, "fusion_lon": 0.0}, {"lat": 38.91765783333334, "is_disabled": 0, "type": "electric_scooter", "lon": -77.03202416666667, "bike_id": "0ef9b0c19f5dd76abbe325f9597cc902", "fusion_lat": 0.0, "name": "0ef9b0c19f5dd76abbe325f9597cc902", "is_reserved": 0, "rental_uris": {"android": "https://dc.lft.to/lastmile_qr_scan", "ios": "https://dc.lft.to/lastmile_qr_scan"}, "fusion_lon": 0.0}, {"lat": 38.91116316666667, "is_disabled": 0, "type": "electric_scooter", "lon": -76.99718116666666, "bike_id": "0bb9f4236c42e41f8b32a781adffd424", "fusion_lat": 0.0, "name": "0bb9f4236c42e41f8b32a781adffd424", "is_reserved": 0, "rental_uris": {"android": "https://dc.lft.to/lastmile_qr_scan", "ios": "https://dc.lft.to/lastmile_qr_scan"}, "fusion_lon": 0.0}, {"lat": 38.804982, "is_disabled": 0, "type": "electric_bike", "lon": -77.0413485, "bike_id": "6c95ba393998fbb6551c798ee7014d7d", "fusion_lat": 0.0, "name": "6c95ba393998fbb6551c798ee7014d7d", "is_reserved": 0, "rental_uris": {"android": "https://dc.lft.to/lastmile_qr_scan", "ios": "https://dc.lft.to/lastmile_qr_scan"}, "fusion_lon": 0.0}, {"lat": 38.91128366666667, "is_disabled": 0, "type": "electric_scooter", "lon": -77.02204666666667, "bike_id": "1b0afbc75105cc7ca630900a3e136c80", "fusion_lat": 0.0, "name": "1b0afbc75105cc7ca630900a3e136c80", "is_reserved": 0, "rental_uris": {"android": "https://dc.lft.to/lastmile_qr_scan", "ios": "https://dc.lft.to/lastmile_qr_scan"}, "fusion_lon": 0.0}, {"lat": 38.906150833333335, "is_disabled": 0, "type": "electric_scooter", "lon": -77.02602816666666, "bike_id": "5a7eef37a9f6ae0fd8e4e0fd8fd6bd5a", "fusion_lat": 0.0, "name": "5a7eef37a9f6ae0fd8e4e0fd8fd6bd5a", "is_reserved": 0, "rental_uris": {"android": "https://dc.lft.to/lastmile_qr_scan", "ios": "https://dc.lft.to/lastmile_qr_scan"}, "fusion_lon": 0.0}, {"lat": 38.937473833333335, "is_disabled": 0, "type": "electric_scooter", "lon": -77.03452833333333, "bike_id": "abc3b542032809b0c55ac2fd99a2bfac", "fusion_lat": 0.0, "name": "abc3b542032809b0c55ac2fd99a2bfac", "is_reserved": 0, "rental_uris": {"android": "https://dc.lft.to/lastmile_qr_scan", "ios": "https://dc.lft.to/lastmile_qr_scan"}, "fusion_lon": 0.0}, {"lat": 38.8975975, "is_disabled": 0, "type": "electric_scooter", "lon": -77.05503183333333, "bike_id": "dada2a28fbf9507e08121d05019639e1", "fusion_lat": 0.0, "name": "dada2a28fbf9507e08121d05019639e1", "is_reserved": 0, "rental_uris": {"android": "https://dc.lft.to/lastmile_qr_scan", "ios": "https://dc.lft.to/lastmile_qr_scan"}, "fusion_lon": 0.0}, {"lat": 38.92539983333333, "is_disabled": 0, "type": "electric_scooter", "lon": -77.03448116666667, "bike_id": "ea06e5c628bac16e596f8dbb72360720", "fusion_lat": 0.0, "name": "ea06e5c628bac16e596f8dbb72360720", "is_reserved": 0, "rental_uris": {"android": "https://dc.lft.to/lastmile_qr_scan", "ios": "https://dc.lft.to/lastmile_qr_scan"}, "fusion_lon": 0.0}, {"lat": 38.92234966666667, "is_disabled": 0, "type": "electric_scooter", "lon": -77.04247866666667, "bike_id": "31068c6329aaa277a25ac09a2b24ec79", "fusion_lat": 0.0, "name": "31068c6329aaa277a25ac09a2b24ec79", "is_reserved": 0, "rental_uris": {"android": "https://dc.lft.to/lastmile_qr_scan", "ios": "https://dc.lft.to/lastmile_qr_scan"}, "fusion_lon": 0.0}, {"lat": 38.866629833333334, "is_disabled": 0, "type": "electric_scooter", "lon": -77.01057483333334, "bike_id": "2fadb564c23cbee7fe7af8ac06ee6666", "fusion_lat": 0.0, "name": "2fadb564c23cbee7fe7af8ac06ee6666", "is_reserved": 0, "rental_uris": {"android": "https://dc.lft.to/lastmile_qr_scan", "ios": "https://dc.lft.to/lastmile_qr_scan"}, "fusion_lon": 0.0}, {"lat": 38.96502916666667, "is_disabled": 0, "type": "electric_bike", "lon": -77.0282395, "bike_id": "5daefac08b5786cf2318d333012520c2", "fusion_lat": 0.0, "name": "5daefac08b5786cf2318d333012520c2", "is_reserved": 0, "rental_uris": {"android": "https://dc.lft.to/lastmile_qr_scan", "ios": "https://dc.lft.to/lastmile_qr_scan"}, "fusion_lon": 0.0}, {"lat": 38.95894783333333, "is_disabled": 0, "type": "electric_bike", "lon": -76.924835, "bike_id": "73fd1413d9a22e685d56183d74ee749c", "fusion_lat": 0.0, "name": "73fd1413d9a22e685d56183d74ee749c", "is_reserved": 0, "rental_uris": {"android": "https://dc.lft.to/lastmile_qr_scan", "ios": "https://dc.lft.to/lastmile_qr_scan"}, "fusion_lon": 0.0}, {"lat": 38.93412216666667, "is_disabled": 0, "type": "electric_scooter", "lon": -77.03291983333334, "bike_id": "10506266faf0b2e6256460d81a529653", "fusion_lat": 0.0, "name": "10506266faf0b2e6256460d81a529653", "is_reserved": 0, "rental_uris": {"android": "https://dc.lft.to/lastmile_qr_scan", "ios": "https://dc.lft.to/lastmile_qr_scan"}, "fusion_lon": 0.0}, {"lat": 38.920635833333336, "is_disabled": 0, "type": "electric_scooter", "lon": -77.0788195, "bike_id": "34efc9f272af8681e9c5ace0d481dce6", "fusion_lat": 0.0, "name": "34efc9f272af8681e9c5ace0d481dce6", "is_reserved": 0, "rental_uris": {"android": "https://dc.lft.to/lastmile_qr_scan", "ios": "https://dc.lft.to/lastmile_qr_scan"}, "fusion_lon": 0.0}, {"lat": 38.9253535, "is_disabled": 0, "type": "electric_scooter", "lon": -77.026301, "bike_id": "1b0c45b900f54b7c03718105d1ccfba4", "fusion_lat": 0.0, "name": "1b0c45b900f54b7c03718105d1ccfba4", "is_reserved": 0, "rental_uris": {"android": "https://dc.lft.to/lastmile_qr_scan", "ios": "https://dc.lft.to/lastmile_qr_scan"}, "fusion_lon": 0.0}, {"lat": 38.88362016666667, "is_disabled": 0, "type": "electric_scooter", "lon": -76.94154183333333, "bike_id": "53227068f815857025173589a0fb8f18", "fusion_lat": 0.0, "name": "53227068f815857025173589a0fb8f18", "is_reserved": 0, "rental_uris": {"android": "https://dc.lft.to/lastmile_qr_scan", "ios": "https://dc.lft.to/lastmile_qr_scan"}, "fusion_lon": 0.0}, {"lat": 38.9360275, "is_disabled": 0, "type": "electric_scooter", "lon": -77.05857166666667, "bike_id": "dd0047681e08b9c6daea721836accc15", "fusion_lat": 0.0, "name": "dd0047681e08b9c6daea721836accc15", "is_reserved": 0, "rental_uris": {"android": "https://dc.lft.to/lastmile_qr_scan", "ios": "https://dc.lft.to/lastmile_qr_scan"}, "fusion_lon": 0.0}, {"lat": 38.9168215, "is_disabled": 0, "type": "electric_scooter", "lon": -77.00201933333334, "bike_id": "7681b58da61468eeb63afed15762d492", "fusion_lat": 0.0, "name": "7681b58da61468eeb63afed15762d492", "is_reserved": 0, "rental_uris": {"android": "https://dc.lft.to/lastmile_qr_scan", "ios": "https://dc.lft.to/lastmile_qr_scan"}, "fusion_lon": 0.0}, {"lat": 38.90978066666667, "is_disabled": 0, "type": "electric_scooter", "lon": -77.03187633333333, "bike_id": "70c72138bd3189fb659dc169ec4ec45a", "fusion_lat": 0.0, "name": "70c72138bd3189fb659dc169ec4ec45a", "is_reserved": 0, "rental_uris": {"android": "https://dc.lft.to/lastmile_qr_scan", "ios": "https://dc.lft.to/lastmile_qr_scan"}, "fusion_lon": 0.0}, {"lat": 38.915411666666664, "is_disabled": 0, "type": "electric_scooter", "lon": -77.07418583333333, "bike_id": "d27fd56fc476b32752f19cd7c834799c", "fusion_lat": 0.0, "name": "d27fd56fc476b32752f19cd7c834799c", "is_reserved": 0, "rental_uris": {"android": "https://dc.lft.to/lastmile_qr_scan", "ios": "https://dc.lft.to/lastmile_qr_scan"}, "fusion_lon": 0.0}, {"lat": 38.89841766666667, "is_disabled": 0, "type": "electric_scooter", "lon": -76.9463765, "bike_id": "758a0527384ceab68aeacd1f426f71bc", "fusion_lat": 0.0, "name": "758a0527384ceab68aeacd1f426f71bc", "is_reserved": 0, "rental_uris": {"android": "https://dc.lft.to/lastmile_qr_scan", "ios": "https://dc.lft.to/lastmile_qr_scan"}, "fusion_lon": 0.0}, {"lat": 38.90966983333333, "is_disabled": 0, "type": "electric_scooter", "lon": -76.99606816666666, "bike_id": "38675adc27e758ac7cc3c3a2721cd194", "fusion_lat": 0.0, "name": "38675adc27e758ac7cc3c3a2721cd194", "is_reserved": 0, "rental_uris": {"android": "https://dc.lft.to/lastmile_qr_scan", "ios": "https://dc.lft.to/lastmile_qr_scan"}, "fusion_lon": 0.0}, {"lat": 38.899976333333335, "is_disabled": 0, "type": "electric_scooter", "lon": -76.999573, "bike_id": "6fc744719d46af21be0907b746992c4c", "fusion_lat": 0.0, "name": "6fc744719d46af21be0907b746992c4c", "is_reserved": 0, "rental_uris": {"android": "https://dc.lft.to/lastmile_qr_scan", "ios": "https://dc.lft.to/lastmile_qr_scan"}, "fusion_lon": 0.0}, {"lat": 38.906791, "is_disabled": 0, "type": "electric_scooter", "lon": -77.02715833333333, "bike_id": "aa152737840630d5f6baaac03828356a", "fusion_lat": 0.0, "name": "aa152737840630d5f6baaac03828356a", "is_reserved": 0, "rental_uris": {"android": "https://dc.lft.to/lastmile_qr_scan", "ios": "https://dc.lft.to/lastmile_qr_scan"}, "fusion_lon": 0.0}, {"lat": 38.910932333333335, "is_disabled": 0, "type": "electric_scooter", "lon": -77.03204966666667, "bike_id": "7087e31fa995ceb111dcffe2896806bc", "fusion_lat": 0.0, "name": "7087e31fa995ceb111dcffe2896806bc", "is_reserved": 0, "rental_uris": {"android": "https://dc.lft.to/lastmile_qr_scan", "ios": "https://dc.lft.to/lastmile_qr_scan"}, "fusion_lon": 0.0}, {"lat": 38.892846, "is_disabled": 0, "type": "electric_scooter", "lon": -76.95852466666666, "bike_id": "73677be31e891c4621e6a017e2c1886b", "fusion_lat": 0.0, "name": "73677be31e891c4621e6a017e2c1886b", "is_reserved": 0, "rental_uris": {"android": "https://dc.lft.to/lastmile_qr_scan", "ios": "https://dc.lft.to/lastmile_qr_scan"}, "fusion_lon": 0.0}, {"lat": 38.929521, "is_disabled": 0, "type": "electric_scooter", "lon": -76.99090716666667, "bike_id": "f5b7b433b7b34a2d629bfdd1226793aa", "fusion_lat": 0.0, "name": "f5b7b433b7b34a2d629bfdd1226793aa", "is_reserved": 0, "rental_uris": {"android": "https://dc.lft.to/lastmile_qr_scan", "ios": "https://dc.lft.to/lastmile_qr_scan"}, "fusion_lon": 0.0}, {"lat": 38.887184500000004, "is_disabled": 0, "type": "electric_scooter", "lon": -76.99607833333333, "bike_id": "af1e492354d52815d403d2997a558faf", "fusion_lat": 0.0, "name": "af1e492354d52815d403d2997a558faf", "is_reserved": 0, "rental_uris": {"android": "https://dc.lft.to/lastmile_qr_scan", "ios": "https://dc.lft.to/lastmile_qr_scan"}, "fusion_lon": 0.0}, {"lat": 38.925346833333336, "is_disabled": 0, "type": "electric_scooter", "lon": -77.0414125, "bike_id": "9d4472b67f3bc485f8d6894e9bdacbbc", "fusion_lat": 0.0, "name": "9d4472b67f3bc485f8d6894e9bdacbbc", "is_reserved": 0, "rental_uris": {"android": "https://dc.lft.to/lastmile_qr_scan", "ios": "https://dc.lft.to/lastmile_qr_scan"}, "fusion_lon": 0.0}, {"lat": 38.9006595, "is_disabled": 0, "type": "electric_scooter", "lon": -77.00209733333334, "bike_id": "28d84dc4f86d059f798961ec26aca1da", "fusion_lat": 0.0, "name": "28d84dc4f86d059f798961ec26aca1da", "is_reserved": 0, "rental_uris": {"android": "https://dc.lft.to/lastmile_qr_scan", "ios": "https://dc.lft.to/lastmile_qr_scan"}, "fusion_lon": 0.0}, {"lat": 38.917564166666665, "is_disabled": 0, "type": "electric_scooter", "lon": -77.03207616666667, "bike_id": "d4018bc86531f3281cc6518ef894b537", "fusion_lat": 0.0, "name": "d4018bc86531f3281cc6518ef894b537", "is_reserved": 0, "rental_uris": {"android": "https://dc.lft.to/lastmile_qr_scan", "ios": "https://dc.lft.to/lastmile_qr_scan"}, "fusion_lon": 0.0}, {"lat": 38.90572233333333, "is_disabled": 0, "type": "electric_scooter", "lon": -77.04654683333334, "bike_id": "848d8fc930535560b5bd71702eaa2833", "fusion_lat": 0.0, "name": "848d8fc930535560b5bd71702eaa2833", "is_reserved": 0, "rental_uris": {"android": "https://dc.lft.to/lastmile_qr_scan", "ios": "https://dc.lft.to/lastmile_qr_scan"}, "fusion_lon": 0.0}, {"lat": 38.904011833333335, "is_disabled": 0, "type": "electric_scooter", "lon": -76.98509416666667, "bike_id": "0bae6d50e6e93e9de887ff3c26963793", "fusion_lat": 0.0, "name": "0bae6d50e6e93e9de887ff3c26963793", "is_reserved": 0, "rental_uris": {"android": "https://dc.lft.to/lastmile_qr_scan", "ios": "https://dc.lft.to/lastmile_qr_scan"}, "fusion_lon": 0.0}, {"lat": 38.899919833333335, "is_disabled": 0, "type": "electric_scooter", "lon": -77.05259233333334, "bike_id": "816466f658b89c6c34f5aa5512b9364d", "fusion_lat": 0.0, "name": "816466f658b89c6c34f5aa5512b9364d", "is_reserved": 0, "rental_uris": {"android": "https://dc.lft.to/lastmile_qr_scan", "ios": "https://dc.lft.to/lastmile_qr_scan"}, "fusion_lon": 0.0}, {"lat": 38.894435, "is_disabled": 0, "type": "electric_scooter", "lon": -77.02685816666667, "bike_id": "b6efcd08f3bcf88d45b854516e8de947", "fusion_lat": 0.0, "name": "b6efcd08f3bcf88d45b854516e8de947", "is_reserved": 0, "rental_uris": {"android": "https://dc.lft.to/lastmile_qr_scan", "ios": "https://dc.lft.to/lastmile_qr_scan"}, "fusion_lon": 0.0}, {"lat": 38.89579116666667, "is_disabled": 0, "type": "electric_scooter", "lon": -76.9817695, "bike_id": "3df4a71fb3fa655b70fa8ed1bc92ac71", "fusion_lat": 0.0, "name": "3df4a71fb3fa655b70fa8ed1bc92ac71", "is_reserved": 0, "rental_uris": {"android": "https://dc.lft.to/lastmile_qr_scan", "ios": "https://dc.lft.to/lastmile_qr_scan"}, "fusion_lon": 0.0}, {"lat": 38.853756833333335, "is_disabled": 0, "type": "electric_bike", "lon": -77.12426383333333, "bike_id": "69472db6285c732865944fb10d47c9cc", "fusion_lat": 0.0, "name": "69472db6285c732865944fb10d47c9cc", "is_reserved": 0, "rental_uris": {"android": "https://dc.lft.to/lastmile_qr_scan", "ios": "https://dc.lft.to/lastmile_qr_scan"}, "fusion_lon": 0.0}, {"lat": 38.8508405, "is_disabled": 0, "type": "electric_bike", "lon": -76.95678833333334, "bike_id": "de87205467ffa43c4561392bd8adc9f1", "fusion_lat": 0.0, "name": "de87205467ffa43c4561392bd8adc9f1", "is_reserved": 0, "rental_uris": {"android": "https://dc.lft.to/lastmile_qr_scan", "ios": "https://dc.lft.to/lastmile_qr_scan"}, "fusion_lon": 0.0}, {"lat": 38.8999035, "is_disabled": 0, "type": "electric_scooter", "lon": -77.02667783333334, "bike_id": "73b031b297cc2cc2c9d0d0b5338136c5", "fusion_lat": 0.0, "name": "73b031b297cc2cc2c9d0d0b5338136c5", "is_reserved": 0, "rental_uris": {"android": "https://dc.lft.to/lastmile_qr_scan", "ios": "https://dc.lft.to/lastmile_qr_scan"}, "fusion_lon": 0.0}, {"lat": 38.9004175, "is_disabled": 0, "type": "electric_scooter", "lon": -77.03310033333334, "bike_id": "e4df9648c39b141f784d659c4caa5369", "fusion_lat": 0.0, "name": "e4df9648c39b141f784d659c4caa5369", "is_reserved": 0, "rental_uris": {"android": "https://dc.lft.to/lastmile_qr_scan", "ios": "https://dc.lft.to/lastmile_qr_scan"}, "fusion_lon": 0.0}, {"lat": 38.87064083333333, "is_disabled": 0, "type": "electric_scooter", "lon": -77.0084125, "bike_id": "c4838d18c49ceccb76883af633c04549", "fusion_lat": 0.0, "name": "c4838d18c49ceccb76883af633c04549", "is_reserved": 0, "rental_uris": {"android": "https://dc.lft.to/lastmile_qr_scan", "ios": "https://dc.lft.to/lastmile_qr_scan"}, "fusion_lon": 0.0}, {"lat": 38.90528033333333, "is_disabled": 0, "type": "electric_scooter", "lon": -77.00680833333334, "bike_id": "cf43c09edc720964a9c725c9cb65630d", "fusion_lat": 0.0, "name": "cf43c09edc720964a9c725c9cb65630d", "is_reserved": 0, "rental_uris": {"android": "https://dc.lft.to/lastmile_qr_scan", "ios": "https://dc.lft.to/lastmile_qr_scan"}, "fusion_lon": 0.0}, {"lat": 38.866751666666666, "is_disabled": 0, "type": "electric_scooter", "lon": -76.9854035, "bike_id": "0b6c57e39042da089b982c334ee49b68", "fusion_lat": 0.0, "name": "0b6c57e39042da089b982c334ee49b68", "is_reserved": 0, "rental_uris": {"android": "https://dc.lft.to/lastmile_qr_scan", "ios": "https://dc.lft.to/lastmile_qr_scan"}, "fusion_lon": 0.0}, {"lat": 38.862102, "is_disabled": 0, "type": "electric_bike", "lon": -76.99780116666666, "bike_id": "86f8351f88cdd1d2c146dc582cf407a3", "fusion_lat": 0.0, "name": "86f8351f88cdd1d2c146dc582cf407a3", "is_reserved": 0, "rental_uris": {"android": "https://dc.lft.to/lastmile_qr_scan", "ios": "https://dc.lft.to/lastmile_qr_scan"}, "fusion_lon": 0.0}, {"lat": 38.8921865, "is_disabled": 0, "type": "electric_scooter", "lon": -77.02317633333334, "bike_id": "ed5c5529cc5f422778865d14c19c42dd", "fusion_lat": 0.0, "name": "ed5c5529cc5f422778865d14c19c42dd", "is_reserved": 0, "rental_uris": {"android": "https://dc.lft.to/lastmile_qr_scan", "ios": "https://dc.lft.to/lastmile_qr_scan"}, "fusion_lon": 0.0}, {"lat": 38.928195333333335, "is_disabled": 0, "type": "electric_scooter", "lon": -77.02875566666667, "bike_id": "15ffaac060208da1736cfc6acd33a1c4", "fusion_lat": 0.0, "name": "15ffaac060208da1736cfc6acd33a1c4", "is_reserved": 0, "rental_uris": {"android": "https://dc.lft.to/lastmile_qr_scan", "ios": "https://dc.lft.to/lastmile_qr_scan"}, "fusion_lon": 0.0}, {"lat": 38.94462516666667, "is_disabled": 0, "type": "electric_scooter", "lon": -77.0066495, "bike_id": "cd2297a7f508ad0b884889cfe9fcb4a1", "fusion_lat": 0.0, "name": "cd2297a7f508ad0b884889cfe9fcb4a1", "is_reserved": 0, "rental_uris": {"android": "https://dc.lft.to/lastmile_qr_scan", "ios": "https://dc.lft.to/lastmile_qr_scan"}, "fusion_lon": 0.0}, {"lat": 38.902365833333334, "is_disabled": 0, "type": "electric_scooter", "lon": -77.00203933333333, "bike_id": "47fe03e6e873d8eedc3d9e512f5fb240", "fusion_lat": 0.0, "name": "47fe03e6e873d8eedc3d9e512f5fb240", "is_reserved": 0, "rental_uris": {"android": "https://dc.lft.to/lastmile_qr_scan", "ios": "https://dc.lft.to/lastmile_qr_scan"}, "fusion_lon": 0.0}, {"lat": 38.891762666666665, "is_disabled": 0, "type": "electric_scooter", "lon": -77.0321205, "bike_id": "7f78263cb2675248fa30e14c7955bf3a", "fusion_lat": 0.0, "name": "7f78263cb2675248fa30e14c7955bf3a", "is_reserved": 0, "rental_uris": {"android": "https://dc.lft.to/lastmile_qr_scan", "ios": "https://dc.lft.to/lastmile_qr_scan"}, "fusion_lon": 0.0}, {"lat": 38.91679283333333, "is_disabled": 0, "type": "electric_scooter", "lon": -77.0297285, "bike_id": "c22c427aef712f11ecc2bb4f69ae2e18", "fusion_lat": 0.0, "name": "c22c427aef712f11ecc2bb4f69ae2e18", "is_reserved": 0, "rental_uris": {"android": "https://dc.lft.to/lastmile_qr_scan", "ios": "https://dc.lft.to/lastmile_qr_scan"}, "fusion_lon": 0.0}, {"lat": 38.9442805, "is_disabled": 0, "type": "electric_scooter", "lon": -77.06341883333333, "bike_id": "b24f84b977af80958642d119da0298ff", "fusion_lat": 0.0, "name": "b24f84b977af80958642d119da0298ff", "is_reserved": 0, "rental_uris": {"android": "https://dc.lft.to/lastmile_qr_scan", "ios": "https://dc.lft.to/lastmile_qr_scan"}, "fusion_lon": 0.0}, {"lat": 38.9192675, "is_disabled": 0, "type": "electric_scooter", "lon": -77.03425833333333, "bike_id": "3f3a608771c5775d08c33a2dfd4b08b5", "fusion_lat": 0.0, "name": "3f3a608771c5775d08c33a2dfd4b08b5", "is_reserved": 0, "rental_uris": {"android": "https://dc.lft.to/lastmile_qr_scan", "ios": "https://dc.lft.to/lastmile_qr_scan"}, "fusion_lon": 0.0}, {"lat": 38.91354116666667, "is_disabled": 0, "type": "electric_scooter", "lon": -77.0416385, "bike_id": "6937b7a117249f3cec3347bbf9e7d5b5", "fusion_lat": 0.0, "name": "6937b7a117249f3cec3347bbf9e7d5b5", "is_reserved": 0, "rental_uris": {"android": "https://dc.lft.to/lastmile_qr_scan", "ios": "https://dc.lft.to/lastmile_qr_scan"}, "fusion_lon": 0.0}, {"lat": 38.90163533333333, "is_disabled": 0, "type": "electric_scooter", "lon": -77.020171, "bike_id": "bcdf3967637357c762725af763ae3ac9", "fusion_lat": 0.0, "name": "bcdf3967637357c762725af763ae3ac9", "is_reserved": 0, "rental_uris": {"android": "https://dc.lft.to/lastmile_qr_scan", "ios": "https://dc.lft.to/lastmile_qr_scan"}, "fusion_lon": 0.0}, {"lat": 38.926214333333334, "is_disabled": 0, "type": "electric_scooter", "lon": -77.03780066666667, "bike_id": "b6f1dd6df8497f17191296f90b989c12", "fusion_lat": 0.0, "name": "b6f1dd6df8497f17191296f90b989c12", "is_reserved": 0, "rental_uris": {"android": "https://dc.lft.to/lastmile_qr_scan", "ios": "https://dc.lft.to/lastmile_qr_scan"}, "fusion_lon": 0.0}, {"lat": 38.81345133333333, "is_disabled": 0, "type": "electric_bike", "lon": -77.04920933333334, "bike_id": "faf29953677410287b53152b9b2c48a8", "fusion_lat": 0.0, "name": "faf29953677410287b53152b9b2c48a8", "is_reserved": 0, "rental_uris": {"android": "https://dc.lft.to/lastmile_qr_scan", "ios": "https://dc.lft.to/lastmile_qr_scan"}, "fusion_lon": 0.0}, {"lat": 38.9620175, "is_disabled": 0, "type": "electric_bike", "lon": -77.03512433333333, "bike_id": "39a1892a02511b6b3d84f2bbfd23c729", "fusion_lat": 0.0, "name": "39a1892a02511b6b3d84f2bbfd23c729", "is_reserved": 0, "rental_uris": {"android": "https://dc.lft.to/lastmile_qr_scan", "ios": "https://dc.lft.to/lastmile_qr_scan"}, "fusion_lon": 0.0}, {"lat": 38.907304333333336, "is_disabled": 0, "type": "electric_scooter", "lon": -77.01136816666667, "bike_id": "e2969905a1d08f83d7e243fe4615ed02", "fusion_lat": 0.0, "name": "e2969905a1d08f83d7e243fe4615ed02", "is_reserved": 0, "rental_uris": {"android": "https://dc.lft.to/lastmile_qr_scan", "ios": "https://dc.lft.to/lastmile_qr_scan"}, "fusion_lon": 0.0}, {"lat": 38.90255883333333, "is_disabled": 0, "type": "electric_scooter", "lon": -77.0176935, "bike_id": "13c1cdf4d888f8d273bddf01c67a3826", "fusion_lat": 0.0, "name": "13c1cdf4d888f8d273bddf01c67a3826", "is_reserved": 0, "rental_uris": {"android": "https://dc.lft.to/lastmile_qr_scan", "ios": "https://dc.lft.to/lastmile_qr_scan"}, "fusion_lon": 0.0}, {"lat": 38.911182, "is_disabled": 0, "type": "electric_scooter", "lon": -77.0382265, "bike_id": "2d9b5bbcfe0154a6f0440ccd4271b3c8", "fusion_lat": 0.0, "name": "2d9b5bbcfe0154a6f0440ccd4271b3c8", "is_reserved": 0, "rental_uris": {"android": "https://dc.lft.to/lastmile_qr_scan", "ios": "https://dc.lft.to/lastmile_qr_scan"}, "fusion_lon": 0.0}, {"lat": 38.90193133333333, "is_disabled": 0, "type": "electric_scooter", "lon": -77.036596, "bike_id": "77592127f2fa7ab68e28337b83dacab1", "fusion_lat": 0.0, "name": "77592127f2fa7ab68e28337b83dacab1", "is_reserved": 0, "rental_uris": {"android": "https://dc.lft.to/lastmile_qr_scan", "ios": "https://dc.lft.to/lastmile_qr_scan"}, "fusion_lon": 0.0}, {"lat": 38.90429866666667, "is_disabled": 0, "type": "electric_scooter", "lon": -77.00212883333333, "bike_id": "833e2846d3b114701a54bbeedb82b3a3", "fusion_lat": 0.0, "name": "833e2846d3b114701a54bbeedb82b3a3", "is_reserved": 0, "rental_uris": {"android": "https://dc.lft.to/lastmile_qr_scan", "ios": "https://dc.lft.to/lastmile_qr_scan"}, "fusion_lon": 0.0}, {"lat": 38.902186, "is_disabled": 0, "type": "electric_scooter", "lon": -77.0229135, "bike_id": "adadc1496c9c6c2bbe97e0869a1ebc8e", "fusion_lat": 0.0, "name": "adadc1496c9c6c2bbe97e0869a1ebc8e", "is_reserved": 0, "rental_uris": {"android": "https://dc.lft.to/lastmile_qr_scan", "ios": "https://dc.lft.to/lastmile_qr_scan"}, "fusion_lon": 0.0}, {"lat": 38.907209, "is_disabled": 0, "type": "electric_scooter", "lon": -77.0297545, "bike_id": "97e68cfc8839ae22a0e0b061aa40bb18", "fusion_lat": 0.0, "name": "97e68cfc8839ae22a0e0b061aa40bb18", "is_reserved": 0, "rental_uris": {"android": "https://dc.lft.to/lastmile_qr_scan", "ios": "https://dc.lft.to/lastmile_qr_scan"}, "fusion_lon": 0.0}, {"lat": 38.936051666666664, "is_disabled": 0, "type": "electric_scooter", "lon": -77.05856533333333, "bike_id": "a3a1c1175a911650534d68f440b2c497", "fusion_lat": 0.0, "name": "a3a1c1175a911650534d68f440b2c497", "is_reserved": 0, "rental_uris": {"android": "https://dc.lft.to/lastmile_qr_scan", "ios": "https://dc.lft.to/lastmile_qr_scan"}, "fusion_lon": 0.0}, {"lat": 38.859440166666666, "is_disabled": 0, "type": "electric_bike", "lon": -77.0861455, "bike_id": "1ba6c8993e66ec3b36b91ad792c92e3a", "fusion_lat": 0.0, "name": "1ba6c8993e66ec3b36b91ad792c92e3a", "is_reserved": 0, "rental_uris": {"android": "https://dc.lft.to/lastmile_qr_scan", "ios": "https://dc.lft.to/lastmile_qr_scan"}, "fusion_lon": 0.0}, {"lat": 38.93322083333334, "is_disabled": 0, "type": "electric_scooter", "lon": -77.04371433333333, "bike_id": "b66f88d489ec7dec9f77fc113d5d8073", "fusion_lat": 0.0, "name": "b66f88d489ec7dec9f77fc113d5d8073", "is_reserved": 0, "rental_uris": {"android": "https://dc.lft.to/lastmile_qr_scan", "ios": "https://dc.lft.to/lastmile_qr_scan"}, "fusion_lon": 0.0}, {"lat": 38.90227733333333, "is_disabled": 0, "type": "electric_scooter", "lon": -77.06055566666667, "bike_id": "889a2dc90b2cc25ff4b49ed1e6ad9493", "fusion_lat": 0.0, "name": "889a2dc90b2cc25ff4b49ed1e6ad9493", "is_reserved": 0, "rental_uris": {"android": "https://dc.lft.to/lastmile_qr_scan", "ios": "https://dc.lft.to/lastmile_qr_scan"}, "fusion_lon": 0.0}, {"lat": 38.9248445, "is_disabled": 0, "type": "electric_scooter", "lon": -77.05759066666667, "bike_id": "06677783fc7b5ce5749f54d668f553ee", "fusion_lat": 0.0, "name": "06677783fc7b5ce5749f54d668f553ee", "is_reserved": 0, "rental_uris": {"android": "https://dc.lft.to/lastmile_qr_scan", "ios": "https://dc.lft.to/lastmile_qr_scan"}, "fusion_lon": 0.0}, {"lat": 38.91958133333333, "is_disabled": 0, "type": "electric_scooter", "lon": -76.980892, "bike_id": "3a6d2c69c2e159109e7e0551be538e7d", "fusion_lat": 0.0, "name": "3a6d2c69c2e159109e7e0551be538e7d", "is_reserved": 0, "rental_uris": {"android": "https://dc.lft.to/lastmile_qr_scan", "ios": "https://dc.lft.to/lastmile_qr_scan"}, "fusion_lon": 0.0}, {"lat": 38.892226, "is_disabled": 0, "type": "electric_scooter", "lon": -77.04372066666667, "bike_id": "2832a7e9f1b6368861f4a50aa63d29a9", "fusion_lat": 0.0, "name": "2832a7e9f1b6368861f4a50aa63d29a9", "is_reserved": 0, "rental_uris": {"android": "https://dc.lft.to/lastmile_qr_scan", "ios": "https://dc.lft.to/lastmile_qr_scan"}, "fusion_lon": 0.0}, {"lat": 38.88526433333333, "is_disabled": 0, "type": "electric_scooter", "lon": -77.01133866666666, "bike_id": "adb1e30dfa5cd4a19b3bb17244457d8a", "fusion_lat": 0.0, "name": "adb1e30dfa5cd4a19b3bb17244457d8a", "is_reserved": 0, "rental_uris": {"android": "https://dc.lft.to/lastmile_qr_scan", "ios": "https://dc.lft.to/lastmile_qr_scan"}, "fusion_lon": 0.0}, {"lat": 38.906011666666664, "is_disabled": 0, "type": "electric_scooter", "lon": -77.0162245, "bike_id": "cc44f83eeada26646427e2e643b80707", "fusion_lat": 0.0, "name": "cc44f83eeada26646427e2e643b80707", "is_reserved": 0, "rental_uris": {"android": "https://dc.lft.to/lastmile_qr_scan", "ios": "https://dc.lft.to/lastmile_qr_scan"}, "fusion_lon": 0.0}, {"lat": 38.89344466666667, "is_disabled": 0, "type": "electric_scooter", "lon": -76.99160816666667, "bike_id": "5b4ac92c6fc07b2b70aaef306aa653e0", "fusion_lat": 0.0, "name": "5b4ac92c6fc07b2b70aaef306aa653e0", "is_reserved": 0, "rental_uris": {"android": "https://dc.lft.to/lastmile_qr_scan", "ios": "https://dc.lft.to/lastmile_qr_scan"}, "fusion_lon": 0.0}, {"lat": 38.91563216666667, "is_disabled": 0, "type": "electric_scooter", "lon": -77.03151183333334, "bike_id": "e98e1f9d993a5f171869cadcc0f94b28", "fusion_lat": 0.0, "name": "e98e1f9d993a5f171869cadcc0f94b28", "is_reserved": 0, "rental_uris": {"android": "https://dc.lft.to/lastmile_qr_scan", "ios": "https://dc.lft.to/lastmile_qr_scan"}, "fusion_lon": 0.0}, {"lat": 38.91798333333333, "is_disabled": 0, "type": "electric_scooter", "lon": -77.0321125, "bike_id": "f43b35e6707a3bb5119f3e92c92a7d7a", "fusion_lat": 0.0, "name": "f43b35e6707a3bb5119f3e92c92a7d7a", "is_reserved": 0, "rental_uris": {"android": "https://dc.lft.to/lastmile_qr_scan", "ios": "https://dc.lft.to/lastmile_qr_scan"}, "fusion_lon": 0.0}, {"lat": 38.901977333333335, "is_disabled": 0, "type": "electric_scooter", "lon": -76.9821145, "bike_id": "04748199a00383843032dd2455287199", "fusion_lat": 0.0, "name": "04748199a00383843032dd2455287199", "is_reserved": 0, "rental_uris": {"android": "https://dc.lft.to/lastmile_qr_scan", "ios": "https://dc.lft.to/lastmile_qr_scan"}, "fusion_lon": 0.0}, {"lat": 38.93529683333333, "is_disabled": 0, "type": "electric_scooter", "lon": -77.072965, "bike_id": "28e4e6abb984b306d0a197e9407dd28b", "fusion_lat": 0.0, "name": "28e4e6abb984b306d0a197e9407dd28b", "is_reserved": 0, "rental_uris": {"android": "https://dc.lft.to/lastmile_qr_scan", "ios": "https://dc.lft.to/lastmile_qr_scan"}, "fusion_lon": 0.0}, {"lat": 38.892210166666665, "is_disabled": 0, "type": "electric_scooter", "lon": -77.02783166666667, "bike_id": "038e7ff1b9c28a869fac0e2451399330", "fusion_lat": 0.0, "name": "038e7ff1b9c28a869fac0e2451399330", "is_reserved": 0, "rental_uris": {"android": "https://dc.lft.to/lastmile_qr_scan", "ios": "https://dc.lft.to/lastmile_qr_scan"}, "fusion_lon": 0.0}, {"lat": 38.91262866666667, "is_disabled": 0, "type": "electric_scooter", "lon": -77.022524, "bike_id": "d9a5b055f12215de2824cb439a311f38", "fusion_lat": 0.0, "name": "d9a5b055f12215de2824cb439a311f38", "is_reserved": 0, "rental_uris": {"android": "https://dc.lft.to/lastmile_qr_scan", "ios": "https://dc.lft.to/lastmile_qr_scan"}, "fusion_lon": 0.0}, {"lat": 38.895232666666665, "is_disabled": 0, "type": "electric_scooter", "lon": -77.002158, "bike_id": "ade4e385bdb89b04ebaf706cc0c023cb", "fusion_lat": 0.0, "name": "ade4e385bdb89b04ebaf706cc0c023cb", "is_reserved": 0, "rental_uris": {"android": "https://dc.lft.to/lastmile_qr_scan", "ios": "https://dc.lft.to/lastmile_qr_scan"}, "fusion_lon": 0.0}, {"lat": 38.913615166666666, "is_disabled": 0, "type": "electric_scooter", "lon": -77.03955433333333, "bike_id": "1b9666a0fcc2022a25a11aacf873f855", "fusion_lat": 0.0, "name": "1b9666a0fcc2022a25a11aacf873f855", "is_reserved": 0, "rental_uris": {"android": "https://dc.lft.to/lastmile_qr_scan", "ios": "https://dc.lft.to/lastmile_qr_scan"}, "fusion_lon": 0.0}, {"lat": 38.87580533333333, "is_disabled": 0, "type": "electric_bike", "lon": -77.105584, "bike_id": "8042ac00c75c10ec89077e09a21c8cd6", "fusion_lat": 0.0, "name": "8042ac00c75c10ec89077e09a21c8cd6", "is_reserved": 0, "rental_uris": {"android": "https://dc.lft.to/lastmile_qr_scan", "ios": "https://dc.lft.to/lastmile_qr_scan"}, "fusion_lon": 0.0}, {"lat": 38.88486566666667, "is_disabled": 0, "type": "electric_scooter", "lon": -77.00711133333333, "bike_id": "078775212d2242a61bdd0d6d2cb23668", "fusion_lat": 0.0, "name": "078775212d2242a61bdd0d6d2cb23668", "is_reserved": 0, "rental_uris": {"android": "https://dc.lft.to/lastmile_qr_scan", "ios": "https://dc.lft.to/lastmile_qr_scan"}, "fusion_lon": 0.0}, {"lat": 38.86625866666667, "is_disabled": 0, "type": "electric_scooter", "lon": -76.98699983333333, "bike_id": "d928f08e51bc109ad216f45ceb7315c9", "fusion_lat": 0.0, "name": "d928f08e51bc109ad216f45ceb7315c9", "is_reserved": 0, "rental_uris": {"android": "https://dc.lft.to/lastmile_qr_scan", "ios": "https://dc.lft.to/lastmile_qr_scan"}, "fusion_lon": 0.0}, {"lat": 38.911925833333335, "is_disabled": 0, "type": "electric_scooter", "lon": -77.00457566666667, "bike_id": "5dfaa26fda692f238ebd9e30eef9881b", "fusion_lat": 0.0, "name": "5dfaa26fda692f238ebd9e30eef9881b", "is_reserved": 0, "rental_uris": {"android": "https://dc.lft.to/lastmile_qr_scan", "ios": "https://dc.lft.to/lastmile_qr_scan"}, "fusion_lon": 0.0}, {"lat": 38.905254666666664, "is_disabled": 0, "type": "electric_scooter", "lon": -77.04344216666667, "bike_id": "6b9141d21e9e80fcfb86bba915d305a6", "fusion_lat": 0.0, "name": "6b9141d21e9e80fcfb86bba915d305a6", "is_reserved": 0, "rental_uris": {"android": "https://dc.lft.to/lastmile_qr_scan", "ios": "https://dc.lft.to/lastmile_qr_scan"}, "fusion_lon": 0.0}, {"lat": 38.842719833333334, "is_disabled": 0, "type": "electric_bike", "lon": -76.988405, "bike_id": "2aabcb3bf34f9eed2e0a5c49940c1701", "fusion_lat": 0.0, "name": "2aabcb3bf34f9eed2e0a5c49940c1701", "is_reserved": 0, "rental_uris": {"android": "https://dc.lft.to/lastmile_qr_scan", "ios": "https://dc.lft.to/lastmile_qr_scan"}, "fusion_lon": 0.0}, {"lat": 38.905204166666664, "is_disabled": 0, "type": "electric_scooter", "lon": -77.02968516666667, "bike_id": "3e6f51fe15f07ae0201e6595607e5462", "fusion_lat": 0.0, "name": "3e6f51fe15f07ae0201e6595607e5462", "is_reserved": 0, "rental_uris": {"android": "https://dc.lft.to/lastmile_qr_scan", "ios": "https://dc.lft.to/lastmile_qr_scan"}, "fusion_lon": 0.0}, {"lat": 38.9492705, "is_disabled": 0, "type": "electric_scooter", "lon": -77.01935666666667, "bike_id": "a9a2260d187fef14fc3b87904d9460ea", "fusion_lat": 0.0, "name": "a9a2260d187fef14fc3b87904d9460ea", "is_reserved": 0, "rental_uris": {"android": "https://dc.lft.to/lastmile_qr_scan", "ios": "https://dc.lft.to/lastmile_qr_scan"}, "fusion_lon": 0.0}, {"lat": 38.90530966666667, "is_disabled": 0, "type": "electric_scooter", "lon": -77.0418045, "bike_id": "c9f023033c93026122ee5331542a051d", "fusion_lat": 0.0, "name": "c9f023033c93026122ee5331542a051d", "is_reserved": 0, "rental_uris": {"android": "https://dc.lft.to/lastmile_qr_scan", "ios": "https://dc.lft.to/lastmile_qr_scan"}, "fusion_lon": 0.0}, {"lat": 38.90525016666667, "is_disabled": 0, "type": "electric_scooter", "lon": -77.04170083333334, "bike_id": "a6ec8519b73d6895a701edab2406d540", "fusion_lat": 0.0, "name": "a6ec8519b73d6895a701edab2406d540", "is_reserved": 0, "rental_uris": {"android": "https://dc.lft.to/lastmile_qr_scan", "ios": "https://dc.lft.to/lastmile_qr_scan"}, "fusion_lon": 0.0}, {"lat": 38.92611183333333, "is_disabled": 0, "type": "electric_scooter", "lon": -76.9960655, "bike_id": "569305d431657fd8b7dc5cd8717854b0", "fusion_lat": 0.0, "name": "569305d431657fd8b7dc5cd8717854b0", "is_reserved": 0, "rental_uris": {"android": "https://dc.lft.to/lastmile_qr_scan", "ios": "https://dc.lft.to/lastmile_qr_scan"}, "fusion_lon": 0.0}, {"lat": 38.915557166666666, "is_disabled": 0, "type": "electric_scooter", "lon": -77.03864433333334, "bike_id": "9d9b8743452251acacd1faa50472c1f5", "fusion_lat": 0.0, "name": "9d9b8743452251acacd1faa50472c1f5", "is_reserved": 0, "rental_uris": {"android": "https://dc.lft.to/lastmile_qr_scan", "ios": "https://dc.lft.to/lastmile_qr_scan"}, "fusion_lon": 0.0}, {"lat": 38.889968333333336, "is_disabled": 0, "type": "electric_scooter", "lon": -76.95412716666667, "bike_id": "7547fa15dd7024d4e74da1962a642a9c", "fusion_lat": 0.0, "name": "7547fa15dd7024d4e74da1962a642a9c", "is_reserved": 0, "rental_uris": {"android": "https://dc.lft.to/lastmile_qr_scan", "ios": "https://dc.lft.to/lastmile_qr_scan"}, "fusion_lon": 0.0}, {"lat": 38.949726, "is_disabled": 0, "type": "electric_scooter", "lon": -77.06562816666667, "bike_id": "a218c18830a79bb3c7a00bb13aa366c1", "fusion_lat": 0.0, "name": "a218c18830a79bb3c7a00bb13aa366c1", "is_reserved": 0, "rental_uris": {"android": "https://dc.lft.to/lastmile_qr_scan", "ios": "https://dc.lft.to/lastmile_qr_scan"}, "fusion_lon": 0.0}, {"lat": 38.8920525, "is_disabled": 0, "type": "electric_scooter", "lon": -76.9856325, "bike_id": "6dc79d78642f74d0096e2f7a7ba58893", "fusion_lat": 0.0, "name": "6dc79d78642f74d0096e2f7a7ba58893", "is_reserved": 0, "rental_uris": {"android": "https://dc.lft.to/lastmile_qr_scan", "ios": "https://dc.lft.to/lastmile_qr_scan"}, "fusion_lon": 0.0}, {"lat": 38.917074166666666, "is_disabled": 0, "type": "electric_scooter", "lon": -77.0274215, "bike_id": "6418f5870dc3a7ea728cc49e1a5f6de5", "fusion_lat": 0.0, "name": "6418f5870dc3a7ea728cc49e1a5f6de5", "is_reserved": 0, "rental_uris": {"android": "https://dc.lft.to/lastmile_qr_scan", "ios": "https://dc.lft.to/lastmile_qr_scan"}, "fusion_lon": 0.0}, {"lat": 39.030385833333334, "is_disabled": 0, "type": "electric_bike", "lon": -77.09476133333334, "bike_id": "e8e2c960c450ff98c845dc801e721009", "fusion_lat": 0.0, "name": "e8e2c960c450ff98c845dc801e721009", "is_reserved": 0, "rental_uris": {"android": "https://dc.lft.to/lastmile_qr_scan", "ios": "https://dc.lft.to/lastmile_qr_scan"}, "fusion_lon": 0.0}, {"lat": 38.8999025, "is_disabled": 0, "type": "electric_scooter", "lon": -77.02068133333333, "bike_id": "9c272ac71a7af529f535e0deb21439a6", "fusion_lat": 0.0, "name": "9c272ac71a7af529f535e0deb21439a6", "is_reserved": 0, "rental_uris": {"android": "https://dc.lft.to/lastmile_qr_scan", "ios": "https://dc.lft.to/lastmile_qr_scan"}, "fusion_lon": 0.0}, {"lat": 38.9386, "is_disabled": 0, "type": "electric_scooter", "lon": -77.03096016666667, "bike_id": "3a3d71c654c59b207b4ef6cc779ae4c1", "fusion_lat": 0.0, "name": "3a3d71c654c59b207b4ef6cc779ae4c1", "is_reserved": 0, "rental_uris": {"android": "https://dc.lft.to/lastmile_qr_scan", "ios": "https://dc.lft.to/lastmile_qr_scan"}, "fusion_lon": 0.0}, {"lat": 38.87667733333333, "is_disabled": 0, "type": "electric_scooter", "lon": -77.00410866666667, "bike_id": "ac75eb23e16e9e94b79ccb471faaf2cc", "fusion_lat": 0.0, "name": "ac75eb23e16e9e94b79ccb471faaf2cc", "is_reserved": 0, "rental_uris": {"android": "https://dc.lft.to/lastmile_qr_scan", "ios": "https://dc.lft.to/lastmile_qr_scan"}, "fusion_lon": 0.0}, {"lat": 38.917431, "is_disabled": 0, "type": "electric_scooter", "lon": -77.031838, "bike_id": "6020290bef5e13e8431d11806f100fe8", "fusion_lat": 0.0, "name": "6020290bef5e13e8431d11806f100fe8", "is_reserved": 0, "rental_uris": {"android": "https://dc.lft.to/lastmile_qr_scan", "ios": "https://dc.lft.to/lastmile_qr_scan"}, "fusion_lon": 0.0}, {"lat": 38.99819433333333, "is_disabled": 0, "type": "electric_bike", "lon": -76.88374083333333, "bike_id": "c8049c5af76686781b692cc6680e9d74", "fusion_lat": 0.0, "name": "c8049c5af76686781b692cc6680e9d74", "is_reserved": 0, "rental_uris": {"android": "https://dc.lft.to/lastmile_qr_scan", "ios": "https://dc.lft.to/lastmile_qr_scan"}, "fusion_lon": 0.0}, {"lat": 38.9103425, "is_disabled": 0, "type": "electric_scooter", "lon": -76.99343783333333, "bike_id": "dda55e9829a3b0577f64434d6dd14a44", "fusion_lat": 0.0, "name": "dda55e9829a3b0577f64434d6dd14a44", "is_reserved": 0, "rental_uris": {"android": "https://dc.lft.to/lastmile_qr_scan", "ios": "https://dc.lft.to/lastmile_qr_scan"}, "fusion_lon": 0.0}, {"lat": 38.895259, "is_disabled": 0, "type": "electric_scooter", "lon": -76.94886083333333, "bike_id": "0f1b8c7e84cec2f89b91f6c22d477b67", "fusion_lat": 0.0, "name": "0f1b8c7e84cec2f89b91f6c22d477b67", "is_reserved": 0, "rental_uris": {"android": "https://dc.lft.to/lastmile_qr_scan", "ios": "https://dc.lft.to/lastmile_qr_scan"}, "fusion_lon": 0.0}, {"lat": 39.02429683333333, "is_disabled": 0, "type": "electric_bike", "lon": -77.1309795, "bike_id": "f883d93ca1b21993f8c94e5cab8fafe5", "fusion_lat": 0.0, "name": "f883d93ca1b21993f8c94e5cab8fafe5", "is_reserved": 0, "rental_uris": {"android": "https://dc.lft.to/lastmile_qr_scan", "ios": "https://dc.lft.to/lastmile_qr_scan"}, "fusion_lon": 0.0}, {"lat": 38.8961595, "is_disabled": 0, "type": "electric_scooter", "lon": -77.031655, "bike_id": "da4291da85036b117e72e83c0f3e9e88", "fusion_lat": 0.0, "name": "da4291da85036b117e72e83c0f3e9e88", "is_reserved": 0, "rental_uris": {"android": "https://dc.lft.to/lastmile_qr_scan", "ios": "https://dc.lft.to/lastmile_qr_scan"}, "fusion_lon": 0.0}, {"lat": 38.90672933333333, "is_disabled": 0, "type": "electric_scooter", "lon": -77.0376305, "bike_id": "231f10c4f24350768747373b92d13384", "fusion_lat": 0.0, "name": "231f10c4f24350768747373b92d13384", "is_reserved": 0, "rental_uris": {"android": "https://dc.lft.to/lastmile_qr_scan", "ios": "https://dc.lft.to/lastmile_qr_scan"}, "fusion_lon": 0.0}, {"lat": 38.92106, "is_disabled": 0, "type": "electric_scooter", "lon": -77.0436275, "bike_id": "3dbfc3177822677049c9f03aa7d1d90e", "fusion_lat": 0.0, "name": "3dbfc3177822677049c9f03aa7d1d90e", "is_reserved": 0, "rental_uris": {"android": "https://dc.lft.to/lastmile_qr_scan", "ios": "https://dc.lft.to/lastmile_qr_scan"}, "fusion_lon": 0.0}, {"lat": 38.91595316666667, "is_disabled": 0, "type": "electric_scooter", "lon": -77.044719, "bike_id": "4c5cbd100378603c259625437458cf03", "fusion_lat": 0.0, "name": "4c5cbd100378603c259625437458cf03", "is_reserved": 0, "rental_uris": {"android": "https://dc.lft.to/lastmile_qr_scan", "ios": "https://dc.lft.to/lastmile_qr_scan"}, "fusion_lon": 0.0}, {"lat": 38.9003345, "is_disabled": 0, "type": "electric_scooter", "lon": -76.9982305, "bike_id": "fdd7f2479bedfd145ea5b68b908f1e2a", "fusion_lat": 0.0, "name": "fdd7f2479bedfd145ea5b68b908f1e2a", "is_reserved": 0, "rental_uris": {"android": "https://dc.lft.to/lastmile_qr_scan", "ios": "https://dc.lft.to/lastmile_qr_scan"}, "fusion_lon": 0.0}, {"lat": 38.949884, "is_disabled": 0, "type": "electric_bike", "lon": -77.029639, "bike_id": "90b380f4b60c1df8cb6a6abfb63ba484", "fusion_lat": 0.0, "name": "90b380f4b60c1df8cb6a6abfb63ba484", "is_reserved": 0, "rental_uris": {"android": "https://dc.lft.to/lastmile_qr_scan", "ios": "https://dc.lft.to/lastmile_qr_scan"}, "fusion_lon": 0.0}, {"lat": 38.91146416666667, "is_disabled": 0, "type": "electric_scooter", "lon": -77.01886666666667, "bike_id": "8a9bad7dc16dba4647af7d7693fab6de", "fusion_lat": 0.0, "name": "8a9bad7dc16dba4647af7d7693fab6de", "is_reserved": 0, "rental_uris": {"android": "https://dc.lft.to/lastmile_qr_scan", "ios": "https://dc.lft.to/lastmile_qr_scan"}, "fusion_lon": 0.0}, {"lat": 38.93076333333333, "is_disabled": 0, "type": "electric_scooter", "lon": -77.02566666666667, "bike_id": "22f3c24b5804c9c8c219a1df49175c1c", "fusion_lat": 0.0, "name": "22f3c24b5804c9c8c219a1df49175c1c", "is_reserved": 0, "rental_uris": {"android": "https://dc.lft.to/lastmile_qr_scan", "ios": "https://dc.lft.to/lastmile_qr_scan"}, "fusion_lon": 0.0}, {"lat": 38.969306, "is_disabled": 0, "type": "electric_bike", "lon": -77.02622116666667, "bike_id": "80ff8be036f74391aff316419059193a", "fusion_lat": 0.0, "name": "80ff8be036f74391aff316419059193a", "is_reserved": 0, "rental_uris": {"android": "https://dc.lft.to/lastmile_qr_scan", "ios": "https://dc.lft.to/lastmile_qr_scan"}, "fusion_lon": 0.0}, {"lat": 38.919251833333334, "is_disabled": 0, "type": "electric_scooter", "lon": -77.031838, "bike_id": "1b9fc9c0168af53af12c20876cf209b0", "fusion_lat": 0.0, "name": "1b9fc9c0168af53af12c20876cf209b0", "is_reserved": 0, "rental_uris": {"android": "https://dc.lft.to/lastmile_qr_scan", "ios": "https://dc.lft.to/lastmile_qr_scan"}, "fusion_lon": 0.0}, {"lat": 38.89835883333333, "is_disabled": 0, "type": "electric_scooter", "lon": -76.93101416666667, "bike_id": "ee2e4c2dd82b97995fea6cc0d90081cc", "fusion_lat": 0.0, "name": "ee2e4c2dd82b97995fea6cc0d90081cc", "is_reserved": 0, "rental_uris": {"android": "https://dc.lft.to/lastmile_qr_scan", "ios": "https://dc.lft.to/lastmile_qr_scan"}, "fusion_lon": 0.0}, {"lat": 38.90568666666667, "is_disabled": 0, "type": "electric_scooter", "lon": -77.02488966666667, "bike_id": "5d86cf00ed5d4f73315fb0653aad0bb7", "fusion_lat": 0.0, "name": "5d86cf00ed5d4f73315fb0653aad0bb7", "is_reserved": 0, "rental_uris": {"android": "https://dc.lft.to/lastmile_qr_scan", "ios": "https://dc.lft.to/lastmile_qr_scan"}, "fusion_lon": 0.0}, {"lat": 38.9168615, "is_disabled": 0, "type": "electric_bike", "lon": -77.03759966666667, "bike_id": "5ceab779c7960623d04d46515360a085", "fusion_lat": 0.0, "name": "5ceab779c7960623d04d46515360a085", "is_reserved": 0, "rental_uris": {"android": "https://dc.lft.to/lastmile_qr_scan", "ios": "https://dc.lft.to/lastmile_qr_scan"}, "fusion_lon": 0.0}, {"lat": 38.90943216666667, "is_disabled": 0, "type": "electric_scooter", "lon": -76.98963633333334, "bike_id": "fd746912284fc4ece50aaf63124b36a2", "fusion_lat": 0.0, "name": "fd746912284fc4ece50aaf63124b36a2", "is_reserved": 0, "rental_uris": {"android": "https://dc.lft.to/lastmile_qr_scan", "ios": "https://dc.lft.to/lastmile_qr_scan"}, "fusion_lon": 0.0}, {"lat": 38.90354116666666, "is_disabled": 0, "type": "electric_scooter", "lon": -77.01109283333334, "bike_id": "97d467e1eac2d819f4f9c24806b6eff1", "fusion_lat": 0.0, "name": "97d467e1eac2d819f4f9c24806b6eff1", "is_reserved": 0, "rental_uris": {"android": "https://dc.lft.to/lastmile_qr_scan", "ios": "https://dc.lft.to/lastmile_qr_scan"}, "fusion_lon": 0.0}, {"lat": 38.87410083333333, "is_disabled": 0, "type": "electric_bike", "lon": -76.965736, "bike_id": "72005c052baafcb75920e5ad081c8734", "fusion_lat": 0.0, "name": "72005c052baafcb75920e5ad081c8734", "is_reserved": 0, "rental_uris": {"android": "https://dc.lft.to/lastmile_qr_scan", "ios": "https://dc.lft.to/lastmile_qr_scan"}, "fusion_lon": 0.0}, {"lat": 38.9007585, "is_disabled": 0, "type": "electric_scooter", "lon": -77.0270285, "bike_id": "588a994f4c04ba366cf74ff4821c1545", "fusion_lat": 0.0, "name": "588a994f4c04ba366cf74ff4821c1545", "is_reserved": 0, "rental_uris": {"android": "https://dc.lft.to/lastmile_qr_scan", "ios": "https://dc.lft.to/lastmile_qr_scan"}, "fusion_lon": 0.0}, {"lat": 38.8402825, "is_disabled": 0, "type": "electric_bike", "lon": -76.97586133333333, "bike_id": "20b5f448f8dca24940c0bee00fad8338", "fusion_lat": 0.0, "name": "20b5f448f8dca24940c0bee00fad8338", "is_reserved": 0, "rental_uris": {"android": "https://dc.lft.to/lastmile_qr_scan", "ios": "https://dc.lft.to/lastmile_qr_scan"}, "fusion_lon": 0.0}, {"lat": 38.887426833333336, "is_disabled": 0, "type": "electric_scooter", "lon": -76.98361916666667, "bike_id": "6e3e5f197dd940f9b33b6f0bc4549084", "fusion_lat": 0.0, "name": "6e3e5f197dd940f9b33b6f0bc4549084", "is_reserved": 0, "rental_uris": {"android": "https://dc.lft.to/lastmile_qr_scan", "ios": "https://dc.lft.to/lastmile_qr_scan"}, "fusion_lon": 0.0}, {"lat": 38.86699266666667, "is_disabled": 0, "type": "electric_scooter", "lon": -76.98715066666666, "bike_id": "c8ddc5fecd52c249c4a7b75d976ea753", "fusion_lat": 0.0, "name": "c8ddc5fecd52c249c4a7b75d976ea753", "is_reserved": 0, "rental_uris": {"android": "https://dc.lft.to/lastmile_qr_scan", "ios": "https://dc.lft.to/lastmile_qr_scan"}, "fusion_lon": 0.0}, {"lat": 38.93527916666667, "is_disabled": 0, "type": "electric_scooter", "lon": -77.07292816666667, "bike_id": "f7d0b1de1a2d44f7f6941a0453fb49d6", "fusion_lat": 0.0, "name": "f7d0b1de1a2d44f7f6941a0453fb49d6", "is_reserved": 0, "rental_uris": {"android": "https://dc.lft.to/lastmile_qr_scan", "ios": "https://dc.lft.to/lastmile_qr_scan"}, "fusion_lon": 0.0}, {"lat": 38.895285666666666, "is_disabled": 0, "type": "electric_scooter", "lon": -76.94889166666667, "bike_id": "69de04c0fff3eb0fda75eb542944336d", "fusion_lat": 0.0, "name": "69de04c0fff3eb0fda75eb542944336d", "is_reserved": 0, "rental_uris": {"android": "https://dc.lft.to/lastmile_qr_scan", "ios": "https://dc.lft.to/lastmile_qr_scan"}, "fusion_lon": 0.0}, {"lat": 38.90557783333333, "is_disabled": 0, "type": "electric_scooter", "lon": -77.016809, "bike_id": "b5ed9748a4db9a10683a15ea3a66111b", "fusion_lat": 0.0, "name": "b5ed9748a4db9a10683a15ea3a66111b", "is_reserved": 0, "rental_uris": {"android": "https://dc.lft.to/lastmile_qr_scan", "ios": "https://dc.lft.to/lastmile_qr_scan"}, "fusion_lon": 0.0}, {"lat": 38.89051116666667, "is_disabled": 0, "type": "electric_scooter", "lon": -76.9374415, "bike_id": "be2d8a92aef334d051286ef9b49bf99b", "fusion_lat": 0.0, "name": "be2d8a92aef334d051286ef9b49bf99b", "is_reserved": 0, "rental_uris": {"android": "https://dc.lft.to/lastmile_qr_scan", "ios": "https://dc.lft.to/lastmile_qr_scan"}, "fusion_lon": 0.0}, {"lat": 38.902707, "is_disabled": 0, "type": "electric_scooter", "lon": -77.05811683333333, "bike_id": "4bd8edfc4f62c4b0355f89184260b026", "fusion_lat": 0.0, "name": "4bd8edfc4f62c4b0355f89184260b026", "is_reserved": 0, "rental_uris": {"android": "https://dc.lft.to/lastmile_qr_scan", "ios": "https://dc.lft.to/lastmile_qr_scan"}, "fusion_lon": 0.0}, {"lat": 38.956316666666666, "is_disabled": 0, "type": "electric_bike", "lon": -77.01958866666666, "bike_id": "eaa9b483595553200cb17d82ab7ea3d4", "fusion_lat": 0.0, "name": "eaa9b483595553200cb17d82ab7ea3d4", "is_reserved": 0, "rental_uris": {"android": "https://dc.lft.to/lastmile_qr_scan", "ios": "https://dc.lft.to/lastmile_qr_scan"}, "fusion_lon": 0.0}, {"lat": 38.907362166666665, "is_disabled": 0, "type": "electric_scooter", "lon": -76.93550766666667, "bike_id": "81caba269c3b8b50933fda1cb8191683", "fusion_lat": 0.0, "name": "81caba269c3b8b50933fda1cb8191683", "is_reserved": 0, "rental_uris": {"android": "https://dc.lft.to/lastmile_qr_scan", "ios": "https://dc.lft.to/lastmile_qr_scan"}, "fusion_lon": 0.0}, {"lat": 38.866594166666665, "is_disabled": 0, "type": "electric_scooter", "lon": -76.988828, "bike_id": "e9e49519477c40e390819d0e8772275e", "fusion_lat": 0.0, "name": "e9e49519477c40e390819d0e8772275e", "is_reserved": 0, "rental_uris": {"android": "https://dc.lft.to/lastmile_qr_scan", "ios": "https://dc.lft.to/lastmile_qr_scan"}, "fusion_lon": 0.0}, {"lat": 38.923405, "is_disabled": 0, "type": "electric_scooter", "lon": -77.035295, "bike_id": "5d215357ccdc488cc4960a931e1ff544", "fusion_lat": 0.0, "name": "5d215357ccdc488cc4960a931e1ff544", "is_reserved": 0, "rental_uris": {"android": "https://dc.lft.to/lastmile_qr_scan", "ios": "https://dc.lft.to/lastmile_qr_scan"}, "fusion_lon": 0.0}, {"lat": 38.91778766666667, "is_disabled": 0, "type": "electric_scooter", "lon": -77.04338366666667, "bike_id": "aebc8e4c0420d938690c8682d1337ef3", "fusion_lat": 0.0, "name": "aebc8e4c0420d938690c8682d1337ef3", "is_reserved": 0, "rental_uris": {"android": "https://dc.lft.to/lastmile_qr_scan", "ios": "https://dc.lft.to/lastmile_qr_scan"}, "fusion_lon": 0.0}, {"lat": 38.9095995, "is_disabled": 0, "type": "electric_scooter", "lon": -77.023806, "bike_id": "650e7dad60c1dd1afb65e89417f363de", "fusion_lat": 0.0, "name": "650e7dad60c1dd1afb65e89417f363de", "is_reserved": 0, "rental_uris": {"android": "https://dc.lft.to/lastmile_qr_scan", "ios": "https://dc.lft.to/lastmile_qr_scan"}, "fusion_lon": 0.0}, {"lat": 38.925681166666664, "is_disabled": 0, "type": "electric_scooter", "lon": -77.057557, "bike_id": "4f11caea50ccd228f4c9707f5bc74130", "fusion_lat": 0.0, "name": "4f11caea50ccd228f4c9707f5bc74130", "is_reserved": 0, "rental_uris": {"android": "https://dc.lft.to/lastmile_qr_scan", "ios": "https://dc.lft.to/lastmile_qr_scan"}, "fusion_lon": 0.0}, {"lat": 38.909471333333336, "is_disabled": 0, "type": "electric_scooter", "lon": -77.0344165, "bike_id": "0dc458e3f6e1dcae20763b5d9f2b5833", "fusion_lat": 0.0, "name": "0dc458e3f6e1dcae20763b5d9f2b5833", "is_reserved": 0, "rental_uris": {"android": "https://dc.lft.to/lastmile_qr_scan", "ios": "https://dc.lft.to/lastmile_qr_scan"}, "fusion_lon": 0.0}, {"lat": 38.90989066666667, "is_disabled": 0, "type": "electric_scooter", "lon": -77.0319525, "bike_id": "29cfa2d5296f748293f349399a13e9a0", "fusion_lat": 0.0, "name": "29cfa2d5296f748293f349399a13e9a0", "is_reserved": 0, "rental_uris": {"android": "https://dc.lft.to/lastmile_qr_scan", "ios": "https://dc.lft.to/lastmile_qr_scan"}, "fusion_lon": 0.0}, {"lat": 38.806807666666664, "is_disabled": 0, "type": "electric_bike", "lon": -77.081227, "bike_id": "6f95e92755722f6640a80433b13d4c5b", "fusion_lat": 0.0, "name": "6f95e92755722f6640a80433b13d4c5b", "is_reserved": 0, "rental_uris": {"android": "https://dc.lft.to/lastmile_qr_scan", "ios": "https://dc.lft.to/lastmile_qr_scan"}, "fusion_lon": 0.0}, {"lat": 38.90756716666667, "is_disabled": 0, "type": "electric_scooter", "lon": -77.070268, "bike_id": "63df46c2a0f7f1e49c9b90eabd50d493", "fusion_lat": 0.0, "name": "63df46c2a0f7f1e49c9b90eabd50d493", "is_reserved": 0, "rental_uris": {"android": "https://dc.lft.to/lastmile_qr_scan", "ios": "https://dc.lft.to/lastmile_qr_scan"}, "fusion_lon": 0.0}, {"lat": 38.903298666666664, "is_disabled": 0, "type": "electric_scooter", "lon": -76.97596, "bike_id": "f6d2b6bb82f2d39bf385a3079258a8f5", "fusion_lat": 0.0, "name": "f6d2b6bb82f2d39bf385a3079258a8f5", "is_reserved": 0, "rental_uris": {"android": "https://dc.lft.to/lastmile_qr_scan", "ios": "https://dc.lft.to/lastmile_qr_scan"}, "fusion_lon": 0.0}, {"lat": 38.8665965, "is_disabled": 0, "type": "electric_scooter", "lon": -76.98888116666667, "bike_id": "cc6f35066cd1c9e72ae108a70a872274", "fusion_lat": 0.0, "name": "cc6f35066cd1c9e72ae108a70a872274", "is_reserved": 0, "rental_uris": {"android": "https://dc.lft.to/lastmile_qr_scan", "ios": "https://dc.lft.to/lastmile_qr_scan"}, "fusion_lon": 0.0}, {"lat": 38.91749083333333, "is_disabled": 0, "type": "electric_scooter", "lon": -77.04158833333334, "bike_id": "583692ccc254159bac14ab98c2acbfdf", "fusion_lat": 0.0, "name": "583692ccc254159bac14ab98c2acbfdf", "is_reserved": 0, "rental_uris": {"android": "https://dc.lft.to/lastmile_qr_scan", "ios": "https://dc.lft.to/lastmile_qr_scan"}, "fusion_lon": 0.0}, {"lat": 38.9219695, "is_disabled": 0, "type": "electric_scooter", "lon": -77.04238066666667, "bike_id": "0a96d563ad6aec0efc6065a6ba7b3d1d", "fusion_lat": 0.0, "name": "0a96d563ad6aec0efc6065a6ba7b3d1d", "is_reserved": 0, "rental_uris": {"android": "https://dc.lft.to/lastmile_qr_scan", "ios": "https://dc.lft.to/lastmile_qr_scan"}, "fusion_lon": 0.0}, {"lat": 38.900294333333335, "is_disabled": 0, "type": "electric_scooter", "lon": -76.9897965, "bike_id": "ec0a592abd0505e4a8c1597c459cbcb1", "fusion_lat": 0.0, "name": "ec0a592abd0505e4a8c1597c459cbcb1", "is_reserved": 0, "rental_uris": {"android": "https://dc.lft.to/lastmile_qr_scan", "ios": "https://dc.lft.to/lastmile_qr_scan"}, "fusion_lon": 0.0}, {"lat": 38.93871933333333, "is_disabled": 0, "type": "electric_scooter", "lon": -77.03123616666667, "bike_id": "6fe3e57edeb4b56ffb8270fe3e63c4ba", "fusion_lat": 0.0, "name": "6fe3e57edeb4b56ffb8270fe3e63c4ba", "is_reserved": 0, "rental_uris": {"android": "https://dc.lft.to/lastmile_qr_scan", "ios": "https://dc.lft.to/lastmile_qr_scan"}, "fusion_lon": 0.0}, {"lat": 38.92362116666666, "is_disabled": 0, "type": "electric_scooter", "lon": -77.05135816666666, "bike_id": "7746370b73703cb971f46193f2b65961", "fusion_lat": 0.0, "name": "7746370b73703cb971f46193f2b65961", "is_reserved": 0, "rental_uris": {"android": "https://dc.lft.to/lastmile_qr_scan", "ios": "https://dc.lft.to/lastmile_qr_scan"}, "fusion_lon": 0.0}, {"lat": 38.938633833333334, "is_disabled": 0, "type": "electric_scooter", "lon": -77.03090683333333, "bike_id": "d8460d0860a52aab4212795c03d414df", "fusion_lat": 0.0, "name": "d8460d0860a52aab4212795c03d414df", "is_reserved": 0, "rental_uris": {"android": "https://dc.lft.to/lastmile_qr_scan", "ios": "https://dc.lft.to/lastmile_qr_scan"}, "fusion_lon": 0.0}, {"lat": 38.88022383333333, "is_disabled": 0, "type": "electric_scooter", "lon": -76.96016333333333, "bike_id": "42161d6f72efb5550e0717e576735450", "fusion_lat": 0.0, "name": "42161d6f72efb5550e0717e576735450", "is_reserved": 0, "rental_uris": {"android": "https://dc.lft.to/lastmile_qr_scan", "ios": "https://dc.lft.to/lastmile_qr_scan"}, "fusion_lon": 0.0}, {"lat": 38.928306666666664, "is_disabled": 0, "type": "electric_scooter", "lon": -77.05444283333334, "bike_id": "94f69f8b861596e44a7f32588d57bb52", "fusion_lat": 0.0, "name": "94f69f8b861596e44a7f32588d57bb52", "is_reserved": 0, "rental_uris": {"android": "https://dc.lft.to/lastmile_qr_scan", "ios": "https://dc.lft.to/lastmile_qr_scan"}, "fusion_lon": 0.0}, {"lat": 38.91793366666667, "is_disabled": 0, "type": "electric_scooter", "lon": -77.02296533333333, "bike_id": "5cce7fdea8378126b83df5e0ac35d2f7", "fusion_lat": 0.0, "name": "5cce7fdea8378126b83df5e0ac35d2f7", "is_reserved": 0, "rental_uris": {"android": "https://dc.lft.to/lastmile_qr_scan", "ios": "https://dc.lft.to/lastmile_qr_scan"}, "fusion_lon": 0.0}, {"lat": 38.8922535, "is_disabled": 0, "type": "electric_scooter", "lon": -77.0278175, "bike_id": "4b1bd09d384c2fcdb240009f3703b271", "fusion_lat": 0.0, "name": "4b1bd09d384c2fcdb240009f3703b271", "is_reserved": 0, "rental_uris": {"android": "https://dc.lft.to/lastmile_qr_scan", "ios": "https://dc.lft.to/lastmile_qr_scan"}, "fusion_lon": 0.0}, {"lat": 38.93463666666667, "is_disabled": 0, "type": "electric_scooter", "lon": -77.06194783333333, "bike_id": "9ad3814912e9c8e1d3516e912f24e88f", "fusion_lat": 0.0, "name": "9ad3814912e9c8e1d3516e912f24e88f", "is_reserved": 0, "rental_uris": {"android": "https://dc.lft.to/lastmile_qr_scan", "ios": "https://dc.lft.to/lastmile_qr_scan"}, "fusion_lon": 0.0}, {"lat": 39.000087, "is_disabled": 0, "type": "electric_bike", "lon": -76.91084183333334, "bike_id": "209203198e54aeec1ed36fb46cba765b", "fusion_lat": 0.0, "name": "209203198e54aeec1ed36fb46cba765b", "is_reserved": 0, "rental_uris": {"android": "https://dc.lft.to/lastmile_qr_scan", "ios": "https://dc.lft.to/lastmile_qr_scan"}, "fusion_lon": 0.0}, {"lat": 38.911184166666665, "is_disabled": 0, "type": "electric_scooter", "lon": -77.0329905, "bike_id": "b3312dbeff8703c77e41c691980f6397", "fusion_lat": 0.0, "name": "b3312dbeff8703c77e41c691980f6397", "is_reserved": 0, "rental_uris": {"android": "https://dc.lft.to/lastmile_qr_scan", "ios": "https://dc.lft.to/lastmile_qr_scan"}, "fusion_lon": 0.0}, {"lat": 38.9417335, "is_disabled": 0, "type": "electric_scooter", "lon": -77.04132983333334, "bike_id": "1190189da19c479a0eab80d41b40f3f6", "fusion_lat": 0.0, "name": "1190189da19c479a0eab80d41b40f3f6", "is_reserved": 0, "rental_uris": {"android": "https://dc.lft.to/lastmile_qr_scan", "ios": "https://dc.lft.to/lastmile_qr_scan"}, "fusion_lon": 0.0}, {"lat": 38.88749583333333, "is_disabled": 0, "type": "electric_scooter", "lon": -77.03226033333333, "bike_id": "eaf319da78c092f896dcf6634b590302", "fusion_lat": 0.0, "name": "eaf319da78c092f896dcf6634b590302", "is_reserved": 0, "rental_uris": {"android": "https://dc.lft.to/lastmile_qr_scan", "ios": "https://dc.lft.to/lastmile_qr_scan"}, "fusion_lon": 0.0}, {"lat": 38.86563916666667, "is_disabled": 0, "type": "electric_scooter", "lon": -76.9740395, "bike_id": "7dc420d31f2e41c3116e0bfd4cac315d", "fusion_lat": 0.0, "name": "7dc420d31f2e41c3116e0bfd4cac315d", "is_reserved": 0, "rental_uris": {"android": "https://dc.lft.to/lastmile_qr_scan", "ios": "https://dc.lft.to/lastmile_qr_scan"}, "fusion_lon": 0.0}, {"lat": 38.953518833333334, "is_disabled": 0, "type": "electric_bike", "lon": -76.98090416666666, "bike_id": "d3367a4c4ce5fb8978d8a6d954689314", "fusion_lat": 0.0, "name": "d3367a4c4ce5fb8978d8a6d954689314", "is_reserved": 0, "rental_uris": {"android": "https://dc.lft.to/lastmile_qr_scan", "ios": "https://dc.lft.to/lastmile_qr_scan"}, "fusion_lon": 0.0}, {"lat": 38.897637333333336, "is_disabled": 0, "type": "electric_scooter", "lon": -77.02698083333334, "bike_id": "db116a8ebd241409d3139ff4771f7c9b", "fusion_lat": 0.0, "name": "db116a8ebd241409d3139ff4771f7c9b", "is_reserved": 0, "rental_uris": {"android": "https://dc.lft.to/lastmile_qr_scan", "ios": "https://dc.lft.to/lastmile_qr_scan"}, "fusion_lon": 0.0}, {"lat": 38.910944666666666, "is_disabled": 0, "type": "electric_scooter", "lon": -77.03190066666667, "bike_id": "e5f4b3aa3791a1603a68a0882fb4b894", "fusion_lat": 0.0, "name": "e5f4b3aa3791a1603a68a0882fb4b894", "is_reserved": 0, "rental_uris": {"android": "https://dc.lft.to/lastmile_qr_scan", "ios": "https://dc.lft.to/lastmile_qr_scan"}, "fusion_lon": 0.0}, {"lat": 38.90807933333333, "is_disabled": 0, "type": "electric_scooter", "lon": -77.04317583333334, "bike_id": "5265fd1d947f217f50dcd5506dd1ed6a", "fusion_lat": 0.0, "name": "5265fd1d947f217f50dcd5506dd1ed6a", "is_reserved": 0, "rental_uris": {"android": "https://dc.lft.to/lastmile_qr_scan", "ios": "https://dc.lft.to/lastmile_qr_scan"}, "fusion_lon": 0.0}, {"lat": 38.863844, "is_disabled": 0, "type": "electric_bike", "lon": -76.989911, "bike_id": "17b922f360cd1e86decd5e2423d82fd6", "fusion_lat": 0.0, "name": "17b922f360cd1e86decd5e2423d82fd6", "is_reserved": 0, "rental_uris": {"android": "https://dc.lft.to/lastmile_qr_scan", "ios": "https://dc.lft.to/lastmile_qr_scan"}, "fusion_lon": 0.0}, {"lat": 38.802267, "is_disabled": 0, "type": "electric_bike", "lon": -77.07917633333334, "bike_id": "6d2b224580851ff0183a107795330c0e", "fusion_lat": 0.0, "name": "6d2b224580851ff0183a107795330c0e", "is_reserved": 0, "rental_uris": {"android": "https://dc.lft.to/lastmile_qr_scan", "ios": "https://dc.lft.to/lastmile_qr_scan"}, "fusion_lon": 0.0}, {"lat": 38.92714316666667, "is_disabled": 0, "type": "electric_scooter", "lon": -77.02290116666667, "bike_id": "3cc81a8a2c410cf172fb5d3e829c71b2", "fusion_lat": 0.0, "name": "3cc81a8a2c410cf172fb5d3e829c71b2", "is_reserved": 0, "rental_uris": {"android": "https://dc.lft.to/lastmile_qr_scan", "ios": "https://dc.lft.to/lastmile_qr_scan"}, "fusion_lon": 0.0}, {"lat": 38.919303, "is_disabled": 0, "type": "electric_scooter", "lon": -76.97016883333333, "bike_id": "e9b1bf9b81a0dc331f383cdca62ab521", "fusion_lat": 0.0, "name": "e9b1bf9b81a0dc331f383cdca62ab521", "is_reserved": 0, "rental_uris": {"android": "https://dc.lft.to/lastmile_qr_scan", "ios": "https://dc.lft.to/lastmile_qr_scan"}, "fusion_lon": 0.0}, {"lat": 38.87152733333333, "is_disabled": 0, "type": "electric_scooter", "lon": -77.0119175, "bike_id": "ac742a74074e1653d4f6de171799513a", "fusion_lat": 0.0, "name": "ac742a74074e1653d4f6de171799513a", "is_reserved": 0, "rental_uris": {"android": "https://dc.lft.to/lastmile_qr_scan", "ios": "https://dc.lft.to/lastmile_qr_scan"}, "fusion_lon": 0.0}, {"lat": 38.953992166666666, "is_disabled": 0, "type": "electric_bike", "lon": -76.97868833333334, "bike_id": "70678d727ca8ff87b3beb88ffd98aed7", "fusion_lat": 0.0, "name": "70678d727ca8ff87b3beb88ffd98aed7", "is_reserved": 0, "rental_uris": {"android": "https://dc.lft.to/lastmile_qr_scan", "ios": "https://dc.lft.to/lastmile_qr_scan"}, "fusion_lon": 0.0}, {"lat": 38.92843383333334, "is_disabled": 0, "type": "electric_scooter", "lon": -77.01428933333334, "bike_id": "128df300151f8a235c7134cdc31acde1", "fusion_lat": 0.0, "name": "128df300151f8a235c7134cdc31acde1", "is_reserved": 0, "rental_uris": {"android": "https://dc.lft.to/lastmile_qr_scan", "ios": "https://dc.lft.to/lastmile_qr_scan"}, "fusion_lon": 0.0}, {"lat": 38.903008, "is_disabled": 0, "type": "electric_scooter", "lon": -77.0089245, "bike_id": "ca7fc251dad1b8adb59577499db61b69", "fusion_lat": 0.0, "name": "ca7fc251dad1b8adb59577499db61b69", "is_reserved": 0, "rental_uris": {"android": "https://dc.lft.to/lastmile_qr_scan", "ios": "https://dc.lft.to/lastmile_qr_scan"}, "fusion_lon": 0.0}, {"lat": 38.904664, "is_disabled": 0, "type": "electric_scooter", "lon": -77.0390975, "bike_id": "eb27336f172ab12b0ea22ffab79214f7", "fusion_lat": 0.0, "name": "eb27336f172ab12b0ea22ffab79214f7", "is_reserved": 0, "rental_uris": {"android": "https://dc.lft.to/lastmile_qr_scan", "ios": "https://dc.lft.to/lastmile_qr_scan"}, "fusion_lon": 0.0}, {"lat": 38.92760033333333, "is_disabled": 0, "type": "electric_bike", "lon": -77.03267916666667, "bike_id": "fe6508aab26e4f9d448c29046a655a15", "fusion_lat": 0.0, "name": "fe6508aab26e4f9d448c29046a655a15", "is_reserved": 0, "rental_uris": {"android": "https://dc.lft.to/lastmile_qr_scan", "ios": "https://dc.lft.to/lastmile_qr_scan"}, "fusion_lon": 0.0}, {"lat": 38.91935616666667, "is_disabled": 0, "type": "electric_scooter", "lon": -77.02605516666667, "bike_id": "58bd4485242df56625bb3b14b92d6fd1", "fusion_lat": 0.0, "name": "58bd4485242df56625bb3b14b92d6fd1", "is_reserved": 0, "rental_uris": {"android": "https://dc.lft.to/lastmile_qr_scan", "ios": "https://dc.lft.to/lastmile_qr_scan"}, "fusion_lon": 0.0}, {"lat": 38.8636845, "is_disabled": 0, "type": "electric_scooter", "lon": -76.9903085, "bike_id": "6c40ac07cd7a1670a27d3adc8c5f6ad4", "fusion_lat": 0.0, "name": "6c40ac07cd7a1670a27d3adc8c5f6ad4", "is_reserved": 0, "rental_uris": {"android": "https://dc.lft.to/lastmile_qr_scan", "ios": "https://dc.lft.to/lastmile_qr_scan"}, "fusion_lon": 0.0}, {"lat": 38.884882166666664, "is_disabled": 0, "type": "electric_scooter", "lon": -77.03477333333333, "bike_id": "0243b82308f448a7dc9fa69c5d5899ad", "fusion_lat": 0.0, "name": "0243b82308f448a7dc9fa69c5d5899ad", "is_reserved": 0, "rental_uris": {"android": "https://dc.lft.to/lastmile_qr_scan", "ios": "https://dc.lft.to/lastmile_qr_scan"}, "fusion_lon": 0.0}, {"lat": 38.922358333333335, "is_disabled": 0, "type": "electric_scooter", "lon": -77.04351916666667, "bike_id": "30c0fb48d5c3e25658574af48ea764d8", "fusion_lat": 0.0, "name": "30c0fb48d5c3e25658574af48ea764d8", "is_reserved": 0, "rental_uris": {"android": "https://dc.lft.to/lastmile_qr_scan", "ios": "https://dc.lft.to/lastmile_qr_scan"}, "fusion_lon": 0.0}, {"lat": 38.9023705, "is_disabled": 0, "type": "electric_scooter", "lon": -77.043446, "bike_id": "74609211a88148acc7d56cb2d4a78119", "fusion_lat": 0.0, "name": "74609211a88148acc7d56cb2d4a78119", "is_reserved": 0, "rental_uris": {"android": "https://dc.lft.to/lastmile_qr_scan", "ios": "https://dc.lft.to/lastmile_qr_scan"}, "fusion_lon": 0.0}, {"lat": 38.902441, "is_disabled": 0, "type": "electric_scooter", "lon": -77.04359516666666, "bike_id": "bfd147010cf84967487e869da2acdbbd", "fusion_lat": 0.0, "name": "bfd147010cf84967487e869da2acdbbd", "is_reserved": 0, "rental_uris": {"android": "https://dc.lft.to/lastmile_qr_scan", "ios": "https://dc.lft.to/lastmile_qr_scan"}, "fusion_lon": 0.0}, {"lat": 38.9211005, "is_disabled": 0, "type": "electric_scooter", "lon": -77.031506, "bike_id": "1819c568f9063199bf9dad67c9f278eb", "fusion_lat": 0.0, "name": "1819c568f9063199bf9dad67c9f278eb", "is_reserved": 0, "rental_uris": {"android": "https://dc.lft.to/lastmile_qr_scan", "ios": "https://dc.lft.to/lastmile_qr_scan"}, "fusion_lon": 0.0}, {"lat": 38.949851333333335, "is_disabled": 0, "type": "electric_scooter", "lon": -77.06687566666666, "bike_id": "bf68ba9f914718b23b2cba570615b2ee", "fusion_lat": 0.0, "name": "bf68ba9f914718b23b2cba570615b2ee", "is_reserved": 0, "rental_uris": {"android": "https://dc.lft.to/lastmile_qr_scan", "ios": "https://dc.lft.to/lastmile_qr_scan"}, "fusion_lon": 0.0}, {"lat": 38.931975, "is_disabled": 0, "type": "electric_scooter", "lon": -77.02358033333333, "bike_id": "ba25a4896e4a65c25baae7ece1cf086f", "fusion_lat": 0.0, "name": "ba25a4896e4a65c25baae7ece1cf086f", "is_reserved": 0, "rental_uris": {"android": "https://dc.lft.to/lastmile_qr_scan", "ios": "https://dc.lft.to/lastmile_qr_scan"}, "fusion_lon": 0.0}, {"lat": 38.93533433333333, "is_disabled": 0, "type": "electric_scooter", "lon": -77.034071, "bike_id": "d88d626e4d3f2706eeceaa4966a0388e", "fusion_lat": 0.0, "name": "d88d626e4d3f2706eeceaa4966a0388e", "is_reserved": 0, "rental_uris": {"android": "https://dc.lft.to/lastmile_qr_scan", "ios": "https://dc.lft.to/lastmile_qr_scan"}, "fusion_lon": 0.0}, {"lat": 38.91345916666667, "is_disabled": 0, "type": "electric_scooter", "lon": -77.03189166666667, "bike_id": "de46db912fc5ea6e64cbdb0a146c5ffc", "fusion_lat": 0.0, "name": "de46db912fc5ea6e64cbdb0a146c5ffc", "is_reserved": 0, "rental_uris": {"android": "https://dc.lft.to/lastmile_qr_scan", "ios": "https://dc.lft.to/lastmile_qr_scan"}, "fusion_lon": 0.0}, {"lat": 38.9181055, "is_disabled": 0, "type": "electric_scooter", "lon": -77.0417675, "bike_id": "2abdd83d675ce281d5849a57341690ad", "fusion_lat": 0.0, "name": "2abdd83d675ce281d5849a57341690ad", "is_reserved": 0, "rental_uris": {"android": "https://dc.lft.to/lastmile_qr_scan", "ios": "https://dc.lft.to/lastmile_qr_scan"}, "fusion_lon": 0.0}, {"lat": 38.91467866666667, "is_disabled": 0, "type": "electric_scooter", "lon": -77.03211566666667, "bike_id": "59487f161aaaba4e0b32f155ec15d4f3", "fusion_lat": 0.0, "name": "59487f161aaaba4e0b32f155ec15d4f3", "is_reserved": 0, "rental_uris": {"android": "https://dc.lft.to/lastmile_qr_scan", "ios": "https://dc.lft.to/lastmile_qr_scan"}, "fusion_lon": 0.0}, {"lat": 38.91696983333333, "is_disabled": 0, "type": "electric_scooter", "lon": -77.03986533333334, "bike_id": "07b39c3ce49b28671a333422a3e11c2c", "fusion_lat": 0.0, "name": "07b39c3ce49b28671a333422a3e11c2c", "is_reserved": 0, "rental_uris": {"android": "https://dc.lft.to/lastmile_qr_scan", "ios": "https://dc.lft.to/lastmile_qr_scan"}, "fusion_lon": 0.0}, {"lat": 38.895528, "is_disabled": 0, "type": "electric_scooter", "lon": -76.93376066666667, "bike_id": "384dea5966f819425992c590f662c781", "fusion_lat": 0.0, "name": "384dea5966f819425992c590f662c781", "is_reserved": 0, "rental_uris": {"android": "https://dc.lft.to/lastmile_qr_scan", "ios": "https://dc.lft.to/lastmile_qr_scan"}, "fusion_lon": 0.0}, {"lat": 38.92323916666667, "is_disabled": 0, "type": "electric_scooter", "lon": -77.02973816666666, "bike_id": "361031135502eedfb7cbb5299a5e4d8c", "fusion_lat": 0.0, "name": "361031135502eedfb7cbb5299a5e4d8c", "is_reserved": 0, "rental_uris": {"android": "https://dc.lft.to/lastmile_qr_scan", "ios": "https://dc.lft.to/lastmile_qr_scan"}, "fusion_lon": 0.0}, {"lat": 38.9387755, "is_disabled": 0, "type": "electric_scooter", "lon": -77.032624, "bike_id": "99dd9558618a4fe362a4586e8c95ffc9", "fusion_lat": 0.0, "name": "99dd9558618a4fe362a4586e8c95ffc9", "is_reserved": 0, "rental_uris": {"android": "https://dc.lft.to/lastmile_qr_scan", "ios": "https://dc.lft.to/lastmile_qr_scan"}, "fusion_lon": 0.0}, {"lat": 38.915508, "is_disabled": 0, "type": "electric_scooter", "lon": -77.0349365, "bike_id": "517725030529553b131d246b1a4adc93", "fusion_lat": 0.0, "name": "517725030529553b131d246b1a4adc93", "is_reserved": 0, "rental_uris": {"android": "https://dc.lft.to/lastmile_qr_scan", "ios": "https://dc.lft.to/lastmile_qr_scan"}, "fusion_lon": 0.0}, {"lat": 38.917085666666665, "is_disabled": 0, "type": "electric_scooter", "lon": -77.04679566666667, "bike_id": "839d7d096a53a8c48378a8d1227d2d09", "fusion_lat": 0.0, "name": "839d7d096a53a8c48378a8d1227d2d09", "is_reserved": 0, "rental_uris": {"android": "https://dc.lft.to/lastmile_qr_scan", "ios": "https://dc.lft.to/lastmile_qr_scan"}, "fusion_lon": 0.0}, {"lat": 38.926611666666666, "is_disabled": 0, "type": "electric_scooter", "lon": -77.0559895, "bike_id": "a806a679dfa54b7774228f87b3903b34", "fusion_lat": 0.0, "name": "a806a679dfa54b7774228f87b3903b34", "is_reserved": 0, "rental_uris": {"android": "https://dc.lft.to/lastmile_qr_scan", "ios": "https://dc.lft.to/lastmile_qr_scan"}, "fusion_lon": 0.0}, {"lat": 38.901000833333335, "is_disabled": 0, "type": "electric_scooter", "lon": -76.98483066666667, "bike_id": "03252d1205705cc58ee1c7a596887614", "fusion_lat": 0.0, "name": "03252d1205705cc58ee1c7a596887614", "is_reserved": 0, "rental_uris": {"android": "https://dc.lft.to/lastmile_qr_scan", "ios": "https://dc.lft.to/lastmile_qr_scan"}, "fusion_lon": 0.0}, {"lat": 38.91254216666667, "is_disabled": 0, "type": "electric_scooter", "lon": -77.02211216666667, "bike_id": "f8b4bcc630928c26ffb1cf978c0b80eb", "fusion_lat": 0.0, "name": "f8b4bcc630928c26ffb1cf978c0b80eb", "is_reserved": 0, "rental_uris": {"android": "https://dc.lft.to/lastmile_qr_scan", "ios": "https://dc.lft.to/lastmile_qr_scan"}, "fusion_lon": 0.0}, {"lat": 38.908584833333336, "is_disabled": 0, "type": "electric_scooter", "lon": -77.04589933333334, "bike_id": "445d25a862e6cc5ef8a62b6d1dc8fb16", "fusion_lat": 0.0, "name": "445d25a862e6cc5ef8a62b6d1dc8fb16", "is_reserved": 0, "rental_uris": {"android": "https://dc.lft.to/lastmile_qr_scan", "ios": "https://dc.lft.to/lastmile_qr_scan"}, "fusion_lon": 0.0}, {"lat": 38.90821666666667, "is_disabled": 0, "type": "electric_scooter", "lon": -77.01798066666667, "bike_id": "c0113f74746b797b5e510d9d3d8640d7", "fusion_lat": 0.0, "name": "c0113f74746b797b5e510d9d3d8640d7", "is_reserved": 0, "rental_uris": {"android": "https://dc.lft.to/lastmile_qr_scan", "ios": "https://dc.lft.to/lastmile_qr_scan"}, "fusion_lon": 0.0}, {"lat": 38.9180865, "is_disabled": 0, "type": "electric_scooter", "lon": -77.0317495, "bike_id": "b857f39cb729965ff591085dbb44b650", "fusion_lat": 0.0, "name": "b857f39cb729965ff591085dbb44b650", "is_reserved": 0, "rental_uris": {"android": "https://dc.lft.to/lastmile_qr_scan", "ios": "https://dc.lft.to/lastmile_qr_scan"}, "fusion_lon": 0.0}, {"lat": 38.91553616666667, "is_disabled": 0, "type": "electric_scooter", "lon": -77.02046616666667, "bike_id": "57b1c2e5dc5ac082246a0b816556536b", "fusion_lat": 0.0, "name": "57b1c2e5dc5ac082246a0b816556536b", "is_reserved": 0, "rental_uris": {"android": "https://dc.lft.to/lastmile_qr_scan", "ios": "https://dc.lft.to/lastmile_qr_scan"}, "fusion_lon": 0.0}, {"lat": 38.83672833333333, "is_disabled": 0, "type": "electric_scooter", "lon": -77.00582516666667, "bike_id": "94a380de58fd3567d17ba3049230f0ae", "fusion_lat": 0.0, "name": "94a380de58fd3567d17ba3049230f0ae", "is_reserved": 0, "rental_uris": {"android": "https://dc.lft.to/lastmile_qr_scan", "ios": "https://dc.lft.to/lastmile_qr_scan"}, "fusion_lon": 0.0}, {"lat": 38.9006005, "is_disabled": 0, "type": "electric_scooter", "lon": -77.00188966666667, "bike_id": "e3724c93cf7e4129effa8d5cebcfeb82", "fusion_lat": 0.0, "name": "e3724c93cf7e4129effa8d5cebcfeb82", "is_reserved": 0, "rental_uris": {"android": "https://dc.lft.to/lastmile_qr_scan", "ios": "https://dc.lft.to/lastmile_qr_scan"}, "fusion_lon": 0.0}, {"lat": 38.92364833333333, "is_disabled": 0, "type": "electric_scooter", "lon": -77.0513185, "bike_id": "73d7840b2f78ccdba1702b94ac124b61", "fusion_lat": 0.0, "name": "73d7840b2f78ccdba1702b94ac124b61", "is_reserved": 0, "rental_uris": {"android": "https://dc.lft.to/lastmile_qr_scan", "ios": "https://dc.lft.to/lastmile_qr_scan"}, "fusion_lon": 0.0},