{"data": {"bikes": [{"lat": 38.884885, "fusion_lat": 0.0, "is_reserved": 0, "is_disabled": 0, "type": "electric_scooter", "name": "e7063bc3c66206e434a20c57d35dbfae", "lon": -77.03475616666667, "fusion_lon": 0.0, "rental_uris": {"android": "https://dc.lft.to/lastmile_qr_scan", "ios": "https://dc.lft.to/lastmile_qr_scan"}, "bike_id": "e7063bc3c66206e434a20c57d35dbfae"}, {"lat": 38.92840733333333, "fusion_lat": 0.0, "is_reserved": 0, "is_disabled": 0, "type": "electric_scooter", "name": "5b7cbadb6f4fb7b446d2a3eaea7cbc44", "lon": -77.054205, "fusion_lon": 0.0, "rental_uris": {"android": "https://dc.lft.to/lastmile_qr_scan", "ios": "https://dc.lft.to/lastmile_qr_scan"}, "bike_id": "5b7cbadb6f4fb7b446d2a3eaea7cbc44"}, {"lat": 38.91414066666667, "fusion_lat": 0.0, "is_reserved": 0, "is_disabled": 0, "type": "electric_scooter", "name": "b1ed4e5e7f2d287e3f1ba0e136de835e", "lon": -77.02232366666667, "fusion_lon": 0.0, "rental_uris": {"android": "https://dc.lft.to/lastmile_qr_scan", "ios": "https://dc.lft.to/lastmile_qr_scan"}, "bike_id": "b1ed4e5e7f2d287e3f1ba0e136de835e"}, {"lat": 38.88970366666667, "fusion_lat": 0.0, "is_reserved": 0, "is_disabled": 0, "type": "electric_scooter", "name": "ba69703d943d8514b1c91c511f3f4c18", "lon": -76.98039433333334, "fusion_lon": 0.0, "rental_uris": {"android": "https://dc.lft.to/lastmile_qr_scan", "ios": "https://dc.lft.to/lastmile_qr_scan"}, "bike_id": "ba69703d943d8514b1c91c511f3f4c18"}, {"lat": 38.916608833333335, "fusion_lat": 0.0, "is_reserved": 0, "is_disabled": 0, "type": "electric_scooter", "name": "95bfbb30ddb175b9802472ace444469e", "lon": -77.03698733333333, "fusion_lon": 0.0, "rental_uris": {"android": "https://dc.lft.to/lastmile_qr_scan", "ios": "https://dc.lft.to/lastmile_qr_scan"}, "bike_id": "95bfbb30ddb175b9802472ace444469e"}, {"lat": 38.92326933333333, "fusion_lat": 0.0, "is_reserved": 0, "is_disabled": 0, "type": "electric_scooter", "name": "1e35ec3eacabf7d085c961eb3b1ad53c", "lon": -77.0196205, "fusion_lon": 0.0, "rental_uris": {"android": "https://dc.lft.to/lastmile_qr_scan", "ios": "https://dc.lft.to/lastmile_qr_scan"}, "bike_id": "1e35ec3eacabf7d085c961eb3b1ad53c"}, {"lat": 38.84671733333333, "fusion_lat": 0.0, "is_reserved": 0, "is_disabled": 0, "type": "electric_bike", "name": "c2641e9e64f957dc50c5aaef311be6b2", "lon": -77.13928516666667, "fusion_lon": 0.0, "rental_uris": {"android": "https://dc.lft.to/lastmile_qr_scan", "ios": "https://dc.lft.to/lastmile_qr_scan"}, "bike_id": "c2641e9e64f957dc50c5aaef311be6b2"}, {"lat": 38.91559733333333, "fusion_lat": 0.0, "is_reserved": 0, "is_disabled": 0, "type": "electric_scooter", "name": "d62cef9f35f6a2b2d9c489d69283f69d", "lon": -77.0511185, "fusion_lon": 0.0, "rental_uris": {"android": "https://dc.lft.to/lastmile_qr_scan", "ios": "https://dc.lft.to/lastmile_qr_scan"}, "bike_id": "d62cef9f35f6a2b2d9c489d69283f69d"}, {"lat": 38.91976733333333, "fusion_lat": 0.0, "is_reserved": 0, "is_disabled": 0, "type": "electric_scooter", "name": "db4e4da7a25b3bb8fd32a79a973a4880", "lon": -77.02212616666667, "fusion_lon": 0.0, "rental_uris": {"android": "https://dc.lft.to/lastmile_qr_scan", "ios": "https://dc.lft.to/lastmile_qr_scan"}, "bike_id": "db4e4da7a25b3bb8fd32a79a973a4880"}, {"lat": 38.91038483333333, "fusion_lat": 0.0, "is_reserved": 0, "is_disabled": 0, "type": "electric_scooter", "name": "52a822adb61d16d6d5e8beea60fee914", "lon": -77.00999866666666, "fusion_lon": 0.0, "rental_uris": {"android": "https://dc.lft.to/lastmile_qr_scan", "ios": "https://dc.lft.to/lastmile_qr_scan"}, "bike_id": "52a822adb61d16d6d5e8beea60fee914"}, {"lat": 38.89225366666667, "fusion_lat": 0.0, "is_reserved": 0, "is_disabled": 0, "type": "electric_scooter", "name": "a031d492382e5c3ca40012a1dc0bdf1b", "lon": -77.02619883333334, "fusion_lon": 0.0, "rental_uris": {"android": "https://dc.lft.to/lastmile_qr_scan", "ios": "https://dc.lft.to/lastmile_qr_scan"}, "bike_id": "a031d492382e5c3ca40012a1dc0bdf1b"}, {"lat": 38.919096, "fusion_lat": 0.0, "is_reserved": 0, "is_disabled": 0, "type": "electric_scooter", "name": "bd29eeed52b594620a4adabea95a3c91", "lon": -77.03445933333333, "fusion_lon": 0.0, "rental_uris": {"android": "https://dc.lft.to/lastmile_qr_scan", "ios": "https://dc.lft.to/lastmile_qr_scan"}, "bike_id": "bd29eeed52b594620a4adabea95a3c91"}, {"lat": 38.8994955, "fusion_lat": 0.0, "is_reserved": 0, "is_disabled": 0, "type": "electric_scooter", "name": "17f70c5ffe329e77eb288c0b8234775f", "lon": -77.0450385, "fusion_lon": 0.0, "rental_uris": {"android": "https://dc.lft.to/lastmile_qr_scan", "ios": "https://dc.lft.to/lastmile_qr_scan"}, "bike_id": "17f70c5ffe329e77eb288c0b8234775f"}, {"lat": 38.914209, "fusion_lat": 0.0, "is_reserved": 0, "is_disabled": 0, "type": "electric_scooter", "name": "d8bedd2ad3b8df73e03a88ebf94843d3", "lon": -77.03181333333333, "fusion_lon": 0.0, "rental_uris": {"android": "https://dc.lft.to/lastmile_qr_scan", "ios": "https://dc.lft.to/lastmile_qr_scan"}, "bike_id": "d8bedd2ad3b8df73e03a88ebf94843d3"}, {"lat": 38.904334166666665, "fusion_lat": 0.0, "is_reserved": 0, "is_disabled": 0, "type": "electric_scooter", "name": "460c0763a0d828d14cee220ca4ddee5c", "lon": -77.03107066666666, "fusion_lon": 0.0, "rental_uris": {"android": "https://dc.lft.to/lastmile_qr_scan", "ios": "https://dc.lft.to/lastmile_qr_scan"}, "bike_id": "460c0763a0d828d14cee220ca4ddee5c"}, {"lat": 38.902915, "fusion_lat": 0.0, "is_reserved": 0, "is_disabled": 0, "type": "electric_scooter", "name": "bb022bf185e96eb259c80db6acdcafd0", "lon": -77.03850183333333, "fusion_lon": 0.0, "rental_uris": {"android": "https://dc.lft.to/lastmile_qr_scan", "ios": "https://dc.lft.to/lastmile_qr_scan"}, "bike_id": "bb022bf185e96eb259c80db6acdcafd0"}, {"lat": 38.906704833333336, "fusion_lat": 0.0, "is_reserved": 0, "is_disabled": 0, "type": "electric_scooter", "name": "dbc0ced235df57cea162ed6976b33c19", "lon": -77.02711416666666, "fusion_lon": 0.0, "rental_uris": {"android": "https://dc.lft.to/lastmile_qr_scan", "ios": "https://dc.lft.to/lastmile_qr_scan"}, "bike_id": "dbc0ced235df57cea162ed6976b33c19"}, {"lat": 38.93700116666667, "fusion_lat": 0.0, "is_reserved": 0, "is_disabled": 0, "type": "electric_scooter", "name": "1cf87c6ce9d62fc78bd13e6485909ec9", "lon": -77.05600716666666, "fusion_lon": 0.0, "rental_uris": {"android": "https://dc.lft.to/lastmile_qr_scan", "ios": "https://dc.lft.to/lastmile_qr_scan"}, "bike_id": "1cf87c6ce9d62fc78bd13e6485909ec9"}, {"lat": 38.90375, "fusion_lat": 0.0, "is_reserved": 0, "is_disabled": 0, "type": "electric_scooter", "name": "4fd90fda739c36fa8f94e1836ea679d7", "lon": -77.04840566666667, "fusion_lon": 0.0, "rental_uris": {"android": "https://dc.lft.to/lastmile_qr_scan", "ios": "https://dc.lft.to/lastmile_qr_scan"}, "bike_id": "4fd90fda739c36fa8f94e1836ea679d7"}, {"lat": 38.90437, "fusion_lat": 0.0, "is_reserved": 0, "is_disabled": 0, "type": "electric_scooter", "name": "8db183962618cd3a40975a5446e2ac51", "lon": -77.0259725, "fusion_lon": 0.0, "rental_uris": {"android": "https://dc.lft.to/lastmile_qr_scan", "ios": "https://dc.lft.to/lastmile_qr_scan"}, "bike_id": "8db183962618cd3a40975a5446e2ac51"}, {"lat": 38.9225895, "fusion_lat": 0.0, "is_reserved": 0, "is_disabled": 0, "type": "electric_scooter", "name": "bfa740aaed9a2c3c232627cd5b986432", "lon": -77.02970166666667, "fusion_lon": 0.0, "rental_uris": {"android": "https://dc.lft.to/lastmile_qr_scan", "ios": "https://dc.lft.to/lastmile_qr_scan"}, "bike_id": "bfa740aaed9a2c3c232627cd5b986432"}, {"lat": 38.95314583333333, "fusion_lat": 0.0, "is_reserved": 0, "is_disabled": 0, "type": "electric_scooter", "name": "509ca013ed5e2dacd7947c0318e39539", "lon": -76.9946185, "fusion_lon": 0.0, "rental_uris": {"android": "https://dc.lft.to/lastmile_qr_scan", "ios": "https://dc.lft.to/lastmile_qr_scan"}, "bike_id": "509ca013ed5e2dacd7947c0318e39539"}, {"lat": 38.9803555, "fusion_lat": 0.0, "is_reserved": 0, "is_disabled": 0, "type": "electric_bike", "name": "5901e5e0d67a9d29e314aa888c87a944", "lon": -76.94249966666666, "fusion_lon": 0.0, "rental_uris": {"android": "https://dc.lft.to/lastmile_qr_scan", "ios": "https://dc.lft.to/lastmile_qr_scan"}, "bike_id": "5901e5e0d67a9d29e314aa888c87a944"}, {"lat": 38.930984, "fusion_lat": 0.0, "is_reserved": 0, "is_disabled": 0, "type": "electric_scooter", "name": "183ac5e12a01b7d46e27f73294d04771", "lon": -77.03439466666667, "fusion_lon": 0.0, "rental_uris": {"android": "https://dc.lft.to/lastmile_qr_scan", "ios": "https://dc.lft.to/lastmile_qr_scan"}, "bike_id": "183ac5e12a01b7d46e27f73294d04771"}, {"lat": 38.890458, "fusion_lat": 0.0, "is_reserved": 0, "is_disabled": 0, "type": "electric_scooter", "name": "9027fae617eb961626c241b9e9f21da6", "lon": -76.93743433333333, "fusion_lon": 0.0, "rental_uris": {"android": "https://dc.lft.to/lastmile_qr_scan", "ios": "https://dc.lft.to/lastmile_qr_scan"}, "bike_id": "9027fae617eb961626c241b9e9f21da6"}, {"lat": 38.94429733333333, "fusion_lat": 0.0, "is_reserved": 0, "is_disabled": 0, "type": "electric_bike", "name": "ed7c49cdae40f3cd3cb435e408302afe", "lon": -77.013816, "fusion_lon": 0.0, "rental_uris": {"android": "https://dc.lft.to/lastmile_qr_scan", "ios": "https://dc.lft.to/lastmile_qr_scan"}, "bike_id": "ed7c49cdae40f3cd3cb435e408302afe"}, {"lat": 38.9264635, "fusion_lat": 0.0, "is_reserved": 0, "is_disabled": 0, "type": "electric_scooter", "name": "4b9b6bc6d20b57b39ae7044e92a61531", "lon": -77.03854333333334, "fusion_lon": 0.0, "rental_uris": {"android": "https://dc.lft.to/lastmile_qr_scan", "ios": "https://dc.lft.to/lastmile_qr_scan"}, "bike_id": "4b9b6bc6d20b57b39ae7044e92a61531"}, {"lat": 38.87172416666667, "fusion_lat": 0.0, "is_reserved": 0, "is_disabled": 0, "type": "electric_bike", "name": "44983e43af0a28ebea48d28b36210643", "lon": -77.233942, "fusion_lon": 0.0, "rental_uris": {"android": "https://dc.lft.to/lastmile_qr_scan", "ios": "https://dc.lft.to/lastmile_qr_scan"}, "bike_id": "44983e43af0a28ebea48d28b36210643"}, {"lat": 38.89802016666667, "fusion_lat": 0.0, "is_reserved": 0, "is_disabled": 0, "type": "electric_scooter", "name": "5dcbadde7b5332d3bbb4a1666ff667f3", "lon": -77.0188865, "fusion_lon": 0.0, "rental_uris": {"android": "https://dc.lft.to/lastmile_qr_scan", "ios": "https://dc.lft.to/lastmile_qr_scan"}, "bike_id": "5dcbadde7b5332d3bbb4a1666ff667f3"}, {"lat": 38.899244333333336, "fusion_lat": 0.0, "is_reserved": 0, "is_disabled": 0, "type": "electric_scooter", "name": "118f8b6db82aeb633fcb82d31f07fa74", "lon": -77.0329985, "fusion_lon": 0.0, "rental_uris": {"android": "https://dc.lft.to/lastmile_qr_scan", "ios": "https://dc.lft.to/lastmile_qr_scan"}, "bike_id": "118f8b6db82aeb633fcb82d31f07fa74"}, {"lat": 38.88524733333333, "fusion_lat": 0.0, "is_reserved": 0, "is_disabled": 0, "type": "electric_scooter", "name": "6cb703d5cf001471855ad5a8ab29d568", "lon": -76.97709583333334, "fusion_lon": 0.0, "rental_uris": {"android": "https://dc.lft.to/lastmile_qr_scan", "ios": "https://dc.lft.to/lastmile_qr_scan"}, "bike_id": "6cb703d5cf001471855ad5a8ab29d568"}, {"lat": 38.9059735, "fusion_lat": 0.0, "is_reserved": 0, "is_disabled": 0, "type": "electric_scooter", "name": "29965ddd668a2dc5bb238e14c5ca2469", "lon": -77.02982966666667, "fusion_lon": 0.0, "rental_uris": {"android": "https://dc.lft.to/lastmile_qr_scan", "ios": "https://dc.lft.to/lastmile_qr_scan"}, "bike_id": "29965ddd668a2dc5bb238e14c5ca2469"}, {"lat": 38.9354155, "fusion_lat": 0.0, "is_reserved": 0, "is_disabled": 0, "type": "electric_scooter", "name": "c1ce71394df60a0064938289c730cec5", "lon": -77.07302, "fusion_lon": 0.0, "rental_uris": {"android": "https://dc.lft.to/lastmile_qr_scan", "ios": "https://dc.lft.to/lastmile_qr_scan"}, "bike_id": "c1ce71394df60a0064938289c730cec5"}, {"lat": 38.97549683333333, "fusion_lat": 0.0, "is_reserved": 0, "is_disabled": 0, "type": "electric_scooter", "name": "f7271863f2a599ee68404b061f835e0a", "lon": -77.02669433333334, "fusion_lon": 0.0, "rental_uris": {"android": "https://dc.lft.to/lastmile_qr_scan", "ios": "https://dc.lft.to/lastmile_qr_scan"}, "bike_id": "f7271863f2a599ee68404b061f835e0a"}, {"lat": 38.905941, "fusion_lat": 0.0, "is_reserved": 0, "is_disabled": 0, "type": "electric_bike", "name": "525ecd364a1a0f2333f602a09c8d1d87", "lon": -77.0450765, "fusion_lon": 0.0, "rental_uris": {"android": "https://dc.lft.to/lastmile_qr_scan", "ios": "https://dc.lft.to/lastmile_qr_scan"}, "bike_id": "525ecd364a1a0f2333f602a09c8d1d87"}, {"lat": 38.92383266666667, "fusion_lat": 0.0, "is_reserved": 0, "is_disabled": 0, "type": "electric_scooter", "name": "e226b067e1ac139500b24ae633269c9a", "lon": -77.027454, "fusion_lon": 0.0, "rental_uris": {"android": "https://dc.lft.to/lastmile_qr_scan", "ios": "https://dc.lft.to/lastmile_qr_scan"}, "bike_id": "e226b067e1ac139500b24ae633269c9a"}, {"lat": 38.879663, "fusion_lat": 0.0, "is_reserved": 0, "is_disabled": 0, "type": "electric_bike", "name": "cfb97f033809e94f6d4214347cbde7c0", "lon": -76.98545816666666, "fusion_lon": 0.0, "rental_uris": {"android": "https://dc.lft.to/lastmile_qr_scan", "ios": "https://dc.lft.to/lastmile_qr_scan"}, "bike_id": "cfb97f033809e94f6d4214347cbde7c0"}, {"lat": 38.90006483333333, "fusion_lat": 0.0, "is_reserved": 0, "is_disabled": 0, "type": "electric_scooter", "name": "62cc98acd296ff9f8f4201a3f44933e2", "lon": -77.04178483333334, "fusion_lon": 0.0, "rental_uris": {"android": "https://dc.lft.to/lastmile_qr_scan", "ios": "https://dc.lft.to/lastmile_qr_scan"}, "bike_id": "62cc98acd296ff9f8f4201a3f44933e2"}, {"lat": 38.893755666666664, "fusion_lat": 0.0, "is_reserved": 0, "is_disabled": 0, "type": "electric_scooter", "name": "bc4e4741edf5fbb66dda323baf10c8f4", "lon": -77.01977566666666, "fusion_lon": 0.0, "rental_uris": {"android": "https://dc.lft.to/lastmile_qr_scan", "ios": "https://dc.lft.to/lastmile_qr_scan"}, "bike_id": "bc4e4741edf5fbb66dda323baf10c8f4"}, {"lat": 38.92222816666666, "fusion_lat": 0.0, "is_reserved": 0, "is_disabled": 0, "type": "electric_bike", "name": "4336022fbe1846b7d896b28761056d42", "lon": -77.0283335, "fusion_lon": 0.0, "rental_uris": {"android": "https://dc.lft.to/lastmile_qr_scan", "ios": "https://dc.lft.to/lastmile_qr_scan"}, "bike_id": "4336022fbe1846b7d896b28761056d42"}, {"lat": 38.9071455, "fusion_lat": 0.0, "is_reserved": 0, "is_disabled": 0, "type": "electric_scooter", "name": "9bed4ef86af6fd3e710a74f6fffa2959", "lon": -77.07637816666667, "fusion_lon": 0.0, "rental_uris": {"android": "https://dc.lft.to/lastmile_qr_scan", "ios": "https://dc.lft.to/lastmile_qr_scan"}, "bike_id": "9bed4ef86af6fd3e710a74f6fffa2959"}, {"lat": 38.906485, "fusion_lat": 0.0, "is_reserved": 0, "is_disabled": 0, "type": "electric_scooter", "name": "1109b38d7ed508e304fa92a27f29f8ed", "lon": -76.97941783333333, "fusion_lon": 0.0, "rental_uris": {"android": "https://dc.lft.to/lastmile_qr_scan", "ios": "https://dc.lft.to/lastmile_qr_scan"}, "bike_id": "1109b38d7ed508e304fa92a27f29f8ed"}, {"lat": 38.901286666666664, "fusion_lat": 0.0, "is_reserved": 0, "is_disabled": 0, "type": "electric_scooter", "name": "564fc8037079de91b012eb78244e7b43", "lon": -77.04991683333333, "fusion_lon": 0.0, "rental_uris": {"android": "https://dc.lft.to/lastmile_qr_scan", "ios": "https://dc.lft.to/lastmile_qr_scan"}, "bike_id": "564fc8037079de91b012eb78244e7b43"}, {"lat": 38.90674833333333, "fusion_lat": 0.0, "is_reserved": 0, "is_disabled": 0, "type": "electric_scooter", "name": "b87b3e87b5bb6bf1b8d23034c5f953bd", "lon": -77.07157433333333, "fusion_lon": 0.0, "rental_uris": {"android": "https://dc.lft.to/lastmile_qr_scan", "ios": "https://dc.lft.to/lastmile_qr_scan"}, "bike_id": "b87b3e87b5bb6bf1b8d23034c5f953bd"}, {"lat": 38.9249045, "fusion_lat": 0.0, "is_reserved": 0, "is_disabled": 0, "type": "electric_scooter", "name": "7267508f587881ca2e789ac39a18b157", "lon": -77.02517633333333, "fusion_lon": 0.0, "rental_uris": {"android": "https://dc.lft.to/lastmile_qr_scan", "ios": "https://dc.lft.to/lastmile_qr_scan"}, "bike_id": "7267508f587881ca2e789ac39a18b157"}, {"lat": 38.916605833333335, "fusion_lat": 0.0, "is_reserved": 0, "is_disabled": 0, "type": "electric_scooter", "name": "874fb1fef9c1b2b4571d077014d02f19", "lon": -77.0241085, "fusion_lon": 0.0, "rental_uris": {"android": "https://dc.lft.to/lastmile_qr_scan", "ios": "https://dc.lft.to/lastmile_qr_scan"}, "bike_id": "874fb1fef9c1b2b4571d077014d02f19"}, {"lat": 38.86284716666667, "fusion_lat": 0.0, "is_reserved": 0, "is_disabled": 0, "type": "electric_bike", "name": "dba078f2b21ae710fac3c922ea3feeed", "lon": -76.94519916666667, "fusion_lon": 0.0, "rental_uris": {"android": "https://dc.lft.to/lastmile_qr_scan", "ios": "https://dc.lft.to/lastmile_qr_scan"}, "bike_id": "dba078f2b21ae710fac3c922ea3feeed"}, {"lat": 38.923321666666666, "fusion_lat": 0.0, "is_reserved": 0, "is_disabled": 0, "type": "electric_scooter", "name": "df7fcfaf03d59aa360104621be795945", "lon": -77.0419825, "fusion_lon": 0.0, "rental_uris": {"android": "https://dc.lft.to/lastmile_qr_scan", "ios": "https://dc.lft.to/lastmile_qr_scan"}, "bike_id": "df7fcfaf03d59aa360104621be795945"}, {"lat": 38.90678783333333, "fusion_lat": 0.0, "is_reserved": 0, "is_disabled": 0, "type": "electric_scooter", "name": "d9297f2c8c17bc480a9d0982dd0fd945", "lon": -76.97934183333334, "fusion_lon": 0.0, "rental_uris": {"android": "https://dc.lft.to/lastmile_qr_scan", "ios": "https://dc.lft.to/lastmile_qr_scan"}, "bike_id": "d9297f2c8c17bc480a9d0982dd0fd945"}, {"lat": 38.9311515, "fusion_lat": 0.0, "is_reserved": 0, "is_disabled": 0, "type": "electric_scooter", "name": "69897918e08e34ec218beef6e2c955e7", "lon": -77.03281933333334, "fusion_lon": 0.0, "rental_uris": {"android": "https://dc.lft.to/lastmile_qr_scan", "ios": "https://dc.lft.to/lastmile_qr_scan"}, "bike_id": "69897918e08e34ec218beef6e2c955e7"}, {"lat": 38.92041733333333, "fusion_lat": 0.0, "is_reserved": 0, "is_disabled": 0, "type": "electric_scooter", "name": "9fe6cf6b60fd175f1c5a2d482022929b", "lon": -77.01682316666667, "fusion_lon": 0.0, "rental_uris": {"android": "https://dc.lft.to/lastmile_qr_scan", "ios": "https://dc.lft.to/lastmile_qr_scan"}, "bike_id": "9fe6cf6b60fd175f1c5a2d482022929b"}, {"lat": 38.887428166666666, "fusion_lat": 0.0, "is_reserved": 0, "is_disabled": 0, "type": "electric_scooter", "name": "9a24e34091342d34cca26a1ea12c3365", "lon": -77.0284185, "fusion_lon": 0.0, "rental_uris": {"android": "https://dc.lft.to/lastmile_qr_scan", "ios": "https://dc.lft.to/lastmile_qr_scan"}, "bike_id": "9a24e34091342d34cca26a1ea12c3365"}, {"lat": 38.91168116666667, "fusion_lat": 0.0, "is_reserved": 0, "is_disabled": 0, "type": "electric_bike", "name": "48983849098e3c1566eead82be33d1b9", "lon": -77.00281066666666, "fusion_lon": 0.0, "rental_uris": {"android": "https://dc.lft.to/lastmile_qr_scan", "ios": "https://dc.lft.to/lastmile_qr_scan"}, "bike_id": "48983849098e3c1566eead82be33d1b9"}, {"lat": 38.9021675, "fusion_lat": 0.0, "is_reserved": 0, "is_disabled": 0, "type": "electric_bike", "name": "49bc26781f57d94b30fd6c6da22dde23", "lon": -76.93175133333334, "fusion_lon": 0.0, "rental_uris": {"android": "https://dc.lft.to/lastmile_qr_scan", "ios": "https://dc.lft.to/lastmile_qr_scan"}, "bike_id": "49bc26781f57d94b30fd6c6da22dde23"}, {"lat": 38.8386855, "fusion_lat": 0.0, "is_reserved": 0, "is_disabled": 0, "type": "electric_bike", "name": "4bc49e5eedf674f0dfdbd8103ab218cd", "lon": -76.99698516666666, "fusion_lon": 0.0, "rental_uris": {"android": "https://dc.lft.to/lastmile_qr_scan", "ios": "https://dc.lft.to/lastmile_qr_scan"}, "bike_id": "4bc49e5eedf674f0dfdbd8103ab218cd"}, {"lat": 38.924640333333336, "fusion_lat": 0.0, "is_reserved": 0, "is_disabled": 0, "type": "electric_scooter", "name": "991fdb3df0bfa09c5692c1a466057b4d", "lon": -77.03819066666667, "fusion_lon": 0.0, "rental_uris": {"android": "https://dc.lft.to/lastmile_qr_scan", "ios": "https://dc.lft.to/lastmile_qr_scan"}, "bike_id": "991fdb3df0bfa09c5692c1a466057b4d"}, {"lat": 38.90565483333334, "fusion_lat": 0.0, "is_reserved": 0, "is_disabled": 0, "type": "electric_scooter", "name": "d847893cc76f703ef3d5a5f2264f0b36", "lon": -77.041746, "fusion_lon": 0.0, "rental_uris": {"android": "https://dc.lft.to/lastmile_qr_scan", "ios": "https://dc.lft.to/lastmile_qr_scan"}, "bike_id": "d847893cc76f703ef3d5a5f2264f0b36"}, {"lat": 38.879974833333335, "fusion_lat": 0.0, "is_reserved": 0, "is_disabled": 0, "type": "electric_scooter", "name": "4b1c1cee98ad854e3e0d3b378a14a8c2", "lon": -77.037398, "fusion_lon": 0.0, "rental_uris": {"android": "https://dc.lft.to/lastmile_qr_scan", "ios": "https://dc.lft.to/lastmile_qr_scan"}, "bike_id": "4b1c1cee98ad854e3e0d3b378a14a8c2"}, {"lat": 38.907821166666665, "fusion_lat": 0.0, "is_reserved": 0, "is_disabled": 0, "type": "electric_scooter", "name": "f3ae7c9dff2886242cda3b021b1efe5d", "lon": -77.035381, "fusion_lon": 0.0, "rental_uris": {"android": "https://dc.lft.to/lastmile_qr_scan", "ios": "https://dc.lft.to/lastmile_qr_scan"}, "bike_id": "f3ae7c9dff2886242cda3b021b1efe5d"}, {"lat": 38.92162483333333, "fusion_lat": 0.0, "is_reserved": 0, "is_disabled": 0, "type": "electric_scooter", "name": "41a2f86f5872fff25369bbe86f8fecff", "lon": -77.02101383333333, "fusion_lon": 0.0, "rental_uris": {"android": "https://dc.lft.to/lastmile_qr_scan", "ios": "https://dc.lft.to/lastmile_qr_scan"}, "bike_id": "41a2f86f5872fff25369bbe86f8fecff"}, {"lat": 38.91690066666666, "fusion_lat": 0.0, "is_reserved": 0, "is_disabled": 0, "type": "electric_scooter", "name": "a4172a1ebc3e8fe148b951b00822a4ed", "lon": -77.02527416666666, "fusion_lon": 0.0, "rental_uris": {"android": "https://dc.lft.to/lastmile_qr_scan", "ios": "https://dc.lft.to/lastmile_qr_scan"}, "bike_id": "a4172a1ebc3e8fe148b951b00822a4ed"}, {"lat": 38.8961735, "fusion_lat": 0.0, "is_reserved": 0, "is_disabled": 0, "type": "electric_scooter", "name": "56daf664263ec6bb2afc313346040132", "lon": -77.02212266666666, "fusion_lon": 0.0, "rental_uris": {"android": "https://dc.lft.to/lastmile_qr_scan", "ios": "https://dc.lft.to/lastmile_qr_scan"}, "bike_id": "56daf664263ec6bb2afc313346040132"}, {"lat": 38.8951245, "fusion_lat": 0.0, "is_reserved": 0, "is_disabled": 0, "type": "electric_scooter", "name": "7566129d730af604f7e08b582c346d13", "lon": -76.99503283333334, "fusion_lon": 0.0, "rental_uris": {"android": "https://dc.lft.to/lastmile_qr_scan", "ios": "https://dc.lft.to/lastmile_qr_scan"}, "bike_id": "7566129d730af604f7e08b582c346d13"}, {"lat": 38.9159215, "fusion_lat": 0.0, "is_reserved": 0, "is_disabled": 0, "type": "electric_scooter", "name": "4f548ab6e77bcefeec293fe76380bda4", "lon": -77.02004933333333, "fusion_lon": 0.0, "rental_uris": {"android": "https://dc.lft.to/lastmile_qr_scan", "ios": "https://dc.lft.to/lastmile_qr_scan"}, "bike_id": "4f548ab6e77bcefeec293fe76380bda4"}, {"lat": 39.0107565, "fusion_lat": 0.0, "is_reserved": 0, "is_disabled": 0, "type": "electric_bike", "name": "6fb3285936d2b678f9fa22dda23e9d37", "lon": -76.91065533333334, "fusion_lon": 0.0, "rental_uris": {"android": "https://dc.lft.to/lastmile_qr_scan", "ios": "https://dc.lft.to/lastmile_qr_scan"}, "bike_id": "6fb3285936d2b678f9fa22dda23e9d37"}, {"lat": 38.870381, "fusion_lat": 0.0, "is_reserved": 0, "is_disabled": 0, "type": "electric_bike", "name": "53a75f5edebbe2962f7aae414f58022f", "lon": -77.22912516666666, "fusion_lon": 0.0, "rental_uris": {"android": "https://dc.lft.to/lastmile_qr_scan", "ios": "https://dc.lft.to/lastmile_qr_scan"}, "bike_id": "53a75f5edebbe2962f7aae414f58022f"}, {"lat": 38.922486, "fusion_lat": 0.0, "is_reserved": 0, "is_disabled": 0, "type": "electric_scooter", "name": "cde07dd506a5402e09d8b9d16b49eee8", "lon": -77.03066183333334, "fusion_lon": 0.0, "rental_uris": {"android": "https://dc.lft.to/lastmile_qr_scan", "ios": "https://dc.lft.to/lastmile_qr_scan"}, "bike_id": "cde07dd506a5402e09d8b9d16b49eee8"}, {"lat": 38.8984, "fusion_lat": 0.0, "is_reserved": 0, "is_disabled": 0, "type": "electric_scooter", "name": "256c5c589a94c694b3e3fe182c26d0a4", "lon": -77.02855433333333, "fusion_lon": 0.0, "rental_uris": {"android": "https://dc.lft.to/lastmile_qr_scan", "ios": "https://dc.lft.to/lastmile_qr_scan"}, "bike_id": "256c5c589a94c694b3e3fe182c26d0a4"}, {"lat": 38.91437233333333, "fusion_lat": 0.0, "is_reserved": 0, "is_disabled": 0, "type": "electric_bike", "name": "5c6daf37126e8c95b7f246d82bc6070a", "lon": -77.017094, "fusion_lon": 0.0, "rental_uris": {"android": "https://dc.lft.to/lastmile_qr_scan", "ios": "https://dc.lft.to/lastmile_qr_scan"}, "bike_id": "5c6daf37126e8c95b7f246d82bc6070a"}, {"lat": 38.899389166666666, "fusion_lat": 0.0, "is_reserved": 0, "is_disabled": 0, "type": "electric_scooter", "name": "c054cf13c859087902323435d968f72c", "lon": -77.02386733333333, "fusion_lon": 0.0, "rental_uris": {"android": "https://dc.lft.to/lastmile_qr_scan", "ios": "https://dc.lft.to/lastmile_qr_scan"}, "bike_id": "c054cf13c859087902323435d968f72c"}, {"lat": 38.92126066666667, "fusion_lat": 0.0, "is_reserved": 0, "is_disabled": 0, "type": "electric_scooter", "name": "faf6f83c9d6597727b3a901f168a4928", "lon": -77.009409, "fusion_lon": 0.0, "rental_uris": {"android": "https://dc.lft.to/lastmile_qr_scan", "ios": "https://dc.lft.to/lastmile_qr_scan"}, "bike_id": "faf6f83c9d6597727b3a901f168a4928"}, {"lat": 38.921113166666665, "fusion_lat": 0.0, "is_reserved": 0, "is_disabled": 0, "type": "electric_scooter", "name": "0d4d58c6e9f303a38e8c9d42eaf423f0", "lon": -77.0220125, "fusion_lon": 0.0, "rental_uris": {"android": "https://dc.lft.to/lastmile_qr_scan", "ios": "https://dc.lft.to/lastmile_qr_scan"}, "bike_id": "0d4d58c6e9f303a38e8c9d42eaf423f0"}, {"lat": 38.92472466666667, "fusion_lat": 0.0, "is_reserved": 0, "is_disabled": 0, "type": "electric_scooter", "name": "ce94c9c08821f556f022c09860aff7f1", "lon": -77.02206433333333, "fusion_lon": 0.0, "rental_uris": {"android": "https://dc.lft.to/lastmile_qr_scan", "ios": "https://dc.lft.to/lastmile_qr_scan"}, "bike_id": "ce94c9c08821f556f022c09860aff7f1"}, {"lat": 38.902556, "fusion_lat": 0.0, "is_reserved": 0, "is_disabled": 0, "type": "electric_scooter", "name": "aaa99ebec4a5cf37c29d69cd241e7894", "lon": -77.02654816666667, "fusion_lon": 0.0, "rental_uris": {"android": "https://dc.lft.to/lastmile_qr_scan", "ios": "https://dc.lft.to/lastmile_qr_scan"}, "bike_id": "aaa99ebec4a5cf37c29d69cd241e7894"}, {"lat": 38.886771833333334, "fusion_lat": 0.0, "is_reserved": 0, "is_disabled": 0, "type": "electric_scooter", "name": "5b39acd4818a9470b19af18d077fd053", "lon": -77.04797283333333, "fusion_lon": 0.0, "rental_uris": {"android": "https://dc.lft.to/lastmile_qr_scan", "ios": "https://dc.lft.to/lastmile_qr_scan"}, "bike_id": "5b39acd4818a9470b19af18d077fd053"}, {"lat": 38.917866333333336, "fusion_lat": 0.0, "is_reserved": 0, "is_disabled": 0, "type": "electric_scooter", "name": "48f65aad20cd97bb29987853792175fb", "lon": -77.0467035, "fusion_lon": 0.0, "rental_uris": {"android": "https://dc.lft.to/lastmile_qr_scan", "ios": "https://dc.lft.to/lastmile_qr_scan"}, "bike_id": "48f65aad20cd97bb29987853792175fb"}, {"lat": 38.9267375, "fusion_lat": 0.0, "is_reserved": 0, "is_disabled": 0, "type": "electric_scooter", "name": "8b67d2dc76f0b6b91f99873f3cca65b8", "lon": -77.01517283333334, "fusion_lon": 0.0, "rental_uris": {"android": "https://dc.lft.to/lastmile_qr_scan", "ios": "https://dc.lft.to/lastmile_qr_scan"}, "bike_id": "8b67d2dc76f0b6b91f99873f3cca65b8"}, {"lat": 38.9255755, "fusion_lat": 0.0, "is_reserved": 0, "is_disabled": 0, "type": "electric_scooter", "name": "d00983d803ffdf2a53a6f464ccc662d8", "lon": -77.02981716666666, "fusion_lon": 0.0, "rental_uris": {"android": "https://dc.lft.to/lastmile_qr_scan", "ios": "https://dc.lft.to/lastmile_qr_scan"}, "bike_id": "d00983d803ffdf2a53a6f464ccc662d8"}, {"lat": 38.93019983333333, "fusion_lat": 0.0, "is_reserved": 0, "is_disabled": 0, "type": "electric_scooter", "name": "6a3b8c685c40a6f7b0902a2933107adc", "lon": -77.02368383333334, "fusion_lon": 0.0, "rental_uris": {"android": "https://dc.lft.to/lastmile_qr_scan", "ios": "https://dc.lft.to/lastmile_qr_scan"}, "bike_id": "6a3b8c685c40a6f7b0902a2933107adc"}, {"lat": 38.887462166666666, "fusion_lat": 0.0, "is_reserved": 0, "is_disabled": 0, "type": "electric_scooter", "name": "98cea3bd22fed4f3f974056906f6202c", "lon": -77.0222995, "fusion_lon": 0.0, "rental_uris": {"android": "https://dc.lft.to/lastmile_qr_scan", "ios": "https://dc.lft.to/lastmile_qr_scan"}, "bike_id": "98cea3bd22fed4f3f974056906f6202c"}, {"lat": 38.92745266666667, "fusion_lat": 0.0, "is_reserved": 0, "is_disabled": 0, "type": "electric_scooter", "name": "1693a61e9a5f11e1f982fc22dd7ed2b2", "lon": -77.0646655, "fusion_lon": 0.0, "rental_uris": {"android": "https://dc.lft.to/lastmile_qr_scan", "ios": "https://dc.lft.to/lastmile_qr_scan"}, "bike_id": "1693a61e9a5f11e1f982fc22dd7ed2b2"}, {"lat": 38.84686883333333, "fusion_lat": 0.0, "is_reserved": 0, "is_disabled": 0, "type": "electric_scooter", "name": "111892a03b849cad1a31155fc62fc599", "lon": -76.9685385, "fusion_lon": 0.0, "rental_uris": {"android": "https://dc.lft.to/lastmile_qr_scan", "ios": "https://dc.lft.to/lastmile_qr_scan"}, "bike_id": "111892a03b849cad1a31155fc62fc599"}, {"lat": 38.905032166666665, "fusion_lat": 0.0, "is_reserved": 0, "is_disabled": 0, "type": "electric_scooter", "name": "14c60ac1931ccbcc19df90c2d399b1ad", "lon": -77.00894916666667, "fusion_lon": 0.0, "rental_uris": {"android": "https://dc.lft.to/lastmile_qr_scan", "ios": "https://dc.lft.to/lastmile_qr_scan"}, "bike_id": "14c60ac1931ccbcc19df90c2d399b1ad"}, {"lat": 38.90009966666667, "fusion_lat": 0.0, "is_reserved": 0, "is_disabled": 0, "type": "electric_scooter", "name": "5ea97bea637ad11185ab7a1afaea4517", "lon": -77.04037916666667, "fusion_lon": 0.0, "rental_uris": {"android": "https://dc.lft.to/lastmile_qr_scan", "ios": "https://dc.lft.to/lastmile_qr_scan"}, "bike_id": "5ea97bea637ad11185ab7a1afaea4517"}, {"lat": 38.918023166666664, "fusion_lat": 0.0, "is_reserved": 0, "is_disabled": 0, "type": "electric_scooter", "name": "0b0de5221218c877e4969d9c4d80042b", "lon": -77.02815483333333, "fusion_lon": 0.0, "rental_uris": {"android": "https://dc.lft.to/lastmile_qr_scan", "ios": "https://dc.lft.to/lastmile_qr_scan"}, "bike_id": "0b0de5221218c877e4969d9c4d80042b"}, {"lat": 38.892807833333336, "fusion_lat": 0.0, "is_reserved": 0, "is_disabled": 0, "type": "electric_scooter", "name": "2787ac11eefd76dd7bc31b118deceecc", "lon": -77.05039983333333, "fusion_lon": 0.0, "rental_uris": {"android": "https://dc.lft.to/lastmile_qr_scan", "ios": "https://dc.lft.to/lastmile_qr_scan"}, "bike_id": "2787ac11eefd76dd7bc31b118deceecc"}, {"lat": 38.908932166666666, "fusion_lat": 0.0, "is_reserved": 0, "is_disabled": 0, "type": "electric_scooter", "name": "567c6acc8dfc9f6ea160d4dd4f1b753a", "lon": -77.03388083333333, "fusion_lon": 0.0, "rental_uris": {"android": "https://dc.lft.to/lastmile_qr_scan", "ios": "https://dc.lft.to/lastmile_qr_scan"}, "bike_id": "567c6acc8dfc9f6ea160d4dd4f1b753a"}, {"lat": 38.9213145, "fusion_lat": 0.0, "is_reserved": 0, "is_disabled": 0, "type": "electric_scooter", "name": "cda11b66485f33ef7a073fc63067e719", "lon": -77.01797316666666, "fusion_lon": 0.0, "rental_uris": {"android": "https://dc.lft.to/lastmile_qr_scan", "ios": "https://dc.lft.to/lastmile_qr_scan"}, "bike_id": "cda11b66485f33ef7a073fc63067e719"}, {"lat": 38.92334533333333, "fusion_lat": 0.0, "is_reserved": 0, "is_disabled": 0, "type": "electric_scooter", "name": "9eabbcefa30f4235f891b7c0e625317c", "lon": -77.01953466666667, "fusion_lon": 0.0, "rental_uris": {"android": "https://dc.lft.to/lastmile_qr_scan", "ios": "https://dc.lft.to/lastmile_qr_scan"}, "bike_id": "9eabbcefa30f4235f891b7c0e625317c"}, {"lat": 38.91269233333333, "fusion_lat": 0.0, "is_reserved": 0, "is_disabled": 0, "type": "electric_scooter", "name": "6fc5d29ca756ff3d626570d2482546ab", "lon": -77.02226816666666, "fusion_lon": 0.0, "rental_uris": {"android": "https://dc.lft.to/lastmile_qr_scan", "ios": "https://dc.lft.to/lastmile_qr_scan"}, "bike_id": "6fc5d29ca756ff3d626570d2482546ab"}, {"lat": 38.935243166666666, "fusion_lat": 0.0, "is_reserved": 0, "is_disabled": 0, "type": "electric_scooter", "name": "f21e89cb33a707440e848df303ce7c8b", "lon": -77.0729435, "fusion_lon": 0.0, "rental_uris": {"android": "https://dc.lft.to/lastmile_qr_scan", "ios": "https://dc.lft.to/lastmile_qr_scan"}, "bike_id": "f21e89cb33a707440e848df303ce7c8b"}, {"lat": 38.830390666666666, "fusion_lat": 0.0, "is_reserved": 0, "is_disabled": 0, "type": "electric_bike", "name": "62c1d2166002ddbd96ba3aae5ab6f46d", "lon": -77.008241, "fusion_lon": 0.0, "rental_uris": {"android": "https://dc.lft.to/lastmile_qr_scan", "ios": "https://dc.lft.to/lastmile_qr_scan"}, "bike_id": "62c1d2166002ddbd96ba3aae5ab6f46d"}, {"lat": 38.909553, "fusion_lat": 0.0, "is_reserved": 0, "is_disabled": 0, "type": "electric_scooter", "name": "42c6d7a8f5c819749f8cc2edd6b52dc0", "lon": -77.01133733333333, "fusion_lon": 0.0, "rental_uris": {"android": "https://dc.lft.to/lastmile_qr_scan", "ios": "https://dc.lft.to/lastmile_qr_scan"}, "bike_id": "42c6d7a8f5c819749f8cc2edd6b52dc0"}, {"lat": 38.901443666666665, "fusion_lat": 0.0, "is_reserved": 0, "is_disabled": 0, "type": "electric_scooter", "name": "7fec460309db06080c267fb08c560487", "lon": -77.0395175, "fusion_lon": 0.0, "rental_uris": {"android": "https://dc.lft.to/lastmile_qr_scan", "ios": "https://dc.lft.to/lastmile_qr_scan"}, "bike_id": "7fec460309db06080c267fb08c560487"}, {"lat": 38.857959666666666, "fusion_lat": 0.0, "is_reserved": 0, "is_disabled": 0, "type": "electric_bike", "name": "88716a6e84eca175ddfc580404e5e06a", "lon": -76.9875535, "fusion_lon": 0.0, "rental_uris": {"android": "https://dc.lft.to/lastmile_qr_scan", "ios": "https://dc.lft.to/lastmile_qr_scan"}, "bike_id": "88716a6e84eca175ddfc580404e5e06a"}, {"lat": 38.92587316666667, "fusion_lat": 0.0, "is_reserved": 0, "is_disabled": 0, "type": "electric_scooter", "name": "a62ddd7e95426eae730dbec5b8ff96a2", "lon": -77.03643716666667, "fusion_lon": 0.0, "rental_uris": {"android": "https://dc.lft.to/lastmile_qr_scan", "ios": "https://dc.lft.to/lastmile_qr_scan"}, "bike_id": "a62ddd7e95426eae730dbec5b8ff96a2"}, {"lat": 39.026226, "fusion_lat": 0.0, "is_reserved": 0, "is_disabled": 0, "type": "electric_bike", "name": "61f71e1d1550bba792b099bc2c4af7c3", "lon": -77.03877733333333, "fusion_lon": 0.0, "rental_uris": {"android": "https://dc.lft.to/lastmile_qr_scan", "ios": "https://dc.lft.to/lastmile_qr_scan"}, "bike_id": "61f71e1d1550bba792b099bc2c4af7c3"}, {"lat": 38.92241766666667, "fusion_lat": 0.0, "is_reserved": 0, "is_disabled": 0, "type": "electric_scooter", "name": "e83a5704142872c82c255de4130621a3", "lon": -77.04020983333334, "fusion_lon": 0.0, "rental_uris": {"android": "https://dc.lft.to/lastmile_qr_scan", "ios": "https://dc.lft.to/lastmile_qr_scan"}, "bike_id": "e83a5704142872c82c255de4130621a3"}, {"lat": 38.902188333333335, "fusion_lat": 0.0, "is_reserved": 0, "is_disabled": 0, "type": "electric_scooter", "name": "87df64f4174accf384bc35c4de54dd02", "lon": -77.05142316666667, "fusion_lon": 0.0, "rental_uris": {"android": "https://dc.lft.to/lastmile_qr_scan", "ios": "https://dc.lft.to/lastmile_qr_scan"}, "bike_id": "87df64f4174accf384bc35c4de54dd02"}, {"lat": 38.900591166666665, "fusion_lat": 0.0, "is_reserved": 0, "is_disabled": 0, "type": "electric_scooter", "name": "bdf1247a971ddf998ea6f70d59f58711", "lon": -77.01404433333333, "fusion_lon": 0.0, "rental_uris": {"android": "https://dc.lft.to/lastmile_qr_scan", "ios": "https://dc.lft.to/lastmile_qr_scan"}, "bike_id": "bdf1247a971ddf998ea6f70d59f58711"}, {"lat": 38.90368133333333, "fusion_lat": 0.0, "is_reserved": 0, "is_disabled": 0, "type": "electric_scooter", "name": "1cb61f83b17cdae2ac321062f22d8883", "lon": -77.03908833333334, "fusion_lon": 0.0, "rental_uris": {"android": "https://dc.lft.to/lastmile_qr_scan", "ios": "https://dc.lft.to/lastmile_qr_scan"}, "bike_id": "1cb61f83b17cdae2ac321062f22d8883"}, {"lat": 38.914018166666665, "fusion_lat": 0.0, "is_reserved": 0, "is_disabled": 0, "type": "electric_scooter", "name": "f59a63548c2308e039f4c89bf801727f", "lon": -77.0181595, "fusion_lon": 0.0, "rental_uris": {"android": "https://dc.lft.to/lastmile_qr_scan", "ios": "https://dc.lft.to/lastmile_qr_scan"}, "bike_id": "f59a63548c2308e039f4c89bf801727f"}, {"lat": 38.967741, "fusion_lat": 0.0, "is_reserved": 0, "is_disabled": 0, "type": "electric_bike", "name": "0b18c268da5cec4adf656d5cce80acfa", "lon": -76.99655366666667, "fusion_lon": 0.0, "rental_uris": {"android": "https://dc.lft.to/lastmile_qr_scan", "ios": "https://dc.lft.to/lastmile_qr_scan"}, "bike_id": "0b18c268da5cec4adf656d5cce80acfa"}, {"lat": 38.8922225, "fusion_lat": 0.0, "is_reserved": 0, "is_disabled": 0, "type": "electric_scooter", "name": "196b7f4c25e892922e3898318783e355", "lon": -77.04686116666667, "fusion_lon": 0.0, "rental_uris": {"android": "https://dc.lft.to/lastmile_qr_scan", "ios": "https://dc.lft.to/lastmile_qr_scan"}, "bike_id": "196b7f4c25e892922e3898318783e355"}, {"lat": 38.90241483333333, "fusion_lat": 0.0, "is_reserved": 0, "is_disabled": 0, "type": "electric_scooter", "name": "e31d270589673f810245160108cf2ae5", "lon": -77.02753166666666, "fusion_lon": 0.0, "rental_uris": {"android": "https://dc.lft.to/lastmile_qr_scan", "ios": "https://dc.lft.to/lastmile_qr_scan"}, "bike_id": "e31d270589673f810245160108cf2ae5"}, {"lat": 38.93059816666667, "fusion_lat": 0.0, "is_reserved": 0, "is_disabled": 0, "type": "electric_scooter", "name": "b3362bdc3998ae927c4cc366f79ab0fb", "lon": -77.03698933333334, "fusion_lon": 0.0, "rental_uris": {"android": "https://dc.lft.to/lastmile_qr_scan", "ios": "https://dc.lft.to/lastmile_qr_scan"}, "bike_id": "b3362bdc3998ae927c4cc366f79ab0fb"}, {"lat": 38.90885266666667, "fusion_lat": 0.0, "is_reserved": 0, "is_disabled": 0, "type": "electric_scooter", "name": "226630f50d854f3de827c89f3f9e15a4", "lon": -77.04326716666667, "fusion_lon": 0.0, "rental_uris": {"android": "https://dc.lft.to/lastmile_qr_scan", "ios": "https://dc.lft.to/lastmile_qr_scan"}, "bike_id": "226630f50d854f3de827c89f3f9e15a4"}, {"lat": 38.91122333333333, "fusion_lat": 0.0, "is_reserved": 0, "is_disabled": 0, "type": "electric_scooter", "name": "64ed852d1ebfbc258af63a317d52ac9e", "lon": -76.99743683333334, "fusion_lon": 0.0, "rental_uris": {"android": "https://dc.lft.to/lastmile_qr_scan", "ios": "https://dc.lft.to/lastmile_qr_scan"}, "bike_id": "64ed852d1ebfbc258af63a317d52ac9e"}, {"lat": 38.92997183333333, "fusion_lat": 0.0, "is_reserved": 0, "is_disabled": 0, "type": "electric_scooter", "name": "ed675aa6ca372528ea48de7aac475f47", "lon": -77.03278833333333, "fusion_lon": 0.0, "rental_uris": {"android": "https://dc.lft.to/lastmile_qr_scan", "ios": "https://dc.lft.to/lastmile_qr_scan"}, "bike_id": "ed675aa6ca372528ea48de7aac475f47"}, {"lat": 38.91717366666666, "fusion_lat": 0.0, "is_reserved": 0, "is_disabled": 0, "type": "electric_scooter", "name": "6f68a33d55f8d98c0fab9d1281a0f97e", "lon": -77.02392883333333, "fusion_lon": 0.0, "rental_uris": {"android": "https://dc.lft.to/lastmile_qr_scan", "ios": "https://dc.lft.to/lastmile_qr_scan"}, "bike_id": "6f68a33d55f8d98c0fab9d1281a0f97e"}, {"lat": 38.8716085, "fusion_lat": 0.0, "is_reserved": 0, "is_disabled": 0, "type": "electric_scooter", "name": "7483a438e420def6b56e5eddee906050", "lon": -77.0136185, "fusion_lon": 0.0, "rental_uris": {"android": "https://dc.lft.to/lastmile_qr_scan", "ios": "https://dc.lft.to/lastmile_qr_scan"}, "bike_id": "7483a438e420def6b56e5eddee906050"}, {"lat": 38.88440466666667, "fusion_lat": 0.0, "is_reserved": 0, "is_disabled": 0, "type": "electric_scooter", "name": "090fe31e03ac07347b6231f2d36b5e30", "lon": -77.0292155, "fusion_lon": 0.0, "rental_uris": {"android": "https://dc.lft.to/lastmile_qr_scan", "ios": "https://dc.lft.to/lastmile_qr_scan"}, "bike_id": "090fe31e03ac07347b6231f2d36b5e30"}, {"lat": 38.9235875, "fusion_lat": 0.0, "is_reserved": 0, "is_disabled": 0, "type": "electric_scooter", "name": "5637b626f3e7f15442e45fade3a04dfa", "lon": -77.03370166666667, "fusion_lon": 0.0, "rental_uris": {"android": "https://dc.lft.to/lastmile_qr_scan", "ios": "https://dc.lft.to/lastmile_qr_scan"}, "bike_id": "5637b626f3e7f15442e45fade3a04dfa"}, {"lat": 38.8961955, "fusion_lat": 0.0, "is_reserved": 0, "is_disabled": 0, "type": "electric_scooter", "name": "30953c72ecdfe8645733904c6116265f", "lon": -77.04372216666667, "fusion_lon": 0.0, "rental_uris": {"android": "https://dc.lft.to/lastmile_qr_scan", "ios": "https://dc.lft.to/lastmile_qr_scan"}, "bike_id": "30953c72ecdfe8645733904c6116265f"}, {"lat": 38.89919616666667, "fusion_lat": 0.0, "is_reserved": 0, "is_disabled": 0, "type": "electric_scooter", "name": "3ae499b0f2bb250833dac6b692b346c9", "lon": -77.03233466666667, "fusion_lon": 0.0, "rental_uris": {"android": "https://dc.lft.to/lastmile_qr_scan", "ios": "https://dc.lft.to/lastmile_qr_scan"}, "bike_id": "3ae499b0f2bb250833dac6b692b346c9"}, {"lat": 38.90575616666667, "fusion_lat": 0.0, "is_reserved": 0, "is_disabled": 0, "type": "electric_scooter", "name": "c106d4a5c7c08714295360dc3087a325", "lon": -77.004, "fusion_lon": 0.0, "rental_uris": {"android": "https://dc.lft.to/lastmile_qr_scan", "ios": "https://dc.lft.to/lastmile_qr_scan"}, "bike_id": "c106d4a5c7c08714295360dc3087a325"}, {"lat": 38.926534833333335, "fusion_lat": 0.0, "is_reserved": 0, "is_disabled": 0, "type": "electric_scooter", "name": "2cbb9a8aa5b6ffe591d816e6f6a1d1d8", "lon": -77.0384335, "fusion_lon": 0.0, "rental_uris": {"android": "https://dc.lft.to/lastmile_qr_scan", "ios": "https://dc.lft.to/lastmile_qr_scan"}, "bike_id": "2cbb9a8aa5b6ffe591d816e6f6a1d1d8"}, {"lat": 38.897027666666666, "fusion_lat": 0.0, "is_reserved": 0, "is_disabled": 0, "type": "electric_scooter", "name": "bda2c58e648e2549bfb0f40718acb249", "lon": -76.93912016666667, "fusion_lon": 0.0, "rental_uris": {"android": "https://dc.lft.to/lastmile_qr_scan", "ios": "https://dc.lft.to/lastmile_qr_scan"}, "bike_id": "bda2c58e648e2549bfb0f40718acb249"}, {"lat": 38.97151266666667, "fusion_lat": 0.0, "is_reserved": 0, "is_disabled": 0, "type": "electric_bike", "name": "6b69f670b7160d702503e08438c60101", "lon": -76.98367483333334, "fusion_lon": 0.0, "rental_uris": {"android": "https://dc.lft.to/lastmile_qr_scan", "ios": "https://dc.lft.to/lastmile_qr_scan"}, "bike_id": "6b69f670b7160d702503e08438c60101"}, {"lat": 38.90806366666666, "fusion_lat": 0.0, "is_reserved": 0, "is_disabled": 0, "type": "electric_scooter", "name": "f4e6895710de1b27fcb334da22f0470e", "lon": -77.0422085, "fusion_lon": 0.0, "rental_uris": {"android": "https://dc.lft.to/lastmile_qr_scan", "ios": "https://dc.lft.to/lastmile_qr_scan"}, "bike_id": "f4e6895710de1b27fcb334da22f0470e"}, {"lat": 38.88663533333333, "fusion_lat": 0.0, "is_reserved": 0, "is_disabled": 0, "type": "electric_bike", "name": "6ccb3b2355fc9cdc1a0f05f65de3372a", "lon": -77.16238716666666, "fusion_lon": 0.0, "rental_uris": {"android": "https://dc.lft.to/lastmile_qr_scan", "ios": "https://dc.lft.to/lastmile_qr_scan"}, "bike_id": "6ccb3b2355fc9cdc1a0f05f65de3372a"}, {"lat": 38.92331866666667, "fusion_lat": 0.0, "is_reserved": 0, "is_disabled": 0, "type": "electric_scooter", "name": "756b1686ed66a323256bae0e2305596f", "lon": -77.0367745, "fusion_lon": 0.0, "rental_uris": {"android": "https://dc.lft.to/lastmile_qr_scan", "ios": "https://dc.lft.to/lastmile_qr_scan"}, "bike_id": "756b1686ed66a323256bae0e2305596f"}, {"lat": 38.901319666666666, "fusion_lat": 0.0, "is_reserved": 0, "is_disabled": 0, "type": "electric_scooter", "name": "861b858454a80b3ae69ab4e26c0ba376", "lon": -77.049983, "fusion_lon": 0.0, "rental_uris": {"android": "https://dc.lft.to/lastmile_qr_scan", "ios": "https://dc.lft.to/lastmile_qr_scan"}, "bike_id": "861b858454a80b3ae69ab4e26c0ba376"}, {"lat": 38.917534, "fusion_lat": 0.0, "is_reserved": 0, "is_disabled": 0, "type": "electric_scooter", "name": "af67d963b025e14ad70c029c64c86be7", "lon": -77.02120366666666, "fusion_lon": 0.0, "rental_uris": {"android": "https://dc.lft.to/lastmile_qr_scan", "ios": "https://dc.lft.to/lastmile_qr_scan"}, "bike_id": "af67d963b025e14ad70c029c64c86be7"}, {"lat": 38.94976283333333, "fusion_lat": 0.0, "is_reserved": 0, "is_disabled": 0, "type": "electric_scooter", "name": "04fec015b2e068e84e9f1e096c66eaf4", "lon": -77.02432133333333, "fusion_lon": 0.0, "rental_uris": {"android": "https://dc.lft.to/lastmile_qr_scan", "ios": "https://dc.lft.to/lastmile_qr_scan"}, "bike_id": "04fec015b2e068e84e9f1e096c66eaf4"}, {"lat": 38.9265055, "fusion_lat": 0.0, "is_reserved": 0, "is_disabled": 0, "type": "electric_bike", "name": "185789ddf0a8516507d4c060a86bfc84", "lon": -77.090225, "fusion_lon": 0.0, "rental_uris": {"android": "https://dc.lft.to/lastmile_qr_scan", "ios": "https://dc.lft.to/lastmile_qr_scan"}, "bike_id": "185789ddf0a8516507d4c060a86bfc84"}, {"lat": 38.910222833333336, "fusion_lat": 0.0, "is_reserved": 0, "is_disabled": 0, "type": "electric_scooter", "name": "1d4823f897ba9d86443cd21244af9fba", "lon": -77.04667533333334, "fusion_lon": 0.0, "rental_uris": {"android": "https://dc.lft.to/lastmile_qr_scan", "ios": "https://dc.lft.to/lastmile_qr_scan"}, "bike_id": "1d4823f897ba9d86443cd21244af9fba"}, {"lat": 38.883939166666664, "fusion_lat": 0.0, "is_reserved": 0, "is_disabled": 0, "type": "electric_bike", "name": "434ffba6962967529245d07130242cbe", "lon": -77.02982783333333, "fusion_lon": 0.0, "rental_uris": {"android": "https://dc.lft.to/lastmile_qr_scan", "ios": "https://dc.lft.to/lastmile_qr_scan"}, "bike_id": "434ffba6962967529245d07130242cbe"}, {"lat": 38.911570166666664, "fusion_lat": 0.0, "is_reserved": 0, "is_disabled": 0, "type": "electric_scooter", "name": "66d637230164786cb8fa6de170cf85eb", "lon": -77.01080766666666, "fusion_lon": 0.0, "rental_uris": {"android": "https://dc.lft.to/lastmile_qr_scan", "ios": "https://dc.lft.to/lastmile_qr_scan"}, "bike_id": "66d637230164786cb8fa6de170cf85eb"}, {"lat": 38.91791583333333, "fusion_lat": 0.0, "is_reserved": 0, "is_disabled": 0, "type": "electric_scooter", "name": "422ef9ae111e828cb0d086e592ce9b67", "lon": -77.02312633333334, "fusion_lon": 0.0, "rental_uris": {"android": "https://dc.lft.to/lastmile_qr_scan", "ios": "https://dc.lft.to/lastmile_qr_scan"}, "bike_id": "422ef9ae111e828cb0d086e592ce9b67"}, {"lat": 38.8803645, "fusion_lat": 0.0, "is_reserved": 0, "is_disabled": 0, "type": "electric_scooter", "name": "368675f0a0d8c9344cb25d574e87674c", "lon": -76.9272355, "fusion_lon": 0.0, "rental_uris": {"android": "https://dc.lft.to/lastmile_qr_scan", "ios": "https://dc.lft.to/lastmile_qr_scan"}, "bike_id": "368675f0a0d8c9344cb25d574e87674c"}, {"lat": 38.901878333333336, "fusion_lat": 0.0, "is_reserved": 0, "is_disabled": 0, "type": "electric_scooter", "name": "bdf9ce26d6f29ce0ec076a6aa8803c43", "lon": -77.0217145, "fusion_lon": 0.0, "rental_uris": {"android": "https://dc.lft.to/lastmile_qr_scan", "ios": "https://dc.lft.to/lastmile_qr_scan"}, "bike_id": "bdf9ce26d6f29ce0ec076a6aa8803c43"}, {"lat": 38.9569905, "fusion_lat": 0.0, "is_reserved": 0, "is_disabled": 0, "type": "electric_bike", "name": "dab6ff4f0c22f580a6e913236e27241e", "lon": -77.0223115, "fusion_lon": 0.0, "rental_uris": {"android": "https://dc.lft.to/lastmile_qr_scan", "ios": "https://dc.lft.to/lastmile_qr_scan"}, "bike_id": "dab6ff4f0c22f580a6e913236e27241e"}, {"lat": 38.915817, "fusion_lat": 0.0, "is_reserved": 0, "is_disabled": 0, "type": "electric_scooter", "name": "612d02d7793ef1a6fe9681d6350e29b5", "lon": -77.03210233333333, "fusion_lon": 0.0, "rental_uris": {"android": "https://dc.lft.to/lastmile_qr_scan", "ios": "https://dc.lft.to/lastmile_qr_scan"}, "bike_id": "612d02d7793ef1a6fe9681d6350e29b5"}, {"lat": 38.956871666666665, "fusion_lat": 0.0, "is_reserved": 0, "is_disabled": 0, "type": "electric_scooter", "name": "1ac1848e2ff6023652ac136e1f32cd8e", "lon": -77.02235666666667, "fusion_lon": 0.0, "rental_uris": {"android": "https://dc.lft.to/lastmile_qr_scan", "ios": "https://dc.lft.to/lastmile_qr_scan"}, "bike_id": "1ac1848e2ff6023652ac136e1f32cd8e"}, {"lat": 38.9126155, "fusion_lat": 0.0, "is_reserved": 0, "is_disabled": 0, "type": "electric_scooter", "name": "b14f73516e93a7433a8bdc82cc3313c2", "lon": -77.01905683333334, "fusion_lon": 0.0, "rental_uris": {"android": "https://dc.lft.to/lastmile_qr_scan", "ios": "https://dc.lft.to/lastmile_qr_scan"}, "bike_id": "b14f73516e93a7433a8bdc82cc3313c2"}, {"lat": 38.90540333333333, "fusion_lat": 0.0, "is_reserved": 0, "is_disabled": 0, "type": "electric_scooter", "name": "a5b04adc01e07d5e30a2b1e9001c8fa6", "lon": -77.04197516666666, "fusion_lon": 0.0, "rental_uris": {"android": "https://dc.lft.to/lastmile_qr_scan", "ios": "https://dc.lft.to/lastmile_qr_scan"}, "bike_id": "a5b04adc01e07d5e30a2b1e9001c8fa6"}, {"lat": 38.957328, "fusion_lat": 0.0, "is_reserved": 0, "is_disabled": 0, "type": "electric_scooter", "name": "42e11e26e7a4aa77bc427748e0c3adc5", "lon": -77.024029, "fusion_lon": 0.0, "rental_uris": {"android": "https://dc.lft.to/lastmile_qr_scan", "ios": "https://dc.lft.to/lastmile_qr_scan"}, "bike_id": "42e11e26e7a4aa77bc427748e0c3adc5"}, {"lat": 38.94968716666666, "fusion_lat": 0.0, "is_reserved": 0, "is_disabled": 0, "type": "electric_scooter", "name": "9bea0aaba1c605d70e9b9a0fd02346bf", "lon": -77.06757416666666, "fusion_lon": 0.0, "rental_uris": {"android": "https://dc.lft.to/lastmile_qr_scan", "ios": "https://dc.lft.to/lastmile_qr_scan"}, "bike_id": "9bea0aaba1c605d70e9b9a0fd02346bf"}, {"lat": 38.925733, "fusion_lat": 0.0, "is_reserved": 0, "is_disabled": 0, "type": "electric_scooter", "name": "934ed35a8c7fec6920868fe23a2c64f5", "lon": -77.02287233333334, "fusion_lon": 0.0, "rental_uris": {"android": "https://dc.lft.to/lastmile_qr_scan", "ios": "https://dc.lft.to/lastmile_qr_scan"}, "bike_id": "934ed35a8c7fec6920868fe23a2c64f5"}, {"lat": 38.91419633333334, "fusion_lat": 0.0, "is_reserved": 0, "is_disabled": 0, "type": "electric_scooter", "name": "89e1539a08dfaecf9eeb998252b70336", "lon": -77.03173733333334, "fusion_lon": 0.0, "rental_uris": {"android": "https://dc.lft.to/lastmile_qr_scan", "ios": "https://dc.lft.to/lastmile_qr_scan"}, "bike_id": "89e1539a08dfaecf9eeb998252b70336"}, {"lat": 38.931688, "fusion_lat": 0.0, "is_reserved": 0, "is_disabled": 0, "type": "electric_scooter", "name": "a60751f8e74e10a276335ee082daf843", "lon": -77.03673866666666, "fusion_lon": 0.0, "rental_uris": {"android": "https://dc.lft.to/lastmile_qr_scan", "ios": "https://dc.lft.to/lastmile_qr_scan"}, "bike_id": "a60751f8e74e10a276335ee082daf843"}, {"lat": 38.892284, "fusion_lat": 0.0, "is_reserved": 0, "is_disabled": 0, "type": "electric_scooter", "name": "1b40aa19adaf9d02da1f04a61df8de36", "lon": -77.02805783333334, "fusion_lon": 0.0, "rental_uris": {"android": "https://dc.lft.to/lastmile_qr_scan", "ios": "https://dc.lft.to/lastmile_qr_scan"}, "bike_id": "1b40aa19adaf9d02da1f04a61df8de36"}, {"lat": 38.827724833333335, "fusion_lat": 0.0, "is_reserved": 0, "is_disabled": 0, "type": "electric_bike", "name": "b1738186dbdaaf8cb037579f19d54b62", "lon": -77.0601765, "fusion_lon": 0.0, "rental_uris": {"android": "https://dc.lft.to/lastmile_qr_scan", "ios": "https://dc.lft.to/lastmile_qr_scan"}, "bike_id": "b1738186dbdaaf8cb037579f19d54b62"}, {"lat": 38.92061616666667, "fusion_lat": 0.0, "is_reserved": 0, "is_disabled": 0, "type": "electric_scooter", "name": "081822ef6ba6b966a54ea50b54f1b00c", "lon": -77.02838933333334, "fusion_lon": 0.0, "rental_uris": {"android": "https://dc.lft.to/lastmile_qr_scan", "ios": "https://dc.lft.to/lastmile_qr_scan"}, "bike_id": "081822ef6ba6b966a54ea50b54f1b00c"}, {"lat": 38.88179066666667, "fusion_lat": 0.0, "is_reserved": 0, "is_disabled": 0, "type": "electric_scooter", "name": "349653b55b40cc1c2a11a1a9d50d5f98", "lon": -77.0373875, "fusion_lon": 0.0, "rental_uris": {"android": "https://dc.lft.to/lastmile_qr_scan", "ios": "https://dc.lft.to/lastmile_qr_scan"}, "bike_id": "349653b55b40cc1c2a11a1a9d50d5f98"}, {"lat": 38.8999, "fusion_lat": 0.0, "is_reserved": 0, "is_disabled": 0, "type": "electric_scooter", "name": "fedb06d68129c43d36d561de2623176a", "lon": -77.02673216666666, "fusion_lon": 0.0, "rental_uris": {"android": "https://dc.lft.to/lastmile_qr_scan", "ios": "https://dc.lft.to/lastmile_qr_scan"}, "bike_id": "fedb06d68129c43d36d561de2623176a"}, {"lat": 38.86215633333333, "fusion_lat": 0.0, "is_reserved": 0, "is_disabled": 0, "type": "electric_scooter", "name": "8f215f0c7b16cf2f5eb562a56bbe267a", "lon": -76.99477133333333, "fusion_lon": 0.0, "rental_uris": {"android": "https://dc.lft.to/lastmile_qr_scan", "ios": "https://dc.lft.to/lastmile_qr_scan"}, "bike_id": "8f215f0c7b16cf2f5eb562a56bbe267a"}, {"lat": 38.89410066666667, "fusion_lat": 0.0, "is_reserved": 0, "is_disabled": 0, "type": "electric_scooter", "name": "08e20fb035571f0409de4548b5522687", "lon": -77.03381916666666, "fusion_lon": 0.0, "rental_uris": {"android": "https://dc.lft.to/lastmile_qr_scan", "ios": "https://dc.lft.to/lastmile_qr_scan"}, "bike_id": "08e20fb035571f0409de4548b5522687"}, {"lat": 38.91929916666667, "fusion_lat": 0.0, "is_reserved": 0, "is_disabled": 0, "type": "electric_scooter", "name": "b05cd9f0d366263cea21de11e5845e50", "lon": -77.01365633333333, "fusion_lon": 0.0, "rental_uris": {"android": "https://dc.lft.to/lastmile_qr_scan", "ios": "https://dc.lft.to/lastmile_qr_scan"}, "bike_id": "b05cd9f0d366263cea21de11e5845e50"}, {"lat": 38.903483666666666, "fusion_lat": 0.0, "is_reserved": 0, "is_disabled": 0, "type": "electric_scooter", "name": "3aed38855bca8fbf02ebe51475329607", "lon": -77.03851733333333, "fusion_lon": 0.0, "rental_uris": {"android": "https://dc.lft.to/lastmile_qr_scan", "ios": "https://dc.lft.to/lastmile_qr_scan"}, "bike_id": "3aed38855bca8fbf02ebe51475329607"}, {"lat": 38.918523, "fusion_lat": 0.0, "is_reserved": 0, "is_disabled": 0, "type": "electric_scooter", "name": "3098290d0523c3edf0b8794e0c5bd630", "lon": -76.96089533333334, "fusion_lon": 0.0, "rental_uris": {"android": "https://dc.lft.to/lastmile_qr_scan", "ios": "https://dc.lft.to/lastmile_qr_scan"}, "bike_id": "3098290d0523c3edf0b8794e0c5bd630"}, {"lat": 38.892567666666665, "fusion_lat": 0.0, "is_reserved": 0, "is_disabled": 0, "type": "electric_scooter", "name": "9618c42f240dcd3abe2168cfbee484eb", "lon": -76.92557983333333, "fusion_lon": 0.0, "rental_uris": {"android": "https://dc.lft.to/lastmile_qr_scan", "ios": "https://dc.lft.to/lastmile_qr_scan"}, "bike_id": "9618c42f240dcd3abe2168cfbee484eb"}, {"lat": 38.92199466666667, "fusion_lat": 0.0, "is_reserved": 0, "is_disabled": 0, "type": "electric_scooter", "name": "be677ccb1ceae927f107c41981eaf44e", "lon": -77.02212216666666, "fusion_lon": 0.0, "rental_uris": {"android": "https://dc.lft.to/lastmile_qr_scan", "ios": "https://dc.lft.to/lastmile_qr_scan"}, "bike_id": "be677ccb1ceae927f107c41981eaf44e"}, {"lat": 38.8770285, "fusion_lat": 0.0, "is_reserved": 0, "is_disabled": 0, "type": "electric_scooter", "name": "76f6b9cc5e07494c7c6eb9c2f2352f6f", "lon": -77.01768116666666, "fusion_lon": 0.0, "rental_uris": {"android": "https://dc.lft.to/lastmile_qr_scan", "ios": "https://dc.lft.to/lastmile_qr_scan"}, "bike_id": "76f6b9cc5e07494c7c6eb9c2f2352f6f"}, {"lat": 38.87859533333334, "fusion_lat": 0.0, "is_reserved": 0, "is_disabled": 0, "type": "electric_scooter", "name": "83bb628cf7ba99066ccc448c00915076", "lon": -77.01877216666666, "fusion_lon": 0.0, "rental_uris": {"android": "https://dc.lft.to/lastmile_qr_scan", "ios": "https://dc.lft.to/lastmile_qr_scan"}, "bike_id": "83bb628cf7ba99066ccc448c00915076"}, {"lat": 38.95922233333334, "fusion_lat": 0.0, "is_reserved": 0, "is_disabled": 0, "type": "electric_bike", "name": "c04ea70e136f2176b1f1ac86cb06978e", "lon": -76.92524116666667, "fusion_lon": 0.0, "rental_uris": {"android": "https://dc.lft.to/lastmile_qr_scan", "ios": "https://dc.lft.to/lastmile_qr_scan"}, "bike_id": "c04ea70e136f2176b1f1ac86cb06978e"}, {"lat": 38.89273416666666, "fusion_lat": 0.0, "is_reserved": 0, "is_disabled": 0, "type": "electric_scooter", "name": "cac114ddde3a4747bcc636dadd13cd49", "lon": -77.04661783333333, "fusion_lon": 0.0, "rental_uris": {"android": "https://dc.lft.to/lastmile_qr_scan", "ios": "https://dc.lft.to/lastmile_qr_scan"}, "bike_id": "cac114ddde3a4747bcc636dadd13cd49"}, {"lat": 38.90893616666666, "fusion_lat": 0.0, "is_reserved": 0, "is_disabled": 0, "type": "electric_scooter", "name": "a6182f5a1c417a83385bee5655afb82b", "lon": -77.02299133333334, "fusion_lon": 0.0, "rental_uris": {"android": "https://dc.lft.to/lastmile_qr_scan", "ios": "https://dc.lft.to/lastmile_qr_scan"}, "bike_id": "a6182f5a1c417a83385bee5655afb82b"}, {"lat": 38.916237833333334, "fusion_lat": 0.0, "is_reserved": 0, "is_disabled": 0, "type": "electric_scooter", "name": "52d90db7e54ca4c27a080ce1d9c5ab74", "lon": -77.03888083333334, "fusion_lon": 0.0, "rental_uris": {"android": "https://dc.lft.to/lastmile_qr_scan", "ios": "https://dc.lft.to/lastmile_qr_scan"}, "bike_id": "52d90db7e54ca4c27a080ce1d9c5ab74"}, {"lat": 38.85240833333334, "fusion_lat": 0.0, "is_reserved": 0, "is_disabled": 0, "type": "electric_bike", "name": "2b4d17608dee47b0bfe986cf72636a2a", "lon": -77.10710066666667, "fusion_lon": 0.0, "rental_uris": {"android": "https://dc.lft.to/lastmile_qr_scan", "ios": "https://dc.lft.to/lastmile_qr_scan"}, "bike_id": "2b4d17608dee47b0bfe986cf72636a2a"}, {"lat": 38.92856883333333, "fusion_lat": 0.0, "is_reserved": 0, "is_disabled": 0, "type": "electric_scooter", "name": "29008f2e73c316e16a48eac2d6e98291", "lon": -77.0139175, "fusion_lon": 0.0, "rental_uris": {"android": "https://dc.lft.to/lastmile_qr_scan", "ios": "https://dc.lft.to/lastmile_qr_scan"}, "bike_id": "29008f2e73c316e16a48eac2d6e98291"}, {"lat": 38.944425, "fusion_lat": 0.0, "is_reserved": 0, "is_disabled": 0, "type": "electric_scooter", "name": "ff381bf8fa412da3ace3e565cc8226f7", "lon": -77.06357633333333, "fusion_lon": 0.0, "rental_uris": {"android": "https://dc.lft.to/lastmile_qr_scan", "ios": "https://dc.lft.to/lastmile_qr_scan"}, "bike_id": "ff381bf8fa412da3ace3e565cc8226f7"}, {"lat": 38.92061066666667, "fusion_lat": 0.0, "is_reserved": 0, "is_disabled": 0, "type": "electric_bike", "name": "cbbb87f5c68d1f1007f38d621cd05f58", "lon": -76.97079316666667, "fusion_lon": 0.0, "rental_uris": {"android": "https://dc.lft.to/lastmile_qr_scan", "ios": "https://dc.lft.to/lastmile_qr_scan"}, "bike_id": "cbbb87f5c68d1f1007f38d621cd05f58"}, {"lat": 38.927261, "fusion_lat": 0.0, "is_reserved": 0, "is_disabled": 0, "type": "electric_scooter", "name": "e578ce614b182ab410fa0fa154dcb510", "lon": -77.051477, "fusion_lon": 0.0, "rental_uris": {"android": "https://dc.lft.to/lastmile_qr_scan", "ios": "https://dc.lft.to/lastmile_qr_scan"}, "bike_id": "e578ce614b182ab410fa0fa154dcb510"}, {"lat": 38.899970833333334, "fusion_lat": 0.0, "is_reserved": 0, "is_disabled": 0, "type": "electric_scooter", "name": "fc9b3d6d20cb9f9de634ca0665a5f0b6", "lon": -77.02707383333333, "fusion_lon": 0.0, "rental_uris": {"android": "https://dc.lft.to/lastmile_qr_scan", "ios": "https://dc.lft.to/lastmile_qr_scan"}, "bike_id": "fc9b3d6d20cb9f9de634ca0665a5f0b6"}, {"lat": 38.86369716666667, "fusion_lat": 0.0, "is_reserved": 0, "is_disabled": 0, "type": "electric_scooter", "name": "49499bcc1ffbd08fbb78b8f198fdce0f", "lon": -77.01367683333334, "fusion_lon": 0.0, "rental_uris": {"android": "https://dc.lft.to/lastmile_qr_scan", "ios": "https://dc.lft.to/lastmile_qr_scan"}, "bike_id": "49499bcc1ffbd08fbb78b8f198fdce0f"}, {"lat": 38.91796683333333, "fusion_lat": 0.0, "is_reserved": 0, "is_disabled": 0, "type": "electric_scooter", "name": "82f343d2fdd8754a1741dc5564ba3962", "lon": -77.02815716666667, "fusion_lon": 0.0, "rental_uris": {"android": "https://dc.lft.to/lastmile_qr_scan", "ios": "https://dc.lft.to/lastmile_qr_scan"}, "bike_id": "82f343d2fdd8754a1741dc5564ba3962"}, {"lat": 38.94723533333333, "fusion_lat": 0.0, "is_reserved": 0, "is_disabled": 0, "type": "electric_scooter", "name": "a45cac71eb78b690d4f1b0c29a626c14", "lon": -77.02359566666667, "fusion_lon": 0.0, "rental_uris": {"android": "https://dc.lft.to/lastmile_qr_scan", "ios": "https://dc.lft.to/lastmile_qr_scan"}, "bike_id": "a45cac71eb78b690d4f1b0c29a626c14"}, {"lat": 38.896216833333334, "fusion_lat": 0.0, "is_reserved": 0, "is_disabled": 0, "type": "electric_scooter", "name": "8d70e1bf9573a82b2e253bf775ccb62f", "lon": -77.0251975, "fusion_lon": 0.0, "rental_uris": {"android": "https://dc.lft.to/lastmile_qr_scan", "ios": "https://dc.lft.to/lastmile_qr_scan"}, "bike_id": "8d70e1bf9573a82b2e253bf775ccb62f"}, {"lat": 38.92963866666667, "fusion_lat": 0.0, "is_reserved": 0, "is_disabled": 0, "type": "electric_scooter", "name": "f709b475f4628a15976d48812fca79c2", "lon": -77.04205283333333, "fusion_lon": 0.0, "rental_uris": {"android": "https://dc.lft.to/lastmile_qr_scan", "ios": "https://dc.lft.to/lastmile_qr_scan"}, "bike_id": "f709b475f4628a15976d48812fca79c2"}, {"lat": 38.90161283333333, "fusion_lat": 0.0, "is_reserved": 0, "is_disabled": 0, "type": "electric_scooter", "name": "b54ffbf1932f3b27fb6049d71274900e", "lon": -77.046728, "fusion_lon": 0.0, "rental_uris": {"android": "https://dc.lft.to/lastmile_qr_scan", "ios": "https://dc.lft.to/lastmile_qr_scan"}, "bike_id": "b54ffbf1932f3b27fb6049d71274900e"}, {"lat": 38.90852666666667, "fusion_lat": 0.0, "is_reserved": 0, "is_disabled": 0, "type": "electric_scooter", "name": "8216604ec97aa79c74c3c742f6f30454", "lon": -77.04831783333333, "fusion_lon": 0.0, "rental_uris": {"android": "https://dc.lft.to/lastmile_qr_scan", "ios": "https://dc.lft.to/lastmile_qr_scan"}, "bike_id": "8216604ec97aa79c74c3c742f6f30454"}, {"lat": 38.9122885, "fusion_lat": 0.0, "is_reserved": 0, "is_disabled": 0, "type": "electric_scooter", "name": "2facf91c8fa2a47746be98b68399f75e", "lon": -77.07751766666667, "fusion_lon": 0.0, "rental_uris": {"android": "https://dc.lft.to/lastmile_qr_scan", "ios": "https://dc.lft.to/lastmile_qr_scan"}, "bike_id": "2facf91c8fa2a47746be98b68399f75e"}, {"lat": 38.917537333333335, "fusion_lat": 0.0, "is_reserved": 0, "is_disabled": 0, "type": "electric_scooter", "name": "11484c06bd4eaea85f2e75eb863a75b7", "lon": -77.02395516666667, "fusion_lon": 0.0, "rental_uris": {"android": "https://dc.lft.to/lastmile_qr_scan", "ios": "https://dc.lft.to/lastmile_qr_scan"}, "bike_id": "11484c06bd4eaea85f2e75eb863a75b7"}, {"lat": 38.901892833333335, "fusion_lat": 0.0, "is_reserved": 0, "is_disabled": 0, "type": "electric_scooter", "name": "357ab31bba1b2976b5c91dbaca332785", "lon": -77.0508485, "fusion_lon": 0.0, "rental_uris": {"android": "https://dc.lft.to/lastmile_qr_scan", "ios": "https://dc.lft.to/lastmile_qr_scan"}, "bike_id": "357ab31bba1b2976b5c91dbaca332785"}, {"lat": 38.913530333333334, "fusion_lat": 0.0, "is_reserved": 0, "is_disabled": 0, "type": "electric_scooter", "name": "5e3ad399e32a303f30be5b079013230d", "lon": -77.03213933333333, "fusion_lon": 0.0, "rental_uris": {"android": "https://dc.lft.to/lastmile_qr_scan", "ios": "https://dc.lft.to/lastmile_qr_scan"}, "bike_id": "5e3ad399e32a303f30be5b079013230d"}, {"lat": 38.917848, "fusion_lat": 0.0, "is_reserved": 0, "is_disabled": 0, "type": "electric_scooter", "name": "729dca9a052a385fa04e6fbf2be30567", "lon": -77.02477983333333, "fusion_lon": 0.0, "rental_uris": {"android": "https://dc.lft.to/lastmile_qr_scan", "ios": "https://dc.lft.to/lastmile_qr_scan"}, "bike_id": "729dca9a052a385fa04e6fbf2be30567"}, {"lat": 38.906134, "fusion_lat": 0.0, "is_reserved": 0, "is_disabled": 0, "type": "electric_scooter", "name": "3055ddb6fcada56c39a9cb6071b522ac", "lon": -76.9780475, "fusion_lon": 0.0, "rental_uris": {"android": "https://dc.lft.to/lastmile_qr_scan", "ios": "https://dc.lft.to/lastmile_qr_scan"}, "bike_id": "3055ddb6fcada56c39a9cb6071b522ac"}, {"lat": 38.9073145, "fusion_lat": 0.0, "is_reserved": 0, "is_disabled": 0, "type": "electric_scooter", "name": "517578f1de42806fe1e033561ed69963", "lon": -77.04510183333333, "fusion_lon": 0.0, "rental_uris": {"android": "https://dc.lft.to/lastmile_qr_scan", "ios": "https://dc.lft.to/lastmile_qr_scan"}, "bike_id": "517578f1de42806fe1e033561ed69963"}, {"lat": 38.88398516666667, "fusion_lat": 0.0, "is_reserved": 0, "is_disabled": 0, "type": "electric_scooter", "name": "e76452705f023508d68fd1e3633a3ff1", "lon": -76.930381, "fusion_lon": 0.0, "rental_uris": {"android": "https://dc.lft.to/lastmile_qr_scan", "ios": "https://dc.lft.to/lastmile_qr_scan"}, "bike_id": "e76452705f023508d68fd1e3633a3ff1"}, {"lat": 38.90972033333333, "fusion_lat": 0.0, "is_reserved": 0, "is_disabled": 0, "type": "electric_scooter", "name": "a16f630c5114e58de2307febbf281945", "lon": -77.02414583333334, "fusion_lon": 0.0, "rental_uris": {"android": "https://dc.lft.to/lastmile_qr_scan", "ios": "https://dc.lft.to/lastmile_qr_scan"}, "bike_id": "a16f630c5114e58de2307febbf281945"}, {"lat": 38.9246795, "fusion_lat": 0.0, "is_reserved": 0, "is_disabled": 0, "type": "electric_scooter", "name": "5f9d9a0cc6820acace1217c32926ea06", "lon": -77.02213233333333, "fusion_lon": 0.0, "rental_uris": {"android": "https://dc.lft.to/lastmile_qr_scan", "ios": "https://dc.lft.to/lastmile_qr_scan"}, "bike_id": "5f9d9a0cc6820acace1217c32926ea06"}, {"lat": 38.90581566666667, "fusion_lat": 0.0, "is_reserved": 0, "is_disabled": 0, "type": "electric_scooter", "name": "c046c2e87d6da93419e21e432f9221eb", "lon": -77.00264083333333, "fusion_lon": 0.0, "rental_uris": {"android": "https://dc.lft.to/lastmile_qr_scan", "ios": "https://dc.lft.to/lastmile_qr_scan"}, "bike_id": "c046c2e87d6da93419e21e432f9221eb"}, {"lat": 38.883730666666665, "fusion_lat": 0.0, "is_reserved": 0, "is_disabled": 0, "type": "electric_bike", "name": "cf1f0b66fedb563e63863306f530f113", "lon": -76.92374816666667, "fusion_lon": 0.0, "rental_uris": {"android": "https://dc.lft.to/lastmile_qr_scan", "ios": "https://dc.lft.to/lastmile_qr_scan"}, "bike_id": "cf1f0b66fedb563e63863306f530f113"}, {"lat": 38.905892, "fusion_lat": 0.0, "is_reserved": 0, "is_disabled": 0, "type": "electric_scooter", "name": "e26a3c7ce4c049aa078d00f91d1cedd0", "lon": -77.0218425, "fusion_lon": 0.0, "rental_uris": {"android": "https://dc.lft.to/lastmile_qr_scan", "ios": "https://dc.lft.to/lastmile_qr_scan"}, "bike_id": "e26a3c7ce4c049aa078d00f91d1cedd0"}, {"lat": 38.859122166666666, "fusion_lat": 0.0, "is_reserved": 0, "is_disabled": 0, "type": "electric_bike", "name": "9979e7a3b656e2f6d1b1af9d90934829", "lon": -77.09567966666667, "fusion_lon": 0.0, "rental_uris": {"android": "https://dc.lft.to/lastmile_qr_scan", "ios": "https://dc.lft.to/lastmile_qr_scan"}, "bike_id": "9979e7a3b656e2f6d1b1af9d90934829"}, {"lat": 38.95703, "fusion_lat": 0.0, "is_reserved": 0, "is_disabled": 0, "type": "electric_bike", "name": "a0b87d1d9d5f0d927ae6c1850bebae1c", "lon": -77.3597455, "fusion_lon": 0.0, "rental_uris": {"android": "https://dc.lft.to/lastmile_qr_scan", "ios": "https://dc.lft.to/lastmile_qr_scan"}, "bike_id": "a0b87d1d9d5f0d927ae6c1850bebae1c"}, {"lat": 38.903746, "fusion_lat": 0.0, "is_reserved": 0, "is_disabled": 0, "type": "electric_scooter", "name": "efbb841a22979f55562d70379bbbff5a", "lon": -77.0364725, "fusion_lon": 0.0, "rental_uris": {"android": "https://dc.lft.to/lastmile_qr_scan", "ios": "https://dc.lft.to/lastmile_qr_scan"}, "bike_id": "efbb841a22979f55562d70379bbbff5a"}, {"lat": 38.9036255, "fusion_lat": 0.0, "is_reserved": 0, "is_disabled": 0, "type": "electric_scooter", "name": "e3d6469936d1764a78e93d1525b53c64", "lon": -77.03774566666667, "fusion_lon": 0.0, "rental_uris": {"android": "https://dc.lft.to/lastmile_qr_scan", "ios": "https://dc.lft.to/lastmile_qr_scan"}, "bike_id": "e3d6469936d1764a78e93d1525b53c64"}, {"lat": 38.908783, "fusion_lat": 0.0, "is_reserved": 0, "is_disabled": 0, "type": "electric_scooter", "name": "4fd955ce794aa4860b29ae13602c7c40", "lon": -77.04048516666667, "fusion_lon": 0.0, "rental_uris": {"android": "https://dc.lft.to/lastmile_qr_scan", "ios": "https://dc.lft.to/lastmile_qr_scan"}, "bike_id": "4fd955ce794aa4860b29ae13602c7c40"}, {"lat": 39.0843205, "fusion_lat": 0.0, "is_reserved": 0, "is_disabled": 0, "type": "electric_bike", "name": "085f25d7cd23248d5bb4b324ab4f2f55", "lon": -76.95145066666667, "fusion_lon": 0.0, "rental_uris": {"android": "https://dc.lft.to/lastmile_qr_scan", "ios": "https://dc.lft.to/lastmile_qr_scan"}, "bike_id": "085f25d7cd23248d5bb4b324ab4f2f55"}, {"lat": 38.887739833333335, "fusion_lat": 0.0, "is_reserved": 0, "is_disabled": 0, "type": "electric_scooter", "name": "90043144cfc020bd704de18e6e350262", "lon": -76.93262383333334, "fusion_lon": 0.0, "rental_uris": {"android": "https://dc.lft.to/lastmile_qr_scan", "ios": "https://dc.lft.to/lastmile_qr_scan"}, "bike_id": "90043144cfc020bd704de18e6e350262"}, {"lat": 38.90117166666667, "fusion_lat": 0.0, "is_reserved": 0, "is_disabled": 0, "type": "electric_scooter", "name": "9c89486b21496e2147fa2b472808652a", "lon": -77.04036316666667, "fusion_lon": 0.0, "rental_uris": {"android": "https://dc.lft.to/lastmile_qr_scan", "ios": "https://dc.lft.to/lastmile_qr_scan"}, "bike_id": "9c89486b21496e2147fa2b472808652a"}, {"lat": 38.878592166666664, "fusion_lat": 0.0, "is_reserved": 0, "is_disabled": 0, "type": "electric_scooter", "name": "5381bc96f25578768e467b3c67972ac8", "lon": -77.01774733333333, "fusion_lon": 0.0, "rental_uris": {"android": "https://dc.lft.to/lastmile_qr_scan", "ios": "https://dc.lft.to/lastmile_qr_scan"}, "bike_id": "5381bc96f25578768e467b3c67972ac8"}, {"lat": 38.87066266666667, "fusion_lat": 0.0, "is_reserved": 0, "is_disabled": 0, "type": "electric_bike", "name": "c6e863e60264c85ab94a60881ad9b732", "lon": -77.11041816666666, "fusion_lon": 0.0, "rental_uris": {"android": "https://dc.lft.to/lastmile_qr_scan", "ios": "https://dc.lft.to/lastmile_qr_scan"}, "bike_id": "c6e863e60264c85ab94a60881ad9b732"}, {"lat": 38.919753666666665, "fusion_lat": 0.0, "is_reserved": 0, "is_disabled": 0, "type": "electric_scooter", "name": "cee4ed216f0eb6de2f69b838dc1672e0", "lon": -77.0464505, "fusion_lon": 0.0, "rental_uris": {"android": "https://dc.lft.to/lastmile_qr_scan", "ios": "https://dc.lft.to/lastmile_qr_scan"}, "bike_id": "cee4ed216f0eb6de2f69b838dc1672e0"}, {"lat": 38.923862166666666, "fusion_lat": 0.0, "is_reserved": 0, "is_disabled": 0, "type": "electric_scooter", "name": "12b603ddca8613983d1ac8ad3df8ecf3", "lon": -77.043145, "fusion_lon": 0.0, "rental_uris": {"android": "https://dc.lft.to/lastmile_qr_scan", "ios": "https://dc.lft.to/lastmile_qr_scan"}, "bike_id": "12b603ddca8613983d1ac8ad3df8ecf3"}, {"lat": 38.937455166666666, "fusion_lat": 0.0, "is_reserved": 0, "is_disabled": 0, "type": "electric_scooter", "name": "2ef30f2e19e54c3edc37d357e73d11c5", "lon": -77.03437, "fusion_lon": 0.0, "rental_uris": {"android": "https://dc.lft.to/lastmile_qr_scan", "ios": "https://dc.lft.to/lastmile_qr_scan"}, "bike_id": "2ef30f2e19e54c3edc37d357e73d11c5"}, {"lat": 38.899407333333336, "fusion_lat": 0.0, "is_reserved": 0, "is_disabled": 0, "type": "electric_scooter", "name": "ec04fe0ecf8dceef44c18a3f57b66c7d", "lon": -77.02804266666666, "fusion_lon": 0.0, "rental_uris": {"android": "https://dc.lft.to/lastmile_qr_scan", "ios": "https://dc.lft.to/lastmile_qr_scan"}, "bike_id": "ec04fe0ecf8dceef44c18a3f57b66c7d"}, {"lat": 38.868312333333336, "fusion_lat": 0.0, "is_reserved": 0, "is_disabled": 0, "type": "electric_bike", "name": "7d4d0ba2fe7e56000fc4d4adedd7f982", "lon": -76.98015633333333, "fusion_lon": 0.0, "rental_uris": {"android": "https://dc.lft.to/lastmile_qr_scan", "ios": "https://dc.lft.to/lastmile_qr_scan"}, "bike_id": "7d4d0ba2fe7e56000fc4d4adedd7f982"}, {"lat": 38.92712316666667, "fusion_lat": 0.0, "is_reserved": 0, "is_disabled": 0, "type": "electric_scooter", "name": "6643d2d70c14439f0107c76cec333967", "lon": -77.05997583333334, "fusion_lon": 0.0, "rental_uris": {"android": "https://dc.lft.to/lastmile_qr_scan", "ios": "https://dc.lft.to/lastmile_qr_scan"}, "bike_id": "6643d2d70c14439f0107c76cec333967"}, {"lat": 38.901323, "fusion_lat": 0.0, "is_reserved": 0, "is_disabled": 0, "type": "electric_scooter", "name": "fa3785331f701ba593540efb852e17cf", "lon": -77.029431, "fusion_lon": 0.0, "rental_uris": {"android": "https://dc.lft.to/lastmile_qr_scan", "ios": "https://dc.lft.to/lastmile_qr_scan"}, "bike_id": "fa3785331f701ba593540efb852e17cf"}, {"lat": 38.897304166666665, "fusion_lat": 0.0, "is_reserved": 0, "is_disabled": 0, "type": "electric_scooter", "name": "7e1c4ba8013cc0d5acac3dd52c14a5b1", "lon": -77.04992266666666, "fusion_lon": 0.0, "rental_uris": {"android": "https://dc.lft.to/lastmile_qr_scan", "ios": "https://dc.lft.to/lastmile_qr_scan"}, "bike_id": "7e1c4ba8013cc0d5acac3dd52c14a5b1"}, {"lat": 38.8905255, "fusion_lat": 0.0, "is_reserved": 0, "is_disabled": 0, "type": "electric_scooter", "name": "b6dc60cca8c5cebd032b6537ae501c90", "lon": -77.019701, "fusion_lon": 0.0, "rental_uris": {"android": "https://dc.lft.to/lastmile_qr_scan", "ios": "https://dc.lft.to/lastmile_qr_scan"}, "bike_id": "b6dc60cca8c5cebd032b6537ae501c90"}, {"lat": 38.88716333333333, "fusion_lat": 0.0, "is_reserved": 0, "is_disabled": 0, "type": "electric_scooter", "name": "a4cc2a2ec1a3bb100ccc433e260a0da3", "lon": -76.996298, "fusion_lon": 0.0, "rental_uris": {"android": "https://dc.lft.to/lastmile_qr_scan", "ios": "https://dc.lft.to/lastmile_qr_scan"}, "bike_id": "a4cc2a2ec1a3bb100ccc433e260a0da3"}, {"lat": 38.94918083333334, "fusion_lat": 0.0, "is_reserved": 0, "is_disabled": 0, "type": "electric_bike", "name": "95ec9abbc0f78e77f61cf2e701d5ee87", "lon": -77.00799333333333, "fusion_lon": 0.0, "rental_uris": {"android": "https://dc.lft.to/lastmile_qr_scan", "ios": "https://dc.lft.to/lastmile_qr_scan"}, "bike_id": "95ec9abbc0f78e77f61cf2e701d5ee87"}, {"lat": 38.89672366666667, "fusion_lat": 0.0, "is_reserved": 0, "is_disabled": 0, "type": "electric_scooter", "name": "7d09cbac355f128f47c2b889aa311342", "lon": -77.04352116666666, "fusion_lon": 0.0, "rental_uris": {"android": "https://dc.lft.to/lastmile_qr_scan", "ios": "https://dc.lft.to/lastmile_qr_scan"}, "bike_id": "7d09cbac355f128f47c2b889aa311342"}, {"lat": 38.920945833333334, "fusion_lat": 0.0, "is_reserved": 0, "is_disabled": 0, "type": "electric_scooter", "name": "dffbcb4e16da56c0c52ad6ae59c49e6b", "lon": -77.02595666666667, "fusion_lon": 0.0, "rental_uris": {"android": "https://dc.lft.to/lastmile_qr_scan", "ios": "https://dc.lft.to/lastmile_qr_scan"}, "bike_id": "dffbcb4e16da56c0c52ad6ae59c49e6b"}, {"lat": 38.90024183333333, "fusion_lat": 0.0, "is_reserved": 0, "is_disabled": 0, "type": "electric_bike", "name": "79584649e9473414e3a657d9ebd8af7b", "lon": -77.0321305, "fusion_lon": 0.0, "rental_uris": {"android": "https://dc.lft.to/lastmile_qr_scan", "ios": "https://dc.lft.to/lastmile_qr_scan"}, "bike_id": "79584649e9473414e3a657d9ebd8af7b"}, {"lat": 38.89139383333333, "fusion_lat": 0.0, "is_reserved": 0, "is_disabled": 0, "type": "electric_scooter", "name": "bf900c4983204ac7341841a6b00886a3", "lon": -76.99946433333334, "fusion_lon": 0.0, "rental_uris": {"android": "https://dc.lft.to/lastmile_qr_scan", "ios": "https://dc.lft.to/lastmile_qr_scan"}, "bike_id": "bf900c4983204ac7341841a6b00886a3"}, {"lat": 38.898821, "fusion_lat": 0.0, "is_reserved": 0, "is_disabled": 0, "type": "electric_scooter", "name": "912bfbc8cbce424f6814418ae03225a1", "lon": -77.02821933333334, "fusion_lon": 0.0, "rental_uris": {"android": "https://dc.lft.to/lastmile_qr_scan", "ios": "https://dc.lft.to/lastmile_qr_scan"}, "bike_id": "912bfbc8cbce424f6814418ae03225a1"}, {"lat": 38.90649616666666, "fusion_lat": 0.0, "is_reserved": 0, "is_disabled": 0, "type": "electric_scooter", "name": "c9511add2f93d7b8451146890ebcb292", "lon": -77.014124, "fusion_lon": 0.0, "rental_uris": {"android": "https://dc.lft.to/lastmile_qr_scan", "ios": "https://dc.lft.to/lastmile_qr_scan"}, "bike_id": "c9511add2f93d7b8451146890ebcb292"}, {"lat": 38.87639633333333, "fusion_lat": 0.0, "is_reserved": 0, "is_disabled": 0, "type": "electric_scooter", "name": "03470e63dd110bf83a84053a29745c68", "lon": -76.9929605, "fusion_lon": 0.0, "rental_uris": {"android": "https://dc.lft.to/lastmile_qr_scan", "ios": "https://dc.lft.to/lastmile_qr_scan"}, "bike_id": "03470e63dd110bf83a84053a29745c68"}, {"lat": 38.90081466666667, "fusion_lat": 0.0, "is_reserved": 0, "is_disabled": 0, "type": "electric_scooter", "name": "76493c8593e2f2aadcc0b9e3cf3b7f3f", "lon": -77.04782833333333, "fusion_lon": 0.0, "rental_uris": {"android": "https://dc.lft.to/lastmile_qr_scan", "ios": "https://dc.lft.to/lastmile_qr_scan"}, "bike_id": "76493c8593e2f2aadcc0b9e3cf3b7f3f"}, {"lat": 38.90230866666667, "fusion_lat": 0.0, "is_reserved": 0, "is_disabled": 0, "type": "electric_scooter", "name": "95c30022faf36cb7275c5f5fb946b57a", "lon": -77.01608266666666, "fusion_lon": 0.0, "rental_uris": {"android": "https://dc.lft.to/lastmile_qr_scan", "ios": "https://dc.lft.to/lastmile_qr_scan"}, "bike_id": "95c30022faf36cb7275c5f5fb946b57a"}, {"lat": 38.91907, "fusion_lat": 0.0, "is_reserved": 0, "is_disabled": 0, "type": "electric_scooter", "name": "900b5f2071035a7189bac4edaf0aedc4", "lon": -77.03439166666666, "fusion_lon": 0.0, "rental_uris": {"android": "https://dc.lft.to/lastmile_qr_scan", "ios": "https://dc.lft.to/lastmile_qr_scan"}, "bike_id": "900b5f2071035a7189bac4edaf0aedc4"}, {"lat": 38.90688266666667, "fusion_lat": 0.0, "is_reserved": 0, "is_disabled": 0, "type": "electric_scooter", "name": "edfd22f0ea168521e797fde28164ef81", "lon": -77.03812516666666, "fusion_lon": 0.0, "rental_uris": {"android": "https://dc.lft.to/lastmile_qr_scan", "ios": "https://dc.lft.to/lastmile_qr_scan"}, "bike_id": "edfd22f0ea168521e797fde28164ef81"}, {"lat": 38.905887666666665, "fusion_lat": 0.0, "is_reserved": 0, "is_disabled": 0, "type": "electric_scooter", "name": "9f8717bb431007cfccc96f566e7d6817", "lon": -77.06539066666667, "fusion_lon": 0.0, "rental_uris": {"android": "https://dc.lft.to/lastmile_qr_scan", "ios": "https://dc.lft.to/lastmile_qr_scan"}, "bike_id": "9f8717bb431007cfccc96f566e7d6817"}, {"lat": 38.9141955, "fusion_lat": 0.0, "is_reserved": 0, "is_disabled": 0, "type": "electric_scooter", "name": "f1e07190345b93b5c6fb7a419aa80946", "lon": -77.03175216666666, "fusion_lon": 0.0, "rental_uris": {"android": "https://dc.lft.to/lastmile_qr_scan", "ios": "https://dc.lft.to/lastmile_qr_scan"}, "bike_id": "f1e07190345b93b5c6fb7a419aa80946"}, {"lat": 38.89301, "fusion_lat": 0.0, "is_reserved": 0, "is_disabled": 0, "type": "electric_scooter", "name": "5c966da766425e45c504e64d10879391", "lon": -76.99963466666667, "fusion_lon": 0.0, "rental_uris": {"android": "https://dc.lft.to/lastmile_qr_scan", "ios": "https://dc.lft.to/lastmile_qr_scan"}, "bike_id": "5c966da766425e45c504e64d10879391"}, {"lat": 38.896585333333334, "fusion_lat": 0.0, "is_reserved": 0, "is_disabled": 0, "type": "electric_scooter", "name": "a13433b4c2f9a14d98a2ed40b371838f", "lon": -77.051356, "fusion_lon": 0.0, "rental_uris": {"android": "https://dc.lft.to/lastmile_qr_scan", "ios": "https://dc.lft.to/lastmile_qr_scan"}, "bike_id": "a13433b4c2f9a14d98a2ed40b371838f"}, {"lat": 38.901310333333335, "fusion_lat": 0.0, "is_reserved": 0, "is_disabled": 0, "type": "electric_scooter", "name": "604440d80f02dfdb7a7ef6cc86e5cca1", "lon": -77.04363666666667, "fusion_lon": 0.0, "rental_uris": {"android": "https://dc.lft.to/lastmile_qr_scan", "ios": "https://dc.lft.to/lastmile_qr_scan"}, "bike_id": "604440d80f02dfdb7a7ef6cc86e5cca1"}, {"lat": 38.907174499999996, "fusion_lat": 0.0, "is_reserved": 0, "is_disabled": 0, "type": "electric_scooter", "name": "35e46f2cd04e815f71c21655b75bc588", "lon": -77.0059255, "fusion_lon": 0.0, "rental_uris": {"android": "https://dc.lft.to/lastmile_qr_scan", "ios": "https://dc.lft.to/lastmile_qr_scan"}, "bike_id": "35e46f2cd04e815f71c21655b75bc588"}, {"lat": 38.938758666666665, "fusion_lat": 0.0, "is_reserved": 0, "is_disabled": 0, "type": "electric_scooter", "name": "0a9358ebab836a88618cf16fe540a55c", "lon": -77.03043233333334, "fusion_lon": 0.0, "rental_uris": {"android": "https://dc.lft.to/lastmile_qr_scan", "ios": "https://dc.lft.to/lastmile_qr_scan"}, "bike_id": "0a9358ebab836a88618cf16fe540a55c"}, {"lat": 38.900471833333334, "fusion_lat": 0.0, "is_reserved": 0, "is_disabled": 0, "type": "electric_scooter", "name": "55224ea4e971e06e9c007ed52e8445fb", "lon": -77.0319385, "fusion_lon": 0.0, "rental_uris": {"android": "https://dc.lft.to/lastmile_qr_scan", "ios": "https://dc.lft.to/lastmile_qr_scan"}, "bike_id": "55224ea4e971e06e9c007ed52e8445fb"}, {"lat": 38.903901, "fusion_lat": 0.0, "is_reserved": 0, "is_disabled": 0, "type": "electric_scooter", "name": "238084f0d222e22568008c44e6142c8f", "lon": -77.04515, "fusion_lon": 0.0, "rental_uris": {"android": "https://dc.lft.to/lastmile_qr_scan", "ios": "https://dc.lft.to/lastmile_qr_scan"}, "bike_id": "238084f0d222e22568008c44e6142c8f"}, {"lat": 38.90902483333333, "fusion_lat": 0.0, "is_reserved": 0, "is_disabled": 0, "type": "electric_scooter", "name": "8f8e223473f23f2adcd7492e99116661", "lon": -77.0045895, "fusion_lon": 0.0, "rental_uris": {"android": "https://dc.lft.to/lastmile_qr_scan", "ios": "https://dc.lft.to/lastmile_qr_scan"}, "bike_id": "8f8e223473f23f2adcd7492e99116661"}, {"lat": 38.898889, "fusion_lat": 0.0, "is_reserved": 0, "is_disabled": 0, "type": "electric_scooter", "name": "f7cceaf0d7f5955b09969583716f8724", "lon": -76.9324315, "fusion_lon": 0.0, "rental_uris": {"android": "https://dc.lft.to/lastmile_qr_scan", "ios": "https://dc.lft.to/lastmile_qr_scan"}, "bike_id": "f7cceaf0d7f5955b09969583716f8724"}, {"lat": 38.898237, "fusion_lat": 0.0, "is_reserved": 0, "is_disabled": 0, "type": "electric_scooter", "name": "bf95decd220f08c5ea5180917e8211c0", "lon": -76.92603133333333, "fusion_lon": 0.0, "rental_uris": {"android": "https://dc.lft.to/lastmile_qr_scan", "ios": "https://dc.lft.to/lastmile_qr_scan"}, "bike_id": "bf95decd220f08c5ea5180917e8211c0"}, {"lat": 38.92152816666667, "fusion_lat": 0.0, "is_reserved": 0, "is_disabled": 0, "type": "electric_scooter", "name": "972cd44733d007e33d8776c856e23700", "lon": -77.03512483333333, "fusion_lon": 0.0, "rental_uris": {"android": "https://dc.lft.to/lastmile_qr_scan", "ios": "https://dc.lft.to/lastmile_qr_scan"}, "bike_id": "972cd44733d007e33d8776c856e23700"}, {"lat": 38.883775, "fusion_lat": 0.0, "is_reserved": 0, "is_disabled": 0, "type": "electric_scooter", "name": "8708f38fe4b789ac3f066adecbc68614", "lon": -77.00875983333333, "fusion_lon": 0.0, "rental_uris": {"android": "https://dc.lft.to/lastmile_qr_scan", "ios": "https://dc.lft.to/lastmile_qr_scan"}, "bike_id": "8708f38fe4b789ac3f066adecbc68614"}, {"lat": 38.90760733333333, "fusion_lat": 0.0, "is_reserved": 0, "is_disabled": 0, "type": "electric_scooter", "name": "d2bdbc46ecb3b34823c55f54753f907a", "lon": -77.041512, "fusion_lon": 0.0, "rental_uris": {"android": "https://dc.lft.to/lastmile_qr_scan", "ios": "https://dc.lft.to/lastmile_qr_scan"}, "bike_id": "d2bdbc46ecb3b34823c55f54753f907a"}, {"lat": 38.8792585, "fusion_lat": 0.0, "is_reserved": 0, "is_disabled": 0, "type": "electric_scooter", "name": "05e92a6a410440807d87ec879c3eed4d", "lon": -77.02382233333333, "fusion_lon": 0.0, "rental_uris": {"android": "https://dc.lft.to/lastmile_qr_scan", "ios": "https://dc.lft.to/lastmile_qr_scan"}, "bike_id": "05e92a6a410440807d87ec879c3eed4d"}, {"lat": 38.9237015, "fusion_lat": 0.0, "is_reserved": 0, "is_disabled": 0, "type": "electric_scooter", "name": "e08ed09c0a81abb6e5ec36a5ac5627bf", "lon": -77.05031966666667, "fusion_lon": 0.0, "rental_uris": {"android": "https://dc.lft.to/lastmile_qr_scan", "ios": "https://dc.lft.to/lastmile_qr_scan"}, "bike_id": "e08ed09c0a81abb6e5ec36a5ac5627bf"}, {"lat": 38.916519666666666, "fusion_lat": 0.0, "is_reserved": 0, "is_disabled": 0, "type": "electric_scooter", "name": "f36efbc9330fe2c23f4dc35a00c95fe9", "lon": -77.03216433333333, "fusion_lon": 0.0, "rental_uris": {"android": "https://dc.lft.to/lastmile_qr_scan", "ios": "https://dc.lft.to/lastmile_qr_scan"}, "bike_id": "f36efbc9330fe2c23f4dc35a00c95fe9"}, {"lat": 38.926818833333336, "fusion_lat": 0.0, "is_reserved": 0, "is_disabled": 0, "type": "electric_bike", "name": "e76e90e6d58eadc6a458a5862b4c8517", "lon": -77.015756, "fusion_lon": 0.0, "rental_uris": {"android": "https://dc.lft.to/lastmile_qr_scan", "ios": "https://dc.lft.to/lastmile_qr_scan"}, "bike_id": "e76e90e6d58eadc6a458a5862b4c8517"}, {"lat": 38.896401833333336, "fusion_lat": 0.0, "is_reserved": 0, "is_disabled": 0, "type": "electric_scooter", "name": "6010a4ae7be95003308c9db8dab7226d", "lon": -76.9280345, "fusion_lon": 0.0, "rental_uris": {"android": "https://dc.lft.to/lastmile_qr_scan", "ios": "https://dc.lft.to/lastmile_qr_scan"}, "bike_id": "6010a4ae7be95003308c9db8dab7226d"}, {"lat": 38.9023705, "fusion_lat": 0.0, "is_reserved": 0, "is_disabled": 0, "type": "electric_scooter", "name": "eb3d465137eb7d006446a946536f973f", "lon": -77.03743116666666, "fusion_lon": 0.0, "rental_uris": {"android": "https://dc.lft.to/lastmile_qr_scan", "ios": "https://dc.lft.to/lastmile_qr_scan"}, "bike_id": "eb3d465137eb7d006446a946536f973f"}, {"lat": 38.91006516666667, "fusion_lat": 0.0, "is_reserved": 0, "is_disabled": 0, "type": "electric_scooter", "name": "2902f4902436ae9506d8f1cb15e209d2", "lon": -76.99410016666667, "fusion_lon": 0.0, "rental_uris": {"android": "https://dc.lft.to/lastmile_qr_scan", "ios": "https://dc.lft.to/lastmile_qr_scan"}, "bike_id": "2902f4902436ae9506d8f1cb15e209d2"}, {"lat": 38.91181666666667, "fusion_lat": 0.0, "is_reserved": 0, "is_disabled": 0, "type": "electric_scooter", "name": "f42cf73e788118000b6c39f32b2840fc", "lon": -77.01212516666666, "fusion_lon": 0.0, "rental_uris": {"android": "https://dc.lft.to/lastmile_qr_scan", "ios": "https://dc.lft.to/lastmile_qr_scan"}, "bike_id": "f42cf73e788118000b6c39f32b2840fc"}, {"lat": 38.93458016666666, "fusion_lat": 0.0, "is_reserved": 0, "is_disabled": 0, "type": "electric_scooter", "name": "b08e549e5be34013f368311bcf787389", "lon": -77.02919783333333, "fusion_lon": 0.0, "rental_uris": {"android": "https://dc.lft.to/lastmile_qr_scan", "ios": "https://dc.lft.to/lastmile_qr_scan"}, "bike_id": "b08e549e5be34013f368311bcf787389"}, {"lat": 38.88972066666667, "fusion_lat": 0.0, "is_reserved": 0, "is_disabled": 0, "type": "electric_scooter", "name": "9d6c51237dfea2493d4d45ace42c61a4", "lon": -76.98181733333334, "fusion_lon": 0.0, "rental_uris": {"android": "https://dc.lft.to/lastmile_qr_scan", "ios": "https://dc.lft.to/lastmile_qr_scan"}, "bike_id": "9d6c51237dfea2493d4d45ace42c61a4"}, {"lat": 38.9146575, "fusion_lat": 0.0, "is_reserved": 0, "is_disabled": 0, "type": "electric_scooter", "name": "8389b9a822bffc4e3f4ce369eec21056", "lon": -77.04162483333333, "fusion_lon": 0.0, "rental_uris": {"android": "https://dc.lft.to/lastmile_qr_scan", "ios": "https://dc.lft.to/lastmile_qr_scan"}, "bike_id": "8389b9a822bffc4e3f4ce369eec21056"}, {"lat": 38.89620333333333, "fusion_lat": 0.0, "is_reserved": 0, "is_disabled": 0, "type": "electric_scooter", "name": "f9ee9a81105b6e39a6897c1f8bef1d2c", "lon": -77.02845766666667, "fusion_lon": 0.0, "rental_uris": {"android": "https://dc.lft.to/lastmile_qr_scan", "ios": "https://dc.lft.to/lastmile_qr_scan"}, "bike_id": "f9ee9a81105b6e39a6897c1f8bef1d2c"}, {"lat": 38.92874483333333, "fusion_lat": 0.0, "is_reserved": 0, "is_disabled": 0, "type": "electric_scooter", "name": "867588a205d0c8c3c5cec54a60fa829c", "lon": -77.03448366666667, "fusion_lon": 0.0, "rental_uris": {"android": "https://dc.lft.to/lastmile_qr_scan", "ios": "https://dc.lft.to/lastmile_qr_scan"}, "bike_id": "867588a205d0c8c3c5cec54a60fa829c"}, {"lat": 38.928151166666666, "fusion_lat": 0.0, "is_reserved": 0, "is_disabled": 0, "type": "electric_bike", "name": "5d92a6396817cbd5e1e5e7053833c6a1", "lon": -77.05977533333333, "fusion_lon": 0.0, "rental_uris": {"android": "https://dc.lft.to/lastmile_qr_scan", "ios": "https://dc.lft.to/lastmile_qr_scan"}, "bike_id": "5d92a6396817cbd5e1e5e7053833c6a1"}, {"lat": 38.89884883333333, "fusion_lat": 0.0, "is_reserved": 0, "is_disabled": 0, "type": "electric_scooter", "name": "ee3f1fe9019652d9148133abeacd70fb", "lon": -76.9868125, "fusion_lon": 0.0, "rental_uris": {"android": "https://dc.lft.to/lastmile_qr_scan", "ios": "https://dc.lft.to/lastmile_qr_scan"}, "bike_id": "ee3f1fe9019652d9148133abeacd70fb"}, {"lat": 38.9191565, "fusion_lat": 0.0, "is_reserved": 0, "is_disabled": 0, "type": "electric_scooter", "name": "abff4420fc4a4050066339c7fb8ee88f", "lon": -77.02539166666666, "fusion_lon": 0.0, "rental_uris": {"android": "https://dc.lft.to/lastmile_qr_scan", "ios": "https://dc.lft.to/lastmile_qr_scan"}, "bike_id": "abff4420fc4a4050066339c7fb8ee88f"}, {"lat": 38.919489166666665, "fusion_lat": 0.0, "is_reserved": 0, "is_disabled": 0, "type": "electric_scooter", "name": "03f333b7300b2d44fc47b08e276c149c", "lon": -77.013975, "fusion_lon": 0.0, "rental_uris": {"android": "https://dc.lft.to/lastmile_qr_scan", "ios": "https://dc.lft.to/lastmile_qr_scan"}, "bike_id": "03f333b7300b2d44fc47b08e276c149c"}, {"lat": 38.8995255, "fusion_lat": 0.0, "is_reserved": 0, "is_disabled": 0, "type": "electric_scooter", "name": "0a9b0212707cf0f5498a41d04b6e077b", "lon": -77.01397216666666, "fusion_lon": 0.0, "rental_uris": {"android": "https://dc.lft.to/lastmile_qr_scan", "ios": "https://dc.lft.to/lastmile_qr_scan"}, "bike_id": "0a9b0212707cf0f5498a41d04b6e077b"}, {"lat": 38.89769416666667, "fusion_lat": 0.0, "is_reserved": 0, "is_disabled": 0, "type": "electric_scooter", "name": "e3831931bc5ac7c2f23c4fcb5326c489", "lon": -77.02958216666667, "fusion_lon": 0.0, "rental_uris": {"android": "https://dc.lft.to/lastmile_qr_scan", "ios": "https://dc.lft.to/lastmile_qr_scan"}, "bike_id": "e3831931bc5ac7c2f23c4fcb5326c489"}, {"lat": 38.9268445, "fusion_lat": 0.0, "is_reserved": 0, "is_disabled": 0, "type": "electric_scooter", "name": "5382a9ce97f65a28d9ce390f6968e52e", "lon": -77.02298833333333, "fusion_lon": 0.0, "rental_uris": {"android": "https://dc.lft.to/lastmile_qr_scan", "ios": "https://dc.lft.to/lastmile_qr_scan"}, "bike_id": "5382a9ce97f65a28d9ce390f6968e52e"}, {"lat": 38.899624833333334, "fusion_lat": 0.0, "is_reserved": 0, "is_disabled": 0, "type": "electric_scooter", "name": "39d289774c6f07b43a33276fd75cc88c", "lon": -77.02108666666666, "fusion_lon": 0.0, "rental_uris": {"android": "https://dc.lft.to/lastmile_qr_scan", "ios": "https://dc.lft.to/lastmile_qr_scan"}, "bike_id": "39d289774c6f07b43a33276fd75cc88c"}, {"lat": 38.892185166666664, "fusion_lat": 0.0, "is_reserved": 0, "is_disabled": 0, "type": "electric_scooter", "name": "d5ff23f999ea93260c92aa4f0bf9b4ae", "lon": -77.0419185, "fusion_lon": 0.0, "rental_uris": {"android": "https://dc.lft.to/lastmile_qr_scan", "ios": "https://dc.lft.to/lastmile_qr_scan"}, "bike_id": "d5ff23f999ea93260c92aa4f0bf9b4ae"}, {"lat": 38.910615, "fusion_lat": 0.0, "is_reserved": 0, "is_disabled": 0, "type": "electric_scooter", "name": "b8f7f329d8313fecea27e27a0e43fc97", "lon": -77.01985383333333, "fusion_lon": 0.0, "rental_uris": {"android": "https://dc.lft.to/lastmile_qr_scan", "ios": "https://dc.lft.to/lastmile_qr_scan"}, "bike_id": "b8f7f329d8313fecea27e27a0e43fc97"}, {"lat": 38.929072, "fusion_lat": 0.0, "is_reserved": 0, "is_disabled": 0, "type": "electric_scooter", "name": "ea597e89d630a8ea45fc9b43e4adba57", "lon": -77.05988366666666, "fusion_lon": 0.0, "rental_uris": {"android": "https://dc.lft.to/lastmile_qr_scan", "ios": "https://dc.lft.to/lastmile_qr_scan"}, "bike_id": "ea597e89d630a8ea45fc9b43e4adba57"}, {"lat": 38.89194883333333, "fusion_lat": 0.0, "is_reserved": 0, "is_disabled": 0, "type": "electric_scooter", "name": "9e5ea284b46a5bb55dcd1e41ef8155eb", "lon": -77.02231783333333, "fusion_lon": 0.0, "rental_uris": {"android": "https://dc.lft.to/lastmile_qr_scan", "ios": "https://dc.lft.to/lastmile_qr_scan"}, "bike_id": "9e5ea284b46a5bb55dcd1e41ef8155eb"}, {"lat": 38.923025333333335, "fusion_lat": 0.0, "is_reserved": 0, "is_disabled": 0, "type": "electric_scooter", "name": "d228ae36f8981bd6c8a7b539c1d89ffb", "lon": -77.04148716666667, "fusion_lon": 0.0, "rental_uris": {"android": "https://dc.lft.to/lastmile_qr_scan", "ios": "https://dc.lft.to/lastmile_qr_scan"}, "bike_id": "d228ae36f8981bd6c8a7b539c1d89ffb"}, {"lat": 38.9045595, "fusion_lat": 0.0, "is_reserved": 0, "is_disabled": 0, "type": "electric_scooter", "name": "76779c2b92669ed45c1effab98622fc4", "lon": -76.93277733333333, "fusion_lon": 0.0, "rental_uris": {"android": "https://dc.lft.to/lastmile_qr_scan", "ios": "https://dc.lft.to/lastmile_qr_scan"}, "bike_id": "76779c2b92669ed45c1effab98622fc4"}, {"lat": 38.93994633333333, "fusion_lat": 0.0, "is_reserved": 0, "is_disabled": 0, "type": "electric_scooter", "name": "23b15ce742f1be37aded2007ab09a204", "lon": -77.02888783333333, "fusion_lon": 0.0, "rental_uris": {"android": "https://dc.lft.to/lastmile_qr_scan", "ios": "https://dc.lft.to/lastmile_qr_scan"}, "bike_id": "23b15ce742f1be37aded2007ab09a204"}, {"lat": 38.90591083333333, "fusion_lat": 0.0, "is_reserved": 0, "is_disabled": 0, "type": "electric_scooter", "name": "f45de41e5bc6c7cb076f9a9b90d47da8", "lon": -77.021875, "fusion_lon": 0.0, "rental_uris": {"android": "https://dc.lft.to/lastmile_qr_scan", "ios": "https://dc.lft.to/lastmile_qr_scan"}, "bike_id": "f45de41e5bc6c7cb076f9a9b90d47da8"}, {"lat": 38.902853666666665, "fusion_lat": 0.0, "is_reserved": 0, "is_disabled": 0, "type": "electric_scooter", "name": "7670219e5555176337ccee959cfd7181", "lon": -77.02310083333333, "fusion_lon": 0.0, "rental_uris": {"android": "https://dc.lft.to/lastmile_qr_scan", "ios": "https://dc.lft.to/lastmile_qr_scan"}, "bike_id": "7670219e5555176337ccee959cfd7181"}, {"lat": 38.92135116666667, "fusion_lat": 0.0, "is_reserved": 0, "is_disabled": 0, "type": "electric_scooter", "name": "f0ab6be73e403c6d874b9280aa83a491", "lon": -77.0515705, "fusion_lon": 0.0, "rental_uris": {"android": "https://dc.lft.to/lastmile_qr_scan", "ios": "https://dc.lft.to/lastmile_qr_scan"}, "bike_id": "f0ab6be73e403c6d874b9280aa83a491"}, {"lat": 38.89014533333334, "fusion_lat": 0.0, "is_reserved": 0, "is_disabled": 0, "type": "electric_scooter", "name": "17fa5d5a5f65d663778db554e5f7d66e", "lon": -76.9373055, "fusion_lon": 0.0, "rental_uris": {"android": "https://dc.lft.to/lastmile_qr_scan", "ios": "https://dc.lft.to/lastmile_qr_scan"}, "bike_id": "17fa5d5a5f65d663778db554e5f7d66e"}, {"lat": 38.917532333333334, "fusion_lat": 0.0, "is_reserved": 0, "is_disabled": 0, "type": "electric_scooter", "name": "a1f17a5e13ddc188a1777d851cbb574b", "lon": -77.0391005, "fusion_lon": 0.0, "rental_uris": {"android": "https://dc.lft.to/lastmile_qr_scan", "ios": "https://dc.lft.to/lastmile_qr_scan"}, "bike_id": "a1f17a5e13ddc188a1777d851cbb574b"}, {"lat": 38.8923185, "fusion_lat": 0.0, "is_reserved": 0, "is_disabled": 0, "type": "electric_scooter", "name": "b4291f5b963a5b6ac52e6dfc49e2d8f5", "lon": -77.05002916666666, "fusion_lon": 0.0, "rental_uris": {"android": "https://dc.lft.to/lastmile_qr_scan", "ios": "https://dc.lft.to/lastmile_qr_scan"}, "bike_id": "b4291f5b963a5b6ac52e6dfc49e2d8f5"}, {"lat": 38.88357116666667, "fusion_lat": 0.0, "is_reserved": 0, "is_disabled": 0, "type": "electric_scooter", "name": "d484fe2094f04eba1f25435015f2074d", "lon": -76.95768983333333, "fusion_lon": 0.0, "rental_uris": {"android": "https://dc.lft.to/lastmile_qr_scan", "ios": "https://dc.lft.to/lastmile_qr_scan"}, "bike_id": "d484fe2094f04eba1f25435015f2074d"}, {"lat": 38.92003366666667, "fusion_lat": 0.0, "is_reserved": 0, "is_disabled": 0, "type": "electric_scooter", "name": "59aa61102a18853e82a397c26bab0684", "lon": -77.04749416666667, "fusion_lon": 0.0, "rental_uris": {"android": "https://dc.lft.to/lastmile_qr_scan", "ios": "https://dc.lft.to/lastmile_qr_scan"}, "bike_id": "59aa61102a18853e82a397c26bab0684"}, {"lat": 38.89844883333333, "fusion_lat": 0.0, "is_reserved": 0, "is_disabled": 0, "type": "electric_bike", "name": "3e3b10c739fb4426f83060218a9964ce", "lon": -76.94257133333333, "fusion_lon": 0.0, "rental_uris": {"android": "https://dc.lft.to/lastmile_qr_scan", "ios": "https://dc.lft.to/lastmile_qr_scan"}, "bike_id": "3e3b10c739fb4426f83060218a9964ce"}, {"lat": 38.898213, "fusion_lat": 0.0, "is_reserved": 0, "is_disabled": 0, "type": "electric_scooter", "name": "e6f2303b2e517a56b07a556d0a647148", "lon": -77.026418, "fusion_lon": 0.0, "rental_uris": {"android": "https://dc.lft.to/lastmile_qr_scan", "ios": "https://dc.lft.to/lastmile_qr_scan"}, "bike_id": "e6f2303b2e517a56b07a556d0a647148"}, {"lat": 38.909070666666665, "fusion_lat": 0.0, "is_reserved": 0, "is_disabled": 0, "type": "electric_scooter", "name": "69bc437318f842be0c14a1233d33fd78", "lon": -77.04207033333333, "fusion_lon": 0.0, "rental_uris": {"android": "https://dc.lft.to/lastmile_qr_scan", "ios": "https://dc.lft.to/lastmile_qr_scan"}, "bike_id": "69bc437318f842be0c14a1233d33fd78"}, {"lat": 38.899317, "fusion_lat": 0.0, "is_reserved": 0, "is_disabled": 0, "type": "electric_scooter", "name": "7c0b9f1f8d7886c2ce589eb556ca2221", "lon": -77.03237866666667, "fusion_lon": 0.0, "rental_uris": {"android": "https://dc.lft.to/lastmile_qr_scan", "ios": "https://dc.lft.to/lastmile_qr_scan"}, "bike_id": "7c0b9f1f8d7886c2ce589eb556ca2221"}, {"lat": 38.913168666666664, "fusion_lat": 0.0, "is_reserved": 0, "is_disabled": 0, "type": "electric_scooter", "name": "c545a00e3327a36806cba823a1bdff67", "lon": -77.01439283333333, "fusion_lon": 0.0, "rental_uris": {"android": "https://dc.lft.to/lastmile_qr_scan", "ios": "https://dc.lft.to/lastmile_qr_scan"}, "bike_id": "c545a00e3327a36806cba823a1bdff67"}, {"lat": 38.862635166666664, "fusion_lat": 0.0, "is_reserved": 0, "is_disabled": 0, "type": "electric_bike", "name": "b81694071d1226dcb84e7c644b8464d8", "lon": -77.08922616666666, "fusion_lon": 0.0, "rental_uris": {"android": "https://dc.lft.to/lastmile_qr_scan", "ios": "https://dc.lft.to/lastmile_qr_scan"}, "bike_id": "b81694071d1226dcb84e7c644b8464d8"}, {"lat": 38.90057016666667, "fusion_lat": 0.0, "is_reserved": 0, "is_disabled": 0, "type": "electric_scooter", "name": "4a7994dc4bcb9989b9c4e2124ac43a6d", "lon": -76.987068, "fusion_lon": 0.0, "rental_uris": {"android": "https://dc.lft.to/lastmile_qr_scan", "ios": "https://dc.lft.to/lastmile_qr_scan"}, "bike_id": "4a7994dc4bcb9989b9c4e2124ac43a6d"}, {"lat": 38.80401766666667, "fusion_lat": 0.0, "is_reserved": 0, "is_disabled": 0, "type": "electric_bike", "name": "1af8a066f6fa80f9824214f9bbce0a24", "lon": -77.11329583333334, "fusion_lon": 0.0, "rental_uris": {"android": "https://dc.lft.to/lastmile_qr_scan", "ios": "https://dc.lft.to/lastmile_qr_scan"}, "bike_id": "1af8a066f6fa80f9824214f9bbce0a24"}, {"lat": 38.92202833333333, "fusion_lat": 0.0, "is_reserved": 0, "is_disabled": 0, "type": "electric_scooter", "name": "a967aa7b875e623e0839590f68fb4c75", "lon": -77.04237566666667, "fusion_lon": 0.0, "rental_uris": {"android": "https://dc.lft.to/lastmile_qr_scan", "ios": "https://dc.lft.to/lastmile_qr_scan"}, "bike_id": "a967aa7b875e623e0839590f68fb4c75"}, {"lat": 38.90351583333333, "fusion_lat": 0.0, "is_reserved": 0, "is_disabled": 0, "type": "electric_scooter", "name": "3963ef933a68a2934d7e97466cb2bdf6", "lon": -77.04495816666666, "fusion_lon": 0.0, "rental_uris": {"android": "https://dc.lft.to/lastmile_qr_scan", "ios": "https://dc.lft.to/lastmile_qr_scan"}, "bike_id": "3963ef933a68a2934d7e97466cb2bdf6"}, {"lat": 38.91441833333333, "fusion_lat": 0.0, "is_reserved": 0, "is_disabled": 0, "type": "electric_bike", "name": "fcee46a1235ea57b264eecafa9c9c9ec", "lon": -76.97222816666667, "fusion_lon": 0.0, "rental_uris": {"android": "https://dc.lft.to/lastmile_qr_scan", "ios": "https://dc.lft.to/lastmile_qr_scan"}, "bike_id": "fcee46a1235ea57b264eecafa9c9c9ec"}, {"lat": 38.89252366666667, "fusion_lat": 0.0, "is_reserved": 0, "is_disabled": 0, "type": "electric_scooter", "name": "437be6d4e9ae553b8ded633db3d846f4", "lon": -77.04656666666666, "fusion_lon": 0.0, "rental_uris": {"android": "https://dc.lft.to/lastmile_qr_scan", "ios": "https://dc.lft.to/lastmile_qr_scan"}, "bike_id": "437be6d4e9ae553b8ded633db3d846f4"}, {"lat": 38.92446283333334, "fusion_lat": 0.0, "is_reserved": 0, "is_disabled": 0, "type": "electric_scooter", "name": "0a767904cdfb6236abbf906a23da7ba6", "lon": -77.02025566666667, "fusion_lon": 0.0, "rental_uris": {"android": "https://dc.lft.to/lastmile_qr_scan", "ios": "https://dc.lft.to/lastmile_qr_scan"}, "bike_id": "0a767904cdfb6236abbf906a23da7ba6"},