{"data": {"bikes": [{"name": "113f8568744cde66c3376bbac5c5615e", "fusion_lat": 0.0, "type": "electric_scooter", "lat": 38.872662, "is_reserved": 0, "is_disabled": 0, "fusion_lon": 0.0, "bike_id": "113f8568744cde66c3376bbac5c5615e", "lon": -77.0152595, "rental_uris": {"ios": "https://dc.lft.to/lastmile_qr_scan", "android": "https://dc.lft.to/lastmile_qr_scan"}}, {"name": "090f1143793e94cb00717f339f39190c", "fusion_lat": 0.0, "type": "electric_bike", "lat": 38.923496166666666, "is_reserved": 0, "is_disabled": 0, "fusion_lon": 0.0, "bike_id": "090f1143793e94cb00717f339f39190c", "lon": -76.99250366666666, "rental_uris": {"ios": "https://dc.lft.to/lastmile_qr_scan", "android": "https://dc.lft.to/lastmile_qr_scan"}}, {"name": "1fc6eda2ebe5225b9e7b2fc673507e99", "fusion_lat": 0.0, "type": "electric_scooter", "lat": 38.901389333333334, "is_reserved": 0, "is_disabled": 0, "fusion_lon": 0.0, "bike_id": "1fc6eda2ebe5225b9e7b2fc673507e99", "lon": -77.00071816666667, "rental_uris": {"ios": "https://dc.lft.to/lastmile_qr_scan", "android": "https://dc.lft.to/lastmile_qr_scan"}}, {"name": "5a0bf30cb37b1844a27ac669dd47de05", "fusion_lat": 0.0, "type": "electric_scooter", "lat": 38.938214, "is_reserved": 0, "is_disabled": 0, "fusion_lon": 0.0, "bike_id": "5a0bf30cb37b1844a27ac669dd47de05", "lon": -77.02644633333334, "rental_uris": {"ios": "https://dc.lft.to/lastmile_qr_scan", "android": "https://dc.lft.to/lastmile_qr_scan"}}, {"name": "6c79a26df92c820fc91ead67a778fb5e", "fusion_lat": 0.0, "type": "electric_scooter", "lat": 38.91594883333333, "is_reserved": 0, "is_disabled": 0, "fusion_lon": 0.0, "bike_id": "6c79a26df92c820fc91ead67a778fb5e", "lon": -77.0416145, "rental_uris": {"ios": "https://dc.lft.to/lastmile_qr_scan", "android": "https://dc.lft.to/lastmile_qr_scan"}}, {"name": "2eb6ddab2124d2dee4bf6d5a0e324afb", "fusion_lat": 0.0, "type": "electric_scooter", "lat": 38.912241, "is_reserved": 0, "is_disabled": 0, "fusion_lon": 0.0, "bike_id": "2eb6ddab2124d2dee4bf6d5a0e324afb", "lon": -77.0295295, "rental_uris": {"ios": "https://dc.lft.to/lastmile_qr_scan", "android": "https://dc.lft.to/lastmile_qr_scan"}}, {"name": "0ff37d8907d5d338f1e26a98c3321b15", "fusion_lat": 0.0, "type": "electric_scooter", "lat": 38.898413833333336, "is_reserved": 0, "is_disabled": 0, "fusion_lon": 0.0, "bike_id": "0ff37d8907d5d338f1e26a98c3321b15", "lon": -77.04072183333334, "rental_uris": {"ios": "https://dc.lft.to/lastmile_qr_scan", "android": "https://dc.lft.to/lastmile_qr_scan"}}, {"name": "15c9b3cfba39f96315004eeca000eaa5", "fusion_lat": 0.0, "type": "electric_scooter", "lat": 38.94184083333333, "is_reserved": 0, "is_disabled": 0, "fusion_lon": 0.0, "bike_id": "15c9b3cfba39f96315004eeca000eaa5", "lon": -77.02488616666666, "rental_uris": {"ios": "https://dc.lft.to/lastmile_qr_scan", "android": "https://dc.lft.to/lastmile_qr_scan"}}, {"name": "d4716e1aadf3ff1f43291346f71ae83e", "fusion_lat": 0.0, "type": "electric_bike", "lat": 38.95184666666667, "is_reserved": 0, "is_disabled": 0, "fusion_lon": 0.0, "bike_id": "d4716e1aadf3ff1f43291346f71ae83e", "lon": -76.935447, "rental_uris": {"ios": "https://dc.lft.to/lastmile_qr_scan", "android": "https://dc.lft.to/lastmile_qr_scan"}}, {"name": "af239947cc13e6a4181424f30b63d8cc", "fusion_lat": 0.0, "type": "electric_scooter", "lat": 38.92382, "is_reserved": 0, "is_disabled": 0, "fusion_lon": 0.0, "bike_id": "af239947cc13e6a4181424f30b63d8cc", "lon": -77.03100433333333, "rental_uris": {"ios": "https://dc.lft.to/lastmile_qr_scan", "android": "https://dc.lft.to/lastmile_qr_scan"}}, {"name": "e107d9f4177a97323ff392598db596dc", "fusion_lat": 0.0, "type": "electric_scooter", "lat": 38.94280916666666, "is_reserved": 0, "is_disabled": 0, "fusion_lon": 0.0, "bike_id": "e107d9f4177a97323ff392598db596dc", "lon": -77.02507116666666, "rental_uris": {"ios": "https://dc.lft.to/lastmile_qr_scan", "android": "https://dc.lft.to/lastmile_qr_scan"}}, {"name": "7df4637ec418b0069d744c60e2d5f811", "fusion_lat": 0.0, "type": "electric_scooter", "lat": 38.876459, "is_reserved": 0, "is_disabled": 0, "fusion_lon": 0.0, "bike_id": "7df4637ec418b0069d744c60e2d5f811", "lon": -76.96505966666666, "rental_uris": {"ios": "https://dc.lft.to/lastmile_qr_scan", "android": "https://dc.lft.to/lastmile_qr_scan"}}, {"name": "572a969e8022e5f7b65823b93ce576ec", "fusion_lat": 0.0, "type": "electric_bike", "lat": 38.95542566666666, "is_reserved": 0, "is_disabled": 0, "fusion_lon": 0.0, "bike_id": "572a969e8022e5f7b65823b93ce576ec", "lon": -77.01615183333334, "rental_uris": {"ios": "https://dc.lft.to/lastmile_qr_scan", "android": "https://dc.lft.to/lastmile_qr_scan"}}, {"name": "b81a256e018634e4dc18071f616650fd", "fusion_lat": 0.0, "type": "electric_bike", "lat": 39.105647, "is_reserved": 0, "is_disabled": 0, "fusion_lon": 0.0, "bike_id": "b81a256e018634e4dc18071f616650fd", "lon": -77.152695, "rental_uris": {"ios": "https://dc.lft.to/lastmile_qr_scan", "android": "https://dc.lft.to/lastmile_qr_scan"}}, {"name": "a9f4e5aeb3c538057a497af3ec9b511b", "fusion_lat": 0.0, "type": "electric_scooter", "lat": 38.9096625, "is_reserved": 0, "is_disabled": 0, "fusion_lon": 0.0, "bike_id": "a9f4e5aeb3c538057a497af3ec9b511b", "lon": -77.0367545, "rental_uris": {"ios": "https://dc.lft.to/lastmile_qr_scan", "android": "https://dc.lft.to/lastmile_qr_scan"}}, {"name": "e8360556a756bf35778806f7923b054c", "fusion_lat": 0.0, "type": "electric_scooter", "lat": 38.905683, "is_reserved": 0, "is_disabled": 0, "fusion_lon": 0.0, "bike_id": "e8360556a756bf35778806f7923b054c", "lon": -77.029636, "rental_uris": {"ios": "https://dc.lft.to/lastmile_qr_scan", "android": "https://dc.lft.to/lastmile_qr_scan"}}, {"name": "0c8a4ff44ea7786b36020053c6ab06de", "fusion_lat": 0.0, "type": "electric_scooter", "lat": 38.9119095, "is_reserved": 0, "is_disabled": 0, "fusion_lon": 0.0, "bike_id": "0c8a4ff44ea7786b36020053c6ab06de", "lon": -77.04501766666667, "rental_uris": {"ios": "https://dc.lft.to/lastmile_qr_scan", "android": "https://dc.lft.to/lastmile_qr_scan"}}, {"name": "32c345ed76396d01f3d062ed45d874a2", "fusion_lat": 0.0, "type": "electric_scooter", "lat": 38.896034, "is_reserved": 0, "is_disabled": 0, "fusion_lon": 0.0, "bike_id": "32c345ed76396d01f3d062ed45d874a2", "lon": -77.04116666666667, "rental_uris": {"ios": "https://dc.lft.to/lastmile_qr_scan", "android": "https://dc.lft.to/lastmile_qr_scan"}}, {"name": "344571c1bc87ee3e5afe5c2a27f353fb", "fusion_lat": 0.0, "type": "electric_bike", "lat": 38.895617666666666, "is_reserved": 0, "is_disabled": 0, "fusion_lon": 0.0, "bike_id": "344571c1bc87ee3e5afe5c2a27f353fb", "lon": -77.12737816666667, "rental_uris": {"ios": "https://dc.lft.to/lastmile_qr_scan", "android": "https://dc.lft.to/lastmile_qr_scan"}}, {"name": "10ca1945edc9c8b3744311f540f3630a", "fusion_lat": 0.0, "type": "electric_scooter", "lat": 38.902364666666664, "is_reserved": 0, "is_disabled": 0, "fusion_lon": 0.0, "bike_id": "10ca1945edc9c8b3744311f540f3630a", "lon": -77.02694566666666, "rental_uris": {"ios": "https://dc.lft.to/lastmile_qr_scan", "android": "https://dc.lft.to/lastmile_qr_scan"}}, {"name": "5974e752c7f314ec8171b576a3b45546", "fusion_lat": 0.0, "type": "electric_scooter", "lat": 38.896402, "is_reserved": 0, "is_disabled": 0, "fusion_lon": 0.0, "bike_id": "5974e752c7f314ec8171b576a3b45546", "lon": -77.04654133333334, "rental_uris": {"ios": "https://dc.lft.to/lastmile_qr_scan", "android": "https://dc.lft.to/lastmile_qr_scan"}}, {"name": "5bfce4af039b788672b93c24d9fbd951", "fusion_lat": 0.0, "type": "electric_scooter", "lat": 38.93383733333334, "is_reserved": 0, "is_disabled": 0, "fusion_lon": 0.0, "bike_id": "5bfce4af039b788672b93c24d9fbd951", "lon": -77.057657, "rental_uris": {"ios": "https://dc.lft.to/lastmile_qr_scan", "android": "https://dc.lft.to/lastmile_qr_scan"}}, {"name": "9d134ec74a25e204bd3a3538780b36bf", "fusion_lat": 0.0, "type": "electric_scooter", "lat": 38.90852266666667, "is_reserved": 0, "is_disabled": 0, "fusion_lon": 0.0, "bike_id": "9d134ec74a25e204bd3a3538780b36bf", "lon": -77.02044366666667, "rental_uris": {"ios": "https://dc.lft.to/lastmile_qr_scan", "android": "https://dc.lft.to/lastmile_qr_scan"}}, {"name": "f42967625c57561bbab972ae0e3c3d65", "fusion_lat": 0.0, "type": "electric_scooter", "lat": 38.90177633333333, "is_reserved": 0, "is_disabled": 0, "fusion_lon": 0.0, "bike_id": "f42967625c57561bbab972ae0e3c3d65", "lon": -77.02192933333333, "rental_uris": {"ios": "https://dc.lft.to/lastmile_qr_scan", "android": "https://dc.lft.to/lastmile_qr_scan"}}, {"name": "68381efb32332d918f782bfadbf7a70b", "fusion_lat": 0.0, "type": "electric_scooter", "lat": 38.9125345, "is_reserved": 0, "is_disabled": 0, "fusion_lon": 0.0, "bike_id": "68381efb32332d918f782bfadbf7a70b", "lon": -77.02226466666667, "rental_uris": {"ios": "https://dc.lft.to/lastmile_qr_scan", "android": "https://dc.lft.to/lastmile_qr_scan"}}, {"name": "ed42002807a12fa5ff3e6563f488d4b3", "fusion_lat": 0.0, "type": "electric_scooter", "lat": 38.94290733333333, "is_reserved": 0, "is_disabled": 0, "fusion_lon": 0.0, "bike_id": "ed42002807a12fa5ff3e6563f488d4b3", "lon": -77.02177366666666, "rental_uris": {"ios": "https://dc.lft.to/lastmile_qr_scan", "android": "https://dc.lft.to/lastmile_qr_scan"}}, {"name": "4f85c373a99a4ae8eda84c3b638fc092", "fusion_lat": 0.0, "type": "electric_scooter", "lat": 38.930031, "is_reserved": 0, "is_disabled": 0, "fusion_lon": 0.0, "bike_id": "4f85c373a99a4ae8eda84c3b638fc092", "lon": -77.02311516666667, "rental_uris": {"ios": "https://dc.lft.to/lastmile_qr_scan", "android": "https://dc.lft.to/lastmile_qr_scan"}}, {"name": "2c7f25e21d89889d4a2747edd590bbf4", "fusion_lat": 0.0, "type": "electric_scooter", "lat": 38.89736633333333, "is_reserved": 0, "is_disabled": 0, "fusion_lon": 0.0, "bike_id": "2c7f25e21d89889d4a2747edd590bbf4", "lon": -76.942532, "rental_uris": {"ios": "https://dc.lft.to/lastmile_qr_scan", "android": "https://dc.lft.to/lastmile_qr_scan"}}, {"name": "5147108ee8157709632b5ffed688295b", "fusion_lat": 0.0, "type": "electric_scooter", "lat": 38.914155, "is_reserved": 0, "is_disabled": 0, "fusion_lon": 0.0, "bike_id": "5147108ee8157709632b5ffed688295b", "lon": -77.0317385, "rental_uris": {"ios": "https://dc.lft.to/lastmile_qr_scan", "android": "https://dc.lft.to/lastmile_qr_scan"}}, {"name": "bba4e99009909dbbb2089613b40e23de", "fusion_lat": 0.0, "type": "electric_scooter", "lat": 38.900370333333335, "is_reserved": 0, "is_disabled": 0, "fusion_lon": 0.0, "bike_id": "bba4e99009909dbbb2089613b40e23de", "lon": -77.03327633333333, "rental_uris": {"ios": "https://dc.lft.to/lastmile_qr_scan", "android": "https://dc.lft.to/lastmile_qr_scan"}}, {"name": "1ccfbb2c3f0ba28f3bd7612ceec4dcda", "fusion_lat": 0.0, "type": "electric_scooter", "lat": 38.9079865, "is_reserved": 0, "is_disabled": 0, "fusion_lon": 0.0, "bike_id": "1ccfbb2c3f0ba28f3bd7612ceec4dcda", "lon": -77.04820066666667, "rental_uris": {"ios": "https://dc.lft.to/lastmile_qr_scan", "android": "https://dc.lft.to/lastmile_qr_scan"}}, {"name": "32b836e9d70a0066596c9c7be83728c4", "fusion_lat": 0.0, "type": "electric_scooter", "lat": 38.90862966666667, "is_reserved": 0, "is_disabled": 0, "fusion_lon": 0.0, "bike_id": "32b836e9d70a0066596c9c7be83728c4", "lon": -77.02714883333333, "rental_uris": {"ios": "https://dc.lft.to/lastmile_qr_scan", "android": "https://dc.lft.to/lastmile_qr_scan"}}, {"name": "e7ee2649f833b47f918050da2980c7f9", "fusion_lat": 0.0, "type": "electric_bike", "lat": 38.93595883333333, "is_reserved": 0, "is_disabled": 0, "fusion_lon": 0.0, "bike_id": "e7ee2649f833b47f918050da2980c7f9", "lon": -77.02115766666667, "rental_uris": {"ios": "https://dc.lft.to/lastmile_qr_scan", "android": "https://dc.lft.to/lastmile_qr_scan"}}, {"name": "9396cad483b194ef054ef63260d857d9", "fusion_lat": 0.0, "type": "electric_scooter", "lat": 38.9057415, "is_reserved": 0, "is_disabled": 0, "fusion_lon": 0.0, "bike_id": "9396cad483b194ef054ef63260d857d9", "lon": -77.03716183333333, "rental_uris": {"ios": "https://dc.lft.to/lastmile_qr_scan", "android": "https://dc.lft.to/lastmile_qr_scan"}}, {"name": "35c6776b6dc585e5ef77e037df7bf7a1", "fusion_lat": 0.0, "type": "electric_scooter", "lat": 38.86824933333333, "is_reserved": 0, "is_disabled": 0, "fusion_lon": 0.0, "bike_id": "35c6776b6dc585e5ef77e037df7bf7a1", "lon": -76.98614783333333, "rental_uris": {"ios": "https://dc.lft.to/lastmile_qr_scan", "android": "https://dc.lft.to/lastmile_qr_scan"}}, {"name": "88e96953e48f0d5d75f03586a26b23b8", "fusion_lat": 0.0, "type": "electric_scooter", "lat": 38.927565, "is_reserved": 0, "is_disabled": 0, "fusion_lon": 0.0, "bike_id": "88e96953e48f0d5d75f03586a26b23b8", "lon": -77.022882, "rental_uris": {"ios": "https://dc.lft.to/lastmile_qr_scan", "android": "https://dc.lft.to/lastmile_qr_scan"}}, {"name": "5ca4055368a427ccd9d27c01401a4355", "fusion_lat": 0.0, "type": "electric_scooter", "lat": 38.885803333333335, "is_reserved": 0, "is_disabled": 0, "fusion_lon": 0.0, "bike_id": "5ca4055368a427ccd9d27c01401a4355", "lon": -76.99500816666666, "rental_uris": {"ios": "https://dc.lft.to/lastmile_qr_scan", "android": "https://dc.lft.to/lastmile_qr_scan"}}, {"name": "81fc44378cf90c9e1261e34fc77c0a91", "fusion_lat": 0.0, "type": "electric_scooter", "lat": 38.915872666666665, "is_reserved": 0, "is_disabled": 0, "fusion_lon": 0.0, "bike_id": "81fc44378cf90c9e1261e34fc77c0a91", "lon": -77.0426785, "rental_uris": {"ios": "https://dc.lft.to/lastmile_qr_scan", "android": "https://dc.lft.to/lastmile_qr_scan"}}, {"name": "5f3aa92e7056df51c8a6d4e478da27fd", "fusion_lat": 0.0, "type": "electric_scooter", "lat": 38.924797, "is_reserved": 0, "is_disabled": 0, "fusion_lon": 0.0, "bike_id": "5f3aa92e7056df51c8a6d4e478da27fd", "lon": -77.03003166666667, "rental_uris": {"ios": "https://dc.lft.to/lastmile_qr_scan", "android": "https://dc.lft.to/lastmile_qr_scan"}}, {"name": "b66fe812b1ece3810fe5206870eaeb4e", "fusion_lat": 0.0, "type": "electric_scooter", "lat": 38.928063, "is_reserved": 0, "is_disabled": 0, "fusion_lon": 0.0, "bike_id": "b66fe812b1ece3810fe5206870eaeb4e", "lon": -77.01413383333333, "rental_uris": {"ios": "https://dc.lft.to/lastmile_qr_scan", "android": "https://dc.lft.to/lastmile_qr_scan"}}, {"name": "3b0f622369527bcd06875f9ceb70382f", "fusion_lat": 0.0, "type": "electric_scooter", "lat": 38.924899, "is_reserved": 0, "is_disabled": 0, "fusion_lon": 0.0, "bike_id": "3b0f622369527bcd06875f9ceb70382f", "lon": -77.02710783333333, "rental_uris": {"ios": "https://dc.lft.to/lastmile_qr_scan", "android": "https://dc.lft.to/lastmile_qr_scan"}}, {"name": "5a5a1555dfcf780212a60afa2c4ad7a1", "fusion_lat": 0.0, "type": "electric_scooter", "lat": 38.91187883333333, "is_reserved": 0, "is_disabled": 0, "fusion_lon": 0.0, "bike_id": "5a5a1555dfcf780212a60afa2c4ad7a1", "lon": -77.03251216666666, "rental_uris": {"ios": "https://dc.lft.to/lastmile_qr_scan", "android": "https://dc.lft.to/lastmile_qr_scan"}}, {"name": "4d9133659625a22e7cab66c427cf6c3a", "fusion_lat": 0.0, "type": "electric_scooter", "lat": 38.90961516666667, "is_reserved": 0, "is_disabled": 0, "fusion_lon": 0.0, "bike_id": "4d9133659625a22e7cab66c427cf6c3a", "lon": -77.0268325, "rental_uris": {"ios": "https://dc.lft.to/lastmile_qr_scan", "android": "https://dc.lft.to/lastmile_qr_scan"}}, {"name": "e15c37ecacfba66fbf5774730f515828", "fusion_lat": 0.0, "type": "electric_scooter", "lat": 38.919150333333334, "is_reserved": 0, "is_disabled": 0, "fusion_lon": 0.0, "bike_id": "e15c37ecacfba66fbf5774730f515828", "lon": -77.03106083333333, "rental_uris": {"ios": "https://dc.lft.to/lastmile_qr_scan", "android": "https://dc.lft.to/lastmile_qr_scan"}}, {"name": "1c6f9f0cfab514bb347cd2e7f0707c80", "fusion_lat": 0.0, "type": "electric_scooter", "lat": 38.91338366666667, "is_reserved": 0, "is_disabled": 0, "fusion_lon": 0.0, "bike_id": "1c6f9f0cfab514bb347cd2e7f0707c80", "lon": -77.042278, "rental_uris": {"ios": "https://dc.lft.to/lastmile_qr_scan", "android": "https://dc.lft.to/lastmile_qr_scan"}}, {"name": "2dda9a19985e37055b78251d0ce6fbea", "fusion_lat": 0.0, "type": "electric_scooter", "lat": 38.8955075, "is_reserved": 0, "is_disabled": 0, "fusion_lon": 0.0, "bike_id": "2dda9a19985e37055b78251d0ce6fbea", "lon": -76.94880366666666, "rental_uris": {"ios": "https://dc.lft.to/lastmile_qr_scan", "android": "https://dc.lft.to/lastmile_qr_scan"}}, {"name": "6798879987d5efa054f09f872120a93c", "fusion_lat": 0.0, "type": "electric_scooter", "lat": 38.907293, "is_reserved": 0, "is_disabled": 0, "fusion_lon": 0.0, "bike_id": "6798879987d5efa054f09f872120a93c", "lon": -77.03205683333333, "rental_uris": {"ios": "https://dc.lft.to/lastmile_qr_scan", "android": "https://dc.lft.to/lastmile_qr_scan"}}, {"name": "81087ed0971a22c29eeb780618aff23e", "fusion_lat": 0.0, "type": "electric_bike", "lat": 38.815043833333334, "is_reserved": 0, "is_disabled": 0, "fusion_lon": 0.0, "bike_id": "81087ed0971a22c29eeb780618aff23e", "lon": -77.12662933333333, "rental_uris": {"ios": "https://dc.lft.to/lastmile_qr_scan", "android": "https://dc.lft.to/lastmile_qr_scan"}}, {"name": "b524d0b2f9f0abee730eec0c008602ff", "fusion_lat": 0.0, "type": "electric_scooter", "lat": 38.9270465, "is_reserved": 0, "is_disabled": 0, "fusion_lon": 0.0, "bike_id": "b524d0b2f9f0abee730eec0c008602ff", "lon": -77.03732066666667, "rental_uris": {"ios": "https://dc.lft.to/lastmile_qr_scan", "android": "https://dc.lft.to/lastmile_qr_scan"}}, {"name": "379f82f1b19f344d93cfa5f2116f6608", "fusion_lat": 0.0, "type": "electric_scooter", "lat": 38.898956, "is_reserved": 0, "is_disabled": 0, "fusion_lon": 0.0, "bike_id": "379f82f1b19f344d93cfa5f2116f6608", "lon": -77.0150825, "rental_uris": {"ios": "https://dc.lft.to/lastmile_qr_scan", "android": "https://dc.lft.to/lastmile_qr_scan"}}, {"name": "0562f53d4fa7c60850cbe78f40f5eec1", "fusion_lat": 0.0, "type": "electric_scooter", "lat": 38.86211133333333, "is_reserved": 0, "is_disabled": 0, "fusion_lon": 0.0, "bike_id": "0562f53d4fa7c60850cbe78f40f5eec1", "lon": -76.9947055, "rental_uris": {"ios": "https://dc.lft.to/lastmile_qr_scan", "android": "https://dc.lft.to/lastmile_qr_scan"}}, {"name": "0250bce71d30f1deaa76abe47cff4963", "fusion_lat": 0.0, "type": "electric_scooter", "lat": 38.902376833333335, "is_reserved": 0, "is_disabled": 0, "fusion_lon": 0.0, "bike_id": "0250bce71d30f1deaa76abe47cff4963", "lon": -77.0534035, "rental_uris": {"ios": "https://dc.lft.to/lastmile_qr_scan", "android": "https://dc.lft.to/lastmile_qr_scan"}}, {"name": "448846b570676669ab0e491368ec9fb7", "fusion_lat": 0.0, "type": "electric_scooter", "lat": 38.927214666666664, "is_reserved": 0, "is_disabled": 0, "fusion_lon": 0.0, "bike_id": "448846b570676669ab0e491368ec9fb7", "lon": -77.07148366666667, "rental_uris": {"ios": "https://dc.lft.to/lastmile_qr_scan", "android": "https://dc.lft.to/lastmile_qr_scan"}}, {"name": "359ec0389baf64d1811d64a308861452", "fusion_lat": 0.0, "type": "electric_scooter", "lat": 38.90026983333333, "is_reserved": 0, "is_disabled": 0, "fusion_lon": 0.0, "bike_id": "359ec0389baf64d1811d64a308861452", "lon": -76.99829066666666, "rental_uris": {"ios": "https://dc.lft.to/lastmile_qr_scan", "android": "https://dc.lft.to/lastmile_qr_scan"}}, {"name": "0f26f2bac7ce9786b4e2c437ab837fd7", "fusion_lat": 0.0, "type": "electric_scooter", "lat": 38.88592966666667, "is_reserved": 0, "is_disabled": 0, "fusion_lon": 0.0, "bike_id": "0f26f2bac7ce9786b4e2c437ab837fd7", "lon": -77.02200916666666, "rental_uris": {"ios": "https://dc.lft.to/lastmile_qr_scan", "android": "https://dc.lft.to/lastmile_qr_scan"}}, {"name": "e75b3df3077f47436e30a3c7e12192ac", "fusion_lat": 0.0, "type": "electric_scooter", "lat": 38.9341545, "is_reserved": 0, "is_disabled": 0, "fusion_lon": 0.0, "bike_id": "e75b3df3077f47436e30a3c7e12192ac", "lon": -77.04184366666667, "rental_uris": {"ios": "https://dc.lft.to/lastmile_qr_scan", "android": "https://dc.lft.to/lastmile_qr_scan"}}, {"name": "1e31d3cc7e36951c6089201ca1e2cf7e", "fusion_lat": 0.0, "type": "electric_bike", "lat": 38.88346533333333, "is_reserved": 0, "is_disabled": 0, "fusion_lon": 0.0, "bike_id": "1e31d3cc7e36951c6089201ca1e2cf7e", "lon": -77.18294333333333, "rental_uris": {"ios": "https://dc.lft.to/lastmile_qr_scan", "android": "https://dc.lft.to/lastmile_qr_scan"}}, {"name": "8393447dd24352b55bd011d1ea3dadcf", "fusion_lat": 0.0, "type": "electric_scooter", "lat": 38.905414, "is_reserved": 0, "is_disabled": 0, "fusion_lon": 0.0, "bike_id": "8393447dd24352b55bd011d1ea3dadcf", "lon": -77.06276983333333, "rental_uris": {"ios": "https://dc.lft.to/lastmile_qr_scan", "android": "https://dc.lft.to/lastmile_qr_scan"}}, {"name": "23cdefbd823cb329cd2aad4866ef37e6", "fusion_lat": 0.0, "type": "electric_scooter", "lat": 38.90032633333333, "is_reserved": 0, "is_disabled": 0, "fusion_lon": 0.0, "bike_id": "23cdefbd823cb329cd2aad4866ef37e6", "lon": -76.99862266666666, "rental_uris": {"ios": "https://dc.lft.to/lastmile_qr_scan", "android": "https://dc.lft.to/lastmile_qr_scan"}}, {"name": "7612998a5e4303cc9cf21e1fe89560cb", "fusion_lat": 0.0, "type": "electric_scooter", "lat": 38.91046033333333, "is_reserved": 0, "is_disabled": 0, "fusion_lon": 0.0, "bike_id": "7612998a5e4303cc9cf21e1fe89560cb", "lon": -77.0437495, "rental_uris": {"ios": "https://dc.lft.to/lastmile_qr_scan", "android": "https://dc.lft.to/lastmile_qr_scan"}}, {"name": "05bc4b3c3edc84f78cf3396658b02aee", "fusion_lat": 0.0, "type": "electric_scooter", "lat": 38.8985075, "is_reserved": 0, "is_disabled": 0, "fusion_lon": 0.0, "bike_id": "05bc4b3c3edc84f78cf3396658b02aee", "lon": -77.016151, "rental_uris": {"ios": "https://dc.lft.to/lastmile_qr_scan", "android": "https://dc.lft.to/lastmile_qr_scan"}}, {"name": "fa1f304f2f6b825f8e9a2d812b952fd4", "fusion_lat": 0.0, "type": "electric_scooter", "lat": 38.942808166666666, "is_reserved": 0, "is_disabled": 0, "fusion_lon": 0.0, "bike_id": "fa1f304f2f6b825f8e9a2d812b952fd4", "lon": -77.02500966666666, "rental_uris": {"ios": "https://dc.lft.to/lastmile_qr_scan", "android": "https://dc.lft.to/lastmile_qr_scan"}}, {"name": "f5f75d64bc5a209b053e55f7bbb25f3c", "fusion_lat": 0.0, "type": "electric_scooter", "lat": 38.893703, "is_reserved": 0, "is_disabled": 0, "fusion_lon": 0.0, "bike_id": "f5f75d64bc5a209b053e55f7bbb25f3c", "lon": -76.949987, "rental_uris": {"ios": "https://dc.lft.to/lastmile_qr_scan", "android": "https://dc.lft.to/lastmile_qr_scan"}}, {"name": "a08f562b90038dad123b6fe6d01993c4", "fusion_lat": 0.0, "type": "electric_scooter", "lat": 38.885009333333336, "is_reserved": 0, "is_disabled": 0, "fusion_lon": 0.0, "bike_id": "a08f562b90038dad123b6fe6d01993c4", "lon": -77.030699, "rental_uris": {"ios": "https://dc.lft.to/lastmile_qr_scan", "android": "https://dc.lft.to/lastmile_qr_scan"}}, {"name": "5954dd9e387ae5737de0318a55faf5d9", "fusion_lat": 0.0, "type": "electric_scooter", "lat": 38.939084333333334, "is_reserved": 0, "is_disabled": 0, "fusion_lon": 0.0, "bike_id": "5954dd9e387ae5737de0318a55faf5d9", "lon": -77.06050616666667, "rental_uris": {"ios": "https://dc.lft.to/lastmile_qr_scan", "android": "https://dc.lft.to/lastmile_qr_scan"}}, {"name": "8b3eeb7ad8d65fb26938af1ad41e24b8", "fusion_lat": 0.0, "type": "electric_scooter", "lat": 38.90569416666666, "is_reserved": 0, "is_disabled": 0, "fusion_lon": 0.0, "bike_id": "8b3eeb7ad8d65fb26938af1ad41e24b8", "lon": -77.0298685, "rental_uris": {"ios": "https://dc.lft.to/lastmile_qr_scan", "android": "https://dc.lft.to/lastmile_qr_scan"}}, {"name": "7374ae4d17f73122410a33f63baeb417", "fusion_lat": 0.0, "type": "electric_bike", "lat": 38.934904833333334, "is_reserved": 0, "is_disabled": 0, "fusion_lon": 0.0, "bike_id": "7374ae4d17f73122410a33f63baeb417", "lon": -77.030158, "rental_uris": {"ios": "https://dc.lft.to/lastmile_qr_scan", "android": "https://dc.lft.to/lastmile_qr_scan"}}, {"name": "4efe5a0c78815c8602e88c04059f01b2", "fusion_lat": 0.0, "type": "electric_scooter", "lat": 38.9058005, "is_reserved": 0, "is_disabled": 0, "fusion_lon": 0.0, "bike_id": "4efe5a0c78815c8602e88c04059f01b2", "lon": -77.02989966666667, "rental_uris": {"ios": "https://dc.lft.to/lastmile_qr_scan", "android": "https://dc.lft.to/lastmile_qr_scan"}}, {"name": "c473087e3e43d0be699d59d3c1bf4c09", "fusion_lat": 0.0, "type": "electric_scooter", "lat": 38.92048333333334, "is_reserved": 0, "is_disabled": 0, "fusion_lon": 0.0, "bike_id": "c473087e3e43d0be699d59d3c1bf4c09", "lon": -77.0344215, "rental_uris": {"ios": "https://dc.lft.to/lastmile_qr_scan", "android": "https://dc.lft.to/lastmile_qr_scan"}}, {"name": "272bb78c951db2ef8fced1a513cabf91", "fusion_lat": 0.0, "type": "electric_scooter", "lat": 38.9006335, "is_reserved": 0, "is_disabled": 0, "fusion_lon": 0.0, "bike_id": "272bb78c951db2ef8fced1a513cabf91", "lon": -77.04507316666667, "rental_uris": {"ios": "https://dc.lft.to/lastmile_qr_scan", "android": "https://dc.lft.to/lastmile_qr_scan"}}, {"name": "4ebcf934e2a3990b0e54d4c3cd49cbaa", "fusion_lat": 0.0, "type": "electric_scooter", "lat": 38.918718, "is_reserved": 0, "is_disabled": 0, "fusion_lon": 0.0, "bike_id": "4ebcf934e2a3990b0e54d4c3cd49cbaa", "lon": -77.04138916666666, "rental_uris": {"ios": "https://dc.lft.to/lastmile_qr_scan", "android": "https://dc.lft.to/lastmile_qr_scan"}}, {"name": "0914a4b75c4983c822790aaf064ceae6", "fusion_lat": 0.0, "type": "electric_scooter", "lat": 38.91414433333333, "is_reserved": 0, "is_disabled": 0, "fusion_lon": 0.0, "bike_id": "0914a4b75c4983c822790aaf064ceae6", "lon": -77.02645633333333, "rental_uris": {"ios": "https://dc.lft.to/lastmile_qr_scan", "android": "https://dc.lft.to/lastmile_qr_scan"}}, {"name": "df55c58d67e62e5735f1efcb6f5b43ff", "fusion_lat": 0.0, "type": "electric_scooter", "lat": 38.904513333333334, "is_reserved": 0, "is_disabled": 0, "fusion_lon": 0.0, "bike_id": "df55c58d67e62e5735f1efcb6f5b43ff", "lon": -77.04810583333334, "rental_uris": {"ios": "https://dc.lft.to/lastmile_qr_scan", "android": "https://dc.lft.to/lastmile_qr_scan"}}, {"name": "460224402c397638d5a2b01372e18ed4", "fusion_lat": 0.0, "type": "electric_bike", "lat": 39.03882733333333, "is_reserved": 0, "is_disabled": 0, "fusion_lon": 0.0, "bike_id": "460224402c397638d5a2b01372e18ed4", "lon": -76.9904645, "rental_uris": {"ios": "https://dc.lft.to/lastmile_qr_scan", "android": "https://dc.lft.to/lastmile_qr_scan"}}, {"name": "3507e006847d06fc847ad700110e7087", "fusion_lat": 0.0, "type": "electric_scooter", "lat": 38.94956466666667, "is_reserved": 0, "is_disabled": 0, "fusion_lon": 0.0, "bike_id": "3507e006847d06fc847ad700110e7087", "lon": -77.02723283333333, "rental_uris": {"ios": "https://dc.lft.to/lastmile_qr_scan", "android": "https://dc.lft.to/lastmile_qr_scan"}}, {"name": "db190b374ea176e0d0e814d251bb7381", "fusion_lat": 0.0, "type": "electric_scooter", "lat": 38.91568933333333, "is_reserved": 0, "is_disabled": 0, "fusion_lon": 0.0, "bike_id": "db190b374ea176e0d0e814d251bb7381", "lon": -77.039131, "rental_uris": {"ios": "https://dc.lft.to/lastmile_qr_scan", "android": "https://dc.lft.to/lastmile_qr_scan"}}, {"name": "d1ba43c321f9e23326abb17ab7af104b", "fusion_lat": 0.0, "type": "electric_scooter", "lat": 38.92928783333333, "is_reserved": 0, "is_disabled": 0, "fusion_lon": 0.0, "bike_id": "d1ba43c321f9e23326abb17ab7af104b", "lon": -77.01964333333333, "rental_uris": {"ios": "https://dc.lft.to/lastmile_qr_scan", "android": "https://dc.lft.to/lastmile_qr_scan"}}, {"name": "018e04225efada8fd8d0a8f08410c049", "fusion_lat": 0.0, "type": "electric_scooter", "lat": 38.90748, "is_reserved": 0, "is_disabled": 0, "fusion_lon": 0.0, "bike_id": "018e04225efada8fd8d0a8f08410c049", "lon": -77.0309155, "rental_uris": {"ios": "https://dc.lft.to/lastmile_qr_scan", "android": "https://dc.lft.to/lastmile_qr_scan"}}, {"name": "7160bf0a3379a9abce6098ae8d36e63a", "fusion_lat": 0.0, "type": "electric_bike", "lat": 38.892855833333336, "is_reserved": 0, "is_disabled": 0, "fusion_lon": 0.0, "bike_id": "7160bf0a3379a9abce6098ae8d36e63a", "lon": -76.98560816666667, "rental_uris": {"ios": "https://dc.lft.to/lastmile_qr_scan", "android": "https://dc.lft.to/lastmile_qr_scan"}}, {"name": "7acc6e31e6e30bb7fdb31831e45c5ce6", "fusion_lat": 0.0, "type": "electric_scooter", "lat": 38.9133605, "is_reserved": 0, "is_disabled": 0, "fusion_lon": 0.0, "bike_id": "7acc6e31e6e30bb7fdb31831e45c5ce6", "lon": -77.03447916666667, "rental_uris": {"ios": "https://dc.lft.to/lastmile_qr_scan", "android": "https://dc.lft.to/lastmile_qr_scan"}}, {"name": "c1a9c1e10a37a1825a669e36648aa3e9", "fusion_lat": 0.0, "type": "electric_scooter", "lat": 38.90733866666667, "is_reserved": 0, "is_disabled": 0, "fusion_lon": 0.0, "bike_id": "c1a9c1e10a37a1825a669e36648aa3e9", "lon": -77.02976916666667, "rental_uris": {"ios": "https://dc.lft.to/lastmile_qr_scan", "android": "https://dc.lft.to/lastmile_qr_scan"}}, {"name": "c4d06252cd0130454b2c516943dc8635", "fusion_lat": 0.0, "type": "electric_bike", "lat": 38.880395, "is_reserved": 0, "is_disabled": 0, "fusion_lon": 0.0, "bike_id": "c4d06252cd0130454b2c516943dc8635", "lon": -77.01323483333333, "rental_uris": {"ios": "https://dc.lft.to/lastmile_qr_scan", "android": "https://dc.lft.to/lastmile_qr_scan"}}, {"name": "4f55fd7ee73f33703f706b5509b26379", "fusion_lat": 0.0, "type": "electric_bike", "lat": 38.852295833333336, "is_reserved": 0, "is_disabled": 0, "fusion_lon": 0.0, "bike_id": "4f55fd7ee73f33703f706b5509b26379", "lon": -77.103402, "rental_uris": {"ios": "https://dc.lft.to/lastmile_qr_scan", "android": "https://dc.lft.to/lastmile_qr_scan"}}, {"name": "1c2f97e941ab0c8775557ae3cf390442", "fusion_lat": 0.0, "type": "electric_scooter", "lat": 38.9243525, "is_reserved": 0, "is_disabled": 0, "fusion_lon": 0.0, "bike_id": "1c2f97e941ab0c8775557ae3cf390442", "lon": -77.02983416666666, "rental_uris": {"ios": "https://dc.lft.to/lastmile_qr_scan", "android": "https://dc.lft.to/lastmile_qr_scan"}}, {"name": "8c15181dcd20597c16e8284e96a005b6", "fusion_lat": 0.0, "type": "electric_scooter", "lat": 38.93280516666667, "is_reserved": 0, "is_disabled": 0, "fusion_lon": 0.0, "bike_id": "8c15181dcd20597c16e8284e96a005b6", "lon": -77.03502433333334, "rental_uris": {"ios": "https://dc.lft.to/lastmile_qr_scan", "android": "https://dc.lft.to/lastmile_qr_scan"}}, {"name": "57831e0a2d0fd1b9e120e5e0595e2783", "fusion_lat": 0.0, "type": "electric_scooter", "lat": 38.90018516666667, "is_reserved": 0, "is_disabled": 0, "fusion_lon": 0.0, "bike_id": "57831e0a2d0fd1b9e120e5e0595e2783", "lon": -77.00203466666666, "rental_uris": {"ios": "https://dc.lft.to/lastmile_qr_scan", "android": "https://dc.lft.to/lastmile_qr_scan"}}, {"name": "24f9da3c53003228c2a78782681b17f2", "fusion_lat": 0.0, "type": "electric_scooter", "lat": 38.8700855, "is_reserved": 0, "is_disabled": 0, "fusion_lon": 0.0, "bike_id": "24f9da3c53003228c2a78782681b17f2", "lon": -77.01226666666666, "rental_uris": {"ios": "https://dc.lft.to/lastmile_qr_scan", "android": "https://dc.lft.to/lastmile_qr_scan"}}, {"name": "32709d41cf25a2f260e7d97472c49f80", "fusion_lat": 0.0, "type": "electric_scooter", "lat": 38.9141575, "is_reserved": 0, "is_disabled": 0, "fusion_lon": 0.0, "bike_id": "32709d41cf25a2f260e7d97472c49f80", "lon": -77.041615, "rental_uris": {"ios": "https://dc.lft.to/lastmile_qr_scan", "android": "https://dc.lft.to/lastmile_qr_scan"}}, {"name": "cf894b3d2744b55c6ad0e59548145860", "fusion_lat": 0.0, "type": "electric_bike", "lat": 38.96548583333333, "is_reserved": 0, "is_disabled": 0, "fusion_lon": 0.0, "bike_id": "cf894b3d2744b55c6ad0e59548145860", "lon": -77.0351395, "rental_uris": {"ios": "https://dc.lft.to/lastmile_qr_scan", "android": "https://dc.lft.to/lastmile_qr_scan"}}, {"name": "ece6d093162aec47d6ef87d08b39f0a8", "fusion_lat": 0.0, "type": "electric_scooter", "lat": 38.890845166666665, "is_reserved": 0, "is_disabled": 0, "fusion_lon": 0.0, "bike_id": "ece6d093162aec47d6ef87d08b39f0a8", "lon": -76.99790283333333, "rental_uris": {"ios": "https://dc.lft.to/lastmile_qr_scan", "android": "https://dc.lft.to/lastmile_qr_scan"}}, {"name": "03712d7e9ef6a3b4931075bf82a2603a", "fusion_lat": 0.0, "type": "electric_scooter", "lat": 38.910405, "is_reserved": 0, "is_disabled": 0, "fusion_lon": 0.0, "bike_id": "03712d7e9ef6a3b4931075bf82a2603a", "lon": -77.02816566666667, "rental_uris": {"ios": "https://dc.lft.to/lastmile_qr_scan", "android": "https://dc.lft.to/lastmile_qr_scan"}}, {"name": "1d9eb601e54c8df9ceee25185edf4526", "fusion_lat": 0.0, "type": "electric_scooter", "lat": 38.900636, "is_reserved": 0, "is_disabled": 0, "fusion_lon": 0.0, "bike_id": "1d9eb601e54c8df9ceee25185edf4526", "lon": -77.04509566666667, "rental_uris": {"ios": "https://dc.lft.to/lastmile_qr_scan", "android": "https://dc.lft.to/lastmile_qr_scan"}}, {"name": "98283cf97b7b907f331dcf5267b6ed29", "fusion_lat": 0.0, "type": "electric_scooter", "lat": 38.86522983333333, "is_reserved": 0, "is_disabled": 0, "fusion_lon": 0.0, "bike_id": "98283cf97b7b907f331dcf5267b6ed29", "lon": -76.98556516666666, "rental_uris": {"ios": "https://dc.lft.to/lastmile_qr_scan", "android": "https://dc.lft.to/lastmile_qr_scan"}}, {"name": "5a5f33af12fe9bcb629735116fec61fd", "fusion_lat": 0.0, "type": "electric_scooter", "lat": 38.924325, "is_reserved": 0, "is_disabled": 0, "fusion_lon": 0.0, "bike_id": "5a5f33af12fe9bcb629735116fec61fd", "lon": -77.04139466666666, "rental_uris": {"ios": "https://dc.lft.to/lastmile_qr_scan", "android": "https://dc.lft.to/lastmile_qr_scan"}}, {"name": "dc6d38e9b98a7d3e49d621fdcaa73578", "fusion_lat": 0.0, "type": "electric_bike", "lat": 38.82049, "is_reserved": 0, "is_disabled": 0, "fusion_lon": 0.0, "bike_id": "dc6d38e9b98a7d3e49d621fdcaa73578", "lon": -77.05316166666667, "rental_uris": {"ios": "https://dc.lft.to/lastmile_qr_scan", "android": "https://dc.lft.to/lastmile_qr_scan"}}, {"name": "57182fb94901d320a5449e0111c4dd56", "fusion_lat": 0.0, "type": "electric_scooter", "lat": 38.930685, "is_reserved": 0, "is_disabled": 0, "fusion_lon": 0.0, "bike_id": "57182fb94901d320a5449e0111c4dd56", "lon": -77.034004, "rental_uris": {"ios": "https://dc.lft.to/lastmile_qr_scan", "android": "https://dc.lft.to/lastmile_qr_scan"}}, {"name": "474f188ab66f7824673684ef715034fb", "fusion_lat": 0.0, "type": "electric_scooter", "lat": 38.91563716666667, "is_reserved": 0, "is_disabled": 0, "fusion_lon": 0.0, "bike_id": "474f188ab66f7824673684ef715034fb", "lon": -77.02239083333333, "rental_uris": {"ios": "https://dc.lft.to/lastmile_qr_scan", "android": "https://dc.lft.to/lastmile_qr_scan"}}, {"name": "6e60de92b31d3a093e37a3086eff4d7e", "fusion_lat": 0.0, "type": "electric_scooter", "lat": 38.912602, "is_reserved": 0, "is_disabled": 0, "fusion_lon": 0.0, "bike_id": "6e60de92b31d3a093e37a3086eff4d7e", "lon": -77.04213266666666, "rental_uris": {"ios": "https://dc.lft.to/lastmile_qr_scan", "android": "https://dc.lft.to/lastmile_qr_scan"}}, {"name": "572b86f67e5b403527a27a68d9bcc54b", "fusion_lat": 0.0, "type": "electric_scooter", "lat": 38.90234816666667, "is_reserved": 0, "is_disabled": 0, "fusion_lon": 0.0, "bike_id": "572b86f67e5b403527a27a68d9bcc54b", "lon": -76.97411066666666, "rental_uris": {"ios": "https://dc.lft.to/lastmile_qr_scan", "android": "https://dc.lft.to/lastmile_qr_scan"}}, {"name": "3aa44caf21646776f747eac362c81ff9", "fusion_lat": 0.0, "type": "electric_scooter", "lat": 38.88330916666666, "is_reserved": 0, "is_disabled": 0, "fusion_lon": 0.0, "bike_id": "3aa44caf21646776f747eac362c81ff9", "lon": -77.02328666666666, "rental_uris": {"ios": "https://dc.lft.to/lastmile_qr_scan", "android": "https://dc.lft.to/lastmile_qr_scan"}}, {"name": "52c466e0c4641e1986ab7912f5cb8c30", "fusion_lat": 0.0, "type": "electric_scooter", "lat": 38.92355166666667, "is_reserved": 0, "is_disabled": 0, "fusion_lon": 0.0, "bike_id": "52c466e0c4641e1986ab7912f5cb8c30", "lon": -77.03375483333333, "rental_uris": {"ios": "https://dc.lft.to/lastmile_qr_scan", "android": "https://dc.lft.to/lastmile_qr_scan"}}, {"name": "0e24bedfa1a68a28d6d07341d6686f8a", "fusion_lat": 0.0, "type": "electric_scooter", "lat": 38.9217735, "is_reserved": 0, "is_disabled": 0, "fusion_lon": 0.0, "bike_id": "0e24bedfa1a68a28d6d07341d6686f8a", "lon": -77.02667283333334, "rental_uris": {"ios": "https://dc.lft.to/lastmile_qr_scan", "android": "https://dc.lft.to/lastmile_qr_scan"}}, {"name": "0811fd90db2a276d67381ee226eb6b11", "fusion_lat": 0.0, "type": "electric_scooter", "lat": 38.93471616666667, "is_reserved": 0, "is_disabled": 0, "fusion_lon": 0.0, "bike_id": "0811fd90db2a276d67381ee226eb6b11", "lon": -77.03399583333334, "rental_uris": {"ios": "https://dc.lft.to/lastmile_qr_scan", "android": "https://dc.lft.to/lastmile_qr_scan"}}, {"name": "e1a1bc19ee1618d31e8b9adea3d8b773", "fusion_lat": 0.0, "type": "electric_scooter", "lat": 38.892429166666666, "is_reserved": 0, "is_disabled": 0, "fusion_lon": 0.0, "bike_id": "e1a1bc19ee1618d31e8b9adea3d8b773", "lon": -77.017883, "rental_uris": {"ios": "https://dc.lft.to/lastmile_qr_scan", "android": "https://dc.lft.to/lastmile_qr_scan"}}, {"name": "e4a29a513df3468f7def5be2a29f5767", "fusion_lat": 0.0, "type": "electric_bike", "lat": 38.86161716666667, "is_reserved": 0, "is_disabled": 0, "fusion_lon": 0.0, "bike_id": "e4a29a513df3468f7def5be2a29f5767", "lon": -77.13093083333334, "rental_uris": {"ios": "https://dc.lft.to/lastmile_qr_scan", "android": "https://dc.lft.to/lastmile_qr_scan"}}, {"name": "a769873bdd48bceaa0f9a3aea67ded86", "fusion_lat": 0.0, "type": "electric_scooter", "lat": 38.900304, "is_reserved": 0, "is_disabled": 0, "fusion_lon": 0.0, "bike_id": "a769873bdd48bceaa0f9a3aea67ded86", "lon": -77.011825, "rental_uris": {"ios": "https://dc.lft.to/lastmile_qr_scan", "android": "https://dc.lft.to/lastmile_qr_scan"}}, {"name": "8b19ed0f6b5d720eefdc805e11099730", "fusion_lat": 0.0, "type": "electric_bike", "lat": 38.967574666666664, "is_reserved": 0, "is_disabled": 0, "fusion_lon": 0.0, "bike_id": "8b19ed0f6b5d720eefdc805e11099730", "lon": -77.091617, "rental_uris": {"ios": "https://dc.lft.to/lastmile_qr_scan", "android": "https://dc.lft.to/lastmile_qr_scan"}}, {"name": "620cf06846363f311ef867c4f2b3cef0", "fusion_lat": 0.0, "type": "electric_scooter", "lat": 38.905747833333336, "is_reserved": 0, "is_disabled": 0, "fusion_lon": 0.0, "bike_id": "620cf06846363f311ef867c4f2b3cef0", "lon": -77.0366475, "rental_uris": {"ios": "https://dc.lft.to/lastmile_qr_scan", "android": "https://dc.lft.to/lastmile_qr_scan"}}, {"name": "c1d87714b84ab5ec107bf393a2e4b692", "fusion_lat": 0.0, "type": "electric_scooter", "lat": 38.91405666666667, "is_reserved": 0, "is_disabled": 0, "fusion_lon": 0.0, "bike_id": "c1d87714b84ab5ec107bf393a2e4b692", "lon": -77.0080645, "rental_uris": {"ios": "https://dc.lft.to/lastmile_qr_scan", "android": "https://dc.lft.to/lastmile_qr_scan"}}, {"name": "460ccd4fbee0c494922b33cce333dd44", "fusion_lat": 0.0, "type": "electric_scooter", "lat": 38.920738166666666, "is_reserved": 0, "is_disabled": 0, "fusion_lon": 0.0, "bike_id": "460ccd4fbee0c494922b33cce333dd44", "lon": -77.0239445, "rental_uris": {"ios": "https://dc.lft.to/lastmile_qr_scan", "android": "https://dc.lft.to/lastmile_qr_scan"}}, {"name": "886fe5fb7e8d37b2034ae23710fd7312", "fusion_lat": 0.0, "type": "electric_scooter", "lat": 38.8908565, "is_reserved": 0, "is_disabled": 0, "fusion_lon": 0.0, "bike_id": "886fe5fb7e8d37b2034ae23710fd7312", "lon": -76.991431, "rental_uris": {"ios": "https://dc.lft.to/lastmile_qr_scan", "android": "https://dc.lft.to/lastmile_qr_scan"}}, {"name": "8d5761f53e0c130ebb55aa0515c1bff2", "fusion_lat": 0.0, "type": "electric_scooter", "lat": 38.901213166666665, "is_reserved": 0, "is_disabled": 0, "fusion_lon": 0.0, "bike_id": "8d5761f53e0c130ebb55aa0515c1bff2", "lon": -77.02415883333333, "rental_uris": {"ios": "https://dc.lft.to/lastmile_qr_scan", "android": "https://dc.lft.to/lastmile_qr_scan"}}, {"name": "89ac4e486e6288b49a18272ecb9647b6", "fusion_lat": 0.0, "type": "electric_scooter", "lat": 38.90979466666667, "is_reserved": 0, "is_disabled": 0, "fusion_lon": 0.0, "bike_id": "89ac4e486e6288b49a18272ecb9647b6", "lon": -77.048712, "rental_uris": {"ios": "https://dc.lft.to/lastmile_qr_scan", "android": "https://dc.lft.to/lastmile_qr_scan"}}, {"name": "76536c2f1a13d85cc68180d457a614bf", "fusion_lat": 0.0, "type": "electric_scooter", "lat": 38.93964166666667, "is_reserved": 0, "is_disabled": 0, "fusion_lon": 0.0, "bike_id": "76536c2f1a13d85cc68180d457a614bf", "lon": -77.02753133333333, "rental_uris": {"ios": "https://dc.lft.to/lastmile_qr_scan", "android": "https://dc.lft.to/lastmile_qr_scan"}}, {"name": "da07cdf66fe6e5e60bbc782af3f97a29", "fusion_lat": 0.0, "type": "electric_scooter", "lat": 38.9078035, "is_reserved": 0, "is_disabled": 0, "fusion_lon": 0.0, "bike_id": "da07cdf66fe6e5e60bbc782af3f97a29", "lon": -77.038628, "rental_uris": {"ios": "https://dc.lft.to/lastmile_qr_scan", "android": "https://dc.lft.to/lastmile_qr_scan"}}, {"name": "2373e4c1eb0ef60c5ce2def8760cb676", "fusion_lat": 0.0, "type": "electric_scooter", "lat": 38.892954333333336, "is_reserved": 0, "is_disabled": 0, "fusion_lon": 0.0, "bike_id": "2373e4c1eb0ef60c5ce2def8760cb676", "lon": -76.93927733333334, "rental_uris": {"ios": "https://dc.lft.to/lastmile_qr_scan", "android": "https://dc.lft.to/lastmile_qr_scan"}}, {"name": "8d11ded41cc5b73fecca0dd22c8ba309", "fusion_lat": 0.0, "type": "electric_scooter", "lat": 38.920747666666664, "is_reserved": 0, "is_disabled": 0, "fusion_lon": 0.0, "bike_id": "8d11ded41cc5b73fecca0dd22c8ba309", "lon": -77.0239055, "rental_uris": {"ios": "https://dc.lft.to/lastmile_qr_scan", "android": "https://dc.lft.to/lastmile_qr_scan"}}, {"name": "1ef77a3740c266db288e4a66234b86fd", "fusion_lat": 0.0, "type": "electric_bike", "lat": 38.83233833333333, "is_reserved": 0, "is_disabled": 0, "fusion_lon": 0.0, "bike_id": "1ef77a3740c266db288e4a66234b86fd", "lon": -76.94620716666667, "rental_uris": {"ios": "https://dc.lft.to/lastmile_qr_scan", "android": "https://dc.lft.to/lastmile_qr_scan"}}, {"name": "8db7618b9c9d3d1210a6e5eb15f330f7", "fusion_lat": 0.0, "type": "electric_scooter", "lat": 38.909175, "is_reserved": 0, "is_disabled": 0, "fusion_lon": 0.0, "bike_id": "8db7618b9c9d3d1210a6e5eb15f330f7", "lon": -77.03184966666667, "rental_uris": {"ios": "https://dc.lft.to/lastmile_qr_scan", "android": "https://dc.lft.to/lastmile_qr_scan"}}, {"name": "58edab416aa32222adc290d6c685a9e4", "fusion_lat": 0.0, "type": "electric_scooter", "lat": 38.91212083333333, "is_reserved": 0, "is_disabled": 0, "fusion_lon": 0.0, "bike_id": "58edab416aa32222adc290d6c685a9e4", "lon": -77.0759385, "rental_uris": {"ios": "https://dc.lft.to/lastmile_qr_scan", "android": "https://dc.lft.to/lastmile_qr_scan"}}, {"name": "ba286e0a4d609a3fc371b7e4089e58bf", "fusion_lat": 0.0, "type": "electric_scooter", "lat": 38.91807816666667, "is_reserved": 0, "is_disabled": 0, "fusion_lon": 0.0, "bike_id": "ba286e0a4d609a3fc371b7e4089e58bf", "lon": -77.01020366666667, "rental_uris": {"ios": "https://dc.lft.to/lastmile_qr_scan", "android": "https://dc.lft.to/lastmile_qr_scan"}}, {"name": "75d096883b516e17da00585450098457", "fusion_lat": 0.0, "type": "electric_scooter", "lat": 38.912693833333336, "is_reserved": 0, "is_disabled": 0, "fusion_lon": 0.0, "bike_id": "75d096883b516e17da00585450098457", "lon": -77.06085733333333, "rental_uris": {"ios": "https://dc.lft.to/lastmile_qr_scan", "android": "https://dc.lft.to/lastmile_qr_scan"}}, {"name": "3a94f99bc3be2aad1f4b1b7f342feff5", "fusion_lat": 0.0, "type": "electric_scooter", "lat": 38.9191425, "is_reserved": 0, "is_disabled": 0, "fusion_lon": 0.0, "bike_id": "3a94f99bc3be2aad1f4b1b7f342feff5", "lon": -77.01339333333334, "rental_uris": {"ios": "https://dc.lft.to/lastmile_qr_scan", "android": "https://dc.lft.to/lastmile_qr_scan"}}, {"name": "8f8796d30f5d82f00801ff5ff41c2ffa", "fusion_lat": 0.0, "type": "electric_scooter", "lat": 38.8806555, "is_reserved": 0, "is_disabled": 0, "fusion_lon": 0.0, "bike_id": "8f8796d30f5d82f00801ff5ff41c2ffa", "lon": -76.93531866666666, "rental_uris": {"ios": "https://dc.lft.to/lastmile_qr_scan", "android": "https://dc.lft.to/lastmile_qr_scan"}}, {"name": "35d4391f077228fb25785b96254e2aa5", "fusion_lat": 0.0, "type": "electric_scooter", "lat": 38.842909666666664, "is_reserved": 0, "is_disabled": 0, "fusion_lon": 0.0, "bike_id": "35d4391f077228fb25785b96254e2aa5", "lon": -76.99947833333333, "rental_uris": {"ios": "https://dc.lft.to/lastmile_qr_scan", "android": "https://dc.lft.to/lastmile_qr_scan"}}, {"name": "64682ddb7522520d8eadaa5a1b5ea08d", "fusion_lat": 0.0, "type": "electric_scooter", "lat": 38.91822333333333, "is_reserved": 0, "is_disabled": 0, "fusion_lon": 0.0, "bike_id": "64682ddb7522520d8eadaa5a1b5ea08d", "lon": -77.01214, "rental_uris": {"ios": "https://dc.lft.to/lastmile_qr_scan", "android": "https://dc.lft.to/lastmile_qr_scan"}}, {"name": "d2e1eedd5510e3b6353c720a8ede0814", "fusion_lat": 0.0, "type": "electric_scooter", "lat": 38.88494633333333, "is_reserved": 0, "is_disabled": 0, "fusion_lon": 0.0, "bike_id": "d2e1eedd5510e3b6353c720a8ede0814", "lon": -77.0219, "rental_uris": {"ios": "https://dc.lft.to/lastmile_qr_scan", "android": "https://dc.lft.to/lastmile_qr_scan"}}, {"name": "8f67ee9dd939e784dc920f7a9e6173fd", "fusion_lat": 0.0, "type": "electric_scooter", "lat": 38.909696, "is_reserved": 0, "is_disabled": 0, "fusion_lon": 0.0, "bike_id": "8f67ee9dd939e784dc920f7a9e6173fd", "lon": -77.0454995, "rental_uris": {"ios": "https://dc.lft.to/lastmile_qr_scan", "android": "https://dc.lft.to/lastmile_qr_scan"}}, {"name": "c14dff93f09cde067cf1ece6888cdb42", "fusion_lat": 0.0, "type": "electric_scooter", "lat": 38.918202, "is_reserved": 0, "is_disabled": 0, "fusion_lon": 0.0, "bike_id": "c14dff93f09cde067cf1ece6888cdb42", "lon": -77.00260033333333, "rental_uris": {"ios": "https://dc.lft.to/lastmile_qr_scan", "android": "https://dc.lft.to/lastmile_qr_scan"}}, {"name": "618eb2198a87e3b88746ddb42105892a", "fusion_lat": 0.0, "type": "electric_scooter", "lat": 38.90449783333333, "is_reserved": 0, "is_disabled": 0, "fusion_lon": 0.0, "bike_id": "618eb2198a87e3b88746ddb42105892a", "lon": -76.996217, "rental_uris": {"ios": "https://dc.lft.to/lastmile_qr_scan", "android": "https://dc.lft.to/lastmile_qr_scan"}}, {"name": "9f8b12217946d678b6f892bdb1edf3a3", "fusion_lat": 0.0, "type": "electric_scooter", "lat": 38.8958785, "is_reserved": 0, "is_disabled": 0, "fusion_lon": 0.0, "bike_id": "9f8b12217946d678b6f892bdb1edf3a3", "lon": -76.93719583333333, "rental_uris": {"ios": "https://dc.lft.to/lastmile_qr_scan", "android": "https://dc.lft.to/lastmile_qr_scan"}}, {"name": "98fb43555bfc1a3b3a5afbdae9d5d109", "fusion_lat": 0.0, "type": "electric_scooter", "lat": 38.877568, "is_reserved": 0, "is_disabled": 0, "fusion_lon": 0.0, "bike_id": "98fb43555bfc1a3b3a5afbdae9d5d109", "lon": -76.9942735, "rental_uris": {"ios": "https://dc.lft.to/lastmile_qr_scan", "android": "https://dc.lft.to/lastmile_qr_scan"}}, {"name": "312affe0508643c298f009f380977c72", "fusion_lat": 0.0, "type": "electric_scooter", "lat": 38.85611166666666, "is_reserved": 0, "is_disabled": 0, "fusion_lon": 0.0, "bike_id": "312affe0508643c298f009f380977c72", "lon": -76.98018266666666, "rental_uris": {"ios": "https://dc.lft.to/lastmile_qr_scan", "android": "https://dc.lft.to/lastmile_qr_scan"}}, {"name": "81fb6f747e042808425ec82d82c96ff4", "fusion_lat": 0.0, "type": "electric_scooter", "lat": 38.9031685, "is_reserved": 0, "is_disabled": 0, "fusion_lon": 0.0, "bike_id": "81fb6f747e042808425ec82d82c96ff4", "lon": -77.034642, "rental_uris": {"ios": "https://dc.lft.to/lastmile_qr_scan", "android": "https://dc.lft.to/lastmile_qr_scan"}}, {"name": "207799d2a7ff7380c167edce61d2ac51", "fusion_lat": 0.0, "type": "electric_bike", "lat": 38.920081333333336, "is_reserved": 0, "is_disabled": 0, "fusion_lon": 0.0, "bike_id": "207799d2a7ff7380c167edce61d2ac51", "lon": -76.97491783333334, "rental_uris": {"ios": "https://dc.lft.to/lastmile_qr_scan", "android": "https://dc.lft.to/lastmile_qr_scan"}}, {"name": "0df5b15e89b9fb7fd58a619aa638052a", "fusion_lat": 0.0, "type": "electric_bike", "lat": 38.81047383333333, "is_reserved": 0, "is_disabled": 0, "fusion_lon": 0.0, "bike_id": "0df5b15e89b9fb7fd58a619aa638052a", "lon": -77.0850955, "rental_uris": {"ios": "https://dc.lft.to/lastmile_qr_scan", "android": "https://dc.lft.to/lastmile_qr_scan"}}, {"name": "07201395af0ab4bdb5942c209917a31b", "fusion_lat": 0.0, "type": "electric_scooter", "lat": 38.90672283333333, "is_reserved": 0, "is_disabled": 0, "fusion_lon": 0.0, "bike_id": "07201395af0ab4bdb5942c209917a31b", "lon": -77.02721916666667, "rental_uris": {"ios": "https://dc.lft.to/lastmile_qr_scan", "android": "https://dc.lft.to/lastmile_qr_scan"}}, {"name": "457d1c2e0e0c97a1fb19c856e525f78f", "fusion_lat": 0.0, "type": "electric_scooter", "lat": 38.93631966666667, "is_reserved": 0, "is_disabled": 0, "fusion_lon": 0.0, "bike_id": "457d1c2e0e0c97a1fb19c856e525f78f", "lon": -77.02060983333334, "rental_uris": {"ios": "https://dc.lft.to/lastmile_qr_scan", "android": "https://dc.lft.to/lastmile_qr_scan"}}, {"name": "0b37f341404dfbe231a917a532eabb88", "fusion_lat": 0.0, "type": "electric_scooter", "lat": 38.915976666666666, "is_reserved": 0, "is_disabled": 0, "fusion_lon": 0.0, "bike_id": "0b37f341404dfbe231a917a532eabb88", "lon": -77.03856183333333, "rental_uris": {"ios": "https://dc.lft.to/lastmile_qr_scan", "android": "https://dc.lft.to/lastmile_qr_scan"}}, {"name": "4ff7b6d78c6f9e0941d04b02a18a8ad1", "fusion_lat": 0.0, "type": "electric_scooter", "lat": 38.900298666666664, "is_reserved": 0, "is_disabled": 0, "fusion_lon": 0.0, "bike_id": "4ff7b6d78c6f9e0941d04b02a18a8ad1", "lon": -77.0018915, "rental_uris": {"ios": "https://dc.lft.to/lastmile_qr_scan", "android": "https://dc.lft.to/lastmile_qr_scan"}}, {"name": "b36ef9d7a7c351e215d521de2440654b", "fusion_lat": 0.0, "type": "electric_scooter", "lat": 38.89526933333333, "is_reserved": 0, "is_disabled": 0, "fusion_lon": 0.0, "bike_id": "b36ef9d7a7c351e215d521de2440654b", "lon": -76.94890983333333, "rental_uris": {"ios": "https://dc.lft.to/lastmile_qr_scan", "android": "https://dc.lft.to/lastmile_qr_scan"}}, {"name": "38335bd63172a91373c54480ad81ddba", "fusion_lat": 0.0, "type": "electric_bike", "lat": 39.02680133333333, "is_reserved": 0, "is_disabled": 0, "fusion_lon": 0.0, "bike_id": "38335bd63172a91373c54480ad81ddba", "lon": -77.12600966666666, "rental_uris": {"ios": "https://dc.lft.to/lastmile_qr_scan", "android": "https://dc.lft.to/lastmile_qr_scan"}}, {"name": "f0d4184cab129d04908efcaf32db250e", "fusion_lat": 0.0, "type": "electric_scooter", "lat": 38.90025166666667, "is_reserved": 0, "is_disabled": 0, "fusion_lon": 0.0, "bike_id": "f0d4184cab129d04908efcaf32db250e", "lon": -77.001932, "rental_uris": {"ios": "https://dc.lft.to/lastmile_qr_scan", "android": "https://dc.lft.to/lastmile_qr_scan"}}, {"name": "abe90f60801f457c1136f4546c8e3313", "fusion_lat": 0.0, "type": "electric_bike", "lat": 38.854288333333336, "is_reserved": 0, "is_disabled": 0, "fusion_lon": 0.0, "bike_id": "abe90f60801f457c1136f4546c8e3313", "lon": -76.90973883333334, "rental_uris": {"ios": "https://dc.lft.to/lastmile_qr_scan", "android": "https://dc.lft.to/lastmile_qr_scan"}}, {"name": "0d497a726576b7e44a32eb3ae0ecf951", "fusion_lat": 0.0, "type": "electric_scooter", "lat": 38.93529566666667, "is_reserved": 0, "is_disabled": 0, "fusion_lon": 0.0, "bike_id": "0d497a726576b7e44a32eb3ae0ecf951", "lon": -77.03397533333333, "rental_uris": {"ios": "https://dc.lft.to/lastmile_qr_scan", "android": "https://dc.lft.to/lastmile_qr_scan"}}, {"name": "e33a7028122e7f31d7ccfa11dda03d65", "fusion_lat": 0.0, "type": "electric_bike", "lat": 38.838559833333335, "is_reserved": 0, "is_disabled": 0, "fusion_lon": 0.0, "bike_id": "e33a7028122e7f31d7ccfa11dda03d65", "lon": -77.088669, "rental_uris": {"ios": "https://dc.lft.to/lastmile_qr_scan", "android": "https://dc.lft.to/lastmile_qr_scan"}}, {"name": "2e278d4419a5792b0913bec00eef2264", "fusion_lat": 0.0, "type": "electric_bike", "lat": 38.973262, "is_reserved": 0, "is_disabled": 0, "fusion_lon": 0.0, "bike_id": "2e278d4419a5792b0913bec00eef2264", "lon": -77.021491, "rental_uris": {"ios": "https://dc.lft.to/lastmile_qr_scan", "android": "https://dc.lft.to/lastmile_qr_scan"}}, {"name": "b43039850263a7c41f374e1bb940d8b1", "fusion_lat": 0.0, "type": "electric_scooter", "lat": 38.903196666666666, "is_reserved": 0, "is_disabled": 0, "fusion_lon": 0.0, "bike_id": "b43039850263a7c41f374e1bb940d8b1", "lon": -77.03836266666667, "rental_uris": {"ios": "https://dc.lft.to/lastmile_qr_scan", "android": "https://dc.lft.to/lastmile_qr_scan"}}, {"name": "642859a0c350aca0104149aa99f3493b", "fusion_lat": 0.0, "type": "electric_scooter", "lat": 38.91806833333333, "is_reserved": 0, "is_disabled": 0, "fusion_lon": 0.0, "bike_id": "642859a0c350aca0104149aa99f3493b", "lon": -77.02813583333334, "rental_uris": {"ios": "https://dc.lft.to/lastmile_qr_scan", "android": "https://dc.lft.to/lastmile_qr_scan"}}, {"name": "22e7e5317fa29997a063ce43871f0bd0", "fusion_lat": 0.0, "type": "electric_scooter", "lat": 38.9220655, "is_reserved": 0, "is_disabled": 0, "fusion_lon": 0.0, "bike_id": "22e7e5317fa29997a063ce43871f0bd0", "lon": -77.04239016666666, "rental_uris": {"ios": "https://dc.lft.to/lastmile_qr_scan", "android": "https://dc.lft.to/lastmile_qr_scan"}}, {"name": "2f74dbd87938aad3c46141b2176e9e41", "fusion_lat": 0.0, "type": "electric_scooter", "lat": 38.9308925, "is_reserved": 0, "is_disabled": 0, "fusion_lon": 0.0, "bike_id": "2f74dbd87938aad3c46141b2176e9e41", "lon": -77.02404816666666, "rental_uris": {"ios": "https://dc.lft.to/lastmile_qr_scan", "android": "https://dc.lft.to/lastmile_qr_scan"}}, {"name": "7d14f5d52027aa459582b851b88153f9", "fusion_lat": 0.0, "type": "electric_scooter", "lat": 38.93963133333333, "is_reserved": 0, "is_disabled": 0, "fusion_lon": 0.0, "bike_id": "7d14f5d52027aa459582b851b88153f9", "lon": -77.03283283333333, "rental_uris": {"ios": "https://dc.lft.to/lastmile_qr_scan", "android": "https://dc.lft.to/lastmile_qr_scan"}}, {"name": "07c73ab20f6ae42997bcb0be98c5e13f", "fusion_lat": 0.0, "type": "electric_scooter", "lat": 38.901386, "is_reserved": 0, "is_disabled": 0, "fusion_lon": 0.0, "bike_id": "07c73ab20f6ae42997bcb0be98c5e13f", "lon": -76.99970416666666, "rental_uris": {"ios": "https://dc.lft.to/lastmile_qr_scan", "android": "https://dc.lft.to/lastmile_qr_scan"}}, {"name": "63d5f65d9213f7e0dbe62c42f106379e", "fusion_lat": 0.0, "type": "electric_scooter", "lat": 38.914242, "is_reserved": 0, "is_disabled": 0, "fusion_lon": 0.0, "bike_id": "63d5f65d9213f7e0dbe62c42f106379e", "lon": -77.02608566666666, "rental_uris": {"ios": "https://dc.lft.to/lastmile_qr_scan", "android": "https://dc.lft.to/lastmile_qr_scan"}}, {"name": "ee935eb738abc84a00f7fb31722a141b", "fusion_lat": 0.0, "type": "electric_scooter", "lat": 38.90305333333333, "is_reserved": 0, "is_disabled": 0, "fusion_lon": 0.0, "bike_id": "ee935eb738abc84a00f7fb31722a141b", "lon": -77.032032, "rental_uris": {"ios": "https://dc.lft.to/lastmile_qr_scan", "android": "https://dc.lft.to/lastmile_qr_scan"}}, {"name": "dad553c8e2b398357bf7590bfeb46470", "fusion_lat": 0.0, "type": "electric_scooter", "lat": 38.8892365, "is_reserved": 0, "is_disabled": 0, "fusion_lon": 0.0, "bike_id": "dad553c8e2b398357bf7590bfeb46470", "lon": -76.9478, "rental_uris": {"ios": "https://dc.lft.to/lastmile_qr_scan", "android": "https://dc.lft.to/lastmile_qr_scan"}}, {"name": "3cd1462f182e25678fc4838fab099ebb", "fusion_lat": 0.0, "type": "electric_scooter", "lat": 38.908674, "is_reserved": 0, "is_disabled": 0, "fusion_lon": 0.0, "bike_id": "3cd1462f182e25678fc4838fab099ebb", "lon": -77.00325933333333, "rental_uris": {"ios": "https://dc.lft.to/lastmile_qr_scan", "android": "https://dc.lft.to/lastmile_qr_scan"}}, {"name": "e95e15840b82226cc8e5a8cf2706b0fc", "fusion_lat": 0.0, "type": "electric_scooter", "lat": 38.90026566666667, "is_reserved": 0, "is_disabled": 0, "fusion_lon": 0.0, "bike_id": "e95e15840b82226cc8e5a8cf2706b0fc", "lon": -77.00208816666667, "rental_uris": {"ios": "https://dc.lft.to/lastmile_qr_scan", "android": "https://dc.lft.to/lastmile_qr_scan"}}, {"name": "a4f82eb247f841e37904c276b2c15bc0", "fusion_lat": 0.0, "type": "electric_scooter", "lat": 38.92824516666667, "is_reserved": 0, "is_disabled": 0, "fusion_lon": 0.0, "bike_id": "a4f82eb247f841e37904c276b2c15bc0", "lon": -77.02256966666667, "rental_uris": {"ios": "https://dc.lft.to/lastmile_qr_scan", "android": "https://dc.lft.to/lastmile_qr_scan"}}, {"name": "28c5b7116db657cddf4fe54d68eecd19", "fusion_lat": 0.0, "type": "electric_scooter", "lat": 38.900605666666664, "is_reserved": 0, "is_disabled": 0, "fusion_lon": 0.0, "bike_id": "28c5b7116db657cddf4fe54d68eecd19", "lon": -77.002216, "rental_uris": {"ios": "https://dc.lft.to/lastmile_qr_scan", "android": "https://dc.lft.to/lastmile_qr_scan"}}, {"name": "5c34ecf8bcc770534a935591d8489bcb", "fusion_lat": 0.0, "type": "electric_bike", "lat": 38.8426935, "is_reserved": 0, "is_disabled": 0, "fusion_lon": 0.0, "bike_id": "5c34ecf8bcc770534a935591d8489bcb", "lon": -76.98844533333333, "rental_uris": {"ios": "https://dc.lft.to/lastmile_qr_scan", "android": "https://dc.lft.to/lastmile_qr_scan"}}, {"name": "c00bab127af3c550c5dacddfa18d35e2", "fusion_lat": 0.0, "type": "electric_scooter", "lat": 38.90342733333333, "is_reserved": 0, "is_disabled": 0, "fusion_lon": 0.0, "bike_id": "c00bab127af3c550c5dacddfa18d35e2", "lon": -77.02607766666667, "rental_uris": {"ios": "https://dc.lft.to/lastmile_qr_scan", "android": "https://dc.lft.to/lastmile_qr_scan"}}, {"name": "a28120b19ccc43b103cc6cc8bb26b8b5", "fusion_lat": 0.0, "type": "electric_bike", "lat": 38.960075, "is_reserved": 0, "is_disabled": 0, "fusion_lon": 0.0, "bike_id": "a28120b19ccc43b103cc6cc8bb26b8b5", "lon": -76.99863166666667, "rental_uris": {"ios": "https://dc.lft.to/lastmile_qr_scan", "android": "https://dc.lft.to/lastmile_qr_scan"}}, {"name": "ee2839664b99db8f0cf331f04a4dac9c", "fusion_lat": 0.0, "type": "electric_bike", "lat": 38.881165833333334, "is_reserved": 0, "is_disabled": 0, "fusion_lon": 0.0, "bike_id": "ee2839664b99db8f0cf331f04a4dac9c", "lon": -77.01346866666667, "rental_uris": {"ios": "https://dc.lft.to/lastmile_qr_scan", "android": "https://dc.lft.to/lastmile_qr_scan"}}, {"name": "396809fdd438f1f85d8e1c7baf71521b", "fusion_lat": 0.0, "type": "electric_scooter", "lat": 38.9420405, "is_reserved": 0, "is_disabled": 0, "fusion_lon": 0.0, "bike_id": "396809fdd438f1f85d8e1c7baf71521b", "lon": -77.02513083333334, "rental_uris": {"ios": "https://dc.lft.to/lastmile_qr_scan", "android": "https://dc.lft.to/lastmile_qr_scan"}}, {"name": "b0c3c31f9d99dd1197a6396c916015e2", "fusion_lat": 0.0, "type": "electric_scooter", "lat": 38.9016395, "is_reserved": 0, "is_disabled": 0, "fusion_lon": 0.0, "bike_id": "b0c3c31f9d99dd1197a6396c916015e2", "lon": -77.04698733333333, "rental_uris": {"ios": "https://dc.lft.to/lastmile_qr_scan", "android": "https://dc.lft.to/lastmile_qr_scan"}}, {"name": "09dbea18649519a4ca6126ceb7dd32af", "fusion_lat": 0.0, "type": "electric_scooter", "lat": 38.90734966666667, "is_reserved": 0, "is_disabled": 0, "fusion_lon": 0.0, "bike_id": "09dbea18649519a4ca6126ceb7dd32af", "lon": -77.0433755, "rental_uris": {"ios": "https://dc.lft.to/lastmile_qr_scan", "android": "https://dc.lft.to/lastmile_qr_scan"}}, {"name": "d5348f1787a16984aeb81410e9c057e3", "fusion_lat": 0.0, "type": "electric_scooter", "lat": 38.8615495, "is_reserved": 0, "is_disabled": 0, "fusion_lon": 0.0, "bike_id": "d5348f1787a16984aeb81410e9c057e3", "lon": -76.98930916666667, "rental_uris": {"ios": "https://dc.lft.to/lastmile_qr_scan", "android": "https://dc.lft.to/lastmile_qr_scan"}}, {"name": "9c6ae08b80bddf0520e83244e2fc0753", "fusion_lat": 0.0, "type": "electric_scooter", "lat": 38.9212955, "is_reserved": 0, "is_disabled": 0, "fusion_lon": 0.0, "bike_id": "9c6ae08b80bddf0520e83244e2fc0753", "lon": -77.02525133333333, "rental_uris": {"ios": "https://dc.lft.to/lastmile_qr_scan", "android": "https://dc.lft.to/lastmile_qr_scan"}}, {"name": "2a4e1b645a3ffb9d3e84955ee252eca5", "fusion_lat": 0.0, "type": "electric_bike", "lat": 38.831508666666664, "is_reserved": 0, "is_disabled": 0, "fusion_lon": 0.0, "bike_id": "2a4e1b645a3ffb9d3e84955ee252eca5", "lon": -77.11314716666666, "rental_uris": {"ios": "https://dc.lft.to/lastmile_qr_scan", "android": "https://dc.lft.to/lastmile_qr_scan"}}, {"name": "bfdeab3ad551b44202585b28086bc642", "fusion_lat": 0.0, "type": "electric_bike", "lat": 38.924263833333335, "is_reserved": 0, "is_disabled": 0, "fusion_lon": 0.0, "bike_id": "bfdeab3ad551b44202585b28086bc642", "lon": -76.99129716666667, "rental_uris": {"ios": "https://dc.lft.to/lastmile_qr_scan", "android": "https://dc.lft.to/lastmile_qr_scan"}}, {"name": "b11122f7fc584e57d93fd2678a72f4f3", "fusion_lat": 0.0, "type": "electric_scooter", "lat": 38.91411316666667, "is_reserved": 0, "is_disabled": 0, "fusion_lon": 0.0, "bike_id": "b11122f7fc584e57d93fd2678a72f4f3", "lon": -77.03909383333334, "rental_uris": {"ios": "https://dc.lft.to/lastmile_qr_scan", "android": "https://dc.lft.to/lastmile_qr_scan"}}, {"name": "915c56518b832c50f85efe89f702ae13", "fusion_lat": 0.0, "type": "electric_bike", "lat": 38.99089716666667, "is_reserved": 0, "is_disabled": 0, "fusion_lon": 0.0, "bike_id": "915c56518b832c50f85efe89f702ae13", "lon": -76.8749645, "rental_uris": {"ios": "https://dc.lft.to/lastmile_qr_scan", "android": "https://dc.lft.to/lastmile_qr_scan"}}, {"name": "58bb5e5a4d985c52891e6c9547b484c9", "fusion_lat": 0.0, "type": "electric_scooter", "lat": 38.909227666666666, "is_reserved": 0, "is_disabled": 0, "fusion_lon": 0.0, "bike_id": "58bb5e5a4d985c52891e6c9547b484c9", "lon": -77.04163416666667, "rental_uris": {"ios": "https://dc.lft.to/lastmile_qr_scan", "android": "https://dc.lft.to/lastmile_qr_scan"}}, {"name": "316625b318f796b927d9a664b1708b64", "fusion_lat": 0.0, "type": "electric_scooter", "lat": 38.90861116666667, "is_reserved": 0, "is_disabled": 0, "fusion_lon": 0.0, "bike_id": "316625b318f796b927d9a664b1708b64", "lon": -77.02714033333334, "rental_uris": {"ios": "https://dc.lft.to/lastmile_qr_scan", "android": "https://dc.lft.to/lastmile_qr_scan"}}, {"name": "7aa36dc81083c084591af67fc9e3e990", "fusion_lat": 0.0, "type": "electric_scooter", "lat": 38.91703416666667, "is_reserved": 0, "is_disabled": 0, "fusion_lon": 0.0, "bike_id": "7aa36dc81083c084591af67fc9e3e990", "lon": -77.03900433333334, "rental_uris": {"ios": "https://dc.lft.to/lastmile_qr_scan", "android": "https://dc.lft.to/lastmile_qr_scan"}}, {"name": "168b12f49c728cdbd843e51b5fc428d1", "fusion_lat": 0.0, "type": "electric_scooter", "lat": 38.90271416666667, "is_reserved": 0, "is_disabled": 0, "fusion_lon": 0.0, "bike_id": "168b12f49c728cdbd843e51b5fc428d1", "lon": -77.03840316666667, "rental_uris": {"ios": "https://dc.lft.to/lastmile_qr_scan", "android": "https://dc.lft.to/lastmile_qr_scan"}}, {"name": "eb7f35fe66b637b3add033a640aec2b2", "fusion_lat": 0.0, "type": "electric_scooter", "lat": 38.900043, "is_reserved": 0, "is_disabled": 0, "fusion_lon": 0.0, "bike_id": "eb7f35fe66b637b3add033a640aec2b2", "lon": -77.02722533333333, "rental_uris": {"ios": "https://dc.lft.to/lastmile_qr_scan", "android": "https://dc.lft.to/lastmile_qr_scan"}}, {"name": "2024e40c8e38762a20b41480bf18a510", "fusion_lat": 0.0, "type": "electric_scooter", "lat": 38.921184, "is_reserved": 0, "is_disabled": 0, "fusion_lon": 0.0, "bike_id": "2024e40c8e38762a20b41480bf18a510", "lon": -77.0366045, "rental_uris": {"ios": "https://dc.lft.to/lastmile_qr_scan", "android": "https://dc.lft.to/lastmile_qr_scan"}}, {"name": "2d5de6743598623de66d42890e240d70", "fusion_lat": 0.0, "type": "electric_bike", "lat": 38.905320333333336, "is_reserved": 0, "is_disabled": 0, "fusion_lon": 0.0, "bike_id": "2d5de6743598623de66d42890e240d70", "lon": -76.99807883333334, "rental_uris": {"ios": "https://dc.lft.to/lastmile_qr_scan", "android": "https://dc.lft.to/lastmile_qr_scan"}}, {"name": "4a9dcc01faa665568572578628156697", "fusion_lat": 0.0, "type": "electric_scooter", "lat": 38.90138316666667, "is_reserved": 0, "is_disabled": 0, "fusion_lon": 0.0, "bike_id": "4a9dcc01faa665568572578628156697", "lon": -77.04999316666667, "rental_uris": {"ios": "https://dc.lft.to/lastmile_qr_scan", "android": "https://dc.lft.to/lastmile_qr_scan"}}, {"name": "dbd4df589490f4865eb8d84299693187", "fusion_lat": 0.0, "type": "electric_scooter", "lat": 38.910113333333335, "is_reserved": 0, "is_disabled": 0, "fusion_lon": 0.0, "bike_id": "dbd4df589490f4865eb8d84299693187", "lon": -77.04424816666666, "rental_uris": {"ios": "https://dc.lft.to/lastmile_qr_scan", "android": "https://dc.lft.to/lastmile_qr_scan"}}, {"name": "3ca8fdbb2e9dbf6fba84fa5e0d55c431", "fusion_lat": 0.0, "type": "electric_scooter", "lat": 38.898895833333334, "is_reserved": 0, "is_disabled": 0, "fusion_lon": 0.0, "bike_id": "3ca8fdbb2e9dbf6fba84fa5e0d55c431", "lon": -76.9857565, "rental_uris": {"ios": "https://dc.lft.to/lastmile_qr_scan", "android": "https://dc.lft.to/lastmile_qr_scan"}}, {"name": "1517b7ae146ed24914d061f841a61025", "fusion_lat": 0.0, "type": "electric_scooter", "lat": 38.926397333333334, "is_reserved": 0, "is_disabled": 0, "fusion_lon": 0.0, "bike_id": "1517b7ae146ed24914d061f841a61025", "lon": -77.03464466666667, "rental_uris": {"ios": "https://dc.lft.to/lastmile_qr_scan", "android": "https://dc.lft.to/lastmile_qr_scan"}}, {"name": "60cffb15da1c180331fbf6269efa1d1f", "fusion_lat": 0.0, "type": "electric_scooter", "lat": 38.89892916666667, "is_reserved": 0, "is_disabled": 0, "fusion_lon": 0.0, "bike_id": "60cffb15da1c180331fbf6269efa1d1f", "lon": -76.933022, "rental_uris": {"ios": "https://dc.lft.to/lastmile_qr_scan", "android": "https://dc.lft.to/lastmile_qr_scan"}}, {"name": "1d7612f02807c36212c8a5a71c6ca36b", "fusion_lat": 0.0, "type": "electric_scooter", "lat": 38.9181435, "is_reserved": 0, "is_disabled": 0, "fusion_lon": 0.0, "bike_id": "1d7612f02807c36212c8a5a71c6ca36b", "lon": -77.03463366666666, "rental_uris": {"ios": "https://dc.lft.to/lastmile_qr_scan", "android": "https://dc.lft.to/lastmile_qr_scan"}}, {"name": "a7f453754713309d39119ecfe1efa856", "fusion_lat": 0.0, "type": "electric_scooter", "lat": 38.8959345, "is_reserved": 0, "is_disabled": 0, "fusion_lon": 0.0, "bike_id": "a7f453754713309d39119ecfe1efa856", "lon": -77.01127033333333, "rental_uris": {"ios": "https://dc.lft.to/lastmile_qr_scan", "android": "https://dc.lft.to/lastmile_qr_scan"}}, {"name": "3121ac70daef30560434f6e56b27d449", "fusion_lat": 0.0, "type": "electric_scooter", "lat": 38.9223405, "is_reserved": 0, "is_disabled": 0, "fusion_lon": 0.0, "bike_id": "3121ac70daef30560434f6e56b27d449", "lon": -77.02212216666666, "rental_uris": {"ios": "https://dc.lft.to/lastmile_qr_scan", "android": "https://dc.lft.to/lastmile_qr_scan"}}, {"name": "77a703f5d572b48bd89e2d6646ecb87a", "fusion_lat": 0.0, "type": "electric_scooter", "lat": 38.929675333333336, "is_reserved": 0, "is_disabled": 0, "fusion_lon": 0.0, "bike_id": "77a703f5d572b48bd89e2d6646ecb87a", "lon": -77.00543216666667, "rental_uris": {"ios": "https://dc.lft.to/lastmile_qr_scan", "android": "https://dc.lft.to/lastmile_qr_scan"}}, {"name": "bf5ae023bc20dfd781671fe5705eaecd", "fusion_lat": 0.0, "type": "electric_scooter", "lat": 38.90307583333333, "is_reserved": 0, "is_disabled": 0, "fusion_lon": 0.0, "bike_id": "bf5ae023bc20dfd781671fe5705eaecd", "lon": -77.03650383333333, "rental_uris": {"ios": "https://dc.lft.to/lastmile_qr_scan", "android": "https://dc.lft.to/lastmile_qr_scan"}}, {"name": "a9bfc0fd67b7ee4c413d7def9bb1f6a8", "fusion_lat": 0.0, "type": "electric_scooter", "lat": 38.916253, "is_reserved": 0, "is_disabled": 0, "fusion_lon": 0.0, "bike_id": "a9bfc0fd67b7ee4c413d7def9bb1f6a8", "lon": -77.0316915, "rental_uris": {"ios": "https://dc.lft.to/lastmile_qr_scan", "android": "https://dc.lft.to/lastmile_qr_scan"}}, {"name": "c18bd740045802cbedd26af59f9980d3", "fusion_lat": 0.0, "type": "electric_scooter", "lat": 38.91168483333333, "is_reserved": 0, "is_disabled": 0, "fusion_lon": 0.0, "bike_id": "c18bd740045802cbedd26af59f9980d3", "lon": -77.001367, "rental_uris": {"ios": "https://dc.lft.to/lastmile_qr_scan", "android": "https://dc.lft.to/lastmile_qr_scan"}}, {"name": "c629ee5be9ebee88ba6e283f99284a78", "fusion_lat": 0.0, "type": "electric_scooter", "lat": 38.90515583333333, "is_reserved": 0, "is_disabled": 0, "fusion_lon": 0.0, "bike_id": "c629ee5be9ebee88ba6e283f99284a78", "lon": -77.02593966666667, "rental_uris": {"ios": "https://dc.lft.to/lastmile_qr_scan", "android": "https://dc.lft.to/lastmile_qr_scan"}}, {"name": "5da9601812a9f6252c9ca5261fa1133c", "fusion_lat": 0.0, "type": "electric_scooter", "lat": 38.9261825, "is_reserved": 0, "is_disabled": 0, "fusion_lon": 0.0, "bike_id": "5da9601812a9f6252c9ca5261fa1133c", "lon": -77.04186366666667, "rental_uris": {"ios": "https://dc.lft.to/lastmile_qr_scan", "android": "https://dc.lft.to/lastmile_qr_scan"}}, {"name": "11cbaff1494c49cd999b1d906c8242cf", "fusion_lat": 0.0, "type": "electric_scooter", "lat": 38.905286, "is_reserved": 0, "is_disabled": 0, "fusion_lon": 0.0, "bike_id": "11cbaff1494c49cd999b1d906c8242cf", "lon": -77.057658, "rental_uris": {"ios": "https://dc.lft.to/lastmile_qr_scan", "android": "https://dc.lft.to/lastmile_qr_scan"}}, {"name": "ffdb5c5741248a5050f1bcaa8e364ce0", "fusion_lat": 0.0, "type": "electric_scooter", "lat": 38.89404283333333, "is_reserved": 0, "is_disabled": 0, "fusion_lon": 0.0, "bike_id": "ffdb5c5741248a5050f1bcaa8e364ce0", "lon": -76.94798983333334, "rental_uris": {"ios": "https://dc.lft.to/lastmile_qr_scan", "android": "https://dc.lft.to/lastmile_qr_scan"}}, {"name": "5ba1dcbb3b49c948c9dc79c17f1133af", "fusion_lat": 0.0, "type": "electric_scooter", "lat": 38.908066, "is_reserved": 0, "is_disabled": 0, "fusion_lon": 0.0, "bike_id": "5ba1dcbb3b49c948c9dc79c17f1133af", "lon": -77.043596, "rental_uris": {"ios": "https://dc.lft.to/lastmile_qr_scan", "android": "https://dc.lft.to/lastmile_qr_scan"}}, {"name": "a3868d66da35de42aec6e9ccebd08eab", "fusion_lat": 0.0, "type": "electric_scooter", "lat": 38.935737333333336, "is_reserved": 0, "is_disabled": 0, "fusion_lon": 0.0, "bike_id": "a3868d66da35de42aec6e9ccebd08eab", "lon": -76.99101066666667, "rental_uris": {"ios": "https://dc.lft.to/lastmile_qr_scan", "android": "https://dc.lft.to/lastmile_qr_scan"}}, {"name": "a44c6ff74d77fb328c8aecf6dfc8b9e2", "fusion_lat": 0.0, "type": "electric_bike", "lat": 38.838101333333334, "is_reserved": 0, "is_disabled": 0, "fusion_lon": 0.0, "bike_id": "a44c6ff74d77fb328c8aecf6dfc8b9e2", "lon": -77.09522133333333, "rental_uris": {"ios": "https://dc.lft.to/lastmile_qr_scan", "android": "https://dc.lft.to/lastmile_qr_scan"}}, {"name": "c19d97745fbe80fb5942ac02df2f5e17", "fusion_lat": 0.0, "type": "electric_scooter", "lat": 38.919279833333334, "is_reserved": 0, "is_disabled": 0, "fusion_lon": 0.0, "bike_id": "c19d97745fbe80fb5942ac02df2f5e17", "lon": -77.03427683333334, "rental_uris": {"ios": "https://dc.lft.to/lastmile_qr_scan", "android": "https://dc.lft.to/lastmile_qr_scan"}}, {"name": "e3d8b87a0dc61375e50fdcca08c4cf16", "fusion_lat": 0.0, "type": "electric_scooter", "lat": 38.90153133333333, "is_reserved": 0, "is_disabled": 0, "fusion_lon": 0.0, "bike_id": "e3d8b87a0dc61375e50fdcca08c4cf16", "lon": -76.9305895, "rental_uris": {"ios": "https://dc.lft.to/lastmile_qr_scan", "android": "https://dc.lft.to/lastmile_qr_scan"}}, {"name": "2fd806b7a4ebaeacb5f5047f7fe11bd2", "fusion_lat": 0.0, "type": "electric_scooter", "lat": 38.85709033333333, "is_reserved": 0, "is_disabled": 0, "fusion_lon": 0.0, "bike_id": "2fd806b7a4ebaeacb5f5047f7fe11bd2", "lon": -76.98134466666667, "rental_uris": {"ios": "https://dc.lft.to/lastmile_qr_scan", "android": "https://dc.lft.to/lastmile_qr_scan"}}, {"name": "4fd111eda9b4948d332bbc07db887969", "fusion_lat": 0.0, "type": "electric_scooter", "lat": 38.92524233333333, "is_reserved": 0, "is_disabled": 0, "fusion_lon": 0.0, "bike_id": "4fd111eda9b4948d332bbc07db887969", "lon": -77.05533733333333, "rental_uris": {"ios": "https://dc.lft.to/lastmile_qr_scan", "android": "https://dc.lft.to/lastmile_qr_scan"}}, {"name": "58c8fe316e639194b76efcb587fb6dc7", "fusion_lat": 0.0, "type": "electric_scooter", "lat": 38.88427733333333, "is_reserved": 0, "is_disabled": 0, "fusion_lon": 0.0, "bike_id": "58c8fe316e639194b76efcb587fb6dc7", "lon": -76.95750433333333, "rental_uris": {"ios": "https://dc.lft.to/lastmile_qr_scan", "android": "https://dc.lft.to/lastmile_qr_scan"}}, {"name": "f25fb83b0eb9709857cfa670be52a583", "fusion_lat": 0.0, "type": "electric_scooter", "lat": 38.923474666666664, "is_reserved": 0, "is_disabled": 0, "fusion_lon": 0.0, "bike_id": "f25fb83b0eb9709857cfa670be52a583", "lon": -77.03521383333333, "rental_uris": {"ios": "https://dc.lft.to/lastmile_qr_scan", "android": "https://dc.lft.to/lastmile_qr_scan"}}, {"name": "3db6872511c87937e456dc73182364c0", "fusion_lat": 0.0, "type": "electric_bike", "lat": 38.9032825, "is_reserved": 0, "is_disabled": 0, "fusion_lon": 0.0, "bike_id": "3db6872511c87937e456dc73182364c0", "lon": -76.97535566666667, "rental_uris": {"ios": "https://dc.lft.to/lastmile_qr_scan", "android": "https://dc.lft.to/lastmile_qr_scan"}}, {"name": "6729294b2eb003c3aab86c48359a4750", "fusion_lat": 0.0, "type": "electric_scooter", "lat": 38.931393166666666, "is_reserved": 0, "is_disabled": 0, "fusion_lon": 0.0, "bike_id": "6729294b2eb003c3aab86c48359a4750", "lon": -77.040601, "rental_uris": {"ios": "https://dc.lft.to/lastmile_qr_scan", "android": "https://dc.lft.to/lastmile_qr_scan"}}, {"name": "603c794e20a4ef6836f4129c8359ca1d", "fusion_lat": 0.0, "type": "electric_scooter", "lat": 38.9077935, "is_reserved": 0, "is_disabled": 0, "fusion_lon": 0.0, "bike_id": "603c794e20a4ef6836f4129c8359ca1d", "lon": -77.03861933333333, "rental_uris": {"ios": "https://dc.lft.to/lastmile_qr_scan", "android": "https://dc.lft.to/lastmile_qr_scan"}}, {"name": "9ac528d8c017e1f55fa2ee73c4100a00", "fusion_lat": 0.0, "type": "electric_scooter", "lat": 38.9111045, "is_reserved": 0, "is_disabled": 0, "fusion_lon": 0.0, "bike_id": "9ac528d8c017e1f55fa2ee73c4100a00", "lon": -77.02936083333333, "rental_uris": {"ios": "https://dc.lft.to/lastmile_qr_scan", "android": "https://dc.lft.to/lastmile_qr_scan"}}, {"name": "4031553b5dc677286a2e9a02ce01150e", "fusion_lat": 0.0, "type": "electric_scooter", "lat": 38.88744066666667, "is_reserved": 0, "is_disabled": 0, "fusion_lon": 0.0, "bike_id": "4031553b5dc677286a2e9a02ce01150e", "lon": -77.02129033333334, "rental_uris": {"ios": "https://dc.lft.to/lastmile_qr_scan", "android": "https://dc.lft.to/lastmile_qr_scan"}}, {"name": "93df2007f7c9e5f6f3b77c0a7b8f5589", "fusion_lat": 0.0, "type": "electric_bike", "lat": 38.94230183333333, "is_reserved": 0, "is_disabled": 0, "fusion_lon": 0.0, "bike_id": "93df2007f7c9e5f6f3b77c0a7b8f5589", "lon": -77.01389866666666, "rental_uris": {"ios": "https://dc.lft.to/lastmile_qr_scan", "android": "https://dc.lft.to/lastmile_qr_scan"}}, {"name": "a2c04cb3b760c5199f70e5b088b7ea7f", "fusion_lat": 0.0, "type": "electric_scooter", "lat": 38.89735366666667, "is_reserved": 0, "is_disabled": 0, "fusion_lon": 0.0, "bike_id": "a2c04cb3b760c5199f70e5b088b7ea7f", "lon": -76.938484, "rental_uris": {"ios": "https://dc.lft.to/lastmile_qr_scan", "android": "https://dc.lft.to/lastmile_qr_scan"}}, {"name": "601fbf39b2fb2421f6063b0360a830b5", "fusion_lat": 0.0, "type": "electric_scooter", "lat": 38.937769, "is_reserved": 0, "is_disabled": 0, "fusion_lon": 0.0, "bike_id": "601fbf39b2fb2421f6063b0360a830b5", "lon": -77.0598875, "rental_uris": {"ios": "https://dc.lft.to/lastmile_qr_scan", "android": "https://dc.lft.to/lastmile_qr_scan"}}, {"name": "c2892f5844e59a1a4ccaad6e12e71bdc", "fusion_lat": 0.0, "type": "electric_scooter", "lat": 38.900354166666666, "is_reserved": 0, "is_disabled": 0, "fusion_lon": 0.0, "bike_id": "c2892f5844e59a1a4ccaad6e12e71bdc", "lon": -77.00198466666667, "rental_uris": {"ios": "https://dc.lft.to/lastmile_qr_scan", "android": "https://dc.lft.to/lastmile_qr_scan"}}, {"name": "1defb3bf08843612f754bdfb2c204da6", "fusion_lat": 0.0, "type": "electric_scooter", "lat": 38.911076333333334, "is_reserved": 0, "is_disabled": 0, "fusion_lon": 0.0, "bike_id": "1defb3bf08843612f754bdfb2c204da6", "lon": -77.03146366666667, "rental_uris": {"ios": "https://dc.lft.to/lastmile_qr_scan", "android": "https://dc.lft.to/lastmile_qr_scan"}}, {"name": "d4be2f4e26ddbcb66721cdf4c653929c", "fusion_lat": 0.0, "type": "electric_bike", "lat": 38.896467666666666, "is_reserved": 0, "is_disabled": 0, "fusion_lon": 0.0, "bike_id": "d4be2f4e26ddbcb66721cdf4c653929c", "lon": -77.0863105, "rental_uris": {"ios": "https://dc.lft.to/lastmile_qr_scan", "android": "https://dc.lft.to/lastmile_qr_scan"}}, {"name": "08e1b5249bb27445509122cceb209a1f", "fusion_lat": 0.0, "type": "electric_scooter", "lat": 38.88572833333333, "is_reserved": 0, "is_disabled": 0, "fusion_lon": 0.0, "bike_id": "08e1b5249bb27445509122cceb209a1f", "lon": -76.99628583333333, "rental_uris": {"ios": "https://dc.lft.to/lastmile_qr_scan", "android": "https://dc.lft.to/lastmile_qr_scan"}}, {"name": "c60c6d579879a2465bee70f43b37f635", "fusion_lat": 0.0, "type": "electric_scooter", "lat": 38.9214735, "is_reserved": 0, "is_disabled": 0, "fusion_lon": 0.0, "bike_id": "c60c6d579879a2465bee70f43b37f635", "lon": -77.04220433333333, "rental_uris": {"ios": "https://dc.lft.to/lastmile_qr_scan", "android": "https://dc.lft.to/lastmile_qr_scan"}}, {"name": "f9e9d4c327a6ec406d797b5ccba3a5a1", "fusion_lat": 0.0, "type": "electric_scooter", "lat": 38.85847483333333, "is_reserved": 0, "is_disabled": 0, "fusion_lon": 0.0, "bike_id": "f9e9d4c327a6ec406d797b5ccba3a5a1", "lon": -76.95884766666667, "rental_uris": {"ios": "https://dc.lft.to/lastmile_qr_scan", "android": "https://dc.lft.to/lastmile_qr_scan"}}, {"name": "3dfd0e2b7cf7a010f9616acbcea9be92", "fusion_lat": 0.0, "type": "electric_scooter", "lat": 38.894522333333335, "is_reserved": 0, "is_disabled": 0, "fusion_lon": 0.0, "bike_id": "3dfd0e2b7cf7a010f9616acbcea9be92", "lon": -77.01925683333333, "rental_uris": {"ios": "https://dc.lft.to/lastmile_qr_scan", "android": "https://dc.lft.to/lastmile_qr_scan"}}, {"name": "77c0eea81ad329a0358e2bfb158d6fb9", "fusion_lat": 0.0, "type": "electric_scooter", "lat": 38.93288183333333, "is_reserved": 0, "is_disabled": 0, "fusion_lon": 0.0, "bike_id": "77c0eea81ad329a0358e2bfb158d6fb9", "lon": -77.039784, "rental_uris": {"ios": "https://dc.lft.to/lastmile_qr_scan", "android": "https://dc.lft.to/lastmile_qr_scan"}}, {"name": "efdcfb0ea4650990fae2bd47591383bb", "fusion_lat": 0.0, "type": "electric_scooter", "lat": 38.886867, "is_reserved": 0, "is_disabled": 0, "fusion_lon": 0.0, "bike_id": "efdcfb0ea4650990fae2bd47591383bb", "lon": -76.95762583333334, "rental_uris": {"ios": "https://dc.lft.to/lastmile_qr_scan", "android": "https://dc.lft.to/lastmile_qr_scan"}}, {"name": "7aca2dec974da93a6dc335ecf2200b30", "fusion_lat": 0.0, "type": "electric_bike", "lat": 38.83829216666667, "is_reserved": 0, "is_disabled": 0, "fusion_lon": 0.0, "bike_id": "7aca2dec974da93a6dc335ecf2200b30", "lon": -76.99688833333333, "rental_uris": {"ios": "https://dc.lft.to/lastmile_qr_scan", "android": "https://dc.lft.to/lastmile_qr_scan"}}, {"name": "d3925ce426a7134ff7632f1573aa168b", "fusion_lat": 0.0, "type": "electric_scooter", "lat": 38.90776783333333, "is_reserved": 0, "is_disabled": 0, "fusion_lon": 0.0, "bike_id": "d3925ce426a7134ff7632f1573aa168b", "lon": -77.07170166666667, "rental_uris": {"ios": "https://dc.lft.to/lastmile_qr_scan", "android": "https://dc.lft.to/lastmile_qr_scan"}}, {"name": "6ecd5986be9939a493084ef4fd58d810", "fusion_lat": 0.0, "type": "electric_scooter", "lat": 38.866578833333335, "is_reserved": 0, "is_disabled": 0, "fusion_lon": 0.0, "bike_id": "6ecd5986be9939a493084ef4fd58d810", "lon": -76.98887583333334, "rental_uris": {"ios": "https://dc.lft.to/lastmile_qr_scan", "android": "https://dc.lft.to/lastmile_qr_scan"}}, {"name": "d0c0e178c5d0edf81e730ac93e37ad2c", "fusion_lat": 0.0, "type": "electric_scooter", "lat": 38.92624, "is_reserved": 0, "is_disabled": 0, "fusion_lon": 0.0, "bike_id": "d0c0e178c5d0edf81e730ac93e37ad2c", "lon": -77.03713316666666, "rental_uris": {"ios": "https://dc.lft.to/lastmile_qr_scan", "android": "https://dc.lft.to/lastmile_qr_scan"}}, {"name": "68262ce6db3232184945b0b08b458783", "fusion_lat": 0.0, "type": "electric_scooter", "lat": 38.905054, "is_reserved": 0, "is_disabled": 0, "fusion_lon": 0.0, "bike_id": "68262ce6db3232184945b0b08b458783", "lon": -76.994466, "rental_uris": {"ios": "https://dc.lft.to/lastmile_qr_scan", "android": "https://dc.lft.to/lastmile_qr_scan"}}, {"name": "9d297208f82b97dc178fafdfe0c5a669", "fusion_lat": 0.0, "type": "electric_scooter", "lat": 38.881078, "is_reserved": 0, "is_disabled": 0, "fusion_lon": 0.0, "bike_id": "9d297208f82b97dc178fafdfe0c5a669", "lon": -77.01214433333334, "rental_uris": {"ios": "https://dc.lft.to/lastmile_qr_scan", "android": "https://dc.lft.to/lastmile_qr_scan"}}, {"name": "cf8655152093c1d6ba166863e20d15fd", "fusion_lat": 0.0, "type": "electric_scooter", "lat": 38.90640416666667, "is_reserved": 0, "is_disabled": 0, "fusion_lon": 0.0, "bike_id": "cf8655152093c1d6ba166863e20d15fd", "lon": -77.03866783333334, "rental_uris": {"ios": "https://dc.lft.to/lastmile_qr_scan", "android": "https://dc.lft.to/lastmile_qr_scan"}}, {"name": "694cf1d03847ada8225cc4e6b707a74f", "fusion_lat": 0.0, "type": "electric_scooter", "lat": 38.906692166666666, "is_reserved": 0, "is_disabled": 0, "fusion_lon": 0.0, "bike_id": "694cf1d03847ada8225cc4e6b707a74f", "lon": -77.0271095, "rental_uris": {"ios": "https://dc.lft.to/lastmile_qr_scan", "android": "https://dc.lft.to/lastmile_qr_scan"}}, {"name": "cdf47a6d846fc69dae26ea09a423ea59", "fusion_lat": 0.0, "type": "electric_bike", "lat": 38.958923166666665, "is_reserved": 0, "is_disabled": 0, "fusion_lon": 0.0, "bike_id": "cdf47a6d846fc69dae26ea09a423ea59", "lon": -77.02593866666666, "rental_uris": {"ios": "https://dc.lft.to/lastmile_qr_scan", "android": "https://dc.lft.to/lastmile_qr_scan"}}, {"name": "eced215608625ea26a6465051d9d6597", "fusion_lat": 0.0, "type": "electric_scooter", "lat": 38.90573, "is_reserved": 0, "is_disabled": 0, "fusion_lon": 0.0, "bike_id": "eced215608625ea26a6465051d9d6597", "lon": -77.022151, "rental_uris": {"ios": "https://dc.lft.to/lastmile_qr_scan", "android": "https://dc.lft.to/lastmile_qr_scan"}}, {"name": "19d3a6a66325df44c032c90132012658", "fusion_lat": 0.0, "type": "electric_scooter", "lat": 38.9003045, "is_reserved": 0, "is_disabled": 0, "fusion_lon": 0.0, "bike_id": "19d3a6a66325df44c032c90132012658", "lon": -76.98850383333334, "rental_uris": {"ios": "https://dc.lft.to/lastmile_qr_scan", "android": "https://dc.lft.to/lastmile_qr_scan"}}, {"name": "7a1636d70ca2f665eba4e9d963364b4f", "fusion_lat": 0.0, "type": "electric_scooter", "lat": 38.924565333333334, "is_reserved": 0, "is_disabled": 0, "fusion_lon": 0.0, "bike_id": "7a1636d70ca2f665eba4e9d963364b4f", "lon": -77.03281, "rental_uris": {"ios": "https://dc.lft.to/lastmile_qr_scan", "android": "https://dc.lft.to/lastmile_qr_scan"}}, {"name": "072102a4503be2cf0802901cb4c8fa3f", "fusion_lat": 0.0, "type": "electric_scooter", "lat": 38.91342383333333, "is_reserved": 0, "is_disabled": 0, "fusion_lon": 0.0, "bike_id": "072102a4503be2cf0802901cb4c8fa3f", "lon": -77.0034515, "rental_uris": {"ios": "https://dc.lft.to/lastmile_qr_scan", "android": "https://dc.lft.to/lastmile_qr_scan"}}, {"name": "7976aea9666832aecbce1cd6f9dd3bc1", "fusion_lat": 0.0, "type": "electric_scooter", "lat": 38.90865016666667, "is_reserved": 0, "is_disabled": 0, "fusion_lon": 0.0, "bike_id": "7976aea9666832aecbce1cd6f9dd3bc1", "lon": -77.085954, "rental_uris": {"ios": "https://dc.lft.to/lastmile_qr_scan", "android": "https://dc.lft.to/lastmile_qr_scan"}}, {"name": "cc8ebbd6f28073e6f1654c76e1b4cc1e", "fusion_lat": 0.0, "type": "electric_scooter", "lat": 38.93553, "is_reserved": 0, "is_disabled": 0, "fusion_lon": 0.0, "bike_id": "cc8ebbd6f28073e6f1654c76e1b4cc1e", "lon": -77.023758, "rental_uris": {"ios": "https://dc.lft.to/lastmile_qr_scan", "android": "https://dc.lft.to/lastmile_qr_scan"}}, {"name": "1c52969591ff70d29408b14d11a6c857", "fusion_lat": 0.0, "type": "electric_scooter", "lat": 38.93881616666667, "is_reserved": 0, "is_disabled": 0, "fusion_lon": 0.0, "bike_id": "1c52969591ff70d29408b14d11a6c857", "lon": -77.02463466666667, "rental_uris": {"ios": "https://dc.lft.to/lastmile_qr_scan", "android": "https://dc.lft.to/lastmile_qr_scan"}}, {"name": "27664e0c7e303288464b6bff3607d1ca", "fusion_lat": 0.0, "type": "electric_scooter", "lat": 38.93602683333334, "is_reserved": 0, "is_disabled": 0, "fusion_lon": 0.0, "bike_id": "27664e0c7e303288464b6bff3607d1ca", "lon": -77.05589933333333, "rental_uris": {"ios": "https://dc.lft.to/lastmile_qr_scan", "android": "https://dc.lft.to/lastmile_qr_scan"}}, {"name": "194e773ea3df321bec9dfdd9154cd7e1", "fusion_lat": 0.0, "type": "electric_scooter", "lat": 38.9057125, "is_reserved": 0, "is_disabled": 0, "fusion_lon": 0.0, "bike_id": "194e773ea3df321bec9dfdd9154cd7e1", "lon": -77.02212633333333, "rental_uris": {"ios": "https://dc.lft.to/lastmile_qr_scan", "android": "https://dc.lft.to/lastmile_qr_scan"}}, {"name": "8993b08a85a56d4809731bfaf8259539", "fusion_lat": 0.0, "type": "electric_scooter", "lat": 38.92342033333333, "is_reserved": 0, "is_disabled": 0, "fusion_lon": 0.0, "bike_id": "8993b08a85a56d4809731bfaf8259539", "lon": -77.05095533333333, "rental_uris": {"ios": "https://dc.lft.to/lastmile_qr_scan", "android": "https://dc.lft.to/lastmile_qr_scan"}}, {"name": "5fe6d0090dbe07f01915d26cee05b833", "fusion_lat": 0.0, "type": "electric_scooter", "lat": 38.913352833333335, "is_reserved": 0, "is_disabled": 0, "fusion_lon": 0.0, "bike_id": "5fe6d0090dbe07f01915d26cee05b833", "lon": -77.0426685, "rental_uris": {"ios": "https://dc.lft.to/lastmile_qr_scan", "android": "https://dc.lft.to/lastmile_qr_scan"}}, {"name": "07a2c98a6249ee9b194c96da1397edc0", "fusion_lat": 0.0, "type": "electric_scooter", "lat": 38.895259, "is_reserved": 0, "is_disabled": 0, "fusion_lon": 0.0, "bike_id": "07a2c98a6249ee9b194c96da1397edc0", "lon": -77.01609616666667, "rental_uris": {"ios": "https://dc.lft.to/lastmile_qr_scan", "android": "https://dc.lft.to/lastmile_qr_scan"}}, {"name": "5b2b2b2467aab6812341d88908595960", "fusion_lat": 0.0, "type": "electric_scooter", "lat": 38.90844216666667, "is_reserved": 0, "is_disabled": 0, "fusion_lon": 0.0, "bike_id": "5b2b2b2467aab6812341d88908595960", "lon": -77.03283516666667, "rental_uris": {"ios": "https://dc.lft.to/lastmile_qr_scan", "android": "https://dc.lft.to/lastmile_qr_scan"}}, {"name": "83047a1a33fc75f940afcbdaa1b1f48a", "fusion_lat": 0.0, "type": "electric_bike", "lat": 38.900806833333334, "is_reserved": 0, "is_disabled": 0, "fusion_lon": 0.0, "bike_id": "83047a1a33fc75f940afcbdaa1b1f48a", "lon": -77.05902366666666, "rental_uris": {"ios": "https://dc.lft.to/lastmile_qr_scan", "android": "https://dc.lft.to/lastmile_qr_scan"}}, {"name": "ace595ab8a53d8ba15393ad2c22aba27", "fusion_lat": 0.0, "type": "electric_scooter", "lat": 38.906268833333336, "is_reserved": 0, "is_disabled": 0, "fusion_lon": 0.0, "bike_id": "ace595ab8a53d8ba15393ad2c22aba27", "lon": -77.00592383333333, "rental_uris": {"ios": "https://dc.lft.to/lastmile_qr_scan", "android": "https://dc.lft.to/lastmile_qr_scan"}}, {"name": "e320c0c4acec62df5cf1908a5f0ff233", "fusion_lat": 0.0, "type": "electric_scooter", "lat": 38.903761833333334, "is_reserved": 0, "is_disabled": 0, "fusion_lon": 0.0, "bike_id": "e320c0c4acec62df5cf1908a5f0ff233", "lon": -77.04192616666667, "rental_uris": {"ios": "https://dc.lft.to/lastmile_qr_scan", "android": "https://dc.lft.to/lastmile_qr_scan"}}, {"name": "b97e36555488a5cf78015fd5a914779a", "fusion_lat": 0.0, "type": "electric_scooter", "lat": 38.917112833333334, "is_reserved": 0, "is_disabled": 0, "fusion_lon": 0.0, "bike_id": "b97e36555488a5cf78015fd5a914779a", "lon": -77.02895133333334, "rental_uris": {"ios": "https://dc.lft.to/lastmile_qr_scan", "android": "https://dc.lft.to/lastmile_qr_scan"}}, {"name": "bb821f32633758214009bffc1ce53979", "fusion_lat": 0.0, "type": "electric_bike", "lat": 38.9463135, "is_reserved": 0, "is_disabled": 0, "fusion_lon": 0.0, "bike_id": "bb821f32633758214009bffc1ce53979", "lon": -77.01843633333333, "rental_uris": {"ios": "https://dc.lft.to/lastmile_qr_scan", "android": "https://dc.lft.to/lastmile_qr_scan"}}, {"name": "8d4d9cef25fefc886f94d0eb9719d6f5", "fusion_lat": 0.0, "type": "electric_scooter", "lat": 38.917163333333335, "is_reserved": 0, "is_disabled": 0, "fusion_lon": 0.0, "bike_id": "8d4d9cef25fefc886f94d0eb9719d6f5", "lon": -77.035518, "rental_uris": {"ios": "https://dc.lft.to/lastmile_qr_scan", "android": "https://dc.lft.to/lastmile_qr_scan"}}, {"name": "a7c8dc62c5bca31a04896cf8514cae0a", "fusion_lat": 0.0, "type": "electric_scooter", "lat": 38.93204083333333, "is_reserved": 0, "is_disabled": 0, "fusion_lon": 0.0, "bike_id": "a7c8dc62c5bca31a04896cf8514cae0a", "lon": -77.0364105, "rental_uris": {"ios": "https://dc.lft.to/lastmile_qr_scan", "android": "https://dc.lft.to/lastmile_qr_scan"}}, {"name": "1a3e355698b5da057fcb3cf2126e7c97", "fusion_lat": 0.0, "type": "electric_scooter", "lat": 38.91762416666667, "is_reserved": 0, "is_disabled": 0, "fusion_lon": 0.0, "bike_id": "1a3e355698b5da057fcb3cf2126e7c97", "lon": -77.04744316666667, "rental_uris": {"ios": "https://dc.lft.to/lastmile_qr_scan", "android": "https://dc.lft.to/lastmile_qr_scan"}}, {"name": "47af46f0c01e4fbbc91c8da3845099b5", "fusion_lat": 0.0, "type": "electric_scooter", "lat": 38.929115833333334, "is_reserved": 0, "is_disabled": 0, "fusion_lon": 0.0, "bike_id": "47af46f0c01e4fbbc91c8da3845099b5", "lon": -77.01954366666666, "rental_uris": {"ios": "https://dc.lft.to/lastmile_qr_scan", "android": "https://dc.lft.to/lastmile_qr_scan"}}, {"name": "54df5914a3883577daa30e763d195095", "fusion_lat": 0.0, "type": "electric_bike", "lat": 38.854433666666665, "is_reserved": 0, "is_disabled": 0, "fusion_lon": 0.0, "bike_id": "54df5914a3883577daa30e763d195095", "lon": -77.11681683333333, "rental_uris": {"ios": "https://dc.lft.to/lastmile_qr_scan", "android": "https://dc.lft.to/lastmile_qr_scan"}}, {"name": "443abdf9d28f5fd3c114a2daefdf6af5", "fusion_lat": 0.0, "type": "electric_bike", "lat": 38.858749833333334, "is_reserved": 0, "is_disabled": 0, "fusion_lon": 0.0, "bike_id": "443abdf9d28f5fd3c114a2daefdf6af5", "lon": -77.09558266666667, "rental_uris": {"ios": "https://dc.lft.to/lastmile_qr_scan", "android": "https://dc.lft.to/lastmile_qr_scan"}}, {"name": "df3eb0b9df06ab8ff93e7063ab0d46c9", "fusion_lat": 0.0, "type": "electric_scooter", "lat": 38.8921255, "is_reserved": 0, "is_disabled": 0, "fusion_lon": 0.0, "bike_id": "df3eb0b9df06ab8ff93e7063ab0d46c9", "lon": -76.99569683333333, "rental_uris": {"ios": "https://dc.lft.to/lastmile_qr_scan", "android": "https://dc.lft.to/lastmile_qr_scan"}}, {"name": "846d4d1570fa0ff6362d3425271939bb", "fusion_lat": 0.0, "type": "electric_scooter", "lat": 38.922683666666664, "is_reserved": 0, "is_disabled": 0, "fusion_lon": 0.0, "bike_id": "846d4d1570fa0ff6362d3425271939bb", "lon": -77.03409333333333, "rental_uris": {"ios": "https://dc.lft.to/lastmile_qr_scan", "android": "https://dc.lft.to/lastmile_qr_scan"}}, {"name": "065364babb97410646544c3239c4ca75", "fusion_lat": 0.0, "type": "electric_bike", "lat": 39.0304515, "is_reserved": 0, "is_disabled": 0, "fusion_lon": 0.0, "bike_id": "065364babb97410646544c3239c4ca75", "lon": -77.09482566666667, "rental_uris": {"ios": "https://dc.lft.to/lastmile_qr_scan", "android": "https://dc.lft.to/lastmile_qr_scan"}}, {"name": "3540b7bedc99a701f782a1a6afce325a", "fusion_lat": 0.0, "type": "electric_scooter", "lat": 38.953983666666666, "is_reserved": 0, "is_disabled": 0, "fusion_lon": 0.0, "bike_id": "3540b7bedc99a701f782a1a6afce325a", "lon": -77.02751333333333, "rental_uris": {"ios": "https://dc.lft.to/lastmile_qr_scan", "android": "https://dc.lft.to/lastmile_qr_scan"}}, {"name": "202987bc7a298a3724686c2d3a68fe30", "fusion_lat": 0.0, "type": "electric_scooter", "lat": 38.899493666666665, "is_reserved": 0, "is_disabled": 0, "fusion_lon": 0.0, "bike_id": "202987bc7a298a3724686c2d3a68fe30", "lon": -77.04086366666667, "rental_uris": {"ios": "https://dc.lft.to/lastmile_qr_scan", "android": "https://dc.lft.to/lastmile_qr_scan"}}, {"name": "c6ad28547bbd60a027a1869f0f959c63", "fusion_lat": 0.0, "type": "electric_scooter", "lat": 38.9122865, "is_reserved": 0, "is_disabled": 0, "fusion_lon": 0.0, "bike_id": "c6ad28547bbd60a027a1869f0f959c63", "lon": -77.05110466666666, "rental_uris": {"ios": "https://dc.lft.to/lastmile_qr_scan", "android": "https://dc.lft.to/lastmile_qr_scan"}}, {"name": "d070b01c3f2c861724b7d2ee7fd1d6e6", "fusion_lat": 0.0, "type": "electric_bike", "lat": 38.970634833333335, "is_reserved": 0, "is_disabled": 0, "fusion_lon": 0.0, "bike_id": "d070b01c3f2c861724b7d2ee7fd1d6e6", "lon": -76.936137, "rental_uris": {"ios": "https://dc.lft.to/lastmile_qr_scan", "android": "https://dc.lft.to/lastmile_qr_scan"}}, {"name": "961c922ee628e711ea7aa73cdeb3654d", "fusion_lat": 0.0, "type": "electric_scooter", "lat": 38.9224265, "is_reserved": 0, "is_disabled": 0, "fusion_lon": 0.0, "bike_id": "961c922ee628e711ea7aa73cdeb3654d", "lon": -77.03663116666667, "rental_uris": {"ios": "https://dc.lft.to/lastmile_qr_scan", "android": "https://dc.lft.to/lastmile_qr_scan"}}, {"name": "1cee2193e5dca329d9a9183c314a67a6", "fusion_lat": 0.0, "type": "electric_scooter", "lat": 38.9429845, "is_reserved": 0, "is_disabled": 0, "fusion_lon": 0.0, "bike_id": "1cee2193e5dca329d9a9183c314a67a6", "lon": -77.06807583333334, "rental_uris": {"ios": "https://dc.lft.to/lastmile_qr_scan", "android": "https://dc.lft.to/lastmile_qr_scan"}}, {"name": "d9c9b25c969770f974712f3212907473", "fusion_lat": 0.0, "type": "electric_scooter", "lat": 38.92309816666667, "is_reserved": 0, "is_disabled": 0, "fusion_lon": 0.0, "bike_id": "d9c9b25c969770f974712f3212907473", "lon": -77.029795, "rental_uris": {"ios": "https://dc.lft.to/lastmile_qr_scan", "android": "https://dc.lft.to/lastmile_qr_scan"}}, {"name": "c6ae7bf086ca26a1141e79e6846ccb86", "fusion_lat": 0.0, "type": "electric_scooter", "lat": 38.9014015, "is_reserved": 0, "is_disabled": 0, "fusion_lon": 0.0, "bike_id": "c6ae7bf086ca26a1141e79e6846ccb86", "lon": -76.99125066666667, "rental_uris": {"ios": "https://dc.lft.to/lastmile_qr_scan", "android": "https://dc.lft.to/lastmile_qr_scan"}}, {"name": "404f511717158b33986549ade6fcde9b", "fusion_lat": 0.0, "type": "electric_scooter", "lat": 38.90981566666667, "is_reserved": 0, "is_disabled": 0, "fusion_lon": 0.0, "bike_id": "404f511717158b33986549ade6fcde9b", "lon": -77.04874366666667, "rental_uris": {"ios": "https://dc.lft.to/lastmile_qr_scan", "android": "https://dc.lft.to/lastmile_qr_scan"}}, {"name": "2f3449a770fe390a47bbb810686d2388", "fusion_lat": 0.0, "type": "electric_scooter", "lat": 38.92371583333333, "is_reserved": 0, "is_disabled": 0, "fusion_lon": 0.0, "bike_id": "2f3449a770fe390a47bbb810686d2388", "lon": -77.0192085, "rental_uris": {"ios": "https://dc.lft.to/lastmile_qr_scan", "android": "https://dc.lft.to/lastmile_qr_scan"}}, {"name": "33ade40f8b8786f0504780b7448f0135", "fusion_lat": 0.0, "type": "electric_bike", "lat": 39.05202766666667, "is_reserved": 0, "is_disabled": 0, "fusion_lon": 0.0, "bike_id": "33ade40f8b8786f0504780b7448f0135", "lon": -77.1091475, "rental_uris": {"ios": "https://dc.lft.to/lastmile_qr_scan", "android": "https://dc.lft.to/lastmile_qr_scan"}}, {"name": "ab1875d43a33df7d6f5e833c26a4db2f", "fusion_lat": 0.0, "type": "electric_bike", "lat": 38.84157916666667, "is_reserved": 0, "is_disabled": 0, "fusion_lon": 0.0, "bike_id": "ab1875d43a33df7d6f5e833c26a4db2f", "lon": -77.08890516666666, "rental_uris": {"ios": "https://dc.lft.to/lastmile_qr_scan", "android": "https://dc.lft.to/lastmile_qr_scan"}}, {"name": "1398ff9a2b05c11c0ecdd34e6879afc6", "fusion_lat": 0.0, "type": "electric_bike", "lat": 38.87730833333333, "is_reserved": 0, "is_disabled": 0, "fusion_lon": 0.0, "bike_id": "1398ff9a2b05c11c0ecdd34e6879afc6", "lon": -77.11847216666666, "rental_uris": {"ios": "https://dc.lft.to/lastmile_qr_scan", "android": "https://dc.lft.to/lastmile_qr_scan"}}, {"name": "153eea8768bbb6d785b597c9f09a9d17", "fusion_lat": 0.0, "type": "electric_scooter", "lat": 38.872323, "is_reserved": 0, "is_disabled": 0, "fusion_lon": 0.0, "bike_id": "153eea8768bbb6d785b597c9f09a9d17", "lon": -77.01770416666666, "rental_uris": {"ios": "https://dc.lft.to/lastmile_qr_scan", "android": "https://dc.lft.to/lastmile_qr_scan"}}, {"name": "c75739be452c8731d56205377549fc42", "fusion_lat": 0.0, "type": "electric_scooter", "lat": 38.91282016666667, "is_reserved": 0, "is_disabled": 0, "fusion_lon": 0.0, "bike_id": "c75739be452c8731d56205377549fc42", "lon": -76.93797433333333, "rental_uris": {"ios": "https://dc.lft.to/lastmile_qr_scan", "android": "https://dc.lft.to/lastmile_qr_scan"}}, {"name": "7b1c4780ff907aed598b420ebe428a1b", "fusion_lat": 0.0, "type": "electric_scooter", "lat": 38.89833333333333, "is_reserved": 0, "is_disabled": 0, "fusion_lon": 0.0, "bike_id": "7b1c4780ff907aed598b420ebe428a1b", "lon": -76.9464335, "rental_uris": {"ios": "https://dc.lft.to/lastmile_qr_scan", "android": "https://dc.lft.to/lastmile_qr_scan"}}, {"name": "0285d5556de6d06e4be37a6026471e07", "fusion_lat": 0.0, "type": "electric_scooter", "lat": 38.89399933333333, "is_reserved": 0, "is_disabled": 0, "fusion_lon": 0.0, "bike_id": "0285d5556de6d06e4be37a6026471e07", "lon": -77.021737, "rental_uris": {"ios": "https://dc.lft.to/lastmile_qr_scan", "android": "https://dc.lft.to/lastmile_qr_scan"}}, {"name": "4a2bff665299cabf65dd89e79d8a030e", "fusion_lat": 0.0, "type": "electric_scooter", "lat": 38.900237, "is_reserved": 0, "is_disabled": 0, "fusion_lon": 0.0, "bike_id": "4a2bff665299cabf65dd89e79d8a030e", "lon": -77.00205366666667, "rental_uris": {"ios": "https://dc.lft.to/lastmile_qr_scan", "android": "https://dc.lft.to/lastmile_qr_scan"}}, {"name": "bf5e0e7e37a7c585039f10b70484f9c1", "fusion_lat": 0.0, "type": "electric_scooter", "lat": 38.900007333333335, "is_reserved": 0, "is_disabled": 0, "fusion_lon": 0.0, "bike_id": "bf5e0e7e37a7c585039f10b70484f9c1", "lon": -76.99465716666667, "rental_uris": {"ios": "https://dc.lft.to/lastmile_qr_scan", "android": "https://dc.lft.to/lastmile_qr_scan"}}, {"name": "75d021e7b3e375a031b16879eea7c0dd", "fusion_lat": 0.0, "type": "electric_scooter", "lat": 38.914135, "is_reserved": 0, "is_disabled": 0, "fusion_lon": 0.0, "bike_id": "75d021e7b3e375a031b16879eea7c0dd", "lon": -77.04497683333334, "rental_uris": {"ios": "https://dc.lft.to/lastmile_qr_scan", "android": "https://dc.lft.to/lastmile_qr_scan"}}, {"name": "d41a1fdcaf7efe919c9ba07821ef7cee", "fusion_lat": 0.0, "type": "electric_scooter", "lat": 38.9357775, "is_reserved": 0, "is_disabled": 0, "fusion_lon": 0.0, "bike_id": "d41a1fdcaf7efe919c9ba07821ef7cee", "lon": -77.02845416666666, "rental_uris": {"ios": "https://dc.lft.to/lastmile_qr_scan", "android": "https://dc.lft.to/lastmile_qr_scan"}}, {"name": "67955f2f8b7d274f9a0ed0af97962a6f", "fusion_lat": 0.0, "type": "electric_scooter", "lat": 38.90807916666667, "is_reserved": 0, "is_disabled": 0, "fusion_lon": 0.0, "bike_id": "67955f2f8b7d274f9a0ed0af97962a6f", "lon": -77.04348116666667, "rental_uris": {"ios": "https://dc.lft.to/lastmile_qr_scan", "android": "https://dc.lft.to/lastmile_qr_scan"}}, {"name": "9bc02e6b35aaebdb1b74545838bd5abb", "fusion_lat": 0.0, "type": "electric_scooter", "lat": 38.9210305, "is_reserved": 0, "is_disabled": 0, "fusion_lon": 0.0, "bike_id": "9bc02e6b35aaebdb1b74545838bd5abb", "lon": -77.0392305, "rental_uris": {"ios": "https://dc.lft.to/lastmile_qr_scan", "android": "https://dc.lft.to/lastmile_qr_scan"}}, {"name": "f854c7bc124b84156a42f3205c735e7b", "fusion_lat": 0.0, "type": "electric_scooter", "lat": 38.924822166666665, "is_reserved": 0, "is_disabled": 0, "fusion_lon": 0.0, "bike_id": "f854c7bc124b84156a42f3205c735e7b", "lon": -77.03001933333333, "rental_uris": {"ios": "https://dc.lft.to/lastmile_qr_scan", "android": "https://dc.lft.to/lastmile_qr_scan"}},