{"data": {"bikes": [{"lon": -77.0180445, "fusion_lon": 0.0, "bike_id": "a962ff8ca6fdc515bf5d4346a02f46f7", "type": "electric_scooter", "name": "a962ff8ca6fdc515bf5d4346a02f46f7", "rental_uris": {"android": "https://dc.lft.to/lastmile_qr_scan", "ios": "https://dc.lft.to/lastmile_qr_scan"}, "is_disabled": 0, "fusion_lat": 0.0, "lat": 38.90116416666667, "is_reserved": 0}, {"lon": -76.99769966666666, "fusion_lon": 0.0, "bike_id": "b01608c5087f9313380c9519a5597f65", "type": "electric_scooter", "name": "b01608c5087f9313380c9519a5597f65", "rental_uris": {"android": "https://dc.lft.to/lastmile_qr_scan", "ios": "https://dc.lft.to/lastmile_qr_scan"}, "is_disabled": 0, "fusion_lat": 0.0, "lat": 38.91119283333333, "is_reserved": 0}, {"lon": -77.09671966666667, "fusion_lon": 0.0, "bike_id": "598033177e668d6f73bf2deaa12986b8", "type": "electric_bike", "name": "598033177e668d6f73bf2deaa12986b8", "rental_uris": {"android": "https://dc.lft.to/lastmile_qr_scan", "ios": "https://dc.lft.to/lastmile_qr_scan"}, "is_disabled": 0, "fusion_lat": 0.0, "lat": 38.946170333333335, "is_reserved": 0}, {"lon": -77.03853683333334, "fusion_lon": 0.0, "bike_id": "66cd71ce0f68eca3ee6638655444aa50", "type": "electric_scooter", "name": "66cd71ce0f68eca3ee6638655444aa50", "rental_uris": {"android": "https://dc.lft.to/lastmile_qr_scan", "ios": "https://dc.lft.to/lastmile_qr_scan"}, "is_disabled": 0, "fusion_lat": 0.0, "lat": 38.91769016666667, "is_reserved": 0}, {"lon": -77.03917233333334, "fusion_lon": 0.0, "bike_id": "299ecbc3d7a1f95b10145748cde5ee0f", "type": "electric_scooter", "name": "299ecbc3d7a1f95b10145748cde5ee0f", "rental_uris": {"android": "https://dc.lft.to/lastmile_qr_scan", "ios": "https://dc.lft.to/lastmile_qr_scan"}, "is_disabled": 0, "fusion_lat": 0.0, "lat": 38.911101, "is_reserved": 0}, {"lon": -77.05729116666667, "fusion_lon": 0.0, "bike_id": "8fe0a285cf76439aa6b30be9a6ebc3c8", "type": "electric_scooter", "name": "8fe0a285cf76439aa6b30be9a6ebc3c8", "rental_uris": {"android": "https://dc.lft.to/lastmile_qr_scan", "ios": "https://dc.lft.to/lastmile_qr_scan"}, "is_disabled": 0, "fusion_lat": 0.0, "lat": 38.93369416666667, "is_reserved": 0}, {"lon": -77.01275783333334, "fusion_lon": 0.0, "bike_id": "6afa813514f8e52aa4bde3e596627126", "type": "electric_scooter", "name": "6afa813514f8e52aa4bde3e596627126", "rental_uris": {"android": "https://dc.lft.to/lastmile_qr_scan", "ios": "https://dc.lft.to/lastmile_qr_scan"}, "is_disabled": 0, "fusion_lat": 0.0, "lat": 38.873084166666665, "is_reserved": 0}, {"lon": -77.02590683333334, "fusion_lon": 0.0, "bike_id": "aca8b56df7e3cd493e50e9cf615f21b8", "type": "electric_scooter", "name": "aca8b56df7e3cd493e50e9cf615f21b8", "rental_uris": {"android": "https://dc.lft.to/lastmile_qr_scan", "ios": "https://dc.lft.to/lastmile_qr_scan"}, "is_disabled": 0, "fusion_lat": 0.0, "lat": 38.96394183333334, "is_reserved": 0}, {"lon": -76.925855, "fusion_lon": 0.0, "bike_id": "309f3c9ddcf23234e320d7b811e95209", "type": "electric_scooter", "name": "309f3c9ddcf23234e320d7b811e95209", "rental_uris": {"android": "https://dc.lft.to/lastmile_qr_scan", "ios": "https://dc.lft.to/lastmile_qr_scan"}, "is_disabled": 0, "fusion_lat": 0.0, "lat": 38.89353966666667, "is_reserved": 0}, {"lon": -77.0586385, "fusion_lon": 0.0, "bike_id": "482fe4644dc883520cc07aee333a8c72", "type": "electric_scooter", "name": "482fe4644dc883520cc07aee333a8c72", "rental_uris": {"android": "https://dc.lft.to/lastmile_qr_scan", "ios": "https://dc.lft.to/lastmile_qr_scan"}, "is_disabled": 0, "fusion_lat": 0.0, "lat": 38.9361195, "is_reserved": 0}, {"lon": -77.03188383333334, "fusion_lon": 0.0, "bike_id": "78e0b78cb816e4174600b58cd1aef261", "type": "electric_scooter", "name": "78e0b78cb816e4174600b58cd1aef261", "rental_uris": {"android": "https://dc.lft.to/lastmile_qr_scan", "ios": "https://dc.lft.to/lastmile_qr_scan"}, "is_disabled": 0, "fusion_lat": 0.0, "lat": 38.90251383333333, "is_reserved": 0}, {"lon": -77.017749, "fusion_lon": 0.0, "bike_id": "6899d091a84712b7101dac736e5ff2da", "type": "electric_scooter", "name": "6899d091a84712b7101dac736e5ff2da", "rental_uris": {"android": "https://dc.lft.to/lastmile_qr_scan", "ios": "https://dc.lft.to/lastmile_qr_scan"}, "is_disabled": 0, "fusion_lat": 0.0, "lat": 38.887113666666664, "is_reserved": 0}, {"lon": -77.02384233333333, "fusion_lon": 0.0, "bike_id": "4e41cd4d55e15510539d692083872a45", "type": "electric_scooter", "name": "4e41cd4d55e15510539d692083872a45", "rental_uris": {"android": "https://dc.lft.to/lastmile_qr_scan", "ios": "https://dc.lft.to/lastmile_qr_scan"}, "is_disabled": 0, "fusion_lat": 0.0, "lat": 38.89230116666667, "is_reserved": 0}, {"lon": -77.03181466666666, "fusion_lon": 0.0, "bike_id": "5ec563efc37f93b3d0060ef4193132c1", "type": "electric_scooter", "name": "5ec563efc37f93b3d0060ef4193132c1", "rental_uris": {"android": "https://dc.lft.to/lastmile_qr_scan", "ios": "https://dc.lft.to/lastmile_qr_scan"}, "is_disabled": 0, "fusion_lat": 0.0, "lat": 38.923682166666666, "is_reserved": 0}, {"lon": -77.033211, "fusion_lon": 0.0, "bike_id": "49d9f9fe55c360a48655926c786c0968", "type": "electric_scooter", "name": "49d9f9fe55c360a48655926c786c0968", "rental_uris": {"android": "https://dc.lft.to/lastmile_qr_scan", "ios": "https://dc.lft.to/lastmile_qr_scan"}, "is_disabled": 0, "fusion_lat": 0.0, "lat": 38.9216015, "is_reserved": 0}, {"lon": -77.01978633333333, "fusion_lon": 0.0, "bike_id": "4982b8a2149e6433d969aa2a2b41b296", "type": "electric_scooter", "name": "4982b8a2149e6433d969aa2a2b41b296", "rental_uris": {"android": "https://dc.lft.to/lastmile_qr_scan", "ios": "https://dc.lft.to/lastmile_qr_scan"}, "is_disabled": 0, "fusion_lat": 0.0, "lat": 38.902403666666665, "is_reserved": 0}, {"lon": -77.016414, "fusion_lon": 0.0, "bike_id": "5bdd3c6019a9c82f96e73bf9ba181376", "type": "electric_scooter", "name": "5bdd3c6019a9c82f96e73bf9ba181376", "rental_uris": {"android": "https://dc.lft.to/lastmile_qr_scan", "ios": "https://dc.lft.to/lastmile_qr_scan"}, "is_disabled": 0, "fusion_lat": 0.0, "lat": 38.903779166666666, "is_reserved": 0}, {"lon": -77.02709033333333, "fusion_lon": 0.0, "bike_id": "5c35abedd8cc8e911f2abcf7b7f12719", "type": "electric_scooter", "name": "5c35abedd8cc8e911f2abcf7b7f12719", "rental_uris": {"android": "https://dc.lft.to/lastmile_qr_scan", "ios": "https://dc.lft.to/lastmile_qr_scan"}, "is_disabled": 0, "fusion_lat": 0.0, "lat": 38.92883916666667, "is_reserved": 0}, {"lon": -77.03660816666667, "fusion_lon": 0.0, "bike_id": "7ebf3525d7e2b0f692386d10417aeeb4", "type": "electric_scooter", "name": "7ebf3525d7e2b0f692386d10417aeeb4", "rental_uris": {"android": "https://dc.lft.to/lastmile_qr_scan", "ios": "https://dc.lft.to/lastmile_qr_scan"}, "is_disabled": 0, "fusion_lat": 0.0, "lat": 38.92125633333333, "is_reserved": 0}, {"lon": -76.99007066666667, "fusion_lon": 0.0, "bike_id": "1c226317b105d6439c1dc05d300342df", "type": "electric_scooter", "name": "1c226317b105d6439c1dc05d300342df", "rental_uris": {"android": "https://dc.lft.to/lastmile_qr_scan", "ios": "https://dc.lft.to/lastmile_qr_scan"}, "is_disabled": 0, "fusion_lat": 0.0, "lat": 38.865041, "is_reserved": 0}, {"lon": -77.02847533333333, "fusion_lon": 0.0, "bike_id": "ae623c8d710e85f88a5909007eff1559", "type": "electric_scooter", "name": "ae623c8d710e85f88a5909007eff1559", "rental_uris": {"android": "https://dc.lft.to/lastmile_qr_scan", "ios": "https://dc.lft.to/lastmile_qr_scan"}, "is_disabled": 0, "fusion_lat": 0.0, "lat": 38.88740983333334, "is_reserved": 0}, {"lon": -77.06104533333334, "fusion_lon": 0.0, "bike_id": "735d774984d95568ee9318c72338628a", "type": "electric_scooter", "name": "735d774984d95568ee9318c72338628a", "rental_uris": {"android": "https://dc.lft.to/lastmile_qr_scan", "ios": "https://dc.lft.to/lastmile_qr_scan"}, "is_disabled": 0, "fusion_lat": 0.0, "lat": 38.937051833333335, "is_reserved": 0}, {"lon": -77.0358815, "fusion_lon": 0.0, "bike_id": "95fc2be9b8e9fdc83431087ab4d5f3d4", "type": "electric_scooter", "name": "95fc2be9b8e9fdc83431087ab4d5f3d4", "rental_uris": {"android": "https://dc.lft.to/lastmile_qr_scan", "ios": "https://dc.lft.to/lastmile_qr_scan"}, "is_disabled": 0, "fusion_lat": 0.0, "lat": 38.903753, "is_reserved": 0}, {"lon": -77.02798783333333, "fusion_lon": 0.0, "bike_id": "019440e24914fb87c52a2e02c487625d", "type": "electric_scooter", "name": "019440e24914fb87c52a2e02c487625d", "rental_uris": {"android": "https://dc.lft.to/lastmile_qr_scan", "ios": "https://dc.lft.to/lastmile_qr_scan"}, "is_disabled": 0, "fusion_lat": 0.0, "lat": 38.96049166666667, "is_reserved": 0}, {"lon": -77.00887733333333, "fusion_lon": 0.0, "bike_id": "4902cc0cac31e2e1ab0f21571bd678f7", "type": "electric_scooter", "name": "4902cc0cac31e2e1ab0f21571bd678f7", "rental_uris": {"android": "https://dc.lft.to/lastmile_qr_scan", "ios": "https://dc.lft.to/lastmile_qr_scan"}, "is_disabled": 0, "fusion_lat": 0.0, "lat": 38.96830633333333, "is_reserved": 0}, {"lon": -77.03402766666666, "fusion_lon": 0.0, "bike_id": "be84d7840e81d5618e674b7a4c2ecfac", "type": "electric_scooter", "name": "be84d7840e81d5618e674b7a4c2ecfac", "rental_uris": {"android": "https://dc.lft.to/lastmile_qr_scan", "ios": "https://dc.lft.to/lastmile_qr_scan"}, "is_disabled": 0, "fusion_lat": 0.0, "lat": 38.92439533333334, "is_reserved": 0}, {"lon": -77.03265216666667, "fusion_lon": 0.0, "bike_id": "0b8ee444ed33d955b08b5ca1b3c85b79", "type": "electric_scooter", "name": "0b8ee444ed33d955b08b5ca1b3c85b79", "rental_uris": {"android": "https://dc.lft.to/lastmile_qr_scan", "ios": "https://dc.lft.to/lastmile_qr_scan"}, "is_disabled": 0, "fusion_lat": 0.0, "lat": 38.93774233333333, "is_reserved": 0}, {"lon": -77.02693266666667, "fusion_lon": 0.0, "bike_id": "53bd0e34e6927f59ffcbbfca832fc88b", "type": "electric_scooter", "name": "53bd0e34e6927f59ffcbbfca832fc88b", "rental_uris": {"android": "https://dc.lft.to/lastmile_qr_scan", "ios": "https://dc.lft.to/lastmile_qr_scan"}, "is_disabled": 0, "fusion_lat": 0.0, "lat": 38.9070605, "is_reserved": 0}, {"lon": -77.03365116666667, "fusion_lon": 0.0, "bike_id": "41f717ffe3527b2844aed6818584222a", "type": "electric_scooter", "name": "41f717ffe3527b2844aed6818584222a", "rental_uris": {"android": "https://dc.lft.to/lastmile_qr_scan", "ios": "https://dc.lft.to/lastmile_qr_scan"}, "is_disabled": 0, "fusion_lat": 0.0, "lat": 38.9235505, "is_reserved": 0}, {"lon": -77.0315005, "fusion_lon": 0.0, "bike_id": "b9135e286279684efb82f82c0d019e2d", "type": "electric_scooter", "name": "b9135e286279684efb82f82c0d019e2d", "rental_uris": {"android": "https://dc.lft.to/lastmile_qr_scan", "ios": "https://dc.lft.to/lastmile_qr_scan"}, "is_disabled": 0, "fusion_lat": 0.0, "lat": 38.897067666666665, "is_reserved": 0}, {"lon": -77.1085345, "fusion_lon": 0.0, "bike_id": "8f019d26a30e169423c053f3e08851f9", "type": "electric_bike", "name": "8f019d26a30e169423c053f3e08851f9", "rental_uris": {"android": "https://dc.lft.to/lastmile_qr_scan", "ios": "https://dc.lft.to/lastmile_qr_scan"}, "is_disabled": 0, "fusion_lat": 0.0, "lat": 38.872406833333336, "is_reserved": 0}, {"lon": -77.03355433333333, "fusion_lon": 0.0, "bike_id": "e7076326c9b52febac23433abcff9589", "type": "electric_scooter", "name": "e7076326c9b52febac23433abcff9589", "rental_uris": {"android": "https://dc.lft.to/lastmile_qr_scan", "ios": "https://dc.lft.to/lastmile_qr_scan"}, "is_disabled": 0, "fusion_lat": 0.0, "lat": 38.886946333333334, "is_reserved": 0}, {"lon": -77.02784666666666, "fusion_lon": 0.0, "bike_id": "252feb3451e0c3e43dd9d814b96c6424", "type": "electric_scooter", "name": "252feb3451e0c3e43dd9d814b96c6424", "rental_uris": {"android": "https://dc.lft.to/lastmile_qr_scan", "ios": "https://dc.lft.to/lastmile_qr_scan"}, "is_disabled": 0, "fusion_lat": 0.0, "lat": 38.93057666666667, "is_reserved": 0}, {"lon": -77.02425083333333, "fusion_lon": 0.0, "bike_id": "73f378325289f735b9ab2863b9f8eb92", "type": "electric_scooter", "name": "73f378325289f735b9ab2863b9f8eb92", "rental_uris": {"android": "https://dc.lft.to/lastmile_qr_scan", "ios": "https://dc.lft.to/lastmile_qr_scan"}, "is_disabled": 0, "fusion_lat": 0.0, "lat": 38.879655166666666, "is_reserved": 0}, {"lon": -77.03400283333333, "fusion_lon": 0.0, "bike_id": "f98168ab9a194e1469e6ea5b10d19a2c", "type": "electric_scooter", "name": "f98168ab9a194e1469e6ea5b10d19a2c", "rental_uris": {"android": "https://dc.lft.to/lastmile_qr_scan", "ios": "https://dc.lft.to/lastmile_qr_scan"}, "is_disabled": 0, "fusion_lat": 0.0, "lat": 38.92436216666667, "is_reserved": 0}, {"lon": -77.0432795, "fusion_lon": 0.0, "bike_id": "13c4d928c752d91820e8ed3ffb78a333", "type": "electric_scooter", "name": "13c4d928c752d91820e8ed3ffb78a333", "rental_uris": {"android": "https://dc.lft.to/lastmile_qr_scan", "ios": "https://dc.lft.to/lastmile_qr_scan"}, "is_disabled": 0, "fusion_lat": 0.0, "lat": 38.89671833333333, "is_reserved": 0}, {"lon": -76.985632, "fusion_lon": 0.0, "bike_id": "f055569c791d416218f0ec29c4c5922c", "type": "electric_scooter", "name": "f055569c791d416218f0ec29c4c5922c", "rental_uris": {"android": "https://dc.lft.to/lastmile_qr_scan", "ios": "https://dc.lft.to/lastmile_qr_scan"}, "is_disabled": 0, "fusion_lat": 0.0, "lat": 38.86681083333333, "is_reserved": 0}, {"lon": -76.985424, "fusion_lon": 0.0, "bike_id": "957efbe320c172b64b5e786a5033c1cf", "type": "electric_bike", "name": "957efbe320c172b64b5e786a5033c1cf", "rental_uris": {"android": "https://dc.lft.to/lastmile_qr_scan", "ios": "https://dc.lft.to/lastmile_qr_scan"}, "is_disabled": 0, "fusion_lat": 0.0, "lat": 38.892474166666666, "is_reserved": 0}, {"lon": -77.0275935, "fusion_lon": 0.0, "bike_id": "c575fa00f314f7d37976b82931695c9f", "type": "electric_scooter", "name": "c575fa00f314f7d37976b82931695c9f", "rental_uris": {"android": "https://dc.lft.to/lastmile_qr_scan", "ios": "https://dc.lft.to/lastmile_qr_scan"}, "is_disabled": 0, "fusion_lat": 0.0, "lat": 38.9134175, "is_reserved": 0}, {"lon": -77.04864683333334, "fusion_lon": 0.0, "bike_id": "3bb8d7f9fda7f678ffbce4c27d857f3a", "type": "electric_scooter", "name": "3bb8d7f9fda7f678ffbce4c27d857f3a", "rental_uris": {"android": "https://dc.lft.to/lastmile_qr_scan", "ios": "https://dc.lft.to/lastmile_qr_scan"}, "is_disabled": 0, "fusion_lat": 0.0, "lat": 38.89927, "is_reserved": 0}, {"lon": -76.9994425, "fusion_lon": 0.0, "bike_id": "d08e5bdaa7be2c239413a4b1d8a8ec05", "type": "electric_scooter", "name": "d08e5bdaa7be2c239413a4b1d8a8ec05", "rental_uris": {"android": "https://dc.lft.to/lastmile_qr_scan", "ios": "https://dc.lft.to/lastmile_qr_scan"}, "is_disabled": 0, "fusion_lat": 0.0, "lat": 38.842925666666666, "is_reserved": 0}, {"lon": -76.97437083333334, "fusion_lon": 0.0, "bike_id": "d8ce89972f74628116010d0a0401d5a0", "type": "electric_scooter", "name": "d8ce89972f74628116010d0a0401d5a0", "rental_uris": {"android": "https://dc.lft.to/lastmile_qr_scan", "ios": "https://dc.lft.to/lastmile_qr_scan"}, "is_disabled": 0, "fusion_lat": 0.0, "lat": 38.902339, "is_reserved": 0}, {"lon": -76.99470683333334, "fusion_lon": 0.0, "bike_id": "2e8bcede6f5a4893fa0c7be5d3897b10", "type": "electric_scooter", "name": "2e8bcede6f5a4893fa0c7be5d3897b10", "rental_uris": {"android": "https://dc.lft.to/lastmile_qr_scan", "ios": "https://dc.lft.to/lastmile_qr_scan"}, "is_disabled": 0, "fusion_lat": 0.0, "lat": 38.90514916666667, "is_reserved": 0}, {"lon": -77.00573233333333, "fusion_lon": 0.0, "bike_id": "cd32bacb538e15de1ddae5f259e4f84d", "type": "electric_scooter", "name": "cd32bacb538e15de1ddae5f259e4f84d", "rental_uris": {"android": "https://dc.lft.to/lastmile_qr_scan", "ios": "https://dc.lft.to/lastmile_qr_scan"}, "is_disabled": 0, "fusion_lat": 0.0, "lat": 38.876465833333334, "is_reserved": 0}, {"lon": -76.98367033333334, "fusion_lon": 0.0, "bike_id": "862bbd129698472b9466a72ea2ca38d7", "type": "electric_scooter", "name": "862bbd129698472b9466a72ea2ca38d7", "rental_uris": {"android": "https://dc.lft.to/lastmile_qr_scan", "ios": "https://dc.lft.to/lastmile_qr_scan"}, "is_disabled": 0, "fusion_lat": 0.0, "lat": 38.9150805, "is_reserved": 0}, {"lon": -77.053346, "fusion_lon": 0.0, "bike_id": "3a558cf63dbf2939cefd0719f29fb59f", "type": "electric_scooter", "name": "3a558cf63dbf2939cefd0719f29fb59f", "rental_uris": {"android": "https://dc.lft.to/lastmile_qr_scan", "ios": "https://dc.lft.to/lastmile_qr_scan"}, "is_disabled": 0, "fusion_lat": 0.0, "lat": 38.90238433333333, "is_reserved": 0}, {"lon": -77.03299, "fusion_lon": 0.0, "bike_id": "7f8163082f7b3c3309201aa41068dd4b", "type": "electric_scooter", "name": "7f8163082f7b3c3309201aa41068dd4b", "rental_uris": {"android": "https://dc.lft.to/lastmile_qr_scan", "ios": "https://dc.lft.to/lastmile_qr_scan"}, "is_disabled": 0, "fusion_lat": 0.0, "lat": 38.928733, "is_reserved": 0}, {"lon": -77.026525, "fusion_lon": 0.0, "bike_id": "9dff79db2079d5b1d1d3d3e72f040da0", "type": "electric_scooter", "name": "9dff79db2079d5b1d1d3d3e72f040da0", "rental_uris": {"android": "https://dc.lft.to/lastmile_qr_scan", "ios": "https://dc.lft.to/lastmile_qr_scan"}, "is_disabled": 0, "fusion_lat": 0.0, "lat": 38.91697933333333, "is_reserved": 0}, {"lon": -77.0325525, "fusion_lon": 0.0, "bike_id": "3682621cca401ed740b09f9051f75c65", "type": "electric_scooter", "name": "3682621cca401ed740b09f9051f75c65", "rental_uris": {"android": "https://dc.lft.to/lastmile_qr_scan", "ios": "https://dc.lft.to/lastmile_qr_scan"}, "is_disabled": 0, "fusion_lat": 0.0, "lat": 38.934362, "is_reserved": 0}, {"lon": -77.0165945, "fusion_lon": 0.0, "bike_id": "8dd5d3442381a5d31aa3a3f22f9c41d8", "type": "electric_scooter", "name": "8dd5d3442381a5d31aa3a3f22f9c41d8", "rental_uris": {"android": "https://dc.lft.to/lastmile_qr_scan", "ios": "https://dc.lft.to/lastmile_qr_scan"}, "is_disabled": 0, "fusion_lat": 0.0, "lat": 38.88120116666666, "is_reserved": 0}, {"lon": -77.02969316666666, "fusion_lon": 0.0, "bike_id": "d570117db6a97f74c9290bc8b192583a", "type": "electric_scooter", "name": "d570117db6a97f74c9290bc8b192583a", "rental_uris": {"android": "https://dc.lft.to/lastmile_qr_scan", "ios": "https://dc.lft.to/lastmile_qr_scan"}, "is_disabled": 0, "fusion_lat": 0.0, "lat": 38.906659833333336, "is_reserved": 0}, {"lon": -77.03728416666667, "fusion_lon": 0.0, "bike_id": "2b87e2568679c2f0d8a9372a978ab7fd", "type": "electric_scooter", "name": "2b87e2568679c2f0d8a9372a978ab7fd", "rental_uris": {"android": "https://dc.lft.to/lastmile_qr_scan", "ios": "https://dc.lft.to/lastmile_qr_scan"}, "is_disabled": 0, "fusion_lat": 0.0, "lat": 38.926542166666664, "is_reserved": 0}, {"lon": -77.02219483333333, "fusion_lon": 0.0, "bike_id": "4f1d3e84c88ed6f9cbef1a8d44472d27", "type": "electric_scooter", "name": "4f1d3e84c88ed6f9cbef1a8d44472d27", "rental_uris": {"android": "https://dc.lft.to/lastmile_qr_scan", "ios": "https://dc.lft.to/lastmile_qr_scan"}, "is_disabled": 0, "fusion_lat": 0.0, "lat": 38.935514, "is_reserved": 0}, {"lon": -77.05799133333333, "fusion_lon": 0.0, "bike_id": "da378f762d32983471b11176590684e8", "type": "electric_scooter", "name": "da378f762d32983471b11176590684e8", "rental_uris": {"android": "https://dc.lft.to/lastmile_qr_scan", "ios": "https://dc.lft.to/lastmile_qr_scan"}, "is_disabled": 0, "fusion_lat": 0.0, "lat": 38.93492616666666, "is_reserved": 0}, {"lon": -77.02722083333333, "fusion_lon": 0.0, "bike_id": "d7595ddfbd56399cbba96376e12e9f2b", "type": "electric_scooter", "name": "d7595ddfbd56399cbba96376e12e9f2b", "rental_uris": {"android": "https://dc.lft.to/lastmile_qr_scan", "ios": "https://dc.lft.to/lastmile_qr_scan"}, "is_disabled": 0, "fusion_lat": 0.0, "lat": 38.89797216666667, "is_reserved": 0}, {"lon": -77.01490083333333, "fusion_lon": 0.0, "bike_id": "0566dfc059a2d8ef2d8cf89774f90f3a", "type": "electric_scooter", "name": "0566dfc059a2d8ef2d8cf89774f90f3a", "rental_uris": {"android": "https://dc.lft.to/lastmile_qr_scan", "ios": "https://dc.lft.to/lastmile_qr_scan"}, "is_disabled": 0, "fusion_lat": 0.0, "lat": 38.91773166666667, "is_reserved": 0}, {"lon": -77.04870716666667, "fusion_lon": 0.0, "bike_id": "7b1c84c9b3610febb53bbe6107440e29", "type": "electric_scooter", "name": "7b1c84c9b3610febb53bbe6107440e29", "rental_uris": {"android": "https://dc.lft.to/lastmile_qr_scan", "ios": "https://dc.lft.to/lastmile_qr_scan"}, "is_disabled": 0, "fusion_lat": 0.0, "lat": 38.90908683333333, "is_reserved": 0}, {"lon": -77.0268805, "fusion_lon": 0.0, "bike_id": "dea04fe0fa1bd67239b151e96f52a53e", "type": "electric_scooter", "name": "dea04fe0fa1bd67239b151e96f52a53e", "rental_uris": {"android": "https://dc.lft.to/lastmile_qr_scan", "ios": "https://dc.lft.to/lastmile_qr_scan"}, "is_disabled": 0, "fusion_lat": 0.0, "lat": 38.906814833333335, "is_reserved": 0}, {"lon": -77.0353515, "fusion_lon": 0.0, "bike_id": "aa2681edc3048addf541da921c3ef701", "type": "electric_scooter", "name": "aa2681edc3048addf541da921c3ef701", "rental_uris": {"android": "https://dc.lft.to/lastmile_qr_scan", "ios": "https://dc.lft.to/lastmile_qr_scan"}, "is_disabled": 0, "fusion_lat": 0.0, "lat": 38.925157666666664, "is_reserved": 0}, {"lon": -77.0237765, "fusion_lon": 0.0, "bike_id": "018f6738b54cb03afed01e6ec537095e", "type": "electric_scooter", "name": "018f6738b54cb03afed01e6ec537095e", "rental_uris": {"android": "https://dc.lft.to/lastmile_qr_scan", "ios": "https://dc.lft.to/lastmile_qr_scan"}, "is_disabled": 0, "fusion_lat": 0.0, "lat": 38.9165985, "is_reserved": 0}, {"lon": -77.09989166666666, "fusion_lon": 0.0, "bike_id": "2076588976437b7ae6fcd7aa5e5561e7", "type": "electric_bike", "name": "2076588976437b7ae6fcd7aa5e5561e7", "rental_uris": {"android": "https://dc.lft.to/lastmile_qr_scan", "ios": "https://dc.lft.to/lastmile_qr_scan"}, "is_disabled": 0, "fusion_lat": 0.0, "lat": 38.858903833333336, "is_reserved": 0}, {"lon": -77.0220685, "fusion_lon": 0.0, "bike_id": "52e818d56c3afa6b49e1d1b39093971f", "type": "electric_scooter", "name": "52e818d56c3afa6b49e1d1b39093971f", "rental_uris": {"android": "https://dc.lft.to/lastmile_qr_scan", "ios": "https://dc.lft.to/lastmile_qr_scan"}, "is_disabled": 0, "fusion_lat": 0.0, "lat": 38.896114833333336, "is_reserved": 0}, {"lon": -76.99033583333333, "fusion_lon": 0.0, "bike_id": "d1cb1d39addc16cc90e3aaac7d2e24e0", "type": "electric_scooter", "name": "d1cb1d39addc16cc90e3aaac7d2e24e0", "rental_uris": {"android": "https://dc.lft.to/lastmile_qr_scan", "ios": "https://dc.lft.to/lastmile_qr_scan"}, "is_disabled": 0, "fusion_lat": 0.0, "lat": 38.88877033333333, "is_reserved": 0}, {"lon": -77.0194265, "fusion_lon": 0.0, "bike_id": "eaa51b90dda400cf0521dae6d21092bd", "type": "electric_scooter", "name": "eaa51b90dda400cf0521dae6d21092bd", "rental_uris": {"android": "https://dc.lft.to/lastmile_qr_scan", "ios": "https://dc.lft.to/lastmile_qr_scan"}, "is_disabled": 0, "fusion_lat": 0.0, "lat": 38.9241585, "is_reserved": 0}, {"lon": -77.04613616666667, "fusion_lon": 0.0, "bike_id": "4612c55876d280d44d790136d6223df3", "type": "electric_scooter", "name": "4612c55876d280d44d790136d6223df3", "rental_uris": {"android": "https://dc.lft.to/lastmile_qr_scan", "ios": "https://dc.lft.to/lastmile_qr_scan"}, "is_disabled": 0, "fusion_lat": 0.0, "lat": 38.915186, "is_reserved": 0}, {"lon": -77.0414015, "fusion_lon": 0.0, "bike_id": "da2055224485820311e791beb268cec7", "type": "electric_scooter", "name": "da2055224485820311e791beb268cec7", "rental_uris": {"android": "https://dc.lft.to/lastmile_qr_scan", "ios": "https://dc.lft.to/lastmile_qr_scan"}, "is_disabled": 0, "fusion_lat": 0.0, "lat": 38.916830166666664, "is_reserved": 0}, {"lon": -77.03623916666666, "fusion_lon": 0.0, "bike_id": "707c65aefce8051699ed86929e067c14", "type": "electric_scooter", "name": "707c65aefce8051699ed86929e067c14", "rental_uris": {"android": "https://dc.lft.to/lastmile_qr_scan", "ios": "https://dc.lft.to/lastmile_qr_scan"}, "is_disabled": 0, "fusion_lat": 0.0, "lat": 38.9654905, "is_reserved": 0}, {"lon": -77.03990266666666, "fusion_lon": 0.0, "bike_id": "4f8b57540895748d96265d5cc6236838", "type": "electric_scooter", "name": "4f8b57540895748d96265d5cc6236838", "rental_uris": {"android": "https://dc.lft.to/lastmile_qr_scan", "ios": "https://dc.lft.to/lastmile_qr_scan"}, "is_disabled": 0, "fusion_lat": 0.0, "lat": 38.90370033333333, "is_reserved": 0}, {"lon": -77.0231675, "fusion_lon": 0.0, "bike_id": "36eac6500d6c09c8193c1186ddb3907d", "type": "electric_scooter", "name": "36eac6500d6c09c8193c1186ddb3907d", "rental_uris": {"android": "https://dc.lft.to/lastmile_qr_scan", "ios": "https://dc.lft.to/lastmile_qr_scan"}, "is_disabled": 0, "fusion_lat": 0.0, "lat": 38.92939533333333, "is_reserved": 0}, {"lon": -77.1252675, "fusion_lon": 0.0, "bike_id": "00896c5441636acabc704069ce417dc5", "type": "electric_bike", "name": "00896c5441636acabc704069ce417dc5", "rental_uris": {"android": "https://dc.lft.to/lastmile_qr_scan", "ios": "https://dc.lft.to/lastmile_qr_scan"}, "is_disabled": 0, "fusion_lat": 0.0, "lat": 39.05637183333333, "is_reserved": 0}, {"lon": -77.012597, "fusion_lon": 0.0, "bike_id": "79e6c24f1a87807d3e171a3627d5a2da", "type": "electric_scooter", "name": "79e6c24f1a87807d3e171a3627d5a2da", "rental_uris": {"android": "https://dc.lft.to/lastmile_qr_scan", "ios": "https://dc.lft.to/lastmile_qr_scan"}, "is_disabled": 0, "fusion_lat": 0.0, "lat": 38.9180585, "is_reserved": 0}, {"lon": -77.06517333333333, "fusion_lon": 0.0, "bike_id": "b3dd738b4fcf70bec7a75d4eff25a69d", "type": "electric_scooter", "name": "b3dd738b4fcf70bec7a75d4eff25a69d", "rental_uris": {"android": "https://dc.lft.to/lastmile_qr_scan", "ios": "https://dc.lft.to/lastmile_qr_scan"}, "is_disabled": 0, "fusion_lat": 0.0, "lat": 38.90400233333333, "is_reserved": 0}, {"lon": -77.026, "fusion_lon": 0.0, "bike_id": "dc6ef2326ede6d041546360413e10bd0", "type": "electric_scooter", "name": "dc6ef2326ede6d041546360413e10bd0", "rental_uris": {"android": "https://dc.lft.to/lastmile_qr_scan", "ios": "https://dc.lft.to/lastmile_qr_scan"}, "is_disabled": 0, "fusion_lat": 0.0, "lat": 38.90678533333333, "is_reserved": 0}, {"lon": -76.94638983333333, "fusion_lon": 0.0, "bike_id": "0e7539a3b9c254ac7c87d3186b042a96", "type": "electric_scooter", "name": "0e7539a3b9c254ac7c87d3186b042a96", "rental_uris": {"android": "https://dc.lft.to/lastmile_qr_scan", "ios": "https://dc.lft.to/lastmile_qr_scan"}, "is_disabled": 0, "fusion_lat": 0.0, "lat": 38.898595666666665, "is_reserved": 0}, {"lon": -76.97162416666667, "fusion_lon": 0.0, "bike_id": "e26b7620389db502601edd8da5870a73", "type": "electric_scooter", "name": "e26b7620389db502601edd8da5870a73", "rental_uris": {"android": "https://dc.lft.to/lastmile_qr_scan", "ios": "https://dc.lft.to/lastmile_qr_scan"}, "is_disabled": 0, "fusion_lat": 0.0, "lat": 38.86131966666667, "is_reserved": 0}, {"lon": -77.0419645, "fusion_lon": 0.0, "bike_id": "c243aa72205b3fb6021405c305e3cf2a", "type": "electric_scooter", "name": "c243aa72205b3fb6021405c305e3cf2a", "rental_uris": {"android": "https://dc.lft.to/lastmile_qr_scan", "ios": "https://dc.lft.to/lastmile_qr_scan"}, "is_disabled": 0, "fusion_lat": 0.0, "lat": 38.920954333333334, "is_reserved": 0}, {"lon": -77.024138, "fusion_lon": 0.0, "bike_id": "b2fc728c766addd7b7818cb39c9004c0", "type": "electric_scooter", "name": "b2fc728c766addd7b7818cb39c9004c0", "rental_uris": {"android": "https://dc.lft.to/lastmile_qr_scan", "ios": "https://dc.lft.to/lastmile_qr_scan"}, "is_disabled": 0, "fusion_lat": 0.0, "lat": 38.915495, "is_reserved": 0}, {"lon": -77.05729033333333, "fusion_lon": 0.0, "bike_id": "a18806a31f152035615ad68a709b693d", "type": "electric_scooter", "name": "a18806a31f152035615ad68a709b693d", "rental_uris": {"android": "https://dc.lft.to/lastmile_qr_scan", "ios": "https://dc.lft.to/lastmile_qr_scan"}, "is_disabled": 0, "fusion_lat": 0.0, "lat": 38.933648833333336, "is_reserved": 0}, {"lon": -77.071663, "fusion_lon": 0.0, "bike_id": "c3cc6ca71e7ed6561a8df3ae6f7f1290", "type": "electric_scooter", "name": "c3cc6ca71e7ed6561a8df3ae6f7f1290", "rental_uris": {"android": "https://dc.lft.to/lastmile_qr_scan", "ios": "https://dc.lft.to/lastmile_qr_scan"}, "is_disabled": 0, "fusion_lat": 0.0, "lat": 38.93823916666667, "is_reserved": 0}, {"lon": -77.04623983333333, "fusion_lon": 0.0, "bike_id": "ebd476bd7c2c19d24c92338bdf16281d", "type": "electric_scooter", "name": "ebd476bd7c2c19d24c92338bdf16281d", "rental_uris": {"android": "https://dc.lft.to/lastmile_qr_scan", "ios": "https://dc.lft.to/lastmile_qr_scan"}, "is_disabled": 0, "fusion_lat": 0.0, "lat": 38.902028666666666, "is_reserved": 0}, {"lon": -77.0245535, "fusion_lon": 0.0, "bike_id": "eaf3d57057102992ba910a9a5202ab1b", "type": "electric_scooter", "name": "eaf3d57057102992ba910a9a5202ab1b", "rental_uris": {"android": "https://dc.lft.to/lastmile_qr_scan", "ios": "https://dc.lft.to/lastmile_qr_scan"}, "is_disabled": 0, "fusion_lat": 0.0, "lat": 38.9086405, "is_reserved": 0}, {"lon": -77.06054316666666, "fusion_lon": 0.0, "bike_id": "f924ea0bcfd34d962ffcf743256ecd88", "type": "electric_scooter", "name": "f924ea0bcfd34d962ffcf743256ecd88", "rental_uris": {"android": "https://dc.lft.to/lastmile_qr_scan", "ios": "https://dc.lft.to/lastmile_qr_scan"}, "is_disabled": 0, "fusion_lat": 0.0, "lat": 38.943278166666666, "is_reserved": 0}, {"lon": -76.99004566666666, "fusion_lon": 0.0, "bike_id": "463e48d01727e2b10a57b789a5d63bff", "type": "electric_scooter", "name": "463e48d01727e2b10a57b789a5d63bff", "rental_uris": {"android": "https://dc.lft.to/lastmile_qr_scan", "ios": "https://dc.lft.to/lastmile_qr_scan"}, "is_disabled": 0, "fusion_lat": 0.0, "lat": 38.903927833333334, "is_reserved": 0}, {"lon": -77.05391616666667, "fusion_lon": 0.0, "bike_id": "ad6475502ed18208942a1b8e37783b04", "type": "electric_bike", "name": "ad6475502ed18208942a1b8e37783b04", "rental_uris": {"android": "https://dc.lft.to/lastmile_qr_scan", "ios": "https://dc.lft.to/lastmile_qr_scan"}, "is_disabled": 0, "fusion_lat": 0.0, "lat": 38.80448466666667, "is_reserved": 0}, {"lon": -77.02408983333333, "fusion_lon": 0.0, "bike_id": "c6656524e08a8ed4ca1979afb97c3aee", "type": "electric_scooter", "name": "c6656524e08a8ed4ca1979afb97c3aee", "rental_uris": {"android": "https://dc.lft.to/lastmile_qr_scan", "ios": "https://dc.lft.to/lastmile_qr_scan"}, "is_disabled": 0, "fusion_lat": 0.0, "lat": 38.914191333333335, "is_reserved": 0}, {"lon": -77.0408725, "fusion_lon": 0.0, "bike_id": "ae1fbb221035439c7e37c7274c25cfec", "type": "electric_scooter", "name": "ae1fbb221035439c7e37c7274c25cfec", "rental_uris": {"android": "https://dc.lft.to/lastmile_qr_scan", "ios": "https://dc.lft.to/lastmile_qr_scan"}, "is_disabled": 0, "fusion_lat": 0.0, "lat": 38.9110515, "is_reserved": 0}, {"lon": -77.05197, "fusion_lon": 0.0, "bike_id": "72e9706ca1f51ece61bda00b1f3b92e9", "type": "electric_scooter", "name": "72e9706ca1f51ece61bda00b1f3b92e9", "rental_uris": {"android": "https://dc.lft.to/lastmile_qr_scan", "ios": "https://dc.lft.to/lastmile_qr_scan"}, "is_disabled": 0, "fusion_lat": 0.0, "lat": 38.90306916666667, "is_reserved": 0}, {"lon": -77.00037316666666, "fusion_lon": 0.0, "bike_id": "561e21f7f4a6a065b4cbee97905c5136", "type": "electric_scooter", "name": "561e21f7f4a6a065b4cbee97905c5136", "rental_uris": {"android": "https://dc.lft.to/lastmile_qr_scan", "ios": "https://dc.lft.to/lastmile_qr_scan"}, "is_disabled": 0, "fusion_lat": 0.0, "lat": 38.8941675, "is_reserved": 0}, {"lon": -77.01750433333333, "fusion_lon": 0.0, "bike_id": "b0462a4ec20425592858b4d0d306582e", "type": "electric_scooter", "name": "b0462a4ec20425592858b4d0d306582e", "rental_uris": {"android": "https://dc.lft.to/lastmile_qr_scan", "ios": "https://dc.lft.to/lastmile_qr_scan"}, "is_disabled": 0, "fusion_lat": 0.0, "lat": 38.87791816666667, "is_reserved": 0}, {"lon": -76.98095516666666, "fusion_lon": 0.0, "bike_id": "b4807e48784f87672ade9206e36c0fc2", "type": "electric_scooter", "name": "b4807e48784f87672ade9206e36c0fc2", "rental_uris": {"android": "https://dc.lft.to/lastmile_qr_scan", "ios": "https://dc.lft.to/lastmile_qr_scan"}, "is_disabled": 0, "fusion_lat": 0.0, "lat": 38.899378166666665, "is_reserved": 0}, {"lon": -77.0521755, "fusion_lon": 0.0, "bike_id": "3761bf70b9a3d7f0b609cffd336f5abc", "type": "electric_scooter", "name": "3761bf70b9a3d7f0b609cffd336f5abc", "rental_uris": {"android": "https://dc.lft.to/lastmile_qr_scan", "ios": "https://dc.lft.to/lastmile_qr_scan"}, "is_disabled": 0, "fusion_lat": 0.0, "lat": 38.92481316666667, "is_reserved": 0}, {"lon": -77.03267216666667, "fusion_lon": 0.0, "bike_id": "5b254db5b4786e9657740c082048c354", "type": "electric_scooter", "name": "5b254db5b4786e9657740c082048c354", "rental_uris": {"android": "https://dc.lft.to/lastmile_qr_scan", "ios": "https://dc.lft.to/lastmile_qr_scan"}, "is_disabled": 0, "fusion_lat": 0.0, "lat": 38.8989565, "is_reserved": 0}, {"lon": -77.04784483333333, "fusion_lon": 0.0, "bike_id": "faf84f728a3e1c72e9086c8798d2ce01", "type": "electric_scooter", "name": "faf84f728a3e1c72e9086c8798d2ce01", "rental_uris": {"android": "https://dc.lft.to/lastmile_qr_scan", "ios": "https://dc.lft.to/lastmile_qr_scan"}, "is_disabled": 0, "fusion_lat": 0.0, "lat": 38.89733866666667, "is_reserved": 0}, {"lon": -76.99793583333333, "fusion_lon": 0.0, "bike_id": "2a1754e8ed6023ed2fa5ae31e0a5beb6", "type": "electric_scooter", "name": "2a1754e8ed6023ed2fa5ae31e0a5beb6", "rental_uris": {"android": "https://dc.lft.to/lastmile_qr_scan", "ios": "https://dc.lft.to/lastmile_qr_scan"}, "is_disabled": 0, "fusion_lat": 0.0, "lat": 38.90872483333333, "is_reserved": 0}, {"lon": -77.02751966666666, "fusion_lon": 0.0, "bike_id": "78b344acec948c2e5505c7a34a95ee9c", "type": "electric_scooter", "name": "78b344acec948c2e5505c7a34a95ee9c", "rental_uris": {"android": "https://dc.lft.to/lastmile_qr_scan", "ios": "https://dc.lft.to/lastmile_qr_scan"}, "is_disabled": 0, "fusion_lat": 0.0, "lat": 38.90250416666667, "is_reserved": 0}, {"lon": -76.98898516666667, "fusion_lon": 0.0, "bike_id": "868c4318ecf4ddd329cf32330d1cd6be", "type": "electric_scooter", "name": "868c4318ecf4ddd329cf32330d1cd6be", "rental_uris": {"android": "https://dc.lft.to/lastmile_qr_scan", "ios": "https://dc.lft.to/lastmile_qr_scan"}, "is_disabled": 0, "fusion_lat": 0.0, "lat": 38.866595, "is_reserved": 0}, {"lon": -77.03444216666666, "fusion_lon": 0.0, "bike_id": "0a547a4a2a3f3d62d02575d3fddca342", "type": "electric_scooter", "name": "0a547a4a2a3f3d62d02575d3fddca342", "rental_uris": {"android": "https://dc.lft.to/lastmile_qr_scan", "ios": "https://dc.lft.to/lastmile_qr_scan"}, "is_disabled": 0, "fusion_lat": 0.0, "lat": 38.907007666666665, "is_reserved": 0}, {"lon": -77.04144066666667, "fusion_lon": 0.0, "bike_id": "625744c64517312482895a9110c7c421", "type": "electric_scooter", "name": "625744c64517312482895a9110c7c421", "rental_uris": {"android": "https://dc.lft.to/lastmile_qr_scan", "ios": "https://dc.lft.to/lastmile_qr_scan"}, "is_disabled": 0, "fusion_lat": 0.0, "lat": 38.91894683333334, "is_reserved": 0}, {"lon": -77.029594, "fusion_lon": 0.0, "bike_id": "aadbae4e003fe62303af143c04181392", "type": "electric_scooter", "name": "aadbae4e003fe62303af143c04181392", "rental_uris": {"android": "https://dc.lft.to/lastmile_qr_scan", "ios": "https://dc.lft.to/lastmile_qr_scan"}, "is_disabled": 0, "fusion_lat": 0.0, "lat": 38.916624166666665, "is_reserved": 0}, {"lon": -77.02186733333333, "fusion_lon": 0.0, "bike_id": "444264d4ea8c75b89b42e31e82c8ece4", "type": "electric_scooter", "name": "444264d4ea8c75b89b42e31e82c8ece4", "rental_uris": {"android": "https://dc.lft.to/lastmile_qr_scan", "ios": "https://dc.lft.to/lastmile_qr_scan"}, "is_disabled": 0, "fusion_lat": 0.0, "lat": 38.91205, "is_reserved": 0}, {"lon": -77.03054483333334, "fusion_lon": 0.0, "bike_id": "78bfe430983060e4146c1799f26f90eb", "type": "electric_scooter", "name": "78bfe430983060e4146c1799f26f90eb", "rental_uris": {"android": "https://dc.lft.to/lastmile_qr_scan", "ios": "https://dc.lft.to/lastmile_qr_scan"}, "is_disabled": 0, "fusion_lat": 0.0, "lat": 38.904992166666666, "is_reserved": 0}, {"lon": -77.03848366666666, "fusion_lon": 0.0, "bike_id": "d0db3aebc61353a31b9b71f4af4531ca", "type": "electric_scooter", "name": "d0db3aebc61353a31b9b71f4af4531ca", "rental_uris": {"android": "https://dc.lft.to/lastmile_qr_scan", "ios": "https://dc.lft.to/lastmile_qr_scan"}, "is_disabled": 0, "fusion_lat": 0.0, "lat": 38.9154515, "is_reserved": 0}, {"lon": -77.061875, "fusion_lon": 0.0, "bike_id": "bc08caabf17a8e32d18e3a5dc041716b", "type": "electric_scooter", "name": "bc08caabf17a8e32d18e3a5dc041716b", "rental_uris": {"android": "https://dc.lft.to/lastmile_qr_scan", "ios": "https://dc.lft.to/lastmile_qr_scan"}, "is_disabled": 0, "fusion_lat": 0.0, "lat": 38.9033695, "is_reserved": 0}, {"lon": -77.0385325, "fusion_lon": 0.0, "bike_id": "c3d269f06279d9a2331f9a692abb4346", "type": "electric_scooter", "name": "c3d269f06279d9a2331f9a692abb4346", "rental_uris": {"android": "https://dc.lft.to/lastmile_qr_scan", "ios": "https://dc.lft.to/lastmile_qr_scan"}, "is_disabled": 0, "fusion_lat": 0.0, "lat": 38.910152833333335, "is_reserved": 0}, {"lon": -77.0584315, "fusion_lon": 0.0, "bike_id": "7e5cf3949e5067829984123b1d5379f8", "type": "electric_scooter", "name": "7e5cf3949e5067829984123b1d5379f8", "rental_uris": {"android": "https://dc.lft.to/lastmile_qr_scan", "ios": "https://dc.lft.to/lastmile_qr_scan"}, "is_disabled": 0, "fusion_lat": 0.0, "lat": 38.93050066666667, "is_reserved": 0}, {"lon": -77.02771466666667, "fusion_lon": 0.0, "bike_id": "d349cd4c0b12fd56fdf2b9dfe3609dac", "type": "electric_scooter", "name": "d349cd4c0b12fd56fdf2b9dfe3609dac", "rental_uris": {"android": "https://dc.lft.to/lastmile_qr_scan", "ios": "https://dc.lft.to/lastmile_qr_scan"}, "is_disabled": 0, "fusion_lat": 0.0, "lat": 38.89474966666667, "is_reserved": 0}, {"lon": -77.0208995, "fusion_lon": 0.0, "bike_id": "71575ad8a920b3f9a677d1e94ab53887", "type": "electric_scooter", "name": "71575ad8a920b3f9a677d1e94ab53887", "rental_uris": {"android": "https://dc.lft.to/lastmile_qr_scan", "ios": "https://dc.lft.to/lastmile_qr_scan"}, "is_disabled": 0, "fusion_lat": 0.0, "lat": 38.884991166666666, "is_reserved": 0}, {"lon": -76.9541625, "fusion_lon": 0.0, "bike_id": "5b5661231d285aeff32b3283e6c12ac9", "type": "electric_bike", "name": "5b5661231d285aeff32b3283e6c12ac9", "rental_uris": {"android": "https://dc.lft.to/lastmile_qr_scan", "ios": "https://dc.lft.to/lastmile_qr_scan"}, "is_disabled": 0, "fusion_lat": 0.0, "lat": 38.884084, "is_reserved": 0}, {"lon": -77.00876833333334, "fusion_lon": 0.0, "bike_id": "7faf23a72c32b1a4d3d9eb41fb83e4ad", "type": "electric_scooter", "name": "7faf23a72c32b1a4d3d9eb41fb83e4ad", "rental_uris": {"android": "https://dc.lft.to/lastmile_qr_scan", "ios": "https://dc.lft.to/lastmile_qr_scan"}, "is_disabled": 0, "fusion_lat": 0.0, "lat": 38.879471833333334, "is_reserved": 0}, {"lon": -77.02392833333333, "fusion_lon": 0.0, "bike_id": "a268cdee46f02915419bfba60682254a", "type": "electric_bike", "name": "a268cdee46f02915419bfba60682254a", "rental_uris": {"android": "https://dc.lft.to/lastmile_qr_scan", "ios": "https://dc.lft.to/lastmile_qr_scan"}, "is_disabled": 0, "fusion_lat": 0.0, "lat": 38.957112333333335, "is_reserved": 0}, {"lon": -77.03399716666667, "fusion_lon": 0.0, "bike_id": "0f39de26e773d3737608dd174f5c7c14", "type": "electric_scooter", "name": "0f39de26e773d3737608dd174f5c7c14", "rental_uris": {"android": "https://dc.lft.to/lastmile_qr_scan", "ios": "https://dc.lft.to/lastmile_qr_scan"}, "is_disabled": 0, "fusion_lat": 0.0, "lat": 38.91254416666666, "is_reserved": 0}, {"lon": -77.02296866666667, "fusion_lon": 0.0, "bike_id": "624922aa83db152c53411188e6cb4a79", "type": "electric_scooter", "name": "624922aa83db152c53411188e6cb4a79", "rental_uris": {"android": "https://dc.lft.to/lastmile_qr_scan", "ios": "https://dc.lft.to/lastmile_qr_scan"}, "is_disabled": 0, "fusion_lat": 0.0, "lat": 38.908412166666665, "is_reserved": 0}, {"lon": -77.00216266666666, "fusion_lon": 0.0, "bike_id": "dcbe1ccc225688b8969027961da940fa", "type": "electric_scooter", "name": "dcbe1ccc225688b8969027961da940fa", "rental_uris": {"android": "https://dc.lft.to/lastmile_qr_scan", "ios": "https://dc.lft.to/lastmile_qr_scan"}, "is_disabled": 0, "fusion_lat": 0.0, "lat": 38.914128833333336, "is_reserved": 0}, {"lon": -77.041895, "fusion_lon": 0.0, "bike_id": "7dbb400c192f05ae0220eea299cdb2b6", "type": "electric_scooter", "name": "7dbb400c192f05ae0220eea299cdb2b6", "rental_uris": {"android": "https://dc.lft.to/lastmile_qr_scan", "ios": "https://dc.lft.to/lastmile_qr_scan"}, "is_disabled": 0, "fusion_lat": 0.0, "lat": 38.9210185, "is_reserved": 0}, {"lon": -77.0323975, "fusion_lon": 0.0, "bike_id": "67fefb02b3ed24aea9c5fcee53fb0de7", "type": "electric_scooter", "name": "67fefb02b3ed24aea9c5fcee53fb0de7", "rental_uris": {"android": "https://dc.lft.to/lastmile_qr_scan", "ios": "https://dc.lft.to/lastmile_qr_scan"}, "is_disabled": 0, "fusion_lat": 0.0, "lat": 38.92743266666667, "is_reserved": 0}, {"lon": -77.03514166666666, "fusion_lon": 0.0, "bike_id": "d0f1d72aaf158dafc75ccd8677b1547e", "type": "electric_scooter", "name": "d0f1d72aaf158dafc75ccd8677b1547e", "rental_uris": {"android": "https://dc.lft.to/lastmile_qr_scan", "ios": "https://dc.lft.to/lastmile_qr_scan"}, "is_disabled": 0, "fusion_lat": 0.0, "lat": 38.921693166666664, "is_reserved": 0}, {"lon": -77.03032933333333, "fusion_lon": 0.0, "bike_id": "8881b71093ff9384f55e78c7e4de3299", "type": "electric_scooter", "name": "8881b71093ff9384f55e78c7e4de3299", "rental_uris": {"android": "https://dc.lft.to/lastmile_qr_scan", "ios": "https://dc.lft.to/lastmile_qr_scan"}, "is_disabled": 0, "fusion_lat": 0.0, "lat": 38.91703716666667, "is_reserved": 0}, {"lon": -76.92047933333333, "fusion_lon": 0.0, "bike_id": "01e432512d26dda37e0040e6b6621f83", "type": "electric_bike", "name": "01e432512d26dda37e0040e6b6621f83", "rental_uris": {"android": "https://dc.lft.to/lastmile_qr_scan", "ios": "https://dc.lft.to/lastmile_qr_scan"}, "is_disabled": 0, "fusion_lat": 0.0, "lat": 38.8973335, "is_reserved": 0}, {"lon": -77.02773833333333, "fusion_lon": 0.0, "bike_id": "dfe9afd64036e505750a81c3d0f43e0f", "type": "electric_scooter", "name": "dfe9afd64036e505750a81c3d0f43e0f", "rental_uris": {"android": "https://dc.lft.to/lastmile_qr_scan", "ios": "https://dc.lft.to/lastmile_qr_scan"}, "is_disabled": 0, "fusion_lat": 0.0, "lat": 38.896388, "is_reserved": 0}, {"lon": -77.03471716666667, "fusion_lon": 0.0, "bike_id": "fb18803a9948a5aa0f4021439595254c", "type": "electric_scooter", "name": "fb18803a9948a5aa0f4021439595254c", "rental_uris": {"android": "https://dc.lft.to/lastmile_qr_scan", "ios": "https://dc.lft.to/lastmile_qr_scan"}, "is_disabled": 0, "fusion_lat": 0.0, "lat": 38.9170495, "is_reserved": 0}, {"lon": -77.0261775, "fusion_lon": 0.0, "bike_id": "8da83dbd7b1848a7460b77c68da427ce", "type": "electric_scooter", "name": "8da83dbd7b1848a7460b77c68da427ce", "rental_uris": {"android": "https://dc.lft.to/lastmile_qr_scan", "ios": "https://dc.lft.to/lastmile_qr_scan"}, "is_disabled": 0, "fusion_lat": 0.0, "lat": 38.951842166666665, "is_reserved": 0}, {"lon": -77.03671066666666, "fusion_lon": 0.0, "bike_id": "708b3d3663496451d9d20f908f445783", "type": "electric_scooter", "name": "708b3d3663496451d9d20f908f445783", "rental_uris": {"android": "https://dc.lft.to/lastmile_qr_scan", "ios": "https://dc.lft.to/lastmile_qr_scan"}, "is_disabled": 0, "fusion_lat": 0.0, "lat": 38.92261333333333, "is_reserved": 0}, {"lon": -77.0343735, "fusion_lon": 0.0, "bike_id": "a837989b4c576a536e1d622daa203c9d", "type": "electric_scooter", "name": "a837989b4c576a536e1d622daa203c9d", "rental_uris": {"android": "https://dc.lft.to/lastmile_qr_scan", "ios": "https://dc.lft.to/lastmile_qr_scan"}, "is_disabled": 0, "fusion_lat": 0.0, "lat": 38.91806666666667, "is_reserved": 0}, {"lon": -77.00560533333334, "fusion_lon": 0.0, "bike_id": "6e3f914f5736ca3fbc256e0a4f2a00f7", "type": "electric_scooter", "name": "6e3f914f5736ca3fbc256e0a4f2a00f7", "rental_uris": {"android": "https://dc.lft.to/lastmile_qr_scan", "ios": "https://dc.lft.to/lastmile_qr_scan"}, "is_disabled": 0, "fusion_lat": 0.0, "lat": 38.87467783333334, "is_reserved": 0}, {"lon": -77.01216666666667, "fusion_lon": 0.0, "bike_id": "f4b0a3f76db009eba7477299ad1559f1", "type": "electric_scooter", "name": "f4b0a3f76db009eba7477299ad1559f1", "rental_uris": {"android": "https://dc.lft.to/lastmile_qr_scan", "ios": "https://dc.lft.to/lastmile_qr_scan"}, "is_disabled": 0, "fusion_lat": 0.0, "lat": 38.91435366666666, "is_reserved": 0}, {"lon": -77.03282233333333, "fusion_lon": 0.0, "bike_id": "8cac34db3c92becce79164cc4b357867", "type": "electric_scooter", "name": "8cac34db3c92becce79164cc4b357867", "rental_uris": {"android": "https://dc.lft.to/lastmile_qr_scan", "ios": "https://dc.lft.to/lastmile_qr_scan"}, "is_disabled": 0, "fusion_lat": 0.0, "lat": 38.91981066666666, "is_reserved": 0}, {"lon": -77.02446383333333, "fusion_lon": 0.0, "bike_id": "1d97c8883e41900cc5c2837fe24ccf1e", "type": "electric_scooter", "name": "1d97c8883e41900cc5c2837fe24ccf1e", "rental_uris": {"android": "https://dc.lft.to/lastmile_qr_scan", "ios": "https://dc.lft.to/lastmile_qr_scan"}, "is_disabled": 0, "fusion_lat": 0.0, "lat": 38.949483666666666, "is_reserved": 0}, {"lon": -77.03145916666666, "fusion_lon": 0.0, "bike_id": "48925dcc93d7deb57c345dd6f211b8b1", "type": "electric_scooter", "name": "48925dcc93d7deb57c345dd6f211b8b1", "rental_uris": {"android": "https://dc.lft.to/lastmile_qr_scan", "ios": "https://dc.lft.to/lastmile_qr_scan"}, "is_disabled": 0, "fusion_lat": 0.0, "lat": 38.911184666666664, "is_reserved": 0}, {"lon": -76.99974716666667, "fusion_lon": 0.0, "bike_id": "782c9c09265278e474a819619a322913", "type": "electric_scooter", "name": "782c9c09265278e474a819619a322913", "rental_uris": {"android": "https://dc.lft.to/lastmile_qr_scan", "ios": "https://dc.lft.to/lastmile_qr_scan"}, "is_disabled": 0, "fusion_lat": 0.0, "lat": 38.8791995, "is_reserved": 0}, {"lon": -76.99862816666666, "fusion_lon": 0.0, "bike_id": "d7900e8bbe75e2cbcbb8fa334533958a", "type": "electric_scooter", "name": "d7900e8bbe75e2cbcbb8fa334533958a", "rental_uris": {"android": "https://dc.lft.to/lastmile_qr_scan", "ios": "https://dc.lft.to/lastmile_qr_scan"}, "is_disabled": 0, "fusion_lat": 0.0, "lat": 38.908914, "is_reserved": 0}, {"lon": -77.04228633333334, "fusion_lon": 0.0, "bike_id": "c80ee7653f55d543df757522e319fd75", "type": "electric_scooter", "name": "c80ee7653f55d543df757522e319fd75", "rental_uris": {"android": "https://dc.lft.to/lastmile_qr_scan", "ios": "https://dc.lft.to/lastmile_qr_scan"}, "is_disabled": 0, "fusion_lat": 0.0, "lat": 38.92052016666667, "is_reserved": 0}, {"lon": -77.00671316666667, "fusion_lon": 0.0, "bike_id": "1b15fb23a0acc14cfefc25acdb66776e", "type": "electric_bike", "name": "1b15fb23a0acc14cfefc25acdb66776e", "rental_uris": {"android": "https://dc.lft.to/lastmile_qr_scan", "ios": "https://dc.lft.to/lastmile_qr_scan"}, "is_disabled": 0, "fusion_lat": 0.0, "lat": 38.94509866666667, "is_reserved": 0}, {"lon": -77.0287, "fusion_lon": 0.0, "bike_id": "526ed22f26a36d5b06d13a58522d283a", "type": "electric_scooter", "name": "526ed22f26a36d5b06d13a58522d283a", "rental_uris": {"android": "https://dc.lft.to/lastmile_qr_scan", "ios": "https://dc.lft.to/lastmile_qr_scan"}, "is_disabled": 0, "fusion_lat": 0.0, "lat": 38.91546816666666, "is_reserved": 0}, {"lon": -77.01415783333333, "fusion_lon": 0.0, "bike_id": "a706eafe5612fc64fb38d083128f92ab", "type": "electric_scooter", "name": "a706eafe5612fc64fb38d083128f92ab", "rental_uris": {"android": "https://dc.lft.to/lastmile_qr_scan", "ios": "https://dc.lft.to/lastmile_qr_scan"}, "is_disabled": 0, "fusion_lat": 0.0, "lat": 38.89221933333334, "is_reserved": 0}, {"lon": -77.06394933333333, "fusion_lon": 0.0, "bike_id": "dfc814f28850a5ba59104818cf4ddb7a", "type": "electric_scooter", "name": "dfc814f28850a5ba59104818cf4ddb7a", "rental_uris": {"android": "https://dc.lft.to/lastmile_qr_scan", "ios": "https://dc.lft.to/lastmile_qr_scan"}, "is_disabled": 0, "fusion_lat": 0.0, "lat": 38.94421466666667, "is_reserved": 0}, {"lon": -77.02806166666667, "fusion_lon": 0.0, "bike_id": "a33d99fd9633a6412cac46595fa4f1ed", "type": "electric_scooter", "name": "a33d99fd9633a6412cac46595fa4f1ed", "rental_uris": {"android": "https://dc.lft.to/lastmile_qr_scan", "ios": "https://dc.lft.to/lastmile_qr_scan"}, "is_disabled": 0, "fusion_lat": 0.0, "lat": 38.9089195, "is_reserved": 0}, {"lon": -77.0722955, "fusion_lon": 0.0, "bike_id": "cb85743cb0a81477d51e98120918442f", "type": "electric_scooter", "name": "cb85743cb0a81477d51e98120918442f", "rental_uris": {"android": "https://dc.lft.to/lastmile_qr_scan", "ios": "https://dc.lft.to/lastmile_qr_scan"}, "is_disabled": 0, "fusion_lat": 0.0, "lat": 38.93192366666667, "is_reserved": 0}, {"lon": -77.061315, "fusion_lon": 0.0, "bike_id": "8759f8f212f2792ee012c86173128ec0", "type": "electric_scooter", "name": "8759f8f212f2792ee012c86173128ec0", "rental_uris": {"android": "https://dc.lft.to/lastmile_qr_scan", "ios": "https://dc.lft.to/lastmile_qr_scan"}, "is_disabled": 0, "fusion_lat": 0.0, "lat": 38.943576166666666, "is_reserved": 0}, {"lon": -77.02238033333333, "fusion_lon": 0.0, "bike_id": "e29f90420ab14cc47a2ab9b7a6ec9858", "type": "electric_scooter", "name": "e29f90420ab14cc47a2ab9b7a6ec9858", "rental_uris": {"android": "https://dc.lft.to/lastmile_qr_scan", "ios": "https://dc.lft.to/lastmile_qr_scan"}, "is_disabled": 0, "fusion_lat": 0.0, "lat": 38.922227666666664, "is_reserved": 0}, {"lon": -76.9754825, "fusion_lon": 0.0, "bike_id": "be67c0d7869d29a0f0a9f55f38eb314c", "type": "electric_scooter", "name": "be67c0d7869d29a0f0a9f55f38eb314c", "rental_uris": {"android": "https://dc.lft.to/lastmile_qr_scan", "ios": "https://dc.lft.to/lastmile_qr_scan"}, "is_disabled": 0, "fusion_lat": 0.0, "lat": 38.90321266666667, "is_reserved": 0}, {"lon": -76.98763033333333, "fusion_lon": 0.0, "bike_id": "d925ecddc02031f3fab07bf1202fa182", "type": "electric_scooter", "name": "d925ecddc02031f3fab07bf1202fa182", "rental_uris": {"android": "https://dc.lft.to/lastmile_qr_scan", "ios": "https://dc.lft.to/lastmile_qr_scan"}, "is_disabled": 0, "fusion_lat": 0.0, "lat": 38.900269, "is_reserved": 0}, {"lon": -77.03058966666667, "fusion_lon": 0.0, "bike_id": "1f37acbc1f288d1b6f567be8c73d5f8e", "type": "electric_scooter", "name": "1f37acbc1f288d1b6f567be8c73d5f8e", "rental_uris": {"android": "https://dc.lft.to/lastmile_qr_scan", "ios": "https://dc.lft.to/lastmile_qr_scan"}, "is_disabled": 0, "fusion_lat": 0.0, "lat": 38.916808833333334, "is_reserved": 0}, {"lon": -76.98566833333334, "fusion_lon": 0.0, "bike_id": "e3c48bf069c196a95a17374df1ba54c9", "type": "electric_scooter", "name": "e3c48bf069c196a95a17374df1ba54c9", "rental_uris": {"android": "https://dc.lft.to/lastmile_qr_scan", "ios": "https://dc.lft.to/lastmile_qr_scan"}, "is_disabled": 0, "fusion_lat": 0.0, "lat": 38.866816666666665, "is_reserved": 0}, {"lon": -76.986294, "fusion_lon": 0.0, "bike_id": "e569da6420e7c6f7b3518ce7f81d1050", "type": "electric_scooter", "name": "e569da6420e7c6f7b3518ce7f81d1050", "rental_uris": {"android": "https://dc.lft.to/lastmile_qr_scan", "ios": "https://dc.lft.to/lastmile_qr_scan"}, "is_disabled": 0, "fusion_lat": 0.0, "lat": 38.8827395, "is_reserved": 0}, {"lon": -76.98597933333333, "fusion_lon": 0.0, "bike_id": "3bc55992dcc1c344fa845bb104e5b3a7", "type": "electric_scooter", "name": "3bc55992dcc1c344fa845bb104e5b3a7", "rental_uris": {"android": "https://dc.lft.to/lastmile_qr_scan", "ios": "https://dc.lft.to/lastmile_qr_scan"}, "is_disabled": 0, "fusion_lat": 0.0, "lat": 38.900138, "is_reserved": 0}, {"lon": -77.02083633333334, "fusion_lon": 0.0, "bike_id": "b266b1973573f95e26bbab8f13b40d64", "type": "electric_scooter", "name": "b266b1973573f95e26bbab8f13b40d64", "rental_uris": {"android": "https://dc.lft.to/lastmile_qr_scan", "ios": "https://dc.lft.to/lastmile_qr_scan"}, "is_disabled": 0, "fusion_lat": 0.0, "lat": 38.88183033333333, "is_reserved": 0}, {"lon": -76.94638216666667, "fusion_lon": 0.0, "bike_id": "e773a290a390cb543499fea7559db4e3", "type": "electric_scooter", "name": "e773a290a390cb543499fea7559db4e3", "rental_uris": {"android": "https://dc.lft.to/lastmile_qr_scan", "ios": "https://dc.lft.to/lastmile_qr_scan"}, "is_disabled": 0, "fusion_lat": 0.0, "lat": 38.8985985, "is_reserved": 0}, {"lon": -77.04012533333334, "fusion_lon": 0.0, "bike_id": "2b6545fd56ee7e8ccad2b5a111505b60", "type": "electric_scooter", "name": "2b6545fd56ee7e8ccad2b5a111505b60", "rental_uris": {"android": "https://dc.lft.to/lastmile_qr_scan", "ios": "https://dc.lft.to/lastmile_qr_scan"}, "is_disabled": 0, "fusion_lat": 0.0, "lat": 38.92167716666667, "is_reserved": 0}, {"lon": -77.0383895, "fusion_lon": 0.0, "bike_id": "4ca819de7c705e09cede115d5a3da911", "type": "electric_scooter", "name": "4ca819de7c705e09cede115d5a3da911", "rental_uris": {"android": "https://dc.lft.to/lastmile_qr_scan", "ios": "https://dc.lft.to/lastmile_qr_scan"}, "is_disabled": 0, "fusion_lat": 0.0, "lat": 38.903081666666665, "is_reserved": 0}, {"lon": -77.05427916666666, "fusion_lon": 0.0, "bike_id": "f9eb3a3cd00beab65532f6e5f6e7128a", "type": "electric_bike", "name": "f9eb3a3cd00beab65532f6e5f6e7128a", "rental_uris": {"android": "https://dc.lft.to/lastmile_qr_scan", "ios": "https://dc.lft.to/lastmile_qr_scan"}, "is_disabled": 0, "fusion_lat": 0.0, "lat": 38.935325666666664, "is_reserved": 0}, {"lon": -77.02959666666666, "fusion_lon": 0.0, "bike_id": "407b18b8e2fef2f50789f9dc76db572e", "type": "electric_scooter", "name": "407b18b8e2fef2f50789f9dc76db572e", "rental_uris": {"android": "https://dc.lft.to/lastmile_qr_scan", "ios": "https://dc.lft.to/lastmile_qr_scan"}, "is_disabled": 0, "fusion_lat": 0.0, "lat": 38.905045666666666, "is_reserved": 0}, {"lon": -76.9652555, "fusion_lon": 0.0, "bike_id": "73ee3413267bb895aed5fad42c8f12f1", "type": "electric_scooter", "name": "73ee3413267bb895aed5fad42c8f12f1", "rental_uris": {"android": "https://dc.lft.to/lastmile_qr_scan", "ios": "https://dc.lft.to/lastmile_qr_scan"}, "is_disabled": 0, "fusion_lat": 0.0, "lat": 38.8762775, "is_reserved": 0}, {"lon": -77.04761266666667, "fusion_lon": 0.0, "bike_id": "eb8c4b828fd920cccd651036d27e863c", "type": "electric_scooter", "name": "eb8c4b828fd920cccd651036d27e863c", "rental_uris": {"android": "https://dc.lft.to/lastmile_qr_scan", "ios": "https://dc.lft.to/lastmile_qr_scan"}, "is_disabled": 0, "fusion_lat": 0.0, "lat": 38.917497, "is_reserved": 0}, {"lon": -77.014147, "fusion_lon": 0.0, "bike_id": "87114f879ab1053674e5871f29d9aee3", "type": "electric_scooter", "name": "87114f879ab1053674e5871f29d9aee3", "rental_uris": {"android": "https://dc.lft.to/lastmile_qr_scan", "ios": "https://dc.lft.to/lastmile_qr_scan"}, "is_disabled": 0, "fusion_lat": 0.0, "lat": 38.928204666666666, "is_reserved": 0}, {"lon": -77.02424283333333, "fusion_lon": 0.0, "bike_id": "f59b9c6c459c10481a9724820573c01b", "type": "electric_scooter", "name": "f59b9c6c459c10481a9724820573c01b", "rental_uris": {"android": "https://dc.lft.to/lastmile_qr_scan", "ios": "https://dc.lft.to/lastmile_qr_scan"}, "is_disabled": 0, "fusion_lat": 0.0, "lat": 38.879464666666664, "is_reserved": 0}, {"lon": -77.03708066666667, "fusion_lon": 0.0, "bike_id": "a22c8376952337178862347f2cc09c71", "type": "electric_scooter", "name": "a22c8376952337178862347f2cc09c71", "rental_uris": {"android": "https://dc.lft.to/lastmile_qr_scan", "ios": "https://dc.lft.to/lastmile_qr_scan"}, "is_disabled": 0, "fusion_lat": 0.0, "lat": 38.927983, "is_reserved": 0}, {"lon": -77.01104283333333, "fusion_lon": 0.0, "bike_id": "bee36bea3d36c1a3ccf8b2565a71aea1", "type": "electric_bike", "name": "bee36bea3d36c1a3ccf8b2565a71aea1", "rental_uris": {"android": "https://dc.lft.to/lastmile_qr_scan", "ios": "https://dc.lft.to/lastmile_qr_scan"}, "is_disabled": 0, "fusion_lat": 0.0, "lat": 38.87301433333333, "is_reserved": 0}, {"lon": -77.027155, "fusion_lon": 0.0, "bike_id": "c984e4685d24b589299a8c5f9b33e6c2", "type": "electric_scooter", "name": "c984e4685d24b589299a8c5f9b33e6c2", "rental_uris": {"android": "https://dc.lft.to/lastmile_qr_scan", "ios": "https://dc.lft.to/lastmile_qr_scan"}, "is_disabled": 0, "fusion_lat": 0.0, "lat": 38.907841833333336, "is_reserved": 0}, {"lon": -77.04040366666666, "fusion_lon": 0.0, "bike_id": "1a8fae3ac4e4c6155171fd2cb6f3efa7", "type": "electric_scooter", "name": "1a8fae3ac4e4c6155171fd2cb6f3efa7", "rental_uris": {"android": "https://dc.lft.to/lastmile_qr_scan", "ios": "https://dc.lft.to/lastmile_qr_scan"}, "is_disabled": 0, "fusion_lat": 0.0, "lat": 38.905705166666664, "is_reserved": 0}, {"lon": -77.00258233333334, "fusion_lon": 0.0, "bike_id": "0bb2b45e2dd5e629aa1687ca5f7d8c73", "type": "electric_scooter", "name": "0bb2b45e2dd5e629aa1687ca5f7d8c73", "rental_uris": {"android": "https://dc.lft.to/lastmile_qr_scan", "ios": "https://dc.lft.to/lastmile_qr_scan"}, "is_disabled": 0, "fusion_lat": 0.0, "lat": 38.894847, "is_reserved": 0}, {"lon": -77.005351, "fusion_lon": 0.0, "bike_id": "6fe8e06f8b51ada14c014771d0ea359c", "type": "electric_scooter", "name": "6fe8e06f8b51ada14c014771d0ea359c", "rental_uris": {"android": "https://dc.lft.to/lastmile_qr_scan", "ios": "https://dc.lft.to/lastmile_qr_scan"}, "is_disabled": 0, "fusion_lat": 0.0, "lat": 38.846475, "is_reserved": 0}, {"lon": -76.96913816666667, "fusion_lon": 0.0, "bike_id": "09337319a6c441d99e0d11a0b6b35e6d", "type": "electric_scooter", "name": "09337319a6c441d99e0d11a0b6b35e6d", "rental_uris": {"android": "https://dc.lft.to/lastmile_qr_scan", "ios": "https://dc.lft.to/lastmile_qr_scan"}, "is_disabled": 0, "fusion_lat": 0.0, "lat": 38.85525833333333, "is_reserved": 0}, {"lon": -77.0410165, "fusion_lon": 0.0, "bike_id": "3262b837a9670583dd34c237e07856bc", "type": "electric_scooter", "name": "3262b837a9670583dd34c237e07856bc", "rental_uris": {"android": "https://dc.lft.to/lastmile_qr_scan", "ios": "https://dc.lft.to/lastmile_qr_scan"}, "is_disabled": 0, "fusion_lat": 0.0, "lat": 38.91047183333333, "is_reserved": 0}, {"lon": -77.02273016666666, "fusion_lon": 0.0, "bike_id": "1b759faa68d5824da0a911ec3d64b045", "type": "electric_scooter", "name": "1b759faa68d5824da0a911ec3d64b045", "rental_uris": {"android": "https://dc.lft.to/lastmile_qr_scan", "ios": "https://dc.lft.to/lastmile_qr_scan"}, "is_disabled": 0, "fusion_lat": 0.0, "lat": 38.927231666666664, "is_reserved": 0}, {"lon": -77.033529, "fusion_lon": 0.0, "bike_id": "72e69d450bce82a0931f76f45437be80", "type": "electric_scooter", "name": "72e69d450bce82a0931f76f45437be80", "rental_uris": {"android": "https://dc.lft.to/lastmile_qr_scan", "ios": "https://dc.lft.to/lastmile_qr_scan"}, "is_disabled": 0, "fusion_lat": 0.0, "lat": 38.93847016666667, "is_reserved": 0}, {"lon": -76.96525466666667, "fusion_lon": 0.0, "bike_id": "ee41ba9478e918f722d4dbea20e8346a", "type": "electric_scooter", "name": "ee41ba9478e918f722d4dbea20e8346a", "rental_uris": {"android": "https://dc.lft.to/lastmile_qr_scan", "ios": "https://dc.lft.to/lastmile_qr_scan"}, "is_disabled": 0, "fusion_lat": 0.0, "lat": 38.87628433333333, "is_reserved": 0}, {"lon": -77.0220075, "fusion_lon": 0.0, "bike_id": "2ff0606e087318dc5a11e57df59edde1", "type": "electric_scooter", "name": "2ff0606e087318dc5a11e57df59edde1", "rental_uris": {"android": "https://dc.lft.to/lastmile_qr_scan", "ios": "https://dc.lft.to/lastmile_qr_scan"}, "is_disabled": 0, "fusion_lat": 0.0, "lat": 38.8952185, "is_reserved": 0}, {"lon": -77.0470095, "fusion_lon": 0.0, "bike_id": "d565c625756752233d339f34cf58085b", "type": "electric_scooter", "name": "d565c625756752233d339f34cf58085b", "rental_uris": {"android": "https://dc.lft.to/lastmile_qr_scan", "ios": "https://dc.lft.to/lastmile_qr_scan"}, "is_disabled": 0, "fusion_lat": 0.0, "lat": 38.92176666666667, "is_reserved": 0}, {"lon": -77.0414885, "fusion_lon": 0.0, "bike_id": "21bb6b077780c9399460af8b6caeecdf", "type": "electric_scooter", "name": "21bb6b077780c9399460af8b6caeecdf", "rental_uris": {"android": "https://dc.lft.to/lastmile_qr_scan", "ios": "https://dc.lft.to/lastmile_qr_scan"}, "is_disabled": 0, "fusion_lat": 0.0, "lat": 38.93414683333334, "is_reserved": 0}, {"lon": -77.03317316666667, "fusion_lon": 0.0, "bike_id": "39a6dc9f8fa4ae63e310e6843bebad8d", "type": "electric_scooter", "name": "39a6dc9f8fa4ae63e310e6843bebad8d", "rental_uris": {"android": "https://dc.lft.to/lastmile_qr_scan", "ios": "https://dc.lft.to/lastmile_qr_scan"}, "is_disabled": 0, "fusion_lat": 0.0, "lat": 38.911163, "is_reserved": 0}, {"lon": -77.012121, "fusion_lon": 0.0, "bike_id": "894acaa7f329d1a95f84387355d2e255", "type": "electric_scooter", "name": "894acaa7f329d1a95f84387355d2e255", "rental_uris": {"android": "https://dc.lft.to/lastmile_qr_scan", "ios": "https://dc.lft.to/lastmile_qr_scan"}, "is_disabled": 0, "fusion_lat": 0.0, "lat": 38.874738666666666, "is_reserved": 0}, {"lon": -77.06329416666667, "fusion_lon": 0.0, "bike_id": "504f8e3c0cd7ac3554403d9a41423b2c", "type": "electric_scooter", "name": "504f8e3c0cd7ac3554403d9a41423b2c", "rental_uris": {"android": "https://dc.lft.to/lastmile_qr_scan", "ios": "https://dc.lft.to/lastmile_qr_scan"}, "is_disabled": 0, "fusion_lat": 0.0, "lat": 38.921085166666664, "is_reserved": 0}, {"lon": -77.04277166666667, "fusion_lon": 0.0, "bike_id": "586f0577d44e06031b1ec5786dccc84d", "type": "electric_scooter", "name": "586f0577d44e06031b1ec5786dccc84d", "rental_uris": {"android": "https://dc.lft.to/lastmile_qr_scan", "ios": "https://dc.lft.to/lastmile_qr_scan"}, "is_disabled": 0, "fusion_lat": 0.0, "lat": 38.92548566666667, "is_reserved": 0}, {"lon": -77.00915666666667, "fusion_lon": 0.0, "bike_id": "f6d568e5019dc7976f0a7e3ddad0e882", "type": "electric_scooter", "name": "f6d568e5019dc7976f0a7e3ddad0e882", "rental_uris": {"android": "https://dc.lft.to/lastmile_qr_scan", "ios": "https://dc.lft.to/lastmile_qr_scan"}, "is_disabled": 0, "fusion_lat": 0.0, "lat": 38.92273733333333, "is_reserved": 0}, {"lon": -77.05071666666667, "fusion_lon": 0.0, "bike_id": "31cd2ebb091cc1a1591095d8b99aeca8", "type": "electric_scooter", "name": "31cd2ebb091cc1a1591095d8b99aeca8", "rental_uris": {"android": "https://dc.lft.to/lastmile_qr_scan", "ios": "https://dc.lft.to/lastmile_qr_scan"}, "is_disabled": 0, "fusion_lat": 0.0, "lat": 38.9253785, "is_reserved": 0}, {"lon": -77.05329183333333, "fusion_lon": 0.0, "bike_id": "bb903daa3b54b829d4738004a101641d", "type": "electric_scooter", "name": "bb903daa3b54b829d4738004a101641d", "rental_uris": {"android": "https://dc.lft.to/lastmile_qr_scan", "ios": "https://dc.lft.to/lastmile_qr_scan"}, "is_disabled": 0, "fusion_lat": 0.0, "lat": 38.902426166666665, "is_reserved": 0}, {"lon": -77.02135066666666, "fusion_lon": 0.0, "bike_id": "bf23dd23a3c7aaa4c437a7d39a4780ab", "type": "electric_scooter", "name": "bf23dd23a3c7aaa4c437a7d39a4780ab", "rental_uris": {"android": "https://dc.lft.to/lastmile_qr_scan", "ios": "https://dc.lft.to/lastmile_qr_scan"}, "is_disabled": 0, "fusion_lat": 0.0, "lat": 38.91546816666666, "is_reserved": 0}, {"lon": -77.04319183333334, "fusion_lon": 0.0, "bike_id": "3d90c176ec6e02d1c8df37ff09464ddb", "type": "electric_scooter", "name": "3d90c176ec6e02d1c8df37ff09464ddb", "rental_uris": {"android": "https://dc.lft.to/lastmile_qr_scan", "ios": "https://dc.lft.to/lastmile_qr_scan"}, "is_disabled": 0, "fusion_lat": 0.0, "lat": 38.9058395, "is_reserved": 0}, {"lon": -77.0075855, "fusion_lon": 0.0, "bike_id": "9c31527ffe2881e6fccffb631a960bf3", "type": "electric_scooter", "name": "9c31527ffe2881e6fccffb631a960bf3", "rental_uris": {"android": "https://dc.lft.to/lastmile_qr_scan", "ios": "https://dc.lft.to/lastmile_qr_scan"}, "is_disabled": 0, "fusion_lat": 0.0, "lat": 38.904643166666666, "is_reserved": 0}, {"lon": -76.9857195, "fusion_lon": 0.0, "bike_id": "75761dd20ac6d06ee405acd27b44e24a", "type": "electric_scooter", "name": "75761dd20ac6d06ee405acd27b44e24a", "rental_uris": {"android": "https://dc.lft.to/lastmile_qr_scan", "ios": "https://dc.lft.to/lastmile_qr_scan"}, "is_disabled": 0, "fusion_lat": 0.0, "lat": 38.8668385, "is_reserved": 0}, {"lon": -77.02710633333334, "fusion_lon": 0.0, "bike_id": "0c76c261c8349a7519daab0417df0026", "type": "electric_scooter", "name": "0c76c261c8349a7519daab0417df0026", "rental_uris": {"android": "https://dc.lft.to/lastmile_qr_scan", "ios": "https://dc.lft.to/lastmile_qr_scan"}, "is_disabled": 0, "fusion_lat": 0.0, "lat": 38.917179, "is_reserved": 0}, {"lon": -76.979751, "fusion_lon": 0.0, "bike_id": "369026192b3139c7ee36b0edd8ae1b62", "type": "electric_scooter", "name": "369026192b3139c7ee36b0edd8ae1b62", "rental_uris": {"android": "https://dc.lft.to/lastmile_qr_scan", "ios": "https://dc.lft.to/lastmile_qr_scan"}, "is_disabled": 0, "fusion_lat": 0.0, "lat": 38.89740483333333, "is_reserved": 0}, {"lon": -77.01309216666667, "fusion_lon": 0.0, "bike_id": "1d0afb4d0c6a856231a2997412c6be71", "type": "electric_scooter", "name": "1d0afb4d0c6a856231a2997412c6be71", "rental_uris": {"android": "https://dc.lft.to/lastmile_qr_scan", "ios": "https://dc.lft.to/lastmile_qr_scan"}, "is_disabled": 0, "fusion_lat": 0.0, "lat": 38.90134183333333, "is_reserved": 0}, {"lon": -77.0414195, "fusion_lon": 0.0, "bike_id": "53ed4b9b5c7e1318a5682d43fe5b23fe", "type": "electric_scooter", "name": "53ed4b9b5c7e1318a5682d43fe5b23fe", "rental_uris": {"android": "https://dc.lft.to/lastmile_qr_scan", "ios": "https://dc.lft.to/lastmile_qr_scan"}, "is_disabled": 0, "fusion_lat": 0.0, "lat": 38.91847466666667, "is_reserved": 0}, {"lon": -77.08197566666666, "fusion_lon": 0.0, "bike_id": "c6d2434762ce5f7c5cf9d12fb3eed318", "type": "electric_scooter", "name": "c6d2434762ce5f7c5cf9d12fb3eed318", "rental_uris": {"android": "https://dc.lft.to/lastmile_qr_scan", "ios": "https://dc.lft.to/lastmile_qr_scan"}, "is_disabled": 0, "fusion_lat": 0.0, "lat": 38.9355585, "is_reserved": 0}, {"lon": -77.046849, "fusion_lon": 0.0, "bike_id": "7bb132ef966475dfec619aba9a5edd93", "type": "electric_scooter", "name": "7bb132ef966475dfec619aba9a5edd93", "rental_uris": {"android": "https://dc.lft.to/lastmile_qr_scan", "ios": "https://dc.lft.to/lastmile_qr_scan"}, "is_disabled": 0, "fusion_lat": 0.0, "lat": 38.9014975, "is_reserved": 0}, {"lon": -77.0220555, "fusion_lon": 0.0, "bike_id": "b78f6c792750670f687e49a91f39d170", "type": "electric_scooter", "name": "b78f6c792750670f687e49a91f39d170", "rental_uris": {"android": "https://dc.lft.to/lastmile_qr_scan", "ios": "https://dc.lft.to/lastmile_qr_scan"}, "is_disabled": 0, "fusion_lat": 0.0, "lat": 38.89612866666667, "is_reserved": 0}, {"lon": -77.05602116666667, "fusion_lon": 0.0, "bike_id": "4b0bf8a2ba0fa0f27c49866c98557616", "type": "electric_scooter", "name": "4b0bf8a2ba0fa0f27c49866c98557616", "rental_uris": {"android": "https://dc.lft.to/lastmile_qr_scan", "ios": "https://dc.lft.to/lastmile_qr_scan"}, "is_disabled": 0, "fusion_lat": 0.0, "lat": 38.937079, "is_reserved": 0}, {"lon": -77.03364616666667, "fusion_lon": 0.0, "bike_id": "349b1baf37eb2124bca57a3166685ea5", "type": "electric_scooter", "name": "349b1baf37eb2124bca57a3166685ea5", "rental_uris": {"android": "https://dc.lft.to/lastmile_qr_scan", "ios": "https://dc.lft.to/lastmile_qr_scan"}, "is_disabled": 0, "fusion_lat": 0.0, "lat": 38.927590333333335, "is_reserved": 0}, {"lon": -77.03446033333333, "fusion_lon": 0.0, "bike_id": "0832627c19beb6d7666c2dc7de77633f", "type": "electric_scooter", "name": "0832627c19beb6d7666c2dc7de77633f", "rental_uris": {"android": "https://dc.lft.to/lastmile_qr_scan", "ios": "https://dc.lft.to/lastmile_qr_scan"}, "is_disabled": 0, "fusion_lat": 0.0, "lat": 38.909754, "is_reserved": 0}, {"lon": -77.0468495, "fusion_lon": 0.0, "bike_id": "eb7a1c3d7424f1c957449c11d51cb899", "type": "electric_scooter", "name": "eb7a1c3d7424f1c957449c11d51cb899", "rental_uris": {"android": "https://dc.lft.to/lastmile_qr_scan", "ios": "https://dc.lft.to/lastmile_qr_scan"}, "is_disabled": 0, "fusion_lat": 0.0, "lat": 38.8922175, "is_reserved": 0}, {"lon": -77.03864583333333, "fusion_lon": 0.0, "bike_id": "5c4e9295fbea34c328736aa772c3a094", "type": "electric_scooter", "name": "5c4e9295fbea34c328736aa772c3a094", "rental_uris": {"android": "https://dc.lft.to/lastmile_qr_scan", "ios": "https://dc.lft.to/lastmile_qr_scan"}, "is_disabled": 0, "fusion_lat": 0.0, "lat": 38.921498166666666, "is_reserved": 0}, {"lon": -77.0147745, "fusion_lon": 0.0, "bike_id": "b17eb576becc4cce445bfa4839067089", "type": "electric_scooter", "name": "b17eb576becc4cce445bfa4839067089", "rental_uris": {"android": "https://dc.lft.to/lastmile_qr_scan", "ios": "https://dc.lft.to/lastmile_qr_scan"}, "is_disabled": 0, "fusion_lat": 0.0, "lat": 38.918755, "is_reserved": 0}, {"lon": -76.94718983333334, "fusion_lon": 0.0, "bike_id": "0704ab5a459458acabaa23b3f3a9e924", "type": "electric_scooter", "name": "0704ab5a459458acabaa23b3f3a9e924", "rental_uris": {"android": "https://dc.lft.to/lastmile_qr_scan", "ios": "https://dc.lft.to/lastmile_qr_scan"}, "is_disabled": 0, "fusion_lat": 0.0, "lat": 38.8973845, "is_reserved": 0}, {"lon": -77.024357, "fusion_lon": 0.0, "bike_id": "ec47f1325cd695c1bc342a6220d40003", "type": "electric_scooter", "name": "ec47f1325cd695c1bc342a6220d40003", "rental_uris": {"android": "https://dc.lft.to/lastmile_qr_scan", "ios": "https://dc.lft.to/lastmile_qr_scan"}, "is_disabled": 0, "fusion_lat": 0.0, "lat": 38.918173, "is_reserved": 0}, {"lon": -77.013483, "fusion_lon": 0.0, "bike_id": "1a67975e2ce9ef927120b29348f59f2e", "type": "electric_scooter", "name": "1a67975e2ce9ef927120b29348f59f2e", "rental_uris": {"android": "https://dc.lft.to/lastmile_qr_scan", "ios": "https://dc.lft.to/lastmile_qr_scan"}, "is_disabled": 0, "fusion_lat": 0.0, "lat": 38.919098, "is_reserved": 0}, {"lon": -77.0224105, "fusion_lon": 0.0, "bike_id": "116f635ef88786140f2e31a077d3e937", "type": "electric_scooter", "name": "116f635ef88786140f2e31a077d3e937", "rental_uris": {"android": "https://dc.lft.to/lastmile_qr_scan", "ios": "https://dc.lft.to/lastmile_qr_scan"}, "is_disabled": 0, "fusion_lat": 0.0, "lat": 38.8919135, "is_reserved": 0}, {"lon": -77.012247, "fusion_lon": 0.0, "bike_id": "a84fca649abb8f80c11d6d35669e99f3", "type": "electric_scooter", "name": "a84fca649abb8f80c11d6d35669e99f3", "rental_uris": {"android": "https://dc.lft.to/lastmile_qr_scan", "ios": "https://dc.lft.to/lastmile_qr_scan"}, "is_disabled": 0, "fusion_lat": 0.0, "lat": 38.914003, "is_reserved": 0}, {"lon": -76.98498016666667, "fusion_lon": 0.0, "bike_id": "2eeb0129e42a291c5351c0b29cdd1523", "type": "electric_scooter", "name": "2eeb0129e42a291c5351c0b29cdd1523", "rental_uris": {"android": "https://dc.lft.to/lastmile_qr_scan", "ios": "https://dc.lft.to/lastmile_qr_scan"}, "is_disabled": 0, "fusion_lat": 0.0, "lat": 38.91330716666667, "is_reserved": 0}, {"lon": -77.02652033333334, "fusion_lon": 0.0, "bike_id": "a45b820e6a172ad5e7718c7d5819d63d", "type": "electric_scooter", "name": "a45b820e6a172ad5e7718c7d5819d63d", "rental_uris": {"android": "https://dc.lft.to/lastmile_qr_scan", "ios": "https://dc.lft.to/lastmile_qr_scan"}, "is_disabled": 0, "fusion_lat": 0.0, "lat": 38.881086833333335, "is_reserved": 0}, {"lon": -77.00799616666667, "fusion_lon": 0.0, "bike_id": "e49c275905bf58c60393e650380b148e", "type": "electric_scooter", "name": "e49c275905bf58c60393e650380b148e", "rental_uris": {"android": "https://dc.lft.to/lastmile_qr_scan", "ios": "https://dc.lft.to/lastmile_qr_scan"}, "is_disabled": 0, "fusion_lat": 0.0, "lat": 38.915596, "is_reserved": 0}, {"lon": -77.034985, "fusion_lon": 0.0, "bike_id": "0b840fee052bda631d1c009a647acc77", "type": "electric_scooter", "name": "0b840fee052bda631d1c009a647acc77", "rental_uris": {"android": "https://dc.lft.to/lastmile_qr_scan", "ios": "https://dc.lft.to/lastmile_qr_scan"}, "is_disabled": 0, "fusion_lat": 0.0, "lat": 38.931567, "is_reserved": 0}, {"lon": -77.02484116666666, "fusion_lon": 0.0, "bike_id": "c1fb4f2eb3cd50b5781327a6a4f164b8", "type": "electric_scooter", "name": "c1fb4f2eb3cd50b5781327a6a4f164b8", "rental_uris": {"android": "https://dc.lft.to/lastmile_qr_scan", "ios": "https://dc.lft.to/lastmile_qr_scan"}, "is_disabled": 0, "fusion_lat": 0.0, "lat": 38.93883966666667, "is_reserved": 0}, {"lon": -76.99555083333334, "fusion_lon": 0.0, "bike_id": "9d87c6616a08f9216ea18f7096eed756", "type": "electric_scooter", "name": "9d87c6616a08f9216ea18f7096eed756", "rental_uris": {"android": "https://dc.lft.to/lastmile_qr_scan", "ios": "https://dc.lft.to/lastmile_qr_scan"}, "is_disabled": 0, "fusion_lat": 0.0, "lat": 38.884238333333336, "is_reserved": 0}, {"lon": -77.02495683333333, "fusion_lon": 0.0, "bike_id": "5057f9b1955afe7bae8782f8effdb58a", "type": "electric_scooter", "name": "5057f9b1955afe7bae8782f8effdb58a", "rental_uris": {"android": "https://dc.lft.to/lastmile_qr_scan", "ios": "https://dc.lft.to/lastmile_qr_scan"}, "is_disabled": 0, "fusion_lat": 0.0, "lat": 38.91923033333333, "is_reserved": 0}, {"lon": -77.04472183333333, "fusion_lon": 0.0, "bike_id": "fd8b29865ef6c1dbd874f0babb7ff76e", "type": "electric_scooter", "name": "fd8b29865ef6c1dbd874f0babb7ff76e", "rental_uris": {"android": "https://dc.lft.to/lastmile_qr_scan", "ios": "https://dc.lft.to/lastmile_qr_scan"}, "is_disabled": 0, "fusion_lat": 0.0, "lat": 38.9090605, "is_reserved": 0}, {"lon": -77.00164833333334, "fusion_lon": 0.0, "bike_id": "95472252b517ce72e7aa08f74eba33b9", "type": "electric_scooter", "name": "95472252b517ce72e7aa08f74eba33b9", "rental_uris": {"android": "https://dc.lft.to/lastmile_qr_scan", "ios": "https://dc.lft.to/lastmile_qr_scan"}, "is_disabled": 0, "fusion_lat": 0.0, "lat": 38.908553833333336, "is_reserved": 0}, {"lon": -77.02604383333333, "fusion_lon": 0.0, "bike_id": "310a35618071b800de4c0e35f4d164cf", "type": "electric_scooter", "name": "310a35618071b800de4c0e35f4d164cf", "rental_uris": {"android": "https://dc.lft.to/lastmile_qr_scan", "ios": "https://dc.lft.to/lastmile_qr_scan"}, "is_disabled": 0, "fusion_lat": 0.0, "lat": 38.917205, "is_reserved": 0}, {"lon": -77.04671683333333, "fusion_lon": 0.0, "bike_id": "c3faca3376d45fcde6b8e5eb62349994", "type": "electric_scooter", "name": "c3faca3376d45fcde6b8e5eb62349994", "rental_uris": {"android": "https://dc.lft.to/lastmile_qr_scan", "ios": "https://dc.lft.to/lastmile_qr_scan"}, "is_disabled": 0, "fusion_lat": 0.0, "lat": 38.91419633333334, "is_reserved": 0}, {"lon": -77.0413015, "fusion_lon": 0.0, "bike_id": "c73c385eac75b9ad7bff74d15fd062fa", "type": "electric_scooter", "name": "c73c385eac75b9ad7bff74d15fd062fa", "rental_uris": {"android": "https://dc.lft.to/lastmile_qr_scan", "ios": "https://dc.lft.to/lastmile_qr_scan"}, "is_disabled": 0, "fusion_lat": 0.0, "lat": 38.925277333333334, "is_reserved": 0}, {"lon": -77.03462, "fusion_lon": 0.0, "bike_id": "d56e77e7295481ef3b72a366eb141c47", "type": "electric_scooter", "name": "d56e77e7295481ef3b72a366eb141c47", "rental_uris": {"android": "https://dc.lft.to/lastmile_qr_scan", "ios": "https://dc.lft.to/lastmile_qr_scan"}, "is_disabled": 0, "fusion_lat": 0.0, "lat": 38.926376, "is_reserved": 0}, {"lon": -77.03214783333334, "fusion_lon": 0.0, "bike_id": "2d31c4fc3b50be7b4276d3535055429d", "type": "electric_scooter", "name": "2d31c4fc3b50be7b4276d3535055429d", "rental_uris": {"android": "https://dc.lft.to/lastmile_qr_scan", "ios": "https://dc.lft.to/lastmile_qr_scan"}, "is_disabled": 0, "fusion_lat": 0.0, "lat": 38.884683, "is_reserved": 0}, {"lon": -76.96904033333334, "fusion_lon": 0.0, "bike_id": "af50d420f8b48a14b423e02dc6abbf46", "type": "electric_scooter", "name": "af50d420f8b48a14b423e02dc6abbf46", "rental_uris": {"android": "https://dc.lft.to/lastmile_qr_scan", "ios": "https://dc.lft.to/lastmile_qr_scan"}, "is_disabled": 0, "fusion_lat": 0.0, "lat": 38.87298583333333, "is_reserved": 0}, {"lon": -77.022869, "fusion_lon": 0.0, "bike_id": "b8dcbf34c2d0e490e1294e8e32864355", "type": "electric_scooter", "name": "b8dcbf34c2d0e490e1294e8e32864355", "rental_uris": {"android": "https://dc.lft.to/lastmile_qr_scan", "ios": "https://dc.lft.to/lastmile_qr_scan"}, "is_disabled": 0, "fusion_lat": 0.0, "lat": 38.895129, "is_reserved": 0}, {"lon": -76.9796685, "fusion_lon": 0.0, "bike_id": "65846c19e457ae19cd1b21949ce644e9", "type": "electric_bike", "name": "65846c19e457ae19cd1b21949ce644e9", "rental_uris": {"android": "https://dc.lft.to/lastmile_qr_scan", "ios": "https://dc.lft.to/lastmile_qr_scan"}, "is_disabled": 0, "fusion_lat": 0.0, "lat": 38.95369683333333, "is_reserved": 0}, {"lon": -77.05126166666666, "fusion_lon": 0.0, "bike_id": "68a2b307e62cf6a9ab17ee574f05ee84", "type": "electric_bike", "name": "68a2b307e62cf6a9ab17ee574f05ee84", "rental_uris": {"android": "https://dc.lft.to/lastmile_qr_scan", "ios": "https://dc.lft.to/lastmile_qr_scan"}, "is_disabled": 0, "fusion_lat": 0.0, "lat": 38.8133235, "is_reserved": 0}, {"lon": -77.00852783333333, "fusion_lon": 0.0, "bike_id": "9670d64693882981f36df07130b94e9f", "type": "electric_scooter", "name": "9670d64693882981f36df07130b94e9f", "rental_uris": {"android": "https://dc.lft.to/lastmile_qr_scan", "ios": "https://dc.lft.to/lastmile_qr_scan"}, "is_disabled": 0, "fusion_lat": 0.0, "lat": 38.87633233333333, "is_reserved": 0}, {"lon": -77.0449405, "fusion_lon": 0.0, "bike_id": "f1216b0ec86f875a8ac55d565dce38a2", "type": "electric_scooter", "name": "f1216b0ec86f875a8ac55d565dce38a2", "rental_uris": {"android": "https://dc.lft.to/lastmile_qr_scan", "ios": "https://dc.lft.to/lastmile_qr_scan"}, "is_disabled": 0, "fusion_lat": 0.0, "lat": 38.89825866666666, "is_reserved": 0}, {"lon": -77.03184016666667, "fusion_lon": 0.0, "bike_id": "5f77831186c7eab7ce65bed5fcc65755", "type": "electric_scooter", "name": "5f77831186c7eab7ce65bed5fcc65755", "rental_uris": {"android": "https://dc.lft.to/lastmile_qr_scan", "ios": "https://dc.lft.to/lastmile_qr_scan"}, "is_disabled": 0, "fusion_lat": 0.0, "lat": 38.921237, "is_reserved": 0}, {"lon": -77.01104816666667, "fusion_lon": 0.0, "bike_id": "e0a041a7b67722d134e6194c3f7c1156", "type": "electric_scooter", "name": "e0a041a7b67722d134e6194c3f7c1156", "rental_uris": {"android": "https://dc.lft.to/lastmile_qr_scan", "ios": "https://dc.lft.to/lastmile_qr_scan"}, "is_disabled": 0, "fusion_lat": 0.0, "lat": 38.9096835, "is_reserved": 0}, {"lon": -77.05004383333333, "fusion_lon": 0.0, "bike_id": "b22770fa6325d5257e7a12d482aa0b04", "type": "electric_scooter", "name": "b22770fa6325d5257e7a12d482aa0b04", "rental_uris": {"android": "https://dc.lft.to/lastmile_qr_scan", "ios": "https://dc.lft.to/lastmile_qr_scan"}, "is_disabled": 0, "fusion_lat": 0.0, "lat": 38.89839583333333, "is_reserved": 0}, {"lon": -77.02222683333333, "fusion_lon": 0.0, "bike_id": "b1d8d1f18d23abb54fe2b3760741e94d", "type": "electric_scooter", "name": "b1d8d1f18d23abb54fe2b3760741e94d", "rental_uris": {"android": "https://dc.lft.to/lastmile_qr_scan", "ios": "https://dc.lft.to/lastmile_qr_scan"}, "is_disabled": 0, "fusion_lat": 0.0, "lat": 38.92100633333333, "is_reserved": 0}, {"lon": -77.00932066666667, "fusion_lon": 0.0, "bike_id": "10ff072daa31114447f066c4249c89a1", "type": "electric_scooter", "name": "10ff072daa31114447f066c4249c89a1", "rental_uris": {"android": "https://dc.lft.to/lastmile_qr_scan", "ios": "https://dc.lft.to/lastmile_qr_scan"}, "is_disabled": 0, "fusion_lat": 0.0, "lat": 38.87505383333333, "is_reserved": 0}, {"lon": -77.05037216666666, "fusion_lon": 0.0, "bike_id": "974fc1994eaff60f9d51f343ab455a29", "type": "electric_bike", "name": "974fc1994eaff60f9d51f343ab455a29", "rental_uris": {"android": "https://dc.lft.to/lastmile_qr_scan", "ios": "https://dc.lft.to/lastmile_qr_scan"}, "is_disabled": 0, "fusion_lat": 0.0, "lat": 38.924149166666666, "is_reserved": 0}, {"lon": -76.9874495, "fusion_lon": 0.0, "bike_id": "84707cdf567d0909296ad241f5f93706", "type": "electric_bike", "name": "84707cdf567d0909296ad241f5f93706", "rental_uris": {"android": "https://dc.lft.to/lastmile_qr_scan", "ios": "https://dc.lft.to/lastmile_qr_scan"}, "is_disabled": 0, "fusion_lat": 0.0, "lat": 38.89605183333333, "is_reserved": 0}, {"lon": -76.976277, "fusion_lon": 0.0, "bike_id": "3eee9fb317bb5a92ea418d3b40369291", "type": "electric_scooter", "name": "3eee9fb317bb5a92ea418d3b40369291", "rental_uris": {"android": "https://dc.lft.to/lastmile_qr_scan", "ios": "https://dc.lft.to/lastmile_qr_scan"}, "is_disabled": 0, "fusion_lat": 0.0, "lat": 38.9015425, "is_reserved": 0}, {"lon": -76.96909916666667, "fusion_lon": 0.0, "bike_id": "1d9bd96b9f8c585c379e63d14bcd12e2", "type": "electric_bike", "name": "1d9bd96b9f8c585c379e63d14bcd12e2", "rental_uris": {"android": "https://dc.lft.to/lastmile_qr_scan", "ios": "https://dc.lft.to/lastmile_qr_scan"}, "is_disabled": 0, "fusion_lat": 0.0, "lat": 38.846082833333334, "is_reserved": 0}, {"lon": -76.96038783333333, "fusion_lon": 0.0, "bike_id": "4629468c1527ddc0a7b921d160da0c74", "type": "electric_bike", "name": "4629468c1527ddc0a7b921d160da0c74", "rental_uris": {"android": "https://dc.lft.to/lastmile_qr_scan", "ios": "https://dc.lft.to/lastmile_qr_scan"}, "is_disabled": 0, "fusion_lat": 0.0, "lat": 38.967379666666666, "is_reserved": 0}, {"lon": -77.019908, "fusion_lon": 0.0, "bike_id": "be9882394ee805a176c5531a7de6e6df", "type": "electric_scooter", "name": "be9882394ee805a176c5531a7de6e6df", "rental_uris": {"android": "https://dc.lft.to/lastmile_qr_scan", "ios": "https://dc.lft.to/lastmile_qr_scan"}, "is_disabled": 0, "fusion_lat": 0.0, "lat": 38.880316, "is_reserved": 0}, {"lon": -77.0363335, "fusion_lon": 0.0, "bike_id": "b691a3ab310e9f6addf7bbdbbaec0381", "type": "electric_scooter", "name": "b691a3ab310e9f6addf7bbdbbaec0381", "rental_uris": {"android": "https://dc.lft.to/lastmile_qr_scan", "ios": "https://dc.lft.to/lastmile_qr_scan"}, "is_disabled": 0, "fusion_lat": 0.0, "lat": 38.930640833333335, "is_reserved": 0}, {"lon": -77.0142325, "fusion_lon": 0.0, "bike_id": "8392ea3e3020305d081854a84bda0138", "type": "electric_scooter", "name": "8392ea3e3020305d081854a84bda0138", "rental_uris": {"android": "https://dc.lft.to/lastmile_qr_scan", "ios": "https://dc.lft.to/lastmile_qr_scan"}, "is_disabled": 0, "fusion_lat": 0.0, "lat": 38.9096175, "is_reserved": 0}, {"lon": -77.048687, "fusion_lon": 0.0, "bike_id": "6905a9b76c90d563436358a3efff8f3a", "type": "electric_scooter", "name": "6905a9b76c90d563436358a3efff8f3a", "rental_uris": {"android": "https://dc.lft.to/lastmile_qr_scan", "ios": "https://dc.lft.to/lastmile_qr_scan"}, "is_disabled": 0, "fusion_lat": 0.0, "lat": 38.90305466666667, "is_reserved": 0}, {"lon": -77.029725, "fusion_lon": 0.0, "bike_id": "4463a33f4b13ec23cd58341dcb0e4080", "type": "electric_scooter", "name": "4463a33f4b13ec23cd58341dcb0e4080", "rental_uris": {"android": "https://dc.lft.to/lastmile_qr_scan", "ios": "https://dc.lft.to/lastmile_qr_scan"}, "is_disabled": 0, "fusion_lat": 0.0, "lat": 38.930784833333334, "is_reserved": 0}, {"lon": -77.01777916666667, "fusion_lon": 0.0, "bike_id": "4d64fbffd5bfb0f7f0aec6a4938fbe54", "type": "electric_scooter", "name": "4d64fbffd5bfb0f7f0aec6a4938fbe54", "rental_uris": {"android": "https://dc.lft.to/lastmile_qr_scan", "ios": "https://dc.lft.to/lastmile_qr_scan"}, "is_disabled": 0, "fusion_lat": 0.0, "lat": 38.887131, "is_reserved": 0}, {"lon": -76.990573, "fusion_lon": 0.0, "bike_id": "0838549bfcd3493c6af2f3c6947f14af", "type": "electric_scooter", "name": "0838549bfcd3493c6af2f3c6947f14af", "rental_uris": {"android": "https://dc.lft.to/lastmile_qr_scan", "ios": "https://dc.lft.to/lastmile_qr_scan"}, "is_disabled": 0, "fusion_lat": 0.0, "lat": 38.86370733333333, "is_reserved": 0}, {"lon": -77.019447, "fusion_lon": 0.0, "bike_id": "df81b3c867ef25fac8681ad6e3a284b4", "type": "electric_scooter", "name": "df81b3c867ef25fac8681ad6e3a284b4", "rental_uris": {"android": "https://dc.lft.to/lastmile_qr_scan", "ios": "https://dc.lft.to/lastmile_qr_scan"}, "is_disabled": 0, "fusion_lat": 0.0, "lat": 38.92417966666667, "is_reserved": 0}, {"lon": -76.98943066666666, "fusion_lon": 0.0, "bike_id": "bdefdae72d8ae08cc344b433756b121f", "type": "electric_scooter", "name": "bdefdae72d8ae08cc344b433756b121f", "rental_uris": {"android": "https://dc.lft.to/lastmile_qr_scan", "ios": "https://dc.lft.to/lastmile_qr_scan"}, "is_disabled": 0, "fusion_lat": 0.0, "lat": 38.90394783333333, "is_reserved": 0}, {"lon": -77.00588716666667, "fusion_lon": 0.0, "bike_id": "df7f2c8e07ff8d548e5fa5138423e6b2", "type": "electric_scooter", "name": "df7f2c8e07ff8d548e5fa5138423e6b2", "rental_uris": {"android": "https://dc.lft.to/lastmile_qr_scan", "ios": "https://dc.lft.to/lastmile_qr_scan"}, "is_disabled": 0, "fusion_lat": 0.0, "lat": 38.87559366666667, "is_reserved": 0}, {"lon": -77.03804033333333, "fusion_lon": 0.0, "bike_id": "47627ff456424c23431787ff48b8f1f8", "type": "electric_scooter", "name": "47627ff456424c23431787ff48b8f1f8", "rental_uris": {"android": "https://dc.lft.to/lastmile_qr_scan", "ios": "https://dc.lft.to/lastmile_qr_scan"}, "is_disabled": 0, "fusion_lat": 0.0, "lat": 38.91567283333333, "is_reserved": 0}, {"lon": -77.01936116666667, "fusion_lon": 0.0, "bike_id": "5981aa8567fe2b01fe684b8441f7cf75", "type": "electric_scooter", "name": "5981aa8567fe2b01fe684b8441f7cf75", "rental_uris": {"android": "https://dc.lft.to/lastmile_qr_scan", "ios": "https://dc.lft.to/lastmile_qr_scan"}, "is_disabled": 0, "fusion_lat": 0.0, "lat": 38.904650833333335, "is_reserved": 0}, {"lon": -77.01531366666667, "fusion_lon": 0.0, "bike_id": "cbdb31bf7cc5f4b48fa207314fe75aa8", "type": "electric_scooter", "name": "cbdb31bf7cc5f4b48fa207314fe75aa8", "rental_uris": {"android": "https://dc.lft.to/lastmile_qr_scan", "ios": "https://dc.lft.to/lastmile_qr_scan"}, "is_disabled": 0, "fusion_lat": 0.0, "lat": 38.887368, "is_reserved": 0}, {"lon": -77.05730166666666, "fusion_lon": 0.0, "bike_id": "8e617b7b7dfc221a3758093ab4649111", "type": "electric_scooter", "name": "8e617b7b7dfc221a3758093ab4649111", "rental_uris": {"android": "https://dc.lft.to/lastmile_qr_scan", "ios": "https://dc.lft.to/lastmile_qr_scan"}, "is_disabled": 0, "fusion_lat": 0.0, "lat": 38.933626, "is_reserved": 0}, {"lon": -77.00893133333334, "fusion_lon": 0.0, "bike_id": "96e52d367ef4310c1d33138debb76841", "type": "electric_scooter", "name": "96e52d367ef4310c1d33138debb76841", "rental_uris": {"android": "https://dc.lft.to/lastmile_qr_scan", "ios": "https://dc.lft.to/lastmile_qr_scan"}, "is_disabled": 0, "fusion_lat": 0.0, "lat": 38.884976, "is_reserved": 0}, {"lon": -77.0529265, "fusion_lon": 0.0, "bike_id": "172c2c49180918100df0c53a08d14d3c", "type": "electric_scooter", "name": "172c2c49180918100df0c53a08d14d3c", "rental_uris": {"android": "https://dc.lft.to/lastmile_qr_scan", "ios": "https://dc.lft.to/lastmile_qr_scan"}, "is_disabled": 0, "fusion_lat": 0.0, "lat": 38.9033255, "is_reserved": 0}, {"lon": -77.05584733333333, "fusion_lon": 0.0, "bike_id": "fd739014d7ad6e29dd71e2929e0fd589", "type": "electric_scooter", "name": "fd739014d7ad6e29dd71e2929e0fd589", "rental_uris": {"android": "https://dc.lft.to/lastmile_qr_scan", "ios": "https://dc.lft.to/lastmile_qr_scan"}, "is_disabled": 0, "fusion_lat": 0.0, "lat": 38.934299, "is_reserved": 0}, {"lon": -77.02786733333333, "fusion_lon": 0.0, "bike_id": "b3481a209436c437bdd1af6902fbd6f2", "type": "electric_scooter", "name": "b3481a209436c437bdd1af6902fbd6f2", "rental_uris": {"android": "https://dc.lft.to/lastmile_qr_scan", "ios": "https://dc.lft.to/lastmile_qr_scan"}, "is_disabled": 0, "fusion_lat": 0.0, "lat": 38.93925483333334, "is_reserved": 0}, {"lon": -76.99221333333334, "fusion_lon": 0.0, "bike_id": "faf950804e94f28d8fc12470a5730dc8", "type": "electric_bike", "name": "faf950804e94f28d8fc12470a5730dc8", "rental_uris": {"android": "https://dc.lft.to/lastmile_qr_scan", "ios": "https://dc.lft.to/lastmile_qr_scan"}, "is_disabled": 0, "fusion_lat": 0.0, "lat": 38.940218333333334, "is_reserved": 0}, {"lon": -77.0034005, "fusion_lon": 0.0, "bike_id": "0d27f532007b390d89399888d82272ef", "type": "electric_scooter", "name": "0d27f532007b390d89399888d82272ef", "rental_uris": {"android": "https://dc.lft.to/lastmile_qr_scan", "ios": "https://dc.lft.to/lastmile_qr_scan"}, "is_disabled": 0, "fusion_lat": 0.0, "lat": 38.895201666666665, "is_reserved": 0}, {"lon": -77.02811516666667, "fusion_lon": 0.0, "bike_id": "400b56e2f1e27b5905fb03b0e3585ec6", "type": "electric_scooter", "name": "400b56e2f1e27b5905fb03b0e3585ec6", "rental_uris": {"android": "https://dc.lft.to/lastmile_qr_scan", "ios": "https://dc.lft.to/lastmile_qr_scan"}, "is_disabled": 0, "fusion_lat": 0.0, "lat": 38.91693883333333, "is_reserved": 0}, {"lon": -76.98231533333333, "fusion_lon": 0.0, "bike_id": "d6e1a940b51d62d20ee075e6a667cdf9", "type": "electric_scooter", "name": "d6e1a940b51d62d20ee075e6a667cdf9", "rental_uris": {"android": "https://dc.lft.to/lastmile_qr_scan", "ios": "https://dc.lft.to/lastmile_qr_scan"}, "is_disabled": 0, "fusion_lat": 0.0, "lat": 38.901961166666666, "is_reserved": 0}, {"lon": -77.0421835, "fusion_lon": 0.0, "bike_id": "3b5c7a4f1c164939f03286c7219040aa", "type": "electric_scooter", "name": "3b5c7a4f1c164939f03286c7219040aa", "rental_uris": {"android": "https://dc.lft.to/lastmile_qr_scan", "ios": "https://dc.lft.to/lastmile_qr_scan"}, "is_disabled": 0, "fusion_lat": 0.0, "lat": 38.92617633333333, "is_reserved": 0}, {"lon": -76.99690216666667, "fusion_lon": 0.0, "bike_id": "a3a55dc05c376768d7fdf53df7754f58", "type": "electric_scooter", "name": "a3a55dc05c376768d7fdf53df7754f58", "rental_uris": {"android": "https://dc.lft.to/lastmile_qr_scan", "ios": "https://dc.lft.to/lastmile_qr_scan"}, "is_disabled": 0, "fusion_lat": 0.0, "lat": 38.88420166666667, "is_reserved": 0}, {"lon": -77.10687016666667, "fusion_lon": 0.0, "bike_id": "263b3fdec4aacadf093e705eda0c3370", "type": "electric_bike", "name": "263b3fdec4aacadf093e705eda0c3370", "rental_uris": {"android": "https://dc.lft.to/lastmile_qr_scan", "ios": "https://dc.lft.to/lastmile_qr_scan"}, "is_disabled": 0, "fusion_lat": 0.0, "lat": 38.864513333333335, "is_reserved": 0}, {"lon": -77.0515015, "fusion_lon": 0.0, "bike_id": "0526e7d076d05ac124045a17b5347620", "type": "electric_scooter", "name": "0526e7d076d05ac124045a17b5347620", "rental_uris": {"android": "https://dc.lft.to/lastmile_qr_scan", "ios": "https://dc.lft.to/lastmile_qr_scan"}, "is_disabled": 0, "fusion_lat": 0.0, "lat": 38.92373666666667, "is_reserved": 0}, {"lon": -77.03186183333334, "fusion_lon": 0.0, "bike_id": "07ff7815a6166ebf97e8be03dc7dc05b", "type": "electric_scooter", "name": "07ff7815a6166ebf97e8be03dc7dc05b", "rental_uris": {"android": "https://dc.lft.to/lastmile_qr_scan", "ios": "https://dc.lft.to/lastmile_qr_scan"}, "is_disabled": 0, "fusion_lat": 0.0, "lat": 38.904231833333334, "is_reserved": 0}, {"lon": -77.02625766666667, "fusion_lon": 0.0, "bike_id": "5783a3c6410f74fb33cb790438ba0afc", "type": "electric_scooter", "name": "5783a3c6410f74fb33cb790438ba0afc", "rental_uris": {"android": "https://dc.lft.to/lastmile_qr_scan", "ios": "https://dc.lft.to/lastmile_qr_scan"}, "is_disabled": 0, "fusion_lat": 0.0, "lat": 38.8983585, "is_reserved": 0}, {"lon": -77.12737333333334, "fusion_lon": 0.0, "bike_id": "c6ea666ccc387374c38466ba97f5ca14", "type": "electric_bike", "name": "c6ea666ccc387374c38466ba97f5ca14", "rental_uris": {"android": "https://dc.lft.to/lastmile_qr_scan", "ios": "https://dc.lft.to/lastmile_qr_scan"}, "is_disabled": 0, "fusion_lat": 0.0, "lat": 38.89566683333334, "is_reserved": 0}, {"lon": -77.033455, "fusion_lon": 0.0, "bike_id": "3c6eff4eb4fdc61846de8ba1e1c2c420", "type": "electric_scooter", "name": "3c6eff4eb4fdc61846de8ba1e1c2c420", "rental_uris": {"android": "https://dc.lft.to/lastmile_qr_scan", "ios": "https://dc.lft.to/lastmile_qr_scan"}, "is_disabled": 0, "fusion_lat": 0.0, "lat": 38.902839, "is_reserved": 0}, {"lon": -77.00280283333333, "fusion_lon": 0.0, "bike_id": "d6b56682c2ef71136af970eb5e76ce2e", "type": "electric_bike", "name": "d6b56682c2ef71136af970eb5e76ce2e", "rental_uris": {"android": "https://dc.lft.to/lastmile_qr_scan", "ios": "https://dc.lft.to/lastmile_qr_scan"}, "is_disabled": 0, "fusion_lat": 0.0, "lat": 38.957108, "is_reserved": 0}, {"lon": -76.97332416666667, "fusion_lon": 0.0, "bike_id": "2841168a059809f5a16e71482e5aa41b", "type": "electric_scooter", "name": "2841168a059809f5a16e71482e5aa41b", "rental_uris": {"android": "https://dc.lft.to/lastmile_qr_scan", "ios": "https://dc.lft.to/lastmile_qr_scan"}, "is_disabled": 0, "fusion_lat": 0.0, "lat": 38.90407033333334, "is_reserved": 0}, {"lon": -77.02809766666667, "fusion_lon": 0.0, "bike_id": "96f15c753b94be93211a1e8156374f1a", "type": "electric_scooter", "name": "96f15c753b94be93211a1e8156374f1a", "rental_uris": {"android": "https://dc.lft.to/lastmile_qr_scan", "ios": "https://dc.lft.to/lastmile_qr_scan"}, "is_disabled": 0, "fusion_lat": 0.0, "lat": 38.9308085, "is_reserved": 0}, {"lon": -77.03507266666666, "fusion_lon": 0.0, "bike_id": "ad364d06b6f751686dbfc2321e618afb", "type": "electric_scooter", "name": "ad364d06b6f751686dbfc2321e618afb", "rental_uris": {"android": "https://dc.lft.to/lastmile_qr_scan", "ios": "https://dc.lft.to/lastmile_qr_scan"}, "is_disabled": 0, "fusion_lat": 0.0, "lat": 38.91879333333333, "is_reserved": 0}, {"lon": -77.00200716666667, "fusion_lon": 0.0, "bike_id": "66b54ba05dead1cb908af05b30409c3f", "type": "electric_scooter", "name": "66b54ba05dead1cb908af05b30409c3f", "rental_uris": {"android": "https://dc.lft.to/lastmile_qr_scan", "ios": "https://dc.lft.to/lastmile_qr_scan"}, "is_disabled": 0, "fusion_lat": 0.0, "lat": 38.902378666666664, "is_reserved": 0}, {"lon": -77.01809716666666, "fusion_lon": 0.0, "bike_id": "2d7a697edc98f259e1c78d84c45cc72c", "type": "electric_scooter", "name": "2d7a697edc98f259e1c78d84c45cc72c", "rental_uris": {"android": "https://dc.lft.to/lastmile_qr_scan", "ios": "https://dc.lft.to/lastmile_qr_scan"}, "is_disabled": 0, "fusion_lat": 0.0, "lat": 38.9198635, "is_reserved": 0}, {"lon": -77.03201516666667, "fusion_lon": 0.0, "bike_id": "9ae507d9f519cc0b7123fe02b527d05f", "type": "electric_scooter", "name": "9ae507d9f519cc0b7123fe02b527d05f", "rental_uris": {"android": "https://dc.lft.to/lastmile_qr_scan", "ios": "https://dc.lft.to/lastmile_qr_scan"}, "is_disabled": 0, "fusion_lat": 0.0, "lat": 38.91607316666666, "is_reserved": 0}, {"lon": -77.059176, "fusion_lon": 0.0, "bike_id": "9a40f73fa2fae796f18453fe86aa6100", "type": "electric_scooter", "name": "9a40f73fa2fae796f18453fe86aa6100", "rental_uris": {"android": "https://dc.lft.to/lastmile_qr_scan", "ios": "https://dc.lft.to/lastmile_qr_scan"}, "is_disabled": 0, "fusion_lat": 0.0, "lat": 38.90449733333333, "is_reserved": 0}, {"lon": -77.03335633333333, "fusion_lon": 0.0, "bike_id": "9fdf281401e21f92ee058736e2250719", "type": "electric_scooter", "name": "9fdf281401e21f92ee058736e2250719", "rental_uris": {"android": "https://dc.lft.to/lastmile_qr_scan", "ios": "https://dc.lft.to/lastmile_qr_scan"}, "is_disabled": 0, "fusion_lat": 0.0, "lat": 38.921581833333335, "is_reserved": 0}, {"lon": -77.02405883333333, "fusion_lon": 0.0, "bike_id": "1bb11a693835fd8d1c977d5838f87f27", "type": "electric_scooter", "name": "1bb11a693835fd8d1c977d5838f87f27", "rental_uris": {"android": "https://dc.lft.to/lastmile_qr_scan", "ios": "https://dc.lft.to/lastmile_qr_scan"}, "is_disabled": 0, "fusion_lat": 0.0, "lat": 38.913987666666664, "is_reserved": 0}, {"lon": -77.02593383333334, "fusion_lon": 0.0, "bike_id": "3294c3011db9b1b26082cc2371d5106f", "type": "electric_scooter", "name": "3294c3011db9b1b26082cc2371d5106f", "rental_uris": {"android": "https://dc.lft.to/lastmile_qr_scan", "ios": "https://dc.lft.to/lastmile_qr_scan"}, "is_disabled": 0, "fusion_lat": 0.0, "lat": 38.90424983333333, "is_reserved": 0}, {"lon": -77.03066516666667, "fusion_lon": 0.0, "bike_id": "e8cd927f9e1e4a1650527b16178d5ebb", "type": "electric_scooter", "name": "e8cd927f9e1e4a1650527b16178d5ebb", "rental_uris": {"android": "https://dc.lft.to/lastmile_qr_scan", "ios": "https://dc.lft.to/lastmile_qr_scan"}, "is_disabled": 0, "fusion_lat": 0.0, "lat": 38.922443666666666, "is_reserved": 0}, {"lon": -77.01711166666666, "fusion_lon": 0.0, "bike_id": "790a71e94fb90ced6ce0f40cd12d43e0", "type": "electric_scooter", "name": "790a71e94fb90ced6ce0f40cd12d43e0", "rental_uris": {"android": "https://dc.lft.to/lastmile_qr_scan", "ios": "https://dc.lft.to/lastmile_qr_scan"}, "is_disabled": 0, "fusion_lat": 0.0, "lat": 38.90970633333333, "is_reserved": 0}, {"lon": -77.0633845, "fusion_lon": 0.0, "bike_id": "d0c36fe11a004f0b97ba6a6e40011baf", "type": "electric_scooter", "name": "d0c36fe11a004f0b97ba6a6e40011baf", "rental_uris": {"android": "https://dc.lft.to/lastmile_qr_scan", "ios": "https://dc.lft.to/lastmile_qr_scan"}, "is_disabled": 0, "fusion_lat": 0.0, "lat": 38.906802166666665, "is_reserved": 0}, {"lon": -77.01896066666667, "fusion_lon": 0.0, "bike_id": "b2483405ea59a2531d6864b738c4a34e", "type": "electric_scooter", "name": "b2483405ea59a2531d6864b738c4a34e", "rental_uris": {"android": "https://dc.lft.to/lastmile_qr_scan", "ios": "https://dc.lft.to/lastmile_qr_scan"}, "is_disabled": 0, "fusion_lat": 0.0, "lat": 38.90920166666667, "is_reserved": 0}, {"lon": -77.02691383333334, "fusion_lon": 0.0, "bike_id": "12d1034032635cc445cad845e8f60c31", "type": "electric_scooter", "name": "12d1034032635cc445cad845e8f60c31", "rental_uris": {"android": "https://dc.lft.to/lastmile_qr_scan", "ios": "https://dc.lft.to/lastmile_qr_scan"}, "is_disabled": 0, "fusion_lat": 0.0, "lat": 38.922778666666666, "is_reserved": 0}, {"lon": -77.0233, "fusion_lon": 0.0, "bike_id": "48dd297050829a505e6f716394bbb6f7", "type": "electric_scooter", "name": "48dd297050829a505e6f716394bbb6f7", "rental_uris": {"android": "https://dc.lft.to/lastmile_qr_scan", "ios": "https://dc.lft.to/lastmile_qr_scan"}, "is_disabled": 0, "fusion_lat": 0.0, "lat": 38.92228583333333, "is_reserved": 0}, {"lon": -77.0329735, "fusion_lon": 0.0, "bike_id": "12ddd50a665ee44005174b783fe823ed", "type": "electric_scooter", "name": "12ddd50a665ee44005174b783fe823ed", "rental_uris": {"android": "https://dc.lft.to/lastmile_qr_scan", "ios": "https://dc.lft.to/lastmile_qr_scan"}, "is_disabled": 0, "fusion_lat": 0.0, "lat": 38.924547, "is_reserved": 0}, {"lon": -77.04827583333334, "fusion_lon": 0.0, "bike_id": "b70655fe1f3dd3669a7d96cb874fb080", "type": "electric_scooter", "name": "b70655fe1f3dd3669a7d96cb874fb080", "rental_uris": {"android": "https://dc.lft.to/lastmile_qr_scan", "ios": "https://dc.lft.to/lastmile_qr_scan"}, "is_disabled": 0, "fusion_lat": 0.0, "lat": 38.91837833333334, "is_reserved": 0}, {"lon": -77.03161383333334, "fusion_lon": 0.0, "bike_id": "55ddd6a8b2715bb7850a9305db533fc0", "type": "electric_scooter", "name": "55ddd6a8b2715bb7850a9305db533fc0", "rental_uris": {"android": "https://dc.lft.to/lastmile_qr_scan", "ios": "https://dc.lft.to/lastmile_qr_scan"}, "is_disabled": 0, "fusion_lat": 0.0, "lat": 38.920144666666666, "is_reserved": 0}, {"lon": -76.96378516666667, "fusion_lon": 0.0, "bike_id": "346893906a91c18eb2c7a553b58f8bf8", "type": "electric_bike", "name": "346893906a91c18eb2c7a553b58f8bf8", "rental_uris": {"android": "https://dc.lft.to/lastmile_qr_scan", "ios": "https://dc.lft.to/lastmile_qr_scan"}, "is_disabled": 0, "fusion_lat": 0.0, "lat": 38.9489215, "is_reserved": 0}, {"lon": -77.04446866666666, "fusion_lon": 0.0, "bike_id": "1a1ec60c130e136916c64514ddeb1823", "type": "electric_scooter", "name": "1a1ec60c130e136916c64514ddeb1823", "rental_uris": {"android": "https://dc.lft.to/lastmile_qr_scan", "ios": "https://dc.lft.to/lastmile_qr_scan"}, "is_disabled": 0, "fusion_lat": 0.0, "lat": 38.896193833333335, "is_reserved": 0}, {"lon": -77.03667883333334, "fusion_lon": 0.0, "bike_id": "43db58eee183dffd4ae46c38bdb1ebe3", "type": "electric_bike", "name": "43db58eee183dffd4ae46c38bdb1ebe3", "rental_uris": {"android": "https://dc.lft.to/lastmile_qr_scan", "ios": "https://dc.lft.to/lastmile_qr_scan"}, "is_disabled": 0, "fusion_lat": 0.0, "lat": 38.996150166666666, "is_reserved": 0}, {"lon": -77.022214, "fusion_lon": 0.0, "bike_id": "07dc0967f6967ce310c9cc4630ab5fa2", "type": "electric_scooter", "name": "07dc0967f6967ce310c9cc4630ab5fa2", "rental_uris": {"android": "https://dc.lft.to/lastmile_qr_scan", "ios": "https://dc.lft.to/lastmile_qr_scan"}, "is_disabled": 0, "fusion_lat": 0.0, "lat": 38.892197, "is_reserved": 0},