{"data": {"bikes": [{"lat": 38.926164, "type": "electric_scooter", "is_disabled": 0, "name": "d6d59519dec4ea63edfbfcd1d4e07060", "bike_id": "d6d59519dec4ea63edfbfcd1d4e07060", "fusion_lon": 0.0, "rental_uris": {"ios": "https://dc.lft.to/lastmile_qr_scan", "android": "https://dc.lft.to/lastmile_qr_scan"}, "is_reserved": 0, "fusion_lat": 0.0, "lon": -77.02154766666666}, {"lat": 38.88818933333334, "type": "electric_scooter", "is_disabled": 0, "name": "c2b4d010c37c63c7d7140b7a8e99f061", "bike_id": "c2b4d010c37c63c7d7140b7a8e99f061", "fusion_lon": 0.0, "rental_uris": {"ios": "https://dc.lft.to/lastmile_qr_scan", "android": "https://dc.lft.to/lastmile_qr_scan"}, "is_reserved": 0, "fusion_lat": 0.0, "lon": -76.97704266666666}, {"lat": 38.9001235, "type": "electric_scooter", "is_disabled": 0, "name": "5ad1ffc9954c4a84052c3a38aaee5f63", "bike_id": "5ad1ffc9954c4a84052c3a38aaee5f63", "fusion_lon": 0.0, "rental_uris": {"ios": "https://dc.lft.to/lastmile_qr_scan", "android": "https://dc.lft.to/lastmile_qr_scan"}, "is_reserved": 0, "fusion_lat": 0.0, "lon": -76.93024066666666}, {"lat": 38.928843666666666, "type": "electric_scooter", "is_disabled": 0, "name": "c6610ca09f42e3d61719b2659f22e896", "bike_id": "c6610ca09f42e3d61719b2659f22e896", "fusion_lon": 0.0, "rental_uris": {"ios": "https://dc.lft.to/lastmile_qr_scan", "android": "https://dc.lft.to/lastmile_qr_scan"}, "is_reserved": 0, "fusion_lat": 0.0, "lon": -77.03354316666666}, {"lat": 38.91713216666667, "type": "electric_scooter", "is_disabled": 0, "name": "89e7dd1fa1935a9a9792eb6fb7db7f44", "bike_id": "89e7dd1fa1935a9a9792eb6fb7db7f44", "fusion_lon": 0.0, "rental_uris": {"ios": "https://dc.lft.to/lastmile_qr_scan", "android": "https://dc.lft.to/lastmile_qr_scan"}, "is_reserved": 0, "fusion_lat": 0.0, "lon": -77.03114083333334}, {"lat": 38.924195166666664, "type": "electric_scooter", "is_disabled": 0, "name": "806c4caa8d357939ffd9cb2cf8d2c6b5", "bike_id": "806c4caa8d357939ffd9cb2cf8d2c6b5", "fusion_lon": 0.0, "rental_uris": {"ios": "https://dc.lft.to/lastmile_qr_scan", "android": "https://dc.lft.to/lastmile_qr_scan"}, "is_reserved": 0, "fusion_lat": 0.0, "lon": -77.050653}, {"lat": 38.903951666666664, "type": "electric_scooter", "is_disabled": 0, "name": "942458f5c1575d8feb6a2cb4dc953512", "bike_id": "942458f5c1575d8feb6a2cb4dc953512", "fusion_lon": 0.0, "rental_uris": {"ios": "https://dc.lft.to/lastmile_qr_scan", "android": "https://dc.lft.to/lastmile_qr_scan"}, "is_reserved": 0, "fusion_lat": 0.0, "lon": -76.98108733333333}, {"lat": 38.895, "type": "electric_scooter", "is_disabled": 0, "name": "66a29ad2b32c65d805c2c7b8d4697d61", "bike_id": "66a29ad2b32c65d805c2c7b8d4697d61", "fusion_lon": 0.0, "rental_uris": {"ios": "https://dc.lft.to/lastmile_qr_scan", "android": "https://dc.lft.to/lastmile_qr_scan"}, "is_reserved": 0, "fusion_lat": 0.0, "lon": -77.0021035}, {"lat": 38.875954666666665, "type": "electric_scooter", "is_disabled": 0, "name": "7b0688bf4c3a3d41c99aec9710e517e8", "bike_id": "7b0688bf4c3a3d41c99aec9710e517e8", "fusion_lon": 0.0, "rental_uris": {"ios": "https://dc.lft.to/lastmile_qr_scan", "android": "https://dc.lft.to/lastmile_qr_scan"}, "is_reserved": 0, "fusion_lat": 0.0, "lon": -77.00586766666666}, {"lat": 38.9338435, "type": "electric_scooter", "is_disabled": 0, "name": "71d570f4c86b4ce566088f6ec507aa73", "bike_id": "71d570f4c86b4ce566088f6ec507aa73", "fusion_lon": 0.0, "rental_uris": {"ios": "https://dc.lft.to/lastmile_qr_scan", "android": "https://dc.lft.to/lastmile_qr_scan"}, "is_reserved": 0, "fusion_lat": 0.0, "lon": -77.02959883333334}, {"lat": 38.90856216666667, "type": "electric_scooter", "is_disabled": 0, "name": "ae66c2fa5791d814d0e5700dd5390416", "bike_id": "ae66c2fa5791d814d0e5700dd5390416", "fusion_lon": 0.0, "rental_uris": {"ios": "https://dc.lft.to/lastmile_qr_scan", "android": "https://dc.lft.to/lastmile_qr_scan"}, "is_reserved": 0, "fusion_lat": 0.0, "lon": -76.99679716666667}, {"lat": 38.90244033333333, "type": "electric_scooter", "is_disabled": 0, "name": "9bb2add461a131d4292bdcf77fe15c8c", "bike_id": "9bb2add461a131d4292bdcf77fe15c8c", "fusion_lon": 0.0, "rental_uris": {"ios": "https://dc.lft.to/lastmile_qr_scan", "android": "https://dc.lft.to/lastmile_qr_scan"}, "is_reserved": 0, "fusion_lat": 0.0, "lon": -77.00203283333333}, {"lat": 38.9225275, "type": "electric_scooter", "is_disabled": 0, "name": "d3d0b298cc74b9ae17cf67460e306a83", "bike_id": "d3d0b298cc74b9ae17cf67460e306a83", "fusion_lon": 0.0, "rental_uris": {"ios": "https://dc.lft.to/lastmile_qr_scan", "android": "https://dc.lft.to/lastmile_qr_scan"}, "is_reserved": 0, "fusion_lat": 0.0, "lon": -77.0436165}, {"lat": 38.890082166666666, "type": "electric_scooter", "is_disabled": 0, "name": "d5a57bebed5f686b85b47d04717bcec8", "bike_id": "d5a57bebed5f686b85b47d04717bcec8", "fusion_lon": 0.0, "rental_uris": {"ios": "https://dc.lft.to/lastmile_qr_scan", "android": "https://dc.lft.to/lastmile_qr_scan"}, "is_reserved": 0, "fusion_lat": 0.0, "lon": -76.93746266666666}, {"lat": 38.89218616666667, "type": "electric_scooter", "is_disabled": 0, "name": "a1510dac1a2e4ce9b11eb9a1fc6a076a", "bike_id": "a1510dac1a2e4ce9b11eb9a1fc6a076a", "fusion_lon": 0.0, "rental_uris": {"ios": "https://dc.lft.to/lastmile_qr_scan", "android": "https://dc.lft.to/lastmile_qr_scan"}, "is_reserved": 0, "fusion_lat": 0.0, "lon": -77.00344483333333}, {"lat": 38.905171333333335, "type": "electric_scooter", "is_disabled": 0, "name": "7122f9a851e445ad662fd5c0a9c24fa7", "bike_id": "7122f9a851e445ad662fd5c0a9c24fa7", "fusion_lon": 0.0, "rental_uris": {"ios": "https://dc.lft.to/lastmile_qr_scan", "android": "https://dc.lft.to/lastmile_qr_scan"}, "is_reserved": 0, "fusion_lat": 0.0, "lon": -77.0415015}, {"lat": 38.8870725, "type": "electric_scooter", "is_disabled": 0, "name": "fed5509748de92be04be0a54a73c258b", "bike_id": "fed5509748de92be04be0a54a73c258b", "fusion_lon": 0.0, "rental_uris": {"ios": "https://dc.lft.to/lastmile_qr_scan", "android": "https://dc.lft.to/lastmile_qr_scan"}, "is_reserved": 0, "fusion_lat": 0.0, "lon": -77.02171366666667}, {"lat": 38.898821166666664, "type": "electric_scooter", "is_disabled": 0, "name": "3bbd8ce89ee72fbbd9c59ef3588667bc", "bike_id": "3bbd8ce89ee72fbbd9c59ef3588667bc", "fusion_lon": 0.0, "rental_uris": {"ios": "https://dc.lft.to/lastmile_qr_scan", "android": "https://dc.lft.to/lastmile_qr_scan"}, "is_reserved": 0, "fusion_lat": 0.0, "lon": -76.98837716666667}, {"lat": 38.89902983333333, "type": "electric_scooter", "is_disabled": 0, "name": "a796201f1ee45ebeccac161b63f9b8d0", "bike_id": "a796201f1ee45ebeccac161b63f9b8d0", "fusion_lon": 0.0, "rental_uris": {"ios": "https://dc.lft.to/lastmile_qr_scan", "android": "https://dc.lft.to/lastmile_qr_scan"}, "is_reserved": 0, "fusion_lat": 0.0, "lon": -77.04059666666667}, {"lat": 38.871842, "type": "electric_scooter", "is_disabled": 0, "name": "520c9e90034bb7370ce713d2f9a734a2", "bike_id": "520c9e90034bb7370ce713d2f9a734a2", "fusion_lon": 0.0, "rental_uris": {"ios": "https://dc.lft.to/lastmile_qr_scan", "android": "https://dc.lft.to/lastmile_qr_scan"}, "is_reserved": 0, "fusion_lat": 0.0, "lon": -77.0064205}, {"lat": 38.9005615, "type": "electric_scooter", "is_disabled": 0, "name": "33f42a397f959f87ee8515e03752be2a", "bike_id": "33f42a397f959f87ee8515e03752be2a", "fusion_lon": 0.0, "rental_uris": {"ios": "https://dc.lft.to/lastmile_qr_scan", "android": "https://dc.lft.to/lastmile_qr_scan"}, "is_reserved": 0, "fusion_lat": 0.0, "lon": -77.03654033333333}, {"lat": 38.924492, "type": "electric_scooter", "is_disabled": 0, "name": "cafabe4bf34ca2a90a015fb66100958c", "bike_id": "cafabe4bf34ca2a90a015fb66100958c", "fusion_lon": 0.0, "rental_uris": {"ios": "https://dc.lft.to/lastmile_qr_scan", "android": "https://dc.lft.to/lastmile_qr_scan"}, "is_reserved": 0, "fusion_lat": 0.0, "lon": -77.03381683333333}, {"lat": 38.8975305, "type": "electric_scooter", "is_disabled": 0, "name": "d3b58bc3d4ad3740372dad0828b3c839", "bike_id": "d3b58bc3d4ad3740372dad0828b3c839", "fusion_lon": 0.0, "rental_uris": {"ios": "https://dc.lft.to/lastmile_qr_scan", "android": "https://dc.lft.to/lastmile_qr_scan"}, "is_reserved": 0, "fusion_lat": 0.0, "lon": -76.975762}, {"lat": 38.92074216666666, "type": "electric_scooter", "is_disabled": 0, "name": "7a25b905509ca424a3b0bee392050163", "bike_id": "7a25b905509ca424a3b0bee392050163", "fusion_lon": 0.0, "rental_uris": {"ios": "https://dc.lft.to/lastmile_qr_scan", "android": "https://dc.lft.to/lastmile_qr_scan"}, "is_reserved": 0, "fusion_lat": 0.0, "lon": -77.0425185}, {"lat": 38.89502983333333, "type": "electric_scooter", "is_disabled": 0, "name": "d56ecc64a6233fe8f47aedf68adb19fa", "bike_id": "d56ecc64a6233fe8f47aedf68adb19fa", "fusion_lon": 0.0, "rental_uris": {"ios": "https://dc.lft.to/lastmile_qr_scan", "android": "https://dc.lft.to/lastmile_qr_scan"}, "is_reserved": 0, "fusion_lat": 0.0, "lon": -77.046378}, {"lat": 38.919893, "type": "electric_scooter", "is_disabled": 0, "name": "39aeb97a915170fb8d0977afb061b38b", "bike_id": "39aeb97a915170fb8d0977afb061b38b", "fusion_lon": 0.0, "rental_uris": {"ios": "https://dc.lft.to/lastmile_qr_scan", "android": "https://dc.lft.to/lastmile_qr_scan"}, "is_reserved": 0, "fusion_lat": 0.0, "lon": -77.04152766666667}, {"lat": 38.92150266666667, "type": "electric_scooter", "is_disabled": 0, "name": "d0fb1489d74191e47c53df4fc44bd03c", "bike_id": "d0fb1489d74191e47c53df4fc44bd03c", "fusion_lon": 0.0, "rental_uris": {"ios": "https://dc.lft.to/lastmile_qr_scan", "android": "https://dc.lft.to/lastmile_qr_scan"}, "is_reserved": 0, "fusion_lat": 0.0, "lon": -77.03526983333333}, {"lat": 38.909132166666666, "type": "electric_scooter", "is_disabled": 0, "name": "a46b4149f62a853af52d6e9b92456c3e", "bike_id": "a46b4149f62a853af52d6e9b92456c3e", "fusion_lon": 0.0, "rental_uris": {"ios": "https://dc.lft.to/lastmile_qr_scan", "android": "https://dc.lft.to/lastmile_qr_scan"}, "is_reserved": 0, "fusion_lat": 0.0, "lon": -77.03374033333333}, {"lat": 38.89199216666667, "type": "electric_scooter", "is_disabled": 0, "name": "7aa4dbd333ca4c5976462208cf4054d0", "bike_id": "7aa4dbd333ca4c5976462208cf4054d0", "fusion_lon": 0.0, "rental_uris": {"ios": "https://dc.lft.to/lastmile_qr_scan", "android": "https://dc.lft.to/lastmile_qr_scan"}, "is_reserved": 0, "fusion_lat": 0.0, "lon": -77.002972}, {"lat": 38.92858533333333, "type": "electric_scooter", "is_disabled": 0, "name": "21f65cf50e3a98277f43bf64eec629b8", "bike_id": "21f65cf50e3a98277f43bf64eec629b8", "fusion_lon": 0.0, "rental_uris": {"ios": "https://dc.lft.to/lastmile_qr_scan", "android": "https://dc.lft.to/lastmile_qr_scan"}, "is_reserved": 0, "fusion_lat": 0.0, "lon": -77.01431633333333}, {"lat": 38.916199166666665, "type": "electric_scooter", "is_disabled": 0, "name": "e3eba9d222cc587b4267ca3f7696ae80", "bike_id": "e3eba9d222cc587b4267ca3f7696ae80", "fusion_lon": 0.0, "rental_uris": {"ios": "https://dc.lft.to/lastmile_qr_scan", "android": "https://dc.lft.to/lastmile_qr_scan"}, "is_reserved": 0, "fusion_lat": 0.0, "lon": -77.04591616666667}, {"lat": 38.90271033333333, "type": "electric_scooter", "is_disabled": 0, "name": "d295cde46db616d27a456173cdb19fa8", "bike_id": "d295cde46db616d27a456173cdb19fa8", "fusion_lon": 0.0, "rental_uris": {"ios": "https://dc.lft.to/lastmile_qr_scan", "android": "https://dc.lft.to/lastmile_qr_scan"}, "is_reserved": 0, "fusion_lat": 0.0, "lon": -77.02649216666667}, {"lat": 38.9363925, "type": "electric_scooter", "is_disabled": 0, "name": "f2bf8e79d79938fac671d27f704986a2", "bike_id": "f2bf8e79d79938fac671d27f704986a2", "fusion_lon": 0.0, "rental_uris": {"ios": "https://dc.lft.to/lastmile_qr_scan", "android": "https://dc.lft.to/lastmile_qr_scan"}, "is_reserved": 0, "fusion_lat": 0.0, "lon": -77.0642635}, {"lat": 38.90151083333333, "type": "electric_scooter", "is_disabled": 0, "name": "3845181bc3be6836cb7632b2a86f4a91", "bike_id": "3845181bc3be6836cb7632b2a86f4a91", "fusion_lon": 0.0, "rental_uris": {"ios": "https://dc.lft.to/lastmile_qr_scan", "android": "https://dc.lft.to/lastmile_qr_scan"}, "is_reserved": 0, "fusion_lat": 0.0, "lon": -77.0590895}, {"lat": 38.91958133333333, "type": "electric_scooter", "is_disabled": 0, "name": "3e619b55ec5a38a982008e177da26420", "bike_id": "3e619b55ec5a38a982008e177da26420", "fusion_lon": 0.0, "rental_uris": {"ios": "https://dc.lft.to/lastmile_qr_scan", "android": "https://dc.lft.to/lastmile_qr_scan"}, "is_reserved": 0, "fusion_lat": 0.0, "lon": -77.01898666666666}, {"lat": 38.92372233333333, "type": "electric_scooter", "is_disabled": 0, "name": "63c1bce9d372df831fd4a6702d041c1c", "bike_id": "63c1bce9d372df831fd4a6702d041c1c", "fusion_lon": 0.0, "rental_uris": {"ios": "https://dc.lft.to/lastmile_qr_scan", "android": "https://dc.lft.to/lastmile_qr_scan"}, "is_reserved": 0, "fusion_lat": 0.0, "lon": -77.0191275}, {"lat": 38.899603666666664, "type": "electric_scooter", "is_disabled": 0, "name": "a2a3115ea1547b66bff6087f0884c417", "bike_id": "a2a3115ea1547b66bff6087f0884c417", "fusion_lon": 0.0, "rental_uris": {"ios": "https://dc.lft.to/lastmile_qr_scan", "android": "https://dc.lft.to/lastmile_qr_scan"}, "is_reserved": 0, "fusion_lat": 0.0, "lon": -77.04503016666666}, {"lat": 38.917072, "type": "electric_scooter", "is_disabled": 0, "name": "a7a4143a22363c4bbb0451419813c04d", "bike_id": "a7a4143a22363c4bbb0451419813c04d", "fusion_lon": 0.0, "rental_uris": {"ios": "https://dc.lft.to/lastmile_qr_scan", "android": "https://dc.lft.to/lastmile_qr_scan"}, "is_reserved": 0, "fusion_lat": 0.0, "lon": -77.03333683333334}, {"lat": 38.989443666666666, "type": "electric_bike", "is_disabled": 0, "name": "91d0969cb9e3a59a0245113744d9af8d", "bike_id": "91d0969cb9e3a59a0245113744d9af8d", "fusion_lon": 0.0, "rental_uris": {"ios": "https://dc.lft.to/lastmile_qr_scan", "android": "https://dc.lft.to/lastmile_qr_scan"}, "is_reserved": 0, "fusion_lat": 0.0, "lon": -77.10096316666667}, {"lat": 38.89604683333334, "type": "electric_scooter", "is_disabled": 0, "name": "f3adf7ace427403fe777e0882f432220", "bike_id": "f3adf7ace427403fe777e0882f432220", "fusion_lon": 0.0, "rental_uris": {"ios": "https://dc.lft.to/lastmile_qr_scan", "android": "https://dc.lft.to/lastmile_qr_scan"}, "is_reserved": 0, "fusion_lat": 0.0, "lon": -77.04410616666667}, {"lat": 38.897623, "type": "electric_scooter", "is_disabled": 0, "name": "18f654e5db12bc2c39f847c0a2053d4a", "bike_id": "18f654e5db12bc2c39f847c0a2053d4a", "fusion_lon": 0.0, "rental_uris": {"ios": "https://dc.lft.to/lastmile_qr_scan", "android": "https://dc.lft.to/lastmile_qr_scan"}, "is_reserved": 0, "fusion_lat": 0.0, "lon": -77.02871716666667}, {"lat": 38.88711766666667, "type": "electric_scooter", "is_disabled": 0, "name": "51147ba5ee827dee4c10a082ad33f562", "bike_id": "51147ba5ee827dee4c10a082ad33f562", "fusion_lon": 0.0, "rental_uris": {"ios": "https://dc.lft.to/lastmile_qr_scan", "android": "https://dc.lft.to/lastmile_qr_scan"}, "is_reserved": 0, "fusion_lat": 0.0, "lon": -77.02828983333333}, {"lat": 38.89750933333333, "type": "electric_scooter", "is_disabled": 0, "name": "a2de73812e3ece4f8424d6b1936df82c", "bike_id": "a2de73812e3ece4f8424d6b1936df82c", "fusion_lon": 0.0, "rental_uris": {"ios": "https://dc.lft.to/lastmile_qr_scan", "android": "https://dc.lft.to/lastmile_qr_scan"}, "is_reserved": 0, "fusion_lat": 0.0, "lon": -77.0288875}, {"lat": 38.87767816666667, "type": "electric_scooter", "is_disabled": 0, "name": "1b61e4ace105f3e2f344a17d51284d85", "bike_id": "1b61e4ace105f3e2f344a17d51284d85", "fusion_lon": 0.0, "rental_uris": {"ios": "https://dc.lft.to/lastmile_qr_scan", "android": "https://dc.lft.to/lastmile_qr_scan"}, "is_reserved": 0, "fusion_lat": 0.0, "lon": -76.99512366666667}, {"lat": 38.899036, "type": "electric_scooter", "is_disabled": 0, "name": "99b6863a272933aa780f67fa29ba9670", "bike_id": "99b6863a272933aa780f67fa29ba9670", "fusion_lon": 0.0, "rental_uris": {"ios": "https://dc.lft.to/lastmile_qr_scan", "android": "https://dc.lft.to/lastmile_qr_scan"}, "is_reserved": 0, "fusion_lat": 0.0, "lon": -77.0395035}, {"lat": 38.90405, "type": "electric_scooter", "is_disabled": 0, "name": "1b4656ff8be25e0b6036a6cc2e513cc5", "bike_id": "1b4656ff8be25e0b6036a6cc2e513cc5", "fusion_lon": 0.0, "rental_uris": {"ios": "https://dc.lft.to/lastmile_qr_scan", "android": "https://dc.lft.to/lastmile_qr_scan"}, "is_reserved": 0, "fusion_lat": 0.0, "lon": -77.025984}, {"lat": 38.90528716666667, "type": "electric_scooter", "is_disabled": 0, "name": "8e98cf73498d1eeb4a3fdab73ee57319", "bike_id": "8e98cf73498d1eeb4a3fdab73ee57319", "fusion_lon": 0.0, "rental_uris": {"ios": "https://dc.lft.to/lastmile_qr_scan", "android": "https://dc.lft.to/lastmile_qr_scan"}, "is_reserved": 0, "fusion_lat": 0.0, "lon": -77.06095883333333}, {"lat": 38.91012116666667, "type": "electric_scooter", "is_disabled": 0, "name": "d6b7120f5f91244a01b4ae06d322fd22", "bike_id": "d6b7120f5f91244a01b4ae06d322fd22", "fusion_lon": 0.0, "rental_uris": {"ios": "https://dc.lft.to/lastmile_qr_scan", "android": "https://dc.lft.to/lastmile_qr_scan"}, "is_reserved": 0, "fusion_lat": 0.0, "lon": -76.9939395}, {"lat": 38.926812, "type": "electric_scooter", "is_disabled": 0, "name": "31d39fb2bdbd4cbc2dbbcf20e8c7419d", "bike_id": "31d39fb2bdbd4cbc2dbbcf20e8c7419d", "fusion_lon": 0.0, "rental_uris": {"ios": "https://dc.lft.to/lastmile_qr_scan", "android": "https://dc.lft.to/lastmile_qr_scan"}, "is_reserved": 0, "fusion_lat": 0.0, "lon": -77.02579233333333}, {"lat": 38.92646216666667, "type": "electric_scooter", "is_disabled": 0, "name": "21767e42e9e1d3601c26c490659da642", "bike_id": "21767e42e9e1d3601c26c490659da642", "fusion_lon": 0.0, "rental_uris": {"ios": "https://dc.lft.to/lastmile_qr_scan", "android": "https://dc.lft.to/lastmile_qr_scan"}, "is_reserved": 0, "fusion_lat": 0.0, "lon": -77.0372965}, {"lat": 38.92691816666667, "type": "electric_scooter", "is_disabled": 0, "name": "32a465a1f0d8606777bb40d0aa3d7ed4", "bike_id": "32a465a1f0d8606777bb40d0aa3d7ed4", "fusion_lon": 0.0, "rental_uris": {"ios": "https://dc.lft.to/lastmile_qr_scan", "android": "https://dc.lft.to/lastmile_qr_scan"}, "is_reserved": 0, "fusion_lat": 0.0, "lon": -77.02962766666667}, {"lat": 38.928564, "type": "electric_scooter", "is_disabled": 0, "name": "29963667bc16b63fe7e325305ee3b3e3", "bike_id": "29963667bc16b63fe7e325305ee3b3e3", "fusion_lon": 0.0, "rental_uris": {"ios": "https://dc.lft.to/lastmile_qr_scan", "android": "https://dc.lft.to/lastmile_qr_scan"}, "is_reserved": 0, "fusion_lat": 0.0, "lon": -77.03255583333333}, {"lat": 38.923950166666664, "type": "electric_scooter", "is_disabled": 0, "name": "00f88ec3aedaaa91bb458def8c625a12", "bike_id": "00f88ec3aedaaa91bb458def8c625a12", "fusion_lon": 0.0, "rental_uris": {"ios": "https://dc.lft.to/lastmile_qr_scan", "android": "https://dc.lft.to/lastmile_qr_scan"}, "is_reserved": 0, "fusion_lat": 0.0, "lon": -77.03402816666667}, {"lat": 38.9226055, "type": "electric_scooter", "is_disabled": 0, "name": "daf0df5921697c1ac997e984f63d9092", "bike_id": "daf0df5921697c1ac997e984f63d9092", "fusion_lon": 0.0, "rental_uris": {"ios": "https://dc.lft.to/lastmile_qr_scan", "android": "https://dc.lft.to/lastmile_qr_scan"}, "is_reserved": 0, "fusion_lat": 0.0, "lon": -77.01944183333333}, {"lat": 38.90032, "type": "electric_scooter", "is_disabled": 0, "name": "4a43591b55814ec03e683ea9cc44c59d", "bike_id": "4a43591b55814ec03e683ea9cc44c59d", "fusion_lon": 0.0, "rental_uris": {"ios": "https://dc.lft.to/lastmile_qr_scan", "android": "https://dc.lft.to/lastmile_qr_scan"}, "is_reserved": 0, "fusion_lat": 0.0, "lon": -76.99447033333334}, {"lat": 38.9324435, "type": "electric_scooter", "is_disabled": 0, "name": "a04642238adafc23c4957ffafbbbb23f", "bike_id": "a04642238adafc23c4957ffafbbbb23f", "fusion_lon": 0.0, "rental_uris": {"ios": "https://dc.lft.to/lastmile_qr_scan", "android": "https://dc.lft.to/lastmile_qr_scan"}, "is_reserved": 0, "fusion_lat": 0.0, "lon": -77.038547}, {"lat": 38.92602733333333, "type": "electric_scooter", "is_disabled": 0, "name": "0cff850a7e0e75129dd1c9c8fde5ae02", "bike_id": "0cff850a7e0e75129dd1c9c8fde5ae02", "fusion_lon": 0.0, "rental_uris": {"ios": "https://dc.lft.to/lastmile_qr_scan", "android": "https://dc.lft.to/lastmile_qr_scan"}, "is_reserved": 0, "fusion_lat": 0.0, "lon": -77.02155383333333}, {"lat": 38.91713466666667, "type": "electric_scooter", "is_disabled": 0, "name": "8c4ae6e8de35e7a68da68816adcc3d90", "bike_id": "8c4ae6e8de35e7a68da68816adcc3d90", "fusion_lon": 0.0, "rental_uris": {"ios": "https://dc.lft.to/lastmile_qr_scan", "android": "https://dc.lft.to/lastmile_qr_scan"}, "is_reserved": 0, "fusion_lat": 0.0, "lon": -77.03722966666666}, {"lat": 38.964111833333334, "type": "electric_scooter", "is_disabled": 0, "name": "7162998f95fc393c23850572a1cd5b40", "bike_id": "7162998f95fc393c23850572a1cd5b40", "fusion_lon": 0.0, "rental_uris": {"ios": "https://dc.lft.to/lastmile_qr_scan", "android": "https://dc.lft.to/lastmile_qr_scan"}, "is_reserved": 0, "fusion_lat": 0.0, "lon": -77.0328595}, {"lat": 38.875022333333334, "type": "electric_scooter", "is_disabled": 0, "name": "280e605c2395c148f778a7f0743863ae", "bike_id": "280e605c2395c148f778a7f0743863ae", "fusion_lon": 0.0, "rental_uris": {"ios": "https://dc.lft.to/lastmile_qr_scan", "android": "https://dc.lft.to/lastmile_qr_scan"}, "is_reserved": 0, "fusion_lat": 0.0, "lon": -76.99791583333334}, {"lat": 38.897519833333334, "type": "electric_scooter", "is_disabled": 0, "name": "af1d559f573781ad7d6660d564761c9a", "bike_id": "af1d559f573781ad7d6660d564761c9a", "fusion_lon": 0.0, "rental_uris": {"ios": "https://dc.lft.to/lastmile_qr_scan", "android": "https://dc.lft.to/lastmile_qr_scan"}, "is_reserved": 0, "fusion_lat": 0.0, "lon": -77.05526183333333}, {"lat": 38.902894, "type": "electric_scooter", "is_disabled": 0, "name": "97e1e4a7747e9e24f63d1f1c429bcd34", "bike_id": "97e1e4a7747e9e24f63d1f1c429bcd34", "fusion_lon": 0.0, "rental_uris": {"ios": "https://dc.lft.to/lastmile_qr_scan", "android": "https://dc.lft.to/lastmile_qr_scan"}, "is_reserved": 0, "fusion_lat": 0.0, "lon": -77.04599983333334}, {"lat": 38.90258983333333, "type": "electric_scooter", "is_disabled": 0, "name": "0bbbda4ad121959318cd9f2d1251b44f", "bike_id": "0bbbda4ad121959318cd9f2d1251b44f", "fusion_lon": 0.0, "rental_uris": {"ios": "https://dc.lft.to/lastmile_qr_scan", "android": "https://dc.lft.to/lastmile_qr_scan"}, "is_reserved": 0, "fusion_lat": 0.0, "lon": -77.03029883333333}, {"lat": 38.89502783333333, "type": "electric_scooter", "is_disabled": 0, "name": "98a67eeeec1e4e79eb1704b412b1847b", "bike_id": "98a67eeeec1e4e79eb1704b412b1847b", "fusion_lon": 0.0, "rental_uris": {"ios": "https://dc.lft.to/lastmile_qr_scan", "android": "https://dc.lft.to/lastmile_qr_scan"}, "is_reserved": 0, "fusion_lat": 0.0, "lon": -77.022825}, {"lat": 38.928237, "type": "electric_scooter", "is_disabled": 0, "name": "541b36cb93acb47691f4c595814da80f", "bike_id": "541b36cb93acb47691f4c595814da80f", "fusion_lon": 0.0, "rental_uris": {"ios": "https://dc.lft.to/lastmile_qr_scan", "android": "https://dc.lft.to/lastmile_qr_scan"}, "is_reserved": 0, "fusion_lat": 0.0, "lon": -77.02274416666667}, {"lat": 38.9038865, "type": "electric_scooter", "is_disabled": 0, "name": "9828ea7d43107e8f0baf839730802c4f", "bike_id": "9828ea7d43107e8f0baf839730802c4f", "fusion_lon": 0.0, "rental_uris": {"ios": "https://dc.lft.to/lastmile_qr_scan", "android": "https://dc.lft.to/lastmile_qr_scan"}, "is_reserved": 0, "fusion_lat": 0.0, "lon": -77.03587116666667}, {"lat": 38.870671333333334, "type": "electric_bike", "is_disabled": 0, "name": "735b7ce68320c336632607294b60a4c2", "bike_id": "735b7ce68320c336632607294b60a4c2", "fusion_lon": 0.0, "rental_uris": {"ios": "https://dc.lft.to/lastmile_qr_scan", "android": "https://dc.lft.to/lastmile_qr_scan"}, "is_reserved": 0, "fusion_lat": 0.0, "lon": -77.11039916666667}, {"lat": 38.906679, "type": "electric_scooter", "is_disabled": 0, "name": "35260a99b21c50ed3e0e316bd6f97079", "bike_id": "35260a99b21c50ed3e0e316bd6f97079", "fusion_lon": 0.0, "rental_uris": {"ios": "https://dc.lft.to/lastmile_qr_scan", "android": "https://dc.lft.to/lastmile_qr_scan"}, "is_reserved": 0, "fusion_lat": 0.0, "lon": -77.0344435}, {"lat": 38.915778, "type": "electric_scooter", "is_disabled": 0, "name": "76c10266ef410e2be8b0e569c33057be", "bike_id": "76c10266ef410e2be8b0e569c33057be", "fusion_lon": 0.0, "rental_uris": {"ios": "https://dc.lft.to/lastmile_qr_scan", "android": "https://dc.lft.to/lastmile_qr_scan"}, "is_reserved": 0, "fusion_lat": 0.0, "lon": -77.03179766666666}, {"lat": 38.9340825, "type": "electric_scooter", "is_disabled": 0, "name": "c2e5a3aef08e0c5ac0fd714985f64e69", "bike_id": "c2e5a3aef08e0c5ac0fd714985f64e69", "fusion_lon": 0.0, "rental_uris": {"ios": "https://dc.lft.to/lastmile_qr_scan", "android": "https://dc.lft.to/lastmile_qr_scan"}, "is_reserved": 0, "fusion_lat": 0.0, "lon": -77.03214033333333}, {"lat": 38.905744, "type": "electric_scooter", "is_disabled": 0, "name": "084a8fe3ef75dad3cc7f13141206c096", "bike_id": "084a8fe3ef75dad3cc7f13141206c096", "fusion_lon": 0.0, "rental_uris": {"ios": "https://dc.lft.to/lastmile_qr_scan", "android": "https://dc.lft.to/lastmile_qr_scan"}, "is_reserved": 0, "fusion_lat": 0.0, "lon": -77.005894}, {"lat": 38.915531, "type": "electric_scooter", "is_disabled": 0, "name": "f0ed4fe25db5b3463a0c1e6e235a872a", "bike_id": "f0ed4fe25db5b3463a0c1e6e235a872a", "fusion_lon": 0.0, "rental_uris": {"ios": "https://dc.lft.to/lastmile_qr_scan", "android": "https://dc.lft.to/lastmile_qr_scan"}, "is_reserved": 0, "fusion_lat": 0.0, "lon": -77.04617483333334}, {"lat": 38.90168366666666, "type": "electric_bike", "is_disabled": 0, "name": "b1a3a58b492c2671f27032d874fde7e2", "bike_id": "b1a3a58b492c2671f27032d874fde7e2", "fusion_lon": 0.0, "rental_uris": {"ios": "https://dc.lft.to/lastmile_qr_scan", "android": "https://dc.lft.to/lastmile_qr_scan"}, "is_reserved": 0, "fusion_lat": 0.0, "lon": -76.97686683333333}, {"lat": 38.90383716666667, "type": "electric_scooter", "is_disabled": 0, "name": "9d63679900b96e6bd9c2db8ad2e1bea1", "bike_id": "9d63679900b96e6bd9c2db8ad2e1bea1", "fusion_lon": 0.0, "rental_uris": {"ios": "https://dc.lft.to/lastmile_qr_scan", "android": "https://dc.lft.to/lastmile_qr_scan"}, "is_reserved": 0, "fusion_lat": 0.0, "lon": -77.04212516666666}, {"lat": 38.922632, "type": "electric_bike", "is_disabled": 0, "name": "e93d2e2757f76927f5474e5884471814", "bike_id": "e93d2e2757f76927f5474e5884471814", "fusion_lon": 0.0, "rental_uris": {"ios": "https://dc.lft.to/lastmile_qr_scan", "android": "https://dc.lft.to/lastmile_qr_scan"}, "is_reserved": 0, "fusion_lat": 0.0, "lon": -76.986345}, {"lat": 38.920022833333334, "type": "electric_scooter", "is_disabled": 0, "name": "6e99212fd66586f3e3dcd77d8581315d", "bike_id": "6e99212fd66586f3e3dcd77d8581315d", "fusion_lon": 0.0, "rental_uris": {"ios": "https://dc.lft.to/lastmile_qr_scan", "android": "https://dc.lft.to/lastmile_qr_scan"}, "is_reserved": 0, "fusion_lat": 0.0, "lon": -76.98391116666667}, {"lat": 38.854411, "type": "electric_scooter", "is_disabled": 0, "name": "1070100b7cbc7c7ed2494f322d27e6fa", "bike_id": "1070100b7cbc7c7ed2494f322d27e6fa", "fusion_lon": 0.0, "rental_uris": {"ios": "https://dc.lft.to/lastmile_qr_scan", "android": "https://dc.lft.to/lastmile_qr_scan"}, "is_reserved": 0, "fusion_lat": 0.0, "lon": -76.97169116666667}, {"lat": 38.903971166666665, "type": "electric_scooter", "is_disabled": 0, "name": "adadb51a6832e66ac1314a62553044fb", "bike_id": "adadb51a6832e66ac1314a62553044fb", "fusion_lon": 0.0, "rental_uris": {"ios": "https://dc.lft.to/lastmile_qr_scan", "android": "https://dc.lft.to/lastmile_qr_scan"}, "is_reserved": 0, "fusion_lat": 0.0, "lon": -77.06295283333333}, {"lat": 38.899842666666665, "type": "electric_scooter", "is_disabled": 0, "name": "5025d28beaaab7bff5bd1c56e7ee1f59", "bike_id": "5025d28beaaab7bff5bd1c56e7ee1f59", "fusion_lon": 0.0, "rental_uris": {"ios": "https://dc.lft.to/lastmile_qr_scan", "android": "https://dc.lft.to/lastmile_qr_scan"}, "is_reserved": 0, "fusion_lat": 0.0, "lon": -77.02086716666666}, {"lat": 38.898534833333336, "type": "electric_bike", "is_disabled": 0, "name": "c3646fbc3758ed26567d9631b22c44c2", "bike_id": "c3646fbc3758ed26567d9631b22c44c2", "fusion_lon": 0.0, "rental_uris": {"ios": "https://dc.lft.to/lastmile_qr_scan", "android": "https://dc.lft.to/lastmile_qr_scan"}, "is_reserved": 0, "fusion_lat": 0.0, "lon": -77.04368816666667}, {"lat": 38.892254, "type": "electric_scooter", "is_disabled": 0, "name": "cd2d4c4a57fa8fbf54cd7e83b909b384", "bike_id": "cd2d4c4a57fa8fbf54cd7e83b909b384", "fusion_lon": 0.0, "rental_uris": {"ios": "https://dc.lft.to/lastmile_qr_scan", "android": "https://dc.lft.to/lastmile_qr_scan"}, "is_reserved": 0, "fusion_lat": 0.0, "lon": -77.0436975}, {"lat": 38.90194483333333, "type": "electric_scooter", "is_disabled": 0, "name": "ce94b127e0679a0eadd4352ad6560a90", "bike_id": "ce94b127e0679a0eadd4352ad6560a90", "fusion_lon": 0.0, "rental_uris": {"ios": "https://dc.lft.to/lastmile_qr_scan", "android": "https://dc.lft.to/lastmile_qr_scan"}, "is_reserved": 0, "fusion_lat": 0.0, "lon": -77.00124716666667}, {"lat": 38.906702, "type": "electric_scooter", "is_disabled": 0, "name": "ed4149d6517dd3f2b5c90a7fc3def170", "bike_id": "ed4149d6517dd3f2b5c90a7fc3def170", "fusion_lon": 0.0, "rental_uris": {"ios": "https://dc.lft.to/lastmile_qr_scan", "android": "https://dc.lft.to/lastmile_qr_scan"}, "is_reserved": 0, "fusion_lat": 0.0, "lon": -77.02710883333333}, {"lat": 38.89606166666667, "type": "electric_scooter", "is_disabled": 0, "name": "cd9c612b978db3ace216fdd42c948876", "bike_id": "cd9c612b978db3ace216fdd42c948876", "fusion_lon": 0.0, "rental_uris": {"ios": "https://dc.lft.to/lastmile_qr_scan", "android": "https://dc.lft.to/lastmile_qr_scan"}, "is_reserved": 0, "fusion_lat": 0.0, "lon": -77.0543655}, {"lat": 38.922816833333336, "type": "electric_scooter", "is_disabled": 0, "name": "441d7360ab571f47e1eb57b3072f9e51", "bike_id": "441d7360ab571f47e1eb57b3072f9e51", "fusion_lon": 0.0, "rental_uris": {"ios": "https://dc.lft.to/lastmile_qr_scan", "android": "https://dc.lft.to/lastmile_qr_scan"}, "is_reserved": 0, "fusion_lat": 0.0, "lon": -77.02983233333333}, {"lat": 38.88672416666667, "type": "electric_scooter", "is_disabled": 0, "name": "24292215da6e9d81513e2e3468e5e803", "bike_id": "24292215da6e9d81513e2e3468e5e803", "fusion_lon": 0.0, "rental_uris": {"ios": "https://dc.lft.to/lastmile_qr_scan", "android": "https://dc.lft.to/lastmile_qr_scan"}, "is_reserved": 0, "fusion_lat": 0.0, "lon": -77.02170216666667}, {"lat": 38.8862485, "type": "electric_scooter", "is_disabled": 0, "name": "8d88f10a1bc45e882e5fc5dd11972f88", "bike_id": "8d88f10a1bc45e882e5fc5dd11972f88", "fusion_lon": 0.0, "rental_uris": {"ios": "https://dc.lft.to/lastmile_qr_scan", "android": "https://dc.lft.to/lastmile_qr_scan"}, "is_reserved": 0, "fusion_lat": 0.0, "lon": -77.03171316666666}, {"lat": 38.897579, "type": "electric_scooter", "is_disabled": 0, "name": "b6233966532f0ae62411d6249c1e2d17", "bike_id": "b6233966532f0ae62411d6249c1e2d17", "fusion_lon": 0.0, "rental_uris": {"ios": "https://dc.lft.to/lastmile_qr_scan", "android": "https://dc.lft.to/lastmile_qr_scan"}, "is_reserved": 0, "fusion_lat": 0.0, "lon": -77.0267875}, {"lat": 38.89335116666667, "type": "electric_scooter", "is_disabled": 0, "name": "25aaf34721a0672dcb59de89b944b1f7", "bike_id": "25aaf34721a0672dcb59de89b944b1f7", "fusion_lon": 0.0, "rental_uris": {"ios": "https://dc.lft.to/lastmile_qr_scan", "android": "https://dc.lft.to/lastmile_qr_scan"}, "is_reserved": 0, "fusion_lat": 0.0, "lon": -76.93925316666666}, {"lat": 38.9448745, "type": "electric_scooter", "is_disabled": 0, "name": "cb8a56db84b8e7500742ecf0f59ba2a6", "bike_id": "cb8a56db84b8e7500742ecf0f59ba2a6", "fusion_lon": 0.0, "rental_uris": {"ios": "https://dc.lft.to/lastmile_qr_scan", "android": "https://dc.lft.to/lastmile_qr_scan"}, "is_reserved": 0, "fusion_lat": 0.0, "lon": -77.06406966666667}, {"lat": 38.85247666666667, "type": "electric_bike", "is_disabled": 0, "name": "15bbe7fb8e88f1ff504d158dca6a1191", "bike_id": "15bbe7fb8e88f1ff504d158dca6a1191", "fusion_lon": 0.0, "rental_uris": {"ios": "https://dc.lft.to/lastmile_qr_scan", "android": "https://dc.lft.to/lastmile_qr_scan"}, "is_reserved": 0, "fusion_lat": 0.0, "lon": -77.11429316666667}, {"lat": 38.90059683333333, "type": "electric_scooter", "is_disabled": 0, "name": "736d4a5bacb602c7344b1a8ef53f5753", "bike_id": "736d4a5bacb602c7344b1a8ef53f5753", "fusion_lon": 0.0, "rental_uris": {"ios": "https://dc.lft.to/lastmile_qr_scan", "android": "https://dc.lft.to/lastmile_qr_scan"}, "is_reserved": 0, "fusion_lat": 0.0, "lon": -76.984829}, {"lat": 38.783076, "type": "electric_bike", "is_disabled": 0, "name": "3755d03c17ced5907c074f647bfb3a1a", "bike_id": "3755d03c17ced5907c074f647bfb3a1a", "fusion_lon": 0.0, "rental_uris": {"ios": "https://dc.lft.to/lastmile_qr_scan", "android": "https://dc.lft.to/lastmile_qr_scan"}, "is_reserved": 0, "fusion_lat": 0.0, "lon": -77.11409116666667}, {"lat": 38.8832605, "type": "electric_scooter", "is_disabled": 0, "name": "3452d7485d27eae4d978eb7f215cde2a", "bike_id": "3452d7485d27eae4d978eb7f215cde2a", "fusion_lon": 0.0, "rental_uris": {"ios": "https://dc.lft.to/lastmile_qr_scan", "android": "https://dc.lft.to/lastmile_qr_scan"}, "is_reserved": 0, "fusion_lat": 0.0, "lon": -77.009442}, {"lat": 38.92340383333333, "type": "electric_scooter", "is_disabled": 0, "name": "06ccda8b44fde335cc54a8ac7145972f", "bike_id": "06ccda8b44fde335cc54a8ac7145972f", "fusion_lon": 0.0, "rental_uris": {"ios": "https://dc.lft.to/lastmile_qr_scan", "android": "https://dc.lft.to/lastmile_qr_scan"}, "is_reserved": 0, "fusion_lat": 0.0, "lon": -77.05671016666666}, {"lat": 38.9093095, "type": "electric_scooter", "is_disabled": 0, "name": "6012def5de8ac462cb1791c5464707ce", "bike_id": "6012def5de8ac462cb1791c5464707ce", "fusion_lon": 0.0, "rental_uris": {"ios": "https://dc.lft.to/lastmile_qr_scan", "android": "https://dc.lft.to/lastmile_qr_scan"}, "is_reserved": 0, "fusion_lat": 0.0, "lon": -76.98465516666667}, {"lat": 38.89643133333333, "type": "electric_scooter", "is_disabled": 0, "name": "0e789181018bf408bac9691a54ee6f62", "bike_id": "0e789181018bf408bac9691a54ee6f62", "fusion_lon": 0.0, "rental_uris": {"ios": "https://dc.lft.to/lastmile_qr_scan", "android": "https://dc.lft.to/lastmile_qr_scan"}, "is_reserved": 0, "fusion_lat": 0.0, "lon": -77.04009233333333}, {"lat": 38.89752166666667, "type": "electric_scooter", "is_disabled": 0, "name": "52e90195e253b2dac882345cc1b13c79", "bike_id": "52e90195e253b2dac882345cc1b13c79", "fusion_lon": 0.0, "rental_uris": {"ios": "https://dc.lft.to/lastmile_qr_scan", "android": "https://dc.lft.to/lastmile_qr_scan"}, "is_reserved": 0, "fusion_lat": 0.0, "lon": -77.01904866666666}, {"lat": 38.923152, "type": "electric_scooter", "is_disabled": 0, "name": "f15cfc0f47100a67fdefd45229edb095", "bike_id": "f15cfc0f47100a67fdefd45229edb095", "fusion_lon": 0.0, "rental_uris": {"ios": "https://dc.lft.to/lastmile_qr_scan", "android": "https://dc.lft.to/lastmile_qr_scan"}, "is_reserved": 0, "fusion_lat": 0.0, "lon": -77.01954166666667}, {"lat": 38.98841083333333, "type": "electric_bike", "is_disabled": 0, "name": "3d6115f0344015e52483bc425b8bfba2", "bike_id": "3d6115f0344015e52483bc425b8bfba2", "fusion_lon": 0.0, "rental_uris": {"ios": "https://dc.lft.to/lastmile_qr_scan", "android": "https://dc.lft.to/lastmile_qr_scan"}, "is_reserved": 0, "fusion_lat": 0.0, "lon": -77.02649533333333}, {"lat": 38.901566, "type": "electric_scooter", "is_disabled": 0, "name": "c6fa73959399529e4b0db15efd7980e6", "bike_id": "c6fa73959399529e4b0db15efd7980e6", "fusion_lon": 0.0, "rental_uris": {"ios": "https://dc.lft.to/lastmile_qr_scan", "android": "https://dc.lft.to/lastmile_qr_scan"}, "is_reserved": 0, "fusion_lat": 0.0, "lon": -76.98065083333333}, {"lat": 38.87041583333333, "type": "electric_bike", "is_disabled": 0, "name": "94620fe26d623ee9eae6a515f13440db", "bike_id": "94620fe26d623ee9eae6a515f13440db", "fusion_lon": 0.0, "rental_uris": {"ios": "https://dc.lft.to/lastmile_qr_scan", "android": "https://dc.lft.to/lastmile_qr_scan"}, "is_reserved": 0, "fusion_lat": 0.0, "lon": -77.22905466666667}, {"lat": 38.920582833333334, "type": "electric_scooter", "is_disabled": 0, "name": "e7c026fc81f335aa8ecd2875be305f65", "bike_id": "e7c026fc81f335aa8ecd2875be305f65", "fusion_lon": 0.0, "rental_uris": {"ios": "https://dc.lft.to/lastmile_qr_scan", "android": "https://dc.lft.to/lastmile_qr_scan"}, "is_reserved": 0, "fusion_lat": 0.0, "lon": -77.02352816666667}, {"lat": 38.9004255, "type": "electric_scooter", "is_disabled": 0, "name": "caf5508539a60b6a012cacb4739e0aa2", "bike_id": "caf5508539a60b6a012cacb4739e0aa2", "fusion_lon": 0.0, "rental_uris": {"ios": "https://dc.lft.to/lastmile_qr_scan", "android": "https://dc.lft.to/lastmile_qr_scan"}, "is_reserved": 0, "fusion_lat": 0.0, "lon": -76.98831966666667}, {"lat": 38.932413, "type": "electric_scooter", "is_disabled": 0, "name": "15ebf5e668842a6a4974540cf8d29efd", "bike_id": "15ebf5e668842a6a4974540cf8d29efd", "fusion_lon": 0.0, "rental_uris": {"ios": "https://dc.lft.to/lastmile_qr_scan", "android": "https://dc.lft.to/lastmile_qr_scan"}, "is_reserved": 0, "fusion_lat": 0.0, "lon": -77.03278383333334}, {"lat": 38.89710066666667, "type": "electric_scooter", "is_disabled": 0, "name": "3e5d4db41bb20487b64e63dad662ff19", "bike_id": "3e5d4db41bb20487b64e63dad662ff19", "fusion_lon": 0.0, "rental_uris": {"ios": "https://dc.lft.to/lastmile_qr_scan", "android": "https://dc.lft.to/lastmile_qr_scan"}, "is_reserved": 0, "fusion_lat": 0.0, "lon": -76.9911515}, {"lat": 38.92795016666667, "type": "electric_scooter", "is_disabled": 0, "name": "61ff311dd34eaff725c28b65929d5458", "bike_id": "61ff311dd34eaff725c28b65929d5458", "fusion_lon": 0.0, "rental_uris": {"ios": "https://dc.lft.to/lastmile_qr_scan", "android": "https://dc.lft.to/lastmile_qr_scan"}, "is_reserved": 0, "fusion_lat": 0.0, "lon": -76.99616483333334}, {"lat": 38.89485466666667, "type": "electric_scooter", "is_disabled": 0, "name": "a5e697015497fc7415249d8354c78608", "bike_id": "a5e697015497fc7415249d8354c78608", "fusion_lon": 0.0, "rental_uris": {"ios": "https://dc.lft.to/lastmile_qr_scan", "android": "https://dc.lft.to/lastmile_qr_scan"}, "is_reserved": 0, "fusion_lat": 0.0, "lon": -76.99439633333333}, {"lat": 38.92766616666667, "type": "electric_scooter", "is_disabled": 0, "name": "3a63fff877bdc198f21952a70cfd1350", "bike_id": "3a63fff877bdc198f21952a70cfd1350", "fusion_lon": 0.0, "rental_uris": {"ios": "https://dc.lft.to/lastmile_qr_scan", "android": "https://dc.lft.to/lastmile_qr_scan"}, "is_reserved": 0, "fusion_lat": 0.0, "lon": -77.03202783333333}, {"lat": 38.900959666666665, "type": "electric_scooter", "is_disabled": 0, "name": "766e3451f1e217bf5e35a9875ac39627", "bike_id": "766e3451f1e217bf5e35a9875ac39627", "fusion_lon": 0.0, "rental_uris": {"ios": "https://dc.lft.to/lastmile_qr_scan", "android": "https://dc.lft.to/lastmile_qr_scan"}, "is_reserved": 0, "fusion_lat": 0.0, "lon": -77.01991766666667}, {"lat": 38.904424, "type": "electric_scooter", "is_disabled": 0, "name": "db8aeb98bef1bc0b9d4890778a4ee236", "bike_id": "db8aeb98bef1bc0b9d4890778a4ee236", "fusion_lon": 0.0, "rental_uris": {"ios": "https://dc.lft.to/lastmile_qr_scan", "android": "https://dc.lft.to/lastmile_qr_scan"}, "is_reserved": 0, "fusion_lat": 0.0, "lon": -77.0363855}, {"lat": 38.998974833333335, "type": "electric_bike", "is_disabled": 0, "name": "24eeae64e9c3f433c268ddf99b3026c2", "bike_id": "24eeae64e9c3f433c268ddf99b3026c2", "fusion_lon": 0.0, "rental_uris": {"ios": "https://dc.lft.to/lastmile_qr_scan", "android": "https://dc.lft.to/lastmile_qr_scan"}, "is_reserved": 0, "fusion_lat": 0.0, "lon": -76.90860383333333}, {"lat": 38.903985666666664, "type": "electric_scooter", "is_disabled": 0, "name": "0491e24b20fb61cb50b490e8a2438639", "bike_id": "0491e24b20fb61cb50b490e8a2438639", "fusion_lon": 0.0, "rental_uris": {"ios": "https://dc.lft.to/lastmile_qr_scan", "android": "https://dc.lft.to/lastmile_qr_scan"}, "is_reserved": 0, "fusion_lat": 0.0, "lon": -77.00434266666667}, {"lat": 38.8976515, "type": "electric_scooter", "is_disabled": 0, "name": "ae3c8f20c021201798a2f0f679515498", "bike_id": "ae3c8f20c021201798a2f0f679515498", "fusion_lon": 0.0, "rental_uris": {"ios": "https://dc.lft.to/lastmile_qr_scan", "android": "https://dc.lft.to/lastmile_qr_scan"}, "is_reserved": 0, "fusion_lat": 0.0, "lon": -77.029129}, {"lat": 38.9004695, "type": "electric_bike", "is_disabled": 0, "name": "bae04bf9af4e50430e1ab729156409d1", "bike_id": "bae04bf9af4e50430e1ab729156409d1", "fusion_lon": 0.0, "rental_uris": {"ios": "https://dc.lft.to/lastmile_qr_scan", "android": "https://dc.lft.to/lastmile_qr_scan"}, "is_reserved": 0, "fusion_lat": 0.0, "lon": -76.97228483333333}, {"lat": 38.90500383333333, "type": "electric_scooter", "is_disabled": 0, "name": "0f454ae09b49aeb3fa83ec11aa5bcfc2", "bike_id": "0f454ae09b49aeb3fa83ec11aa5bcfc2", "fusion_lon": 0.0, "rental_uris": {"ios": "https://dc.lft.to/lastmile_qr_scan", "android": "https://dc.lft.to/lastmile_qr_scan"}, "is_reserved": 0, "fusion_lat": 0.0, "lon": -77.02714666666667}, {"lat": 38.9003495, "type": "electric_scooter", "is_disabled": 0, "name": "8565b5c4cdee62f1442714ddbccb751b", "bike_id": "8565b5c4cdee62f1442714ddbccb751b", "fusion_lon": 0.0, "rental_uris": {"ios": "https://dc.lft.to/lastmile_qr_scan", "android": "https://dc.lft.to/lastmile_qr_scan"}, "is_reserved": 0, "fusion_lat": 0.0, "lon": -76.98757716666667}, {"lat": 38.90610016666667, "type": "electric_bike", "is_disabled": 0, "name": "487bafcd259ff649cc066a0db9de598c", "bike_id": "487bafcd259ff649cc066a0db9de598c", "fusion_lon": 0.0, "rental_uris": {"ios": "https://dc.lft.to/lastmile_qr_scan", "android": "https://dc.lft.to/lastmile_qr_scan"}, "is_reserved": 0, "fusion_lat": 0.0, "lon": -77.1289045}, {"lat": 38.86750816666667, "type": "electric_bike", "is_disabled": 0, "name": "f94f2aa93dd5129d44bdf31255ca73ae", "bike_id": "f94f2aa93dd5129d44bdf31255ca73ae", "fusion_lon": 0.0, "rental_uris": {"ios": "https://dc.lft.to/lastmile_qr_scan", "android": "https://dc.lft.to/lastmile_qr_scan"}, "is_reserved": 0, "fusion_lat": 0.0, "lon": -76.98849616666666}, {"lat": 38.89610883333334, "type": "electric_scooter", "is_disabled": 0, "name": "cc8f90b4320650c343d9e3b43502f144", "bike_id": "cc8f90b4320650c343d9e3b43502f144", "fusion_lon": 0.0, "rental_uris": {"ios": "https://dc.lft.to/lastmile_qr_scan", "android": "https://dc.lft.to/lastmile_qr_scan"}, "is_reserved": 0, "fusion_lat": 0.0, "lon": -77.04511416666666}, {"lat": 38.90129683333333, "type": "electric_scooter", "is_disabled": 0, "name": "9166644c47b8d4b9314cfb500fb40da0", "bike_id": "9166644c47b8d4b9314cfb500fb40da0", "fusion_lon": 0.0, "rental_uris": {"ios": "https://dc.lft.to/lastmile_qr_scan", "android": "https://dc.lft.to/lastmile_qr_scan"}, "is_reserved": 0, "fusion_lat": 0.0, "lon": -77.02304066666666}, {"lat": 38.92643016666667, "type": "electric_scooter", "is_disabled": 0, "name": "93902ba74f0499e2ad1a5d67009eb68e", "bike_id": "93902ba74f0499e2ad1a5d67009eb68e", "fusion_lon": 0.0, "rental_uris": {"ios": "https://dc.lft.to/lastmile_qr_scan", "android": "https://dc.lft.to/lastmile_qr_scan"}, "is_reserved": 0, "fusion_lat": 0.0, "lon": -77.03715116666666}, {"lat": 38.88074866666667, "type": "electric_scooter", "is_disabled": 0, "name": "6d0c94c0a432b2e56a3f84db9e60dbd9", "bike_id": "6d0c94c0a432b2e56a3f84db9e60dbd9", "fusion_lon": 0.0, "rental_uris": {"ios": "https://dc.lft.to/lastmile_qr_scan", "android": "https://dc.lft.to/lastmile_qr_scan"}, "is_reserved": 0, "fusion_lat": 0.0, "lon": -77.0118145}, {"lat": 38.89580216666667, "type": "electric_scooter", "is_disabled": 0, "name": "db52b9524c067c92fc80269ec057fddd", "bike_id": "db52b9524c067c92fc80269ec057fddd", "fusion_lon": 0.0, "rental_uris": {"ios": "https://dc.lft.to/lastmile_qr_scan", "android": "https://dc.lft.to/lastmile_qr_scan"}, "is_reserved": 0, "fusion_lat": 0.0, "lon": -77.03182016666666}, {"lat": 38.92268966666666, "type": "electric_scooter", "is_disabled": 0, "name": "cb6f3980ff50265a4b429b1b9bbc26e3", "bike_id": "cb6f3980ff50265a4b429b1b9bbc26e3", "fusion_lon": 0.0, "rental_uris": {"ios": "https://dc.lft.to/lastmile_qr_scan", "android": "https://dc.lft.to/lastmile_qr_scan"}, "is_reserved": 0, "fusion_lat": 0.0, "lon": -77.0194855}, {"lat": 38.9215565, "type": "electric_scooter", "is_disabled": 0, "name": "4500917df362912d2286494846c49ba6", "bike_id": "4500917df362912d2286494846c49ba6", "fusion_lon": 0.0, "rental_uris": {"ios": "https://dc.lft.to/lastmile_qr_scan", "android": "https://dc.lft.to/lastmile_qr_scan"}, "is_reserved": 0, "fusion_lat": 0.0, "lon": -77.042142}, {"lat": 38.90281783333333, "type": "electric_scooter", "is_disabled": 0, "name": "1c951b1bfe145d7a42f64cb62b7662d6", "bike_id": "1c951b1bfe145d7a42f64cb62b7662d6", "fusion_lon": 0.0, "rental_uris": {"ios": "https://dc.lft.to/lastmile_qr_scan", "android": "https://dc.lft.to/lastmile_qr_scan"}, "is_reserved": 0, "fusion_lat": 0.0, "lon": -77.03360566666667}, {"lat": 38.898286, "type": "electric_scooter", "is_disabled": 0, "name": "5cd8ee01bb51054330b7d61af5fe4084", "bike_id": "5cd8ee01bb51054330b7d61af5fe4084", "fusion_lon": 0.0, "rental_uris": {"ios": "https://dc.lft.to/lastmile_qr_scan", "android": "https://dc.lft.to/lastmile_qr_scan"}, "is_reserved": 0, "fusion_lat": 0.0, "lon": -76.93008783333333}, {"lat": 38.8622475, "type": "electric_scooter", "is_disabled": 0, "name": "fa2bdc3b8d13e52399c3b51c903ecb51", "bike_id": "fa2bdc3b8d13e52399c3b51c903ecb51", "fusion_lon": 0.0, "rental_uris": {"ios": "https://dc.lft.to/lastmile_qr_scan", "android": "https://dc.lft.to/lastmile_qr_scan"}, "is_reserved": 0, "fusion_lat": 0.0, "lon": -76.99459533333334}, {"lat": 38.90053916666667, "type": "electric_scooter", "is_disabled": 0, "name": "1dd516b8deb79dce368b8dd4c3645004", "bike_id": "1dd516b8deb79dce368b8dd4c3645004", "fusion_lon": 0.0, "rental_uris": {"ios": "https://dc.lft.to/lastmile_qr_scan", "android": "https://dc.lft.to/lastmile_qr_scan"}, "is_reserved": 0, "fusion_lat": 0.0, "lon": -77.02966116666667}, {"lat": 38.89218916666667, "type": "electric_scooter", "is_disabled": 0, "name": "d9d139f2edfdbb7c730c4790fe92a7f0", "bike_id": "d9d139f2edfdbb7c730c4790fe92a7f0", "fusion_lon": 0.0, "rental_uris": {"ios": "https://dc.lft.to/lastmile_qr_scan", "android": "https://dc.lft.to/lastmile_qr_scan"}, "is_reserved": 0, "fusion_lat": 0.0, "lon": -77.02732283333333}, {"lat": 38.89056466666667, "type": "electric_scooter", "is_disabled": 0, "name": "36ef317898dd760c68833a4257ecfc04", "bike_id": "36ef317898dd760c68833a4257ecfc04", "fusion_lon": 0.0, "rental_uris": {"ios": "https://dc.lft.to/lastmile_qr_scan", "android": "https://dc.lft.to/lastmile_qr_scan"}, "is_reserved": 0, "fusion_lat": 0.0, "lon": -76.9375425}, {"lat": 38.894784333333334, "type": "electric_scooter", "is_disabled": 0, "name": "b2cbba185202a66ab34c087d7939ac8d", "bike_id": "b2cbba185202a66ab34c087d7939ac8d", "fusion_lon": 0.0, "rental_uris": {"ios": "https://dc.lft.to/lastmile_qr_scan", "android": "https://dc.lft.to/lastmile_qr_scan"}, "is_reserved": 0, "fusion_lat": 0.0, "lon": -77.00140483333334}, {"lat": 38.89995733333333, "type": "electric_scooter", "is_disabled": 0, "name": "e6a1a54f56d81b733cad2bb81bb1d70f", "bike_id": "e6a1a54f56d81b733cad2bb81bb1d70f", "fusion_lon": 0.0, "rental_uris": {"ios": "https://dc.lft.to/lastmile_qr_scan", "android": "https://dc.lft.to/lastmile_qr_scan"}, "is_reserved": 0, "fusion_lat": 0.0, "lon": -77.03171816666666}, {"lat": 38.92436283333333, "type": "electric_scooter", "is_disabled": 0, "name": "834c22068e5d3c90a3a1ef5969df9581", "bike_id": "834c22068e5d3c90a3a1ef5969df9581", "fusion_lon": 0.0, "rental_uris": {"ios": "https://dc.lft.to/lastmile_qr_scan", "android": "https://dc.lft.to/lastmile_qr_scan"}, "is_reserved": 0, "fusion_lat": 0.0, "lon": -77.0520915}, {"lat": 38.83592616666667, "type": "electric_bike", "is_disabled": 0, "name": "e1434b47af58584291a640fdfeed1035", "bike_id": "e1434b47af58584291a640fdfeed1035", "fusion_lon": 0.0, "rental_uris": {"ios": "https://dc.lft.to/lastmile_qr_scan", "android": "https://dc.lft.to/lastmile_qr_scan"}, "is_reserved": 0, "fusion_lat": 0.0, "lon": -76.9902625}, {"lat": 38.933617166666664, "type": "electric_scooter", "is_disabled": 0, "name": "23b00650cb7ae558b296fd9770fe0fd8", "bike_id": "23b00650cb7ae558b296fd9770fe0fd8", "fusion_lon": 0.0, "rental_uris": {"ios": "https://dc.lft.to/lastmile_qr_scan", "android": "https://dc.lft.to/lastmile_qr_scan"}, "is_reserved": 0, "fusion_lat": 0.0, "lon": -77.08573283333334}, {"lat": 38.92887233333333, "type": "electric_scooter", "is_disabled": 0, "name": "d9b7c7d154b341cbcff75d48047d9a74", "bike_id": "d9b7c7d154b341cbcff75d48047d9a74", "fusion_lon": 0.0, "rental_uris": {"ios": "https://dc.lft.to/lastmile_qr_scan", "android": "https://dc.lft.to/lastmile_qr_scan"}, "is_reserved": 0, "fusion_lat": 0.0, "lon": -77.03449366666666}, {"lat": 38.903057833333335, "type": "electric_scooter", "is_disabled": 0, "name": "a9a45302cb182002a62a4f86b62c0c42", "bike_id": "a9a45302cb182002a62a4f86b62c0c42", "fusion_lon": 0.0, "rental_uris": {"ios": "https://dc.lft.to/lastmile_qr_scan", "android": "https://dc.lft.to/lastmile_qr_scan"}, "is_reserved": 0, "fusion_lat": 0.0, "lon": -77.05042933333333}, {"lat": 38.904513666666666, "type": "electric_scooter", "is_disabled": 0, "name": "28d1e2226c461000eca63b3b5c8ba5fa", "bike_id": "28d1e2226c461000eca63b3b5c8ba5fa", "fusion_lon": 0.0, "rental_uris": {"ios": "https://dc.lft.to/lastmile_qr_scan", "android": "https://dc.lft.to/lastmile_qr_scan"}, "is_reserved": 0, "fusion_lat": 0.0, "lon": -77.05318433333333}, {"lat": 38.92827166666667, "type": "electric_scooter", "is_disabled": 0, "name": "2bc476a144a3eb4ee9e46305240fc34c", "bike_id": "2bc476a144a3eb4ee9e46305240fc34c", "fusion_lon": 0.0, "rental_uris": {"ios": "https://dc.lft.to/lastmile_qr_scan", "android": "https://dc.lft.to/lastmile_qr_scan"}, "is_reserved": 0, "fusion_lat": 0.0, "lon": -77.02276883333333}, {"lat": 38.90050083333333, "type": "electric_scooter", "is_disabled": 0, "name": "1e8d1d8c71d6a051799c62b9f5891b44", "bike_id": "1e8d1d8c71d6a051799c62b9f5891b44", "fusion_lon": 0.0, "rental_uris": {"ios": "https://dc.lft.to/lastmile_qr_scan", "android": "https://dc.lft.to/lastmile_qr_scan"}, "is_reserved": 0, "fusion_lat": 0.0, "lon": -77.01771666666667}, {"lat": 38.899454, "type": "electric_scooter", "is_disabled": 0, "name": "8e17fbec11ddfdb963f67193ea854076", "bike_id": "8e17fbec11ddfdb963f67193ea854076", "fusion_lon": 0.0, "rental_uris": {"ios": "https://dc.lft.to/lastmile_qr_scan", "android": "https://dc.lft.to/lastmile_qr_scan"}, "is_reserved": 0, "fusion_lat": 0.0, "lon": -77.03173033333333}, {"lat": 38.915619, "type": "electric_scooter", "is_disabled": 0, "name": "cac402ca5fa7882585f880541381eb98", "bike_id": "cac402ca5fa7882585f880541381eb98", "fusion_lon": 0.0, "rental_uris": {"ios": "https://dc.lft.to/lastmile_qr_scan", "android": "https://dc.lft.to/lastmile_qr_scan"}, "is_reserved": 0, "fusion_lat": 0.0, "lon": -77.00703183333333}, {"lat": 38.86721433333334, "type": "electric_scooter", "is_disabled": 0, "name": "41b7f72cfb6cb115328ad895dbdee14c", "bike_id": "41b7f72cfb6cb115328ad895dbdee14c", "fusion_lon": 0.0, "rental_uris": {"ios": "https://dc.lft.to/lastmile_qr_scan", "android": "https://dc.lft.to/lastmile_qr_scan"}, "is_reserved": 0, "fusion_lat": 0.0, "lon": -77.01011366666667}, {"lat": 38.91119833333333, "type": "electric_scooter", "is_disabled": 0, "name": "cecdc32ec940373fad1ec3deeebfc8b4", "bike_id": "cecdc32ec940373fad1ec3deeebfc8b4", "fusion_lon": 0.0, "rental_uris": {"ios": "https://dc.lft.to/lastmile_qr_scan", "android": "https://dc.lft.to/lastmile_qr_scan"}, "is_reserved": 0, "fusion_lat": 0.0, "lon": -77.044649}, {"lat": 38.90287766666667, "type": "electric_scooter", "is_disabled": 0, "name": "84ce4b708e1653c2c3e3a088c363075c", "bike_id": "84ce4b708e1653c2c3e3a088c363075c", "fusion_lon": 0.0, "rental_uris": {"ios": "https://dc.lft.to/lastmile_qr_scan", "android": "https://dc.lft.to/lastmile_qr_scan"}, "is_reserved": 0, "fusion_lat": 0.0, "lon": -77.04669416666667}, {"lat": 38.92292066666667, "type": "electric_scooter", "is_disabled": 0, "name": "ba1f445e311b925ce3f475173aecf334", "bike_id": "ba1f445e311b925ce3f475173aecf334", "fusion_lon": 0.0, "rental_uris": {"ios": "https://dc.lft.to/lastmile_qr_scan", "android": "https://dc.lft.to/lastmile_qr_scan"}, "is_reserved": 0, "fusion_lat": 0.0, "lon": -77.019495}, {"lat": 38.84896466666667, "type": "electric_bike", "is_disabled": 0, "name": "bc08f1ecd6fda06d45dcf079e36445ba", "bike_id": "bc08f1ecd6fda06d45dcf079e36445ba", "fusion_lon": 0.0, "rental_uris": {"ios": "https://dc.lft.to/lastmile_qr_scan", "android": "https://dc.lft.to/lastmile_qr_scan"}, "is_reserved": 0, "fusion_lat": 0.0, "lon": -77.07803433333333}, {"lat": 38.912697333333334, "type": "electric_scooter", "is_disabled": 0, "name": "e0a9cf4e26bcdff5ac14b52ba849da7b", "bike_id": "e0a9cf4e26bcdff5ac14b52ba849da7b", "fusion_lon": 0.0, "rental_uris": {"ios": "https://dc.lft.to/lastmile_qr_scan", "android": "https://dc.lft.to/lastmile_qr_scan"}, "is_reserved": 0, "fusion_lat": 0.0, "lon": -77.0244815}, {"lat": 38.92723566666667, "type": "electric_scooter", "is_disabled": 0, "name": "e0f0181b28fa2a00d6fe84286117c5ae", "bike_id": "e0f0181b28fa2a00d6fe84286117c5ae", "fusion_lon": 0.0, "rental_uris": {"ios": "https://dc.lft.to/lastmile_qr_scan", "android": "https://dc.lft.to/lastmile_qr_scan"}, "is_reserved": 0, "fusion_lat": 0.0, "lon": -77.02331283333334}, {"lat": 38.9251085, "type": "electric_scooter", "is_disabled": 0, "name": "b109f7550fed5227827188042701f138", "bike_id": "b109f7550fed5227827188042701f138", "fusion_lon": 0.0, "rental_uris": {"ios": "https://dc.lft.to/lastmile_qr_scan", "android": "https://dc.lft.to/lastmile_qr_scan"}, "is_reserved": 0, "fusion_lat": 0.0, "lon": -77.02281983333333}, {"lat": 39.00722016666667, "type": "electric_bike", "is_disabled": 0, "name": "9b450852fcce446ab8923b5a6f7b3a41", "bike_id": "9b450852fcce446ab8923b5a6f7b3a41", "fusion_lon": 0.0, "rental_uris": {"ios": "https://dc.lft.to/lastmile_qr_scan", "android": "https://dc.lft.to/lastmile_qr_scan"}, "is_reserved": 0, "fusion_lat": 0.0, "lon": -76.98139266666666}, {"lat": 38.919223833333334, "type": "electric_scooter", "is_disabled": 0, "name": "d6ff0da3f3acdac6a0d59a2e40405dcf", "bike_id": "d6ff0da3f3acdac6a0d59a2e40405dcf", "fusion_lon": 0.0, "rental_uris": {"ios": "https://dc.lft.to/lastmile_qr_scan", "android": "https://dc.lft.to/lastmile_qr_scan"}, "is_reserved": 0, "fusion_lat": 0.0, "lon": -77.03196916666667}, {"lat": 38.924169166666665, "type": "electric_scooter", "is_disabled": 0, "name": "c0ca3380b22a9fe3bcf07254c43df0f1", "bike_id": "c0ca3380b22a9fe3bcf07254c43df0f1", "fusion_lon": 0.0, "rental_uris": {"ios": "https://dc.lft.to/lastmile_qr_scan", "android": "https://dc.lft.to/lastmile_qr_scan"}, "is_reserved": 0, "fusion_lat": 0.0, "lon": -77.01943833333333}, {"lat": 38.8874075, "type": "electric_scooter", "is_disabled": 0, "name": "5d4048e8762f3891bea0205e63d827b5", "bike_id": "5d4048e8762f3891bea0205e63d827b5", "fusion_lon": 0.0, "rental_uris": {"ios": "https://dc.lft.to/lastmile_qr_scan", "android": "https://dc.lft.to/lastmile_qr_scan"}, "is_reserved": 0, "fusion_lat": 0.0, "lon": -76.99644016666667}, {"lat": 38.89222783333334, "type": "electric_scooter", "is_disabled": 0, "name": "b69c7c4565b844fa2675ca5e9910c418", "bike_id": "b69c7c4565b844fa2675ca5e9910c418", "fusion_lon": 0.0, "rental_uris": {"ios": "https://dc.lft.to/lastmile_qr_scan", "android": "https://dc.lft.to/lastmile_qr_scan"}, "is_reserved": 0, "fusion_lat": 0.0, "lon": -77.04269266666667}, {"lat": 38.9241475, "type": "electric_scooter", "is_disabled": 0, "name": "efac0525c5db6a4f19b6845b5a2db9ec", "bike_id": "efac0525c5db6a4f19b6845b5a2db9ec", "fusion_lon": 0.0, "rental_uris": {"ios": "https://dc.lft.to/lastmile_qr_scan", "android": "https://dc.lft.to/lastmile_qr_scan"}, "is_reserved": 0, "fusion_lat": 0.0, "lon": -77.02032333333334}, {"lat": 38.90532283333334, "type": "electric_scooter", "is_disabled": 0, "name": "325d28741ab1e2999ecc3d2a51cb0558", "bike_id": "325d28741ab1e2999ecc3d2a51cb0558", "fusion_lon": 0.0, "rental_uris": {"ios": "https://dc.lft.to/lastmile_qr_scan", "android": "https://dc.lft.to/lastmile_qr_scan"}, "is_reserved": 0, "fusion_lat": 0.0, "lon": -77.02177833333333}, {"lat": 38.919489166666665, "type": "electric_scooter", "is_disabled": 0, "name": "d8716db3c70bcdbfd710666d22a3957b", "bike_id": "d8716db3c70bcdbfd710666d22a3957b", "fusion_lon": 0.0, "rental_uris": {"ios": "https://dc.lft.to/lastmile_qr_scan", "android": "https://dc.lft.to/lastmile_qr_scan"}, "is_reserved": 0, "fusion_lat": 0.0, "lon": -77.045585}, {"lat": 38.957628666666665, "type": "electric_scooter", "is_disabled": 0, "name": "f9a14fc06e1c805894be710750ad8542", "bike_id": "f9a14fc06e1c805894be710750ad8542", "fusion_lon": 0.0, "rental_uris": {"ios": "https://dc.lft.to/lastmile_qr_scan", "android": "https://dc.lft.to/lastmile_qr_scan"}, "is_reserved": 0, "fusion_lat": 0.0, "lon": -77.0091325}, {"lat": 38.925068, "type": "electric_scooter", "is_disabled": 0, "name": "f6f66c1545f9a2b1624d43cac70f97d5", "bike_id": "f6f66c1545f9a2b1624d43cac70f97d5", "fusion_lon": 0.0, "rental_uris": {"ios": "https://dc.lft.to/lastmile_qr_scan", "android": "https://dc.lft.to/lastmile_qr_scan"}, "is_reserved": 0, "fusion_lat": 0.0, "lon": -77.00222183333334}, {"lat": 38.91584116666667, "type": "electric_scooter", "is_disabled": 0, "name": "4df1a9414c12d229c0e33761258de084", "bike_id": "4df1a9414c12d229c0e33761258de084", "fusion_lon": 0.0, "rental_uris": {"ios": "https://dc.lft.to/lastmile_qr_scan", "android": "https://dc.lft.to/lastmile_qr_scan"}, "is_reserved": 0, "fusion_lat": 0.0, "lon": -77.04498916666667}, {"lat": 38.955167, "type": "electric_scooter", "is_disabled": 0, "name": "10c8d88134c5d41ccf46ec26e01f75ad", "bike_id": "10c8d88134c5d41ccf46ec26e01f75ad", "fusion_lon": 0.0, "rental_uris": {"ios": "https://dc.lft.to/lastmile_qr_scan", "android": "https://dc.lft.to/lastmile_qr_scan"}, "is_reserved": 0, "fusion_lat": 0.0, "lon": -77.0104005}, {"lat": 38.92617883333333, "type": "electric_scooter", "is_disabled": 0, "name": "433982c332d84419fd878b551fda4021", "bike_id": "433982c332d84419fd878b551fda4021", "fusion_lon": 0.0, "rental_uris": {"ios": "https://dc.lft.to/lastmile_qr_scan", "android": "https://dc.lft.to/lastmile_qr_scan"}, "is_reserved": 0, "fusion_lat": 0.0, "lon": -77.02159383333333}, {"lat": 38.897429833333334, "type": "electric_bike", "is_disabled": 0, "name": "cac10401cc30b18c26ab2089fe79c8d5", "bike_id": "cac10401cc30b18c26ab2089fe79c8d5", "fusion_lon": 0.0, "rental_uris": {"ios": "https://dc.lft.to/lastmile_qr_scan", "android": "https://dc.lft.to/lastmile_qr_scan"}, "is_reserved": 0, "fusion_lat": 0.0, "lon": -76.969467}, {"lat": 38.911905833333336, "type": "electric_scooter", "is_disabled": 0, "name": "191231aef0180a5455d817b357ae87bb", "bike_id": "191231aef0180a5455d817b357ae87bb", "fusion_lon": 0.0, "rental_uris": {"ios": "https://dc.lft.to/lastmile_qr_scan", "android": "https://dc.lft.to/lastmile_qr_scan"}, "is_reserved": 0, "fusion_lat": 0.0, "lon": -77.00554366666667}, {"lat": 38.8823265, "type": "electric_bike", "is_disabled": 0, "name": "f2fc3f3b6b89c1bb947c3f1abbc1545a", "bike_id": "f2fc3f3b6b89c1bb947c3f1abbc1545a", "fusion_lon": 0.0, "rental_uris": {"ios": "https://dc.lft.to/lastmile_qr_scan", "android": "https://dc.lft.to/lastmile_qr_scan"}, "is_reserved": 0, "fusion_lat": 0.0, "lon": -77.11183666666666}, {"lat": 38.90273533333333, "type": "electric_scooter", "is_disabled": 0, "name": "7e9c081dacffa036546f799bdf9c1c4b", "bike_id": "7e9c081dacffa036546f799bdf9c1c4b", "fusion_lon": 0.0, "rental_uris": {"ios": "https://dc.lft.to/lastmile_qr_scan", "android": "https://dc.lft.to/lastmile_qr_scan"}, "is_reserved": 0, "fusion_lat": 0.0, "lon": -77.0315215}, {"lat": 38.919844833333336, "type": "electric_scooter", "is_disabled": 0, "name": "0a05cad1a3e7b79fc75a894ca74c9797", "bike_id": "0a05cad1a3e7b79fc75a894ca74c9797", "fusion_lon": 0.0, "rental_uris": {"ios": "https://dc.lft.to/lastmile_qr_scan", "android": "https://dc.lft.to/lastmile_qr_scan"}, "is_reserved": 0, "fusion_lat": 0.0, "lon": -77.021939}, {"lat": 38.895014833333335, "type": "electric_scooter", "is_disabled": 0, "name": "a63aabd6f98841ad6f1a714b89b2ea6c", "bike_id": "a63aabd6f98841ad6f1a714b89b2ea6c", "fusion_lon": 0.0, "rental_uris": {"ios": "https://dc.lft.to/lastmile_qr_scan", "android": "https://dc.lft.to/lastmile_qr_scan"}, "is_reserved": 0, "fusion_lat": 0.0, "lon": -77.04638316666667}, {"lat": 38.89611283333333, "type": "electric_scooter", "is_disabled": 0, "name": "b11750ac6603a7406df9ea0dd2e0bd9f", "bike_id": "b11750ac6603a7406df9ea0dd2e0bd9f", "fusion_lon": 0.0, "rental_uris": {"ios": "https://dc.lft.to/lastmile_qr_scan", "android": "https://dc.lft.to/lastmile_qr_scan"}, "is_reserved": 0, "fusion_lat": 0.0, "lon": -77.02982866666666}, {"lat": 38.867256833333336, "type": "electric_scooter", "is_disabled": 0, "name": "29aa6339b31904af6a29d8bcf6782aed", "bike_id": "29aa6339b31904af6a29d8bcf6782aed", "fusion_lon": 0.0, "rental_uris": {"ios": "https://dc.lft.to/lastmile_qr_scan", "android": "https://dc.lft.to/lastmile_qr_scan"}, "is_reserved": 0, "fusion_lat": 0.0, "lon": -77.0101835}, {"lat": 38.9228055, "type": "electric_scooter", "is_disabled": 0, "name": "e4c4db176e603aef4f4b3fb3bd3775a4", "bike_id": "e4c4db176e603aef4f4b3fb3bd3775a4", "fusion_lon": 0.0, "rental_uris": {"ios": "https://dc.lft.to/lastmile_qr_scan", "android": "https://dc.lft.to/lastmile_qr_scan"}, "is_reserved": 0, "fusion_lat": 0.0, "lon": -77.0340875}, {"lat": 38.920193166666664, "type": "electric_scooter", "is_disabled": 0, "name": "b6ea8edb7dc9e7984b9650d77284c40e", "bike_id": "b6ea8edb7dc9e7984b9650d77284c40e", "fusion_lon": 0.0, "rental_uris": {"ios": "https://dc.lft.to/lastmile_qr_scan", "android": "https://dc.lft.to/lastmile_qr_scan"}, "is_reserved": 0, "fusion_lat": 0.0, "lon": -76.97832483333333}, {"lat": 38.91414733333333, "type": "electric_scooter", "is_disabled": 0, "name": "a24bcb5361f4842e63101edbe67ce6c0", "bike_id": "a24bcb5361f4842e63101edbe67ce6c0", "fusion_lon": 0.0, "rental_uris": {"ios": "https://dc.lft.to/lastmile_qr_scan", "android": "https://dc.lft.to/lastmile_qr_scan"}, "is_reserved": 0, "fusion_lat": 0.0, "lon": -77.04492216666667}, {"lat": 38.8808065, "type": "electric_scooter", "is_disabled": 0, "name": "b1fe57f5622c82ede8d6dbb70f53b151", "bike_id": "b1fe57f5622c82ede8d6dbb70f53b151", "fusion_lon": 0.0, "rental_uris": {"ios": "https://dc.lft.to/lastmile_qr_scan", "android": "https://dc.lft.to/lastmile_qr_scan"}, "is_reserved": 0, "fusion_lat": 0.0, "lon": -76.98532883333333}, {"lat": 38.98028683333333, "type": "electric_bike", "is_disabled": 0, "name": "2eaed475977da246adff56e66ef306b0", "bike_id": "2eaed475977da246adff56e66ef306b0", "fusion_lon": 0.0, "rental_uris": {"ios": "https://dc.lft.to/lastmile_qr_scan", "android": "https://dc.lft.to/lastmile_qr_scan"}, "is_reserved": 0, "fusion_lat": 0.0, "lon": -76.94237266666667}, {"lat": 38.885834, "type": "electric_scooter", "is_disabled": 0, "name": "6dbab5892fa8e0c46f4d7a8636a0f6fe", "bike_id": "6dbab5892fa8e0c46f4d7a8636a0f6fe", "fusion_lon": 0.0, "rental_uris": {"ios": "https://dc.lft.to/lastmile_qr_scan", "android": "https://dc.lft.to/lastmile_qr_scan"}, "is_reserved": 0, "fusion_lat": 0.0, "lon": -77.01543866666667}, {"lat": 38.8931575, "type": "electric_scooter", "is_disabled": 0, "name": "acea95e553a43be1d3c7fbb830e22aa4", "bike_id": "acea95e553a43be1d3c7fbb830e22aa4", "fusion_lon": 0.0, "rental_uris": {"ios": "https://dc.lft.to/lastmile_qr_scan", "android": "https://dc.lft.to/lastmile_qr_scan"}, "is_reserved": 0, "fusion_lat": 0.0, "lon": -77.01492166666667}, {"lat": 38.900283333333334, "type": "electric_scooter", "is_disabled": 0, "name": "3933f06d0bd83fc8ec52fcecab01af08", "bike_id": "3933f06d0bd83fc8ec52fcecab01af08", "fusion_lon": 0.0, "rental_uris": {"ios": "https://dc.lft.to/lastmile_qr_scan", "android": "https://dc.lft.to/lastmile_qr_scan"}, "is_reserved": 0, "fusion_lat": 0.0, "lon": -76.9985145}, {"lat": 38.809022666666664, "type": "electric_bike", "is_disabled": 0, "name": "5a4320cc3eda686e2023a42ae976b088", "bike_id": "5a4320cc3eda686e2023a42ae976b088", "fusion_lon": 0.0, "rental_uris": {"ios": "https://dc.lft.to/lastmile_qr_scan", "android": "https://dc.lft.to/lastmile_qr_scan"}, "is_reserved": 0, "fusion_lat": 0.0, "lon": -77.11554166666667}, {"lat": 38.92802566666667, "type": "electric_scooter", "is_disabled": 0, "name": "8256022ccdc38f94913a121a5aefd131", "bike_id": "8256022ccdc38f94913a121a5aefd131", "fusion_lon": 0.0, "rental_uris": {"ios": "https://dc.lft.to/lastmile_qr_scan", "android": "https://dc.lft.to/lastmile_qr_scan"}, "is_reserved": 0, "fusion_lat": 0.0, "lon": -77.02208516666667}, {"lat": 38.904324, "type": "electric_scooter", "is_disabled": 0, "name": "4aae512bdab8796921ed60d48aa8824d", "bike_id": "4aae512bdab8796921ed60d48aa8824d", "fusion_lon": 0.0, "rental_uris": {"ios": "https://dc.lft.to/lastmile_qr_scan", "android": "https://dc.lft.to/lastmile_qr_scan"}, "is_reserved": 0, "fusion_lat": 0.0, "lon": -77.03425233333333}, {"lat": 38.875759333333335, "type": "electric_scooter", "is_disabled": 0, "name": "c2411a4c072d799fcab191de0f235eef", "bike_id": "c2411a4c072d799fcab191de0f235eef", "fusion_lon": 0.0, "rental_uris": {"ios": "https://dc.lft.to/lastmile_qr_scan", "android": "https://dc.lft.to/lastmile_qr_scan"}, "is_reserved": 0, "fusion_lat": 0.0, "lon": -77.005791}, {"lat": 38.90584883333333, "type": "electric_scooter", "is_disabled": 0, "name": "f7d5118b86a91896d8e00fb79dc24bb0", "bike_id": "f7d5118b86a91896d8e00fb79dc24bb0", "fusion_lon": 0.0, "rental_uris": {"ios": "https://dc.lft.to/lastmile_qr_scan", "android": "https://dc.lft.to/lastmile_qr_scan"}, "is_reserved": 0, "fusion_lat": 0.0, "lon": -77.04686283333334}, {"lat": 38.917635833333335, "type": "electric_scooter", "is_disabled": 0, "name": "f2b6eb8ad9c00c2d5d4bc2469e86f0bd", "bike_id": "f2b6eb8ad9c00c2d5d4bc2469e86f0bd", "fusion_lon": 0.0, "rental_uris": {"ios": "https://dc.lft.to/lastmile_qr_scan", "android": "https://dc.lft.to/lastmile_qr_scan"}, "is_reserved": 0, "fusion_lat": 0.0, "lon": -77.00912516666666}, {"lat": 38.906301, "type": "electric_scooter", "is_disabled": 0, "name": "55e02be51b923fc12cc3cdb4cd89dfec", "bike_id": "55e02be51b923fc12cc3cdb4cd89dfec", "fusion_lon": 0.0, "rental_uris": {"ios": "https://dc.lft.to/lastmile_qr_scan", "android": "https://dc.lft.to/lastmile_qr_scan"}, "is_reserved": 0, "fusion_lat": 0.0, "lon": -77.0504995}, {"lat": 38.90874866666667, "type": "electric_scooter", "is_disabled": 0, "name": "bbe209f1cf2364081b93bbbe8c94a773", "bike_id": "bbe209f1cf2364081b93bbbe8c94a773", "fusion_lon": 0.0, "rental_uris": {"ios": "https://dc.lft.to/lastmile_qr_scan", "android": "https://dc.lft.to/lastmile_qr_scan"}, "is_reserved": 0, "fusion_lat": 0.0, "lon": -77.07163716666666}, {"lat": 38.87175933333333, "type": "electric_bike", "is_disabled": 0, "name": "9ecaf15151436a5e21d7ea82b2d48ac3", "bike_id": "9ecaf15151436a5e21d7ea82b2d48ac3", "fusion_lon": 0.0, "rental_uris": {"ios": "https://dc.lft.to/lastmile_qr_scan", "android": "https://dc.lft.to/lastmile_qr_scan"}, "is_reserved": 0, "fusion_lat": 0.0, "lon": -77.23390933333333}, {"lat": 38.89742866666667, "type": "electric_scooter", "is_disabled": 0, "name": "afa30a0e360448e3865f2d0df4ce03ef", "bike_id": "afa30a0e360448e3865f2d0df4ce03ef", "fusion_lon": 0.0, "rental_uris": {"ios": "https://dc.lft.to/lastmile_qr_scan", "android": "https://dc.lft.to/lastmile_qr_scan"}, "is_reserved": 0, "fusion_lat": 0.0, "lon": -77.029969}, {"lat": 38.944486166666664, "type": "electric_scooter", "is_disabled": 0, "name": "af19827ac5b085d2cf53eddb8ef5ccac", "bike_id": "af19827ac5b085d2cf53eddb8ef5ccac", "fusion_lon": 0.0, "rental_uris": {"ios": "https://dc.lft.to/lastmile_qr_scan", "android": "https://dc.lft.to/lastmile_qr_scan"}, "is_reserved": 0, "fusion_lat": 0.0, "lon": -77.06406683333333}, {"lat": 38.90240883333333, "type": "electric_scooter", "is_disabled": 0, "name": "3fbdb7dfe6c92c8410c0808876b01f2c", "bike_id": "3fbdb7dfe6c92c8410c0808876b01f2c", "fusion_lon": 0.0, "rental_uris": {"ios": "https://dc.lft.to/lastmile_qr_scan", "android": "https://dc.lft.to/lastmile_qr_scan"}, "is_reserved": 0, "fusion_lat": 0.0, "lon": -77.028221}, {"lat": 38.85801033333333, "type": "electric_bike", "is_disabled": 0, "name": "e3998139da7bb4a9a631a739344a735b", "bike_id": "e3998139da7bb4a9a631a739344a735b", "fusion_lon": 0.0, "rental_uris": {"ios": "https://dc.lft.to/lastmile_qr_scan", "android": "https://dc.lft.to/lastmile_qr_scan"}, "is_reserved": 0, "fusion_lat": 0.0, "lon": -77.09960133333334}, {"lat": 38.901636333333336, "type": "electric_scooter", "is_disabled": 0, "name": "450c6e01001710252d4cbf8c08956a95", "bike_id": "450c6e01001710252d4cbf8c08956a95", "fusion_lon": 0.0, "rental_uris": {"ios": "https://dc.lft.to/lastmile_qr_scan", "android": "https://dc.lft.to/lastmile_qr_scan"}, "is_reserved": 0, "fusion_lat": 0.0, "lon": -77.04863416666667}, {"lat": 38.95083483333333, "type": "electric_bike", "is_disabled": 0, "name": "43bea40871c599765de2b61394a904cb", "bike_id": "43bea40871c599765de2b61394a904cb", "fusion_lon": 0.0, "rental_uris": {"ios": "https://dc.lft.to/lastmile_qr_scan", "android": "https://dc.lft.to/lastmile_qr_scan"}, "is_reserved": 0, "fusion_lat": 0.0, "lon": -76.97081633333333}, {"lat": 38.924767833333334, "type": "electric_scooter", "is_disabled": 0, "name": "7ea43e218039281dde841e595f63ff0d", "bike_id": "7ea43e218039281dde841e595f63ff0d", "fusion_lon": 0.0, "rental_uris": {"ios": "https://dc.lft.to/lastmile_qr_scan", "android": "https://dc.lft.to/lastmile_qr_scan"}, "is_reserved": 0, "fusion_lat": 0.0, "lon": -77.03786016666666}, {"lat": 38.90431683333333, "type": "electric_scooter", "is_disabled": 0, "name": "e94ba67338f15b5441c23c89f1a7234e", "bike_id": "e94ba67338f15b5441c23c89f1a7234e", "fusion_lon": 0.0, "rental_uris": {"ios": "https://dc.lft.to/lastmile_qr_scan", "android": "https://dc.lft.to/lastmile_qr_scan"}, "is_reserved": 0, "fusion_lat": 0.0, "lon": -77.04333733333333}, {"lat": 38.943298, "type": "electric_scooter", "is_disabled": 0, "name": "d4da27ecd06a3abe1b3848a99f53c365", "bike_id": "d4da27ecd06a3abe1b3848a99f53c365", "fusion_lon": 0.0, "rental_uris": {"ios": "https://dc.lft.to/lastmile_qr_scan", "android": "https://dc.lft.to/lastmile_qr_scan"}, "is_reserved": 0, "fusion_lat": 0.0, "lon": -77.01310183333334}, {"lat": 38.92959416666667, "type": "electric_scooter", "is_disabled": 0, "name": "d24a640883881d5b219fd513896c8637", "bike_id": "d24a640883881d5b219fd513896c8637", "fusion_lon": 0.0, "rental_uris": {"ios": "https://dc.lft.to/lastmile_qr_scan", "android": "https://dc.lft.to/lastmile_qr_scan"}, "is_reserved": 0, "fusion_lat": 0.0, "lon": -77.0114575}, {"lat": 38.90263083333333, "type": "electric_scooter", "is_disabled": 0, "name": "6f0db965ad2d571ad38dc353ea135f09", "bike_id": "6f0db965ad2d571ad38dc353ea135f09", "fusion_lon": 0.0, "rental_uris": {"ios": "https://dc.lft.to/lastmile_qr_scan", "android": "https://dc.lft.to/lastmile_qr_scan"}, "is_reserved": 0, "fusion_lat": 0.0, "lon": -77.03842883333333}, {"lat": 38.89545433333333, "type": "electric_scooter", "is_disabled": 0, "name": "66556aeb21ff42a8da9d68c02e112803", "bike_id": "66556aeb21ff42a8da9d68c02e112803", "fusion_lon": 0.0, "rental_uris": {"ios": "https://dc.lft.to/lastmile_qr_scan", "android": "https://dc.lft.to/lastmile_qr_scan"}, "is_reserved": 0, "fusion_lat": 0.0, "lon": -77.009251}, {"lat": 38.923533, "type": "electric_scooter", "is_disabled": 0, "name": "e5681488fdae8c812773a797a0936c2b", "bike_id": "e5681488fdae8c812773a797a0936c2b", "fusion_lon": 0.0, "rental_uris": {"ios": "https://dc.lft.to/lastmile_qr_scan", "android": "https://dc.lft.to/lastmile_qr_scan"}, "is_reserved": 0, "fusion_lat": 0.0, "lon": -77.03499283333333}, {"lat": 38.9510885, "type": "electric_scooter", "is_disabled": 0, "name": "ab6ecf10a3e84b7c2cf8ce2d4819b69a", "bike_id": "ab6ecf10a3e84b7c2cf8ce2d4819b69a", "fusion_lon": 0.0, "rental_uris": {"ios": "https://dc.lft.to/lastmile_qr_scan", "android": "https://dc.lft.to/lastmile_qr_scan"}, "is_reserved": 0, "fusion_lat": 0.0, "lon": -77.01307033333333}, {"lat": 38.89245116666667, "type": "electric_scooter", "is_disabled": 0, "name": "7306617c4dd715ecd0477669793b6e96", "bike_id": "7306617c4dd715ecd0477669793b6e96", "fusion_lon": 0.0, "rental_uris": {"ios": "https://dc.lft.to/lastmile_qr_scan", "android": "https://dc.lft.to/lastmile_qr_scan"}, "is_reserved": 0, "fusion_lat": 0.0, "lon": -77.031803}, {"lat": 38.897442, "type": "electric_scooter", "is_disabled": 0, "name": "77b4575a26843f4e5b8263019ed4af3c", "bike_id": "77b4575a26843f4e5b8263019ed4af3c", "fusion_lon": 0.0, "rental_uris": {"ios": "https://dc.lft.to/lastmile_qr_scan", "android": "https://dc.lft.to/lastmile_qr_scan"}, "is_reserved": 0, "fusion_lat": 0.0, "lon": -77.00926833333334}, {"lat": 38.932509, "type": "electric_scooter", "is_disabled": 0, "name": "bd86cbcb6a18647a03910d1464c31acb", "bike_id": "bd86cbcb6a18647a03910d1464c31acb", "fusion_lon": 0.0, "rental_uris": {"ios": "https://dc.lft.to/lastmile_qr_scan", "android": "https://dc.lft.to/lastmile_qr_scan"}, "is_reserved": 0, "fusion_lat": 0.0, "lon": -77.03277883333334}, {"lat": 38.89737483333333, "type": "electric_scooter", "is_disabled": 0, "name": "ec5a64075a454569b99e430e32c2db75", "bike_id": "ec5a64075a454569b99e430e32c2db75", "fusion_lon": 0.0, "rental_uris": {"ios": "https://dc.lft.to/lastmile_qr_scan", "android": "https://dc.lft.to/lastmile_qr_scan"}, "is_reserved": 0, "fusion_lat": 0.0, "lon": -77.03262883333333}, {"lat": 38.924740166666666, "type": "electric_scooter", "is_disabled": 0, "name": "574996c0d1752d8af9218caae967bf33", "bike_id": "574996c0d1752d8af9218caae967bf33", "fusion_lon": 0.0, "rental_uris": {"ios": "https://dc.lft.to/lastmile_qr_scan", "android": "https://dc.lft.to/lastmile_qr_scan"}, "is_reserved": 0, "fusion_lat": 0.0, "lon": -77.02710533333334}, {"lat": 38.96098116666667, "type": "electric_scooter", "is_disabled": 0, "name": "0af2c1f107b00605de14ed63ac30280c", "bike_id": "0af2c1f107b00605de14ed63ac30280c", "fusion_lon": 0.0, "rental_uris": {"ios": "https://dc.lft.to/lastmile_qr_scan", "android": "https://dc.lft.to/lastmile_qr_scan"}, "is_reserved": 0, "fusion_lat": 0.0, "lon": -77.06753483333334}, {"lat": 38.892536166666666, "type": "electric_bike", "is_disabled": 0, "name": "c1de4a3f4ac27d264a250d964f3d33c7", "bike_id": "c1de4a3f4ac27d264a250d964f3d33c7", "fusion_lon": 0.0, "rental_uris": {"ios": "https://dc.lft.to/lastmile_qr_scan", "android": "https://dc.lft.to/lastmile_qr_scan"}, "is_reserved": 0, "fusion_lat": 0.0, "lon": -77.04653316666666}, {"lat": 38.895944166666666, "type": "electric_scooter", "is_disabled": 0, "name": "3abf7b3bc41647dded50f54e09be9c3d", "bike_id": "3abf7b3bc41647dded50f54e09be9c3d", "fusion_lon": 0.0, "rental_uris": {"ios": "https://dc.lft.to/lastmile_qr_scan", "android": "https://dc.lft.to/lastmile_qr_scan"}, "is_reserved": 0, "fusion_lat": 0.0, "lon": -77.01623483333333}, {"lat": 38.93455683333333, "type": "electric_scooter", "is_disabled": 0, "name": "3d098f573bfc69046a845f4f06a9b8b8", "bike_id": "3d098f573bfc69046a845f4f06a9b8b8", "fusion_lon": 0.0, "rental_uris": {"ios": "https://dc.lft.to/lastmile_qr_scan", "android": "https://dc.lft.to/lastmile_qr_scan"}, "is_reserved": 0, "fusion_lat": 0.0, "lon": -77.02356833333333}, {"lat": 38.903809, "type": "electric_scooter", "is_disabled": 0, "name": "f1f111fc5c75973b7826dbbe637b3d08", "bike_id": "f1f111fc5c75973b7826dbbe637b3d08", "fusion_lon": 0.0, "rental_uris": {"ios": "https://dc.lft.to/lastmile_qr_scan", "android": "https://dc.lft.to/lastmile_qr_scan"}, "is_reserved": 0, "fusion_lat": 0.0, "lon": -77.03652633333333}, {"lat": 38.924194166666666, "type": "electric_scooter", "is_disabled": 0, "name": "a4bd885d2d8fdd5ca1a8a5f78ce4e0a6", "bike_id": "a4bd885d2d8fdd5ca1a8a5f78ce4e0a6", "fusion_lon": 0.0, "rental_uris": {"ios": "https://dc.lft.to/lastmile_qr_scan", "android": "https://dc.lft.to/lastmile_qr_scan"}, "is_reserved": 0, "fusion_lat": 0.0, "lon": -77.020096}, {"lat": 38.901522, "type": "electric_scooter", "is_disabled": 0, "name": "4520aca9dd1ed8dafb4fb5444730c28e", "bike_id": "4520aca9dd1ed8dafb4fb5444730c28e", "fusion_lon": 0.0, "rental_uris": {"ios": "https://dc.lft.to/lastmile_qr_scan", "android": "https://dc.lft.to/lastmile_qr_scan"}, "is_reserved": 0, "fusion_lat": 0.0, "lon": -77.03187983333333}, {"lat": 38.928286666666665, "type": "electric_scooter", "is_disabled": 0, "name": "5d5112bd608252adc50a7ceecdc85a0d", "bike_id": "5d5112bd608252adc50a7ceecdc85a0d", "fusion_lon": 0.0, "rental_uris": {"ios": "https://dc.lft.to/lastmile_qr_scan", "android": "https://dc.lft.to/lastmile_qr_scan"}, "is_reserved": 0, "fusion_lat": 0.0, "lon": -77.01413283333333}, {"lat": 38.90652683333333, "type": "electric_scooter", "is_disabled": 0, "name": "fd94044ccc71ee41a815c7cb2855daa0", "bike_id": "fd94044ccc71ee41a815c7cb2855daa0", "fusion_lon": 0.0, "rental_uris": {"ios": "https://dc.lft.to/lastmile_qr_scan", "android": "https://dc.lft.to/lastmile_qr_scan"}, "is_reserved": 0, "fusion_lat": 0.0, "lon": -77.0176445}, {"lat": 38.8955445, "type": "electric_scooter", "is_disabled": 0, "name": "1d3cb23c0300454744b2abd11f1f2f47", "bike_id": "1d3cb23c0300454744b2abd11f1f2f47", "fusion_lon": 0.0, "rental_uris": {"ios": "https://dc.lft.to/lastmile_qr_scan", "android": "https://dc.lft.to/lastmile_qr_scan"}, "is_reserved": 0, "fusion_lat": 0.0, "lon": -77.00915966666666}, {"lat": 38.901264, "type": "electric_scooter", "is_disabled": 0, "name": "2418e859f885b716f48fc388e5db0948", "bike_id": "2418e859f885b716f48fc388e5db0948", "fusion_lon": 0.0, "rental_uris": {"ios": "https://dc.lft.to/lastmile_qr_scan", "android": "https://dc.lft.to/lastmile_qr_scan"}, "is_reserved": 0, "fusion_lat": 0.0, "lon": -77.04476266666667}, {"lat": 38.922474333333334, "type": "electric_scooter", "is_disabled": 0, "name": "1d81c7a43e0106469f96a7a450a194d4", "bike_id": "1d81c7a43e0106469f96a7a450a194d4", "fusion_lon": 0.0, "rental_uris": {"ios": "https://dc.lft.to/lastmile_qr_scan", "android": "https://dc.lft.to/lastmile_qr_scan"}, "is_reserved": 0, "fusion_lat": 0.0, "lon": -77.021168}, {"lat": 38.86874666666667, "type": "electric_scooter", "is_disabled": 0, "name": "1faae2e0a18a7b60b6d5814eb9ff2549", "bike_id": "1faae2e0a18a7b60b6d5814eb9ff2549", "fusion_lon": 0.0, "rental_uris": {"ios": "https://dc.lft.to/lastmile_qr_scan", "android": "https://dc.lft.to/lastmile_qr_scan"}, "is_reserved": 0, "fusion_lat": 0.0, "lon": -76.98660166666667}, {"lat": 38.938347666666665, "type": "electric_bike", "is_disabled": 0, "name": "b0ed796b8927bf0bf292ff49c617afbe", "bike_id": "b0ed796b8927bf0bf292ff49c617afbe", "fusion_lon": 0.0, "rental_uris": {"ios": "https://dc.lft.to/lastmile_qr_scan", "android": "https://dc.lft.to/lastmile_qr_scan"}, "is_reserved": 0, "fusion_lat": 0.0, "lon": -77.1016045}, {"lat": 38.854488, "type": "electric_bike", "is_disabled": 0, "name": "e6bea2b11eec8dda5877872f250c6172", "bike_id": "e6bea2b11eec8dda5877872f250c6172", "fusion_lon": 0.0, "rental_uris": {"ios": "https://dc.lft.to/lastmile_qr_scan", "android": "https://dc.lft.to/lastmile_qr_scan"}, "is_reserved": 0, "fusion_lat": 0.0, "lon": -77.083184}, {"lat": 38.896073666666666, "type": "electric_scooter", "is_disabled": 0, "name": "88772147ccf93cef9477d760b15ced92", "bike_id": "88772147ccf93cef9477d760b15ced92", "fusion_lon": 0.0, "rental_uris": {"ios": "https://dc.lft.to/lastmile_qr_scan", "android": "https://dc.lft.to/lastmile_qr_scan"}, "is_reserved": 0, "fusion_lat": 0.0, "lon": -77.050788}, {"lat": 38.895548, "type": "electric_scooter", "is_disabled": 0, "name": "3106401bb07e15f532d5138496e860dd", "bike_id": "3106401bb07e15f532d5138496e860dd", "fusion_lon": 0.0, "rental_uris": {"ios": "https://dc.lft.to/lastmile_qr_scan", "android": "https://dc.lft.to/lastmile_qr_scan"}, "is_reserved": 0, "fusion_lat": 0.0, "lon": -77.0466915}, {"lat": 38.92373116666667, "type": "electric_scooter", "is_disabled": 0, "name": "14bfdb6ee30b3e9911e709f584ab8c21", "bike_id": "14bfdb6ee30b3e9911e709f584ab8c21", "fusion_lon": 0.0, "rental_uris": {"ios": "https://dc.lft.to/lastmile_qr_scan", "android": "https://dc.lft.to/lastmile_qr_scan"}, "is_reserved": 0, "fusion_lat": 0.0, "lon": -77.021213}, {"lat": 38.9102635, "type": "electric_scooter", "is_disabled": 0, "name": "be97114e583dc04b0a396c0508c1fea8", "bike_id": "be97114e583dc04b0a396c0508c1fea8", "fusion_lon": 0.0, "rental_uris": {"ios": "https://dc.lft.to/lastmile_qr_scan", "android": "https://dc.lft.to/lastmile_qr_scan"}, "is_reserved": 0, "fusion_lat": 0.0, "lon": -77.034421}, {"lat": 38.8925945, "type": "electric_scooter", "is_disabled": 0, "name": "a79f0e14a216a8804cd97676ade10bfa", "bike_id": "a79f0e14a216a8804cd97676ade10bfa", "fusion_lon": 0.0, "rental_uris": {"ios": "https://dc.lft.to/lastmile_qr_scan", "android": "https://dc.lft.to/lastmile_qr_scan"}, "is_reserved": 0, "fusion_lat": 0.0, "lon": -77.00213716666667}, {"lat": 38.896139833333336, "type": "electric_scooter", "is_disabled": 0, "name": "df01c9e160c3cea7c54a844031e105f7", "bike_id": "df01c9e160c3cea7c54a844031e105f7", "fusion_lon": 0.0, "rental_uris": {"ios": "https://dc.lft.to/lastmile_qr_scan", "android": "https://dc.lft.to/lastmile_qr_scan"}, "is_reserved": 0, "fusion_lat": 0.0, "lon": -77.04649366666666}, {"lat": 38.925589, "type": "electric_scooter", "is_disabled": 0, "name": "b9d5bc5035095d8b8b291d7ae4835366", "bike_id": "b9d5bc5035095d8b8b291d7ae4835366", "fusion_lon": 0.0, "rental_uris": {"ios": "https://dc.lft.to/lastmile_qr_scan", "android": "https://dc.lft.to/lastmile_qr_scan"}, "is_reserved": 0, "fusion_lat": 0.0, "lon": -77.02151216666667}, {"lat": 38.912969833333335, "type": "electric_scooter", "is_disabled": 0, "name": "3f01102109904b94444d902e75dacfb0", "bike_id": "3f01102109904b94444d902e75dacfb0", "fusion_lon": 0.0, "rental_uris": {"ios": "https://dc.lft.to/lastmile_qr_scan", "android": "https://dc.lft.to/lastmile_qr_scan"}, "is_reserved": 0, "fusion_lat": 0.0, "lon": -76.98541233333333}, {"lat": 38.88713466666667, "type": "electric_scooter", "is_disabled": 0, "name": "6bc3c849eeaf6ba0294e62aba299deca", "bike_id": "6bc3c849eeaf6ba0294e62aba299deca", "fusion_lon": 0.0, "rental_uris": {"ios": "https://dc.lft.to/lastmile_qr_scan", "android": "https://dc.lft.to/lastmile_qr_scan"}, "is_reserved": 0, "fusion_lat": 0.0, "lon": -77.02825616666667}, {"lat": 38.91801066666667, "type": "electric_scooter", "is_disabled": 0, "name": "e43692b5b4a3a74b39a2e7c2a3c8db7b", "bike_id": "e43692b5b4a3a74b39a2e7c2a3c8db7b", "fusion_lon": 0.0, "rental_uris": {"ios": "https://dc.lft.to/lastmile_qr_scan", "android": "https://dc.lft.to/lastmile_qr_scan"}, "is_reserved": 0, "fusion_lat": 0.0, "lon": -77.031788}, {"lat": 38.9445185, "type": "electric_scooter", "is_disabled": 0, "name": "f2d1458e4726d643ee2226a0fb871f08", "bike_id": "f2d1458e4726d643ee2226a0fb871f08", "fusion_lon": 0.0, "rental_uris": {"ios": "https://dc.lft.to/lastmile_qr_scan", "android": "https://dc.lft.to/lastmile_qr_scan"}, "is_reserved": 0, "fusion_lat": 0.0, "lon": -77.0635135}, {"lat": 38.89379733333333, "type": "electric_scooter", "is_disabled": 0, "name": "14d672c9a3a28f2b24a67d3dff973a75", "bike_id": "14d672c9a3a28f2b24a67d3dff973a75", "fusion_lon": 0.0, "rental_uris": {"ios": "https://dc.lft.to/lastmile_qr_scan", "android": "https://dc.lft.to/lastmile_qr_scan"}, "is_reserved": 0, "fusion_lat": 0.0, "lon": -77.003384}, {"lat": 38.90403166666667, "type": "electric_scooter", "is_disabled": 0, "name": "4fa9516752b97e46ab6f3461a1325a1a", "bike_id": "4fa9516752b97e46ab6f3461a1325a1a", "fusion_lon": 0.0, "rental_uris": {"ios": "https://dc.lft.to/lastmile_qr_scan", "android": "https://dc.lft.to/lastmile_qr_scan"}, "is_reserved": 0, "fusion_lat": 0.0, "lon": -77.0383755}, {"lat": 38.92479, "type": "electric_scooter", "is_disabled": 0, "name": "99d2bc41cf48353e05f4beabdfcdaf26", "bike_id": "99d2bc41cf48353e05f4beabdfcdaf26", "fusion_lon": 0.0, "rental_uris": {"ios": "https://dc.lft.to/lastmile_qr_scan", "android": "https://dc.lft.to/lastmile_qr_scan"}, "is_reserved": 0, "fusion_lat": 0.0, "lon": -77.02190533333334}, {"lat": 38.92262816666667, "type": "electric_scooter", "is_disabled": 0, "name": "03e74e89ae06275193acc95114b414de", "bike_id": "03e74e89ae06275193acc95114b414de", "fusion_lon": 0.0, "rental_uris": {"ios": "https://dc.lft.to/lastmile_qr_scan", "android": "https://dc.lft.to/lastmile_qr_scan"}, "is_reserved": 0, "fusion_lat": 0.0, "lon": -77.019519}, {"lat": 38.94411083333333, "type": "electric_scooter", "is_disabled": 0, "name": "eb9f82e3376d303bac32998d6569cee7", "bike_id": "eb9f82e3376d303bac32998d6569cee7", "fusion_lon": 0.0, "rental_uris": {"ios": "https://dc.lft.to/lastmile_qr_scan", "android": "https://dc.lft.to/lastmile_qr_scan"}, "is_reserved": 0, "fusion_lat": 0.0, "lon": -77.063325}, {"lat": 38.90949483333333, "type": "electric_scooter", "is_disabled": 0, "name": "2219a4dce8f0a7e96c662444daeb90fb", "bike_id": "2219a4dce8f0a7e96c662444daeb90fb", "fusion_lon": 0.0, "rental_uris": {"ios": "https://dc.lft.to/lastmile_qr_scan", "android": "https://dc.lft.to/lastmile_qr_scan"}, "is_reserved": 0, "fusion_lat": 0.0, "lon": -77.01524866666666}, {"lat": 38.8922555, "type": "electric_scooter", "is_disabled": 0, "name": "1deb1fe0a109dd2933a2a7d5fa5032f1", "bike_id": "1deb1fe0a109dd2933a2a7d5fa5032f1", "fusion_lon": 0.0, "rental_uris": {"ios": "https://dc.lft.to/lastmile_qr_scan", "android": "https://dc.lft.to/lastmile_qr_scan"}, "is_reserved": 0, "fusion_lat": 0.0, "lon": -77.04464583333333}, {"lat": 38.92375883333333, "type": "electric_scooter", "is_disabled": 0, "name": "9fd9110717e8984eec4c80dca70eaeab", "bike_id": "9fd9110717e8984eec4c80dca70eaeab", "fusion_lon": 0.0, "rental_uris": {"ios": "https://dc.lft.to/lastmile_qr_scan", "android": "https://dc.lft.to/lastmile_qr_scan"}, "is_reserved": 0, "fusion_lat": 0.0, "lon": -77.02068333333334}, {"lat": 38.962273333333336, "type": "electric_scooter", "is_disabled": 0, "name": "70590bf48a22287307d190bc0bfacdcd", "bike_id": "70590bf48a22287307d190bc0bfacdcd", "fusion_lon": 0.0, "rental_uris": {"ios": "https://dc.lft.to/lastmile_qr_scan", "android": "https://dc.lft.to/lastmile_qr_scan"}, "is_reserved": 0, "fusion_lat": 0.0, "lon": -77.01352116666666}, {"lat": 38.875833166666666, "type": "electric_scooter", "is_disabled": 0, "name": "1416f6779d7c503fad4a8763f18aabae", "bike_id": "1416f6779d7c503fad4a8763f18aabae", "fusion_lon": 0.0, "rental_uris": {"ios": "https://dc.lft.to/lastmile_qr_scan", "android": "https://dc.lft.to/lastmile_qr_scan"}, "is_reserved": 0, "fusion_lat": 0.0, "lon": -77.00605533333334}, {"lat": 38.902614166666666, "type": "electric_scooter", "is_disabled": 0, "name": "79bf403e078be72636a39a3b232c8d91", "bike_id": "79bf403e078be72636a39a3b232c8d91", "fusion_lon": 0.0, "rental_uris": {"ios": "https://dc.lft.to/lastmile_qr_scan", "android": "https://dc.lft.to/lastmile_qr_scan"}, "is_reserved": 0, "fusion_lat": 0.0, "lon": -77.04595616666667}, {"lat": 38.929640666666664, "type": "electric_scooter", "is_disabled": 0, "name": "1ccc836c54dc6cfff395a2fafa29041d", "bike_id": "1ccc836c54dc6cfff395a2fafa29041d", "fusion_lon": 0.0, "rental_uris": {"ios": "https://dc.lft.to/lastmile_qr_scan", "android": "https://dc.lft.to/lastmile_qr_scan"}, "is_reserved": 0, "fusion_lat": 0.0, "lon": -77.011417}, {"lat": 38.9027045, "type": "electric_scooter", "is_disabled": 0, "name": "f050d654dbfb8f91184fa09025a90996", "bike_id": "f050d654dbfb8f91184fa09025a90996", "fusion_lon": 0.0, "rental_uris": {"ios": "https://dc.lft.to/lastmile_qr_scan", "android": "https://dc.lft.to/lastmile_qr_scan"}, "is_reserved": 0, "fusion_lat": 0.0, "lon": -77.03190183333334}, {"lat": 38.89225666666667, "type": "electric_scooter", "is_disabled": 0, "name": "d07a34c04f366d73de4ddbcc577d85ff", "bike_id": "d07a34c04f366d73de4ddbcc577d85ff", "fusion_lon": 0.0, "rental_uris": {"ios": "https://dc.lft.to/lastmile_qr_scan", "android": "https://dc.lft.to/lastmile_qr_scan"}, "is_reserved": 0, "fusion_lat": 0.0, "lon": -77.04680483333334}, {"lat": 38.92802783333333, "type": "electric_scooter", "is_disabled": 0, "name": "a7d8b8cb8749fef1933e1b09d8f7ba54", "bike_id": "a7d8b8cb8749fef1933e1b09d8f7ba54", "fusion_lon": 0.0, "rental_uris": {"ios": "https://dc.lft.to/lastmile_qr_scan", "android": "https://dc.lft.to/lastmile_qr_scan"}, "is_reserved": 0, "fusion_lat": 0.0, "lon": -77.015544}, {"lat": 38.784659, "type": "electric_bike", "is_disabled": 0, "name": "65f03d1d01836fc4db53d60712ae9c78", "bike_id": "65f03d1d01836fc4db53d60712ae9c78", "fusion_lon": 0.0, "rental_uris": {"ios": "https://dc.lft.to/lastmile_qr_scan", "android": "https://dc.lft.to/lastmile_qr_scan"}, "is_reserved": 0, "fusion_lat": 0.0, "lon": -77.05437216666667}, {"lat": 38.900213666666666, "type": "electric_scooter", "is_disabled": 0, "name": "cb8e4cb31241425af5c65d9160160b01", "bike_id": "cb8e4cb31241425af5c65d9160160b01", "fusion_lon": 0.0, "rental_uris": {"ios": "https://dc.lft.to/lastmile_qr_scan", "android": "https://dc.lft.to/lastmile_qr_scan"}, "is_reserved": 0, "fusion_lat": 0.0, "lon": -77.02199833333333}, {"lat": 38.9289235, "type": "electric_scooter", "is_disabled": 0, "name": "b59b35af8c403a28fe31aea710b14275", "bike_id": "b59b35af8c403a28fe31aea710b14275", "fusion_lon": 0.0, "rental_uris": {"ios": "https://dc.lft.to/lastmile_qr_scan", "android": "https://dc.lft.to/lastmile_qr_scan"}, "is_reserved": 0, "fusion_lat": 0.0, "lon": -77.03321266666667}, {"lat": 38.903772833333335, "type": "electric_scooter", "is_disabled": 0, "name": "27e6804d5a70a84a7fbd31363c9eb3c4", "bike_id": "27e6804d5a70a84a7fbd31363c9eb3c4", "fusion_lon": 0.0, "rental_uris": {"ios": "https://dc.lft.to/lastmile_qr_scan", "android": "https://dc.lft.to/lastmile_qr_scan"}, "is_reserved": 0, "fusion_lat": 0.0, "lon": -77.036699}, {"lat": 38.865649166666664, "type": "electric_scooter", "is_disabled": 0, "name": "32007c64e7ec390cf1aaf54c62ebc7ad", "bike_id": "32007c64e7ec390cf1aaf54c62ebc7ad", "fusion_lon": 0.0, "rental_uris": {"ios": "https://dc.lft.to/lastmile_qr_scan", "android": "https://dc.lft.to/lastmile_qr_scan"}, "is_reserved": 0, "fusion_lat": 0.0, "lon": -76.9783695}, {"lat": 38.924080333333336, "type": "electric_scooter", "is_disabled": 0, "name": "3ad0574ff54d928f9d685d29b2e5646c", "bike_id": "3ad0574ff54d928f9d685d29b2e5646c", "fusion_lon": 0.0, "rental_uris": {"ios": "https://dc.lft.to/lastmile_qr_scan", "android": "https://dc.lft.to/lastmile_qr_scan"}, "is_reserved": 0, "fusion_lat": 0.0, "lon": -76.99593266666666}, {"lat": 38.911305166666665, "type": "electric_scooter", "is_disabled": 0, "name": "5816a2cf9de689ca36e6c2d01b8f930e", "bike_id": "5816a2cf9de689ca36e6c2d01b8f930e", "fusion_lon": 0.0, "rental_uris": {"ios": "https://dc.lft.to/lastmile_qr_scan", "android": "https://dc.lft.to/lastmile_qr_scan"}, "is_reserved": 0, "fusion_lat": 0.0, "lon": -77.04406816666666}, {"lat": 38.91563, "type": "electric_scooter", "is_disabled": 0, "name": "d788ac42c6c23d8ca67c88fcb37f77e7", "bike_id": "d788ac42c6c23d8ca67c88fcb37f77e7", "fusion_lon": 0.0, "rental_uris": {"ios": "https://dc.lft.to/lastmile_qr_scan", "android": "https://dc.lft.to/lastmile_qr_scan"}, "is_reserved": 0, "fusion_lat": 0.0, "lon": -77.00712866666667}, {"lat": 38.89833733333333, "type": "electric_scooter", "is_disabled": 0, "name": "d4e0dc8e664d8182b98af1b234d9a724", "bike_id": "d4e0dc8e664d8182b98af1b234d9a724", "fusion_lon": 0.0, "rental_uris": {"ios": "https://dc.lft.to/lastmile_qr_scan", "android": "https://dc.lft.to/lastmile_qr_scan"}, "is_reserved": 0, "fusion_lat": 0.0, "lon": -76.94642466666667}, {"lat": 38.896144666666665, "type": "electric_scooter", "is_disabled": 0, "name": "f88e010498fc8258968e094217ff2656", "bike_id": "f88e010498fc8258968e094217ff2656", "fusion_lon": 0.0, "rental_uris": {"ios": "https://dc.lft.to/lastmile_qr_scan", "android": "https://dc.lft.to/lastmile_qr_scan"}, "is_reserved": 0, "fusion_lat": 0.0, "lon": -77.04649633333334}, {"lat": 38.880264, "type": "electric_scooter", "is_disabled": 0, "name": "06423710ac521a4ca30adcf15b43ea03", "bike_id": "06423710ac521a4ca30adcf15b43ea03", "fusion_lon": 0.0, "rental_uris": {"ios": "https://dc.lft.to/lastmile_qr_scan", "android": "https://dc.lft.to/lastmile_qr_scan"}, "is_reserved": 0, "fusion_lat": 0.0, "lon": -76.94326283333334}, {"lat": 38.887153, "type": "electric_scooter", "is_disabled": 0, "name": "d572ac9a518a0f1eedbc7b95a25fb665", "bike_id": "d572ac9a518a0f1eedbc7b95a25fb665", "fusion_lon": 0.0, "rental_uris": {"ios": "https://dc.lft.to/lastmile_qr_scan", "android": "https://dc.lft.to/lastmile_qr_scan"}, "is_reserved": 0, "fusion_lat": 0.0, "lon": -76.983399}, {"lat": 38.8039305, "type": "electric_bike", "is_disabled": 0, "name": "80a27f346a7f4b7a7d33abb163d1ac6b", "bike_id": "80a27f346a7f4b7a7d33abb163d1ac6b", "fusion_lon": 0.0, "rental_uris": {"ios": "https://dc.lft.to/lastmile_qr_scan", "android": "https://dc.lft.to/lastmile_qr_scan"}, "is_reserved": 0, "fusion_lat": 0.0, "lon": -76.98809533333333}, {"lat": 38.90559, "type": "electric_scooter", "is_disabled": 0, "name": "07c60a2ffc45d144894c9c32ed6cc2eb", "bike_id": "07c60a2ffc45d144894c9c32ed6cc2eb", "fusion_lon": 0.0, "rental_uris": {"ios": "https://dc.lft.to/lastmile_qr_scan", "android": "https://dc.lft.to/lastmile_qr_scan"}, "is_reserved": 0, "fusion_lat": 0.0, "lon": -76.98373783333334}, {"lat": 38.84719833333333, "type": "electric_scooter", "is_disabled": 0, "name": "7a17fcda40334804abd9d5206637680f", "bike_id": "7a17fcda40334804abd9d5206637680f", "fusion_lon": 0.0, "rental_uris": {"ios": "https://dc.lft.to/lastmile_qr_scan", "android": "https://dc.lft.to/lastmile_qr_scan"}, "is_reserved": 0, "fusion_lat": 0.0, "lon": -76.96813283333333}, {"lat": 38.89757783333334, "type": "electric_scooter", "is_disabled": 0, "name": "4b98c1601bbdb7164940400a5bfdba92", "bike_id": "4b98c1601bbdb7164940400a5bfdba92", "fusion_lon": 0.0, "rental_uris": {"ios": "https://dc.lft.to/lastmile_qr_scan", "android": "https://dc.lft.to/lastmile_qr_scan"}, "is_reserved": 0, "fusion_lat": 0.0, "lon": -77.04090333333333}, {"lat": 38.900323666666665, "type": "electric_scooter", "is_disabled": 0, "name": "4e863429969779bd9d16efa26c3014be", "bike_id": "4e863429969779bd9d16efa26c3014be", "fusion_lon": 0.0, "rental_uris": {"ios": "https://dc.lft.to/lastmile_qr_scan", "android": "https://dc.lft.to/lastmile_qr_scan"}, "is_reserved": 0, "fusion_lat": 0.0, "lon": -76.988337}, {"lat": 38.919222, "type": "electric_scooter", "is_disabled": 0, "name": "7de2e5c5e8fabf6a7c06bef7196c23bf", "bike_id": "7de2e5c5e8fabf6a7c06bef7196c23bf", "fusion_lon": 0.0, "rental_uris": {"ios": "https://dc.lft.to/lastmile_qr_scan", "android": "https://dc.lft.to/lastmile_qr_scan"}, "is_reserved": 0, "fusion_lat": 0.0, "lon": -77.03088583333333}, {"lat": 38.932546333333335, "type": "electric_scooter", "is_disabled": 0, "name": "24c3c7ded72e56d49b1affe2b0562b75", "bike_id": "24c3c7ded72e56d49b1affe2b0562b75", "fusion_lon": 0.0, "rental_uris": {"ios": "https://dc.lft.to/lastmile_qr_scan", "android": "https://dc.lft.to/lastmile_qr_scan"}, "is_reserved": 0, "fusion_lat": 0.0, "lon": -77.03279683333334}, {"lat": 39.074715833333336, "type": "electric_bike", "is_disabled": 0, "name": "badea2c2efce0e8e1c7236a811482d79", "bike_id": "badea2c2efce0e8e1c7236a811482d79", "fusion_lon": 0.0, "rental_uris": {"ios": "https://dc.lft.to/lastmile_qr_scan", "android": "https://dc.lft.to/lastmile_qr_scan"}, "is_reserved": 0, "fusion_lat": 0.0, "lon": -77.11521366666666}, {"lat": 38.89888783333333, "type": "electric_scooter", "is_disabled": 0, "name": "ae08ac3541ae10ac3147cc3cf130a0b7", "bike_id": "ae08ac3541ae10ac3147cc3cf130a0b7", "fusion_lon": 0.0, "rental_uris": {"ios": "https://dc.lft.to/lastmile_qr_scan", "android": "https://dc.lft.to/lastmile_qr_scan"}, "is_reserved": 0, "fusion_lat": 0.0, "lon": -77.03274516666667}, {"lat": 38.802513833333336, "type": "electric_bike", "is_disabled": 0, "name": "9abbc61784c21760144385c7ec697dfb", "bike_id": "9abbc61784c21760144385c7ec697dfb", "fusion_lon": 0.0, "rental_uris": {"ios": "https://dc.lft.to/lastmile_qr_scan", "android": "https://dc.lft.to/lastmile_qr_scan"}, "is_reserved": 0, "fusion_lat": 0.0, "lon": -77.11448766666666}, {"lat": 38.9168105, "type": "electric_scooter", "is_disabled": 0, "name": "5de5b3a7e5e527e26eb6ba7762340dbf", "bike_id": "5de5b3a7e5e527e26eb6ba7762340dbf", "fusion_lon": 0.0, "rental_uris": {"ios": "https://dc.lft.to/lastmile_qr_scan", "android": "https://dc.lft.to/lastmile_qr_scan"}, "is_reserved": 0, "fusion_lat": 0.0, "lon": -77.04602816666667}, {"lat": 38.90873466666667, "type": "electric_scooter", "is_disabled": 0, "name": "16dda8effdfdba12eafb3f67d43fa6d4", "bike_id": "16dda8effdfdba12eafb3f67d43fa6d4", "fusion_lon": 0.0, "rental_uris": {"ios": "https://dc.lft.to/lastmile_qr_scan", "android": "https://dc.lft.to/lastmile_qr_scan"}, "is_reserved": 0, "fusion_lat": 0.0, "lon": -77.0753125}, {"lat": 38.90436616666667, "type": "electric_scooter", "is_disabled": 0, "name": "3b0786918cc285c38f67b72e9771bae0", "bike_id": "3b0786918cc285c38f67b72e9771bae0", "fusion_lon": 0.0, "rental_uris": {"ios": "https://dc.lft.to/lastmile_qr_scan", "android": "https://dc.lft.to/lastmile_qr_scan"}, "is_reserved": 0, "fusion_lat": 0.0, "lon": -77.024022}, {"lat": 38.964031166666665, "type": "electric_scooter", "is_disabled": 0, "name": "0254b9610d47982715e2b37fb73ae410", "bike_id": "0254b9610d47982715e2b37fb73ae410", "fusion_lon": 0.0, "rental_uris": {"ios": "https://dc.lft.to/lastmile_qr_scan", "android": "https://dc.lft.to/lastmile_qr_scan"}, "is_reserved": 0, "fusion_lat": 0.0, "lon": -77.02767366666667}, {"lat": 38.872930833333335, "type": "electric_scooter", "is_disabled": 0, "name": "ac44d7e7eb200c42ac1197d02de3443d", "bike_id": "ac44d7e7eb200c42ac1197d02de3443d", "fusion_lon": 0.0, "rental_uris": {"ios": "https://dc.lft.to/lastmile_qr_scan", "android": "https://dc.lft.to/lastmile_qr_scan"}, "is_reserved": 0, "fusion_lat": 0.0, "lon": -77.00985916666667}, {"lat": 38.942404333333336, "type": "electric_scooter", "is_disabled": 0, "name": "b96fc0cd32f7a6250d144e2e1de04680", "bike_id": "b96fc0cd32f7a6250d144e2e1de04680", "fusion_lon": 0.0, "rental_uris": {"ios": "https://dc.lft.to/lastmile_qr_scan", "android": "https://dc.lft.to/lastmile_qr_scan"}, "is_reserved": 0, "fusion_lat": 0.0, "lon": -77.025741}, {"lat": 38.928227, "type": "electric_scooter", "is_disabled": 0, "name": "152f033b0ac8d5e521419ac6348456e8", "bike_id": "152f033b0ac8d5e521419ac6348456e8", "fusion_lon": 0.0, "rental_uris": {"ios": "https://dc.lft.to/lastmile_qr_scan", "android": "https://dc.lft.to/lastmile_qr_scan"}, "is_reserved": 0, "fusion_lat": 0.0, "lon": -77.02298133333333}, {"lat": 38.87531333333333, "type": "electric_scooter", "is_disabled": 0, "name": "191865c54b19e08595f3e79065b456a0", "bike_id": "191865c54b19e08595f3e79065b456a0", "fusion_lon": 0.0, "rental_uris": {"ios": "https://dc.lft.to/lastmile_qr_scan", "android": "https://dc.lft.to/lastmile_qr_scan"}, "is_reserved": 0, "fusion_lat": 0.0, "lon": -77.012223}, {"lat": 38.905691, "type": "electric_scooter", "is_disabled": 0, "name": "8dd617fa7917dd31a924c0b44308fbf8", "bike_id": "8dd617fa7917dd31a924c0b44308fbf8", "fusion_lon": 0.0, "rental_uris": {"ios": "https://dc.lft.to/lastmile_qr_scan", "android": "https://dc.lft.to/lastmile_qr_scan"}, "is_reserved": 0, "fusion_lat": 0.0, "lon": -77.00591883333334}, {"lat": 38.925467833333336, "type": "electric_scooter", "is_disabled": 0, "name": "8d008b0ac59e94da664ae771f8541e0b", "bike_id": "8d008b0ac59e94da664ae771f8541e0b", "fusion_lon": 0.0, "rental_uris": {"ios": "https://dc.lft.to/lastmile_qr_scan", "android": "https://dc.lft.to/lastmile_qr_scan"}, "is_reserved": 0, "fusion_lat": 0.0, "lon": -77.0006585},