{"data": {"bikes": [{"name": "f831c9d89250454fd1b572db71187182", "fusion_lat": 0.0, "type": "electric_scooter", "lat": 38.8902385, "is_reserved": 0, "is_disabled": 0, "fusion_lon": 0.0, "bike_id": "f831c9d89250454fd1b572db71187182", "lon": -76.934969, "rental_uris": {"ios": "https://dc.lft.to/lastmile_qr_scan", "android": "https://dc.lft.to/lastmile_qr_scan"}}, {"name": "511dd2285348ccf1218c9216ac47a346", "fusion_lat": 0.0, "type": "electric_scooter", "lat": 38.904518333333336, "is_reserved": 0, "is_disabled": 0, "fusion_lon": 0.0, "bike_id": "511dd2285348ccf1218c9216ac47a346", "lon": -77.03443783333333, "rental_uris": {"ios": "https://dc.lft.to/lastmile_qr_scan", "android": "https://dc.lft.to/lastmile_qr_scan"}}, {"name": "67faed96de26a5cfe013e14f97f7eeb4", "fusion_lat": 0.0, "type": "electric_scooter", "lat": 38.900417166666664, "is_reserved": 0, "is_disabled": 0, "fusion_lon": 0.0, "bike_id": "67faed96de26a5cfe013e14f97f7eeb4", "lon": -76.91915716666666, "rental_uris": {"ios": "https://dc.lft.to/lastmile_qr_scan", "android": "https://dc.lft.to/lastmile_qr_scan"}}, {"name": "71f2e5c092356fa93c16019fb8403665", "fusion_lat": 0.0, "type": "electric_scooter", "lat": 38.9013545, "is_reserved": 0, "is_disabled": 0, "fusion_lon": 0.0, "bike_id": "71f2e5c092356fa93c16019fb8403665", "lon": -77.04996516666667, "rental_uris": {"ios": "https://dc.lft.to/lastmile_qr_scan", "android": "https://dc.lft.to/lastmile_qr_scan"}}, {"name": "cad9fae00df8f83c43e30693d6f751e5", "fusion_lat": 0.0, "type": "electric_scooter", "lat": 38.89301616666667, "is_reserved": 0, "is_disabled": 0, "fusion_lon": 0.0, "bike_id": "cad9fae00df8f83c43e30693d6f751e5", "lon": -77.0137635, "rental_uris": {"ios": "https://dc.lft.to/lastmile_qr_scan", "android": "https://dc.lft.to/lastmile_qr_scan"}}, {"name": "99de0e0dc7d23aa93ffbb86d7e037872", "fusion_lat": 0.0, "type": "electric_scooter", "lat": 38.93394883333333, "is_reserved": 0, "is_disabled": 0, "fusion_lon": 0.0, "bike_id": "99de0e0dc7d23aa93ffbb86d7e037872", "lon": -77.03150333333333, "rental_uris": {"ios": "https://dc.lft.to/lastmile_qr_scan", "android": "https://dc.lft.to/lastmile_qr_scan"}}, {"name": "eb5157250f4f281514ec18aaf6bbc56d", "fusion_lat": 0.0, "type": "electric_scooter", "lat": 38.90357233333334, "is_reserved": 0, "is_disabled": 0, "fusion_lon": 0.0, "bike_id": "eb5157250f4f281514ec18aaf6bbc56d", "lon": -77.03832033333333, "rental_uris": {"ios": "https://dc.lft.to/lastmile_qr_scan", "android": "https://dc.lft.to/lastmile_qr_scan"}}, {"name": "b8eeb17a8663f5f1b6711f57439c50fa", "fusion_lat": 0.0, "type": "electric_scooter", "lat": 38.87649716666667, "is_reserved": 0, "is_disabled": 0, "fusion_lon": 0.0, "bike_id": "b8eeb17a8663f5f1b6711f57439c50fa", "lon": -76.96505233333333, "rental_uris": {"ios": "https://dc.lft.to/lastmile_qr_scan", "android": "https://dc.lft.to/lastmile_qr_scan"}}, {"name": "d4dd3fa129b351b7c78bdb55065c7e95", "fusion_lat": 0.0, "type": "electric_bike", "lat": 38.9377615, "is_reserved": 0, "is_disabled": 0, "fusion_lon": 0.0, "bike_id": "d4dd3fa129b351b7c78bdb55065c7e95", "lon": -77.01910116666667, "rental_uris": {"ios": "https://dc.lft.to/lastmile_qr_scan", "android": "https://dc.lft.to/lastmile_qr_scan"}}, {"name": "31580fd5e45bf4fd4f4bfa7ab4cee333", "fusion_lat": 0.0, "type": "electric_scooter", "lat": 38.904981666666664, "is_reserved": 0, "is_disabled": 0, "fusion_lon": 0.0, "bike_id": "31580fd5e45bf4fd4f4bfa7ab4cee333", "lon": -77.069418, "rental_uris": {"ios": "https://dc.lft.to/lastmile_qr_scan", "android": "https://dc.lft.to/lastmile_qr_scan"}}, {"name": "f42d95673fa43d22b7230e00c27c4afa", "fusion_lat": 0.0, "type": "electric_scooter", "lat": 38.91113083333333, "is_reserved": 0, "is_disabled": 0, "fusion_lon": 0.0, "bike_id": "f42d95673fa43d22b7230e00c27c4afa", "lon": -77.01056083333333, "rental_uris": {"ios": "https://dc.lft.to/lastmile_qr_scan", "android": "https://dc.lft.to/lastmile_qr_scan"}}, {"name": "b66c10fabf1934fa9515ec2e89fe47b5", "fusion_lat": 0.0, "type": "electric_scooter", "lat": 38.898451333333334, "is_reserved": 0, "is_disabled": 0, "fusion_lon": 0.0, "bike_id": "b66c10fabf1934fa9515ec2e89fe47b5", "lon": -77.03311933333333, "rental_uris": {"ios": "https://dc.lft.to/lastmile_qr_scan", "android": "https://dc.lft.to/lastmile_qr_scan"}}, {"name": "d3667ad83da5bb2ef711ba898299bdbd", "fusion_lat": 0.0, "type": "electric_scooter", "lat": 38.90314566666667, "is_reserved": 0, "is_disabled": 0, "fusion_lon": 0.0, "bike_id": "d3667ad83da5bb2ef711ba898299bdbd", "lon": -76.98250283333333, "rental_uris": {"ios": "https://dc.lft.to/lastmile_qr_scan", "android": "https://dc.lft.to/lastmile_qr_scan"}}, {"name": "25fee33257c33c76f634af6a85251ec0", "fusion_lat": 0.0, "type": "electric_bike", "lat": 38.93010966666667, "is_reserved": 0, "is_disabled": 0, "fusion_lon": 0.0, "bike_id": "25fee33257c33c76f634af6a85251ec0", "lon": -77.02088683333334, "rental_uris": {"ios": "https://dc.lft.to/lastmile_qr_scan", "android": "https://dc.lft.to/lastmile_qr_scan"}}, {"name": "40ca1dfe1c2683a5c2aa4ae448417121", "fusion_lat": 0.0, "type": "electric_scooter", "lat": 38.93111, "is_reserved": 0, "is_disabled": 0, "fusion_lon": 0.0, "bike_id": "40ca1dfe1c2683a5c2aa4ae448417121", "lon": -77.0384055, "rental_uris": {"ios": "https://dc.lft.to/lastmile_qr_scan", "android": "https://dc.lft.to/lastmile_qr_scan"}}, {"name": "9345193985573554fce0f828453d90d3", "fusion_lat": 0.0, "type": "electric_scooter", "lat": 38.9119155, "is_reserved": 0, "is_disabled": 0, "fusion_lon": 0.0, "bike_id": "9345193985573554fce0f828453d90d3", "lon": -77.00728833333334, "rental_uris": {"ios": "https://dc.lft.to/lastmile_qr_scan", "android": "https://dc.lft.to/lastmile_qr_scan"}}, {"name": "fb2b1ec154d5fef9c1e0bdd5e0e42a07", "fusion_lat": 0.0, "type": "electric_bike", "lat": 38.892837666666665, "is_reserved": 0, "is_disabled": 0, "fusion_lon": 0.0, "bike_id": "fb2b1ec154d5fef9c1e0bdd5e0e42a07", "lon": -77.01373116666667, "rental_uris": {"ios": "https://dc.lft.to/lastmile_qr_scan", "android": "https://dc.lft.to/lastmile_qr_scan"}}, {"name": "0fce7fecbb710ca636c6d7843ea0170d", "fusion_lat": 0.0, "type": "electric_scooter", "lat": 38.9394305, "is_reserved": 0, "is_disabled": 0, "fusion_lon": 0.0, "bike_id": "0fce7fecbb710ca636c6d7843ea0170d", "lon": -77.0362135, "rental_uris": {"ios": "https://dc.lft.to/lastmile_qr_scan", "android": "https://dc.lft.to/lastmile_qr_scan"}}, {"name": "1dc51c7ecde35a06f2eea22755bb049f", "fusion_lat": 0.0, "type": "electric_scooter", "lat": 38.902907666666664, "is_reserved": 0, "is_disabled": 0, "fusion_lon": 0.0, "bike_id": "1dc51c7ecde35a06f2eea22755bb049f", "lon": -77.062636, "rental_uris": {"ios": "https://dc.lft.to/lastmile_qr_scan", "android": "https://dc.lft.to/lastmile_qr_scan"}}, {"name": "ce499a71858386296847c9dbf0088259", "fusion_lat": 0.0, "type": "electric_scooter", "lat": 38.917798166666664, "is_reserved": 0, "is_disabled": 0, "fusion_lon": 0.0, "bike_id": "ce499a71858386296847c9dbf0088259", "lon": -77.0234225, "rental_uris": {"ios": "https://dc.lft.to/lastmile_qr_scan", "android": "https://dc.lft.to/lastmile_qr_scan"}}, {"name": "5769da5376157d0b7c7035806ea325c4", "fusion_lat": 0.0, "type": "electric_scooter", "lat": 38.907394833333335, "is_reserved": 0, "is_disabled": 0, "fusion_lon": 0.0, "bike_id": "5769da5376157d0b7c7035806ea325c4", "lon": -77.04668216666667, "rental_uris": {"ios": "https://dc.lft.to/lastmile_qr_scan", "android": "https://dc.lft.to/lastmile_qr_scan"}}, {"name": "2891ea6c15cf1b6da1f1ea302215fe91", "fusion_lat": 0.0, "type": "electric_scooter", "lat": 38.858419, "is_reserved": 0, "is_disabled": 0, "fusion_lon": 0.0, "bike_id": "2891ea6c15cf1b6da1f1ea302215fe91", "lon": -76.98893183333334, "rental_uris": {"ios": "https://dc.lft.to/lastmile_qr_scan", "android": "https://dc.lft.to/lastmile_qr_scan"}}, {"name": "02f4dd82cb26a785ea72d34e2b53e4ba", "fusion_lat": 0.0, "type": "electric_bike", "lat": 38.85216366666667, "is_reserved": 0, "is_disabled": 0, "fusion_lon": 0.0, "bike_id": "02f4dd82cb26a785ea72d34e2b53e4ba", "lon": -77.046515, "rental_uris": {"ios": "https://dc.lft.to/lastmile_qr_scan", "android": "https://dc.lft.to/lastmile_qr_scan"}}, {"name": "0470cf1d7448a4bccb2cfa84ad1fdc48", "fusion_lat": 0.0, "type": "electric_bike", "lat": 39.0038545, "is_reserved": 0, "is_disabled": 0, "fusion_lon": 0.0, "bike_id": "0470cf1d7448a4bccb2cfa84ad1fdc48", "lon": -77.0128465, "rental_uris": {"ios": "https://dc.lft.to/lastmile_qr_scan", "android": "https://dc.lft.to/lastmile_qr_scan"}}, {"name": "a4bb3df81e73c16712d2deb9ff03364e", "fusion_lat": 0.0, "type": "electric_scooter", "lat": 38.920402, "is_reserved": 0, "is_disabled": 0, "fusion_lon": 0.0, "bike_id": "a4bb3df81e73c16712d2deb9ff03364e", "lon": -77.01751316666666, "rental_uris": {"ios": "https://dc.lft.to/lastmile_qr_scan", "android": "https://dc.lft.to/lastmile_qr_scan"}}, {"name": "6e2c6d792dbd722c644223666924a48d", "fusion_lat": 0.0, "type": "electric_scooter", "lat": 38.93210883333333, "is_reserved": 0, "is_disabled": 0, "fusion_lon": 0.0, "bike_id": "6e2c6d792dbd722c644223666924a48d", "lon": -77.03659333333333, "rental_uris": {"ios": "https://dc.lft.to/lastmile_qr_scan", "android": "https://dc.lft.to/lastmile_qr_scan"}}, {"name": "98d7e01674dd48d23d50cc86186d8aa8", "fusion_lat": 0.0, "type": "electric_scooter", "lat": 38.90420816666666, "is_reserved": 0, "is_disabled": 0, "fusion_lon": 0.0, "bike_id": "98d7e01674dd48d23d50cc86186d8aa8", "lon": -76.990692, "rental_uris": {"ios": "https://dc.lft.to/lastmile_qr_scan", "android": "https://dc.lft.to/lastmile_qr_scan"}}, {"name": "414c2de78cb2f212a7c6e9118661aec3", "fusion_lat": 0.0, "type": "electric_scooter", "lat": 38.923492, "is_reserved": 0, "is_disabled": 0, "fusion_lon": 0.0, "bike_id": "414c2de78cb2f212a7c6e9118661aec3", "lon": -77.05433666666667, "rental_uris": {"ios": "https://dc.lft.to/lastmile_qr_scan", "android": "https://dc.lft.to/lastmile_qr_scan"}}, {"name": "dfb2d6ea5933251616fcea82f330751c", "fusion_lat": 0.0, "type": "electric_scooter", "lat": 38.946982, "is_reserved": 0, "is_disabled": 0, "fusion_lon": 0.0, "bike_id": "dfb2d6ea5933251616fcea82f330751c", "lon": -77.01938366666667, "rental_uris": {"ios": "https://dc.lft.to/lastmile_qr_scan", "android": "https://dc.lft.to/lastmile_qr_scan"}}, {"name": "d3843e296f6d44d91a36bbfb63e47672", "fusion_lat": 0.0, "type": "electric_scooter", "lat": 38.90636833333333, "is_reserved": 0, "is_disabled": 0, "fusion_lon": 0.0, "bike_id": "d3843e296f6d44d91a36bbfb63e47672", "lon": -77.00604033333333, "rental_uris": {"ios": "https://dc.lft.to/lastmile_qr_scan", "android": "https://dc.lft.to/lastmile_qr_scan"}}, {"name": "8c488c33bfc5db4f9fbd426d4c9a9b1a", "fusion_lat": 0.0, "type": "electric_bike", "lat": 38.8079295, "is_reserved": 0, "is_disabled": 0, "fusion_lon": 0.0, "bike_id": "8c488c33bfc5db4f9fbd426d4c9a9b1a", "lon": -77.12967516666667, "rental_uris": {"ios": "https://dc.lft.to/lastmile_qr_scan", "android": "https://dc.lft.to/lastmile_qr_scan"}}, {"name": "d060b86f3ffced1d8520a850af19a219", "fusion_lat": 0.0, "type": "electric_scooter", "lat": 38.93633366666667, "is_reserved": 0, "is_disabled": 0, "fusion_lon": 0.0, "bike_id": "d060b86f3ffced1d8520a850af19a219", "lon": -77.036523, "rental_uris": {"ios": "https://dc.lft.to/lastmile_qr_scan", "android": "https://dc.lft.to/lastmile_qr_scan"}}, {"name": "df946e979ae89ad0b6e315eea8a26e85", "fusion_lat": 0.0, "type": "electric_bike", "lat": 38.957176, "is_reserved": 0, "is_disabled": 0, "fusion_lon": 0.0, "bike_id": "df946e979ae89ad0b6e315eea8a26e85", "lon": -77.01482883333334, "rental_uris": {"ios": "https://dc.lft.to/lastmile_qr_scan", "android": "https://dc.lft.to/lastmile_qr_scan"}}, {"name": "3747acb4a80b099ea5ade996c4a9332f", "fusion_lat": 0.0, "type": "electric_scooter", "lat": 38.89406916666667, "is_reserved": 0, "is_disabled": 0, "fusion_lon": 0.0, "bike_id": "3747acb4a80b099ea5ade996c4a9332f", "lon": -76.93239083333333, "rental_uris": {"ios": "https://dc.lft.to/lastmile_qr_scan", "android": "https://dc.lft.to/lastmile_qr_scan"}}, {"name": "f7b2e651b80a42c4374dd817f6873924", "fusion_lat": 0.0, "type": "electric_scooter", "lat": 38.95912116666667, "is_reserved": 0, "is_disabled": 0, "fusion_lon": 0.0, "bike_id": "f7b2e651b80a42c4374dd817f6873924", "lon": -77.080766, "rental_uris": {"ios": "https://dc.lft.to/lastmile_qr_scan", "android": "https://dc.lft.to/lastmile_qr_scan"}}, {"name": "b4f1009a5d2079588d3a9ea187a6b471", "fusion_lat": 0.0, "type": "electric_scooter", "lat": 38.90265266666667, "is_reserved": 0, "is_disabled": 0, "fusion_lon": 0.0, "bike_id": "b4f1009a5d2079588d3a9ea187a6b471", "lon": -77.04483333333333, "rental_uris": {"ios": "https://dc.lft.to/lastmile_qr_scan", "android": "https://dc.lft.to/lastmile_qr_scan"}}, {"name": "208e273f76e864ba0adf99cb320d8ed3", "fusion_lat": 0.0, "type": "electric_scooter", "lat": 38.903449, "is_reserved": 0, "is_disabled": 0, "fusion_lon": 0.0, "bike_id": "208e273f76e864ba0adf99cb320d8ed3", "lon": -77.04480233333334, "rental_uris": {"ios": "https://dc.lft.to/lastmile_qr_scan", "android": "https://dc.lft.to/lastmile_qr_scan"}}, {"name": "38acda90dfebe4d76f2cbba545090fdb", "fusion_lat": 0.0, "type": "electric_bike", "lat": 39.088615833333336, "is_reserved": 0, "is_disabled": 0, "fusion_lon": 0.0, "bike_id": "38acda90dfebe4d76f2cbba545090fdb", "lon": -77.17843183333333, "rental_uris": {"ios": "https://dc.lft.to/lastmile_qr_scan", "android": "https://dc.lft.to/lastmile_qr_scan"}}, {"name": "fd8dc5f83d758f2cce3b5a1755cac951", "fusion_lat": 0.0, "type": "electric_scooter", "lat": 38.90269283333333, "is_reserved": 0, "is_disabled": 0, "fusion_lon": 0.0, "bike_id": "fd8dc5f83d758f2cce3b5a1755cac951", "lon": -76.98711916666667, "rental_uris": {"ios": "https://dc.lft.to/lastmile_qr_scan", "android": "https://dc.lft.to/lastmile_qr_scan"}}, {"name": "eccf9c77c802c391398e82eecb05f57b", "fusion_lat": 0.0, "type": "electric_scooter", "lat": 38.91110466666667, "is_reserved": 0, "is_disabled": 0, "fusion_lon": 0.0, "bike_id": "eccf9c77c802c391398e82eecb05f57b", "lon": -77.0035245, "rental_uris": {"ios": "https://dc.lft.to/lastmile_qr_scan", "android": "https://dc.lft.to/lastmile_qr_scan"}}, {"name": "2a7ff063ed7c9895aa9c0fc1b4031b51", "fusion_lat": 0.0, "type": "electric_scooter", "lat": 38.876688, "is_reserved": 0, "is_disabled": 0, "fusion_lon": 0.0, "bike_id": "2a7ff063ed7c9895aa9c0fc1b4031b51", "lon": -77.00067266666667, "rental_uris": {"ios": "https://dc.lft.to/lastmile_qr_scan", "android": "https://dc.lft.to/lastmile_qr_scan"}}, {"name": "dbb92ed0efe9f14c4e2324556874111d", "fusion_lat": 0.0, "type": "electric_scooter", "lat": 38.86538733333333, "is_reserved": 0, "is_disabled": 0, "fusion_lon": 0.0, "bike_id": "dbb92ed0efe9f14c4e2324556874111d", "lon": -76.98707733333333, "rental_uris": {"ios": "https://dc.lft.to/lastmile_qr_scan", "android": "https://dc.lft.to/lastmile_qr_scan"}}, {"name": "510dbe345c9674fd604d777ae2980ca9", "fusion_lat": 0.0, "type": "electric_bike", "lat": 38.93523483333333, "is_reserved": 0, "is_disabled": 0, "fusion_lon": 0.0, "bike_id": "510dbe345c9674fd604d777ae2980ca9", "lon": -76.95062066666667, "rental_uris": {"ios": "https://dc.lft.to/lastmile_qr_scan", "android": "https://dc.lft.to/lastmile_qr_scan"}}, {"name": "f9245882e24ec5f17ad8eca97102cccd", "fusion_lat": 0.0, "type": "electric_scooter", "lat": 38.9058915, "is_reserved": 0, "is_disabled": 0, "fusion_lon": 0.0, "bike_id": "f9245882e24ec5f17ad8eca97102cccd", "lon": -77.024086, "rental_uris": {"ios": "https://dc.lft.to/lastmile_qr_scan", "android": "https://dc.lft.to/lastmile_qr_scan"}}, {"name": "9257b4bd36dde21179be2bd81ee0f836", "fusion_lat": 0.0, "type": "electric_scooter", "lat": 38.90280033333333, "is_reserved": 0, "is_disabled": 0, "fusion_lon": 0.0, "bike_id": "9257b4bd36dde21179be2bd81ee0f836", "lon": -77.036635, "rental_uris": {"ios": "https://dc.lft.to/lastmile_qr_scan", "android": "https://dc.lft.to/lastmile_qr_scan"}}, {"name": "08117a4bf58cc48c89dbc50756193674", "fusion_lat": 0.0, "type": "electric_scooter", "lat": 38.867008, "is_reserved": 0, "is_disabled": 0, "fusion_lon": 0.0, "bike_id": "08117a4bf58cc48c89dbc50756193674", "lon": -76.98902583333333, "rental_uris": {"ios": "https://dc.lft.to/lastmile_qr_scan", "android": "https://dc.lft.to/lastmile_qr_scan"}}, {"name": "b4b41899900732f007e3d25e3d36e8bc", "fusion_lat": 0.0, "type": "electric_bike", "lat": 38.9285995, "is_reserved": 0, "is_disabled": 0, "fusion_lon": 0.0, "bike_id": "b4b41899900732f007e3d25e3d36e8bc", "lon": -77.2222565, "rental_uris": {"ios": "https://dc.lft.to/lastmile_qr_scan", "android": "https://dc.lft.to/lastmile_qr_scan"}}, {"name": "507409990fad5b9d0328529517d3d060", "fusion_lat": 0.0, "type": "electric_bike", "lat": 39.05320483333333, "is_reserved": 0, "is_disabled": 0, "fusion_lon": 0.0, "bike_id": "507409990fad5b9d0328529517d3d060", "lon": -77.04769333333333, "rental_uris": {"ios": "https://dc.lft.to/lastmile_qr_scan", "android": "https://dc.lft.to/lastmile_qr_scan"}}, {"name": "1464c9ce9d086b7b210da4d67872945c", "fusion_lat": 0.0, "type": "electric_scooter", "lat": 38.905190833333336, "is_reserved": 0, "is_disabled": 0, "fusion_lon": 0.0, "bike_id": "1464c9ce9d086b7b210da4d67872945c", "lon": -77.0435505, "rental_uris": {"ios": "https://dc.lft.to/lastmile_qr_scan", "android": "https://dc.lft.to/lastmile_qr_scan"}}, {"name": "75e7bd21e517759aed21997a8cfd2ec6", "fusion_lat": 0.0, "type": "electric_scooter", "lat": 38.926462666666666, "is_reserved": 0, "is_disabled": 0, "fusion_lon": 0.0, "bike_id": "75e7bd21e517759aed21997a8cfd2ec6", "lon": -77.03690716666667, "rental_uris": {"ios": "https://dc.lft.to/lastmile_qr_scan", "android": "https://dc.lft.to/lastmile_qr_scan"}}, {"name": "b33d2c5b510be0d36967dc23101093d9", "fusion_lat": 0.0, "type": "electric_scooter", "lat": 38.905673166666666, "is_reserved": 0, "is_disabled": 0, "fusion_lon": 0.0, "bike_id": "b33d2c5b510be0d36967dc23101093d9", "lon": -77.02213833333333, "rental_uris": {"ios": "https://dc.lft.to/lastmile_qr_scan", "android": "https://dc.lft.to/lastmile_qr_scan"}}, {"name": "d8a669f45999b1f21efa4a4f5bab663e", "fusion_lat": 0.0, "type": "electric_scooter", "lat": 38.89912733333333, "is_reserved": 0, "is_disabled": 0, "fusion_lon": 0.0, "bike_id": "d8a669f45999b1f21efa4a4f5bab663e", "lon": -77.02175483333333, "rental_uris": {"ios": "https://dc.lft.to/lastmile_qr_scan", "android": "https://dc.lft.to/lastmile_qr_scan"}}, {"name": "31c3d687d48aae9e981bbdde5bfde771", "fusion_lat": 0.0, "type": "electric_scooter", "lat": 38.91191033333333, "is_reserved": 0, "is_disabled": 0, "fusion_lon": 0.0, "bike_id": "31c3d687d48aae9e981bbdde5bfde771", "lon": -77.01783533333334, "rental_uris": {"ios": "https://dc.lft.to/lastmile_qr_scan", "android": "https://dc.lft.to/lastmile_qr_scan"}}, {"name": "8df505cbe5b9de8fe414e2ddc8048f21", "fusion_lat": 0.0, "type": "electric_scooter", "lat": 38.90964183333333, "is_reserved": 0, "is_disabled": 0, "fusion_lon": 0.0, "bike_id": "8df505cbe5b9de8fe414e2ddc8048f21", "lon": -77.03888483333333, "rental_uris": {"ios": "https://dc.lft.to/lastmile_qr_scan", "android": "https://dc.lft.to/lastmile_qr_scan"}}, {"name": "3c608d437aab8607ba84f0833dacb7a0", "fusion_lat": 0.0, "type": "electric_scooter", "lat": 38.921160666666665, "is_reserved": 0, "is_disabled": 0, "fusion_lon": 0.0, "bike_id": "3c608d437aab8607ba84f0833dacb7a0", "lon": -77.04380816666666, "rental_uris": {"ios": "https://dc.lft.to/lastmile_qr_scan", "android": "https://dc.lft.to/lastmile_qr_scan"}}, {"name": "dafefc6859d1da4dfaca8b3ac76a3f93", "fusion_lat": 0.0, "type": "electric_scooter", "lat": 38.935015, "is_reserved": 0, "is_disabled": 0, "fusion_lon": 0.0, "bike_id": "dafefc6859d1da4dfaca8b3ac76a3f93", "lon": -77.02549166666667, "rental_uris": {"ios": "https://dc.lft.to/lastmile_qr_scan", "android": "https://dc.lft.to/lastmile_qr_scan"}}, {"name": "3b69c6946e4808e140eae2c7e3181cbf", "fusion_lat": 0.0, "type": "electric_scooter", "lat": 38.88919816666667, "is_reserved": 0, "is_disabled": 0, "fusion_lon": 0.0, "bike_id": "3b69c6946e4808e140eae2c7e3181cbf", "lon": -76.95374383333333, "rental_uris": {"ios": "https://dc.lft.to/lastmile_qr_scan", "android": "https://dc.lft.to/lastmile_qr_scan"}}, {"name": "f19f3c214dca906ee27988442ad00b6f", "fusion_lat": 0.0, "type": "electric_scooter", "lat": 38.928907, "is_reserved": 0, "is_disabled": 0, "fusion_lon": 0.0, "bike_id": "f19f3c214dca906ee27988442ad00b6f", "lon": -77.02301466666667, "rental_uris": {"ios": "https://dc.lft.to/lastmile_qr_scan", "android": "https://dc.lft.to/lastmile_qr_scan"}}, {"name": "400cad6cfb70734102a486c70b87725e", "fusion_lat": 0.0, "type": "electric_scooter", "lat": 38.9389845, "is_reserved": 0, "is_disabled": 0, "fusion_lon": 0.0, "bike_id": "400cad6cfb70734102a486c70b87725e", "lon": -77.03284633333334, "rental_uris": {"ios": "https://dc.lft.to/lastmile_qr_scan", "android": "https://dc.lft.to/lastmile_qr_scan"}}, {"name": "c75650f26f81a5244c1c11e6a0522d0c", "fusion_lat": 0.0, "type": "electric_bike", "lat": 38.8977845, "is_reserved": 0, "is_disabled": 0, "fusion_lon": 0.0, "bike_id": "c75650f26f81a5244c1c11e6a0522d0c", "lon": -76.90439933333333, "rental_uris": {"ios": "https://dc.lft.to/lastmile_qr_scan", "android": "https://dc.lft.to/lastmile_qr_scan"}}, {"name": "0f36f1ade64b3e6df69e3c1a016dc270", "fusion_lat": 0.0, "type": "electric_scooter", "lat": 38.895238, "is_reserved": 0, "is_disabled": 0, "fusion_lon": 0.0, "bike_id": "0f36f1ade64b3e6df69e3c1a016dc270", "lon": -77.02417, "rental_uris": {"ios": "https://dc.lft.to/lastmile_qr_scan", "android": "https://dc.lft.to/lastmile_qr_scan"}}, {"name": "16c136ace7668dbea077d03d28092c93", "fusion_lat": 0.0, "type": "electric_scooter", "lat": 38.918593666666666, "is_reserved": 0, "is_disabled": 0, "fusion_lon": 0.0, "bike_id": "16c136ace7668dbea077d03d28092c93", "lon": -77.0150335, "rental_uris": {"ios": "https://dc.lft.to/lastmile_qr_scan", "android": "https://dc.lft.to/lastmile_qr_scan"}}, {"name": "021ddda807730a45b6144db8892cde6b", "fusion_lat": 0.0, "type": "electric_scooter", "lat": 38.931099, "is_reserved": 0, "is_disabled": 0, "fusion_lon": 0.0, "bike_id": "021ddda807730a45b6144db8892cde6b", "lon": -77.0240315, "rental_uris": {"ios": "https://dc.lft.to/lastmile_qr_scan", "android": "https://dc.lft.to/lastmile_qr_scan"}}, {"name": "90cbdeff5e9e88a6ba4e4fc2e11b9ef2", "fusion_lat": 0.0, "type": "electric_scooter", "lat": 38.89847183333333, "is_reserved": 0, "is_disabled": 0, "fusion_lon": 0.0, "bike_id": "90cbdeff5e9e88a6ba4e4fc2e11b9ef2", "lon": -77.00738566666666, "rental_uris": {"ios": "https://dc.lft.to/lastmile_qr_scan", "android": "https://dc.lft.to/lastmile_qr_scan"}}, {"name": "575c4a945242c0e0301dce6d0f5233a3", "fusion_lat": 0.0, "type": "electric_scooter", "lat": 38.9057905, "is_reserved": 0, "is_disabled": 0, "fusion_lon": 0.0, "bike_id": "575c4a945242c0e0301dce6d0f5233a3", "lon": -77.00596766666666, "rental_uris": {"ios": "https://dc.lft.to/lastmile_qr_scan", "android": "https://dc.lft.to/lastmile_qr_scan"}}, {"name": "d4f9ab9b1d8972e553ac58592451548f", "fusion_lat": 0.0, "type": "electric_scooter", "lat": 38.907229, "is_reserved": 0, "is_disabled": 0, "fusion_lon": 0.0, "bike_id": "d4f9ab9b1d8972e553ac58592451548f", "lon": -77.043196, "rental_uris": {"ios": "https://dc.lft.to/lastmile_qr_scan", "android": "https://dc.lft.to/lastmile_qr_scan"}}, {"name": "5d25dd194ae12506711e78f6881cfe96", "fusion_lat": 0.0, "type": "electric_scooter", "lat": 38.926835833333335, "is_reserved": 0, "is_disabled": 0, "fusion_lon": 0.0, "bike_id": "5d25dd194ae12506711e78f6881cfe96", "lon": -77.01519783333333, "rental_uris": {"ios": "https://dc.lft.to/lastmile_qr_scan", "android": "https://dc.lft.to/lastmile_qr_scan"}}, {"name": "3b597b34f51293c8709066593d7053e0", "fusion_lat": 0.0, "type": "electric_scooter", "lat": 38.90775266666667, "is_reserved": 0, "is_disabled": 0, "fusion_lon": 0.0, "bike_id": "3b597b34f51293c8709066593d7053e0", "lon": -77.03843266666667, "rental_uris": {"ios": "https://dc.lft.to/lastmile_qr_scan", "android": "https://dc.lft.to/lastmile_qr_scan"}}, {"name": "73223bcdd4cacd4a14a7da381e31500e", "fusion_lat": 0.0, "type": "electric_scooter", "lat": 38.900793666666665, "is_reserved": 0, "is_disabled": 0, "fusion_lon": 0.0, "bike_id": "73223bcdd4cacd4a14a7da381e31500e", "lon": -77.0500445, "rental_uris": {"ios": "https://dc.lft.to/lastmile_qr_scan", "android": "https://dc.lft.to/lastmile_qr_scan"}}, {"name": "0d04678f9768004e60acb8702798103f", "fusion_lat": 0.0, "type": "electric_scooter", "lat": 38.89753916666667, "is_reserved": 0, "is_disabled": 0, "fusion_lon": 0.0, "bike_id": "0d04678f9768004e60acb8702798103f", "lon": -76.99607583333334, "rental_uris": {"ios": "https://dc.lft.to/lastmile_qr_scan", "android": "https://dc.lft.to/lastmile_qr_scan"}}, {"name": "1ff6c2ee835e8aeb9cff9dcef135b527", "fusion_lat": 0.0, "type": "electric_bike", "lat": 38.865948833333334, "is_reserved": 0, "is_disabled": 0, "fusion_lon": 0.0, "bike_id": "1ff6c2ee835e8aeb9cff9dcef135b527", "lon": -76.932272, "rental_uris": {"ios": "https://dc.lft.to/lastmile_qr_scan", "android": "https://dc.lft.to/lastmile_qr_scan"}}, {"name": "3218d2d932e21b60b0c60ea5f29e9198", "fusion_lat": 0.0, "type": "electric_scooter", "lat": 38.880504, "is_reserved": 0, "is_disabled": 0, "fusion_lon": 0.0, "bike_id": "3218d2d932e21b60b0c60ea5f29e9198", "lon": -76.95985233333333, "rental_uris": {"ios": "https://dc.lft.to/lastmile_qr_scan", "android": "https://dc.lft.to/lastmile_qr_scan"}}, {"name": "b65b4a4cf61a733386e42e9027563c9f", "fusion_lat": 0.0, "type": "electric_scooter", "lat": 38.89390133333333, "is_reserved": 0, "is_disabled": 0, "fusion_lon": 0.0, "bike_id": "b65b4a4cf61a733386e42e9027563c9f", "lon": -77.05474533333333, "rental_uris": {"ios": "https://dc.lft.to/lastmile_qr_scan", "android": "https://dc.lft.to/lastmile_qr_scan"}}, {"name": "0f05d91d4386191be8cd3589c513c9bf", "fusion_lat": 0.0, "type": "electric_bike", "lat": 38.852215, "is_reserved": 0, "is_disabled": 0, "fusion_lon": 0.0, "bike_id": "0f05d91d4386191be8cd3589c513c9bf", "lon": -77.12959783333334, "rental_uris": {"ios": "https://dc.lft.to/lastmile_qr_scan", "android": "https://dc.lft.to/lastmile_qr_scan"}}, {"name": "083e7bb2a5058c47e40fc1d362e0e1e9", "fusion_lat": 0.0, "type": "electric_scooter", "lat": 38.930571, "is_reserved": 0, "is_disabled": 0, "fusion_lon": 0.0, "bike_id": "083e7bb2a5058c47e40fc1d362e0e1e9", "lon": -77.02319466666667, "rental_uris": {"ios": "https://dc.lft.to/lastmile_qr_scan", "android": "https://dc.lft.to/lastmile_qr_scan"}}, {"name": "a2207724223bd2cc4be6cc78ec7e6b81", "fusion_lat": 0.0, "type": "electric_scooter", "lat": 38.87668266666667, "is_reserved": 0, "is_disabled": 0, "fusion_lon": 0.0, "bike_id": "a2207724223bd2cc4be6cc78ec7e6b81", "lon": -77.003435, "rental_uris": {"ios": "https://dc.lft.to/lastmile_qr_scan", "android": "https://dc.lft.to/lastmile_qr_scan"}}, {"name": "9aa7af460574b45ffd5a228eb5722ff8", "fusion_lat": 0.0, "type": "electric_scooter", "lat": 38.90120116666667, "is_reserved": 0, "is_disabled": 0, "fusion_lon": 0.0, "bike_id": "9aa7af460574b45ffd5a228eb5722ff8", "lon": -77.03944183333333, "rental_uris": {"ios": "https://dc.lft.to/lastmile_qr_scan", "android": "https://dc.lft.to/lastmile_qr_scan"}}, {"name": "08200e546a8fe55e2de1a47b0982c9f7", "fusion_lat": 0.0, "type": "electric_scooter", "lat": 38.885195, "is_reserved": 0, "is_disabled": 0, "fusion_lon": 0.0, "bike_id": "08200e546a8fe55e2de1a47b0982c9f7", "lon": -77.03354516666667, "rental_uris": {"ios": "https://dc.lft.to/lastmile_qr_scan", "android": "https://dc.lft.to/lastmile_qr_scan"}}, {"name": "ff37ba7109c3fe99dfd76d2716bbaf98", "fusion_lat": 0.0, "type": "electric_scooter", "lat": 38.939167, "is_reserved": 0, "is_disabled": 0, "fusion_lon": 0.0, "bike_id": "ff37ba7109c3fe99dfd76d2716bbaf98", "lon": -77.03660483333333, "rental_uris": {"ios": "https://dc.lft.to/lastmile_qr_scan", "android": "https://dc.lft.to/lastmile_qr_scan"}}, {"name": "56b0a2f43ab5f29a470e564cdbaa9dd9", "fusion_lat": 0.0, "type": "electric_bike", "lat": 38.984549, "is_reserved": 0, "is_disabled": 0, "fusion_lon": 0.0, "bike_id": "56b0a2f43ab5f29a470e564cdbaa9dd9", "lon": -76.95525916666666, "rental_uris": {"ios": "https://dc.lft.to/lastmile_qr_scan", "android": "https://dc.lft.to/lastmile_qr_scan"}}, {"name": "15d818d8e1402122c754e65acb996235", "fusion_lat": 0.0, "type": "electric_scooter", "lat": 38.8955185, "is_reserved": 0, "is_disabled": 0, "fusion_lon": 0.0, "bike_id": "15d818d8e1402122c754e65acb996235", "lon": -76.9837245, "rental_uris": {"ios": "https://dc.lft.to/lastmile_qr_scan", "android": "https://dc.lft.to/lastmile_qr_scan"}}, {"name": "56252729020914189fe771f11a3957f0", "fusion_lat": 0.0, "type": "electric_scooter", "lat": 38.878367833333336, "is_reserved": 0, "is_disabled": 0, "fusion_lon": 0.0, "bike_id": "56252729020914189fe771f11a3957f0", "lon": -77.01764583333333, "rental_uris": {"ios": "https://dc.lft.to/lastmile_qr_scan", "android": "https://dc.lft.to/lastmile_qr_scan"}}, {"name": "cd140dc592ad81d6071deb6e27674f9c", "fusion_lat": 0.0, "type": "electric_scooter", "lat": 38.900544833333335, "is_reserved": 0, "is_disabled": 0, "fusion_lon": 0.0, "bike_id": "cd140dc592ad81d6071deb6e27674f9c", "lon": -76.9475575, "rental_uris": {"ios": "https://dc.lft.to/lastmile_qr_scan", "android": "https://dc.lft.to/lastmile_qr_scan"}}, {"name": "a8a027b18a336e335e343e89038d4151", "fusion_lat": 0.0, "type": "electric_scooter", "lat": 38.898489833333336, "is_reserved": 0, "is_disabled": 0, "fusion_lon": 0.0, "bike_id": "a8a027b18a336e335e343e89038d4151", "lon": -77.04250266666666, "rental_uris": {"ios": "https://dc.lft.to/lastmile_qr_scan", "android": "https://dc.lft.to/lastmile_qr_scan"}}, {"name": "ae5854424f5b79e82eb7eb96e73cd2b3", "fusion_lat": 0.0, "type": "electric_scooter", "lat": 38.90574016666667, "is_reserved": 0, "is_disabled": 0, "fusion_lon": 0.0, "bike_id": "ae5854424f5b79e82eb7eb96e73cd2b3", "lon": -77.057095, "rental_uris": {"ios": "https://dc.lft.to/lastmile_qr_scan", "android": "https://dc.lft.to/lastmile_qr_scan"}}, {"name": "8f6b2441241524bac96b2dbb215d8d3c", "fusion_lat": 0.0, "type": "electric_scooter", "lat": 38.869173, "is_reserved": 0, "is_disabled": 0, "fusion_lon": 0.0, "bike_id": "8f6b2441241524bac96b2dbb215d8d3c", "lon": -76.975042, "rental_uris": {"ios": "https://dc.lft.to/lastmile_qr_scan", "android": "https://dc.lft.to/lastmile_qr_scan"}}, {"name": "f10090c6e28b4c24f9f087881bde7f8e", "fusion_lat": 0.0, "type": "electric_scooter", "lat": 38.94336166666667, "is_reserved": 0, "is_disabled": 0, "fusion_lon": 0.0, "bike_id": "f10090c6e28b4c24f9f087881bde7f8e", "lon": -77.06047416666667, "rental_uris": {"ios": "https://dc.lft.to/lastmile_qr_scan", "android": "https://dc.lft.to/lastmile_qr_scan"}}, {"name": "3c3cad43d9538145c161238bbafb68d4", "fusion_lat": 0.0, "type": "electric_scooter", "lat": 38.899611666666665, "is_reserved": 0, "is_disabled": 0, "fusion_lon": 0.0, "bike_id": "3c3cad43d9538145c161238bbafb68d4", "lon": -76.99501616666667, "rental_uris": {"ios": "https://dc.lft.to/lastmile_qr_scan", "android": "https://dc.lft.to/lastmile_qr_scan"}}, {"name": "5f888c301f2f8190b7f2d6484e93ec3b", "fusion_lat": 0.0, "type": "electric_scooter", "lat": 38.887859166666665, "is_reserved": 0, "is_disabled": 0, "fusion_lon": 0.0, "bike_id": "5f888c301f2f8190b7f2d6484e93ec3b", "lon": -76.95529616666667, "rental_uris": {"ios": "https://dc.lft.to/lastmile_qr_scan", "android": "https://dc.lft.to/lastmile_qr_scan"}}, {"name": "0f546e771d49727654580ba7e25143cb", "fusion_lat": 0.0, "type": "electric_scooter", "lat": 38.9346485, "is_reserved": 0, "is_disabled": 0, "fusion_lon": 0.0, "bike_id": "0f546e771d49727654580ba7e25143cb", "lon": -77.0863615, "rental_uris": {"ios": "https://dc.lft.to/lastmile_qr_scan", "android": "https://dc.lft.to/lastmile_qr_scan"}}, {"name": "ffa3a7c0a0a30827b5469ea745117b37", "fusion_lat": 0.0, "type": "electric_scooter", "lat": 38.9014985, "is_reserved": 0, "is_disabled": 0, "fusion_lon": 0.0, "bike_id": "ffa3a7c0a0a30827b5469ea745117b37", "lon": -77.02889983333333, "rental_uris": {"ios": "https://dc.lft.to/lastmile_qr_scan", "android": "https://dc.lft.to/lastmile_qr_scan"}}, {"name": "e90823313c8c2cdad0ff04df010ab4fc", "fusion_lat": 0.0, "type": "electric_scooter", "lat": 38.87468583333333, "is_reserved": 0, "is_disabled": 0, "fusion_lon": 0.0, "bike_id": "e90823313c8c2cdad0ff04df010ab4fc", "lon": -77.006166, "rental_uris": {"ios": "https://dc.lft.to/lastmile_qr_scan", "android": "https://dc.lft.to/lastmile_qr_scan"}}, {"name": "8a2a3392bbf4384b2893afae23e6f3d7", "fusion_lat": 0.0, "type": "electric_scooter", "lat": 38.896082, "is_reserved": 0, "is_disabled": 0, "fusion_lon": 0.0, "bike_id": "8a2a3392bbf4384b2893afae23e6f3d7", "lon": -77.02328433333334, "rental_uris": {"ios": "https://dc.lft.to/lastmile_qr_scan", "android": "https://dc.lft.to/lastmile_qr_scan"}}, {"name": "2cd23b7162b9a25654ba19415c295e74", "fusion_lat": 0.0, "type": "electric_bike", "lat": 38.9367425, "is_reserved": 0, "is_disabled": 0, "fusion_lon": 0.0, "bike_id": "2cd23b7162b9a25654ba19415c295e74", "lon": -76.95207516666666, "rental_uris": {"ios": "https://dc.lft.to/lastmile_qr_scan", "android": "https://dc.lft.to/lastmile_qr_scan"}}, {"name": "e07718c4dd78c058419bac391a1d625e", "fusion_lat": 0.0, "type": "electric_scooter", "lat": 38.894163166666665, "is_reserved": 0, "is_disabled": 0, "fusion_lon": 0.0, "bike_id": "e07718c4dd78c058419bac391a1d625e", "lon": -76.93956566666667, "rental_uris": {"ios": "https://dc.lft.to/lastmile_qr_scan", "android": "https://dc.lft.to/lastmile_qr_scan"}}, {"name": "48e5e442443e438892285c6ce15aed0c", "fusion_lat": 0.0, "type": "electric_scooter", "lat": 38.922306166666665, "is_reserved": 0, "is_disabled": 0, "fusion_lon": 0.0, "bike_id": "48e5e442443e438892285c6ce15aed0c", "lon": -77.023328, "rental_uris": {"ios": "https://dc.lft.to/lastmile_qr_scan", "android": "https://dc.lft.to/lastmile_qr_scan"}}, {"name": "471228b114b8a6e5f50568ce3efc2937", "fusion_lat": 0.0, "type": "electric_scooter", "lat": 38.9031545, "is_reserved": 0, "is_disabled": 0, "fusion_lon": 0.0, "bike_id": "471228b114b8a6e5f50568ce3efc2937", "lon": -77.0287515, "rental_uris": {"ios": "https://dc.lft.to/lastmile_qr_scan", "android": "https://dc.lft.to/lastmile_qr_scan"}}, {"name": "b1048479577f4be007e297e012b22fea", "fusion_lat": 0.0, "type": "electric_scooter", "lat": 38.90337016666667, "is_reserved": 0, "is_disabled": 0, "fusion_lon": 0.0, "bike_id": "b1048479577f4be007e297e012b22fea", "lon": -77.0162035, "rental_uris": {"ios": "https://dc.lft.to/lastmile_qr_scan", "android": "https://dc.lft.to/lastmile_qr_scan"}}, {"name": "de3b308c56176222a0ac83472ec7683e", "fusion_lat": 0.0, "type": "electric_scooter", "lat": 38.883837, "is_reserved": 0, "is_disabled": 0, "fusion_lon": 0.0, "bike_id": "de3b308c56176222a0ac83472ec7683e", "lon": -76.995216, "rental_uris": {"ios": "https://dc.lft.to/lastmile_qr_scan", "android": "https://dc.lft.to/lastmile_qr_scan"}}, {"name": "2132315eb8e19d6f0376cfbb3b1a7a19", "fusion_lat": 0.0, "type": "electric_scooter", "lat": 38.870996833333336, "is_reserved": 0, "is_disabled": 0, "fusion_lon": 0.0, "bike_id": "2132315eb8e19d6f0376cfbb3b1a7a19", "lon": -76.965901, "rental_uris": {"ios": "https://dc.lft.to/lastmile_qr_scan", "android": "https://dc.lft.to/lastmile_qr_scan"}}, {"name": "d56688a39bab39219459bb5ffcd70199", "fusion_lat": 0.0, "type": "electric_bike", "lat": 38.99240966666667, "is_reserved": 0, "is_disabled": 0, "fusion_lon": 0.0, "bike_id": "d56688a39bab39219459bb5ffcd70199", "lon": -76.87822283333334, "rental_uris": {"ios": "https://dc.lft.to/lastmile_qr_scan", "android": "https://dc.lft.to/lastmile_qr_scan"}}, {"name": "e4624d25d6b11b8f134bce1ec11a125d", "fusion_lat": 0.0, "type": "electric_bike", "lat": 38.884316, "is_reserved": 0, "is_disabled": 0, "fusion_lon": 0.0, "bike_id": "e4624d25d6b11b8f134bce1ec11a125d", "lon": -76.95753216666667, "rental_uris": {"ios": "https://dc.lft.to/lastmile_qr_scan", "android": "https://dc.lft.to/lastmile_qr_scan"}}, {"name": "fea8384b1d1aaa1ebb9acf3337c08b8b", "fusion_lat": 0.0, "type": "electric_scooter", "lat": 38.90956666666666, "is_reserved": 0, "is_disabled": 0, "fusion_lon": 0.0, "bike_id": "fea8384b1d1aaa1ebb9acf3337c08b8b", "lon": -77.02404016666667, "rental_uris": {"ios": "https://dc.lft.to/lastmile_qr_scan", "android": "https://dc.lft.to/lastmile_qr_scan"}}, {"name": "ba7dccc98dc393cdb1504999206cda18", "fusion_lat": 0.0, "type": "electric_scooter", "lat": 38.895593, "is_reserved": 0, "is_disabled": 0, "fusion_lon": 0.0, "bike_id": "ba7dccc98dc393cdb1504999206cda18", "lon": -77.04674083333333, "rental_uris": {"ios": "https://dc.lft.to/lastmile_qr_scan", "android": "https://dc.lft.to/lastmile_qr_scan"}}, {"name": "8080f5a66807150070c92191fc00b763", "fusion_lat": 0.0, "type": "electric_scooter", "lat": 38.90139833333333, "is_reserved": 0, "is_disabled": 0, "fusion_lon": 0.0, "bike_id": "8080f5a66807150070c92191fc00b763", "lon": -77.039716, "rental_uris": {"ios": "https://dc.lft.to/lastmile_qr_scan", "android": "https://dc.lft.to/lastmile_qr_scan"}}, {"name": "fecb8d88c8da632bb70d8f2a049731f0", "fusion_lat": 0.0, "type": "electric_scooter", "lat": 38.905609, "is_reserved": 0, "is_disabled": 0, "fusion_lon": 0.0, "bike_id": "fecb8d88c8da632bb70d8f2a049731f0", "lon": -76.9808225, "rental_uris": {"ios": "https://dc.lft.to/lastmile_qr_scan", "android": "https://dc.lft.to/lastmile_qr_scan"}}, {"name": "9abc4e56ccbc58007003c3e426079526", "fusion_lat": 0.0, "type": "electric_scooter", "lat": 38.905177333333334, "is_reserved": 0, "is_disabled": 0, "fusion_lon": 0.0, "bike_id": "9abc4e56ccbc58007003c3e426079526", "lon": -77.0637605, "rental_uris": {"ios": "https://dc.lft.to/lastmile_qr_scan", "android": "https://dc.lft.to/lastmile_qr_scan"}}, {"name": "e16094f0845ad8050157a2ab4051e319", "fusion_lat": 0.0, "type": "electric_bike", "lat": 38.90528783333333, "is_reserved": 0, "is_disabled": 0, "fusion_lon": 0.0, "bike_id": "e16094f0845ad8050157a2ab4051e319", "lon": -77.0718875, "rental_uris": {"ios": "https://dc.lft.to/lastmile_qr_scan", "android": "https://dc.lft.to/lastmile_qr_scan"}}, {"name": "05712312fd006343c9d48962bbeded6e", "fusion_lat": 0.0, "type": "electric_scooter", "lat": 38.903406, "is_reserved": 0, "is_disabled": 0, "fusion_lon": 0.0, "bike_id": "05712312fd006343c9d48962bbeded6e", "lon": -76.94663866666667, "rental_uris": {"ios": "https://dc.lft.to/lastmile_qr_scan", "android": "https://dc.lft.to/lastmile_qr_scan"}}, {"name": "252d1e3f98cc63c221d8ac169bd33c45", "fusion_lat": 0.0, "type": "electric_bike", "lat": 38.943657, "is_reserved": 0, "is_disabled": 0, "fusion_lon": 0.0, "bike_id": "252d1e3f98cc63c221d8ac169bd33c45", "lon": -77.00344216666667, "rental_uris": {"ios": "https://dc.lft.to/lastmile_qr_scan", "android": "https://dc.lft.to/lastmile_qr_scan"}}, {"name": "959f8b575aee8fb84595786dc696ee19", "fusion_lat": 0.0, "type": "electric_scooter", "lat": 38.917248, "is_reserved": 0, "is_disabled": 0, "fusion_lon": 0.0, "bike_id": "959f8b575aee8fb84595786dc696ee19", "lon": -77.01863183333333, "rental_uris": {"ios": "https://dc.lft.to/lastmile_qr_scan", "android": "https://dc.lft.to/lastmile_qr_scan"}}, {"name": "c8873833a130bd058256d8adadb06e30", "fusion_lat": 0.0, "type": "electric_scooter", "lat": 38.95785883333333, "is_reserved": 0, "is_disabled": 0, "fusion_lon": 0.0, "bike_id": "c8873833a130bd058256d8adadb06e30", "lon": -77.02753816666667, "rental_uris": {"ios": "https://dc.lft.to/lastmile_qr_scan", "android": "https://dc.lft.to/lastmile_qr_scan"}}, {"name": "3a048711633457ee8e5d45d684425e53", "fusion_lat": 0.0, "type": "electric_scooter", "lat": 38.901752, "is_reserved": 0, "is_disabled": 0, "fusion_lon": 0.0, "bike_id": "3a048711633457ee8e5d45d684425e53", "lon": -77.0183745, "rental_uris": {"ios": "https://dc.lft.to/lastmile_qr_scan", "android": "https://dc.lft.to/lastmile_qr_scan"}}, {"name": "a5dda2b32b17139954b8bb780b2613eb", "fusion_lat": 0.0, "type": "electric_scooter", "lat": 38.903697333333334, "is_reserved": 0, "is_disabled": 0, "fusion_lon": 0.0, "bike_id": "a5dda2b32b17139954b8bb780b2613eb", "lon": -77.04250516666667, "rental_uris": {"ios": "https://dc.lft.to/lastmile_qr_scan", "android": "https://dc.lft.to/lastmile_qr_scan"}}, {"name": "958227138042f02aaac1d119ca58dc6a", "fusion_lat": 0.0, "type": "electric_bike", "lat": 38.94628016666667, "is_reserved": 0, "is_disabled": 0, "fusion_lon": 0.0, "bike_id": "958227138042f02aaac1d119ca58dc6a", "lon": -77.08051033333334, "rental_uris": {"ios": "https://dc.lft.to/lastmile_qr_scan", "android": "https://dc.lft.to/lastmile_qr_scan"}}, {"name": "885207ed36a721c58ed8a5f87b951bd1", "fusion_lat": 0.0, "type": "electric_bike", "lat": 38.923330666666665, "is_reserved": 0, "is_disabled": 0, "fusion_lon": 0.0, "bike_id": "885207ed36a721c58ed8a5f87b951bd1", "lon": -77.02284433333334, "rental_uris": {"ios": "https://dc.lft.to/lastmile_qr_scan", "android": "https://dc.lft.to/lastmile_qr_scan"}}, {"name": "69906e704f3350e45f414092860d6a06", "fusion_lat": 0.0, "type": "electric_scooter", "lat": 38.897332, "is_reserved": 0, "is_disabled": 0, "fusion_lon": 0.0, "bike_id": "69906e704f3350e45f414092860d6a06", "lon": -77.046459, "rental_uris": {"ios": "https://dc.lft.to/lastmile_qr_scan", "android": "https://dc.lft.to/lastmile_qr_scan"}}, {"name": "7631e5d563b2ae111b333dfdb6982ad5", "fusion_lat": 0.0, "type": "electric_scooter", "lat": 38.91830483333333, "is_reserved": 0, "is_disabled": 0, "fusion_lon": 0.0, "bike_id": "7631e5d563b2ae111b333dfdb6982ad5", "lon": -77.04563566666667, "rental_uris": {"ios": "https://dc.lft.to/lastmile_qr_scan", "android": "https://dc.lft.to/lastmile_qr_scan"}}, {"name": "b0871d0fe5910302f002ecbbddaca41e", "fusion_lat": 0.0, "type": "electric_scooter", "lat": 38.9022695, "is_reserved": 0, "is_disabled": 0, "fusion_lon": 0.0, "bike_id": "b0871d0fe5910302f002ecbbddaca41e", "lon": -77.05081866666667, "rental_uris": {"ios": "https://dc.lft.to/lastmile_qr_scan", "android": "https://dc.lft.to/lastmile_qr_scan"}}, {"name": "e339c66dbdc3e0b975faa87b3882101f", "fusion_lat": 0.0, "type": "electric_scooter", "lat": 38.9176315, "is_reserved": 0, "is_disabled": 0, "fusion_lon": 0.0, "bike_id": "e339c66dbdc3e0b975faa87b3882101f", "lon": -77.02507916666667, "rental_uris": {"ios": "https://dc.lft.to/lastmile_qr_scan", "android": "https://dc.lft.to/lastmile_qr_scan"}}, {"name": "b56c4813fb0612561ef23b4ca41210b6", "fusion_lat": 0.0, "type": "electric_scooter", "lat": 38.912565666666666, "is_reserved": 0, "is_disabled": 0, "fusion_lon": 0.0, "bike_id": "b56c4813fb0612561ef23b4ca41210b6", "lon": -77.0383545, "rental_uris": {"ios": "https://dc.lft.to/lastmile_qr_scan", "android": "https://dc.lft.to/lastmile_qr_scan"}}, {"name": "284b004ec551ec9638ede3fa82198e56", "fusion_lat": 0.0, "type": "electric_scooter", "lat": 38.89004083333333, "is_reserved": 0, "is_disabled": 0, "fusion_lon": 0.0, "bike_id": "284b004ec551ec9638ede3fa82198e56", "lon": -77.04893866666667, "rental_uris": {"ios": "https://dc.lft.to/lastmile_qr_scan", "android": "https://dc.lft.to/lastmile_qr_scan"}}, {"name": "9803caba7aeb522b19ac206635fba4da", "fusion_lat": 0.0, "type": "electric_bike", "lat": 38.844831, "is_reserved": 0, "is_disabled": 0, "fusion_lon": 0.0, "bike_id": "9803caba7aeb522b19ac206635fba4da", "lon": -76.97216516666667, "rental_uris": {"ios": "https://dc.lft.to/lastmile_qr_scan", "android": "https://dc.lft.to/lastmile_qr_scan"}}, {"name": "f34929a3477fb655df3171e5bbcf9034", "fusion_lat": 0.0, "type": "electric_scooter", "lat": 38.8848195, "is_reserved": 0, "is_disabled": 0, "fusion_lon": 0.0, "bike_id": "f34929a3477fb655df3171e5bbcf9034", "lon": -77.0210055, "rental_uris": {"ios": "https://dc.lft.to/lastmile_qr_scan", "android": "https://dc.lft.to/lastmile_qr_scan"}}, {"name": "fc04b9305a194d7c74b3832c4b67790d", "fusion_lat": 0.0, "type": "electric_scooter", "lat": 38.92433466666667, "is_reserved": 0, "is_disabled": 0, "fusion_lon": 0.0, "bike_id": "fc04b9305a194d7c74b3832c4b67790d", "lon": -77.04246416666666, "rental_uris": {"ios": "https://dc.lft.to/lastmile_qr_scan", "android": "https://dc.lft.to/lastmile_qr_scan"}}, {"name": "9f430e8e5c2f496d9fbcc8db2f787083", "fusion_lat": 0.0, "type": "electric_scooter", "lat": 38.866593, "is_reserved": 0, "is_disabled": 0, "fusion_lon": 0.0, "bike_id": "9f430e8e5c2f496d9fbcc8db2f787083", "lon": -76.988843, "rental_uris": {"ios": "https://dc.lft.to/lastmile_qr_scan", "android": "https://dc.lft.to/lastmile_qr_scan"}}, {"name": "f64839dbe3c88de973009f1552d43919", "fusion_lat": 0.0, "type": "electric_scooter", "lat": 38.91701183333333, "is_reserved": 0, "is_disabled": 0, "fusion_lon": 0.0, "bike_id": "f64839dbe3c88de973009f1552d43919", "lon": -77.030945, "rental_uris": {"ios": "https://dc.lft.to/lastmile_qr_scan", "android": "https://dc.lft.to/lastmile_qr_scan"}}, {"name": "dc86234516cf44db88f6a702c1fbd199", "fusion_lat": 0.0, "type": "electric_bike", "lat": 38.888691333333334, "is_reserved": 0, "is_disabled": 0, "fusion_lon": 0.0, "bike_id": "dc86234516cf44db88f6a702c1fbd199", "lon": -76.99478233333333, "rental_uris": {"ios": "https://dc.lft.to/lastmile_qr_scan", "android": "https://dc.lft.to/lastmile_qr_scan"}}, {"name": "ba32a58cdedfe2d201aaeaeb9bfca6c6", "fusion_lat": 0.0, "type": "electric_scooter", "lat": 38.884915166666666, "is_reserved": 0, "is_disabled": 0, "fusion_lon": 0.0, "bike_id": "ba32a58cdedfe2d201aaeaeb9bfca6c6", "lon": -77.00709883333333, "rental_uris": {"ios": "https://dc.lft.to/lastmile_qr_scan", "android": "https://dc.lft.to/lastmile_qr_scan"}}, {"name": "3d8312071f43cdf8aa490c71d54b8102", "fusion_lat": 0.0, "type": "electric_scooter", "lat": 38.899505166666664, "is_reserved": 0, "is_disabled": 0, "fusion_lon": 0.0, "bike_id": "3d8312071f43cdf8aa490c71d54b8102", "lon": -77.0091195, "rental_uris": {"ios": "https://dc.lft.to/lastmile_qr_scan", "android": "https://dc.lft.to/lastmile_qr_scan"}}, {"name": "a3b1b653da91c7399e96f65defa48a5c", "fusion_lat": 0.0, "type": "electric_scooter", "lat": 38.924419, "is_reserved": 0, "is_disabled": 0, "fusion_lon": 0.0, "bike_id": "a3b1b653da91c7399e96f65defa48a5c", "lon": -77.04217666666666, "rental_uris": {"ios": "https://dc.lft.to/lastmile_qr_scan", "android": "https://dc.lft.to/lastmile_qr_scan"}}, {"name": "5fe2d8171bc975b682dfb905dfa7dc7c", "fusion_lat": 0.0, "type": "electric_bike", "lat": 38.813104, "is_reserved": 0, "is_disabled": 0, "fusion_lon": 0.0, "bike_id": "5fe2d8171bc975b682dfb905dfa7dc7c", "lon": -77.11211233333333, "rental_uris": {"ios": "https://dc.lft.to/lastmile_qr_scan", "android": "https://dc.lft.to/lastmile_qr_scan"}}, {"name": "fffd2cfb00a38abcc69b3fd8eea31e15", "fusion_lat": 0.0, "type": "electric_bike", "lat": 38.891897166666666, "is_reserved": 0, "is_disabled": 0, "fusion_lon": 0.0, "bike_id": "fffd2cfb00a38abcc69b3fd8eea31e15", "lon": -77.1225705, "rental_uris": {"ios": "https://dc.lft.to/lastmile_qr_scan", "android": "https://dc.lft.to/lastmile_qr_scan"}}, {"name": "1e1c31a1dfb72271dc746ca4abf66265", "fusion_lat": 0.0, "type": "electric_scooter", "lat": 38.90674816666667, "is_reserved": 0, "is_disabled": 0, "fusion_lon": 0.0, "bike_id": "1e1c31a1dfb72271dc746ca4abf66265", "lon": -76.9781075, "rental_uris": {"ios": "https://dc.lft.to/lastmile_qr_scan", "android": "https://dc.lft.to/lastmile_qr_scan"}}, {"name": "67eeaa00dd9ed54305971ca78d6a80f2", "fusion_lat": 0.0, "type": "electric_scooter", "lat": 38.90668183333333, "is_reserved": 0, "is_disabled": 0, "fusion_lon": 0.0, "bike_id": "67eeaa00dd9ed54305971ca78d6a80f2", "lon": -77.02809816666667, "rental_uris": {"ios": "https://dc.lft.to/lastmile_qr_scan", "android": "https://dc.lft.to/lastmile_qr_scan"}}, {"name": "c2e48977f014d728e7018f842a4d95ea", "fusion_lat": 0.0, "type": "electric_bike", "lat": 38.92965916666667, "is_reserved": 0, "is_disabled": 0, "fusion_lon": 0.0, "bike_id": "c2e48977f014d728e7018f842a4d95ea", "lon": -77.22589183333334, "rental_uris": {"ios": "https://dc.lft.to/lastmile_qr_scan", "android": "https://dc.lft.to/lastmile_qr_scan"}}, {"name": "f994e16ac6cf077e5844926e18986874", "fusion_lat": 0.0, "type": "electric_scooter", "lat": 38.910664833333335, "is_reserved": 0, "is_disabled": 0, "fusion_lon": 0.0, "bike_id": "f994e16ac6cf077e5844926e18986874", "lon": -77.0532665, "rental_uris": {"ios": "https://dc.lft.to/lastmile_qr_scan", "android": "https://dc.lft.to/lastmile_qr_scan"}}, {"name": "478d1ff6b12ab709b57dfd1d15ce0533", "fusion_lat": 0.0, "type": "electric_scooter", "lat": 38.89231016666667, "is_reserved": 0, "is_disabled": 0, "fusion_lon": 0.0, "bike_id": "478d1ff6b12ab709b57dfd1d15ce0533", "lon": -77.050042, "rental_uris": {"ios": "https://dc.lft.to/lastmile_qr_scan", "android": "https://dc.lft.to/lastmile_qr_scan"}}, {"name": "aa50eb9fa4029dd4adbfbb22826c3d9b", "fusion_lat": 0.0, "type": "electric_scooter", "lat": 38.8925965, "is_reserved": 0, "is_disabled": 0, "fusion_lon": 0.0, "bike_id": "aa50eb9fa4029dd4adbfbb22826c3d9b", "lon": -77.02411066666667, "rental_uris": {"ios": "https://dc.lft.to/lastmile_qr_scan", "android": "https://dc.lft.to/lastmile_qr_scan"}}, {"name": "ee51cecf8f6e20304f90a04b3940357b", "fusion_lat": 0.0, "type": "electric_scooter", "lat": 38.91699216666667, "is_reserved": 0, "is_disabled": 0, "fusion_lon": 0.0, "bike_id": "ee51cecf8f6e20304f90a04b3940357b", "lon": -77.02886816666667, "rental_uris": {"ios": "https://dc.lft.to/lastmile_qr_scan", "android": "https://dc.lft.to/lastmile_qr_scan"}}, {"name": "e793232de8726b51b0f1d6da7fc84103", "fusion_lat": 0.0, "type": "electric_scooter", "lat": 38.8960495, "is_reserved": 0, "is_disabled": 0, "fusion_lon": 0.0, "bike_id": "e793232de8726b51b0f1d6da7fc84103", "lon": -77.046918, "rental_uris": {"ios": "https://dc.lft.to/lastmile_qr_scan", "android": "https://dc.lft.to/lastmile_qr_scan"}}, {"name": "cffeb94e3914e81f84aeccd5305eb51f", "fusion_lat": 0.0, "type": "electric_bike", "lat": 38.83196366666667, "is_reserved": 0, "is_disabled": 0, "fusion_lon": 0.0, "bike_id": "cffeb94e3914e81f84aeccd5305eb51f", "lon": -77.07684233333333, "rental_uris": {"ios": "https://dc.lft.to/lastmile_qr_scan", "android": "https://dc.lft.to/lastmile_qr_scan"}}, {"name": "86809c4ec8d9f50eb95c50a58ae95f9e", "fusion_lat": 0.0, "type": "electric_scooter", "lat": 38.92184016666667, "is_reserved": 0, "is_disabled": 0, "fusion_lon": 0.0, "bike_id": "86809c4ec8d9f50eb95c50a58ae95f9e", "lon": -77.04241216666667, "rental_uris": {"ios": "https://dc.lft.to/lastmile_qr_scan", "android": "https://dc.lft.to/lastmile_qr_scan"}}, {"name": "df4b51373073ce91ded799c0109a6f4b", "fusion_lat": 0.0, "type": "electric_scooter", "lat": 38.922657666666666, "is_reserved": 0, "is_disabled": 0, "fusion_lon": 0.0, "bike_id": "df4b51373073ce91ded799c0109a6f4b", "lon": -77.0195255, "rental_uris": {"ios": "https://dc.lft.to/lastmile_qr_scan", "android": "https://dc.lft.to/lastmile_qr_scan"}}, {"name": "ee04b1a0447241b84ada0b8dfb3e5b68", "fusion_lat": 0.0, "type": "electric_bike", "lat": 38.95555233333333, "is_reserved": 0, "is_disabled": 0, "fusion_lon": 0.0, "bike_id": "ee04b1a0447241b84ada0b8dfb3e5b68", "lon": -76.93541683333333, "rental_uris": {"ios": "https://dc.lft.to/lastmile_qr_scan", "android": "https://dc.lft.to/lastmile_qr_scan"}}, {"name": "f48bbd0453e2e09a3e6e6624ee8fef5f", "fusion_lat": 0.0, "type": "electric_scooter", "lat": 38.93359266666667, "is_reserved": 0, "is_disabled": 0, "fusion_lon": 0.0, "bike_id": "f48bbd0453e2e09a3e6e6624ee8fef5f", "lon": -77.03726283333333, "rental_uris": {"ios": "https://dc.lft.to/lastmile_qr_scan", "android": "https://dc.lft.to/lastmile_qr_scan"}}, {"name": "5b3f5cf590b4ae5717ed8ed31570498a", "fusion_lat": 0.0, "type": "electric_scooter", "lat": 38.91233033333334, "is_reserved": 0, "is_disabled": 0, "fusion_lon": 0.0, "bike_id": "5b3f5cf590b4ae5717ed8ed31570498a", "lon": -77.0383775, "rental_uris": {"ios": "https://dc.lft.to/lastmile_qr_scan", "android": "https://dc.lft.to/lastmile_qr_scan"}}, {"name": "5a30cda0bdcc59428c97017e9f0a7034", "fusion_lat": 0.0, "type": "electric_scooter", "lat": 38.904779, "is_reserved": 0, "is_disabled": 0, "fusion_lon": 0.0, "bike_id": "5a30cda0bdcc59428c97017e9f0a7034", "lon": -77.03849466666667, "rental_uris": {"ios": "https://dc.lft.to/lastmile_qr_scan", "android": "https://dc.lft.to/lastmile_qr_scan"}}, {"name": "a93a04a3fc5c375335e08c589e751bb8", "fusion_lat": 0.0, "type": "electric_scooter", "lat": 38.92156883333333, "is_reserved": 0, "is_disabled": 0, "fusion_lon": 0.0, "bike_id": "a93a04a3fc5c375335e08c589e751bb8", "lon": -77.03435516666667, "rental_uris": {"ios": "https://dc.lft.to/lastmile_qr_scan", "android": "https://dc.lft.to/lastmile_qr_scan"}}, {"name": "148738633126ba1eaf371786c78cb839", "fusion_lat": 0.0, "type": "electric_scooter", "lat": 38.899232, "is_reserved": 0, "is_disabled": 0, "fusion_lon": 0.0, "bike_id": "148738633126ba1eaf371786c78cb839", "lon": -77.03221216666667, "rental_uris": {"ios": "https://dc.lft.to/lastmile_qr_scan", "android": "https://dc.lft.to/lastmile_qr_scan"}}, {"name": "26288de1c5d969a4151ea69807759217", "fusion_lat": 0.0, "type": "electric_scooter", "lat": 38.92380683333333, "is_reserved": 0, "is_disabled": 0, "fusion_lon": 0.0, "bike_id": "26288de1c5d969a4151ea69807759217", "lon": -77.01933616666666, "rental_uris": {"ios": "https://dc.lft.to/lastmile_qr_scan", "android": "https://dc.lft.to/lastmile_qr_scan"}}, {"name": "ef51786333712068e7b66894db441b7e", "fusion_lat": 0.0, "type": "electric_scooter", "lat": 38.8961765, "is_reserved": 0, "is_disabled": 0, "fusion_lon": 0.0, "bike_id": "ef51786333712068e7b66894db441b7e", "lon": -77.02696633333333, "rental_uris": {"ios": "https://dc.lft.to/lastmile_qr_scan", "android": "https://dc.lft.to/lastmile_qr_scan"}}, {"name": "a5f2c732a546bfefd98fb6f2f7b5574d", "fusion_lat": 0.0, "type": "electric_scooter", "lat": 38.899215, "is_reserved": 0, "is_disabled": 0, "fusion_lon": 0.0, "bike_id": "a5f2c732a546bfefd98fb6f2f7b5574d", "lon": -77.0391815, "rental_uris": {"ios": "https://dc.lft.to/lastmile_qr_scan", "android": "https://dc.lft.to/lastmile_qr_scan"}}, {"name": "6afb1fd042eb9f40331eadd011fb2983", "fusion_lat": 0.0, "type": "electric_scooter", "lat": 38.91125316666667, "is_reserved": 0, "is_disabled": 0, "fusion_lon": 0.0, "bike_id": "6afb1fd042eb9f40331eadd011fb2983", "lon": -77.0373015, "rental_uris": {"ios": "https://dc.lft.to/lastmile_qr_scan", "android": "https://dc.lft.to/lastmile_qr_scan"}}, {"name": "cba84bfebbf8d05c24a304979a2a8e88", "fusion_lat": 0.0, "type": "electric_scooter", "lat": 38.91185016666667, "is_reserved": 0, "is_disabled": 0, "fusion_lon": 0.0, "bike_id": "cba84bfebbf8d05c24a304979a2a8e88", "lon": -77.03144783333333, "rental_uris": {"ios": "https://dc.lft.to/lastmile_qr_scan", "android": "https://dc.lft.to/lastmile_qr_scan"}}, {"name": "6a622b8934e579a73cde699860eeba33", "fusion_lat": 0.0, "type": "electric_scooter", "lat": 38.891957166666664, "is_reserved": 0, "is_disabled": 0, "fusion_lon": 0.0, "bike_id": "6a622b8934e579a73cde699860eeba33", "lon": -77.002935, "rental_uris": {"ios": "https://dc.lft.to/lastmile_qr_scan", "android": "https://dc.lft.to/lastmile_qr_scan"}}, {"name": "916b1afe3ac8e97cf23c06ac5e3bedbe", "fusion_lat": 0.0, "type": "electric_scooter", "lat": 38.93367466666667, "is_reserved": 0, "is_disabled": 0, "fusion_lon": 0.0, "bike_id": "916b1afe3ac8e97cf23c06ac5e3bedbe", "lon": -77.03452766666666, "rental_uris": {"ios": "https://dc.lft.to/lastmile_qr_scan", "android": "https://dc.lft.to/lastmile_qr_scan"}}, {"name": "978cb3a618e00438e0ae72a8343f59bd", "fusion_lat": 0.0, "type": "electric_scooter", "lat": 38.908586166666666, "is_reserved": 0, "is_disabled": 0, "fusion_lon": 0.0, "bike_id": "978cb3a618e00438e0ae72a8343f59bd", "lon": -77.0433885, "rental_uris": {"ios": "https://dc.lft.to/lastmile_qr_scan", "android": "https://dc.lft.to/lastmile_qr_scan"}}, {"name": "813f5677393c421d3a4c329cffaef474", "fusion_lat": 0.0, "type": "electric_scooter", "lat": 38.917093666666666, "is_reserved": 0, "is_disabled": 0, "fusion_lon": 0.0, "bike_id": "813f5677393c421d3a4c329cffaef474", "lon": -77.03123616666667, "rental_uris": {"ios": "https://dc.lft.to/lastmile_qr_scan", "android": "https://dc.lft.to/lastmile_qr_scan"}}, {"name": "78cae4e2ef8114c8d96c447cd4ecfd37", "fusion_lat": 0.0, "type": "electric_scooter", "lat": 38.90660233333333, "is_reserved": 0, "is_disabled": 0, "fusion_lon": 0.0, "bike_id": "78cae4e2ef8114c8d96c447cd4ecfd37", "lon": -77.0532775, "rental_uris": {"ios": "https://dc.lft.to/lastmile_qr_scan", "android": "https://dc.lft.to/lastmile_qr_scan"}}, {"name": "643b13566bc45f8875f62d899459d594", "fusion_lat": 0.0, "type": "electric_scooter", "lat": 38.9057365, "is_reserved": 0, "is_disabled": 0, "fusion_lon": 0.0, "bike_id": "643b13566bc45f8875f62d899459d594", "lon": -77.00611383333333, "rental_uris": {"ios": "https://dc.lft.to/lastmile_qr_scan", "android": "https://dc.lft.to/lastmile_qr_scan"}}, {"name": "012bf74ff2c75ff2b7c26c081acd2d9c", "fusion_lat": 0.0, "type": "electric_scooter", "lat": 38.89856433333333, "is_reserved": 0, "is_disabled": 0, "fusion_lon": 0.0, "bike_id": "012bf74ff2c75ff2b7c26c081acd2d9c", "lon": -77.016095, "rental_uris": {"ios": "https://dc.lft.to/lastmile_qr_scan", "android": "https://dc.lft.to/lastmile_qr_scan"}}, {"name": "ebb9b8e35ef88231ff1ae5e9c15f1158", "fusion_lat": 0.0, "type": "electric_bike", "lat": 38.946278166666666, "is_reserved": 0, "is_disabled": 0, "fusion_lon": 0.0, "bike_id": "ebb9b8e35ef88231ff1ae5e9c15f1158", "lon": -76.946274, "rental_uris": {"ios": "https://dc.lft.to/lastmile_qr_scan", "android": "https://dc.lft.to/lastmile_qr_scan"}}, {"name": "75149e2aa1a4b9625b8195f5c09c7c97", "fusion_lat": 0.0, "type": "electric_scooter", "lat": 38.88054533333333, "is_reserved": 0, "is_disabled": 0, "fusion_lon": 0.0, "bike_id": "75149e2aa1a4b9625b8195f5c09c7c97", "lon": -77.0132655, "rental_uris": {"ios": "https://dc.lft.to/lastmile_qr_scan", "android": "https://dc.lft.to/lastmile_qr_scan"}}, {"name": "d3bbab4871afc9114e2b743a64f31b1f", "fusion_lat": 0.0, "type": "electric_scooter", "lat": 38.90568, "is_reserved": 0, "is_disabled": 0, "fusion_lon": 0.0, "bike_id": "d3bbab4871afc9114e2b743a64f31b1f", "lon": -77.0628005, "rental_uris": {"ios": "https://dc.lft.to/lastmile_qr_scan", "android": "https://dc.lft.to/lastmile_qr_scan"}}, {"name": "0a45e88a16d76c87592fa2aab22b9de3", "fusion_lat": 0.0, "type": "electric_scooter", "lat": 38.915546166666665, "is_reserved": 0, "is_disabled": 0, "fusion_lon": 0.0, "bike_id": "0a45e88a16d76c87592fa2aab22b9de3", "lon": -77.03512466666666, "rental_uris": {"ios": "https://dc.lft.to/lastmile_qr_scan", "android": "https://dc.lft.to/lastmile_qr_scan"}}, {"name": "e5f8bbd26219f0b2206636e4b6bb8494", "fusion_lat": 0.0, "type": "electric_bike", "lat": 38.873079, "is_reserved": 0, "is_disabled": 0, "fusion_lon": 0.0, "bike_id": "e5f8bbd26219f0b2206636e4b6bb8494", "lon": -77.0109195, "rental_uris": {"ios": "https://dc.lft.to/lastmile_qr_scan", "android": "https://dc.lft.to/lastmile_qr_scan"}}, {"name": "99b9ceee8d2e083464a7dfc3bd96457b", "fusion_lat": 0.0, "type": "electric_scooter", "lat": 38.90008783333333, "is_reserved": 0, "is_disabled": 0, "fusion_lon": 0.0, "bike_id": "99b9ceee8d2e083464a7dfc3bd96457b", "lon": -77.03984116666666, "rental_uris": {"ios": "https://dc.lft.to/lastmile_qr_scan", "android": "https://dc.lft.to/lastmile_qr_scan"}}, {"name": "ed1e20dfc8cceb312d21b174fa8627ca", "fusion_lat": 0.0, "type": "electric_scooter", "lat": 38.918788, "is_reserved": 0, "is_disabled": 0, "fusion_lon": 0.0, "bike_id": "ed1e20dfc8cceb312d21b174fa8627ca", "lon": -77.04485033333333, "rental_uris": {"ios": "https://dc.lft.to/lastmile_qr_scan", "android": "https://dc.lft.to/lastmile_qr_scan"}}, {"name": "6b723526af299022a2d9fb7f1167d5b7", "fusion_lat": 0.0, "type": "electric_scooter", "lat": 38.9206745, "is_reserved": 0, "is_disabled": 0, "fusion_lon": 0.0, "bike_id": "6b723526af299022a2d9fb7f1167d5b7", "lon": -76.99850783333333, "rental_uris": {"ios": "https://dc.lft.to/lastmile_qr_scan", "android": "https://dc.lft.to/lastmile_qr_scan"}}, {"name": "804e3018ed393ee3d0b857d90622f8b0", "fusion_lat": 0.0, "type": "electric_scooter", "lat": 38.89221, "is_reserved": 0, "is_disabled": 0, "fusion_lon": 0.0, "bike_id": "804e3018ed393ee3d0b857d90622f8b0", "lon": -77.03167683333334, "rental_uris": {"ios": "https://dc.lft.to/lastmile_qr_scan", "android": "https://dc.lft.to/lastmile_qr_scan"}}, {"name": "52d684ffa770e1504220020d0872b81c", "fusion_lat": 0.0, "type": "electric_scooter", "lat": 38.93706133333333, "is_reserved": 0, "is_disabled": 0, "fusion_lon": 0.0, "bike_id": "52d684ffa770e1504220020d0872b81c", "lon": -77.0610025, "rental_uris": {"ios": "https://dc.lft.to/lastmile_qr_scan", "android": "https://dc.lft.to/lastmile_qr_scan"}}, {"name": "f7568472376392df1f0765abc603662a", "fusion_lat": 0.0, "type": "electric_scooter", "lat": 38.9074945, "is_reserved": 0, "is_disabled": 0, "fusion_lon": 0.0, "bike_id": "f7568472376392df1f0765abc603662a", "lon": -77.03473316666667, "rental_uris": {"ios": "https://dc.lft.to/lastmile_qr_scan", "android": "https://dc.lft.to/lastmile_qr_scan"}}, {"name": "d812f5477b72222ee580ca906f72004d", "fusion_lat": 0.0, "type": "electric_bike", "lat": 38.97385766666667, "is_reserved": 0, "is_disabled": 0, "fusion_lon": 0.0, "bike_id": "d812f5477b72222ee580ca906f72004d", "lon": -77.06474533333333, "rental_uris": {"ios": "https://dc.lft.to/lastmile_qr_scan", "android": "https://dc.lft.to/lastmile_qr_scan"}}, {"name": "ff36b83f4ab8c9486195634b575a52ff", "fusion_lat": 0.0, "type": "electric_scooter", "lat": 38.8849045, "is_reserved": 0, "is_disabled": 0, "fusion_lon": 0.0, "bike_id": "ff36b83f4ab8c9486195634b575a52ff", "lon": -77.00712833333333, "rental_uris": {"ios": "https://dc.lft.to/lastmile_qr_scan", "android": "https://dc.lft.to/lastmile_qr_scan"}}, {"name": "c96c65ee3f21c57f8fb82687c907450a", "fusion_lat": 0.0, "type": "electric_scooter", "lat": 38.878887, "is_reserved": 0, "is_disabled": 0, "fusion_lon": 0.0, "bike_id": "c96c65ee3f21c57f8fb82687c907450a", "lon": -77.00118883333333, "rental_uris": {"ios": "https://dc.lft.to/lastmile_qr_scan", "android": "https://dc.lft.to/lastmile_qr_scan"}}, {"name": "23d9439923636d162911eab8986cc7d0", "fusion_lat": 0.0, "type": "electric_scooter", "lat": 38.88320566666667, "is_reserved": 0, "is_disabled": 0, "fusion_lon": 0.0, "bike_id": "23d9439923636d162911eab8986cc7d0", "lon": -77.00597, "rental_uris": {"ios": "https://dc.lft.to/lastmile_qr_scan", "android": "https://dc.lft.to/lastmile_qr_scan"}}, {"name": "61acf4f6a16aa2d9f50848d09f09f36c", "fusion_lat": 0.0, "type": "electric_bike", "lat": 38.999129333333336, "is_reserved": 0, "is_disabled": 0, "fusion_lon": 0.0, "bike_id": "61acf4f6a16aa2d9f50848d09f09f36c", "lon": -77.04617816666666, "rental_uris": {"ios": "https://dc.lft.to/lastmile_qr_scan", "android": "https://dc.lft.to/lastmile_qr_scan"}}, {"name": "1203abb5083e8310df769a35fccb50d2", "fusion_lat": 0.0, "type": "electric_scooter", "lat": 38.91267283333333, "is_reserved": 0, "is_disabled": 0, "fusion_lon": 0.0, "bike_id": "1203abb5083e8310df769a35fccb50d2", "lon": -77.03142216666667, "rental_uris": {"ios": "https://dc.lft.to/lastmile_qr_scan", "android": "https://dc.lft.to/lastmile_qr_scan"}}, {"name": "b9c6f2b2a86e7b78a01b42ac0f5e9dc8", "fusion_lat": 0.0, "type": "electric_scooter", "lat": 38.9223415, "is_reserved": 0, "is_disabled": 0, "fusion_lon": 0.0, "bike_id": "b9c6f2b2a86e7b78a01b42ac0f5e9dc8", "lon": -77.04704733333334, "rental_uris": {"ios": "https://dc.lft.to/lastmile_qr_scan", "android": "https://dc.lft.to/lastmile_qr_scan"}}, {"name": "b2588b439d61e40cc3ff6109c9cb6cb3", "fusion_lat": 0.0, "type": "electric_bike", "lat": 38.8457545, "is_reserved": 0, "is_disabled": 0, "fusion_lon": 0.0, "bike_id": "b2588b439d61e40cc3ff6109c9cb6cb3", "lon": -77.09622133333333, "rental_uris": {"ios": "https://dc.lft.to/lastmile_qr_scan", "android": "https://dc.lft.to/lastmile_qr_scan"}}, {"name": "a28ba4b6eb6cf06d88f1c64f5f549e36", "fusion_lat": 0.0, "type": "electric_scooter", "lat": 38.866708333333335, "is_reserved": 0, "is_disabled": 0, "fusion_lon": 0.0, "bike_id": "a28ba4b6eb6cf06d88f1c64f5f549e36", "lon": -77.01109833333334, "rental_uris": {"ios": "https://dc.lft.to/lastmile_qr_scan", "android": "https://dc.lft.to/lastmile_qr_scan"}}, {"name": "c574547fda45ca780a77a4ee95892cf7", "fusion_lat": 0.0, "type": "electric_scooter", "lat": 38.9117865, "is_reserved": 0, "is_disabled": 0, "fusion_lon": 0.0, "bike_id": "c574547fda45ca780a77a4ee95892cf7", "lon": -77.03642483333333, "rental_uris": {"ios": "https://dc.lft.to/lastmile_qr_scan", "android": "https://dc.lft.to/lastmile_qr_scan"}}, {"name": "d2cd426861ecae207c5a1a379d758e04", "fusion_lat": 0.0, "type": "electric_scooter", "lat": 38.9012415, "is_reserved": 0, "is_disabled": 0, "fusion_lon": 0.0, "bike_id": "d2cd426861ecae207c5a1a379d758e04", "lon": -77.043544, "rental_uris": {"ios": "https://dc.lft.to/lastmile_qr_scan", "android": "https://dc.lft.to/lastmile_qr_scan"}}, {"name": "1df4b3a5d1910b25b2d72022b2e77095", "fusion_lat": 0.0, "type": "electric_scooter", "lat": 38.88601233333333, "is_reserved": 0, "is_disabled": 0, "fusion_lon": 0.0, "bike_id": "1df4b3a5d1910b25b2d72022b2e77095", "lon": -77.02203183333333, "rental_uris": {"ios": "https://dc.lft.to/lastmile_qr_scan", "android": "https://dc.lft.to/lastmile_qr_scan"}}, {"name": "b4b650dbcf12849f97172fbd12ada783", "fusion_lat": 0.0, "type": "electric_scooter", "lat": 38.9194485, "is_reserved": 0, "is_disabled": 0, "fusion_lon": 0.0, "bike_id": "b4b650dbcf12849f97172fbd12ada783", "lon": -77.0454585, "rental_uris": {"ios": "https://dc.lft.to/lastmile_qr_scan", "android": "https://dc.lft.to/lastmile_qr_scan"}}, {"name": "f747925d54acbcb48c03d959c9b1717b", "fusion_lat": 0.0, "type": "electric_scooter", "lat": 38.899785, "is_reserved": 0, "is_disabled": 0, "fusion_lon": 0.0, "bike_id": "f747925d54acbcb48c03d959c9b1717b", "lon": -77.02948433333333, "rental_uris": {"ios": "https://dc.lft.to/lastmile_qr_scan", "android": "https://dc.lft.to/lastmile_qr_scan"}}, {"name": "f51f6bec663193e39f257405f7b66ecc", "fusion_lat": 0.0, "type": "electric_scooter", "lat": 38.86078116666667, "is_reserved": 0, "is_disabled": 0, "fusion_lon": 0.0, "bike_id": "f51f6bec663193e39f257405f7b66ecc", "lon": -76.96736883333334, "rental_uris": {"ios": "https://dc.lft.to/lastmile_qr_scan", "android": "https://dc.lft.to/lastmile_qr_scan"}}, {"name": "819b9535e9661f4452a69f1651ed9c5f", "fusion_lat": 0.0, "type": "electric_scooter", "lat": 38.914727166666665, "is_reserved": 0, "is_disabled": 0, "fusion_lon": 0.0, "bike_id": "819b9535e9661f4452a69f1651ed9c5f", "lon": -76.98114566666666, "rental_uris": {"ios": "https://dc.lft.to/lastmile_qr_scan", "android": "https://dc.lft.to/lastmile_qr_scan"}}, {"name": "c4ae2085ca2e9b94d0b66d9f87c67abd", "fusion_lat": 0.0, "type": "electric_scooter", "lat": 38.92206516666667, "is_reserved": 0, "is_disabled": 0, "fusion_lon": 0.0, "bike_id": "c4ae2085ca2e9b94d0b66d9f87c67abd", "lon": -77.0431645, "rental_uris": {"ios": "https://dc.lft.to/lastmile_qr_scan", "android": "https://dc.lft.to/lastmile_qr_scan"}}, {"name": "e23ac7296f79086d995fc04565aee152", "fusion_lat": 0.0, "type": "electric_scooter", "lat": 38.93484483333334, "is_reserved": 0, "is_disabled": 0, "fusion_lon": 0.0, "bike_id": "e23ac7296f79086d995fc04565aee152", "lon": -77.07267416666667, "rental_uris": {"ios": "https://dc.lft.to/lastmile_qr_scan", "android": "https://dc.lft.to/lastmile_qr_scan"}}, {"name": "550ec4cfe2b70d6b90668b196b40fb8d", "fusion_lat": 0.0, "type": "electric_scooter", "lat": 38.901255166666665, "is_reserved": 0, "is_disabled": 0, "fusion_lon": 0.0, "bike_id": "550ec4cfe2b70d6b90668b196b40fb8d", "lon": -77.04984916666666, "rental_uris": {"ios": "https://dc.lft.to/lastmile_qr_scan", "android": "https://dc.lft.to/lastmile_qr_scan"}}, {"name": "02904ff86aae3a3cef97a67ca91bf489", "fusion_lat": 0.0, "type": "electric_bike", "lat": 38.88114916666667, "is_reserved": 0, "is_disabled": 0, "fusion_lon": 0.0, "bike_id": "02904ff86aae3a3cef97a67ca91bf489", "lon": -77.114636, "rental_uris": {"ios": "https://dc.lft.to/lastmile_qr_scan", "android": "https://dc.lft.to/lastmile_qr_scan"}}, {"name": "dccaa7e3a990be5e45f24cae690d18cf", "fusion_lat": 0.0, "type": "electric_scooter", "lat": 38.9336405, "is_reserved": 0, "is_disabled": 0, "fusion_lon": 0.0, "bike_id": "dccaa7e3a990be5e45f24cae690d18cf", "lon": -77.03449366666666, "rental_uris": {"ios": "https://dc.lft.to/lastmile_qr_scan", "android": "https://dc.lft.to/lastmile_qr_scan"}}, {"name": "c4d8d4da678d6dbe17143327b89cca94", "fusion_lat": 0.0, "type": "electric_scooter", "lat": 38.906686666666666, "is_reserved": 0, "is_disabled": 0, "fusion_lon": 0.0, "bike_id": "c4d8d4da678d6dbe17143327b89cca94", "lon": -77.027154, "rental_uris": {"ios": "https://dc.lft.to/lastmile_qr_scan", "android": "https://dc.lft.to/lastmile_qr_scan"}}, {"name": "27fba6c6a673b4266e38e766f3654eb8", "fusion_lat": 0.0, "type": "electric_bike", "lat": 38.94077816666667, "is_reserved": 0, "is_disabled": 0, "fusion_lon": 0.0, "bike_id": "27fba6c6a673b4266e38e766f3654eb8", "lon": -77.03818483333333, "rental_uris": {"ios": "https://dc.lft.to/lastmile_qr_scan", "android": "https://dc.lft.to/lastmile_qr_scan"}}, {"name": "4f12657d0917d307957dceb1e5bdf6be", "fusion_lat": 0.0, "type": "electric_scooter", "lat": 38.929166333333335, "is_reserved": 0, "is_disabled": 0, "fusion_lon": 0.0, "bike_id": "4f12657d0917d307957dceb1e5bdf6be", "lon": -77.0195785, "rental_uris": {"ios": "https://dc.lft.to/lastmile_qr_scan", "android": "https://dc.lft.to/lastmile_qr_scan"}}, {"name": "12ab6811a897ddbce0a215f90faeaca7", "fusion_lat": 0.0, "type": "electric_scooter", "lat": 38.91709183333333, "is_reserved": 0, "is_disabled": 0, "fusion_lon": 0.0, "bike_id": "12ab6811a897ddbce0a215f90faeaca7", "lon": -77.035419, "rental_uris": {"ios": "https://dc.lft.to/lastmile_qr_scan", "android": "https://dc.lft.to/lastmile_qr_scan"}}, {"name": "2da4f8cc8b828df47c62dda945961389", "fusion_lat": 0.0, "type": "electric_scooter", "lat": 38.91775483333333, "is_reserved": 0, "is_disabled": 0, "fusion_lon": 0.0, "bike_id": "2da4f8cc8b828df47c62dda945961389", "lon": -77.04748933333333, "rental_uris": {"ios": "https://dc.lft.to/lastmile_qr_scan", "android": "https://dc.lft.to/lastmile_qr_scan"}}, {"name": "96e147ff53d26570a085e6ea56b1861f", "fusion_lat": 0.0, "type": "electric_scooter", "lat": 38.9037995, "is_reserved": 0, "is_disabled": 0, "fusion_lon": 0.0, "bike_id": "96e147ff53d26570a085e6ea56b1861f", "lon": -77.04324983333333, "rental_uris": {"ios": "https://dc.lft.to/lastmile_qr_scan", "android": "https://dc.lft.to/lastmile_qr_scan"}}, {"name": "63baf15ce515e727be6a1a35ceb4d9be", "fusion_lat": 0.0, "type": "electric_bike", "lat": 38.88698483333334, "is_reserved": 0, "is_disabled": 0, "fusion_lon": 0.0, "bike_id": "63baf15ce515e727be6a1a35ceb4d9be", "lon": -77.09706333333334, "rental_uris": {"ios": "https://dc.lft.to/lastmile_qr_scan", "android": "https://dc.lft.to/lastmile_qr_scan"}}, {"name": "e4631a370d8965298df943761198cfd1", "fusion_lat": 0.0, "type": "electric_scooter", "lat": 38.90878983333333, "is_reserved": 0, "is_disabled": 0, "fusion_lon": 0.0, "bike_id": "e4631a370d8965298df943761198cfd1", "lon": -77.075881, "rental_uris": {"ios": "https://dc.lft.to/lastmile_qr_scan", "android": "https://dc.lft.to/lastmile_qr_scan"}}, {"name": "31cd7e5ddd04e999ebcd301316c83a48", "fusion_lat": 0.0, "type": "electric_scooter", "lat": 38.93665083333333, "is_reserved": 0, "is_disabled": 0, "fusion_lon": 0.0, "bike_id": "31cd7e5ddd04e999ebcd301316c83a48", "lon": -77.032638, "rental_uris": {"ios": "https://dc.lft.to/lastmile_qr_scan", "android": "https://dc.lft.to/lastmile_qr_scan"}}, {"name": "8ad4f1a0e315b65d92c59504779be079", "fusion_lat": 0.0, "type": "electric_scooter", "lat": 38.914099, "is_reserved": 0, "is_disabled": 0, "fusion_lon": 0.0, "bike_id": "8ad4f1a0e315b65d92c59504779be079", "lon": -77.03996533333333, "rental_uris": {"ios": "https://dc.lft.to/lastmile_qr_scan", "android": "https://dc.lft.to/lastmile_qr_scan"}}, {"name": "b3206bb3da8418302facf5279ad86b49", "fusion_lat": 0.0, "type": "electric_scooter", "lat": 38.87815633333334, "is_reserved": 0, "is_disabled": 0, "fusion_lon": 0.0, "bike_id": "b3206bb3da8418302facf5279ad86b49", "lon": -77.00347466666666, "rental_uris": {"ios": "https://dc.lft.to/lastmile_qr_scan", "android": "https://dc.lft.to/lastmile_qr_scan"}}, {"name": "41a76f0ff4894ca99d5aa8b46a7d662e", "fusion_lat": 0.0, "type": "electric_scooter", "lat": 38.90648133333333, "is_reserved": 0, "is_disabled": 0, "fusion_lon": 0.0, "bike_id": "41a76f0ff4894ca99d5aa8b46a7d662e", "lon": -77.005965, "rental_uris": {"ios": "https://dc.lft.to/lastmile_qr_scan", "android": "https://dc.lft.to/lastmile_qr_scan"}}, {"name": "93611c891fb88a8bdbb90cff29c3c5b4", "fusion_lat": 0.0, "type": "electric_scooter", "lat": 38.89243033333333, "is_reserved": 0, "is_disabled": 0, "fusion_lon": 0.0, "bike_id": "93611c891fb88a8bdbb90cff29c3c5b4", "lon": -77.01357716666666, "rental_uris": {"ios": "https://dc.lft.to/lastmile_qr_scan", "android": "https://dc.lft.to/lastmile_qr_scan"}}, {"name": "bce7bab8dbcd8f71c8ba55bcdeb3dc43", "fusion_lat": 0.0, "type": "electric_scooter", "lat": 38.905743333333334, "is_reserved": 0, "is_disabled": 0, "fusion_lon": 0.0, "bike_id": "bce7bab8dbcd8f71c8ba55bcdeb3dc43", "lon": -77.02532033333334, "rental_uris": {"ios": "https://dc.lft.to/lastmile_qr_scan", "android": "https://dc.lft.to/lastmile_qr_scan"}}, {"name": "2aa529b71e46c73065f5db6ceb41ba92", "fusion_lat": 0.0, "type": "electric_scooter", "lat": 38.91701533333333, "is_reserved": 0, "is_disabled": 0, "fusion_lon": 0.0, "bike_id": "2aa529b71e46c73065f5db6ceb41ba92", "lon": -77.02893366666666, "rental_uris": {"ios": "https://dc.lft.to/lastmile_qr_scan", "android": "https://dc.lft.to/lastmile_qr_scan"}}, {"name": "9c0631c4b6e70d2b044bb5d672f09ffa", "fusion_lat": 0.0, "type": "electric_scooter", "lat": 38.900327, "is_reserved": 0, "is_disabled": 0, "fusion_lon": 0.0, "bike_id": "9c0631c4b6e70d2b044bb5d672f09ffa", "lon": -77.01186833333334, "rental_uris": {"ios": "https://dc.lft.to/lastmile_qr_scan", "android": "https://dc.lft.to/lastmile_qr_scan"}}, {"name": "c0f120a6b26f4194e5b8cb1c8caff4e5", "fusion_lat": 0.0, "type": "electric_scooter", "lat": 38.90253883333333, "is_reserved": 0, "is_disabled": 0, "fusion_lon": 0.0, "bike_id": "c0f120a6b26f4194e5b8cb1c8caff4e5", "lon": -77.04599483333334, "rental_uris": {"ios": "https://dc.lft.to/lastmile_qr_scan", "android": "https://dc.lft.to/lastmile_qr_scan"}}, {"name": "057b8932b48d0bdcf292c1fb6632935d", "fusion_lat": 0.0, "type": "electric_scooter", "lat": 38.91918233333333, "is_reserved": 0, "is_disabled": 0, "fusion_lon": 0.0, "bike_id": "057b8932b48d0bdcf292c1fb6632935d", "lon": -77.024097, "rental_uris": {"ios": "https://dc.lft.to/lastmile_qr_scan", "android": "https://dc.lft.to/lastmile_qr_scan"}}, {"name": "79a5a479b21eb57a04ed3442e3626dc1", "fusion_lat": 0.0, "type": "electric_scooter", "lat": 38.917245666666666, "is_reserved": 0, "is_disabled": 0, "fusion_lon": 0.0, "bike_id": "79a5a479b21eb57a04ed3442e3626dc1", "lon": -77.00815083333333, "rental_uris": {"ios": "https://dc.lft.to/lastmile_qr_scan", "android": "https://dc.lft.to/lastmile_qr_scan"}}, {"name": "2b113eb409addacf48f7856e3184509a", "fusion_lat": 0.0, "type": "electric_scooter", "lat": 38.911995, "is_reserved": 0, "is_disabled": 0, "fusion_lon": 0.0, "bike_id": "2b113eb409addacf48f7856e3184509a", "lon": -77.03445766666667, "rental_uris": {"ios": "https://dc.lft.to/lastmile_qr_scan", "android": "https://dc.lft.to/lastmile_qr_scan"}}, {"name": "92dbc50efc1d5b89152ff3cb3208c29d", "fusion_lat": 0.0, "type": "electric_scooter", "lat": 38.89730983333333, "is_reserved": 0, "is_disabled": 0, "fusion_lon": 0.0, "bike_id": "92dbc50efc1d5b89152ff3cb3208c29d", "lon": -77.0232765, "rental_uris": {"ios": "https://dc.lft.to/lastmile_qr_scan", "android": "https://dc.lft.to/lastmile_qr_scan"}}, {"name": "3e21b7f612042078df6df97c586c6503", "fusion_lat": 0.0, "type": "electric_scooter", "lat": 38.86540033333333, "is_reserved": 0, "is_disabled": 0, "fusion_lon": 0.0, "bike_id": "3e21b7f612042078df6df97c586c6503", "lon": -76.987079, "rental_uris": {"ios": "https://dc.lft.to/lastmile_qr_scan", "android": "https://dc.lft.to/lastmile_qr_scan"}}, {"name": "e4084f73f9b6e2c730af1298080a0ed5", "fusion_lat": 0.0, "type": "electric_scooter", "lat": 38.90270533333333, "is_reserved": 0, "is_disabled": 0, "fusion_lon": 0.0, "bike_id": "e4084f73f9b6e2c730af1298080a0ed5", "lon": -77.029979, "rental_uris": {"ios": "https://dc.lft.to/lastmile_qr_scan", "android": "https://dc.lft.to/lastmile_qr_scan"}}, {"name": "fc467ee78b96431429369ce458f0ff7b", "fusion_lat": 0.0, "type": "electric_scooter", "lat": 38.92064583333333, "is_reserved": 0, "is_disabled": 0, "fusion_lon": 0.0, "bike_id": "fc467ee78b96431429369ce458f0ff7b", "lon": -76.97805, "rental_uris": {"ios": "https://dc.lft.to/lastmile_qr_scan", "android": "https://dc.lft.to/lastmile_qr_scan"}}, {"name": "b4b434598adb9711702e06748daee2b2", "fusion_lat": 0.0, "type": "electric_scooter", "lat": 38.926214333333334, "is_reserved": 0, "is_disabled": 0, "fusion_lon": 0.0, "bike_id": "b4b434598adb9711702e06748daee2b2", "lon": -77.036688, "rental_uris": {"ios": "https://dc.lft.to/lastmile_qr_scan", "android": "https://dc.lft.to/lastmile_qr_scan"}}, {"name": "6b9c86d5f44e10e57c2ac3f9e4e2a705", "fusion_lat": 0.0, "type": "electric_scooter", "lat": 38.91550766666667, "is_reserved": 0, "is_disabled": 0, "fusion_lon": 0.0, "bike_id": "6b9c86d5f44e10e57c2ac3f9e4e2a705", "lon": -77.038496, "rental_uris": {"ios": "https://dc.lft.to/lastmile_qr_scan", "android": "https://dc.lft.to/lastmile_qr_scan"}}, {"name": "db5d10768279ee44ceb8fb491cbc6376", "fusion_lat": 0.0, "type": "electric_scooter", "lat": 38.911171, "is_reserved": 0, "is_disabled": 0, "fusion_lon": 0.0, "bike_id": "db5d10768279ee44ceb8fb491cbc6376", "lon": -77.006043, "rental_uris": {"ios": "https://dc.lft.to/lastmile_qr_scan", "android": "https://dc.lft.to/lastmile_qr_scan"}}, {"name": "0b3dc685cc4c4d118153015af75be83e", "fusion_lat": 0.0, "type": "electric_bike", "lat": 39.02427683333333, "is_reserved": 0, "is_disabled": 0, "fusion_lon": 0.0, "bike_id": "0b3dc685cc4c4d118153015af75be83e", "lon": -77.12502833333333, "rental_uris": {"ios": "https://dc.lft.to/lastmile_qr_scan", "android": "https://dc.lft.to/lastmile_qr_scan"}}, {"name": "a8d455c7c9846f2416db4131d641220f", "fusion_lat": 0.0, "type": "electric_scooter", "lat": 38.91234933333333, "is_reserved": 0, "is_disabled": 0, "fusion_lon": 0.0, "bike_id": "a8d455c7c9846f2416db4131d641220f", "lon": -77.05108183333333, "rental_uris": {"ios": "https://dc.lft.to/lastmile_qr_scan", "android": "https://dc.lft.to/lastmile_qr_scan"}}, {"name": "2b76a2a20424ba35bbad59393b0c982b", "fusion_lat": 0.0, "type": "electric_scooter", "lat": 38.9060865, "is_reserved": 0, "is_disabled": 0, "fusion_lon": 0.0, "bike_id": "2b76a2a20424ba35bbad59393b0c982b", "lon": -77.05620683333333, "rental_uris": {"ios": "https://dc.lft.to/lastmile_qr_scan", "android": "https://dc.lft.to/lastmile_qr_scan"}}, {"name": "bcfa2d4dcc460f080a1428bd6e605ad7", "fusion_lat": 0.0, "type": "electric_scooter", "lat": 38.9003195, "is_reserved": 0, "is_disabled": 0, "fusion_lon": 0.0, "bike_id": "bcfa2d4dcc460f080a1428bd6e605ad7", "lon": -77.011869, "rental_uris": {"ios": "https://dc.lft.to/lastmile_qr_scan", "android": "https://dc.lft.to/lastmile_qr_scan"}}, {"name": "261ce85fd445f1d42cb38659fec89b6f", "fusion_lat": 0.0, "type": "electric_scooter", "lat": 38.96387983333334, "is_reserved": 0, "is_disabled": 0, "fusion_lon": 0.0, "bike_id": "261ce85fd445f1d42cb38659fec89b6f", "lon": -77.03507266666666, "rental_uris": {"ios": "https://dc.lft.to/lastmile_qr_scan", "android": "https://dc.lft.to/lastmile_qr_scan"}}, {"name": "bef26331d1ca44780719f2a8c0e97554", "fusion_lat": 0.0, "type": "electric_bike", "lat": 38.96619316666666, "is_reserved": 0, "is_disabled": 0, "fusion_lon": 0.0, "bike_id": "bef26331d1ca44780719f2a8c0e97554", "lon": -76.94420783333334, "rental_uris": {"ios": "https://dc.lft.to/lastmile_qr_scan", "android": "https://dc.lft.to/lastmile_qr_scan"}}, {"name": "5e1931f7a2b96dafc62ac22763c95174", "fusion_lat": 0.0, "type": "electric_scooter", "lat": 38.935272166666664, "is_reserved": 0, "is_disabled": 0, "fusion_lon": 0.0, "bike_id": "5e1931f7a2b96dafc62ac22763c95174", "lon": -77.0326245, "rental_uris": {"ios": "https://dc.lft.to/lastmile_qr_scan", "android": "https://dc.lft.to/lastmile_qr_scan"}}, {"name": "9f2623cd0f2aa42afe1516a6ee38dbf9", "fusion_lat": 0.0, "type": "electric_scooter", "lat": 38.92268283333333, "is_reserved": 0, "is_disabled": 0, "fusion_lon": 0.0, "bike_id": "9f2623cd0f2aa42afe1516a6ee38dbf9", "lon": -77.0340195, "rental_uris": {"ios": "https://dc.lft.to/lastmile_qr_scan", "android": "https://dc.lft.to/lastmile_qr_scan"}}, {"name": "223a0e84a851792bc11c14db86f8592a", "fusion_lat": 0.0, "type": "electric_scooter", "lat": 38.8987495, "is_reserved": 0, "is_disabled": 0, "fusion_lon": 0.0, "bike_id": "223a0e84a851792bc11c14db86f8592a", "lon": -76.93157233333334, "rental_uris": {"ios": "https://dc.lft.to/lastmile_qr_scan", "android": "https://dc.lft.to/lastmile_qr_scan"}}, {"name": "ff4958f05e71420605b3411011b55e92", "fusion_lat": 0.0, "type": "electric_scooter", "lat": 38.92065083333333, "is_reserved": 0, "is_disabled": 0, "fusion_lon": 0.0, "bike_id": "ff4958f05e71420605b3411011b55e92", "lon": -77.02712533333333, "rental_uris": {"ios": "https://dc.lft.to/lastmile_qr_scan", "android": "https://dc.lft.to/lastmile_qr_scan"}}, {"name": "33aa17f23f7debe83e28531e93a29fa9", "fusion_lat": 0.0, "type": "electric_scooter", "lat": 38.88326883333333, "is_reserved": 0, "is_disabled": 0, "fusion_lon": 0.0, "bike_id": "33aa17f23f7debe83e28531e93a29fa9", "lon": -77.02390416666667, "rental_uris": {"ios": "https://dc.lft.to/lastmile_qr_scan", "android": "https://dc.lft.to/lastmile_qr_scan"}}, {"name": "d4b00b59446287e4dbdcf67df7f9b19b", "fusion_lat": 0.0, "type": "electric_scooter", "lat": 38.933399333333334, "is_reserved": 0, "is_disabled": 0, "fusion_lon": 0.0, "bike_id": "d4b00b59446287e4dbdcf67df7f9b19b", "lon": -77.027366, "rental_uris": {"ios": "https://dc.lft.to/lastmile_qr_scan", "android": "https://dc.lft.to/lastmile_qr_scan"}}, {"name": "6bcd53c3458ad8bd0047966c343fce55", "fusion_lat": 0.0, "type": "electric_scooter", "lat": 38.91756566666667, "is_reserved": 0, "is_disabled": 0, "fusion_lon": 0.0, "bike_id": "6bcd53c3458ad8bd0047966c343fce55", "lon": -77.0187745, "rental_uris": {"ios": "https://dc.lft.to/lastmile_qr_scan", "android": "https://dc.lft.to/lastmile_qr_scan"}}, {"name": "74e83a265fee8a85a9e0b6c7f72ed76d", "fusion_lat": 0.0, "type": "electric_scooter", "lat": 38.904073333333336, "is_reserved": 0, "is_disabled": 0, "fusion_lon": 0.0, "bike_id": "74e83a265fee8a85a9e0b6c7f72ed76d", "lon": -77.06401716666667, "rental_uris": {"ios": "https://dc.lft.to/lastmile_qr_scan", "android": "https://dc.lft.to/lastmile_qr_scan"}}, {"name": "a1bf928dd95b2d345367c725173b38f1", "fusion_lat": 0.0, "type": "electric_scooter", "lat": 38.908860833333335, "is_reserved": 0, "is_disabled": 0, "fusion_lon": 0.0, "bike_id": "a1bf928dd95b2d345367c725173b38f1", "lon": -77.00576166666667, "rental_uris": {"ios": "https://dc.lft.to/lastmile_qr_scan", "android": "https://dc.lft.to/lastmile_qr_scan"}}, {"name": "b14cf4b6ab80730834b6fad7b9b8b875", "fusion_lat": 0.0, "type": "electric_scooter", "lat": 38.901512, "is_reserved": 0, "is_disabled": 0, "fusion_lon": 0.0, "bike_id": "b14cf4b6ab80730834b6fad7b9b8b875", "lon": -77.01315833333334, "rental_uris": {"ios": "https://dc.lft.to/lastmile_qr_scan", "android": "https://dc.lft.to/lastmile_qr_scan"}}, {"name": "adca3f1f65015d6f334e53ef8447cfa3", "fusion_lat": 0.0, "type": "electric_scooter", "lat": 38.92095316666666, "is_reserved": 0, "is_disabled": 0, "fusion_lon": 0.0, "bike_id": "adca3f1f65015d6f334e53ef8447cfa3", "lon": -77.031673, "rental_uris": {"ios": "https://dc.lft.to/lastmile_qr_scan", "android": "https://dc.lft.to/lastmile_qr_scan"}}, {"name": "e22114add2d24086bb798e4976a371ce", "fusion_lat": 0.0, "type": "electric_scooter", "lat": 38.92390916666667, "is_reserved": 0, "is_disabled": 0, "fusion_lon": 0.0, "bike_id": "e22114add2d24086bb798e4976a371ce", "lon": -77.02983466666667, "rental_uris": {"ios": "https://dc.lft.to/lastmile_qr_scan", "android": "https://dc.lft.to/lastmile_qr_scan"}}, {"name": "768411dc9a379dbd5549c5dba07d6524", "fusion_lat": 0.0, "type": "electric_scooter", "lat": 38.93703583333333, "is_reserved": 0, "is_disabled": 0, "fusion_lon": 0.0, "bike_id": "768411dc9a379dbd5549c5dba07d6524", "lon": -77.05595866666667, "rental_uris": {"ios": "https://dc.lft.to/lastmile_qr_scan", "android": "https://dc.lft.to/lastmile_qr_scan"}}, {"name": "8e39cac2633b4c01fd39534cf7b001ce", "fusion_lat": 0.0, "type": "electric_scooter", "lat": 38.87671483333333, "is_reserved": 0, "is_disabled": 0, "fusion_lon": 0.0, "bike_id": "8e39cac2633b4c01fd39534cf7b001ce", "lon": -77.003413, "rental_uris": {"ios": "https://dc.lft.to/lastmile_qr_scan", "android": "https://dc.lft.to/lastmile_qr_scan"}}, {"name": "f1c593ba9432bc0ff24f43e004b3716a", "fusion_lat": 0.0, "type": "electric_scooter", "lat": 38.9182035, "is_reserved": 0, "is_disabled": 0, "fusion_lon": 0.0, "bike_id": "f1c593ba9432bc0ff24f43e004b3716a", "lon": -77.04000433333333, "rental_uris": {"ios": "https://dc.lft.to/lastmile_qr_scan", "android": "https://dc.lft.to/lastmile_qr_scan"}}, {"name": "b8c64f7c8b3fe460caa3acf67e95a213", "fusion_lat": 0.0, "type": "electric_scooter", "lat": 38.920286833333336, "is_reserved": 0, "is_disabled": 0, "fusion_lon": 0.0, "bike_id": "b8c64f7c8b3fe460caa3acf67e95a213", "lon": -77.03856216666667, "rental_uris": {"ios": "https://dc.lft.to/lastmile_qr_scan", "android": "https://dc.lft.to/lastmile_qr_scan"}}, {"name": "419ae44cc7e2e4f0f243b3117f248ef9", "fusion_lat": 0.0, "type": "electric_scooter", "lat": 38.91564183333333, "is_reserved": 0, "is_disabled": 0, "fusion_lon": 0.0, "bike_id": "419ae44cc7e2e4f0f243b3117f248ef9", "lon": -77.03894283333334, "rental_uris": {"ios": "https://dc.lft.to/lastmile_qr_scan", "android": "https://dc.lft.to/lastmile_qr_scan"}}, {"name": "12f691d6027778a1abea2676b77cb4a5", "fusion_lat": 0.0, "type": "electric_scooter", "lat": 38.896016833333334, "is_reserved": 0, "is_disabled": 0, "fusion_lon": 0.0, "bike_id": "12f691d6027778a1abea2676b77cb4a5", "lon": -77.04126433333333, "rental_uris": {"ios": "https://dc.lft.to/lastmile_qr_scan", "android": "https://dc.lft.to/lastmile_qr_scan"}}, {"name": "ec5b891e9d4b891d4598b74210b822dd", "fusion_lat": 0.0, "type": "electric_scooter", "lat": 38.88380733333334, "is_reserved": 0, "is_disabled": 0, "fusion_lon": 0.0, "bike_id": "ec5b891e9d4b891d4598b74210b822dd", "lon": -76.99525966666667, "rental_uris": {"ios": "https://dc.lft.to/lastmile_qr_scan", "android": "https://dc.lft.to/lastmile_qr_scan"}}, {"name": "9ad23e359601914f0efead7a051485f5", "fusion_lat": 0.0, "type": "electric_scooter", "lat": 38.899116666666664, "is_reserved": 0, "is_disabled": 0, "fusion_lon": 0.0, "bike_id": "9ad23e359601914f0efead7a051485f5", "lon": -77.02176383333334, "rental_uris": {"ios": "https://dc.lft.to/lastmile_qr_scan", "android": "https://dc.lft.to/lastmile_qr_scan"}}, {"name": "1b9e4f190f733b398fd5fdab5cb532f1", "fusion_lat": 0.0, "type": "electric_bike", "lat": 39.0242, "is_reserved": 0, "is_disabled": 0, "fusion_lon": 0.0, "bike_id": "1b9e4f190f733b398fd5fdab5cb532f1", "lon": -77.1249615, "rental_uris": {"ios": "https://dc.lft.to/lastmile_qr_scan", "android": "https://dc.lft.to/lastmile_qr_scan"}}, {"name": "7782814722ee0fc4e4972a3714a8aac6", "fusion_lat": 0.0, "type": "electric_scooter", "lat": 38.92340433333333, "is_reserved": 0, "is_disabled": 0, "fusion_lon": 0.0, "bike_id": "7782814722ee0fc4e4972a3714a8aac6", "lon": -77.05015866666666, "rental_uris": {"ios": "https://dc.lft.to/lastmile_qr_scan", "android": "https://dc.lft.to/lastmile_qr_scan"}}, {"name": "cd1c92a679d120fe272da8f4eb28cbf9", "fusion_lat": 0.0, "type": "electric_scooter", "lat": 38.918076166666665, "is_reserved": 0, "is_disabled": 0, "fusion_lon": 0.0, "bike_id": "cd1c92a679d120fe272da8f4eb28cbf9", "lon": -77.024943, "rental_uris": {"ios": "https://dc.lft.to/lastmile_qr_scan", "android": "https://dc.lft.to/lastmile_qr_scan"}}, {"name": "3353fbfac70a254b00a70ac2e03d7c88", "fusion_lat": 0.0, "type": "electric_scooter", "lat": 38.902131, "is_reserved": 0, "is_disabled": 0, "fusion_lon": 0.0, "bike_id": "3353fbfac70a254b00a70ac2e03d7c88", "lon": -77.06119666666666, "rental_uris": {"ios": "https://dc.lft.to/lastmile_qr_scan", "android": "https://dc.lft.to/lastmile_qr_scan"}}, {"name": "f2061cd70d04ec7f96a5988845052f98", "fusion_lat": 0.0, "type": "electric_scooter", "lat": 38.88118433333333, "is_reserved": 0, "is_disabled": 0, "fusion_lon": 0.0, "bike_id": "f2061cd70d04ec7f96a5988845052f98", "lon": -77.0166115, "rental_uris": {"ios": "https://dc.lft.to/lastmile_qr_scan", "android": "https://dc.lft.to/lastmile_qr_scan"}}, {"name": "f69124be2dba346f7e160f7dff6e9ac6", "fusion_lat": 0.0, "type": "electric_scooter", "lat": 38.89753233333333, "is_reserved": 0, "is_disabled": 0, "fusion_lon": 0.0, "bike_id": "f69124be2dba346f7e160f7dff6e9ac6", "lon": -77.02011733333333, "rental_uris": {"ios": "https://dc.lft.to/lastmile_qr_scan", "android": "https://dc.lft.to/lastmile_qr_scan"}}, {"name": "35b2ed8decdde333b812dc5fcaeb308f", "fusion_lat": 0.0, "type": "electric_bike", "lat": 39.03886166666667, "is_reserved": 0, "is_disabled": 0, "fusion_lon": 0.0, "bike_id": "35b2ed8decdde333b812dc5fcaeb308f", "lon": -76.99043216666666, "rental_uris": {"ios": "https://dc.lft.to/lastmile_qr_scan", "android": "https://dc.lft.to/lastmile_qr_scan"}}, {"name": "54e99b05c61d8d7c3f69c3d3d646dced", "fusion_lat": 0.0, "type": "electric_scooter", "lat": 38.91614783333333, "is_reserved": 0, "is_disabled": 0, "fusion_lon": 0.0, "bike_id": "54e99b05c61d8d7c3f69c3d3d646dced", "lon": -77.03213383333333, "rental_uris": {"ios": "https://dc.lft.to/lastmile_qr_scan", "android": "https://dc.lft.to/lastmile_qr_scan"}}, {"name": "15fdd75ea8d50b309d616ea1ce714db1", "fusion_lat": 0.0, "type": "electric_scooter", "lat": 38.944019833333336, "is_reserved": 0, "is_disabled": 0, "fusion_lon": 0.0, "bike_id": "15fdd75ea8d50b309d616ea1ce714db1", "lon": -77.0632765, "rental_uris": {"ios": "https://dc.lft.to/lastmile_qr_scan", "android": "https://dc.lft.to/lastmile_qr_scan"}}, {"name": "9c113cacaa6786166e950e3ce7d69866", "fusion_lat": 0.0, "type": "electric_scooter", "lat": 38.8975675, "is_reserved": 0, "is_disabled": 0, "fusion_lon": 0.0, "bike_id": "9c113cacaa6786166e950e3ce7d69866", "lon": -77.0315005, "rental_uris": {"ios": "https://dc.lft.to/lastmile_qr_scan", "android": "https://dc.lft.to/lastmile_qr_scan"}}, {"name": "bf83ed852ca79ab28b1134d25d9075e0", "fusion_lat": 0.0, "type": "electric_scooter", "lat": 38.90449, "is_reserved": 0, "is_disabled": 0, "fusion_lon": 0.0, "bike_id": "bf83ed852ca79ab28b1134d25d9075e0", "lon": -77.03445983333333, "rental_uris": {"ios": "https://dc.lft.to/lastmile_qr_scan", "android": "https://dc.lft.to/lastmile_qr_scan"}}, {"name": "7becb67ce10414fd8f6d1bdf6695e6b0", "fusion_lat": 0.0, "type": "electric_scooter", "lat": 38.8849105, "is_reserved": 0, "is_disabled": 0, "fusion_lon": 0.0, "bike_id": "7becb67ce10414fd8f6d1bdf6695e6b0", "lon": -77.00711333333334, "rental_uris": {"ios": "https://dc.lft.to/lastmile_qr_scan", "android": "https://dc.lft.to/lastmile_qr_scan"}}, {"name": "666b5948fce7ed346cdbc5d116d9ae22", "fusion_lat": 0.0, "type": "electric_scooter", "lat": 38.905835833333335, "is_reserved": 0, "is_disabled": 0, "fusion_lon": 0.0, "bike_id": "666b5948fce7ed346cdbc5d116d9ae22", "lon": -77.00612483333333, "rental_uris": {"ios": "https://dc.lft.to/lastmile_qr_scan", "android": "https://dc.lft.to/lastmile_qr_scan"}}, {"name": "5e3f81b8d3d50c16a43699f2c43d9c8a", "fusion_lat": 0.0, "type": "electric_scooter", "lat": 38.91805033333333, "is_reserved": 0, "is_disabled": 0, "fusion_lon": 0.0, "bike_id": "5e3f81b8d3d50c16a43699f2c43d9c8a", "lon": -77.04011, "rental_uris": {"ios": "https://dc.lft.to/lastmile_qr_scan", "android": "https://dc.lft.to/lastmile_qr_scan"}}, {"name": "5c6efdf50263634c6ef2e6ad7d9be9e3", "fusion_lat": 0.0, "type": "electric_scooter", "lat": 38.918401333333335, "is_reserved": 0, "is_disabled": 0, "fusion_lon": 0.0, "bike_id": "5c6efdf50263634c6ef2e6ad7d9be9e3", "lon": -77.0270105, "rental_uris": {"ios": "https://dc.lft.to/lastmile_qr_scan", "android": "https://dc.lft.to/lastmile_qr_scan"}}, {"name": "bffedd985217f496e98c79a27ba9a5aa", "fusion_lat": 0.0, "type": "electric_scooter", "lat": 38.917097, "is_reserved": 0, "is_disabled": 0, "fusion_lon": 0.0, "bike_id": "bffedd985217f496e98c79a27ba9a5aa", "lon": -77.03146533333333, "rental_uris": {"ios": "https://dc.lft.to/lastmile_qr_scan", "android": "https://dc.lft.to/lastmile_qr_scan"}}, {"name": "f86d9f186fb7929d0b51c8c70b707819", "fusion_lat": 0.0, "type": "electric_scooter", "lat": 38.97508033333333, "is_reserved": 0, "is_disabled": 0, "fusion_lon": 0.0, "bike_id": "f86d9f186fb7929d0b51c8c70b707819", "lon": -77.0172325, "rental_uris": {"ios": "https://dc.lft.to/lastmile_qr_scan", "android": "https://dc.lft.to/lastmile_qr_scan"}}, {"name": "6660e1ca2ea7a02fead7ed87c8de934b", "fusion_lat": 0.0, "type": "electric_scooter", "lat": 38.91819366666667, "is_reserved": 0, "is_disabled": 0, "fusion_lon": 0.0, "bike_id": "6660e1ca2ea7a02fead7ed87c8de934b", "lon": -77.03200916666667, "rental_uris": {"ios": "https://dc.lft.to/lastmile_qr_scan", "android": "https://dc.lft.to/lastmile_qr_scan"}}, {"name": "78884eb48fd97bd4f1a377000387ff4a", "fusion_lat": 0.0, "type": "electric_bike", "lat": 38.8524975, "is_reserved": 0, "is_disabled": 0, "fusion_lon": 0.0, "bike_id": "78884eb48fd97bd4f1a377000387ff4a", "lon": -77.11427816666667, "rental_uris": {"ios": "https://dc.lft.to/lastmile_qr_scan", "android": "https://dc.lft.to/lastmile_qr_scan"}}, {"name": "9b61802e4cd7d8c255a713b7d6c170a0", "fusion_lat": 0.0, "type": "electric_scooter", "lat": 38.907303, "is_reserved": 0, "is_disabled": 0, "fusion_lon": 0.0, "bike_id": "9b61802e4cd7d8c255a713b7d6c170a0", "lon": -77.045047, "rental_uris": {"ios": "https://dc.lft.to/lastmile_qr_scan", "android": "https://dc.lft.to/lastmile_qr_scan"}}, {"name": "f86375c03c3ffa3cd20be062d789d3b5", "fusion_lat": 0.0, "type": "electric_scooter", "lat": 38.92229583333334, "is_reserved": 0, "is_disabled": 0, "fusion_lon": 0.0, "bike_id": "f86375c03c3ffa3cd20be062d789d3b5", "lon": -77.021099, "rental_uris": {"ios": "https://dc.lft.to/lastmile_qr_scan", "android": "https://dc.lft.to/lastmile_qr_scan"}}, {"name": "786517b17bff2a52fc63d7e7ace3992b", "fusion_lat": 0.0, "type": "electric_scooter", "lat": 38.91266816666667, "is_reserved": 0, "is_disabled": 0, "fusion_lon": 0.0, "bike_id": "786517b17bff2a52fc63d7e7ace3992b", "lon": -77.03869616666667, "rental_uris": {"ios": "https://dc.lft.to/lastmile_qr_scan", "android": "https://dc.lft.to/lastmile_qr_scan"}}, {"name": "e3dfda3e82932f75158179c2cb01c6e0", "fusion_lat": 0.0, "type": "electric_scooter", "lat": 38.90253466666667, "is_reserved": 0, "is_disabled": 0, "fusion_lon": 0.0, "bike_id": "e3dfda3e82932f75158179c2cb01c6e0", "lon": -77.04627666666667, "rental_uris": {"ios": "https://dc.lft.to/lastmile_qr_scan", "android": "https://dc.lft.to/lastmile_qr_scan"}}, {"name": "41a1313c61cb8cbb35f26fe05b3ed38f", "fusion_lat": 0.0, "type": "electric_scooter", "lat": 38.930346666666665, "is_reserved": 0, "is_disabled": 0, "fusion_lon": 0.0, "bike_id": "41a1313c61cb8cbb35f26fe05b3ed38f", "lon": -77.08364983333334, "rental_uris": {"ios": "https://dc.lft.to/lastmile_qr_scan", "android": "https://dc.lft.to/lastmile_qr_scan"}}, {"name": "e4a1a4d2c38ffeb38ecb1e398ca09f67", "fusion_lat": 0.0, "type": "electric_scooter", "lat": 38.90567033333333, "is_reserved": 0, "is_disabled": 0, "fusion_lon": 0.0, "bike_id": "e4a1a4d2c38ffeb38ecb1e398ca09f67", "lon": -77.03433316666667, "rental_uris": {"ios": "https://dc.lft.to/lastmile_qr_scan", "android": "https://dc.lft.to/lastmile_qr_scan"}}, {"name": "ca0be5581075e6edd89e545ee88ffd85", "fusion_lat": 0.0, "type": "electric_scooter", "lat": 38.8870745, "is_reserved": 0, "is_disabled": 0, "fusion_lon": 0.0, "bike_id": "ca0be5581075e6edd89e545ee88ffd85", "lon": -77.02841066666667, "rental_uris": {"ios": "https://dc.lft.to/lastmile_qr_scan", "android": "https://dc.lft.to/lastmile_qr_scan"}}, {"name": "fae487d5ac6bb2b24556714cce893955", "fusion_lat": 0.0, "type": "electric_scooter", "lat": 38.90594, "is_reserved": 0, "is_disabled": 0, "fusion_lon": 0.0, "bike_id": "fae487d5ac6bb2b24556714cce893955", "lon": -77.027035, "rental_uris": {"ios": "https://dc.lft.to/lastmile_qr_scan", "android": "https://dc.lft.to/lastmile_qr_scan"}}, {"name": "81c83de3fd5de42c05fbd81943acb149", "fusion_lat": 0.0, "type": "electric_scooter", "lat": 38.91284483333333, "is_reserved": 0, "is_disabled": 0, "fusion_lon": 0.0, "bike_id": "81c83de3fd5de42c05fbd81943acb149", "lon": -76.93799516666667, "rental_uris": {"ios": "https://dc.lft.to/lastmile_qr_scan", "android": "https://dc.lft.to/lastmile_qr_scan"}}, {"name": "fa3fb8e673d4c3c0687d82deb9e29715", "fusion_lat": 0.0, "type": "electric_scooter", "lat": 38.899887166666666, "is_reserved": 0, "is_disabled": 0, "fusion_lon": 0.0, "bike_id": "fa3fb8e673d4c3c0687d82deb9e29715", "lon": -77.03931766666666, "rental_uris": {"ios": "https://dc.lft.to/lastmile_qr_scan", "android": "https://dc.lft.to/lastmile_qr_scan"}}, {"name": "fa354b7de1f01c4ba58ea92f7321f319", "fusion_lat": 0.0, "type": "electric_scooter", "lat": 38.926759, "is_reserved": 0, "is_disabled": 0, "fusion_lon": 0.0, "bike_id": "fa354b7de1f01c4ba58ea92f7321f319", "lon": -76.995353, "rental_uris": {"ios": "https://dc.lft.to/lastmile_qr_scan", "android": "https://dc.lft.to/lastmile_qr_scan"}}, {"name": "59c681213b4d8cf0f81e96b5086f98cc", "fusion_lat": 0.0, "type": "electric_scooter", "lat": 38.924859, "is_reserved": 0, "is_disabled": 0, "fusion_lon": 0.0, "bike_id": "59c681213b4d8cf0f81e96b5086f98cc", "lon": -77.029966, "rental_uris": {"ios": "https://dc.lft.to/lastmile_qr_scan", "android": "https://dc.lft.to/lastmile_qr_scan"}}, {"name": "182c17591f2f06e09a3fcf2d5311705d", "fusion_lat": 0.0, "type": "electric_scooter", "lat": 38.918187333333336, "is_reserved": 0, "is_disabled": 0, "fusion_lon": 0.0, "bike_id": "182c17591f2f06e09a3fcf2d5311705d", "lon": -77.03208066666667, "rental_uris": {"ios": "https://dc.lft.to/lastmile_qr_scan", "android": "https://dc.lft.to/lastmile_qr_scan"}}, {"name": "dff1fbef1325ca38b3969e349ebc13e6", "fusion_lat": 0.0, "type": "electric_scooter", "lat": 38.90389866666666, "is_reserved": 0, "is_disabled": 0, "fusion_lon": 0.0, "bike_id": "dff1fbef1325ca38b3969e349ebc13e6", "lon": -77.04524283333333, "rental_uris": {"ios": "https://dc.lft.to/lastmile_qr_scan", "android": "https://dc.lft.to/lastmile_qr_scan"}}, {"name": "3b3a7d30f7c573f19113ee1c7e846a29", "fusion_lat": 0.0, "type": "electric_scooter", "lat": 38.8983285, "is_reserved": 0, "is_disabled": 0, "fusion_lon": 0.0, "bike_id": "3b3a7d30f7c573f19113ee1c7e846a29", "lon": -76.94641783333333, "rental_uris": {"ios": "https://dc.lft.to/lastmile_qr_scan", "android": "https://dc.lft.to/lastmile_qr_scan"}}, {"name": "dc4604b446d162e78ca90af01c77201d", "fusion_lat": 0.0, "type": "electric_scooter", "lat": 38.9259725, "is_reserved": 0, "is_disabled": 0, "fusion_lon": 0.0, "bike_id": "dc4604b446d162e78ca90af01c77201d", "lon": -77.00853816666667, "rental_uris": {"ios": "https://dc.lft.to/lastmile_qr_scan", "android": "https://dc.lft.to/lastmile_qr_scan"}}, {"name": "a4c0d619786a5b385f7d91f71f337fb8", "fusion_lat": 0.0, "type": "electric_scooter", "lat": 38.8998385, "is_reserved": 0, "is_disabled": 0, "fusion_lon": 0.0, "bike_id": "a4c0d619786a5b385f7d91f71f337fb8", "lon": -77.0335145, "rental_uris": {"ios": "https://dc.lft.to/lastmile_qr_scan", "android": "https://dc.lft.to/lastmile_qr_scan"}},