{"data": {"bikes": [{"fusion_lat": 0.0, "type": "electric_scooter", "name": "dbb862f4c6d42f9cfd6bbe7495c1f11d", "fusion_lon": 0.0, "bike_id": "dbb862f4c6d42f9cfd6bbe7495c1f11d", "is_reserved": 0, "rental_uris": {"android": "https://dc.lft.to/lastmile_qr_scan", "ios": "https://dc.lft.to/lastmile_qr_scan"}, "lat": 38.930277333333336, "is_disabled": 0, "lon": -77.013018}, {"fusion_lat": 0.0, "type": "electric_scooter", "name": "4d472eef96f796cfb6104cbf6fae2b79", "fusion_lon": 0.0, "bike_id": "4d472eef96f796cfb6104cbf6fae2b79", "is_reserved": 0, "rental_uris": {"android": "https://dc.lft.to/lastmile_qr_scan", "ios": "https://dc.lft.to/lastmile_qr_scan"}, "lat": 38.9245105, "is_disabled": 0, "lon": -77.02135466666667}, {"fusion_lat": 0.0, "type": "electric_scooter", "name": "20870f6b4bc193782daefe550a197f8d", "fusion_lon": 0.0, "bike_id": "20870f6b4bc193782daefe550a197f8d", "is_reserved": 0, "rental_uris": {"android": "https://dc.lft.to/lastmile_qr_scan", "ios": "https://dc.lft.to/lastmile_qr_scan"}, "lat": 38.92815566666667, "is_disabled": 0, "lon": -77.05528483333333}, {"fusion_lat": 0.0, "type": "electric_scooter", "name": "9bdfc051b22c764a8302d90d939fda1a", "fusion_lon": 0.0, "bike_id": "9bdfc051b22c764a8302d90d939fda1a", "is_reserved": 0, "rental_uris": {"android": "https://dc.lft.to/lastmile_qr_scan", "ios": "https://dc.lft.to/lastmile_qr_scan"}, "lat": 38.899079, "is_disabled": 0, "lon": -77.0401945}, {"fusion_lat": 0.0, "type": "electric_scooter", "name": "6f89b85f79cc6a42d38ab349dda36631", "fusion_lon": 0.0, "bike_id": "6f89b85f79cc6a42d38ab349dda36631", "is_reserved": 0, "rental_uris": {"android": "https://dc.lft.to/lastmile_qr_scan", "ios": "https://dc.lft.to/lastmile_qr_scan"}, "lat": 38.88725066666667, "is_disabled": 0, "lon": -77.02175366666667}, {"fusion_lat": 0.0, "type": "electric_scooter", "name": "cd0765b215b747f9a2c70cbdb34e8ed9", "fusion_lon": 0.0, "bike_id": "cd0765b215b747f9a2c70cbdb34e8ed9", "is_reserved": 0, "rental_uris": {"android": "https://dc.lft.to/lastmile_qr_scan", "ios": "https://dc.lft.to/lastmile_qr_scan"}, "lat": 38.91328933333333, "is_disabled": 0, "lon": -77.04538966666667}, {"fusion_lat": 0.0, "type": "electric_scooter", "name": "a84d39cdeb6df71d2302b4fa872378af", "fusion_lon": 0.0, "bike_id": "a84d39cdeb6df71d2302b4fa872378af", "is_reserved": 0, "rental_uris": {"android": "https://dc.lft.to/lastmile_qr_scan", "ios": "https://dc.lft.to/lastmile_qr_scan"}, "lat": 38.892209666666666, "is_disabled": 0, "lon": -77.04505166666667}, {"fusion_lat": 0.0, "type": "electric_scooter", "name": "fb36f3286a9a2e0471b2ffc38c10d715", "fusion_lon": 0.0, "bike_id": "fb36f3286a9a2e0471b2ffc38c10d715", "is_reserved": 0, "rental_uris": {"android": "https://dc.lft.to/lastmile_qr_scan", "ios": "https://dc.lft.to/lastmile_qr_scan"}, "lat": 38.88988666666667, "is_disabled": 0, "lon": -76.98331116666667}, {"fusion_lat": 0.0, "type": "electric_scooter", "name": "be2b8daa452fbf01c8902a6bd6b0db2c", "fusion_lon": 0.0, "bike_id": "be2b8daa452fbf01c8902a6bd6b0db2c", "is_reserved": 0, "rental_uris": {"android": "https://dc.lft.to/lastmile_qr_scan", "ios": "https://dc.lft.to/lastmile_qr_scan"}, "lat": 38.900215833333334, "is_disabled": 0, "lon": -77.0448085}, {"fusion_lat": 0.0, "type": "electric_scooter", "name": "51df024f0d36e38f446a4edbf7acae01", "fusion_lon": 0.0, "bike_id": "51df024f0d36e38f446a4edbf7acae01", "is_reserved": 0, "rental_uris": {"android": "https://dc.lft.to/lastmile_qr_scan", "ios": "https://dc.lft.to/lastmile_qr_scan"}, "lat": 38.952323166666666, "is_disabled": 0, "lon": -77.01426166666667}, {"fusion_lat": 0.0, "type": "electric_bike", "name": "e0bc97d572c4f786b49b0cd81474355d", "fusion_lon": 0.0, "bike_id": "e0bc97d572c4f786b49b0cd81474355d", "is_reserved": 0, "rental_uris": {"android": "https://dc.lft.to/lastmile_qr_scan", "ios": "https://dc.lft.to/lastmile_qr_scan"}, "lat": 38.89812766666667, "is_disabled": 0, "lon": -77.00603483333333}, {"fusion_lat": 0.0, "type": "electric_scooter", "name": "b1a7ec568a1d332b6f9d5854361a2d96", "fusion_lon": 0.0, "bike_id": "b1a7ec568a1d332b6f9d5854361a2d96", "is_reserved": 0, "rental_uris": {"android": "https://dc.lft.to/lastmile_qr_scan", "ios": "https://dc.lft.to/lastmile_qr_scan"}, "lat": 38.92990183333333, "is_disabled": 0, "lon": -77.034723}, {"fusion_lat": 0.0, "type": "electric_scooter", "name": "a901a195a621df15b389707769e2ecb0", "fusion_lon": 0.0, "bike_id": "a901a195a621df15b389707769e2ecb0", "is_reserved": 0, "rental_uris": {"android": "https://dc.lft.to/lastmile_qr_scan", "ios": "https://dc.lft.to/lastmile_qr_scan"}, "lat": 38.9042285, "is_disabled": 0, "lon": -77.02369216666666}, {"fusion_lat": 0.0, "type": "electric_scooter", "name": "1f6bcf7aa991920953e408b7167f59ba", "fusion_lon": 0.0, "bike_id": "1f6bcf7aa991920953e408b7167f59ba", "is_reserved": 0, "rental_uris": {"android": "https://dc.lft.to/lastmile_qr_scan", "ios": "https://dc.lft.to/lastmile_qr_scan"}, "lat": 38.892532, "is_disabled": 0, "lon": -77.01720366666666}, {"fusion_lat": 0.0, "type": "electric_scooter", "name": "94b9ce97d7f4c3f423ffc16977d13fc4", "fusion_lon": 0.0, "bike_id": "94b9ce97d7f4c3f423ffc16977d13fc4", "is_reserved": 0, "rental_uris": {"android": "https://dc.lft.to/lastmile_qr_scan", "ios": "https://dc.lft.to/lastmile_qr_scan"}, "lat": 38.8872605, "is_disabled": 0, "lon": -77.0217575}, {"fusion_lat": 0.0, "type": "electric_scooter", "name": "94b6d6a8dd8448ecb1b739dc2a3f3d41", "fusion_lon": 0.0, "bike_id": "94b6d6a8dd8448ecb1b739dc2a3f3d41", "is_reserved": 0, "rental_uris": {"android": "https://dc.lft.to/lastmile_qr_scan", "ios": "https://dc.lft.to/lastmile_qr_scan"}, "lat": 38.903972333333336, "is_disabled": 0, "lon": -77.03849183333334}, {"fusion_lat": 0.0, "type": "electric_scooter", "name": "08e45e7714295c1cb21a3e219a79f579", "fusion_lon": 0.0, "bike_id": "08e45e7714295c1cb21a3e219a79f579", "is_reserved": 0, "rental_uris": {"android": "https://dc.lft.to/lastmile_qr_scan", "ios": "https://dc.lft.to/lastmile_qr_scan"}, "lat": 38.8942915, "is_disabled": 0, "lon": -76.9488075}, {"fusion_lat": 0.0, "type": "electric_scooter", "name": "c11a905159eddd8c1a360f972479caf9", "fusion_lon": 0.0, "bike_id": "c11a905159eddd8c1a360f972479caf9", "is_reserved": 0, "rental_uris": {"android": "https://dc.lft.to/lastmile_qr_scan", "ios": "https://dc.lft.to/lastmile_qr_scan"}, "lat": 38.910141833333334, "is_disabled": 0, "lon": -76.99386333333334}, {"fusion_lat": 0.0, "type": "electric_scooter", "name": "0e0d9b5282cdcd0a36345f818d7d7a58", "fusion_lon": 0.0, "bike_id": "0e0d9b5282cdcd0a36345f818d7d7a58", "is_reserved": 0, "rental_uris": {"android": "https://dc.lft.to/lastmile_qr_scan", "ios": "https://dc.lft.to/lastmile_qr_scan"}, "lat": 38.919953, "is_disabled": 0, "lon": -77.02197666666666}, {"fusion_lat": 0.0, "type": "electric_scooter", "name": "556653d86b3522743ad9370d82e3b4b0", "fusion_lon": 0.0, "bike_id": "556653d86b3522743ad9370d82e3b4b0", "is_reserved": 0, "rental_uris": {"android": "https://dc.lft.to/lastmile_qr_scan", "ios": "https://dc.lft.to/lastmile_qr_scan"}, "lat": 38.88964883333333, "is_disabled": 0, "lon": -76.93706183333333}, {"fusion_lat": 0.0, "type": "electric_scooter", "name": "208890b8d0082aef60e48212b5b30c2e", "fusion_lon": 0.0, "bike_id": "208890b8d0082aef60e48212b5b30c2e", "is_reserved": 0, "rental_uris": {"android": "https://dc.lft.to/lastmile_qr_scan", "ios": "https://dc.lft.to/lastmile_qr_scan"}, "lat": 38.93163633333333, "is_disabled": 0, "lon": -77.05606666666667}, {"fusion_lat": 0.0, "type": "electric_scooter", "name": "089330df7cd803697353110f2ea03745", "fusion_lon": 0.0, "bike_id": "089330df7cd803697353110f2ea03745", "is_reserved": 0, "rental_uris": {"android": "https://dc.lft.to/lastmile_qr_scan", "ios": "https://dc.lft.to/lastmile_qr_scan"}, "lat": 38.9050685, "is_disabled": 0, "lon": -77.0408105}, {"fusion_lat": 0.0, "type": "electric_scooter", "name": "bde09a444027e6233b351afaabbf9349", "fusion_lon": 0.0, "bike_id": "bde09a444027e6233b351afaabbf9349", "is_reserved": 0, "rental_uris": {"android": "https://dc.lft.to/lastmile_qr_scan", "ios": "https://dc.lft.to/lastmile_qr_scan"}, "lat": 38.9410135, "is_disabled": 0, "lon": -77.021111}, {"fusion_lat": 0.0, "type": "electric_scooter", "name": "b28136f2eaca304a0f63dc97f5392b59", "fusion_lon": 0.0, "bike_id": "b28136f2eaca304a0f63dc97f5392b59", "is_reserved": 0, "rental_uris": {"android": "https://dc.lft.to/lastmile_qr_scan", "ios": "https://dc.lft.to/lastmile_qr_scan"}, "lat": 38.87689116666667, "is_disabled": 0, "lon": -77.017567}, {"fusion_lat": 0.0, "type": "electric_scooter", "name": "adb924e22bbffeb3a475b86dd344f25b", "fusion_lon": 0.0, "bike_id": "adb924e22bbffeb3a475b86dd344f25b", "is_reserved": 0, "rental_uris": {"android": "https://dc.lft.to/lastmile_qr_scan", "ios": "https://dc.lft.to/lastmile_qr_scan"}, "lat": 38.891029833333334, "is_disabled": 0, "lon": -77.00283916666666}, {"fusion_lat": 0.0, "type": "electric_scooter", "name": "c77ff621c90a15d34d36b32988d0a6ba", "fusion_lon": 0.0, "bike_id": "c77ff621c90a15d34d36b32988d0a6ba", "is_reserved": 0, "rental_uris": {"android": "https://dc.lft.to/lastmile_qr_scan", "ios": "https://dc.lft.to/lastmile_qr_scan"}, "lat": 38.909394666666664, "is_disabled": 0, "lon": -77.0450285}, {"fusion_lat": 0.0, "type": "electric_bike", "name": "7d525f1caccdca29df957757a83f6a57", "fusion_lon": 0.0, "bike_id": "7d525f1caccdca29df957757a83f6a57", "is_reserved": 0, "rental_uris": {"android": "https://dc.lft.to/lastmile_qr_scan", "ios": "https://dc.lft.to/lastmile_qr_scan"}, "lat": 38.89565316666667, "is_disabled": 0, "lon": -77.12731666666667}, {"fusion_lat": 0.0, "type": "electric_scooter", "name": "b36346d422ab2373a1186407a2bce8ab", "fusion_lon": 0.0, "bike_id": "b36346d422ab2373a1186407a2bce8ab", "is_reserved": 0, "rental_uris": {"android": "https://dc.lft.to/lastmile_qr_scan", "ios": "https://dc.lft.to/lastmile_qr_scan"}, "lat": 38.934081, "is_disabled": 0, "lon": -77.04132383333334}, {"fusion_lat": 0.0, "type": "electric_scooter", "name": "ef9e7f888dfbd043c83c73e81b0464cc", "fusion_lon": 0.0, "bike_id": "ef9e7f888dfbd043c83c73e81b0464cc", "is_reserved": 0, "rental_uris": {"android": "https://dc.lft.to/lastmile_qr_scan", "ios": "https://dc.lft.to/lastmile_qr_scan"}, "lat": 38.89222483333333, "is_disabled": 0, "lon": -77.04263833333333}, {"fusion_lat": 0.0, "type": "electric_scooter", "name": "9d53c3c61dced3b34a9d90c5624d489a", "fusion_lon": 0.0, "bike_id": "9d53c3c61dced3b34a9d90c5624d489a", "is_reserved": 0, "rental_uris": {"android": "https://dc.lft.to/lastmile_qr_scan", "ios": "https://dc.lft.to/lastmile_qr_scan"}, "lat": 38.894556, "is_disabled": 0, "lon": -76.99831833333333}, {"fusion_lat": 0.0, "type": "electric_scooter", "name": "162513343dfafc26aa5419b50d4654a4", "fusion_lon": 0.0, "bike_id": "162513343dfafc26aa5419b50d4654a4", "is_reserved": 0, "rental_uris": {"android": "https://dc.lft.to/lastmile_qr_scan", "ios": "https://dc.lft.to/lastmile_qr_scan"}, "lat": 38.9015895, "is_disabled": 0, "lon": -77.047411}, {"fusion_lat": 0.0, "type": "electric_scooter", "name": "a8aa9f7fd5d79bda89b698106895b3c4", "fusion_lon": 0.0, "bike_id": "a8aa9f7fd5d79bda89b698106895b3c4", "is_reserved": 0, "rental_uris": {"android": "https://dc.lft.to/lastmile_qr_scan", "ios": "https://dc.lft.to/lastmile_qr_scan"}, "lat": 38.92201166666667, "is_disabled": 0, "lon": -77.04231783333333}, {"fusion_lat": 0.0, "type": "electric_scooter", "name": "dbe45bafd4b88317b33aeb0c38f8ffc0", "fusion_lon": 0.0, "bike_id": "dbe45bafd4b88317b33aeb0c38f8ffc0", "is_reserved": 0, "rental_uris": {"android": "https://dc.lft.to/lastmile_qr_scan", "ios": "https://dc.lft.to/lastmile_qr_scan"}, "lat": 38.924632333333335, "is_disabled": 0, "lon": -77.05758966666667}, {"fusion_lat": 0.0, "type": "electric_scooter", "name": "a6a4aa8cca65a002bab86d619c933934", "fusion_lon": 0.0, "bike_id": "a6a4aa8cca65a002bab86d619c933934", "is_reserved": 0, "rental_uris": {"android": "https://dc.lft.to/lastmile_qr_scan", "ios": "https://dc.lft.to/lastmile_qr_scan"}, "lat": 38.92024083333333, "is_disabled": 0, "lon": -77.01909783333333}, {"fusion_lat": 0.0, "type": "electric_scooter", "name": "31232861ecb7d7a2c64706ee11e09010", "fusion_lon": 0.0, "bike_id": "31232861ecb7d7a2c64706ee11e09010", "is_reserved": 0, "rental_uris": {"android": "https://dc.lft.to/lastmile_qr_scan", "ios": "https://dc.lft.to/lastmile_qr_scan"}, "lat": 38.9015675, "is_disabled": 0, "lon": -77.04735}, {"fusion_lat": 0.0, "type": "electric_scooter", "name": "8f0ed83ad2bb87a0c18e6e16f8cb6043", "fusion_lon": 0.0, "bike_id": "8f0ed83ad2bb87a0c18e6e16f8cb6043", "is_reserved": 0, "rental_uris": {"android": "https://dc.lft.to/lastmile_qr_scan", "ios": "https://dc.lft.to/lastmile_qr_scan"}, "lat": 38.914714000000004, "is_disabled": 0, "lon": -77.0321435}, {"fusion_lat": 0.0, "type": "electric_scooter", "name": "fa259408eb0bd5b448971f4bbc709a7b", "fusion_lon": 0.0, "bike_id": "fa259408eb0bd5b448971f4bbc709a7b", "is_reserved": 0, "rental_uris": {"android": "https://dc.lft.to/lastmile_qr_scan", "ios": "https://dc.lft.to/lastmile_qr_scan"}, "lat": 38.86378916666666, "is_disabled": 0, "lon": -76.99052766666667}, {"fusion_lat": 0.0, "type": "electric_scooter", "name": "aef844b028d43b0b32116ae13a967e94", "fusion_lon": 0.0, "bike_id": "aef844b028d43b0b32116ae13a967e94", "is_reserved": 0, "rental_uris": {"android": "https://dc.lft.to/lastmile_qr_scan", "ios": "https://dc.lft.to/lastmile_qr_scan"}, "lat": 38.90401133333334, "is_disabled": 0, "lon": -77.03850333333334}, {"fusion_lat": 0.0, "type": "electric_scooter", "name": "4cd72fc6bd917f303793fdc689c8e639", "fusion_lon": 0.0, "bike_id": "4cd72fc6bd917f303793fdc689c8e639", "is_reserved": 0, "rental_uris": {"android": "https://dc.lft.to/lastmile_qr_scan", "ios": "https://dc.lft.to/lastmile_qr_scan"}, "lat": 38.92827483333333, "is_disabled": 0, "lon": -77.02153916666667}, {"fusion_lat": 0.0, "type": "electric_scooter", "name": "068ff74c0a018b51094421ceedc9576d", "fusion_lon": 0.0, "bike_id": "068ff74c0a018b51094421ceedc9576d", "is_reserved": 0, "rental_uris": {"android": "https://dc.lft.to/lastmile_qr_scan", "ios": "https://dc.lft.to/lastmile_qr_scan"}, "lat": 38.90470216666667, "is_disabled": 0, "lon": -76.980569}, {"fusion_lat": 0.0, "type": "electric_scooter", "name": "fe6a826a2e04f7b4cfa046d9172bf640", "fusion_lon": 0.0, "bike_id": "fe6a826a2e04f7b4cfa046d9172bf640", "is_reserved": 0, "rental_uris": {"android": "https://dc.lft.to/lastmile_qr_scan", "ios": "https://dc.lft.to/lastmile_qr_scan"}, "lat": 38.899141, "is_disabled": 0, "lon": -76.93350966666667}, {"fusion_lat": 0.0, "type": "electric_scooter", "name": "490ef517b2557cbefd164f67c70080e9", "fusion_lon": 0.0, "bike_id": "490ef517b2557cbefd164f67c70080e9", "is_reserved": 0, "rental_uris": {"android": "https://dc.lft.to/lastmile_qr_scan", "ios": "https://dc.lft.to/lastmile_qr_scan"}, "lat": 38.894718833333336, "is_disabled": 0, "lon": -77.00992766666667}, {"fusion_lat": 0.0, "type": "electric_scooter", "name": "a5cae59a2d4155f7465d1735058829e4", "fusion_lon": 0.0, "bike_id": "a5cae59a2d4155f7465d1735058829e4", "is_reserved": 0, "rental_uris": {"android": "https://dc.lft.to/lastmile_qr_scan", "ios": "https://dc.lft.to/lastmile_qr_scan"}, "lat": 38.90364433333333, "is_disabled": 0, "lon": -77.033004}, {"fusion_lat": 0.0, "type": "electric_scooter", "name": "9103763d55bc27ae81a92ac2e1835ff9", "fusion_lon": 0.0, "bike_id": "9103763d55bc27ae81a92ac2e1835ff9", "is_reserved": 0, "rental_uris": {"android": "https://dc.lft.to/lastmile_qr_scan", "ios": "https://dc.lft.to/lastmile_qr_scan"}, "lat": 38.880896166666666, "is_disabled": 0, "lon": -77.02574516666667}, {"fusion_lat": 0.0, "type": "electric_scooter", "name": "d939c7c7d1b4ebd732174c267b90b951", "fusion_lon": 0.0, "bike_id": "d939c7c7d1b4ebd732174c267b90b951", "is_reserved": 0, "rental_uris": {"android": "https://dc.lft.to/lastmile_qr_scan", "ios": "https://dc.lft.to/lastmile_qr_scan"}, "lat": 38.911053833333334, "is_disabled": 0, "lon": -77.04479383333333}, {"fusion_lat": 0.0, "type": "electric_scooter", "name": "5fcb8a6b3b11a8eaa1117c34f1ea2fb6", "fusion_lon": 0.0, "bike_id": "5fcb8a6b3b11a8eaa1117c34f1ea2fb6", "is_reserved": 0, "rental_uris": {"android": "https://dc.lft.to/lastmile_qr_scan", "ios": "https://dc.lft.to/lastmile_qr_scan"}, "lat": 38.903597166666664, "is_disabled": 0, "lon": -77.031867}, {"fusion_lat": 0.0, "type": "electric_scooter", "name": "24b2ba8455654bfb74a75c6dee3e6189", "fusion_lon": 0.0, "bike_id": "24b2ba8455654bfb74a75c6dee3e6189", "is_reserved": 0, "rental_uris": {"android": "https://dc.lft.to/lastmile_qr_scan", "ios": "https://dc.lft.to/lastmile_qr_scan"}, "lat": 38.893287, "is_disabled": 0, "lon": -77.0467345}, {"fusion_lat": 0.0, "type": "electric_scooter", "name": "ebffdeefa9033ba963c99605661ca70b", "fusion_lon": 0.0, "bike_id": "ebffdeefa9033ba963c99605661ca70b", "is_reserved": 0, "rental_uris": {"android": "https://dc.lft.to/lastmile_qr_scan", "ios": "https://dc.lft.to/lastmile_qr_scan"}, "lat": 38.900011, "is_disabled": 0, "lon": -77.00125966666667}, {"fusion_lat": 0.0, "type": "electric_scooter", "name": "91ce87e5774f64eeab50696e3f12810d", "fusion_lon": 0.0, "bike_id": "91ce87e5774f64eeab50696e3f12810d", "is_reserved": 0, "rental_uris": {"android": "https://dc.lft.to/lastmile_qr_scan", "ios": "https://dc.lft.to/lastmile_qr_scan"}, "lat": 38.91207433333334, "is_disabled": 0, "lon": -77.03460266666667}, {"fusion_lat": 0.0, "type": "electric_scooter", "name": "3ac54d673246b160ea8841dbc90586f5", "fusion_lon": 0.0, "bike_id": "3ac54d673246b160ea8841dbc90586f5", "is_reserved": 0, "rental_uris": {"android": "https://dc.lft.to/lastmile_qr_scan", "ios": "https://dc.lft.to/lastmile_qr_scan"}, "lat": 38.93967166666667, "is_disabled": 0, "lon": -77.02488383333333}, {"fusion_lat": 0.0, "type": "electric_scooter", "name": "d5e983d75216a3feb3a83b9c9119babf", "fusion_lon": 0.0, "bike_id": "d5e983d75216a3feb3a83b9c9119babf", "is_reserved": 0, "rental_uris": {"android": "https://dc.lft.to/lastmile_qr_scan", "ios": "https://dc.lft.to/lastmile_qr_scan"}, "lat": 38.8832295, "is_disabled": 0, "lon": -77.0174115}, {"fusion_lat": 0.0, "type": "electric_scooter", "name": "ad6dd1e75526a4719ebd6efcf273613a", "fusion_lon": 0.0, "bike_id": "ad6dd1e75526a4719ebd6efcf273613a", "is_reserved": 0, "rental_uris": {"android": "https://dc.lft.to/lastmile_qr_scan", "ios": "https://dc.lft.to/lastmile_qr_scan"}, "lat": 38.86241366666667, "is_disabled": 0, "lon": -76.99478433333333}, {"fusion_lat": 0.0, "type": "electric_scooter", "name": "3563018853165a7330b2b07e30db738a", "fusion_lon": 0.0, "bike_id": "3563018853165a7330b2b07e30db738a", "is_reserved": 0, "rental_uris": {"android": "https://dc.lft.to/lastmile_qr_scan", "ios": "https://dc.lft.to/lastmile_qr_scan"}, "lat": 38.996059333333335, "is_disabled": 0, "lon": -77.03217733333334}, {"fusion_lat": 0.0, "type": "electric_scooter", "name": "eb8685aaae3c3b109c8e7c8dde497f10", "fusion_lon": 0.0, "bike_id": "eb8685aaae3c3b109c8e7c8dde497f10", "is_reserved": 0, "rental_uris": {"android": "https://dc.lft.to/lastmile_qr_scan", "ios": "https://dc.lft.to/lastmile_qr_scan"}, "lat": 38.867035333333334, "is_disabled": 0, "lon": -76.9871095}, {"fusion_lat": 0.0, "type": "electric_bike", "name": "69d9cc484e9da7b225e2a550cfac6a5c", "fusion_lon": 0.0, "bike_id": "69d9cc484e9da7b225e2a550cfac6a5c", "is_reserved": 0, "rental_uris": {"android": "https://dc.lft.to/lastmile_qr_scan", "ios": "https://dc.lft.to/lastmile_qr_scan"}, "lat": 38.88048333333333, "is_disabled": 0, "lon": -77.011258}, {"fusion_lat": 0.0, "type": "electric_scooter", "name": "b02c58af14f76a33f8d6e0e1d87b3ffe", "fusion_lon": 0.0, "bike_id": "b02c58af14f76a33f8d6e0e1d87b3ffe", "is_reserved": 0, "rental_uris": {"android": "https://dc.lft.to/lastmile_qr_scan", "ios": "https://dc.lft.to/lastmile_qr_scan"}, "lat": 38.931881833333335, "is_disabled": 0, "lon": -77.03844116666667}, {"fusion_lat": 0.0, "type": "electric_scooter", "name": "77bc791b32b97893af6453cea1f02e7a", "fusion_lon": 0.0, "bike_id": "77bc791b32b97893af6453cea1f02e7a", "is_reserved": 0, "rental_uris": {"android": "https://dc.lft.to/lastmile_qr_scan", "ios": "https://dc.lft.to/lastmile_qr_scan"}, "lat": 38.867310833333335, "is_disabled": 0, "lon": -76.98779183333333}, {"fusion_lat": 0.0, "type": "electric_scooter", "name": "677fec8766bb7477efddb880075f4cd6", "fusion_lon": 0.0, "bike_id": "677fec8766bb7477efddb880075f4cd6", "is_reserved": 0, "rental_uris": {"android": "https://dc.lft.to/lastmile_qr_scan", "ios": "https://dc.lft.to/lastmile_qr_scan"}, "lat": 38.90912933333333, "is_disabled": 0, "lon": -77.0726825}, {"fusion_lat": 0.0, "type": "electric_scooter", "name": "2cb40665ba6c7a299835420a3008cc0a", "fusion_lon": 0.0, "bike_id": "2cb40665ba6c7a299835420a3008cc0a", "is_reserved": 0, "rental_uris": {"android": "https://dc.lft.to/lastmile_qr_scan", "ios": "https://dc.lft.to/lastmile_qr_scan"}, "lat": 38.9052815, "is_disabled": 0, "lon": -77.050359}, {"fusion_lat": 0.0, "type": "electric_scooter", "name": "47f2d60e5ae702a5c10345f5d0144de3", "fusion_lon": 0.0, "bike_id": "47f2d60e5ae702a5c10345f5d0144de3", "is_reserved": 0, "rental_uris": {"android": "https://dc.lft.to/lastmile_qr_scan", "ios": "https://dc.lft.to/lastmile_qr_scan"}, "lat": 38.82380083333334, "is_disabled": 0, "lon": -77.011894}, {"fusion_lat": 0.0, "type": "electric_scooter", "name": "f6bc5c1e679bbfab1ebe0e81f43b93b5", "fusion_lon": 0.0, "bike_id": "f6bc5c1e679bbfab1ebe0e81f43b93b5", "is_reserved": 0, "rental_uris": {"android": "https://dc.lft.to/lastmile_qr_scan", "ios": "https://dc.lft.to/lastmile_qr_scan"}, "lat": 38.90471766666667, "is_disabled": 0, "lon": -77.0387415}, {"fusion_lat": 0.0, "type": "electric_scooter", "name": "d4f3feec265c50e009f5ea0e274c1496", "fusion_lon": 0.0, "bike_id": "d4f3feec265c50e009f5ea0e274c1496", "is_reserved": 0, "rental_uris": {"android": "https://dc.lft.to/lastmile_qr_scan", "ios": "https://dc.lft.to/lastmile_qr_scan"}, "lat": 38.92946833333333, "is_disabled": 0, "lon": -77.01641266666667}, {"fusion_lat": 0.0, "type": "electric_scooter", "name": "9c8b146bb3d0268bce2043c40ddb946a", "fusion_lon": 0.0, "bike_id": "9c8b146bb3d0268bce2043c40ddb946a", "is_reserved": 0, "rental_uris": {"android": "https://dc.lft.to/lastmile_qr_scan", "ios": "https://dc.lft.to/lastmile_qr_scan"}, "lat": 38.8935885, "is_disabled": 0, "lon": -77.00333483333333}, {"fusion_lat": 0.0, "type": "electric_scooter", "name": "b84778eec2a1ea7b203e4bc090fb5605", "fusion_lon": 0.0, "bike_id": "b84778eec2a1ea7b203e4bc090fb5605", "is_reserved": 0, "rental_uris": {"android": "https://dc.lft.to/lastmile_qr_scan", "ios": "https://dc.lft.to/lastmile_qr_scan"}, "lat": 38.957335666666665, "is_disabled": 0, "lon": -77.024065}, {"fusion_lat": 0.0, "type": "electric_scooter", "name": "d53216eed88f35c1474a80345e1dc924", "fusion_lon": 0.0, "bike_id": "d53216eed88f35c1474a80345e1dc924", "is_reserved": 0, "rental_uris": {"android": "https://dc.lft.to/lastmile_qr_scan", "ios": "https://dc.lft.to/lastmile_qr_scan"}, "lat": 38.903294, "is_disabled": 0, "lon": -77.03864816666666}, {"fusion_lat": 0.0, "type": "electric_scooter", "name": "692b261764b19f5e926042d7ca608814", "fusion_lon": 0.0, "bike_id": "692b261764b19f5e926042d7ca608814", "is_reserved": 0, "rental_uris": {"android": "https://dc.lft.to/lastmile_qr_scan", "ios": "https://dc.lft.to/lastmile_qr_scan"}, "lat": 38.93706233333333, "is_disabled": 0, "lon": -77.024024}, {"fusion_lat": 0.0, "type": "electric_scooter", "name": "b46190a9c30856d0bdbde53865a32191", "fusion_lon": 0.0, "bike_id": "b46190a9c30856d0bdbde53865a32191", "is_reserved": 0, "rental_uris": {"android": "https://dc.lft.to/lastmile_qr_scan", "ios": "https://dc.lft.to/lastmile_qr_scan"}, "lat": 38.922776666666664, "is_disabled": 0, "lon": -77.03401133333334}, {"fusion_lat": 0.0, "type": "electric_scooter", "name": "811044a737529f70a76e4c9c7bacc35e", "fusion_lon": 0.0, "bike_id": "811044a737529f70a76e4c9c7bacc35e", "is_reserved": 0, "rental_uris": {"android": "https://dc.lft.to/lastmile_qr_scan", "ios": "https://dc.lft.to/lastmile_qr_scan"}, "lat": 38.931876333333335, "is_disabled": 0, "lon": -77.03656233333334}, {"fusion_lat": 0.0, "type": "electric_scooter", "name": "60eca7e060c4551023a8dc1eaa9300b2", "fusion_lon": 0.0, "bike_id": "60eca7e060c4551023a8dc1eaa9300b2", "is_reserved": 0, "rental_uris": {"android": "https://dc.lft.to/lastmile_qr_scan", "ios": "https://dc.lft.to/lastmile_qr_scan"}, "lat": 38.904389333333334, "is_disabled": 0, "lon": -77.0533175}, {"fusion_lat": 0.0, "type": "electric_scooter", "name": "d88ef6de220bfc1fae54095f457b8f6f", "fusion_lon": 0.0, "bike_id": "d88ef6de220bfc1fae54095f457b8f6f", "is_reserved": 0, "rental_uris": {"android": "https://dc.lft.to/lastmile_qr_scan", "ios": "https://dc.lft.to/lastmile_qr_scan"}, "lat": 38.904011, "is_disabled": 0, "lon": -77.03836416666667}, {"fusion_lat": 0.0, "type": "electric_scooter", "name": "38c87d1449c2a644863d2879afbbaf87", "fusion_lon": 0.0, "bike_id": "38c87d1449c2a644863d2879afbbaf87", "is_reserved": 0, "rental_uris": {"android": "https://dc.lft.to/lastmile_qr_scan", "ios": "https://dc.lft.to/lastmile_qr_scan"}, "lat": 38.892381666666665, "is_disabled": 0, "lon": -77.04160166666666}, {"fusion_lat": 0.0, "type": "electric_scooter", "name": "5e7e629959561da0173c0274d53c7e80", "fusion_lon": 0.0, "bike_id": "5e7e629959561da0173c0274d53c7e80", "is_reserved": 0, "rental_uris": {"android": "https://dc.lft.to/lastmile_qr_scan", "ios": "https://dc.lft.to/lastmile_qr_scan"}, "lat": 38.92728266666667, "is_disabled": 0, "lon": -77.03682716666667}, {"fusion_lat": 0.0, "type": "electric_bike", "name": "1797ad6f19783d0a1e887cb23a9c10fc", "fusion_lon": 0.0, "bike_id": "1797ad6f19783d0a1e887cb23a9c10fc", "is_reserved": 0, "rental_uris": {"android": "https://dc.lft.to/lastmile_qr_scan", "ios": "https://dc.lft.to/lastmile_qr_scan"}, "lat": 38.88816333333333, "is_disabled": 0, "lon": -77.03841883333334}, {"fusion_lat": 0.0, "type": "electric_bike", "name": "77e7adca688f8e163400c96f22e5409d", "fusion_lon": 0.0, "bike_id": "77e7adca688f8e163400c96f22e5409d", "is_reserved": 0, "rental_uris": {"android": "https://dc.lft.to/lastmile_qr_scan", "ios": "https://dc.lft.to/lastmile_qr_scan"}, "lat": 38.94902183333333, "is_disabled": 0, "lon": -76.96381233333334}, {"fusion_lat": 0.0, "type": "electric_scooter", "name": "fdef8d985163371c4253abef3ae4bab1", "fusion_lon": 0.0, "bike_id": "fdef8d985163371c4253abef3ae4bab1", "is_reserved": 0, "rental_uris": {"android": "https://dc.lft.to/lastmile_qr_scan", "ios": "https://dc.lft.to/lastmile_qr_scan"}, "lat": 38.915558833333336, "is_disabled": 0, "lon": -77.03136333333333}, {"fusion_lat": 0.0, "type": "electric_scooter", "name": "f27141d5922768eac46fcd71b985af34", "fusion_lon": 0.0, "bike_id": "f27141d5922768eac46fcd71b985af34", "is_reserved": 0, "rental_uris": {"android": "https://dc.lft.to/lastmile_qr_scan", "ios": "https://dc.lft.to/lastmile_qr_scan"}, "lat": 38.900102333333336, "is_disabled": 0, "lon": -76.95201}, {"fusion_lat": 0.0, "type": "electric_scooter", "name": "c561075b30e718ac1b95ea9987228690", "fusion_lon": 0.0, "bike_id": "c561075b30e718ac1b95ea9987228690", "is_reserved": 0, "rental_uris": {"android": "https://dc.lft.to/lastmile_qr_scan", "ios": "https://dc.lft.to/lastmile_qr_scan"}, "lat": 38.902297833333336, "is_disabled": 0, "lon": -77.04584216666667}, {"fusion_lat": 0.0, "type": "electric_scooter", "name": "1e139daded8a71364a366b441fb0367d", "fusion_lon": 0.0, "bike_id": "1e139daded8a71364a366b441fb0367d", "is_reserved": 0, "rental_uris": {"android": "https://dc.lft.to/lastmile_qr_scan", "ios": "https://dc.lft.to/lastmile_qr_scan"}, "lat": 38.90064533333333, "is_disabled": 0, "lon": -77.0122035}, {"fusion_lat": 0.0, "type": "electric_scooter", "name": "ee63192e4c2bedb893f6494ad639d7ab", "fusion_lon": 0.0, "bike_id": "ee63192e4c2bedb893f6494ad639d7ab", "is_reserved": 0, "rental_uris": {"android": "https://dc.lft.to/lastmile_qr_scan", "ios": "https://dc.lft.to/lastmile_qr_scan"}, "lat": 38.9015435, "is_disabled": 0, "lon": -77.03305833333333}, {"fusion_lat": 0.0, "type": "electric_scooter", "name": "66dfabbc60e263c9b601f2df0a6d35cd", "fusion_lon": 0.0, "bike_id": "66dfabbc60e263c9b601f2df0a6d35cd", "is_reserved": 0, "rental_uris": {"android": "https://dc.lft.to/lastmile_qr_scan", "ios": "https://dc.lft.to/lastmile_qr_scan"}, "lat": 38.90971066666667, "is_disabled": 0, "lon": -77.03334966666667}, {"fusion_lat": 0.0, "type": "electric_scooter", "name": "d92129f9347c0d73a02814460f097d07", "fusion_lon": 0.0, "bike_id": "d92129f9347c0d73a02814460f097d07", "is_reserved": 0, "rental_uris": {"android": "https://dc.lft.to/lastmile_qr_scan", "ios": "https://dc.lft.to/lastmile_qr_scan"}, "lat": 38.8831965, "is_disabled": 0, "lon": -77.01742033333333}, {"fusion_lat": 0.0, "type": "electric_scooter", "name": "fd388c116d008dda85b59495c9be58ed", "fusion_lon": 0.0, "bike_id": "fd388c116d008dda85b59495c9be58ed", "is_reserved": 0, "rental_uris": {"android": "https://dc.lft.to/lastmile_qr_scan", "ios": "https://dc.lft.to/lastmile_qr_scan"}, "lat": 38.885349166666664, "is_disabled": 0, "lon": -77.00582616666667}, {"fusion_lat": 0.0, "type": "electric_scooter", "name": "3ed6cee096bc42a87a605f0db7560f47", "fusion_lon": 0.0, "bike_id": "3ed6cee096bc42a87a605f0db7560f47", "is_reserved": 0, "rental_uris": {"android": "https://dc.lft.to/lastmile_qr_scan", "ios": "https://dc.lft.to/lastmile_qr_scan"}, "lat": 38.86879183333333, "is_disabled": 0, "lon": -76.98236383333334}, {"fusion_lat": 0.0, "type": "electric_scooter", "name": "a6717cdd56b447978fc72bf576e40c96", "fusion_lon": 0.0, "bike_id": "a6717cdd56b447978fc72bf576e40c96", "is_reserved": 0, "rental_uris": {"android": "https://dc.lft.to/lastmile_qr_scan", "ios": "https://dc.lft.to/lastmile_qr_scan"}, "lat": 38.910186333333336, "is_disabled": 0, "lon": -77.0054265}, {"fusion_lat": 0.0, "type": "electric_scooter", "name": "045c30677fbe3e5d1f3e9c65dc6429ae", "fusion_lon": 0.0, "bike_id": "045c30677fbe3e5d1f3e9c65dc6429ae", "is_reserved": 0, "rental_uris": {"android": "https://dc.lft.to/lastmile_qr_scan", "ios": "https://dc.lft.to/lastmile_qr_scan"}, "lat": 38.89974333333333, "is_disabled": 0, "lon": -77.01836933333334}, {"fusion_lat": 0.0, "type": "electric_scooter", "name": "4c4c558b4915b0e61fd7d1c354e982fe", "fusion_lon": 0.0, "bike_id": "4c4c558b4915b0e61fd7d1c354e982fe", "is_reserved": 0, "rental_uris": {"android": "https://dc.lft.to/lastmile_qr_scan", "ios": "https://dc.lft.to/lastmile_qr_scan"}, "lat": 38.88425816666667, "is_disabled": 0, "lon": -77.00792016666666}, {"fusion_lat": 0.0, "type": "electric_scooter", "name": "325a181c7b043611db47193690de33cd", "fusion_lon": 0.0, "bike_id": "325a181c7b043611db47193690de33cd", "is_reserved": 0, "rental_uris": {"android": "https://dc.lft.to/lastmile_qr_scan", "ios": "https://dc.lft.to/lastmile_qr_scan"}, "lat": 38.89226516666667, "is_disabled": 0, "lon": -77.02260566666666}, {"fusion_lat": 0.0, "type": "electric_scooter", "name": "36bd05299b795c1d1c07b12bbc41be6f", "fusion_lon": 0.0, "bike_id": "36bd05299b795c1d1c07b12bbc41be6f", "is_reserved": 0, "rental_uris": {"android": "https://dc.lft.to/lastmile_qr_scan", "ios": "https://dc.lft.to/lastmile_qr_scan"}, "lat": 38.92398516666667, "is_disabled": 0, "lon": -77.03558566666666}, {"fusion_lat": 0.0, "type": "electric_scooter", "name": "26799050d09b1beb7eea488531734fd1", "fusion_lon": 0.0, "bike_id": "26799050d09b1beb7eea488531734fd1", "is_reserved": 0, "rental_uris": {"android": "https://dc.lft.to/lastmile_qr_scan", "ios": "https://dc.lft.to/lastmile_qr_scan"}, "lat": 38.8878715, "is_disabled": 0, "lon": -76.95534033333334}, {"fusion_lat": 0.0, "type": "electric_scooter", "name": "a5968ab68a73ca23ae066c767b0248e5", "fusion_lon": 0.0, "bike_id": "a5968ab68a73ca23ae066c767b0248e5", "is_reserved": 0, "rental_uris": {"android": "https://dc.lft.to/lastmile_qr_scan", "ios": "https://dc.lft.to/lastmile_qr_scan"}, "lat": 38.87041683333333, "is_disabled": 0, "lon": -77.00968683333333}, {"fusion_lat": 0.0, "type": "electric_bike", "name": "77a81e210a9ebee1e420d0ae8f354497", "fusion_lon": 0.0, "bike_id": "77a81e210a9ebee1e420d0ae8f354497", "is_reserved": 0, "rental_uris": {"android": "https://dc.lft.to/lastmile_qr_scan", "ios": "https://dc.lft.to/lastmile_qr_scan"}, "lat": 38.8817815, "is_disabled": 0, "lon": -77.114728}, {"fusion_lat": 0.0, "type": "electric_scooter", "name": "727bd84d50eb55441c38195117beddb6", "fusion_lon": 0.0, "bike_id": "727bd84d50eb55441c38195117beddb6", "is_reserved": 0, "rental_uris": {"android": "https://dc.lft.to/lastmile_qr_scan", "ios": "https://dc.lft.to/lastmile_qr_scan"}, "lat": 38.93084183333333, "is_disabled": 0, "lon": -77.03486216666667}, {"fusion_lat": 0.0, "type": "electric_bike", "name": "04cb4e13668e7d6fea491ae2c9cc9991", "fusion_lon": 0.0, "bike_id": "04cb4e13668e7d6fea491ae2c9cc9991", "is_reserved": 0, "rental_uris": {"android": "https://dc.lft.to/lastmile_qr_scan", "ios": "https://dc.lft.to/lastmile_qr_scan"}, "lat": 38.90797833333333, "is_disabled": 0, "lon": -77.07169233333333}, {"fusion_lat": 0.0, "type": "electric_scooter", "name": "1309040ae3eb785beb80b4dae82e4676", "fusion_lon": 0.0, "bike_id": "1309040ae3eb785beb80b4dae82e4676", "is_reserved": 0, "rental_uris": {"android": "https://dc.lft.to/lastmile_qr_scan", "ios": "https://dc.lft.to/lastmile_qr_scan"}, "lat": 38.93116333333333, "is_disabled": 0, "lon": -77.03813666666667}, {"fusion_lat": 0.0, "type": "electric_scooter", "name": "df9c9579199b3372899cc5113a58e78d", "fusion_lon": 0.0, "bike_id": "df9c9579199b3372899cc5113a58e78d", "is_reserved": 0, "rental_uris": {"android": "https://dc.lft.to/lastmile_qr_scan", "ios": "https://dc.lft.to/lastmile_qr_scan"}, "lat": 38.9267495, "is_disabled": 0, "lon": -77.0147405}, {"fusion_lat": 0.0, "type": "electric_scooter", "name": "3797901cc040ed53505603a40e5d3c92", "fusion_lon": 0.0, "bike_id": "3797901cc040ed53505603a40e5d3c92", "is_reserved": 0, "rental_uris": {"android": "https://dc.lft.to/lastmile_qr_scan", "ios": "https://dc.lft.to/lastmile_qr_scan"}, "lat": 38.84316316666666, "is_disabled": 0, "lon": -76.9993475}, {"fusion_lat": 0.0, "type": "electric_bike", "name": "58037b5dd138de051e258ccd85e5da14", "fusion_lon": 0.0, "bike_id": "58037b5dd138de051e258ccd85e5da14", "is_reserved": 0, "rental_uris": {"android": "https://dc.lft.to/lastmile_qr_scan", "ios": "https://dc.lft.to/lastmile_qr_scan"}, "lat": 38.9784265, "is_disabled": 0, "lon": -76.9288675}, {"fusion_lat": 0.0, "type": "electric_scooter", "name": "47d6b0ac629238f02647ea2b0697e74f", "fusion_lon": 0.0, "bike_id": "47d6b0ac629238f02647ea2b0697e74f", "is_reserved": 0, "rental_uris": {"android": "https://dc.lft.to/lastmile_qr_scan", "ios": "https://dc.lft.to/lastmile_qr_scan"}, "lat": 38.910553166666666, "is_disabled": 0, "lon": -77.04351933333334}, {"fusion_lat": 0.0, "type": "electric_scooter", "name": "4a4d86ecbe566e678209c22aaee821cb", "fusion_lon": 0.0, "bike_id": "4a4d86ecbe566e678209c22aaee821cb", "is_reserved": 0, "rental_uris": {"android": "https://dc.lft.to/lastmile_qr_scan", "ios": "https://dc.lft.to/lastmile_qr_scan"}, "lat": 38.8670335, "is_disabled": 0, "lon": -76.98711116666666}, {"fusion_lat": 0.0, "type": "electric_scooter", "name": "a439b194ee0bfb23d989a7548de946fe", "fusion_lon": 0.0, "bike_id": "a439b194ee0bfb23d989a7548de946fe", "is_reserved": 0, "rental_uris": {"android": "https://dc.lft.to/lastmile_qr_scan", "ios": "https://dc.lft.to/lastmile_qr_scan"}, "lat": 38.90975066666667, "is_disabled": 0, "lon": -77.03589666666667}, {"fusion_lat": 0.0, "type": "electric_scooter", "name": "489dc57328f7938802a0374a011d4317", "fusion_lon": 0.0, "bike_id": "489dc57328f7938802a0374a011d4317", "is_reserved": 0, "rental_uris": {"android": "https://dc.lft.to/lastmile_qr_scan", "ios": "https://dc.lft.to/lastmile_qr_scan"}, "lat": 38.9024485, "is_disabled": 0, "lon": -77.00192866666667}, {"fusion_lat": 0.0, "type": "electric_scooter", "name": "da914946f7ab0549e91dc87e5d6cdedd", "fusion_lon": 0.0, "bike_id": "da914946f7ab0549e91dc87e5d6cdedd", "is_reserved": 0, "rental_uris": {"android": "https://dc.lft.to/lastmile_qr_scan", "ios": "https://dc.lft.to/lastmile_qr_scan"}, "lat": 38.90959216666667, "is_disabled": 0, "lon": -77.05480983333334}, {"fusion_lat": 0.0, "type": "electric_scooter", "name": "ba0b3e67a66d6f7cfd6325b8f02e5f28", "fusion_lon": 0.0, "bike_id": "ba0b3e67a66d6f7cfd6325b8f02e5f28", "is_reserved": 0, "rental_uris": {"android": "https://dc.lft.to/lastmile_qr_scan", "ios": "https://dc.lft.to/lastmile_qr_scan"}, "lat": 38.94184166666667, "is_disabled": 0, "lon": -77.02530483333334}, {"fusion_lat": 0.0, "type": "electric_scooter", "name": "3b6166403338ad4b31229890dc5ba037", "fusion_lon": 0.0, "bike_id": "3b6166403338ad4b31229890dc5ba037", "is_reserved": 0, "rental_uris": {"android": "https://dc.lft.to/lastmile_qr_scan", "ios": "https://dc.lft.to/lastmile_qr_scan"}, "lat": 38.89218116666667, "is_disabled": 0, "lon": -77.043737}, {"fusion_lat": 0.0, "type": "electric_scooter", "name": "bf41c25180c0b771ac742eb11e6f22fb", "fusion_lon": 0.0, "bike_id": "bf41c25180c0b771ac742eb11e6f22fb", "is_reserved": 0, "rental_uris": {"android": "https://dc.lft.to/lastmile_qr_scan", "ios": "https://dc.lft.to/lastmile_qr_scan"}, "lat": 38.90166383333333, "is_disabled": 0, "lon": -77.02398816666667}, {"fusion_lat": 0.0, "type": "electric_scooter", "name": "f87245e6d2883a044394e33385a7a2aa", "fusion_lon": 0.0, "bike_id": "f87245e6d2883a044394e33385a7a2aa", "is_reserved": 0, "rental_uris": {"android": "https://dc.lft.to/lastmile_qr_scan", "ios": "https://dc.lft.to/lastmile_qr_scan"}, "lat": 38.8768185, "is_disabled": 0, "lon": -76.99828433333333}, {"fusion_lat": 0.0, "type": "electric_bike", "name": "756d57cbaebcf81f8e7c049655f3f09c", "fusion_lon": 0.0, "bike_id": "756d57cbaebcf81f8e7c049655f3f09c", "is_reserved": 0, "rental_uris": {"android": "https://dc.lft.to/lastmile_qr_scan", "ios": "https://dc.lft.to/lastmile_qr_scan"}, "lat": 38.902736, "is_disabled": 0, "lon": -76.92925666666666}, {"fusion_lat": 0.0, "type": "electric_scooter", "name": "a6fc04ef0fcb01360023e1b2703f5e8f", "fusion_lon": 0.0, "bike_id": "a6fc04ef0fcb01360023e1b2703f5e8f", "is_reserved": 0, "rental_uris": {"android": "https://dc.lft.to/lastmile_qr_scan", "ios": "https://dc.lft.to/lastmile_qr_scan"}, "lat": 38.909546166666665, "is_disabled": 0, "lon": -77.00810116666666}, {"fusion_lat": 0.0, "type": "electric_scooter", "name": "a123bd3d1d8c4531dda4724c1e5ce73f", "fusion_lon": 0.0, "bike_id": "a123bd3d1d8c4531dda4724c1e5ce73f", "is_reserved": 0, "rental_uris": {"android": "https://dc.lft.to/lastmile_qr_scan", "ios": "https://dc.lft.to/lastmile_qr_scan"}, "lat": 38.910544333333334, "is_disabled": 0, "lon": -77.03181833333333}, {"fusion_lat": 0.0, "type": "electric_scooter", "name": "3a91f9a84eb451616a260662e0fb6e0b", "fusion_lon": 0.0, "bike_id": "3a91f9a84eb451616a260662e0fb6e0b", "is_reserved": 0, "rental_uris": {"android": "https://dc.lft.to/lastmile_qr_scan", "ios": "https://dc.lft.to/lastmile_qr_scan"}, "lat": 38.900471333333336, "is_disabled": 0, "lon": -76.98798916666667}, {"fusion_lat": 0.0, "type": "electric_bike", "name": "c60d841df42986df75a87c99a66fabb3", "fusion_lon": 0.0, "bike_id": "c60d841df42986df75a87c99a66fabb3", "is_reserved": 0, "rental_uris": {"android": "https://dc.lft.to/lastmile_qr_scan", "ios": "https://dc.lft.to/lastmile_qr_scan"}, "lat": 39.042356833333336, "is_disabled": 0, "lon": -76.997358}, {"fusion_lat": 0.0, "type": "electric_bike", "name": "a7a0808f1393f2c4b46831817b33de1e", "fusion_lon": 0.0, "bike_id": "a7a0808f1393f2c4b46831817b33de1e", "is_reserved": 0, "rental_uris": {"android": "https://dc.lft.to/lastmile_qr_scan", "ios": "https://dc.lft.to/lastmile_qr_scan"}, "lat": 38.831614333333334, "is_disabled": 0, "lon": -76.995446}, {"fusion_lat": 0.0, "type": "electric_bike", "name": "e0da6dfc5ef8e698e58bcc696c185648", "fusion_lon": 0.0, "bike_id": "e0da6dfc5ef8e698e58bcc696c185648", "is_reserved": 0, "rental_uris": {"android": "https://dc.lft.to/lastmile_qr_scan", "ios": "https://dc.lft.to/lastmile_qr_scan"}, "lat": 38.93870033333334, "is_disabled": 0, "lon": -76.94291916666667}, {"fusion_lat": 0.0, "type": "electric_bike", "name": "fb9928c1193bd586313967d5de54d178", "fusion_lon": 0.0, "bike_id": "fb9928c1193bd586313967d5de54d178", "is_reserved": 0, "rental_uris": {"android": "https://dc.lft.to/lastmile_qr_scan", "ios": "https://dc.lft.to/lastmile_qr_scan"}, "lat": 38.962205166666664, "is_disabled": 0, "lon": -77.02623966666667}, {"fusion_lat": 0.0, "type": "electric_scooter", "name": "a2f6531b487a15011e03a5925c972b5a", "fusion_lon": 0.0, "bike_id": "a2f6531b487a15011e03a5925c972b5a", "is_reserved": 0, "rental_uris": {"android": "https://dc.lft.to/lastmile_qr_scan", "ios": "https://dc.lft.to/lastmile_qr_scan"}, "lat": 38.92365083333333, "is_disabled": 0, "lon": -77.05049116666666}, {"fusion_lat": 0.0, "type": "electric_scooter", "name": "b2e9476e7be56ae01004d5bbd2463781", "fusion_lon": 0.0, "bike_id": "b2e9476e7be56ae01004d5bbd2463781", "is_reserved": 0, "rental_uris": {"android": "https://dc.lft.to/lastmile_qr_scan", "ios": "https://dc.lft.to/lastmile_qr_scan"}, "lat": 38.923414, "is_disabled": 0, "lon": -77.02117783333334}, {"fusion_lat": 0.0, "type": "electric_scooter", "name": "66c3e1cc05662170ac9b3f61fb9298a4", "fusion_lon": 0.0, "bike_id": "66c3e1cc05662170ac9b3f61fb9298a4", "is_reserved": 0, "rental_uris": {"android": "https://dc.lft.to/lastmile_qr_scan", "ios": "https://dc.lft.to/lastmile_qr_scan"}, "lat": 38.91136933333333, "is_disabled": 0, "lon": -77.03842233333333}, {"fusion_lat": 0.0, "type": "electric_scooter", "name": "67a69c7682c94e540106f3cfa1119029", "fusion_lon": 0.0, "bike_id": "67a69c7682c94e540106f3cfa1119029", "is_reserved": 0, "rental_uris": {"android": "https://dc.lft.to/lastmile_qr_scan", "ios": "https://dc.lft.to/lastmile_qr_scan"}, "lat": 38.878116, "is_disabled": 0, "lon": -76.994593}, {"fusion_lat": 0.0, "type": "electric_scooter", "name": "c7105fe72fac69bb5d8fd25c8a925c0d", "fusion_lon": 0.0, "bike_id": "c7105fe72fac69bb5d8fd25c8a925c0d", "is_reserved": 0, "rental_uris": {"android": "https://dc.lft.to/lastmile_qr_scan", "ios": "https://dc.lft.to/lastmile_qr_scan"}, "lat": 38.93346666666667, "is_disabled": 0, "lon": -77.04124133333333}, {"fusion_lat": 0.0, "type": "electric_scooter", "name": "34446ff44ab5c90e55cebf77340ab851", "fusion_lon": 0.0, "bike_id": "34446ff44ab5c90e55cebf77340ab851", "is_reserved": 0, "rental_uris": {"android": "https://dc.lft.to/lastmile_qr_scan", "ios": "https://dc.lft.to/lastmile_qr_scan"}, "lat": 38.9214045, "is_disabled": 0, "lon": -77.02874566666667}, {"fusion_lat": 0.0, "type": "electric_scooter", "name": "7443f58f64081415bb3f83b6fb395d35", "fusion_lon": 0.0, "bike_id": "7443f58f64081415bb3f83b6fb395d35", "is_reserved": 0, "rental_uris": {"android": "https://dc.lft.to/lastmile_qr_scan", "ios": "https://dc.lft.to/lastmile_qr_scan"}, "lat": 38.87689066666667, "is_disabled": 0, "lon": -77.017569}, {"fusion_lat": 0.0, "type": "electric_bike", "name": "7c860769219b5be334a717353bef499b", "fusion_lon": 0.0, "bike_id": "7c860769219b5be334a717353bef499b", "is_reserved": 0, "rental_uris": {"android": "https://dc.lft.to/lastmile_qr_scan", "ios": "https://dc.lft.to/lastmile_qr_scan"}, "lat": 38.959614333333334, "is_disabled": 0, "lon": -77.10092233333333}, {"fusion_lat": 0.0, "type": "electric_scooter", "name": "24a99e4ad6bee3457a42dfc07cb38bdf", "fusion_lon": 0.0, "bike_id": "24a99e4ad6bee3457a42dfc07cb38bdf", "is_reserved": 0, "rental_uris": {"android": "https://dc.lft.to/lastmile_qr_scan", "ios": "https://dc.lft.to/lastmile_qr_scan"}, "lat": 38.915454, "is_disabled": 0, "lon": -77.01971316666666}, {"fusion_lat": 0.0, "type": "electric_scooter", "name": "7e4db6c81f3c7ae9e957396318e4348a", "fusion_lon": 0.0, "bike_id": "7e4db6c81f3c7ae9e957396318e4348a", "is_reserved": 0, "rental_uris": {"android": "https://dc.lft.to/lastmile_qr_scan", "ios": "https://dc.lft.to/lastmile_qr_scan"}, "lat": 38.88461066666667, "is_disabled": 0, "lon": -76.92621666666666}, {"fusion_lat": 0.0, "type": "electric_scooter", "name": "5f29b3341724eb950452be0b846d7332", "fusion_lon": 0.0, "bike_id": "5f29b3341724eb950452be0b846d7332", "is_reserved": 0, "rental_uris": {"android": "https://dc.lft.to/lastmile_qr_scan", "ios": "https://dc.lft.to/lastmile_qr_scan"}, "lat": 38.886086166666665, "is_disabled": 0, "lon": -76.9951445}, {"fusion_lat": 0.0, "type": "electric_scooter", "name": "8b035ed97cc2fcb1c1a2fd9e9bf81b4c", "fusion_lon": 0.0, "bike_id": "8b035ed97cc2fcb1c1a2fd9e9bf81b4c", "is_reserved": 0, "rental_uris": {"android": "https://dc.lft.to/lastmile_qr_scan", "ios": "https://dc.lft.to/lastmile_qr_scan"}, "lat": 38.9346155, "is_disabled": 0, "lon": -77.022189}, {"fusion_lat": 0.0, "type": "electric_bike", "name": "e1a8114a913b5d7e1cdfaaa747d320ca", "fusion_lon": 0.0, "bike_id": "e1a8114a913b5d7e1cdfaaa747d320ca", "is_reserved": 0, "rental_uris": {"android": "https://dc.lft.to/lastmile_qr_scan", "ios": "https://dc.lft.to/lastmile_qr_scan"}, "lat": 38.81203083333333, "is_disabled": 0, "lon": -77.10834166666666}, {"fusion_lat": 0.0, "type": "electric_scooter", "name": "ef047e6ad4585039689329c5ece92785", "fusion_lon": 0.0, "bike_id": "ef047e6ad4585039689329c5ece92785", "is_reserved": 0, "rental_uris": {"android": "https://dc.lft.to/lastmile_qr_scan", "ios": "https://dc.lft.to/lastmile_qr_scan"}, "lat": 38.90227266666667, "is_disabled": 0, "lon": -77.0335505}, {"fusion_lat": 0.0, "type": "electric_scooter", "name": "7aac68f7f2d124c5b432f6598341065d", "fusion_lon": 0.0, "bike_id": "7aac68f7f2d124c5b432f6598341065d", "is_reserved": 0, "rental_uris": {"android": "https://dc.lft.to/lastmile_qr_scan", "ios": "https://dc.lft.to/lastmile_qr_scan"}, "lat": 38.902261333333335, "is_disabled": 0, "lon": -77.04527116666667}, {"fusion_lat": 0.0, "type": "electric_scooter", "name": "1f0c95c7e7493586fb88d8b35fcca9cd", "fusion_lon": 0.0, "bike_id": "1f0c95c7e7493586fb88d8b35fcca9cd", "is_reserved": 0, "rental_uris": {"android": "https://dc.lft.to/lastmile_qr_scan", "ios": "https://dc.lft.to/lastmile_qr_scan"}, "lat": 38.89231866666667, "is_disabled": 0, "lon": -77.03180866666666}, {"fusion_lat": 0.0, "type": "electric_scooter", "name": "af6e6074c22b1701e4295c4b26571aaf", "fusion_lon": 0.0, "bike_id": "af6e6074c22b1701e4295c4b26571aaf", "is_reserved": 0, "rental_uris": {"android": "https://dc.lft.to/lastmile_qr_scan", "ios": "https://dc.lft.to/lastmile_qr_scan"}, "lat": 38.893995333333336, "is_disabled": 0, "lon": -76.94628333333333}, {"fusion_lat": 0.0, "type": "electric_bike", "name": "b32e2224176eac764f4e3e1b328293c8", "fusion_lon": 0.0, "bike_id": "b32e2224176eac764f4e3e1b328293c8", "is_reserved": 0, "rental_uris": {"android": "https://dc.lft.to/lastmile_qr_scan", "ios": "https://dc.lft.to/lastmile_qr_scan"}, "lat": 38.8980575, "is_disabled": 0, "lon": -76.9906985}, {"fusion_lat": 0.0, "type": "electric_scooter", "name": "30333ddc9bfe41cae69bf8c61a058c87", "fusion_lon": 0.0, "bike_id": "30333ddc9bfe41cae69bf8c61a058c87", "is_reserved": 0, "rental_uris": {"android": "https://dc.lft.to/lastmile_qr_scan", "ios": "https://dc.lft.to/lastmile_qr_scan"}, "lat": 38.9216015, "is_disabled": 0, "lon": -77.02100733333333}, {"fusion_lat": 0.0, "type": "electric_scooter", "name": "77a286a6120c3649e6afe8ab906743fc", "fusion_lon": 0.0, "bike_id": "77a286a6120c3649e6afe8ab906743fc", "is_reserved": 0, "rental_uris": {"android": "https://dc.lft.to/lastmile_qr_scan", "ios": "https://dc.lft.to/lastmile_qr_scan"}, "lat": 38.898224166666665, "is_disabled": 0, "lon": -77.02814133333334}, {"fusion_lat": 0.0, "type": "electric_scooter", "name": "c3479b21085a28c4327f502c69a02cd5", "fusion_lon": 0.0, "bike_id": "c3479b21085a28c4327f502c69a02cd5", "is_reserved": 0, "rental_uris": {"android": "https://dc.lft.to/lastmile_qr_scan", "ios": "https://dc.lft.to/lastmile_qr_scan"}, "lat": 38.913994333333335, "is_disabled": 0, "lon": -77.044806}, {"fusion_lat": 0.0, "type": "electric_scooter", "name": "f5fd5df19d0e05c0b5a123f7390835e0", "fusion_lon": 0.0, "bike_id": "f5fd5df19d0e05c0b5a123f7390835e0", "is_reserved": 0, "rental_uris": {"android": "https://dc.lft.to/lastmile_qr_scan", "ios": "https://dc.lft.to/lastmile_qr_scan"}, "lat": 38.895648333333334, "is_disabled": 0, "lon": -77.04669783333334}, {"fusion_lat": 0.0, "type": "electric_scooter", "name": "fdc4d6df4afcff43c21bece16c55b680", "fusion_lon": 0.0, "bike_id": "fdc4d6df4afcff43c21bece16c55b680", "is_reserved": 0, "rental_uris": {"android": "https://dc.lft.to/lastmile_qr_scan", "ios": "https://dc.lft.to/lastmile_qr_scan"}, "lat": 38.85199466666667, "is_disabled": 0, "lon": -76.97072733333333}, {"fusion_lat": 0.0, "type": "electric_scooter", "name": "217c00c88551b26499226018432d1710", "fusion_lon": 0.0, "bike_id": "217c00c88551b26499226018432d1710", "is_reserved": 0, "rental_uris": {"android": "https://dc.lft.to/lastmile_qr_scan", "ios": "https://dc.lft.to/lastmile_qr_scan"}, "lat": 38.898434, "is_disabled": 0, "lon": -77.02970016666667}, {"fusion_lat": 0.0, "type": "electric_scooter", "name": "c7123037f6fc9152ea14feb10651206a", "fusion_lon": 0.0, "bike_id": "c7123037f6fc9152ea14feb10651206a", "is_reserved": 0, "rental_uris": {"android": "https://dc.lft.to/lastmile_qr_scan", "ios": "https://dc.lft.to/lastmile_qr_scan"}, "lat": 38.919931, "is_disabled": 0, "lon": -77.02145866666666}, {"fusion_lat": 0.0, "type": "electric_scooter", "name": "712d985e3e43b94990105a8387ed0eb3", "fusion_lon": 0.0, "bike_id": "712d985e3e43b94990105a8387ed0eb3", "is_reserved": 0, "rental_uris": {"android": "https://dc.lft.to/lastmile_qr_scan", "ios": "https://dc.lft.to/lastmile_qr_scan"}, "lat": 38.91866316666667, "is_disabled": 0, "lon": -77.06998833333333}, {"fusion_lat": 0.0, "type": "electric_bike", "name": "facad21bd942d7d50853cebb95c7759e", "fusion_lon": 0.0, "bike_id": "facad21bd942d7d50853cebb95c7759e", "is_reserved": 0, "rental_uris": {"android": "https://dc.lft.to/lastmile_qr_scan", "ios": "https://dc.lft.to/lastmile_qr_scan"}, "lat": 38.93171133333333, "is_disabled": 0, "lon": -76.88400483333334}, {"fusion_lat": 0.0, "type": "electric_bike", "name": "e0897ccce36d51f326b2c1a042787058", "fusion_lon": 0.0, "bike_id": "e0897ccce36d51f326b2c1a042787058", "is_reserved": 0, "rental_uris": {"android": "https://dc.lft.to/lastmile_qr_scan", "ios": "https://dc.lft.to/lastmile_qr_scan"}, "lat": 38.864920833333336, "is_disabled": 0, "lon": -76.977471}, {"fusion_lat": 0.0, "type": "electric_bike", "name": "089cab2c1ed2811bb82b3f8379087fb7", "fusion_lon": 0.0, "bike_id": "089cab2c1ed2811bb82b3f8379087fb7", "is_reserved": 0, "rental_uris": {"android": "https://dc.lft.to/lastmile_qr_scan", "ios": "https://dc.lft.to/lastmile_qr_scan"}, "lat": 38.95442416666667, "is_disabled": 0, "lon": -76.98912483333334}, {"fusion_lat": 0.0, "type": "electric_bike", "name": "c6f2380dfe6a7db0f9c6bb4d30314f1a", "fusion_lon": 0.0, "bike_id": "c6f2380dfe6a7db0f9c6bb4d30314f1a", "is_reserved": 0, "rental_uris": {"android": "https://dc.lft.to/lastmile_qr_scan", "ios": "https://dc.lft.to/lastmile_qr_scan"}, "lat": 38.9296645, "is_disabled": 0, "lon": -77.18560683333334}, {"fusion_lat": 0.0, "type": "electric_bike", "name": "88d0e035d4feffc3167ff2c997e9bad4", "fusion_lon": 0.0, "bike_id": "88d0e035d4feffc3167ff2c997e9bad4", "is_reserved": 0, "rental_uris": {"android": "https://dc.lft.to/lastmile_qr_scan", "ios": "https://dc.lft.to/lastmile_qr_scan"}, "lat": 39.05501433333333, "is_disabled": 0, "lon": -77.046526}, {"fusion_lat": 0.0, "type": "electric_scooter", "name": "91ab18d5ba8abae5a56cf36a6639a3b6", "fusion_lon": 0.0, "bike_id": "91ab18d5ba8abae5a56cf36a6639a3b6", "is_reserved": 0, "rental_uris": {"android": "https://dc.lft.to/lastmile_qr_scan", "ios": "https://dc.lft.to/lastmile_qr_scan"}, "lat": 38.960271666666664, "is_disabled": 0, "lon": -77.000509}, {"fusion_lat": 0.0, "type": "electric_scooter", "name": "c3f1e5bcfe17ee9f5f14955392699a4f", "fusion_lon": 0.0, "bike_id": "c3f1e5bcfe17ee9f5f14955392699a4f", "is_reserved": 0, "rental_uris": {"android": "https://dc.lft.to/lastmile_qr_scan", "ios": "https://dc.lft.to/lastmile_qr_scan"}, "lat": 38.90846466666667, "is_disabled": 0, "lon": -77.0269455}, {"fusion_lat": 0.0, "type": "electric_scooter", "name": "29089c7c366495e47b85d979d03719be", "fusion_lon": 0.0, "bike_id": "29089c7c366495e47b85d979d03719be", "is_reserved": 0, "rental_uris": {"android": "https://dc.lft.to/lastmile_qr_scan", "ios": "https://dc.lft.to/lastmile_qr_scan"}, "lat": 38.9073305, "is_disabled": 0, "lon": -77.03882316666666}, {"fusion_lat": 0.0, "type": "electric_scooter", "name": "ad649029b8f9784329e57352aa2c94c2", "fusion_lon": 0.0, "bike_id": "ad649029b8f9784329e57352aa2c94c2", "is_reserved": 0, "rental_uris": {"android": "https://dc.lft.to/lastmile_qr_scan", "ios": "https://dc.lft.to/lastmile_qr_scan"}, "lat": 38.9012455, "is_disabled": 0, "lon": -77.03227666666666}, {"fusion_lat": 0.0, "type": "electric_scooter", "name": "cc826c45b992d6df648f348e30bd2969", "fusion_lon": 0.0, "bike_id": "cc826c45b992d6df648f348e30bd2969", "is_reserved": 0, "rental_uris": {"android": "https://dc.lft.to/lastmile_qr_scan", "ios": "https://dc.lft.to/lastmile_qr_scan"}, "lat": 38.88611866666667, "is_disabled": 0, "lon": -76.9951075}, {"fusion_lat": 0.0, "type": "electric_scooter", "name": "28df9e74b9779b5a9d41a1fde6a98641", "fusion_lon": 0.0, "bike_id": "28df9e74b9779b5a9d41a1fde6a98641", "is_reserved": 0, "rental_uris": {"android": "https://dc.lft.to/lastmile_qr_scan", "ios": "https://dc.lft.to/lastmile_qr_scan"}, "lat": 38.907486666666664, "is_disabled": 0, "lon": -77.041563}, {"fusion_lat": 0.0, "type": "electric_scooter", "name": "5afceb8021d507059174cf555b830e8f", "fusion_lon": 0.0, "bike_id": "5afceb8021d507059174cf555b830e8f", "is_reserved": 0, "rental_uris": {"android": "https://dc.lft.to/lastmile_qr_scan", "ios": "https://dc.lft.to/lastmile_qr_scan"}, "lat": 38.91678016666667, "is_disabled": 0, "lon": -77.03209733333334}, {"fusion_lat": 0.0, "type": "electric_scooter", "name": "77305d37c933ac2314646ef1cd27434d", "fusion_lon": 0.0, "bike_id": "77305d37c933ac2314646ef1cd27434d", "is_reserved": 0, "rental_uris": {"android": "https://dc.lft.to/lastmile_qr_scan", "ios": "https://dc.lft.to/lastmile_qr_scan"}, "lat": 38.892239833333335, "is_disabled": 0, "lon": -77.0022245}, {"fusion_lat": 0.0, "type": "electric_scooter", "name": "2b65d8bc3aa6d7e1a37fdd54b89aa60f", "fusion_lon": 0.0, "bike_id": "2b65d8bc3aa6d7e1a37fdd54b89aa60f", "is_reserved": 0, "rental_uris": {"android": "https://dc.lft.to/lastmile_qr_scan", "ios": "https://dc.lft.to/lastmile_qr_scan"}, "lat": 38.904578666666666, "is_disabled": 0, "lon": -77.04488766666667}, {"fusion_lat": 0.0, "type": "electric_scooter", "name": "6b976e3f8115d98028c1f3556aa25df5", "fusion_lon": 0.0, "bike_id": "6b976e3f8115d98028c1f3556aa25df5", "is_reserved": 0, "rental_uris": {"android": "https://dc.lft.to/lastmile_qr_scan", "ios": "https://dc.lft.to/lastmile_qr_scan"}, "lat": 38.916526, "is_disabled": 0, "lon": -77.02183316666667}, {"fusion_lat": 0.0, "type": "electric_scooter", "name": "9b2a364a00b33dbe5ebcffb1acaae033", "fusion_lon": 0.0, "bike_id": "9b2a364a00b33dbe5ebcffb1acaae033", "is_reserved": 0, "rental_uris": {"android": "https://dc.lft.to/lastmile_qr_scan", "ios": "https://dc.lft.to/lastmile_qr_scan"}, "lat": 38.90568233333333, "is_disabled": 0, "lon": -77.050057}, {"fusion_lat": 0.0, "type": "electric_bike", "name": "1c02baed4439ee8076f68fc16bbc49b9", "fusion_lon": 0.0, "bike_id": "1c02baed4439ee8076f68fc16bbc49b9", "is_reserved": 0, "rental_uris": {"android": "https://dc.lft.to/lastmile_qr_scan", "ios": "https://dc.lft.to/lastmile_qr_scan"}, "lat": 38.88406033333333, "is_disabled": 0, "lon": -76.96054316666667}, {"fusion_lat": 0.0, "type": "electric_scooter", "name": "dadb2825860018dbc5c40aa95bb02860", "fusion_lon": 0.0, "bike_id": "dadb2825860018dbc5c40aa95bb02860", "is_reserved": 0, "rental_uris": {"android": "https://dc.lft.to/lastmile_qr_scan", "ios": "https://dc.lft.to/lastmile_qr_scan"}, "lat": 38.90671966666667, "is_disabled": 0, "lon": -77.038651}, {"fusion_lat": 0.0, "type": "electric_scooter", "name": "2b509574c207faa47f8ade9262047c59", "fusion_lon": 0.0, "bike_id": "2b509574c207faa47f8ade9262047c59", "is_reserved": 0, "rental_uris": {"android": "https://dc.lft.to/lastmile_qr_scan", "ios": "https://dc.lft.to/lastmile_qr_scan"}, "lat": 38.91187166666667, "is_disabled": 0, "lon": -77.04460966666667}, {"fusion_lat": 0.0, "type": "electric_scooter", "name": "27d79fb6111afa21cace1550eb361759", "fusion_lon": 0.0, "bike_id": "27d79fb6111afa21cace1550eb361759", "is_reserved": 0, "rental_uris": {"android": "https://dc.lft.to/lastmile_qr_scan", "ios": "https://dc.lft.to/lastmile_qr_scan"}, "lat": 38.90630133333333, "is_disabled": 0, "lon": -77.03969483333333}, {"fusion_lat": 0.0, "type": "electric_scooter", "name": "2027ae5141744c8b3cb8bae065b82e42", "fusion_lon": 0.0, "bike_id": "2027ae5141744c8b3cb8bae065b82e42", "is_reserved": 0, "rental_uris": {"android": "https://dc.lft.to/lastmile_qr_scan", "ios": "https://dc.lft.to/lastmile_qr_scan"}, "lat": 38.897286, "is_disabled": 0, "lon": -77.00930033333333}, {"fusion_lat": 0.0, "type": "electric_scooter", "name": "ef0b5cd907933c0342966b6413191061", "fusion_lon": 0.0, "bike_id": "ef0b5cd907933c0342966b6413191061", "is_reserved": 0, "rental_uris": {"android": "https://dc.lft.to/lastmile_qr_scan", "ios": "https://dc.lft.to/lastmile_qr_scan"}, "lat": 38.89229916666667, "is_disabled": 0, "lon": -77.048981}, {"fusion_lat": 0.0, "type": "electric_scooter", "name": "a7c7fb66947f4013d12a39e1d26bd55f", "fusion_lon": 0.0, "bike_id": "a7c7fb66947f4013d12a39e1d26bd55f", "is_reserved": 0, "rental_uris": {"android": "https://dc.lft.to/lastmile_qr_scan", "ios": "https://dc.lft.to/lastmile_qr_scan"}, "lat": 38.90863216666666, "is_disabled": 0, "lon": -77.0234955}, {"fusion_lat": 0.0, "type": "electric_scooter", "name": "280f0d5f360bab0403d15f290134df00", "fusion_lon": 0.0, "bike_id": "280f0d5f360bab0403d15f290134df00", "is_reserved": 0, "rental_uris": {"android": "https://dc.lft.to/lastmile_qr_scan", "ios": "https://dc.lft.to/lastmile_qr_scan"}, "lat": 38.940780333333336, "is_disabled": 0, "lon": -77.02547383333334}, {"fusion_lat": 0.0, "type": "electric_scooter", "name": "89a361dfc53c531d51b835d6c436efc1", "fusion_lon": 0.0, "bike_id": "89a361dfc53c531d51b835d6c436efc1", "is_reserved": 0, "rental_uris": {"android": "https://dc.lft.to/lastmile_qr_scan", "ios": "https://dc.lft.to/lastmile_qr_scan"}, "lat": 38.901801166666665, "is_disabled": 0, "lon": -76.92864933333334}, {"fusion_lat": 0.0, "type": "electric_scooter", "name": "16d3f25d8c579488bd99342d1d6cc9dd", "fusion_lon": 0.0, "bike_id": "16d3f25d8c579488bd99342d1d6cc9dd", "is_reserved": 0, "rental_uris": {"android": "https://dc.lft.to/lastmile_qr_scan", "ios": "https://dc.lft.to/lastmile_qr_scan"}, "lat": 38.908803666666664, "is_disabled": 0, "lon": -76.99855766666667}, {"fusion_lat": 0.0, "type": "electric_scooter", "name": "473dd78671f63a38b956cb7cf148f54c", "fusion_lon": 0.0, "bike_id": "473dd78671f63a38b956cb7cf148f54c", "is_reserved": 0, "rental_uris": {"android": "https://dc.lft.to/lastmile_qr_scan", "ios": "https://dc.lft.to/lastmile_qr_scan"}, "lat": 38.866879833333336, "is_disabled": 0, "lon": -76.98597183333334}, {"fusion_lat": 0.0, "type": "electric_scooter", "name": "ad6a6b44badc59ecab289a5fcb2391b9", "fusion_lon": 0.0, "bike_id": "ad6a6b44badc59ecab289a5fcb2391b9", "is_reserved": 0, "rental_uris": {"android": "https://dc.lft.to/lastmile_qr_scan", "ios": "https://dc.lft.to/lastmile_qr_scan"}, "lat": 38.90965833333333, "is_disabled": 0, "lon": -77.03222883333333}, {"fusion_lat": 0.0, "type": "electric_scooter", "name": "2ed23cc77241be508c4e852c193f06f3", "fusion_lon": 0.0, "bike_id": "2ed23cc77241be508c4e852c193f06f3", "is_reserved": 0, "rental_uris": {"android": "https://dc.lft.to/lastmile_qr_scan", "ios": "https://dc.lft.to/lastmile_qr_scan"}, "lat": 38.90274333333333, "is_disabled": 0, "lon": -77.03969783333334}, {"fusion_lat": 0.0, "type": "electric_scooter", "name": "5bbdcc1fd861f9fcd5bf791b3ef436a2", "fusion_lon": 0.0, "bike_id": "5bbdcc1fd861f9fcd5bf791b3ef436a2", "is_reserved": 0, "rental_uris": {"android": "https://dc.lft.to/lastmile_qr_scan", "ios": "https://dc.lft.to/lastmile_qr_scan"}, "lat": 38.90560033333333, "is_disabled": 0, "lon": -77.04699666666667}, {"fusion_lat": 0.0, "type": "electric_scooter", "name": "e6a61341d0fde0d120a6c1b3ffb6d60d", "fusion_lon": 0.0, "bike_id": "e6a61341d0fde0d120a6c1b3ffb6d60d", "is_reserved": 0, "rental_uris": {"android": "https://dc.lft.to/lastmile_qr_scan", "ios": "https://dc.lft.to/lastmile_qr_scan"}, "lat": 38.911914, "is_disabled": 0, "lon": -77.0352505}, {"fusion_lat": 0.0, "type": "electric_scooter", "name": "5b57a79649b56759f93052b04b1e2946", "fusion_lon": 0.0, "bike_id": "5b57a79649b56759f93052b04b1e2946", "is_reserved": 0, "rental_uris": {"android": "https://dc.lft.to/lastmile_qr_scan", "ios": "https://dc.lft.to/lastmile_qr_scan"}, "lat": 38.923779, "is_disabled": 0, "lon": -77.0210385}, {"fusion_lat": 0.0, "type": "electric_scooter", "name": "ce9a0248c2eb96e638201af4ed52cc70", "fusion_lon": 0.0, "bike_id": "ce9a0248c2eb96e638201af4ed52cc70", "is_reserved": 0, "rental_uris": {"android": "https://dc.lft.to/lastmile_qr_scan", "ios": "https://dc.lft.to/lastmile_qr_scan"}, "lat": 38.907573166666666, "is_disabled": 0, "lon": -77.07153316666667}, {"fusion_lat": 0.0, "type": "electric_scooter", "name": "602b640a915a91de498389409bb4fc43", "fusion_lon": 0.0, "bike_id": "602b640a915a91de498389409bb4fc43", "is_reserved": 0, "rental_uris": {"android": "https://dc.lft.to/lastmile_qr_scan", "ios": "https://dc.lft.to/lastmile_qr_scan"}, "lat": 38.9248835, "is_disabled": 0, "lon": -77.0213775}, {"fusion_lat": 0.0, "type": "electric_scooter", "name": "19dddc2c37955305f3b838b5c7ab2bbe", "fusion_lon": 0.0, "bike_id": "19dddc2c37955305f3b838b5c7ab2bbe", "is_reserved": 0, "rental_uris": {"android": "https://dc.lft.to/lastmile_qr_scan", "ios": "https://dc.lft.to/lastmile_qr_scan"}, "lat": 38.8499775, "is_disabled": 0, "lon": -76.98344716666666}, {"fusion_lat": 0.0, "type": "electric_scooter", "name": "90723bcfef9f9eddb7b8d9c3c57427e7", "fusion_lon": 0.0, "bike_id": "90723bcfef9f9eddb7b8d9c3c57427e7", "is_reserved": 0, "rental_uris": {"android": "https://dc.lft.to/lastmile_qr_scan", "ios": "https://dc.lft.to/lastmile_qr_scan"}, "lat": 38.912718166666664, "is_disabled": 0, "lon": -77.04756966666666}, {"fusion_lat": 0.0, "type": "electric_scooter", "name": "7d3e0b9cd0d7ce748ec3b8a761efff96", "fusion_lon": 0.0, "bike_id": "7d3e0b9cd0d7ce748ec3b8a761efff96", "is_reserved": 0, "rental_uris": {"android": "https://dc.lft.to/lastmile_qr_scan", "ios": "https://dc.lft.to/lastmile_qr_scan"}, "lat": 38.9057965, "is_disabled": 0, "lon": -77.00580466666666}, {"fusion_lat": 0.0, "type": "electric_scooter", "name": "2d6ccb785db7a23dd3adab8da0fdbb5f", "fusion_lon": 0.0, "bike_id": "2d6ccb785db7a23dd3adab8da0fdbb5f", "is_reserved": 0, "rental_uris": {"android": "https://dc.lft.to/lastmile_qr_scan", "ios": "https://dc.lft.to/lastmile_qr_scan"}, "lat": 38.912631166666664, "is_disabled": 0, "lon": -77.04413833333334}, {"fusion_lat": 0.0, "type": "electric_scooter", "name": "bf14e47a71e202745320bf6c2dc5ed8f", "fusion_lon": 0.0, "bike_id": "bf14e47a71e202745320bf6c2dc5ed8f", "is_reserved": 0, "rental_uris": {"android": "https://dc.lft.to/lastmile_qr_scan", "ios": "https://dc.lft.to/lastmile_qr_scan"}, "lat": 38.89732866666667, "is_disabled": 0, "lon": -77.05476116666667}, {"fusion_lat": 0.0, "type": "electric_bike", "name": "436f60e65454a32446e3e6fc4506f372", "fusion_lon": 0.0, "bike_id": "436f60e65454a32446e3e6fc4506f372", "is_reserved": 0, "rental_uris": {"android": "https://dc.lft.to/lastmile_qr_scan", "ios": "https://dc.lft.to/lastmile_qr_scan"}, "lat": 39.057886333333336, "is_disabled": 0, "lon": -77.150204}, {"fusion_lat": 0.0, "type": "electric_scooter", "name": "cc9d9d7d01aedcc25df0fabb57f8efc9", "fusion_lon": 0.0, "bike_id": "cc9d9d7d01aedcc25df0fabb57f8efc9", "is_reserved": 0, "rental_uris": {"android": "https://dc.lft.to/lastmile_qr_scan", "ios": "https://dc.lft.to/lastmile_qr_scan"}, "lat": 38.892240666666666, "is_disabled": 0, "lon": -77.04866433333333}, {"fusion_lat": 0.0, "type": "electric_scooter", "name": "b7064a269a36994b4c6ee92dae8ee8e7", "fusion_lon": 0.0, "bike_id": "b7064a269a36994b4c6ee92dae8ee8e7", "is_reserved": 0, "rental_uris": {"android": "https://dc.lft.to/lastmile_qr_scan", "ios": "https://dc.lft.to/lastmile_qr_scan"}, "lat": 38.902855333333335, "is_disabled": 0, "lon": -77.04585116666667}, {"fusion_lat": 0.0, "type": "electric_scooter", "name": "03ce9053427da930a857d68d71e8d25b", "fusion_lon": 0.0, "bike_id": "03ce9053427da930a857d68d71e8d25b", "is_reserved": 0, "rental_uris": {"android": "https://dc.lft.to/lastmile_qr_scan", "ios": "https://dc.lft.to/lastmile_qr_scan"}, "lat": 38.932471166666666, "is_disabled": 0, "lon": -77.02948616666667}, {"fusion_lat": 0.0, "type": "electric_scooter", "name": "14e6412e080ea5af424b327476dc7cce", "fusion_lon": 0.0, "bike_id": "14e6412e080ea5af424b327476dc7cce", "is_reserved": 0, "rental_uris": {"android": "https://dc.lft.to/lastmile_qr_scan", "ios": "https://dc.lft.to/lastmile_qr_scan"}, "lat": 38.908539, "is_disabled": 0, "lon": -77.04305283333333}, {"fusion_lat": 0.0, "type": "electric_bike", "name": "b14dbdf8134b0e219ba75a4365ad9365", "fusion_lon": 0.0, "bike_id": "b14dbdf8134b0e219ba75a4365ad9365", "is_reserved": 0, "rental_uris": {"android": "https://dc.lft.to/lastmile_qr_scan", "ios": "https://dc.lft.to/lastmile_qr_scan"}, "lat": 38.90798083333333, "is_disabled": 0, "lon": -77.07162116666667}, {"fusion_lat": 0.0, "type": "electric_scooter", "name": "985a8a806a800563cafc0d6940d12e5b", "fusion_lon": 0.0, "bike_id": "985a8a806a800563cafc0d6940d12e5b", "is_reserved": 0, "rental_uris": {"android": "https://dc.lft.to/lastmile_qr_scan", "ios": "https://dc.lft.to/lastmile_qr_scan"}, "lat": 38.914427333333336, "is_disabled": 0, "lon": -77.06716733333333}, {"fusion_lat": 0.0, "type": "electric_scooter", "name": "366fb005c5b006be47abd6e9662dfb8e", "fusion_lon": 0.0, "bike_id": "366fb005c5b006be47abd6e9662dfb8e", "is_reserved": 0, "rental_uris": {"android": "https://dc.lft.to/lastmile_qr_scan", "ios": "https://dc.lft.to/lastmile_qr_scan"}, "lat": 38.92511366666667, "is_disabled": 0, "lon": -77.0297715}, {"fusion_lat": 0.0, "type": "electric_scooter", "name": "20d061cc9d2e4fbd18a5d3b075c18eed", "fusion_lon": 0.0, "bike_id": "20d061cc9d2e4fbd18a5d3b075c18eed", "is_reserved": 0, "rental_uris": {"android": "https://dc.lft.to/lastmile_qr_scan", "ios": "https://dc.lft.to/lastmile_qr_scan"}, "lat": 38.91123483333333, "is_disabled": 0, "lon": -77.04363716666667}, {"fusion_lat": 0.0, "type": "electric_scooter", "name": "0146487e8d854174c511382d6236c8a3", "fusion_lon": 0.0, "bike_id": "0146487e8d854174c511382d6236c8a3", "is_reserved": 0, "rental_uris": {"android": "https://dc.lft.to/lastmile_qr_scan", "ios": "https://dc.lft.to/lastmile_qr_scan"}, "lat": 38.90369366666667, "is_disabled": 0, "lon": -77.0433615}, {"fusion_lat": 0.0, "type": "electric_scooter", "name": "10c6f1a7e51486ee76bafb64187a7401", "fusion_lon": 0.0, "bike_id": "10c6f1a7e51486ee76bafb64187a7401", "is_reserved": 0, "rental_uris": {"android": "https://dc.lft.to/lastmile_qr_scan", "ios": "https://dc.lft.to/lastmile_qr_scan"}, "lat": 38.924566, "is_disabled": 0, "lon": -77.05751783333334}, {"fusion_lat": 0.0, "type": "electric_scooter", "name": "60023826b5ac50615958db722388a710", "fusion_lon": 0.0, "bike_id": "60023826b5ac50615958db722388a710", "is_reserved": 0, "rental_uris": {"android": "https://dc.lft.to/lastmile_qr_scan", "ios": "https://dc.lft.to/lastmile_qr_scan"}, "lat": 38.910441666666664, "is_disabled": 0, "lon": -77.04099133333334}, {"fusion_lat": 0.0, "type": "electric_scooter", "name": "962292e969bc7d799e348459e87558d7", "fusion_lon": 0.0, "bike_id": "962292e969bc7d799e348459e87558d7", "is_reserved": 0, "rental_uris": {"android": "https://dc.lft.to/lastmile_qr_scan", "ios": "https://dc.lft.to/lastmile_qr_scan"}, "lat": 38.935946333333334, "is_disabled": 0, "lon": -77.05847483333334}, {"fusion_lat": 0.0, "type": "electric_scooter", "name": "59a382438afa609c2c2b4aa12a828398", "fusion_lon": 0.0, "bike_id": "59a382438afa609c2c2b4aa12a828398", "is_reserved": 0, "rental_uris": {"android": "https://dc.lft.to/lastmile_qr_scan", "ios": "https://dc.lft.to/lastmile_qr_scan"}, "lat": 38.91186316666667, "is_disabled": 0, "lon": -77.0381105}, {"fusion_lat": 0.0, "type": "electric_scooter", "name": "3004eb8ef9dfaacb00598c86fba0e9ae", "fusion_lon": 0.0, "bike_id": "3004eb8ef9dfaacb00598c86fba0e9ae", "is_reserved": 0, "rental_uris": {"android": "https://dc.lft.to/lastmile_qr_scan", "ios": "https://dc.lft.to/lastmile_qr_scan"}, "lat": 38.92104466666667, "is_disabled": 0, "lon": -77.03250266666667}, {"fusion_lat": 0.0, "type": "electric_bike", "name": "9b2efdf096a2b67d64b60d93a2f24676", "fusion_lon": 0.0, "bike_id": "9b2efdf096a2b67d64b60d93a2f24676", "is_reserved": 0, "rental_uris": {"android": "https://dc.lft.to/lastmile_qr_scan", "ios": "https://dc.lft.to/lastmile_qr_scan"}, "lat": 38.947831666666666, "is_disabled": 0, "lon": -76.97212766666667}, {"fusion_lat": 0.0, "type": "electric_scooter", "name": "01c46a28653304ee6f630283fd846a1c", "fusion_lon": 0.0, "bike_id": "01c46a28653304ee6f630283fd846a1c", "is_reserved": 0, "rental_uris": {"android": "https://dc.lft.to/lastmile_qr_scan", "ios": "https://dc.lft.to/lastmile_qr_scan"}, "lat": 38.88708716666667, "is_disabled": 0, "lon": -77.0136525}, {"fusion_lat": 0.0, "type": "electric_bike", "name": "b8f42e6a43794155297469cc3d665c4c", "fusion_lon": 0.0, "bike_id": "b8f42e6a43794155297469cc3d665c4c", "is_reserved": 0, "rental_uris": {"android": "https://dc.lft.to/lastmile_qr_scan", "ios": "https://dc.lft.to/lastmile_qr_scan"}, "lat": 39.0243585, "is_disabled": 0, "lon": -77.13101066666667}, {"fusion_lat": 0.0, "type": "electric_scooter", "name": "af10ccb0d5a784e70171dbcf11afb51f", "fusion_lon": 0.0, "bike_id": "af10ccb0d5a784e70171dbcf11afb51f", "is_reserved": 0, "rental_uris": {"android": "https://dc.lft.to/lastmile_qr_scan", "ios": "https://dc.lft.to/lastmile_qr_scan"}, "lat": 38.903852, "is_disabled": 0, "lon": -77.04485783333334}, {"fusion_lat": 0.0, "type": "electric_scooter", "name": "bb09f3d3d6a25d48a42ffdf65728af80", "fusion_lon": 0.0, "bike_id": "bb09f3d3d6a25d48a42ffdf65728af80", "is_reserved": 0, "rental_uris": {"android": "https://dc.lft.to/lastmile_qr_scan", "ios": "https://dc.lft.to/lastmile_qr_scan"}, "lat": 38.8832185, "is_disabled": 0, "lon": -77.01742816666666}, {"fusion_lat": 0.0, "type": "electric_scooter", "name": "23886b059628fa0453c6103608173d7d", "fusion_lon": 0.0, "bike_id": "23886b059628fa0453c6103608173d7d", "is_reserved": 0, "rental_uris": {"android": "https://dc.lft.to/lastmile_qr_scan", "ios": "https://dc.lft.to/lastmile_qr_scan"}, "lat": 38.91052616666666, "is_disabled": 0, "lon": -77.04342116666666}, {"fusion_lat": 0.0, "type": "electric_scooter", "name": "92f332f5c51d8c500a40b7358c2664fe", "fusion_lon": 0.0, "bike_id": "92f332f5c51d8c500a40b7358c2664fe", "is_reserved": 0, "rental_uris": {"android": "https://dc.lft.to/lastmile_qr_scan", "ios": "https://dc.lft.to/lastmile_qr_scan"}, "lat": 38.922345166666666, "is_disabled": 0, "lon": -77.02335066666667}, {"fusion_lat": 0.0, "type": "electric_scooter", "name": "d834a90f44b24e858f4ff597ca675be5", "fusion_lon": 0.0, "bike_id": "d834a90f44b24e858f4ff597ca675be5", "is_reserved": 0, "rental_uris": {"android": "https://dc.lft.to/lastmile_qr_scan", "ios": "https://dc.lft.to/lastmile_qr_scan"}, "lat": 38.86234066666667, "is_disabled": 0, "lon": -76.99489516666667}, {"fusion_lat": 0.0, "type": "electric_scooter", "name": "76db4e23da8b5c5c200555c3e0347afb", "fusion_lon": 0.0, "bike_id": "76db4e23da8b5c5c200555c3e0347afb", "is_reserved": 0, "rental_uris": {"android": "https://dc.lft.to/lastmile_qr_scan", "ios": "https://dc.lft.to/lastmile_qr_scan"}, "lat": 38.928808833333335, "is_disabled": 0, "lon": -77.01359}, {"fusion_lat": 0.0, "type": "electric_scooter", "name": "3466036bd06e573a7846408fe300a058", "fusion_lon": 0.0, "bike_id": "3466036bd06e573a7846408fe300a058", "is_reserved": 0, "rental_uris": {"android": "https://dc.lft.to/lastmile_qr_scan", "ios": "https://dc.lft.to/lastmile_qr_scan"}, "lat": 38.91544233333333, "is_disabled": 0, "lon": -77.01220583333334}, {"fusion_lat": 0.0, "type": "electric_scooter", "name": "669e56684d4a625ab726447ce4289580", "fusion_lon": 0.0, "bike_id": "669e56684d4a625ab726447ce4289580", "is_reserved": 0, "rental_uris": {"android": "https://dc.lft.to/lastmile_qr_scan", "ios": "https://dc.lft.to/lastmile_qr_scan"}, "lat": 38.91545166666667, "is_disabled": 0, "lon": -77.01227716666666}, {"fusion_lat": 0.0, "type": "electric_scooter", "name": "f34894c6d8722af0944daedaab0ea0e4", "fusion_lon": 0.0, "bike_id": "f34894c6d8722af0944daedaab0ea0e4", "is_reserved": 0, "rental_uris": {"android": "https://dc.lft.to/lastmile_qr_scan", "ios": "https://dc.lft.to/lastmile_qr_scan"}, "lat": 38.90657616666667, "is_disabled": 0, "lon": -77.048659}, {"fusion_lat": 0.0, "type": "electric_scooter", "name": "f443957f1c904ee94057dcf13b0bdc15", "fusion_lon": 0.0, "bike_id": "f443957f1c904ee94057dcf13b0bdc15", "is_reserved": 0, "rental_uris": {"android": "https://dc.lft.to/lastmile_qr_scan", "ios": "https://dc.lft.to/lastmile_qr_scan"}, "lat": 38.89735, "is_disabled": 0, "lon": -77.02693483333333}, {"fusion_lat": 0.0, "type": "electric_scooter", "name": "78fab3c11ffb61916dff16add8d47b8f", "fusion_lon": 0.0, "bike_id": "78fab3c11ffb61916dff16add8d47b8f", "is_reserved": 0, "rental_uris": {"android": "https://dc.lft.to/lastmile_qr_scan", "ios": "https://dc.lft.to/lastmile_qr_scan"}, "lat": 38.88047, "is_disabled": 0, "lon": -76.93214883333333}, {"fusion_lat": 0.0, "type": "electric_scooter", "name": "bba23675d037a5058a2a95fca647d6d9", "fusion_lon": 0.0, "bike_id": "bba23675d037a5058a2a95fca647d6d9", "is_reserved": 0, "rental_uris": {"android": "https://dc.lft.to/lastmile_qr_scan", "ios": "https://dc.lft.to/lastmile_qr_scan"}, "lat": 38.86260166666667, "is_disabled": 0, "lon": -76.99608716666667}, {"fusion_lat": 0.0, "type": "electric_scooter", "name": "c2fcafe715c17fa3bba55bd834fb4db6", "fusion_lon": 0.0, "bike_id": "c2fcafe715c17fa3bba55bd834fb4db6", "is_reserved": 0, "rental_uris": {"android": "https://dc.lft.to/lastmile_qr_scan", "ios": "https://dc.lft.to/lastmile_qr_scan"}, "lat": 38.8947225, "is_disabled": 0, "lon": -77.0172665}, {"fusion_lat": 0.0, "type": "electric_scooter", "name": "9637cba9d1afa71b5ebcc4cc937b548c", "fusion_lon": 0.0, "bike_id": "9637cba9d1afa71b5ebcc4cc937b548c", "is_reserved": 0, "rental_uris": {"android": "https://dc.lft.to/lastmile_qr_scan", "ios": "https://dc.lft.to/lastmile_qr_scan"}, "lat": 38.906855666666665, "is_disabled": 0, "lon": -77.03771716666667}, {"fusion_lat": 0.0, "type": "electric_scooter", "name": "0394b932d6280cf789ada341965b4ce9", "fusion_lon": 0.0, "bike_id": "0394b932d6280cf789ada341965b4ce9", "is_reserved": 0, "rental_uris": {"android": "https://dc.lft.to/lastmile_qr_scan", "ios": "https://dc.lft.to/lastmile_qr_scan"}, "lat": 38.90865616666667, "is_disabled": 0, "lon": -77.0709735}, {"fusion_lat": 0.0, "type": "electric_scooter", "name": "361408170c1b2c0ea9bc8c52a9563edf", "fusion_lon": 0.0, "bike_id": "361408170c1b2c0ea9bc8c52a9563edf", "is_reserved": 0, "rental_uris": {"android": "https://dc.lft.to/lastmile_qr_scan", "ios": "https://dc.lft.to/lastmile_qr_scan"}, "lat": 38.9217825, "is_disabled": 0, "lon": -77.02672983333333}, {"fusion_lat": 0.0, "type": "electric_scooter", "name": "361e76e143bdcec30cfb0fac5a969db8", "fusion_lon": 0.0, "bike_id": "361e76e143bdcec30cfb0fac5a969db8", "is_reserved": 0, "rental_uris": {"android": "https://dc.lft.to/lastmile_qr_scan", "ios": "https://dc.lft.to/lastmile_qr_scan"}, "lat": 38.896295, "is_disabled": 0, "lon": -77.02412316666667}, {"fusion_lat": 0.0, "type": "electric_scooter", "name": "6edc30617a66864694ea3b863f4f3555", "fusion_lon": 0.0, "bike_id": "6edc30617a66864694ea3b863f4f3555", "is_reserved": 0, "rental_uris": {"android": "https://dc.lft.to/lastmile_qr_scan", "ios": "https://dc.lft.to/lastmile_qr_scan"}, "lat": 38.912439166666665, "is_disabled": 0, "lon": -77.00917083333333}, {"fusion_lat": 0.0, "type": "electric_scooter", "name": "577a746e3d84af1d2e89ffe189537cb0", "fusion_lon": 0.0, "bike_id": "577a746e3d84af1d2e89ffe189537cb0", "is_reserved": 0, "rental_uris": {"android": "https://dc.lft.to/lastmile_qr_scan", "ios": "https://dc.lft.to/lastmile_qr_scan"}, "lat": 38.943939666666665, "is_disabled": 0, "lon": -77.02681166666666}, {"fusion_lat": 0.0, "type": "electric_bike", "name": "7f6bc773733fd64fdce99418f2744fee", "fusion_lon": 0.0, "bike_id": "7f6bc773733fd64fdce99418f2744fee", "is_reserved": 0, "rental_uris": {"android": "https://dc.lft.to/lastmile_qr_scan", "ios": "https://dc.lft.to/lastmile_qr_scan"}, "lat": 38.89615883333333, "is_disabled": 0, "lon": -76.90743433333333}, {"fusion_lat": 0.0, "type": "electric_scooter", "name": "c29d21a26ada0c2d33f9402881b5c48a", "fusion_lon": 0.0, "bike_id": "c29d21a26ada0c2d33f9402881b5c48a", "is_reserved": 0, "rental_uris": {"android": "https://dc.lft.to/lastmile_qr_scan", "ios": "https://dc.lft.to/lastmile_qr_scan"}, "lat": 38.912594666666664, "is_disabled": 0, "lon": -77.02685433333333}, {"fusion_lat": 0.0, "type": "electric_scooter", "name": "b539234a9f3794c45f90d94f982baeb5", "fusion_lon": 0.0, "bike_id": "b539234a9f3794c45f90d94f982baeb5", "is_reserved": 0, "rental_uris": {"android": "https://dc.lft.to/lastmile_qr_scan", "ios": "https://dc.lft.to/lastmile_qr_scan"}, "lat": 38.90383683333334, "is_disabled": 0, "lon": -77.030083}, {"fusion_lat": 0.0, "type": "electric_scooter", "name": "ddad6e29f1682570f29128e76c5f5b48", "fusion_lon": 0.0, "bike_id": "ddad6e29f1682570f29128e76c5f5b48", "is_reserved": 0, "rental_uris": {"android": "https://dc.lft.to/lastmile_qr_scan", "ios": "https://dc.lft.to/lastmile_qr_scan"}, "lat": 38.92825633333333, "is_disabled": 0, "lon": -77.02255116666667}, {"fusion_lat": 0.0, "type": "electric_scooter", "name": "f27a3906ddc8a99bcf0b67cb119f29cc", "fusion_lon": 0.0, "bike_id": "f27a3906ddc8a99bcf0b67cb119f29cc", "is_reserved": 0, "rental_uris": {"android": "https://dc.lft.to/lastmile_qr_scan", "ios": "https://dc.lft.to/lastmile_qr_scan"}, "lat": 38.896809166666664, "is_disabled": 0, "lon": -76.947708}, {"fusion_lat": 0.0, "type": "electric_scooter", "name": "da695c5c6c68c454d0add194286f888d", "fusion_lon": 0.0, "bike_id": "da695c5c6c68c454d0add194286f888d", "is_reserved": 0, "rental_uris": {"android": "https://dc.lft.to/lastmile_qr_scan", "ios": "https://dc.lft.to/lastmile_qr_scan"}, "lat": 38.89607, "is_disabled": 0, "lon": -77.046028}, {"fusion_lat": 0.0, "type": "electric_scooter", "name": "b37e3dc1cbba3f3527879a287a66676e", "fusion_lon": 0.0, "bike_id": "b37e3dc1cbba3f3527879a287a66676e", "is_reserved": 0, "rental_uris": {"android": "https://dc.lft.to/lastmile_qr_scan", "ios": "https://dc.lft.to/lastmile_qr_scan"}, "lat": 38.866731, "is_disabled": 0, "lon": -76.98533333333333}, {"fusion_lat": 0.0, "type": "electric_scooter", "name": "6bb15cf2d1407c38f9079642e73f55a6", "fusion_lon": 0.0, "bike_id": "6bb15cf2d1407c38f9079642e73f55a6", "is_reserved": 0, "rental_uris": {"android": "https://dc.lft.to/lastmile_qr_scan", "ios": "https://dc.lft.to/lastmile_qr_scan"}, "lat": 38.874710666666665, "is_disabled": 0, "lon": -77.01590216666666}, {"fusion_lat": 0.0, "type": "electric_scooter", "name": "2393acd48bfc77b72b1e8a64f416d114", "fusion_lon": 0.0, "bike_id": "2393acd48bfc77b72b1e8a64f416d114", "is_reserved": 0, "rental_uris": {"android": "https://dc.lft.to/lastmile_qr_scan", "ios": "https://dc.lft.to/lastmile_qr_scan"}, "lat": 38.90380566666666, "is_disabled": 0, "lon": -77.0333745}, {"fusion_lat": 0.0, "type": "electric_scooter", "name": "7471f19583c6937baea0a38026b8bdbe", "fusion_lon": 0.0, "bike_id": "7471f19583c6937baea0a38026b8bdbe", "is_reserved": 0, "rental_uris": {"android": "https://dc.lft.to/lastmile_qr_scan", "ios": "https://dc.lft.to/lastmile_qr_scan"}, "lat": 38.901497666666664, "is_disabled": 0, "lon": -77.0434915}, {"fusion_lat": 0.0, "type": "electric_scooter", "name": "a0749b6783b4657b20e12d6b89f038f5", "fusion_lon": 0.0, "bike_id": "a0749b6783b4657b20e12d6b89f038f5", "is_reserved": 0, "rental_uris": {"android": "https://dc.lft.to/lastmile_qr_scan", "ios": "https://dc.lft.to/lastmile_qr_scan"}, "lat": 38.89895683333334, "is_disabled": 0, "lon": -77.02583983333334}, {"fusion_lat": 0.0, "type": "electric_scooter", "name": "5cff342ec79d541406f887124b88b043", "fusion_lon": 0.0, "bike_id": "5cff342ec79d541406f887124b88b043", "is_reserved": 0, "rental_uris": {"android": "https://dc.lft.to/lastmile_qr_scan", "ios": "https://dc.lft.to/lastmile_qr_scan"}, "lat": 38.892222, "is_disabled": 0, "lon": -77.02217733333333}, {"fusion_lat": 0.0, "type": "electric_scooter", "name": "3ac8da540925ed323e6825196232240c", "fusion_lon": 0.0, "bike_id": "3ac8da540925ed323e6825196232240c", "is_reserved": 0, "rental_uris": {"android": "https://dc.lft.to/lastmile_qr_scan", "ios": "https://dc.lft.to/lastmile_qr_scan"}, "lat": 38.931036, "is_disabled": 0, "lon": -77.03637933333333}, {"fusion_lat": 0.0, "type": "electric_scooter", "name": "d44016d3f9a53581164f7ccbfeaab799", "fusion_lon": 0.0, "bike_id": "d44016d3f9a53581164f7ccbfeaab799", "is_reserved": 0, "rental_uris": {"android": "https://dc.lft.to/lastmile_qr_scan", "ios": "https://dc.lft.to/lastmile_qr_scan"}, "lat": 38.874741, "is_disabled": 0, "lon": -77.0051575}, {"fusion_lat": 0.0, "type": "electric_scooter", "name": "4a6adccc8985385cf8acd2b088e0d66c", "fusion_lon": 0.0, "bike_id": "4a6adccc8985385cf8acd2b088e0d66c", "is_reserved": 0, "rental_uris": {"android": "https://dc.lft.to/lastmile_qr_scan", "ios": "https://dc.lft.to/lastmile_qr_scan"}, "lat": 38.9005475, "is_disabled": 0, "lon": -77.0168925}, {"fusion_lat": 0.0, "type": "electric_scooter", "name": "82257ea52c8a0a8c7601642acdb81f90", "fusion_lon": 0.0, "bike_id": "82257ea52c8a0a8c7601642acdb81f90", "is_reserved": 0, "rental_uris": {"android": "https://dc.lft.to/lastmile_qr_scan", "ios": "https://dc.lft.to/lastmile_qr_scan"}, "lat": 38.921786, "is_disabled": 0, "lon": -77.04225216666667}, {"fusion_lat": 0.0, "type": "electric_scooter", "name": "5dd80f6443d16dd98cb2b20a1d075556", "fusion_lon": 0.0, "bike_id": "5dd80f6443d16dd98cb2b20a1d075556", "is_reserved": 0, "rental_uris": {"android": "https://dc.lft.to/lastmile_qr_scan", "ios": "https://dc.lft.to/lastmile_qr_scan"}, "lat": 38.905751, "is_disabled": 0, "lon": -77.02529683333333}, {"fusion_lat": 0.0, "type": "electric_scooter", "name": "173adcc341a5cd1a779a8077310d7184", "fusion_lon": 0.0, "bike_id": "173adcc341a5cd1a779a8077310d7184", "is_reserved": 0, "rental_uris": {"android": "https://dc.lft.to/lastmile_qr_scan", "ios": "https://dc.lft.to/lastmile_qr_scan"}, "lat": 38.863595, "is_disabled": 0, "lon": -76.990644}, {"fusion_lat": 0.0, "type": "electric_scooter", "name": "32867c6f10ae88951c182ae6d2973ffe", "fusion_lon": 0.0, "bike_id": "32867c6f10ae88951c182ae6d2973ffe", "is_reserved": 0, "rental_uris": {"android": "https://dc.lft.to/lastmile_qr_scan", "ios": "https://dc.lft.to/lastmile_qr_scan"}, "lat": 38.9032045, "is_disabled": 0, "lon": -77.04167683333333}, {"fusion_lat": 0.0, "type": "electric_bike", "name": "8f88a440cd36aa0d9e31b09a0599d4e7", "fusion_lon": 0.0, "bike_id": "8f88a440cd36aa0d9e31b09a0599d4e7", "is_reserved": 0, "rental_uris": {"android": "https://dc.lft.to/lastmile_qr_scan", "ios": "https://dc.lft.to/lastmile_qr_scan"}, "lat": 38.855184666666666, "is_disabled": 0, "lon": -76.9843615}, {"fusion_lat": 0.0, "type": "electric_scooter", "name": "57e48080231824d800f73197265ce193", "fusion_lon": 0.0, "bike_id": "57e48080231824d800f73197265ce193", "is_reserved": 0, "rental_uris": {"android": "https://dc.lft.to/lastmile_qr_scan", "ios": "https://dc.lft.to/lastmile_qr_scan"}, "lat": 38.9111385, "is_disabled": 0, "lon": -77.04263316666666}, {"fusion_lat": 0.0, "type": "electric_scooter", "name": "61911587c4e1fc84c917961055e00c76", "fusion_lon": 0.0, "bike_id": "61911587c4e1fc84c917961055e00c76", "is_reserved": 0, "rental_uris": {"android": "https://dc.lft.to/lastmile_qr_scan", "ios": "https://dc.lft.to/lastmile_qr_scan"}, "lat": 38.90661, "is_disabled": 0, "lon": -77.0388835}, {"fusion_lat": 0.0, "type": "electric_scooter", "name": "b06066905f00f5867e712f4155546ec6", "fusion_lon": 0.0, "bike_id": "b06066905f00f5867e712f4155546ec6", "is_reserved": 0, "rental_uris": {"android": "https://dc.lft.to/lastmile_qr_scan", "ios": "https://dc.lft.to/lastmile_qr_scan"}, "lat": 38.92257333333333, "is_disabled": 0, "lon": -77.07035016666667}, {"fusion_lat": 0.0, "type": "electric_scooter", "name": "5641ab62a260699744471d364e9c9cf6", "fusion_lon": 0.0, "bike_id": "5641ab62a260699744471d364e9c9cf6", "is_reserved": 0, "rental_uris": {"android": "https://dc.lft.to/lastmile_qr_scan", "ios": "https://dc.lft.to/lastmile_qr_scan"}, "lat": 38.887686, "is_disabled": 0, "lon": -77.01771883333333}, {"fusion_lat": 0.0, "type": "electric_scooter", "name": "d2db5311f97087e8501830a184258725", "fusion_lon": 0.0, "bike_id": "d2db5311f97087e8501830a184258725", "is_reserved": 0, "rental_uris": {"android": "https://dc.lft.to/lastmile_qr_scan", "ios": "https://dc.lft.to/lastmile_qr_scan"}, "lat": 38.906669, "is_disabled": 0, "lon": -77.04182583333333}, {"fusion_lat": 0.0, "type": "electric_scooter", "name": "a28367135eb3fe3d79a58110bbe44fb3", "fusion_lon": 0.0, "bike_id": "a28367135eb3fe3d79a58110bbe44fb3", "is_reserved": 0, "rental_uris": {"android": "https://dc.lft.to/lastmile_qr_scan", "ios": "https://dc.lft.to/lastmile_qr_scan"}, "lat": 38.917721666666665, "is_disabled": 0, "lon": -77.0231515}, {"fusion_lat": 0.0, "type": "electric_scooter", "name": "efc2b8d0cc80501bcafc98f11c7ee9e2", "fusion_lon": 0.0, "bike_id": "efc2b8d0cc80501bcafc98f11c7ee9e2", "is_reserved": 0, "rental_uris": {"android": "https://dc.lft.to/lastmile_qr_scan", "ios": "https://dc.lft.to/lastmile_qr_scan"}, "lat": 38.89225016666666, "is_disabled": 0, "lon": -77.04503466666667}, {"fusion_lat": 0.0, "type": "electric_scooter", "name": "19a9402a78f0ca27c12fde0abb0d4173", "fusion_lon": 0.0, "bike_id": "19a9402a78f0ca27c12fde0abb0d4173", "is_reserved": 0, "rental_uris": {"android": "https://dc.lft.to/lastmile_qr_scan", "ios": "https://dc.lft.to/lastmile_qr_scan"}, "lat": 38.872907833333336, "is_disabled": 0, "lon": -76.9772525}, {"fusion_lat": 0.0, "type": "electric_scooter", "name": "99881bf860058b7c2572dd80eec15a4d", "fusion_lon": 0.0, "bike_id": "99881bf860058b7c2572dd80eec15a4d", "is_reserved": 0, "rental_uris": {"android": "https://dc.lft.to/lastmile_qr_scan", "ios": "https://dc.lft.to/lastmile_qr_scan"}, "lat": 38.892243, "is_disabled": 0, "lon": -77.03338216666667}, {"fusion_lat": 0.0, "type": "electric_scooter", "name": "292736c823d8203558ff3a10f5b34f6f", "fusion_lon": 0.0, "bike_id": "292736c823d8203558ff3a10f5b34f6f", "is_reserved": 0, "rental_uris": {"android": "https://dc.lft.to/lastmile_qr_scan", "ios": "https://dc.lft.to/lastmile_qr_scan"}, "lat": 38.90865016666667, "is_disabled": 0, "lon": -77.04860316666667}, {"fusion_lat": 0.0, "type": "electric_scooter", "name": "1a7f94d7fa42deb529005f660b193f08", "fusion_lon": 0.0, "bike_id": "1a7f94d7fa42deb529005f660b193f08", "is_reserved": 0, "rental_uris": {"android": "https://dc.lft.to/lastmile_qr_scan", "ios": "https://dc.lft.to/lastmile_qr_scan"}, "lat": 38.898940833333334, "is_disabled": 0, "lon": -77.03989316666667}, {"fusion_lat": 0.0, "type": "electric_scooter", "name": "cbfbe94d9a0019356e9c9bafb2a9b751", "fusion_lon": 0.0, "bike_id": "cbfbe94d9a0019356e9c9bafb2a9b751", "is_reserved": 0, "rental_uris": {"android": "https://dc.lft.to/lastmile_qr_scan", "ios": "https://dc.lft.to/lastmile_qr_scan"}, "lat": 38.90199716666667, "is_disabled": 0, "lon": -77.04166733333334}, {"fusion_lat": 0.0, "type": "electric_bike", "name": "5896f3fd4359847ce81ef7444dc432d4", "fusion_lon": 0.0, "bike_id": "5896f3fd4359847ce81ef7444dc432d4", "is_reserved": 0, "rental_uris": {"android": "https://dc.lft.to/lastmile_qr_scan", "ios": "https://dc.lft.to/lastmile_qr_scan"}, "lat": 38.827869, "is_disabled": 0, "lon": -77.0091555}, {"fusion_lat": 0.0, "type": "electric_scooter", "name": "2474b743b6ea5ceb20fb1e3a3f223927", "fusion_lon": 0.0, "bike_id": "2474b743b6ea5ceb20fb1e3a3f223927", "is_reserved": 0, "rental_uris": {"android": "https://dc.lft.to/lastmile_qr_scan", "ios": "https://dc.lft.to/lastmile_qr_scan"}, "lat": 38.92801583333333, "is_disabled": 0, "lon": -77.0435155}, {"fusion_lat": 0.0, "type": "electric_scooter", "name": "473e3bab1ebd9924e32d333b9cacffa1", "fusion_lon": 0.0, "bike_id": "473e3bab1ebd9924e32d333b9cacffa1", "is_reserved": 0, "rental_uris": {"android": "https://dc.lft.to/lastmile_qr_scan", "ios": "https://dc.lft.to/lastmile_qr_scan"}, "lat": 38.89956333333333, "is_disabled": 0, "lon": -77.00359766666666}, {"fusion_lat": 0.0, "type": "electric_scooter", "name": "6b77f40707a9ac6a01e5b3fe9a762c40", "fusion_lon": 0.0, "bike_id": "6b77f40707a9ac6a01e5b3fe9a762c40", "is_reserved": 0, "rental_uris": {"android": "https://dc.lft.to/lastmile_qr_scan", "ios": "https://dc.lft.to/lastmile_qr_scan"}, "lat": 38.9056565, "is_disabled": 0, "lon": -76.98382133333334}, {"fusion_lat": 0.0, "type": "electric_scooter", "name": "93c6deaefebc5574b1d2fd38c68147b4", "fusion_lon": 0.0, "bike_id": "93c6deaefebc5574b1d2fd38c68147b4", "is_reserved": 0, "rental_uris": {"android": "https://dc.lft.to/lastmile_qr_scan", "ios": "https://dc.lft.to/lastmile_qr_scan"}, "lat": 38.8850195, "is_disabled": 0, "lon": -77.01582566666667}, {"fusion_lat": 0.0, "type": "electric_scooter", "name": "09fbd614328e4723c44ba3939cd89a00", "fusion_lon": 0.0, "bike_id": "09fbd614328e4723c44ba3939cd89a00", "is_reserved": 0, "rental_uris": {"android": "https://dc.lft.to/lastmile_qr_scan", "ios": "https://dc.lft.to/lastmile_qr_scan"}, "lat": 38.91406516666667, "is_disabled": 0, "lon": -77.03217033333334}, {"fusion_lat": 0.0, "type": "electric_scooter", "name": "1a95dc3eface39a6e00576952edce756", "fusion_lon": 0.0, "bike_id": "1a95dc3eface39a6e00576952edce756", "is_reserved": 0, "rental_uris": {"android": "https://dc.lft.to/lastmile_qr_scan", "ios": "https://dc.lft.to/lastmile_qr_scan"}, "lat": 38.89890483333333, "is_disabled": 0, "lon": -77.01212233333334}, {"fusion_lat": 0.0, "type": "electric_scooter", "name": "ecca733e9e9e30980a02928badb10a57", "fusion_lon": 0.0, "bike_id": "ecca733e9e9e30980a02928badb10a57", "is_reserved": 0, "rental_uris": {"android": "https://dc.lft.to/lastmile_qr_scan", "ios": "https://dc.lft.to/lastmile_qr_scan"}, "lat": 38.92368716666667, "is_disabled": 0, "lon": -77.05051216666666}, {"fusion_lat": 0.0, "type": "electric_scooter", "name": "b9e711e7d41153fa6e41d6b23b941f17", "fusion_lon": 0.0, "bike_id": "b9e711e7d41153fa6e41d6b23b941f17", "is_reserved": 0, "rental_uris": {"android": "https://dc.lft.to/lastmile_qr_scan", "ios": "https://dc.lft.to/lastmile_qr_scan"}, "lat": 38.88308716666667, "is_disabled": 0, "lon": -76.97866083333334}, {"fusion_lat": 0.0, "type": "electric_scooter", "name": "907711235de6dfffb774cb7274d59de8", "fusion_lon": 0.0, "bike_id": "907711235de6dfffb774cb7274d59de8", "is_reserved": 0, "rental_uris": {"android": "https://dc.lft.to/lastmile_qr_scan", "ios": "https://dc.lft.to/lastmile_qr_scan"}, "lat": 38.89919866666666, "is_disabled": 0, "lon": -76.93385266666667}, {"fusion_lat": 0.0, "type": "electric_scooter", "name": "a16568293a17b823ccaf03d4302f0955", "fusion_lon": 0.0, "bike_id": "a16568293a17b823ccaf03d4302f0955", "is_reserved": 0, "rental_uris": {"android": "https://dc.lft.to/lastmile_qr_scan", "ios": "https://dc.lft.to/lastmile_qr_scan"}, "lat": 38.90641566666667, "is_disabled": 0, "lon": -77.0479595}, {"fusion_lat": 0.0, "type": "electric_scooter", "name": "a75b6ba6f723fa1bd986df36336e0eba", "fusion_lon": 0.0, "bike_id": "a75b6ba6f723fa1bd986df36336e0eba", "is_reserved": 0, "rental_uris": {"android": "https://dc.lft.to/lastmile_qr_scan", "ios": "https://dc.lft.to/lastmile_qr_scan"}, "lat": 38.915594, "is_disabled": 0, "lon": -77.031271}, {"fusion_lat": 0.0, "type": "electric_scooter", "name": "cb31067e18e5b70ada7a32a45007aece", "fusion_lon": 0.0, "bike_id": "cb31067e18e5b70ada7a32a45007aece", "is_reserved": 0, "rental_uris": {"android": "https://dc.lft.to/lastmile_qr_scan", "ios": "https://dc.lft.to/lastmile_qr_scan"}, "lat": 38.93986433333333, "is_disabled": 0, "lon": -77.02978566666667}, {"fusion_lat": 0.0, "type": "electric_scooter", "name": "3f6f5d502eaf2c0c2a6260ea33b82826", "fusion_lon": 0.0, "bike_id": "3f6f5d502eaf2c0c2a6260ea33b82826", "is_reserved": 0, "rental_uris": {"android": "https://dc.lft.to/lastmile_qr_scan", "ios": "https://dc.lft.to/lastmile_qr_scan"}, "lat": 38.9217245, "is_disabled": 0, "lon": -77.03831233333334}, {"fusion_lat": 0.0, "type": "electric_scooter", "name": "b9edb71f9cfff7ffc01b4e700422d2fd", "fusion_lon": 0.0, "bike_id": "b9edb71f9cfff7ffc01b4e700422d2fd", "is_reserved": 0, "rental_uris": {"android": "https://dc.lft.to/lastmile_qr_scan", "ios": "https://dc.lft.to/lastmile_qr_scan"}, "lat": 38.899196333333336, "is_disabled": 0, "lon": -76.93384083333333}, {"fusion_lat": 0.0, "type": "electric_scooter", "name": "a5feb967bd2d9c1b680d3bc238baa38c", "fusion_lon": 0.0, "bike_id": "a5feb967bd2d9c1b680d3bc238baa38c", "is_reserved": 0, "rental_uris": {"android": "https://dc.lft.to/lastmile_qr_scan", "ios": "https://dc.lft.to/lastmile_qr_scan"}, "lat": 38.892228833333334, "is_disabled": 0, "lon": -77.02349933333333}, {"fusion_lat": 0.0, "type": "electric_scooter", "name": "dc4930db7ee2f6c58cd592b3fbd64575", "fusion_lon": 0.0, "bike_id": "dc4930db7ee2f6c58cd592b3fbd64575", "is_reserved": 0, "rental_uris": {"android": "https://dc.lft.to/lastmile_qr_scan", "ios": "https://dc.lft.to/lastmile_qr_scan"}, "lat": 38.904261166666664, "is_disabled": 0, "lon": -77.05317516666666}, {"fusion_lat": 0.0, "type": "electric_bike", "name": "82d96c8277cee3c124ef7554dd61278d", "fusion_lon": 0.0, "bike_id": "82d96c8277cee3c124ef7554dd61278d", "is_reserved": 0, "rental_uris": {"android": "https://dc.lft.to/lastmile_qr_scan", "ios": "https://dc.lft.to/lastmile_qr_scan"}, "lat": 39.06296483333333, "is_disabled": 0, "lon": -77.04979966666667}, {"fusion_lat": 0.0, "type": "electric_scooter", "name": "f451be552a5ebf8c5855410ecb7bffcf", "fusion_lon": 0.0, "bike_id": "f451be552a5ebf8c5855410ecb7bffcf", "is_reserved": 0, "rental_uris": {"android": "https://dc.lft.to/lastmile_qr_scan", "ios": "https://dc.lft.to/lastmile_qr_scan"}, "lat": 38.8925, "is_disabled": 0, "lon": -77.04662}, {"fusion_lat": 0.0, "type": "electric_scooter", "name": "a56809600be151c2776797dbca9216da", "fusion_lon": 0.0, "bike_id": "a56809600be151c2776797dbca9216da", "is_reserved": 0, "rental_uris": {"android": "https://dc.lft.to/lastmile_qr_scan", "ios": "https://dc.lft.to/lastmile_qr_scan"}, "lat": 38.92406966666667, "is_disabled": 0, "lon": -77.05165716666667}, {"fusion_lat": 0.0, "type": "electric_scooter", "name": "752332c06340d1885fd633ccff98a3c3", "fusion_lon": 0.0, "bike_id": "752332c06340d1885fd633ccff98a3c3", "is_reserved": 0, "rental_uris": {"android": "https://dc.lft.to/lastmile_qr_scan", "ios": "https://dc.lft.to/lastmile_qr_scan"}, "lat": 38.90357133333333, "is_disabled": 0, "lon": -77.027981}, {"fusion_lat": 0.0, "type": "electric_scooter", "name": "be9b8b1b4a8faa339d3ffce2c9b8f789", "fusion_lon": 0.0, "bike_id": "be9b8b1b4a8faa339d3ffce2c9b8f789", "is_reserved": 0, "rental_uris": {"android": "https://dc.lft.to/lastmile_qr_scan", "ios": "https://dc.lft.to/lastmile_qr_scan"}, "lat": 38.9233665, "is_disabled": 0, "lon": -77.0390705}, {"fusion_lat": 0.0, "type": "electric_scooter", "name": "a8632cc0de51e0fc5e0a29a3f4d3fdd5", "fusion_lon": 0.0, "bike_id": "a8632cc0de51e0fc5e0a29a3f4d3fdd5", "is_reserved": 0, "rental_uris": {"android": "https://dc.lft.to/lastmile_qr_scan", "ios": "https://dc.lft.to/lastmile_qr_scan"}, "lat": 38.9072735, "is_disabled": 0, "lon": -77.04234083333333}, {"fusion_lat": 0.0, "type": "electric_scooter", "name": "10a21da5536ec6ac3c5c612d46df2b54", "fusion_lon": 0.0, "bike_id": "10a21da5536ec6ac3c5c612d46df2b54", "is_reserved": 0, "rental_uris": {"android": "https://dc.lft.to/lastmile_qr_scan", "ios": "https://dc.lft.to/lastmile_qr_scan"}, "lat": 38.9252305, "is_disabled": 0, "lon": -77.05040233333334}, {"fusion_lat": 0.0, "type": "electric_scooter", "name": "72e49cf8561bf52cb36a6d5ef3f05af7", "fusion_lon": 0.0, "bike_id": "72e49cf8561bf52cb36a6d5ef3f05af7", "is_reserved": 0, "rental_uris": {"android": "https://dc.lft.to/lastmile_qr_scan", "ios": "https://dc.lft.to/lastmile_qr_scan"}, "lat": 38.91902616666667, "is_disabled": 0, "lon": -77.02185083333333}, {"fusion_lat": 0.0, "type": "electric_scooter", "name": "68050f470cdc732c465c3157a8f5a312", "fusion_lon": 0.0, "bike_id": "68050f470cdc732c465c3157a8f5a312", "is_reserved": 0, "rental_uris": {"android": "https://dc.lft.to/lastmile_qr_scan", "ios": "https://dc.lft.to/lastmile_qr_scan"}, "lat": 38.909951, "is_disabled": 0, "lon": -77.03400383333333}, {"fusion_lat": 0.0, "type": "electric_scooter", "name": "0b84991d47e2a6642936f00c134cf465", "fusion_lon": 0.0, "bike_id": "0b84991d47e2a6642936f00c134cf465", "is_reserved": 0, "rental_uris": {"android": "https://dc.lft.to/lastmile_qr_scan", "ios": "https://dc.lft.to/lastmile_qr_scan"}, "lat": 38.9028005, "is_disabled": 0, "lon": -77.0344775}, {"fusion_lat": 0.0, "type": "electric_scooter", "name": "ecee769a4ecbee97b2bcbd5c989ec982", "fusion_lon": 0.0, "bike_id": "ecee769a4ecbee97b2bcbd5c989ec982", "is_reserved": 0, "rental_uris": {"android": "https://dc.lft.to/lastmile_qr_scan", "ios": "https://dc.lft.to/lastmile_qr_scan"}, "lat": 38.892407166666665, "is_disabled": 0, "lon": -77.04161666666667}, {"fusion_lat": 0.0, "type": "electric_scooter", "name": "05387e5e16c637469a3878e07fd917d6", "fusion_lon": 0.0, "bike_id": "05387e5e16c637469a3878e07fd917d6", "is_reserved": 0, "rental_uris": {"android": "https://dc.lft.to/lastmile_qr_scan", "ios": "https://dc.lft.to/lastmile_qr_scan"}, "lat": 38.8518095, "is_disabled": 0, "lon": -76.99579683333333}, {"fusion_lat": 0.0, "type": "electric_scooter", "name": "b67b7559a10cafbb15f135d97f64e3e3", "fusion_lon": 0.0, "bike_id": "b67b7559a10cafbb15f135d97f64e3e3", "is_reserved": 0, "rental_uris": {"android": "https://dc.lft.to/lastmile_qr_scan", "ios": "https://dc.lft.to/lastmile_qr_scan"}, "lat": 38.91813766666667, "is_disabled": 0, "lon": -77.03379583333333}, {"fusion_lat": 0.0, "type": "electric_scooter", "name": "dc932b37fe38f96cd2cd4c0916100086", "fusion_lon": 0.0, "bike_id": "dc932b37fe38f96cd2cd4c0916100086", "is_reserved": 0, "rental_uris": {"android": "https://dc.lft.to/lastmile_qr_scan", "ios": "https://dc.lft.to/lastmile_qr_scan"}, "lat": 38.900917666666665, "is_disabled": 0, "lon": -76.93872266666666}, {"fusion_lat": 0.0, "type": "electric_scooter", "name": "9228fc7c4417919dd257b65b30db9771", "fusion_lon": 0.0, "bike_id": "9228fc7c4417919dd257b65b30db9771", "is_reserved": 0, "rental_uris": {"android": "https://dc.lft.to/lastmile_qr_scan", "ios": "https://dc.lft.to/lastmile_qr_scan"}, "lat": 38.89908, "is_disabled": 0, "lon": -77.03982166666667}, {"fusion_lat": 0.0, "type": "electric_scooter", "name": "c5f427a9d498b25ccf105dbef16c038d", "fusion_lon": 0.0, "bike_id": "c5f427a9d498b25ccf105dbef16c038d", "is_reserved": 0, "rental_uris": {"android": "https://dc.lft.to/lastmile_qr_scan", "ios": "https://dc.lft.to/lastmile_qr_scan"}, "lat": 38.91403716666667, "is_disabled": 0, "lon": -77.0454945}, {"fusion_lat": 0.0, "type": "electric_scooter", "name": "b8c0e63acff0420b8a8e12aa92816086", "fusion_lon": 0.0, "bike_id": "b8c0e63acff0420b8a8e12aa92816086", "is_reserved": 0, "rental_uris": {"android": "https://dc.lft.to/lastmile_qr_scan", "ios": "https://dc.lft.to/lastmile_qr_scan"}, "lat": 38.905034666666666, "is_disabled": 0, "lon": -77.04670016666667},