{"data": {"bikes": [{"lat": 38.90954833333333, "is_disabled": 0, "type": "electric_scooter", "lon": -77.04657133333333, "bike_id": "89ff503351255081b554afbcb15537bf", "fusion_lat": 0.0, "name": "89ff503351255081b554afbcb15537bf", "is_reserved": 0, "rental_uris": {"android": "https://dc.lft.to/lastmile_qr_scan", "ios": "https://dc.lft.to/lastmile_qr_scan"}, "fusion_lon": 0.0}, {"lat": 38.916345666666665, "is_disabled": 0, "type": "electric_scooter", "lon": -77.02693866666667, "bike_id": "2e772f699e50a4e8a0e50bf4829774ba", "fusion_lat": 0.0, "name": "2e772f699e50a4e8a0e50bf4829774ba", "is_reserved": 0, "rental_uris": {"android": "https://dc.lft.to/lastmile_qr_scan", "ios": "https://dc.lft.to/lastmile_qr_scan"}, "fusion_lon": 0.0}, {"lat": 38.8952635, "is_disabled": 0, "type": "electric_scooter", "lon": -77.00060983333333, "bike_id": "4ba5905929b9d089b62468dea524a21f", "fusion_lat": 0.0, "name": "4ba5905929b9d089b62468dea524a21f", "is_reserved": 0, "rental_uris": {"android": "https://dc.lft.to/lastmile_qr_scan", "ios": "https://dc.lft.to/lastmile_qr_scan"}, "fusion_lon": 0.0}, {"lat": 38.900181833333335, "is_disabled": 0, "type": "electric_scooter", "lon": -77.033163, "bike_id": "6418e56a3e338a394cb1ebe1c306db47", "fusion_lat": 0.0, "name": "6418e56a3e338a394cb1ebe1c306db47", "is_reserved": 0, "rental_uris": {"android": "https://dc.lft.to/lastmile_qr_scan", "ios": "https://dc.lft.to/lastmile_qr_scan"}, "fusion_lon": 0.0}, {"lat": 38.950540833333335, "is_disabled": 0, "type": "electric_scooter", "lon": -77.00722, "bike_id": "e8075ec1a934ef6fed66fb69aff3dbbc", "fusion_lat": 0.0, "name": "e8075ec1a934ef6fed66fb69aff3dbbc", "is_reserved": 0, "rental_uris": {"android": "https://dc.lft.to/lastmile_qr_scan", "ios": "https://dc.lft.to/lastmile_qr_scan"}, "fusion_lon": 0.0}, {"lat": 38.9483275, "is_disabled": 0, "type": "electric_scooter", "lon": -77.02577416666666, "bike_id": "d72260dfd2285ddba0292ebcf07d7545", "fusion_lat": 0.0, "name": "d72260dfd2285ddba0292ebcf07d7545", "is_reserved": 0, "rental_uris": {"android": "https://dc.lft.to/lastmile_qr_scan", "ios": "https://dc.lft.to/lastmile_qr_scan"}, "fusion_lon": 0.0}, {"lat": 38.90280816666667, "is_disabled": 0, "type": "electric_scooter", "lon": -77.01162316666667, "bike_id": "0f58f9cbb9514f5ad50054cfc404e6d9", "fusion_lat": 0.0, "name": "0f58f9cbb9514f5ad50054cfc404e6d9", "is_reserved": 0, "rental_uris": {"android": "https://dc.lft.to/lastmile_qr_scan", "ios": "https://dc.lft.to/lastmile_qr_scan"}, "fusion_lon": 0.0}, {"lat": 38.86363033333333, "is_disabled": 0, "type": "electric_scooter", "lon": -76.99030233333333, "bike_id": "a6deea1c7358c3cebd48cca9122dacbe", "fusion_lat": 0.0, "name": "a6deea1c7358c3cebd48cca9122dacbe", "is_reserved": 0, "rental_uris": {"android": "https://dc.lft.to/lastmile_qr_scan", "ios": "https://dc.lft.to/lastmile_qr_scan"}, "fusion_lon": 0.0}, {"lat": 38.9449745, "is_disabled": 0, "type": "electric_bike", "lon": -77.00677916666666, "bike_id": "f0b6855d385dd00e2e7d41f68fb5f49a", "fusion_lat": 0.0, "name": "f0b6855d385dd00e2e7d41f68fb5f49a", "is_reserved": 0, "rental_uris": {"android": "https://dc.lft.to/lastmile_qr_scan", "ios": "https://dc.lft.to/lastmile_qr_scan"}, "fusion_lon": 0.0}, {"lat": 38.966238, "is_disabled": 0, "type": "electric_bike", "lon": -76.9766575, "bike_id": "3f8e4ddfa51e10fddb32b79803fff9ae", "fusion_lat": 0.0, "name": "3f8e4ddfa51e10fddb32b79803fff9ae", "is_reserved": 0, "rental_uris": {"android": "https://dc.lft.to/lastmile_qr_scan", "ios": "https://dc.lft.to/lastmile_qr_scan"}, "fusion_lon": 0.0}, {"lat": 38.9100315, "is_disabled": 0, "type": "electric_scooter", "lon": -77.04008683333333, "bike_id": "084456815ba69adfdf78370f8b0ccced", "fusion_lat": 0.0, "name": "084456815ba69adfdf78370f8b0ccced", "is_reserved": 0, "rental_uris": {"android": "https://dc.lft.to/lastmile_qr_scan", "ios": "https://dc.lft.to/lastmile_qr_scan"}, "fusion_lon": 0.0}, {"lat": 38.927824666666666, "is_disabled": 0, "type": "electric_scooter", "lon": -77.02681983333333, "bike_id": "9c671ea9e2f69a6b7283c8b4da499024", "fusion_lat": 0.0, "name": "9c671ea9e2f69a6b7283c8b4da499024", "is_reserved": 0, "rental_uris": {"android": "https://dc.lft.to/lastmile_qr_scan", "ios": "https://dc.lft.to/lastmile_qr_scan"}, "fusion_lon": 0.0}, {"lat": 38.923513666666665, "is_disabled": 0, "type": "electric_scooter", "lon": -77.034948, "bike_id": "6a741c0196222a752d1f9fdfc5063a99", "fusion_lat": 0.0, "name": "6a741c0196222a752d1f9fdfc5063a99", "is_reserved": 0, "rental_uris": {"android": "https://dc.lft.to/lastmile_qr_scan", "ios": "https://dc.lft.to/lastmile_qr_scan"}, "fusion_lon": 0.0}, {"lat": 38.87142633333333, "is_disabled": 0, "type": "electric_bike", "lon": -76.936697, "bike_id": "f158b3f74c54a801773860cc772468de", "fusion_lat": 0.0, "name": "f158b3f74c54a801773860cc772468de", "is_reserved": 0, "rental_uris": {"android": "https://dc.lft.to/lastmile_qr_scan", "ios": "https://dc.lft.to/lastmile_qr_scan"}, "fusion_lon": 0.0}, {"lat": 38.90309966666667, "is_disabled": 0, "type": "electric_scooter", "lon": -77.0532415, "bike_id": "f5d6e3b44d2ddd8abf4697cd7188b737", "fusion_lat": 0.0, "name": "f5d6e3b44d2ddd8abf4697cd7188b737", "is_reserved": 0, "rental_uris": {"android": "https://dc.lft.to/lastmile_qr_scan", "ios": "https://dc.lft.to/lastmile_qr_scan"}, "fusion_lon": 0.0}, {"lat": 38.90868183333333, "is_disabled": 0, "type": "electric_scooter", "lon": -77.03839433333333, "bike_id": "012e54a31d274b1414599561de3f921a", "fusion_lat": 0.0, "name": "012e54a31d274b1414599561de3f921a", "is_reserved": 0, "rental_uris": {"android": "https://dc.lft.to/lastmile_qr_scan", "ios": "https://dc.lft.to/lastmile_qr_scan"}, "fusion_lon": 0.0}, {"lat": 38.903795333333335, "is_disabled": 0, "type": "electric_scooter", "lon": -77.00879666666667, "bike_id": "9344223e7aaeea572ce95490fe8c56fa", "fusion_lat": 0.0, "name": "9344223e7aaeea572ce95490fe8c56fa", "is_reserved": 0, "rental_uris": {"android": "https://dc.lft.to/lastmile_qr_scan", "ios": "https://dc.lft.to/lastmile_qr_scan"}, "fusion_lon": 0.0}, {"lat": 38.902835, "is_disabled": 0, "type": "electric_scooter", "lon": -77.03645766666666, "bike_id": "f86bd1df4a53ab5ab5983677589a4b85", "fusion_lat": 0.0, "name": "f86bd1df4a53ab5ab5983677589a4b85", "is_reserved": 0, "rental_uris": {"android": "https://dc.lft.to/lastmile_qr_scan", "ios": "https://dc.lft.to/lastmile_qr_scan"}, "fusion_lon": 0.0}, {"lat": 38.93586116666667, "is_disabled": 0, "type": "electric_bike", "lon": -77.1068285, "bike_id": "21c9630f9fa817fe2777a74aebbf4c19", "fusion_lat": 0.0, "name": "21c9630f9fa817fe2777a74aebbf4c19", "is_reserved": 0, "rental_uris": {"android": "https://dc.lft.to/lastmile_qr_scan", "ios": "https://dc.lft.to/lastmile_qr_scan"}, "fusion_lon": 0.0}, {"lat": 38.94136016666667, "is_disabled": 0, "type": "electric_scooter", "lon": -77.07612333333333, "bike_id": "1456e1e3e273c3aaa73a4c61f96f2d14", "fusion_lat": 0.0, "name": "1456e1e3e273c3aaa73a4c61f96f2d14", "is_reserved": 0, "rental_uris": {"android": "https://dc.lft.to/lastmile_qr_scan", "ios": "https://dc.lft.to/lastmile_qr_scan"}, "fusion_lon": 0.0}, {"lat": 38.90017666666667, "is_disabled": 0, "type": "electric_scooter", "lon": -77.03311566666666, "bike_id": "7f2ab8d5eb8b6ffc1fb8869866c6852c", "fusion_lat": 0.0, "name": "7f2ab8d5eb8b6ffc1fb8869866c6852c", "is_reserved": 0, "rental_uris": {"android": "https://dc.lft.to/lastmile_qr_scan", "ios": "https://dc.lft.to/lastmile_qr_scan"}, "fusion_lon": 0.0}, {"lat": 38.90113433333333, "is_disabled": 0, "type": "electric_scooter", "lon": -77.03326133333333, "bike_id": "68aaa0491b0624bf1da3a523ec420b35", "fusion_lat": 0.0, "name": "68aaa0491b0624bf1da3a523ec420b35", "is_reserved": 0, "rental_uris": {"android": "https://dc.lft.to/lastmile_qr_scan", "ios": "https://dc.lft.to/lastmile_qr_scan"}, "fusion_lon": 0.0}, {"lat": 38.901062333333336, "is_disabled": 0, "type": "electric_scooter", "lon": -77.0589915, "bike_id": "459d150b89fee3b14efd1f46ca301056", "fusion_lat": 0.0, "name": "459d150b89fee3b14efd1f46ca301056", "is_reserved": 0, "rental_uris": {"android": "https://dc.lft.to/lastmile_qr_scan", "ios": "https://dc.lft.to/lastmile_qr_scan"}, "fusion_lon": 0.0}, {"lat": 38.9169365, "is_disabled": 0, "type": "electric_scooter", "lon": -77.04592883333333, "bike_id": "a3e83167a23bca27ba90c2defc88b157", "fusion_lat": 0.0, "name": "a3e83167a23bca27ba90c2defc88b157", "is_reserved": 0, "rental_uris": {"android": "https://dc.lft.to/lastmile_qr_scan", "ios": "https://dc.lft.to/lastmile_qr_scan"}, "fusion_lon": 0.0}, {"lat": 38.92302383333333, "is_disabled": 0, "type": "electric_scooter", "lon": -77.0233095, "bike_id": "561363a9c47538c7d882955dc2b85f0b", "fusion_lat": 0.0, "name": "561363a9c47538c7d882955dc2b85f0b", "is_reserved": 0, "rental_uris": {"android": "https://dc.lft.to/lastmile_qr_scan", "ios": "https://dc.lft.to/lastmile_qr_scan"}, "fusion_lon": 0.0}, {"lat": 38.9397715, "is_disabled": 0, "type": "electric_scooter", "lon": -77.0263215, "bike_id": "d5b894fc9c522ada8dffe196a18feff5", "fusion_lat": 0.0, "name": "d5b894fc9c522ada8dffe196a18feff5", "is_reserved": 0, "rental_uris": {"android": "https://dc.lft.to/lastmile_qr_scan", "ios": "https://dc.lft.to/lastmile_qr_scan"}, "fusion_lon": 0.0}, {"lat": 38.9073785, "is_disabled": 0, "type": "electric_scooter", "lon": -77.02949833333334, "bike_id": "04112fd33fedd9dbb5f7cf679da1ef0a", "fusion_lat": 0.0, "name": "04112fd33fedd9dbb5f7cf679da1ef0a", "is_reserved": 0, "rental_uris": {"android": "https://dc.lft.to/lastmile_qr_scan", "ios": "https://dc.lft.to/lastmile_qr_scan"}, "fusion_lon": 0.0}, {"lat": 38.93296516666667, "is_disabled": 0, "type": "electric_scooter", "lon": -77.02191666666667, "bike_id": "c356030e236ada8373530697d57ef1d8", "fusion_lat": 0.0, "name": "c356030e236ada8373530697d57ef1d8", "is_reserved": 0, "rental_uris": {"android": "https://dc.lft.to/lastmile_qr_scan", "ios": "https://dc.lft.to/lastmile_qr_scan"}, "fusion_lon": 0.0}, {"lat": 38.8987985, "is_disabled": 0, "type": "electric_scooter", "lon": -77.07233216666667, "bike_id": "c77635d805c0256791040e783e3fdbe2", "fusion_lat": 0.0, "name": "c77635d805c0256791040e783e3fdbe2", "is_reserved": 0, "rental_uris": {"android": "https://dc.lft.to/lastmile_qr_scan", "ios": "https://dc.lft.to/lastmile_qr_scan"}, "fusion_lon": 0.0}, {"lat": 38.872989833333335, "is_disabled": 0, "type": "electric_scooter", "lon": -77.00934183333334, "bike_id": "6cadb17422fafa069de762189070ef08", "fusion_lat": 0.0, "name": "6cadb17422fafa069de762189070ef08", "is_reserved": 0, "rental_uris": {"android": "https://dc.lft.to/lastmile_qr_scan", "ios": "https://dc.lft.to/lastmile_qr_scan"}, "fusion_lon": 0.0}, {"lat": 38.91246066666667, "is_disabled": 0, "type": "electric_scooter", "lon": -77.0466105, "bike_id": "5f1cb25deb14169daeb2db89502caa5b", "fusion_lat": 0.0, "name": "5f1cb25deb14169daeb2db89502caa5b", "is_reserved": 0, "rental_uris": {"android": "https://dc.lft.to/lastmile_qr_scan", "ios": "https://dc.lft.to/lastmile_qr_scan"}, "fusion_lon": 0.0}, {"lat": 38.90033433333333, "is_disabled": 0, "type": "electric_scooter", "lon": -77.03317416666667, "bike_id": "f83117ae727f737c529711f23be2dfec", "fusion_lat": 0.0, "name": "f83117ae727f737c529711f23be2dfec", "is_reserved": 0, "rental_uris": {"android": "https://dc.lft.to/lastmile_qr_scan", "ios": "https://dc.lft.to/lastmile_qr_scan"}, "fusion_lon": 0.0}, {"lat": 38.91093566666667, "is_disabled": 0, "type": "electric_scooter", "lon": -77.0295125, "bike_id": "9ad53de220799774048418a938924a06", "fusion_lat": 0.0, "name": "9ad53de220799774048418a938924a06", "is_reserved": 0, "rental_uris": {"android": "https://dc.lft.to/lastmile_qr_scan", "ios": "https://dc.lft.to/lastmile_qr_scan"}, "fusion_lon": 0.0}, {"lat": 38.92760466666667, "is_disabled": 0, "type": "electric_bike", "lon": -77.06883683333334, "bike_id": "3d27e2606fa57312c0aaeaca39fff8d5", "fusion_lat": 0.0, "name": "3d27e2606fa57312c0aaeaca39fff8d5", "is_reserved": 0, "rental_uris": {"android": "https://dc.lft.to/lastmile_qr_scan", "ios": "https://dc.lft.to/lastmile_qr_scan"}, "fusion_lon": 0.0}, {"lat": 38.88971933333333, "is_disabled": 0, "type": "electric_scooter", "lon": -76.93739533333333, "bike_id": "f50efe36172ba7491fab2b9791209538", "fusion_lat": 0.0, "name": "f50efe36172ba7491fab2b9791209538", "is_reserved": 0, "rental_uris": {"android": "https://dc.lft.to/lastmile_qr_scan", "ios": "https://dc.lft.to/lastmile_qr_scan"}, "fusion_lon": 0.0}, {"lat": 38.899708333333336, "is_disabled": 0, "type": "electric_scooter", "lon": -77.0190975, "bike_id": "64fbf926f5b51966a6c60f01ee6dd64a", "fusion_lat": 0.0, "name": "64fbf926f5b51966a6c60f01ee6dd64a", "is_reserved": 0, "rental_uris": {"android": "https://dc.lft.to/lastmile_qr_scan", "ios": "https://dc.lft.to/lastmile_qr_scan"}, "fusion_lon": 0.0}, {"lat": 38.8592295, "is_disabled": 0, "type": "electric_scooter", "lon": -76.98979783333333, "bike_id": "fea8555d75d989be45eb9fd6062bdcd4", "fusion_lat": 0.0, "name": "fea8555d75d989be45eb9fd6062bdcd4", "is_reserved": 0, "rental_uris": {"android": "https://dc.lft.to/lastmile_qr_scan", "ios": "https://dc.lft.to/lastmile_qr_scan"}, "fusion_lon": 0.0}, {"lat": 38.8922235, "is_disabled": 0, "type": "electric_scooter", "lon": -76.93297833333334, "bike_id": "02d482230278e26784a178aee4d95a1e", "fusion_lat": 0.0, "name": "02d482230278e26784a178aee4d95a1e", "is_reserved": 0, "rental_uris": {"android": "https://dc.lft.to/lastmile_qr_scan", "ios": "https://dc.lft.to/lastmile_qr_scan"}, "fusion_lon": 0.0}, {"lat": 38.94509883333333, "is_disabled": 0, "type": "electric_scooter", "lon": -77.021747, "bike_id": "aeea5b65ce09399af127db7f60f9be1a", "fusion_lat": 0.0, "name": "aeea5b65ce09399af127db7f60f9be1a", "is_reserved": 0, "rental_uris": {"android": "https://dc.lft.to/lastmile_qr_scan", "ios": "https://dc.lft.to/lastmile_qr_scan"}, "fusion_lon": 0.0}, {"lat": 38.93220866666667, "is_disabled": 0, "type": "electric_scooter", "lon": -77.02729966666666, "bike_id": "1051ab72cae9c4b85311165d2a3b1ca7", "fusion_lat": 0.0, "name": "1051ab72cae9c4b85311165d2a3b1ca7", "is_reserved": 0, "rental_uris": {"android": "https://dc.lft.to/lastmile_qr_scan", "ios": "https://dc.lft.to/lastmile_qr_scan"}, "fusion_lon": 0.0}, {"lat": 38.9042, "is_disabled": 0, "type": "electric_scooter", "lon": -77.025135, "bike_id": "02a63926087892208abcfbef82e4fe50", "fusion_lat": 0.0, "name": "02a63926087892208abcfbef82e4fe50", "is_reserved": 0, "rental_uris": {"android": "https://dc.lft.to/lastmile_qr_scan", "ios": "https://dc.lft.to/lastmile_qr_scan"}, "fusion_lon": 0.0}, {"lat": 38.928665, "is_disabled": 0, "type": "electric_scooter", "lon": -77.03408833333333, "bike_id": "3e5c05ef718eae94ddcef57c41e673bd", "fusion_lat": 0.0, "name": "3e5c05ef718eae94ddcef57c41e673bd", "is_reserved": 0, "rental_uris": {"android": "https://dc.lft.to/lastmile_qr_scan", "ios": "https://dc.lft.to/lastmile_qr_scan"}, "fusion_lon": 0.0}, {"lat": 38.9010155, "is_disabled": 0, "type": "electric_scooter", "lon": -77.05600816666667, "bike_id": "521773f9e1975e584ad68f5c2f82512b", "fusion_lat": 0.0, "name": "521773f9e1975e584ad68f5c2f82512b", "is_reserved": 0, "rental_uris": {"android": "https://dc.lft.to/lastmile_qr_scan", "ios": "https://dc.lft.to/lastmile_qr_scan"}, "fusion_lon": 0.0}, {"lat": 38.896258833333334, "is_disabled": 0, "type": "electric_scooter", "lon": -77.044803, "bike_id": "4b453c750262abb2511158d244c726a1", "fusion_lat": 0.0, "name": "4b453c750262abb2511158d244c726a1", "is_reserved": 0, "rental_uris": {"android": "https://dc.lft.to/lastmile_qr_scan", "ios": "https://dc.lft.to/lastmile_qr_scan"}, "fusion_lon": 0.0}, {"lat": 38.90672716666667, "is_disabled": 0, "type": "electric_scooter", "lon": -77.06269683333333, "bike_id": "79404a4223a17a92223f900caaa36380", "fusion_lat": 0.0, "name": "79404a4223a17a92223f900caaa36380", "is_reserved": 0, "rental_uris": {"android": "https://dc.lft.to/lastmile_qr_scan", "ios": "https://dc.lft.to/lastmile_qr_scan"}, "fusion_lon": 0.0}, {"lat": 38.9155405, "is_disabled": 0, "type": "electric_scooter", "lon": -77.01229766666667, "bike_id": "2469605f5a5e3c7c276384080028f855", "fusion_lat": 0.0, "name": "2469605f5a5e3c7c276384080028f855", "is_reserved": 0, "rental_uris": {"android": "https://dc.lft.to/lastmile_qr_scan", "ios": "https://dc.lft.to/lastmile_qr_scan"}, "fusion_lon": 0.0}, {"lat": 38.91476816666667, "is_disabled": 0, "type": "electric_scooter", "lon": -77.00349783333333, "bike_id": "c80f62a768c6e286df5cd062f06685b4", "fusion_lat": 0.0, "name": "c80f62a768c6e286df5cd062f06685b4", "is_reserved": 0, "rental_uris": {"android": "https://dc.lft.to/lastmile_qr_scan", "ios": "https://dc.lft.to/lastmile_qr_scan"}, "fusion_lon": 0.0}, {"lat": 38.950292833333336, "is_disabled": 0, "type": "electric_bike", "lon": -77.0296525, "bike_id": "a4aaa45991216a54e26552ff450b3f4c", "fusion_lat": 0.0, "name": "a4aaa45991216a54e26552ff450b3f4c", "is_reserved": 0, "rental_uris": {"android": "https://dc.lft.to/lastmile_qr_scan", "ios": "https://dc.lft.to/lastmile_qr_scan"}, "fusion_lon": 0.0}, {"lat": 38.9230205, "is_disabled": 0, "type": "electric_bike", "lon": -76.99379866666666, "bike_id": "e40d0a435b8053fbfbcae6c3512e4d52", "fusion_lat": 0.0, "name": "e40d0a435b8053fbfbcae6c3512e4d52", "is_reserved": 0, "rental_uris": {"android": "https://dc.lft.to/lastmile_qr_scan", "ios": "https://dc.lft.to/lastmile_qr_scan"}, "fusion_lon": 0.0}, {"lat": 38.924093666666664, "is_disabled": 0, "type": "electric_scooter", "lon": -77.035451, "bike_id": "ef2c7e261c76da03d6a2a6fb305e074b", "fusion_lat": 0.0, "name": "ef2c7e261c76da03d6a2a6fb305e074b", "is_reserved": 0, "rental_uris": {"android": "https://dc.lft.to/lastmile_qr_scan", "ios": "https://dc.lft.to/lastmile_qr_scan"}, "fusion_lon": 0.0}, {"lat": 38.90771866666667, "is_disabled": 0, "type": "electric_scooter", "lon": -77.03854283333334, "bike_id": "cb12f999fb72e858fd4c0d52f928d8a4", "fusion_lat": 0.0, "name": "cb12f999fb72e858fd4c0d52f928d8a4", "is_reserved": 0, "rental_uris": {"android": "https://dc.lft.to/lastmile_qr_scan", "ios": "https://dc.lft.to/lastmile_qr_scan"}, "fusion_lon": 0.0}, {"lat": 38.844271666666664, "is_disabled": 0, "type": "electric_scooter", "lon": -76.99776916666667, "bike_id": "67817f8fa13f53ac672351b83ba28fc5", "fusion_lat": 0.0, "name": "67817f8fa13f53ac672351b83ba28fc5", "is_reserved": 0, "rental_uris": {"android": "https://dc.lft.to/lastmile_qr_scan", "ios": "https://dc.lft.to/lastmile_qr_scan"}, "fusion_lon": 0.0}, {"lat": 38.90299983333333, "is_disabled": 0, "type": "electric_scooter", "lon": -77.00040283333334, "bike_id": "9664ed437291782e0537ba7d29c990fc", "fusion_lat": 0.0, "name": "9664ed437291782e0537ba7d29c990fc", "is_reserved": 0, "rental_uris": {"android": "https://dc.lft.to/lastmile_qr_scan", "ios": "https://dc.lft.to/lastmile_qr_scan"}, "fusion_lon": 0.0}, {"lat": 38.92480283333333, "is_disabled": 0, "type": "electric_scooter", "lon": -77.0283615, "bike_id": "7484d7588709b8113abe7927828c2f15", "fusion_lat": 0.0, "name": "7484d7588709b8113abe7927828c2f15", "is_reserved": 0, "rental_uris": {"android": "https://dc.lft.to/lastmile_qr_scan", "ios": "https://dc.lft.to/lastmile_qr_scan"}, "fusion_lon": 0.0}, {"lat": 38.921976666666666, "is_disabled": 0, "type": "electric_scooter", "lon": -77.03979316666667, "bike_id": "a596b067225b3f4ec070f8c71edc45a1", "fusion_lat": 0.0, "name": "a596b067225b3f4ec070f8c71edc45a1", "is_reserved": 0, "rental_uris": {"android": "https://dc.lft.to/lastmile_qr_scan", "ios": "https://dc.lft.to/lastmile_qr_scan"}, "fusion_lon": 0.0}, {"lat": 38.986646, "is_disabled": 0, "type": "electric_bike", "lon": -77.05634616666667, "bike_id": "126aad3b26320b99d30030d0c3a8f7b2", "fusion_lat": 0.0, "name": "126aad3b26320b99d30030d0c3a8f7b2", "is_reserved": 0, "rental_uris": {"android": "https://dc.lft.to/lastmile_qr_scan", "ios": "https://dc.lft.to/lastmile_qr_scan"}, "fusion_lon": 0.0}, {"lat": 38.88072983333333, "is_disabled": 0, "type": "electric_bike", "lon": -77.109509, "bike_id": "6a3dc5d71b91926b1b185d084a7f807c", "fusion_lat": 0.0, "name": "6a3dc5d71b91926b1b185d084a7f807c", "is_reserved": 0, "rental_uris": {"android": "https://dc.lft.to/lastmile_qr_scan", "ios": "https://dc.lft.to/lastmile_qr_scan"}, "fusion_lon": 0.0}, {"lat": 38.894592833333334, "is_disabled": 0, "type": "electric_scooter", "lon": -77.02110366666666, "bike_id": "c58f5706160f757a0f38a37d85184147", "fusion_lat": 0.0, "name": "c58f5706160f757a0f38a37d85184147", "is_reserved": 0, "rental_uris": {"android": "https://dc.lft.to/lastmile_qr_scan", "ios": "https://dc.lft.to/lastmile_qr_scan"}, "fusion_lon": 0.0}, {"lat": 38.8934675, "is_disabled": 0, "type": "electric_scooter", "lon": -76.949285, "bike_id": "2d824c31ca086371aac1e2177700018e", "fusion_lat": 0.0, "name": "2d824c31ca086371aac1e2177700018e", "is_reserved": 0, "rental_uris": {"android": "https://dc.lft.to/lastmile_qr_scan", "ios": "https://dc.lft.to/lastmile_qr_scan"}, "fusion_lon": 0.0}, {"lat": 38.91820883333333, "is_disabled": 0, "type": "electric_scooter", "lon": -77.03914166666667, "bike_id": "eb1f54c4c0f0b4a5e00468983347b1c8", "fusion_lat": 0.0, "name": "eb1f54c4c0f0b4a5e00468983347b1c8", "is_reserved": 0, "rental_uris": {"android": "https://dc.lft.to/lastmile_qr_scan", "ios": "https://dc.lft.to/lastmile_qr_scan"}, "fusion_lon": 0.0}, {"lat": 38.907850833333335, "is_disabled": 0, "type": "electric_scooter", "lon": -77.0433955, "bike_id": "1a8941b9bf95ed41fc766152db3ef836", "fusion_lat": 0.0, "name": "1a8941b9bf95ed41fc766152db3ef836", "is_reserved": 0, "rental_uris": {"android": "https://dc.lft.to/lastmile_qr_scan", "ios": "https://dc.lft.to/lastmile_qr_scan"}, "fusion_lon": 0.0}, {"lat": 38.925672, "is_disabled": 0, "type": "electric_scooter", "lon": -77.0353345, "bike_id": "bd9eae431776ee34ae06691df9d7bce7", "fusion_lat": 0.0, "name": "bd9eae431776ee34ae06691df9d7bce7", "is_reserved": 0, "rental_uris": {"android": "https://dc.lft.to/lastmile_qr_scan", "ios": "https://dc.lft.to/lastmile_qr_scan"}, "fusion_lon": 0.0}, {"lat": 38.971984666666664, "is_disabled": 0, "type": "electric_bike", "lon": -77.0271915, "bike_id": "5fdf773c4e382c0940c77b0d88795f02", "fusion_lat": 0.0, "name": "5fdf773c4e382c0940c77b0d88795f02", "is_reserved": 0, "rental_uris": {"android": "https://dc.lft.to/lastmile_qr_scan", "ios": "https://dc.lft.to/lastmile_qr_scan"}, "fusion_lon": 0.0}, {"lat": 38.90354883333333, "is_disabled": 0, "type": "electric_scooter", "lon": -77.05341683333333, "bike_id": "25e508f95581e4654b100b5bc2655c59", "fusion_lat": 0.0, "name": "25e508f95581e4654b100b5bc2655c59", "is_reserved": 0, "rental_uris": {"android": "https://dc.lft.to/lastmile_qr_scan", "ios": "https://dc.lft.to/lastmile_qr_scan"}, "fusion_lon": 0.0}, {"lat": 38.90356, "is_disabled": 0, "type": "electric_scooter", "lon": -77.04261166666667, "bike_id": "e0d17c0590c086764299f0d98f35680f", "fusion_lat": 0.0, "name": "e0d17c0590c086764299f0d98f35680f", "is_reserved": 0, "rental_uris": {"android": "https://dc.lft.to/lastmile_qr_scan", "ios": "https://dc.lft.to/lastmile_qr_scan"}, "fusion_lon": 0.0}, {"lat": 38.90806666666667, "is_disabled": 0, "type": "electric_scooter", "lon": -76.9827605, "bike_id": "10c24f7338291b08add8342a967b7f08", "fusion_lat": 0.0, "name": "10c24f7338291b08add8342a967b7f08", "is_reserved": 0, "rental_uris": {"android": "https://dc.lft.to/lastmile_qr_scan", "ios": "https://dc.lft.to/lastmile_qr_scan"}, "fusion_lon": 0.0}, {"lat": 38.90975916666667, "is_disabled": 0, "type": "electric_bike", "lon": -76.985142, "bike_id": "704f54291354d6cc0c80951e25afb5c8", "fusion_lat": 0.0, "name": "704f54291354d6cc0c80951e25afb5c8", "is_reserved": 0, "rental_uris": {"android": "https://dc.lft.to/lastmile_qr_scan", "ios": "https://dc.lft.to/lastmile_qr_scan"}, "fusion_lon": 0.0}, {"lat": 38.905589166666665, "is_disabled": 0, "type": "electric_scooter", "lon": -77.03393333333334, "bike_id": "d9be221d6c7f2ec406ac5a4b97e4153d", "fusion_lat": 0.0, "name": "d9be221d6c7f2ec406ac5a4b97e4153d", "is_reserved": 0, "rental_uris": {"android": "https://dc.lft.to/lastmile_qr_scan", "ios": "https://dc.lft.to/lastmile_qr_scan"}, "fusion_lon": 0.0}, {"lat": 38.96022216666667, "is_disabled": 0, "type": "electric_bike", "lon": -77.0172375, "bike_id": "896e547507cb468e2b38d5261fc03400", "fusion_lat": 0.0, "name": "896e547507cb468e2b38d5261fc03400", "is_reserved": 0, "rental_uris": {"android": "https://dc.lft.to/lastmile_qr_scan", "ios": "https://dc.lft.to/lastmile_qr_scan"}, "fusion_lon": 0.0}, {"lat": 38.80748616666666, "is_disabled": 0, "type": "electric_bike", "lon": -77.0948, "bike_id": "55c2dd08c91b567c3325908611877194", "fusion_lat": 0.0, "name": "55c2dd08c91b567c3325908611877194", "is_reserved": 0, "rental_uris": {"android": "https://dc.lft.to/lastmile_qr_scan", "ios": "https://dc.lft.to/lastmile_qr_scan"}, "fusion_lon": 0.0}, {"lat": 38.9344065, "is_disabled": 0, "type": "electric_scooter", "lon": -77.03438616666666, "bike_id": "a1ef202ed01b5cbbc5f637ac0ba0c3ff", "fusion_lat": 0.0, "name": "a1ef202ed01b5cbbc5f637ac0ba0c3ff", "is_reserved": 0, "rental_uris": {"android": "https://dc.lft.to/lastmile_qr_scan", "ios": "https://dc.lft.to/lastmile_qr_scan"}, "fusion_lon": 0.0}, {"lat": 39.0293345, "is_disabled": 0, "type": "electric_bike", "lon": -77.0492785, "bike_id": "9bbfe0d77b8e67e6f8eaa69e2368096f", "fusion_lat": 0.0, "name": "9bbfe0d77b8e67e6f8eaa69e2368096f", "is_reserved": 0, "rental_uris": {"android": "https://dc.lft.to/lastmile_qr_scan", "ios": "https://dc.lft.to/lastmile_qr_scan"}, "fusion_lon": 0.0}, {"lat": 38.935312333333336, "is_disabled": 0, "type": "electric_bike", "lon": -77.056949, "bike_id": "3e68e1313b936587292902a0414bc1c8", "fusion_lat": 0.0, "name": "3e68e1313b936587292902a0414bc1c8", "is_reserved": 0, "rental_uris": {"android": "https://dc.lft.to/lastmile_qr_scan", "ios": "https://dc.lft.to/lastmile_qr_scan"}, "fusion_lon": 0.0}, {"lat": 38.88469283333333, "is_disabled": 0, "type": "electric_scooter", "lon": -76.99261833333334, "bike_id": "dbc1f585675ce50d319f804926b60fe4", "fusion_lat": 0.0, "name": "dbc1f585675ce50d319f804926b60fe4", "is_reserved": 0, "rental_uris": {"android": "https://dc.lft.to/lastmile_qr_scan", "ios": "https://dc.lft.to/lastmile_qr_scan"}, "fusion_lon": 0.0}, {"lat": 38.90309233333333, "is_disabled": 0, "type": "electric_scooter", "lon": -76.99354366666667, "bike_id": "852c91041c2ab33ad4bc666fdcdeff2f", "fusion_lat": 0.0, "name": "852c91041c2ab33ad4bc666fdcdeff2f", "is_reserved": 0, "rental_uris": {"android": "https://dc.lft.to/lastmile_qr_scan", "ios": "https://dc.lft.to/lastmile_qr_scan"}, "fusion_lon": 0.0}, {"lat": 38.8849055, "is_disabled": 0, "type": "electric_scooter", "lon": -77.00713883333333, "bike_id": "52568890b01b06ac1e5dd4c5e5ad7842", "fusion_lat": 0.0, "name": "52568890b01b06ac1e5dd4c5e5ad7842", "is_reserved": 0, "rental_uris": {"android": "https://dc.lft.to/lastmile_qr_scan", "ios": "https://dc.lft.to/lastmile_qr_scan"}, "fusion_lon": 0.0}, {"lat": 38.92150383333333, "is_disabled": 0, "type": "electric_scooter", "lon": -77.03503016666667, "bike_id": "59e431f15213047fa292838badce3722", "fusion_lat": 0.0, "name": "59e431f15213047fa292838badce3722", "is_reserved": 0, "rental_uris": {"android": "https://dc.lft.to/lastmile_qr_scan", "ios": "https://dc.lft.to/lastmile_qr_scan"}, "fusion_lon": 0.0}, {"lat": 38.8729485, "is_disabled": 0, "type": "electric_scooter", "lon": -77.00930516666666, "bike_id": "9224763f7040d6008d0f298583b2a723", "fusion_lat": 0.0, "name": "9224763f7040d6008d0f298583b2a723", "is_reserved": 0, "rental_uris": {"android": "https://dc.lft.to/lastmile_qr_scan", "ios": "https://dc.lft.to/lastmile_qr_scan"}, "fusion_lon": 0.0}, {"lat": 38.9532515, "is_disabled": 0, "type": "electric_scooter", "lon": -77.02758083333333, "bike_id": "cb588dd71d33dfdf39771e4d5a7225a3", "fusion_lat": 0.0, "name": "cb588dd71d33dfdf39771e4d5a7225a3", "is_reserved": 0, "rental_uris": {"android": "https://dc.lft.to/lastmile_qr_scan", "ios": "https://dc.lft.to/lastmile_qr_scan"}, "fusion_lon": 0.0}, {"lat": 38.905629833333336, "is_disabled": 0, "type": "electric_scooter", "lon": -77.0297775, "bike_id": "66d258ea31b7e72e3f9c3ee1bc7a9018", "fusion_lat": 0.0, "name": "66d258ea31b7e72e3f9c3ee1bc7a9018", "is_reserved": 0, "rental_uris": {"android": "https://dc.lft.to/lastmile_qr_scan", "ios": "https://dc.lft.to/lastmile_qr_scan"}, "fusion_lon": 0.0}, {"lat": 38.900839500000004, "is_disabled": 0, "type": "electric_scooter", "lon": -77.04912783333333, "bike_id": "db19899d047e6cd4960605c628aec135", "fusion_lat": 0.0, "name": "db19899d047e6cd4960605c628aec135", "is_reserved": 0, "rental_uris": {"android": "https://dc.lft.to/lastmile_qr_scan", "ios": "https://dc.lft.to/lastmile_qr_scan"}, "fusion_lon": 0.0}, {"lat": 38.93300766666667, "is_disabled": 0, "type": "electric_scooter", "lon": -77.0285475, "bike_id": "3fa4e08945fadfe84d4bec72c24becc1", "fusion_lat": 0.0, "name": "3fa4e08945fadfe84d4bec72c24becc1", "is_reserved": 0, "rental_uris": {"android": "https://dc.lft.to/lastmile_qr_scan", "ios": "https://dc.lft.to/lastmile_qr_scan"}, "fusion_lon": 0.0}, {"lat": 38.927895, "is_disabled": 0, "type": "electric_scooter", "lon": -77.05541916666667, "bike_id": "3b4fab1ae9dbfc8efef2dc4e794ea965", "fusion_lat": 0.0, "name": "3b4fab1ae9dbfc8efef2dc4e794ea965", "is_reserved": 0, "rental_uris": {"android": "https://dc.lft.to/lastmile_qr_scan", "ios": "https://dc.lft.to/lastmile_qr_scan"}, "fusion_lon": 0.0}, {"lat": 38.9336875, "is_disabled": 0, "type": "electric_scooter", "lon": -77.02382883333334, "bike_id": "1539305a2a29e01313d5ce9e48d4d5b9", "fusion_lat": 0.0, "name": "1539305a2a29e01313d5ce9e48d4d5b9", "is_reserved": 0, "rental_uris": {"android": "https://dc.lft.to/lastmile_qr_scan", "ios": "https://dc.lft.to/lastmile_qr_scan"}, "fusion_lon": 0.0}, {"lat": 38.90283183333333, "is_disabled": 0, "type": "electric_scooter", "lon": -77.03342366666666, "bike_id": "ec40fe0f549b5dec19ab5d417e306e74", "fusion_lat": 0.0, "name": "ec40fe0f549b5dec19ab5d417e306e74", "is_reserved": 0, "rental_uris": {"android": "https://dc.lft.to/lastmile_qr_scan", "ios": "https://dc.lft.to/lastmile_qr_scan"}, "fusion_lon": 0.0}, {"lat": 39.000111833333335, "is_disabled": 0, "type": "electric_bike", "lon": -76.9107785, "bike_id": "cf5de88040d4cede005ecd121bea48b8", "fusion_lat": 0.0, "name": "cf5de88040d4cede005ecd121bea48b8", "is_reserved": 0, "rental_uris": {"android": "https://dc.lft.to/lastmile_qr_scan", "ios": "https://dc.lft.to/lastmile_qr_scan"}, "fusion_lon": 0.0}, {"lat": 38.95334716666667, "is_disabled": 0, "type": "electric_bike", "lon": -76.97360433333333, "bike_id": "d1ef67b2b75e38057d2a637a2c8e5e9f", "fusion_lat": 0.0, "name": "d1ef67b2b75e38057d2a637a2c8e5e9f", "is_reserved": 0, "rental_uris": {"android": "https://dc.lft.to/lastmile_qr_scan", "ios": "https://dc.lft.to/lastmile_qr_scan"}, "fusion_lon": 0.0}, {"lat": 38.9258885, "is_disabled": 0, "type": "electric_scooter", "lon": -77.02829783333334, "bike_id": "8c328cee207210fb8e30996c7cbbfd62", "fusion_lat": 0.0, "name": "8c328cee207210fb8e30996c7cbbfd62", "is_reserved": 0, "rental_uris": {"android": "https://dc.lft.to/lastmile_qr_scan", "ios": "https://dc.lft.to/lastmile_qr_scan"}, "fusion_lon": 0.0}, {"lat": 38.863882833333335, "is_disabled": 0, "type": "electric_bike", "lon": -76.98990016666667, "bike_id": "ae9014e5fc5c23ec1a6158ed1d092bc7", "fusion_lat": 0.0, "name": "ae9014e5fc5c23ec1a6158ed1d092bc7", "is_reserved": 0, "rental_uris": {"android": "https://dc.lft.to/lastmile_qr_scan", "ios": "https://dc.lft.to/lastmile_qr_scan"}, "fusion_lon": 0.0}, {"lat": 38.8531755, "is_disabled": 0, "type": "electric_bike", "lon": -76.98009183333333, "bike_id": "363b0a6097d61697c62c2791e6548605", "fusion_lat": 0.0, "name": "363b0a6097d61697c62c2791e6548605", "is_reserved": 0, "rental_uris": {"android": "https://dc.lft.to/lastmile_qr_scan", "ios": "https://dc.lft.to/lastmile_qr_scan"}, "fusion_lon": 0.0}, {"lat": 38.8655325, "is_disabled": 0, "type": "electric_scooter", "lon": -76.9741345, "bike_id": "76e848a4e03d0845df08e3993f00f571", "fusion_lat": 0.0, "name": "76e848a4e03d0845df08e3993f00f571", "is_reserved": 0, "rental_uris": {"android": "https://dc.lft.to/lastmile_qr_scan", "ios": "https://dc.lft.to/lastmile_qr_scan"}, "fusion_lon": 0.0}, {"lat": 38.93875033333333, "is_disabled": 0, "type": "electric_scooter", "lon": -77.02009366666667, "bike_id": "c9a289d8d04fdb18ea4eeb0ee986567d", "fusion_lat": 0.0, "name": "c9a289d8d04fdb18ea4eeb0ee986567d", "is_reserved": 0, "rental_uris": {"android": "https://dc.lft.to/lastmile_qr_scan", "ios": "https://dc.lft.to/lastmile_qr_scan"}, "fusion_lon": 0.0}, {"lat": 38.9129335, "is_disabled": 0, "type": "electric_scooter", "lon": -77.04009516666666, "bike_id": "3cc3336598a4c486b9f0120f29ba7866", "fusion_lat": 0.0, "name": "3cc3336598a4c486b9f0120f29ba7866", "is_reserved": 0, "rental_uris": {"android": "https://dc.lft.to/lastmile_qr_scan", "ios": "https://dc.lft.to/lastmile_qr_scan"}, "fusion_lon": 0.0}, {"lat": 38.91705916666667, "is_disabled": 0, "type": "electric_scooter", "lon": -77.03473366666667, "bike_id": "bc53b2c90e63780f0b08f891e6e29503", "fusion_lat": 0.0, "name": "bc53b2c90e63780f0b08f891e6e29503", "is_reserved": 0, "rental_uris": {"android": "https://dc.lft.to/lastmile_qr_scan", "ios": "https://dc.lft.to/lastmile_qr_scan"}, "fusion_lon": 0.0}, {"lat": 38.97088, "is_disabled": 0, "type": "electric_bike", "lon": -77.0696175, "bike_id": "278eb429f20a1c4e68fbcc6417a138a7", "fusion_lat": 0.0, "name": "278eb429f20a1c4e68fbcc6417a138a7", "is_reserved": 0, "rental_uris": {"android": "https://dc.lft.to/lastmile_qr_scan", "ios": "https://dc.lft.to/lastmile_qr_scan"}, "fusion_lon": 0.0}, {"lat": 38.926802333333335, "is_disabled": 0, "type": "electric_scooter", "lon": -77.02861616666667, "bike_id": "2d98a525fe04af602721d87253d981c5", "fusion_lat": 0.0, "name": "2d98a525fe04af602721d87253d981c5", "is_reserved": 0, "rental_uris": {"android": "https://dc.lft.to/lastmile_qr_scan", "ios": "https://dc.lft.to/lastmile_qr_scan"}, "fusion_lon": 0.0}, {"lat": 38.852077, "is_disabled": 0, "type": "electric_bike", "lon": -77.10134883333333, "bike_id": "7382dea0658c8ffe3721ad539b390d97", "fusion_lat": 0.0, "name": "7382dea0658c8ffe3721ad539b390d97", "is_reserved": 0, "rental_uris": {"android": "https://dc.lft.to/lastmile_qr_scan", "ios": "https://dc.lft.to/lastmile_qr_scan"}, "fusion_lon": 0.0}, {"lat": 38.923286166666664, "is_disabled": 0, "type": "electric_scooter", "lon": -77.03559133333333, "bike_id": "f3eeb90bc3b3484ccac180df908fd936", "fusion_lat": 0.0, "name": "f3eeb90bc3b3484ccac180df908fd936", "is_reserved": 0, "rental_uris": {"android": "https://dc.lft.to/lastmile_qr_scan", "ios": "https://dc.lft.to/lastmile_qr_scan"}, "fusion_lon": 0.0}, {"lat": 38.89514116666667, "is_disabled": 0, "type": "electric_scooter", "lon": -76.94902716666667, "bike_id": "edd9b6811c029cdea4be9007673df7cb", "fusion_lat": 0.0, "name": "edd9b6811c029cdea4be9007673df7cb", "is_reserved": 0, "rental_uris": {"android": "https://dc.lft.to/lastmile_qr_scan", "ios": "https://dc.lft.to/lastmile_qr_scan"}, "fusion_lon": 0.0}, {"lat": 38.910117666666665, "is_disabled": 0, "type": "electric_scooter", "lon": -77.026859, "bike_id": "fec2b9224650040b579ed27b877e2a73", "fusion_lat": 0.0, "name": "fec2b9224650040b579ed27b877e2a73", "is_reserved": 0, "rental_uris": {"android": "https://dc.lft.to/lastmile_qr_scan", "ios": "https://dc.lft.to/lastmile_qr_scan"}, "fusion_lon": 0.0}, {"lat": 38.9149855, "is_disabled": 0, "type": "electric_scooter", "lon": -76.98375166666666, "bike_id": "692b61b6ecd5dd9839f5eeca0a3b9f08", "fusion_lat": 0.0, "name": "692b61b6ecd5dd9839f5eeca0a3b9f08", "is_reserved": 0, "rental_uris": {"android": "https://dc.lft.to/lastmile_qr_scan", "ios": "https://dc.lft.to/lastmile_qr_scan"}, "fusion_lon": 0.0}, {"lat": 38.89395566666666, "is_disabled": 0, "type": "electric_scooter", "lon": -77.02077633333333, "bike_id": "0ee39b93df7c9d00d954353b85f2ca47", "fusion_lat": 0.0, "name": "0ee39b93df7c9d00d954353b85f2ca47", "is_reserved": 0, "rental_uris": {"android": "https://dc.lft.to/lastmile_qr_scan", "ios": "https://dc.lft.to/lastmile_qr_scan"}, "fusion_lon": 0.0}, {"lat": 38.95741616666667, "is_disabled": 0, "type": "electric_scooter", "lon": -77.02377566666667, "bike_id": "fbe3a0f9d3fe4ae8fda522f782cb630a", "fusion_lat": 0.0, "name": "fbe3a0f9d3fe4ae8fda522f782cb630a", "is_reserved": 0, "rental_uris": {"android": "https://dc.lft.to/lastmile_qr_scan", "ios": "https://dc.lft.to/lastmile_qr_scan"}, "fusion_lon": 0.0}, {"lat": 38.88278283333333, "is_disabled": 0, "type": "electric_bike", "lon": -76.93241866666666, "bike_id": "446d0b942a5dc212e9d859b79b6b7992", "fusion_lat": 0.0, "name": "446d0b942a5dc212e9d859b79b6b7992", "is_reserved": 0, "rental_uris": {"android": "https://dc.lft.to/lastmile_qr_scan", "ios": "https://dc.lft.to/lastmile_qr_scan"}, "fusion_lon": 0.0}, {"lat": 38.887680833333334, "is_disabled": 0, "type": "electric_scooter", "lon": -76.98350916666666, "bike_id": "12afdcc953f6dacffeaa28982de31c4d", "fusion_lat": 0.0, "name": "12afdcc953f6dacffeaa28982de31c4d", "is_reserved": 0, "rental_uris": {"android": "https://dc.lft.to/lastmile_qr_scan", "ios": "https://dc.lft.to/lastmile_qr_scan"}, "fusion_lon": 0.0}, {"lat": 38.93569866666667, "is_disabled": 0, "type": "electric_scooter", "lon": -77.03761983333334, "bike_id": "2a25aee469aac63912c134f032a16555", "fusion_lat": 0.0, "name": "2a25aee469aac63912c134f032a16555", "is_reserved": 0, "rental_uris": {"android": "https://dc.lft.to/lastmile_qr_scan", "ios": "https://dc.lft.to/lastmile_qr_scan"}, "fusion_lon": 0.0}, {"lat": 38.903359, "is_disabled": 0, "type": "electric_scooter", "lon": -76.97057283333334, "bike_id": "10ba5be60e1578c843674267a268d836", "fusion_lat": 0.0, "name": "10ba5be60e1578c843674267a268d836", "is_reserved": 0, "rental_uris": {"android": "https://dc.lft.to/lastmile_qr_scan", "ios": "https://dc.lft.to/lastmile_qr_scan"}, "fusion_lon": 0.0}, {"lat": 38.907522666666665, "is_disabled": 0, "type": "electric_scooter", "lon": -77.041499, "bike_id": "7beac8c1526f9f93fb3b43872aaee8d9", "fusion_lat": 0.0, "name": "7beac8c1526f9f93fb3b43872aaee8d9", "is_reserved": 0, "rental_uris": {"android": "https://dc.lft.to/lastmile_qr_scan", "ios": "https://dc.lft.to/lastmile_qr_scan"}, "fusion_lon": 0.0}, {"lat": 38.862199833333335, "is_disabled": 0, "type": "electric_scooter", "lon": -76.98355966666666, "bike_id": "50a38bd0a6bb903318a3b1b68e69038a", "fusion_lat": 0.0, "name": "50a38bd0a6bb903318a3b1b68e69038a", "is_reserved": 0, "rental_uris": {"android": "https://dc.lft.to/lastmile_qr_scan", "ios": "https://dc.lft.to/lastmile_qr_scan"}, "fusion_lon": 0.0}, {"lat": 38.912021833333334, "is_disabled": 0, "type": "electric_scooter", "lon": -77.044672, "bike_id": "48bc5178d4673416bcf014035ea14243", "fusion_lat": 0.0, "name": "48bc5178d4673416bcf014035ea14243", "is_reserved": 0, "rental_uris": {"android": "https://dc.lft.to/lastmile_qr_scan", "ios": "https://dc.lft.to/lastmile_qr_scan"}, "fusion_lon": 0.0}, {"lat": 38.950809666666665, "is_disabled": 0, "type": "electric_bike", "lon": -77.012005, "bike_id": "a8e3863ed6d5f124180f3d0f42302fdb", "fusion_lat": 0.0, "name": "a8e3863ed6d5f124180f3d0f42302fdb", "is_reserved": 0, "rental_uris": {"android": "https://dc.lft.to/lastmile_qr_scan", "ios": "https://dc.lft.to/lastmile_qr_scan"}, "fusion_lon": 0.0}, {"lat": 38.90050316666667, "is_disabled": 0, "type": "electric_scooter", "lon": -77.05053933333333, "bike_id": "34491ad643dda08c7ade2c024d62c9bc", "fusion_lat": 0.0, "name": "34491ad643dda08c7ade2c024d62c9bc", "is_reserved": 0, "rental_uris": {"android": "https://dc.lft.to/lastmile_qr_scan", "ios": "https://dc.lft.to/lastmile_qr_scan"}, "fusion_lon": 0.0}, {"lat": 38.86613033333333, "is_disabled": 0, "type": "electric_scooter", "lon": -76.98664633333334, "bike_id": "eb253a0f3867b707c13cd3f69e49b924", "fusion_lat": 0.0, "name": "eb253a0f3867b707c13cd3f69e49b924", "is_reserved": 0, "rental_uris": {"android": "https://dc.lft.to/lastmile_qr_scan", "ios": "https://dc.lft.to/lastmile_qr_scan"}, "fusion_lon": 0.0}, {"lat": 38.90853966666667, "is_disabled": 0, "type": "electric_scooter", "lon": -77.0101825, "bike_id": "74646ad388c69631995055ce29901910", "fusion_lat": 0.0, "name": "74646ad388c69631995055ce29901910", "is_reserved": 0, "rental_uris": {"android": "https://dc.lft.to/lastmile_qr_scan", "ios": "https://dc.lft.to/lastmile_qr_scan"}, "fusion_lon": 0.0}, {"lat": 38.9156485, "is_disabled": 0, "type": "electric_scooter", "lon": -77.0097555, "bike_id": "811654343e702d9fcec28f5c4af8e86f", "fusion_lat": 0.0, "name": "811654343e702d9fcec28f5c4af8e86f", "is_reserved": 0, "rental_uris": {"android": "https://dc.lft.to/lastmile_qr_scan", "ios": "https://dc.lft.to/lastmile_qr_scan"}, "fusion_lon": 0.0}, {"lat": 38.908824833333334, "is_disabled": 0, "type": "electric_scooter", "lon": -77.0365975, "bike_id": "12e55e2a2ec35d01b0eef8c232443e69", "fusion_lat": 0.0, "name": "12e55e2a2ec35d01b0eef8c232443e69", "is_reserved": 0, "rental_uris": {"android": "https://dc.lft.to/lastmile_qr_scan", "ios": "https://dc.lft.to/lastmile_qr_scan"}, "fusion_lon": 0.0}, {"lat": 38.901828333333334, "is_disabled": 0, "type": "electric_scooter", "lon": -77.02485966666667, "bike_id": "0f497885152b54d6de86980e3d2c213d", "fusion_lat": 0.0, "name": "0f497885152b54d6de86980e3d2c213d", "is_reserved": 0, "rental_uris": {"android": "https://dc.lft.to/lastmile_qr_scan", "ios": "https://dc.lft.to/lastmile_qr_scan"}, "fusion_lon": 0.0}, {"lat": 38.90806466666667, "is_disabled": 0, "type": "electric_scooter", "lon": -76.98272233333333, "bike_id": "1ddf3677ce03ade5333eea5fc479c9c3", "fusion_lat": 0.0, "name": "1ddf3677ce03ade5333eea5fc479c9c3", "is_reserved": 0, "rental_uris": {"android": "https://dc.lft.to/lastmile_qr_scan", "ios": "https://dc.lft.to/lastmile_qr_scan"}, "fusion_lon": 0.0}, {"lat": 38.865597666666666, "is_disabled": 0, "type": "electric_scooter", "lon": -76.9894765, "bike_id": "d6b709c4ebf4045986b218acfe4842a8", "fusion_lat": 0.0, "name": "d6b709c4ebf4045986b218acfe4842a8", "is_reserved": 0, "rental_uris": {"android": "https://dc.lft.to/lastmile_qr_scan", "ios": "https://dc.lft.to/lastmile_qr_scan"}, "fusion_lon": 0.0}, {"lat": 38.955597833333336, "is_disabled": 0, "type": "electric_scooter", "lon": -77.0222985, "bike_id": "6bc252ff82f449ed1be8822b59554dc0", "fusion_lat": 0.0, "name": "6bc252ff82f449ed1be8822b59554dc0", "is_reserved": 0, "rental_uris": {"android": "https://dc.lft.to/lastmile_qr_scan", "ios": "https://dc.lft.to/lastmile_qr_scan"}, "fusion_lon": 0.0}, {"lat": 38.909161, "is_disabled": 0, "type": "electric_scooter", "lon": -77.0364375, "bike_id": "fe4a1f98d469cbc738cb8a8977433ff7", "fusion_lat": 0.0, "name": "fe4a1f98d469cbc738cb8a8977433ff7", "is_reserved": 0, "rental_uris": {"android": "https://dc.lft.to/lastmile_qr_scan", "ios": "https://dc.lft.to/lastmile_qr_scan"}, "fusion_lon": 0.0}, {"lat": 38.9063135, "is_disabled": 0, "type": "electric_scooter", "lon": -77.033923, "bike_id": "f5d89a3c4aed179040d6903be5ac7f3b", "fusion_lat": 0.0, "name": "f5d89a3c4aed179040d6903be5ac7f3b", "is_reserved": 0, "rental_uris": {"android": "https://dc.lft.to/lastmile_qr_scan", "ios": "https://dc.lft.to/lastmile_qr_scan"}, "fusion_lon": 0.0}, {"lat": 38.918101166666666, "is_disabled": 0, "type": "electric_scooter", "lon": -77.01390266666667, "bike_id": "0e1a31422b6328145b7288ab36acf1f2", "fusion_lat": 0.0, "name": "0e1a31422b6328145b7288ab36acf1f2", "is_reserved": 0, "rental_uris": {"android": "https://dc.lft.to/lastmile_qr_scan", "ios": "https://dc.lft.to/lastmile_qr_scan"}, "fusion_lon": 0.0}, {"lat": 38.91128883333333, "is_disabled": 0, "type": "electric_scooter", "lon": -77.03820016666667, "bike_id": "ee2b0ab8ddbf6621d3ed4b966991a9fd", "fusion_lat": 0.0, "name": "ee2b0ab8ddbf6621d3ed4b966991a9fd", "is_reserved": 0, "rental_uris": {"android": "https://dc.lft.to/lastmile_qr_scan", "ios": "https://dc.lft.to/lastmile_qr_scan"}, "fusion_lon": 0.0}, {"lat": 38.9146135, "is_disabled": 0, "type": "electric_scooter", "lon": -77.02806083333333, "bike_id": "6a08c1e2ce7f681ddf570f59b971408e", "fusion_lat": 0.0, "name": "6a08c1e2ce7f681ddf570f59b971408e", "is_reserved": 0, "rental_uris": {"android": "https://dc.lft.to/lastmile_qr_scan", "ios": "https://dc.lft.to/lastmile_qr_scan"}, "fusion_lon": 0.0}, {"lat": 38.94913616666667, "is_disabled": 0, "type": "electric_scooter", "lon": -77.00860233333333, "bike_id": "2849e11fb08586fb01d028159736af01", "fusion_lat": 0.0, "name": "2849e11fb08586fb01d028159736af01", "is_reserved": 0, "rental_uris": {"android": "https://dc.lft.to/lastmile_qr_scan", "ios": "https://dc.lft.to/lastmile_qr_scan"}, "fusion_lon": 0.0}, {"lat": 38.859717833333335, "is_disabled": 0, "type": "electric_bike", "lon": -77.05672933333334, "bike_id": "9061dc7b23e30f2a4944ba3734b6dc05", "fusion_lat": 0.0, "name": "9061dc7b23e30f2a4944ba3734b6dc05", "is_reserved": 0, "rental_uris": {"android": "https://dc.lft.to/lastmile_qr_scan", "ios": "https://dc.lft.to/lastmile_qr_scan"}, "fusion_lon": 0.0}, {"lat": 38.897796666666665, "is_disabled": 0, "type": "electric_scooter", "lon": -77.00919433333334, "bike_id": "f49301271fbb107a2bf5795458208651", "fusion_lat": 0.0, "name": "f49301271fbb107a2bf5795458208651", "is_reserved": 0, "rental_uris": {"android": "https://dc.lft.to/lastmile_qr_scan", "ios": "https://dc.lft.to/lastmile_qr_scan"}, "fusion_lon": 0.0}, {"lat": 38.899595166666664, "is_disabled": 0, "type": "electric_bike", "lon": -77.0208685, "bike_id": "07ec48bfd9347597dfb992ae3c32fd0a", "fusion_lat": 0.0, "name": "07ec48bfd9347597dfb992ae3c32fd0a", "is_reserved": 0, "rental_uris": {"android": "https://dc.lft.to/lastmile_qr_scan", "ios": "https://dc.lft.to/lastmile_qr_scan"}, "fusion_lon": 0.0}, {"lat": 38.919030166666666, "is_disabled": 0, "type": "electric_scooter", "lon": -77.02511816666667, "bike_id": "4c646261cfe4e4b163bd8351099430f5", "fusion_lat": 0.0, "name": "4c646261cfe4e4b163bd8351099430f5", "is_reserved": 0, "rental_uris": {"android": "https://dc.lft.to/lastmile_qr_scan", "ios": "https://dc.lft.to/lastmile_qr_scan"}, "fusion_lon": 0.0}, {"lat": 38.88764116666667, "is_disabled": 0, "type": "electric_scooter", "lon": -76.95594816666667, "bike_id": "120bfefcab2a9da83a023c6c7b692ee6", "fusion_lat": 0.0, "name": "120bfefcab2a9da83a023c6c7b692ee6", "is_reserved": 0, "rental_uris": {"android": "https://dc.lft.to/lastmile_qr_scan", "ios": "https://dc.lft.to/lastmile_qr_scan"}, "fusion_lon": 0.0}, {"lat": 38.952905333333334, "is_disabled": 0, "type": "electric_scooter", "lon": -77.08157183333333, "bike_id": "d59b652f7d08f844b21d3fcebb16fdf7", "fusion_lat": 0.0, "name": "d59b652f7d08f844b21d3fcebb16fdf7", "is_reserved": 0, "rental_uris": {"android": "https://dc.lft.to/lastmile_qr_scan", "ios": "https://dc.lft.to/lastmile_qr_scan"}, "fusion_lon": 0.0}, {"lat": 38.866478, "is_disabled": 0, "type": "electric_scooter", "lon": -76.98881283333333, "bike_id": "a45730ef8227708b59d519f06f89e75a", "fusion_lat": 0.0, "name": "a45730ef8227708b59d519f06f89e75a", "is_reserved": 0, "rental_uris": {"android": "https://dc.lft.to/lastmile_qr_scan", "ios": "https://dc.lft.to/lastmile_qr_scan"}, "fusion_lon": 0.0}, {"lat": 38.920595666666664, "is_disabled": 0, "type": "electric_scooter", "lon": -77.04374066666666, "bike_id": "1a5aaded623bdd0c094ee91d65ae8875", "fusion_lat": 0.0, "name": "1a5aaded623bdd0c094ee91d65ae8875", "is_reserved": 0, "rental_uris": {"android": "https://dc.lft.to/lastmile_qr_scan", "ios": "https://dc.lft.to/lastmile_qr_scan"}, "fusion_lon": 0.0}, {"lat": 38.9387285, "is_disabled": 0, "type": "electric_scooter", "lon": -77.03123, "bike_id": "96c6ef8f118088182aecd3c55b43eda4", "fusion_lat": 0.0, "name": "96c6ef8f118088182aecd3c55b43eda4", "is_reserved": 0, "rental_uris": {"android": "https://dc.lft.to/lastmile_qr_scan", "ios": "https://dc.lft.to/lastmile_qr_scan"}, "fusion_lon": 0.0}, {"lat": 38.923142, "is_disabled": 0, "type": "electric_bike", "lon": -77.0353915, "bike_id": "cdd129552e67b431eb9cca61712590ca", "fusion_lat": 0.0, "name": "cdd129552e67b431eb9cca61712590ca", "is_reserved": 0, "rental_uris": {"android": "https://dc.lft.to/lastmile_qr_scan", "ios": "https://dc.lft.to/lastmile_qr_scan"}, "fusion_lon": 0.0}, {"lat": 38.922503666666664, "is_disabled": 0, "type": "electric_scooter", "lon": -77.04261633333333, "bike_id": "187c0e8bcf7ef08397cb4bc526d6780b", "fusion_lat": 0.0, "name": "187c0e8bcf7ef08397cb4bc526d6780b", "is_reserved": 0, "rental_uris": {"android": "https://dc.lft.to/lastmile_qr_scan", "ios": "https://dc.lft.to/lastmile_qr_scan"}, "fusion_lon": 0.0}, {"lat": 38.909863666666666, "is_disabled": 0, "type": "electric_scooter", "lon": -76.99736866666667, "bike_id": "1004b650181bc6306207ff65c8b310c2", "fusion_lat": 0.0, "name": "1004b650181bc6306207ff65c8b310c2", "is_reserved": 0, "rental_uris": {"android": "https://dc.lft.to/lastmile_qr_scan", "ios": "https://dc.lft.to/lastmile_qr_scan"}, "fusion_lon": 0.0}, {"lat": 38.893980166666665, "is_disabled": 0, "type": "electric_scooter", "lon": -77.0499975, "bike_id": "3970ab5b3b97cf1a3c2153e4d509217b", "fusion_lat": 0.0, "name": "3970ab5b3b97cf1a3c2153e4d509217b", "is_reserved": 0, "rental_uris": {"android": "https://dc.lft.to/lastmile_qr_scan", "ios": "https://dc.lft.to/lastmile_qr_scan"}, "fusion_lon": 0.0}, {"lat": 38.923201166666665, "is_disabled": 0, "type": "electric_scooter", "lon": -77.02797933333333, "bike_id": "5cf6ad02720fc0912b2ed15ae8d0b964", "fusion_lat": 0.0, "name": "5cf6ad02720fc0912b2ed15ae8d0b964", "is_reserved": 0, "rental_uris": {"android": "https://dc.lft.to/lastmile_qr_scan", "ios": "https://dc.lft.to/lastmile_qr_scan"}, "fusion_lon": 0.0}, {"lat": 38.92872166666667, "is_disabled": 0, "type": "electric_scooter", "lon": -77.01946983333333, "bike_id": "d417064ecfd11a88eea48fcc9cb293bf", "fusion_lat": 0.0, "name": "d417064ecfd11a88eea48fcc9cb293bf", "is_reserved": 0, "rental_uris": {"android": "https://dc.lft.to/lastmile_qr_scan", "ios": "https://dc.lft.to/lastmile_qr_scan"}, "fusion_lon": 0.0}, {"lat": 38.90079866666667, "is_disabled": 0, "type": "electric_scooter", "lon": -77.002042, "bike_id": "67343a9cdc8993db987455b0d22bef3f", "fusion_lat": 0.0, "name": "67343a9cdc8993db987455b0d22bef3f", "is_reserved": 0, "rental_uris": {"android": "https://dc.lft.to/lastmile_qr_scan", "ios": "https://dc.lft.to/lastmile_qr_scan"}, "fusion_lon": 0.0}, {"lat": 38.927611666666664, "is_disabled": 0, "type": "electric_scooter", "lon": -77.03257233333333, "bike_id": "a234049bcc7ac0d94b93d2647442566b", "fusion_lat": 0.0, "name": "a234049bcc7ac0d94b93d2647442566b", "is_reserved": 0, "rental_uris": {"android": "https://dc.lft.to/lastmile_qr_scan", "ios": "https://dc.lft.to/lastmile_qr_scan"}, "fusion_lon": 0.0}, {"lat": 39.0047275, "is_disabled": 0, "type": "electric_bike", "lon": -76.90131716666667, "bike_id": "c208f308cb4aef1b692ce65d1385418d", "fusion_lat": 0.0, "name": "c208f308cb4aef1b692ce65d1385418d", "is_reserved": 0, "rental_uris": {"android": "https://dc.lft.to/lastmile_qr_scan", "ios": "https://dc.lft.to/lastmile_qr_scan"}, "fusion_lon": 0.0}, {"lat": 38.882975333333334, "is_disabled": 0, "type": "electric_scooter", "lon": -77.0174045, "bike_id": "3a090c5346b268297758637ca7f394a3", "fusion_lat": 0.0, "name": "3a090c5346b268297758637ca7f394a3", "is_reserved": 0, "rental_uris": {"android": "https://dc.lft.to/lastmile_qr_scan", "ios": "https://dc.lft.to/lastmile_qr_scan"}, "fusion_lon": 0.0}, {"lat": 38.918252333333335, "is_disabled": 0, "type": "electric_scooter", "lon": -77.023851, "bike_id": "31547cea2d3201b3c0bee72b17e76594", "fusion_lat": 0.0, "name": "31547cea2d3201b3c0bee72b17e76594", "is_reserved": 0, "rental_uris": {"android": "https://dc.lft.to/lastmile_qr_scan", "ios": "https://dc.lft.to/lastmile_qr_scan"}, "fusion_lon": 0.0}, {"lat": 38.91710883333333, "is_disabled": 0, "type": "electric_scooter", "lon": -77.03866983333333, "bike_id": "3dba8dde84c7e632790c237b1198511d", "fusion_lat": 0.0, "name": "3dba8dde84c7e632790c237b1198511d", "is_reserved": 0, "rental_uris": {"android": "https://dc.lft.to/lastmile_qr_scan", "ios": "https://dc.lft.to/lastmile_qr_scan"}, "fusion_lon": 0.0}, {"lat": 38.9177245, "is_disabled": 0, "type": "electric_scooter", "lon": -77.03658433333334, "bike_id": "e24d24e3fa6c7b6eb6400ba070d38397", "fusion_lat": 0.0, "name": "e24d24e3fa6c7b6eb6400ba070d38397", "is_reserved": 0, "rental_uris": {"android": "https://dc.lft.to/lastmile_qr_scan", "ios": "https://dc.lft.to/lastmile_qr_scan"}, "fusion_lon": 0.0}, {"lat": 38.905779, "is_disabled": 0, "type": "electric_scooter", "lon": -77.00717933333334, "bike_id": "73f12e0a78bf5a60933780d07a5173e8", "fusion_lat": 0.0, "name": "73f12e0a78bf5a60933780d07a5173e8", "is_reserved": 0, "rental_uris": {"android": "https://dc.lft.to/lastmile_qr_scan", "ios": "https://dc.lft.to/lastmile_qr_scan"}, "fusion_lon": 0.0}, {"lat": 38.9325035, "is_disabled": 0, "type": "electric_scooter", "lon": -77.02943283333333, "bike_id": "eaf3bf0629a7fb699b6657113efbbaf5", "fusion_lat": 0.0, "name": "eaf3bf0629a7fb699b6657113efbbaf5", "is_reserved": 0, "rental_uris": {"android": "https://dc.lft.to/lastmile_qr_scan", "ios": "https://dc.lft.to/lastmile_qr_scan"}, "fusion_lon": 0.0}, {"lat": 38.82876233333333, "is_disabled": 0, "type": "electric_bike", "lon": -77.11217033333334, "bike_id": "9363384b5dd86a080236e0f5fa3554ef", "fusion_lat": 0.0, "name": "9363384b5dd86a080236e0f5fa3554ef", "is_reserved": 0, "rental_uris": {"android": "https://dc.lft.to/lastmile_qr_scan", "ios": "https://dc.lft.to/lastmile_qr_scan"}, "fusion_lon": 0.0}, {"lat": 38.870637333333335, "is_disabled": 0, "type": "electric_scooter", "lon": -77.00838083333333, "bike_id": "e71d3231cfa2abf04eb1785d8cd5b05c", "fusion_lat": 0.0, "name": "e71d3231cfa2abf04eb1785d8cd5b05c", "is_reserved": 0, "rental_uris": {"android": "https://dc.lft.to/lastmile_qr_scan", "ios": "https://dc.lft.to/lastmile_qr_scan"}, "fusion_lon": 0.0}, {"lat": 38.93437316666667, "is_disabled": 0, "type": "electric_scooter", "lon": -77.03467833333333, "bike_id": "db4c4a46e732c7197c23c9aaf1f2f29b", "fusion_lat": 0.0, "name": "db4c4a46e732c7197c23c9aaf1f2f29b", "is_reserved": 0, "rental_uris": {"android": "https://dc.lft.to/lastmile_qr_scan", "ios": "https://dc.lft.to/lastmile_qr_scan"}, "fusion_lon": 0.0}, {"lat": 38.862101333333335, "is_disabled": 0, "type": "electric_bike", "lon": -76.99778833333333, "bike_id": "913df795bf445d94b13a31b615241ca1", "fusion_lat": 0.0, "name": "913df795bf445d94b13a31b615241ca1", "is_reserved": 0, "rental_uris": {"android": "https://dc.lft.to/lastmile_qr_scan", "ios": "https://dc.lft.to/lastmile_qr_scan"}, "fusion_lon": 0.0}, {"lat": 38.86675733333333, "is_disabled": 0, "type": "electric_scooter", "lon": -76.985398, "bike_id": "15c4d0973b561cb8300224ed2dd6e1e8", "fusion_lat": 0.0, "name": "15c4d0973b561cb8300224ed2dd6e1e8", "is_reserved": 0, "rental_uris": {"android": "https://dc.lft.to/lastmile_qr_scan", "ios": "https://dc.lft.to/lastmile_qr_scan"}, "fusion_lon": 0.0}, {"lat": 38.917058833333336, "is_disabled": 0, "type": "electric_scooter", "lon": -77.0011275, "bike_id": "ab3b7a826d3f094e581e09ceb29d1e3f", "fusion_lat": 0.0, "name": "ab3b7a826d3f094e581e09ceb29d1e3f", "is_reserved": 0, "rental_uris": {"android": "https://dc.lft.to/lastmile_qr_scan", "ios": "https://dc.lft.to/lastmile_qr_scan"}, "fusion_lon": 0.0}, {"lat": 38.9143005, "is_disabled": 0, "type": "electric_bike", "lon": -77.0170585, "bike_id": "0016c47acba87d3a14526eec3ef078b9", "fusion_lat": 0.0, "name": "0016c47acba87d3a14526eec3ef078b9", "is_reserved": 0, "rental_uris": {"android": "https://dc.lft.to/lastmile_qr_scan", "ios": "https://dc.lft.to/lastmile_qr_scan"}, "fusion_lon": 0.0}, {"lat": 38.927000166666666, "is_disabled": 0, "type": "electric_scooter", "lon": -77.02098533333333, "bike_id": "dee421e01bfd2f5144da4c609164d057", "fusion_lat": 0.0, "name": "dee421e01bfd2f5144da4c609164d057", "is_reserved": 0, "rental_uris": {"android": "https://dc.lft.to/lastmile_qr_scan", "ios": "https://dc.lft.to/lastmile_qr_scan"}, "fusion_lon": 0.0}, {"lat": 38.928495833333336, "is_disabled": 0, "type": "electric_scooter", "lon": -77.01392366666667, "bike_id": "01bf9fe4b3a568d38bb629e5c23c3894", "fusion_lat": 0.0, "name": "01bf9fe4b3a568d38bb629e5c23c3894", "is_reserved": 0, "rental_uris": {"android": "https://dc.lft.to/lastmile_qr_scan", "ios": "https://dc.lft.to/lastmile_qr_scan"}, "fusion_lon": 0.0}, {"lat": 38.958246333333335, "is_disabled": 0, "type": "electric_bike", "lon": -76.94090783333333, "bike_id": "86646acfd81c0d556fbe79042fbd5695", "fusion_lat": 0.0, "name": "86646acfd81c0d556fbe79042fbd5695", "is_reserved": 0, "rental_uris": {"android": "https://dc.lft.to/lastmile_qr_scan", "ios": "https://dc.lft.to/lastmile_qr_scan"}, "fusion_lon": 0.0}, {"lat": 38.9006975, "is_disabled": 0, "type": "electric_scooter", "lon": -77.001903, "bike_id": "baf5cac961e8bbff10081bcf94e803c4", "fusion_lat": 0.0, "name": "baf5cac961e8bbff10081bcf94e803c4", "is_reserved": 0, "rental_uris": {"android": "https://dc.lft.to/lastmile_qr_scan", "ios": "https://dc.lft.to/lastmile_qr_scan"}, "fusion_lon": 0.0}, {"lat": 38.918110166666665, "is_disabled": 0, "type": "electric_scooter", "lon": -77.0005145, "bike_id": "ca39a32d8c6aba541fc695141b8e0b58", "fusion_lat": 0.0, "name": "ca39a32d8c6aba541fc695141b8e0b58", "is_reserved": 0, "rental_uris": {"android": "https://dc.lft.to/lastmile_qr_scan", "ios": "https://dc.lft.to/lastmile_qr_scan"}, "fusion_lon": 0.0}, {"lat": 38.910403, "is_disabled": 0, "type": "electric_scooter", "lon": -77.01506733333333, "bike_id": "99aec9f4944e4a6ce66dbf322cd89cc0", "fusion_lat": 0.0, "name": "99aec9f4944e4a6ce66dbf322cd89cc0", "is_reserved": 0, "rental_uris": {"android": "https://dc.lft.to/lastmile_qr_scan", "ios": "https://dc.lft.to/lastmile_qr_scan"}, "fusion_lon": 0.0}, {"lat": 38.90251383333333, "is_disabled": 0, "type": "electric_scooter", "lon": -77.039442, "bike_id": "0daad89b1b35037992324f71b9058327", "fusion_lat": 0.0, "name": "0daad89b1b35037992324f71b9058327", "is_reserved": 0, "rental_uris": {"android": "https://dc.lft.to/lastmile_qr_scan", "ios": "https://dc.lft.to/lastmile_qr_scan"}, "fusion_lon": 0.0}, {"lat": 38.892030166666665, "is_disabled": 0, "type": "electric_bike", "lon": -76.9704735, "bike_id": "68a78e110705dcd5f9ce6cd1057adfe6", "fusion_lat": 0.0, "name": "68a78e110705dcd5f9ce6cd1057adfe6", "is_reserved": 0, "rental_uris": {"android": "https://dc.lft.to/lastmile_qr_scan", "ios": "https://dc.lft.to/lastmile_qr_scan"}, "fusion_lon": 0.0}, {"lat": 38.93358033333333, "is_disabled": 0, "type": "electric_bike", "lon": -77.099607, "bike_id": "aaf87b1bcf2586661e4dec5a1032d4ac", "fusion_lat": 0.0, "name": "aaf87b1bcf2586661e4dec5a1032d4ac", "is_reserved": 0, "rental_uris": {"android": "https://dc.lft.to/lastmile_qr_scan", "ios": "https://dc.lft.to/lastmile_qr_scan"}, "fusion_lon": 0.0}, {"lat": 38.908525, "is_disabled": 0, "type": "electric_scooter", "lon": -77.00622, "bike_id": "99aff2c9172cddc62c77463662ce6e3c", "fusion_lat": 0.0, "name": "99aff2c9172cddc62c77463662ce6e3c", "is_reserved": 0, "rental_uris": {"android": "https://dc.lft.to/lastmile_qr_scan", "ios": "https://dc.lft.to/lastmile_qr_scan"}, "fusion_lon": 0.0}, {"lat": 38.9181445, "is_disabled": 0, "type": "electric_bike", "lon": -77.22328916666666, "bike_id": "27df7d62f51862980f8098a9d0a43f74", "fusion_lat": 0.0, "name": "27df7d62f51862980f8098a9d0a43f74", "is_reserved": 0, "rental_uris": {"android": "https://dc.lft.to/lastmile_qr_scan", "ios": "https://dc.lft.to/lastmile_qr_scan"}, "fusion_lon": 0.0}, {"lat": 38.903559333333334, "is_disabled": 0, "type": "electric_scooter", "lon": -77.0163045, "bike_id": "865b59819585ed461ab6b23e7b90c380", "fusion_lat": 0.0, "name": "865b59819585ed461ab6b23e7b90c380", "is_reserved": 0, "rental_uris": {"android": "https://dc.lft.to/lastmile_qr_scan", "ios": "https://dc.lft.to/lastmile_qr_scan"}, "fusion_lon": 0.0}, {"lat": 38.89679, "is_disabled": 0, "type": "electric_scooter", "lon": -77.05128233333333, "bike_id": "5bd6df54d490a7de36a253854e51f246", "fusion_lat": 0.0, "name": "5bd6df54d490a7de36a253854e51f246", "is_reserved": 0, "rental_uris": {"android": "https://dc.lft.to/lastmile_qr_scan", "ios": "https://dc.lft.to/lastmile_qr_scan"}, "fusion_lon": 0.0}, {"lat": 38.926469, "is_disabled": 0, "type": "electric_scooter", "lon": -77.04302183333333, "bike_id": "be90c287bdd106a90b4561b3edcb26ef", "fusion_lat": 0.0, "name": "be90c287bdd106a90b4561b3edcb26ef", "is_reserved": 0, "rental_uris": {"android": "https://dc.lft.to/lastmile_qr_scan", "ios": "https://dc.lft.to/lastmile_qr_scan"}, "fusion_lon": 0.0}, {"lat": 38.89816, "is_disabled": 0, "type": "electric_scooter", "lon": -76.97423416666666, "bike_id": "da1b4f48700d981aac70f6b4142a7f04", "fusion_lat": 0.0, "name": "da1b4f48700d981aac70f6b4142a7f04", "is_reserved": 0, "rental_uris": {"android": "https://dc.lft.to/lastmile_qr_scan", "ios": "https://dc.lft.to/lastmile_qr_scan"}, "fusion_lon": 0.0}, {"lat": 38.92896416666667, "is_disabled": 0, "type": "electric_bike", "lon": -77.05776583333333, "bike_id": "546c441231afab02e25ba49de4d4c682", "fusion_lat": 0.0, "name": "546c441231afab02e25ba49de4d4c682", "is_reserved": 0, "rental_uris": {"android": "https://dc.lft.to/lastmile_qr_scan", "ios": "https://dc.lft.to/lastmile_qr_scan"}, "fusion_lon": 0.0}, {"lat": 38.930366666666664, "is_disabled": 0, "type": "electric_scooter", "lon": -77.02960133333333, "bike_id": "28be61a4ba67aaa6cef62c86053c28f9", "fusion_lat": 0.0, "name": "28be61a4ba67aaa6cef62c86053c28f9", "is_reserved": 0, "rental_uris": {"android": "https://dc.lft.to/lastmile_qr_scan", "ios": "https://dc.lft.to/lastmile_qr_scan"}, "fusion_lon": 0.0}, {"lat": 38.93787566666666, "is_disabled": 0, "type": "electric_scooter", "lon": -77.02482516666667, "bike_id": "a67906211a82756a9c827d08eaf8d8f4", "fusion_lat": 0.0, "name": "a67906211a82756a9c827d08eaf8d8f4", "is_reserved": 0, "rental_uris": {"android": "https://dc.lft.to/lastmile_qr_scan", "ios": "https://dc.lft.to/lastmile_qr_scan"}, "fusion_lon": 0.0}, {"lat": 38.905627333333335, "is_disabled": 0, "type": "electric_scooter", "lon": -77.029592, "bike_id": "f35fafd7d9cb13fece290dfdab333c7a", "fusion_lat": 0.0, "name": "f35fafd7d9cb13fece290dfdab333c7a", "is_reserved": 0, "rental_uris": {"android": "https://dc.lft.to/lastmile_qr_scan", "ios": "https://dc.lft.to/lastmile_qr_scan"}, "fusion_lon": 0.0}, {"lat": 38.91353183333333, "is_disabled": 0, "type": "electric_scooter", "lon": -77.06925833333334, "bike_id": "bd087d5becc65852cc660f1e04dd458b", "fusion_lat": 0.0, "name": "bd087d5becc65852cc660f1e04dd458b", "is_reserved": 0, "rental_uris": {"android": "https://dc.lft.to/lastmile_qr_scan", "ios": "https://dc.lft.to/lastmile_qr_scan"}, "fusion_lon": 0.0}, {"lat": 38.931420333333335, "is_disabled": 0, "type": "electric_scooter", "lon": -77.04143433333333, "bike_id": "0e48764877fb00d5b962b1a738a0b58c", "fusion_lat": 0.0, "name": "0e48764877fb00d5b962b1a738a0b58c", "is_reserved": 0, "rental_uris": {"android": "https://dc.lft.to/lastmile_qr_scan", "ios": "https://dc.lft.to/lastmile_qr_scan"}, "fusion_lon": 0.0}, {"lat": 38.866503333333334, "is_disabled": 0, "type": "electric_scooter", "lon": -76.9888445, "bike_id": "cb1c3a1df6c0cfc4fda7466c0151e29c", "fusion_lat": 0.0, "name": "cb1c3a1df6c0cfc4fda7466c0151e29c", "is_reserved": 0, "rental_uris": {"android": "https://dc.lft.to/lastmile_qr_scan", "ios": "https://dc.lft.to/lastmile_qr_scan"}, "fusion_lon": 0.0}, {"lat": 38.92148233333333, "is_disabled": 0, "type": "electric_scooter", "lon": -77.03342916666666, "bike_id": "a33284ac9f81f2ecec821ea4784c7d08", "fusion_lat": 0.0, "name": "a33284ac9f81f2ecec821ea4784c7d08", "is_reserved": 0, "rental_uris": {"android": "https://dc.lft.to/lastmile_qr_scan", "ios": "https://dc.lft.to/lastmile_qr_scan"}, "fusion_lon": 0.0}, {"lat": 38.923087833333334, "is_disabled": 0, "type": "electric_scooter", "lon": -77.0396035, "bike_id": "d661523b7426050d01f2564d4aef699b", "fusion_lat": 0.0, "name": "d661523b7426050d01f2564d4aef699b", "is_reserved": 0, "rental_uris": {"android": "https://dc.lft.to/lastmile_qr_scan", "ios": "https://dc.lft.to/lastmile_qr_scan"}, "fusion_lon": 0.0}, {"lat": 38.93691533333333, "is_disabled": 0, "type": "electric_scooter", "lon": -77.032635, "bike_id": "65b8663f7210d4b3faf34429b694c1e0", "fusion_lat": 0.0, "name": "65b8663f7210d4b3faf34429b694c1e0", "is_reserved": 0, "rental_uris": {"android": "https://dc.lft.to/lastmile_qr_scan", "ios": "https://dc.lft.to/lastmile_qr_scan"}, "fusion_lon": 0.0}, {"lat": 38.9238595, "is_disabled": 0, "type": "electric_scooter", "lon": -77.03058733333333, "bike_id": "9c97c13b4c04709f72e2c131fda98194", "fusion_lat": 0.0, "name": "9c97c13b4c04709f72e2c131fda98194", "is_reserved": 0, "rental_uris": {"android": "https://dc.lft.to/lastmile_qr_scan", "ios": "https://dc.lft.to/lastmile_qr_scan"}, "fusion_lon": 0.0}, {"lat": 38.91484783333333, "is_disabled": 0, "type": "electric_scooter", "lon": -77.01380816666666, "bike_id": "6edea33cc15bfdeb746e318fbf05d788", "fusion_lat": 0.0, "name": "6edea33cc15bfdeb746e318fbf05d788", "is_reserved": 0, "rental_uris": {"android": "https://dc.lft.to/lastmile_qr_scan", "ios": "https://dc.lft.to/lastmile_qr_scan"}, "fusion_lon": 0.0}, {"lat": 38.911054166666666, "is_disabled": 0, "type": "electric_scooter", "lon": -77.04814383333333, "bike_id": "ef78a16515b990eeb9aa22a28ddc0f8b", "fusion_lat": 0.0, "name": "ef78a16515b990eeb9aa22a28ddc0f8b", "is_reserved": 0, "rental_uris": {"android": "https://dc.lft.to/lastmile_qr_scan", "ios": "https://dc.lft.to/lastmile_qr_scan"}, "fusion_lon": 0.0}, {"lat": 38.920384, "is_disabled": 0, "type": "electric_scooter", "lon": -77.0418125, "bike_id": "0eababc6ed01ad8b08994b5d308fa570", "fusion_lat": 0.0, "name": "0eababc6ed01ad8b08994b5d308fa570", "is_reserved": 0, "rental_uris": {"android": "https://dc.lft.to/lastmile_qr_scan", "ios": "https://dc.lft.to/lastmile_qr_scan"}, "fusion_lon": 0.0}, {"lat": 38.90176183333333, "is_disabled": 0, "type": "electric_scooter", "lon": -77.01857933333334, "bike_id": "5f49dacbebc6f3e5ad34adb863ee97ef", "fusion_lat": 0.0, "name": "5f49dacbebc6f3e5ad34adb863ee97ef", "is_reserved": 0, "rental_uris": {"android": "https://dc.lft.to/lastmile_qr_scan", "ios": "https://dc.lft.to/lastmile_qr_scan"}, "fusion_lon": 0.0}, {"lat": 38.8134765, "is_disabled": 0, "type": "electric_bike", "lon": -77.049273, "bike_id": "8f9dfe8b58b31b67a34560264b05c561", "fusion_lat": 0.0, "name": "8f9dfe8b58b31b67a34560264b05c561", "is_reserved": 0, "rental_uris": {"android": "https://dc.lft.to/lastmile_qr_scan", "ios": "https://dc.lft.to/lastmile_qr_scan"}, "fusion_lon": 0.0}, {"lat": 38.89006966666667, "is_disabled": 0, "type": "electric_scooter", "lon": -77.00065983333333, "bike_id": "8daa4fc6831c1dad078936644e89d7bc", "fusion_lat": 0.0, "name": "8daa4fc6831c1dad078936644e89d7bc", "is_reserved": 0, "rental_uris": {"android": "https://dc.lft.to/lastmile_qr_scan", "ios": "https://dc.lft.to/lastmile_qr_scan"}, "fusion_lon": 0.0}, {"lat": 38.90281933333333, "is_disabled": 0, "type": "electric_scooter", "lon": -77.03651516666666, "bike_id": "41d348243d167606dfa48f56a3cbb179", "fusion_lat": 0.0, "name": "41d348243d167606dfa48f56a3cbb179", "is_reserved": 0, "rental_uris": {"android": "https://dc.lft.to/lastmile_qr_scan", "ios": "https://dc.lft.to/lastmile_qr_scan"}, "fusion_lon": 0.0}, {"lat": 38.92200116666667, "is_disabled": 0, "type": "electric_scooter", "lon": -77.05047583333334, "bike_id": "45f7d0bc8b6aa010b859ccfe2a793a51", "fusion_lat": 0.0, "name": "45f7d0bc8b6aa010b859ccfe2a793a51", "is_reserved": 0, "rental_uris": {"android": "https://dc.lft.to/lastmile_qr_scan", "ios": "https://dc.lft.to/lastmile_qr_scan"}, "fusion_lon": 0.0}, {"lat": 38.85517266666667, "is_disabled": 0, "type": "electric_bike", "lon": -76.984071, "bike_id": "cf4418a401b543db0434da0c37ebcd0f", "fusion_lat": 0.0, "name": "cf4418a401b543db0434da0c37ebcd0f", "is_reserved": 0, "rental_uris": {"android": "https://dc.lft.to/lastmile_qr_scan", "ios": "https://dc.lft.to/lastmile_qr_scan"}, "fusion_lon": 0.0}, {"lat": 38.884365333333335, "is_disabled": 0, "type": "electric_scooter", "lon": -76.95752416666667, "bike_id": "f7aa993d90d89aba5a6e5e00edc7867d", "fusion_lat": 0.0, "name": "f7aa993d90d89aba5a6e5e00edc7867d", "is_reserved": 0, "rental_uris": {"android": "https://dc.lft.to/lastmile_qr_scan", "ios": "https://dc.lft.to/lastmile_qr_scan"}, "fusion_lon": 0.0}, {"lat": 38.897567333333335, "is_disabled": 0, "type": "electric_scooter", "lon": -76.94183416666667, "bike_id": "a99d3f293070dac9b35ab9519ce694de", "fusion_lat": 0.0, "name": "a99d3f293070dac9b35ab9519ce694de", "is_reserved": 0, "rental_uris": {"android": "https://dc.lft.to/lastmile_qr_scan", "ios": "https://dc.lft.to/lastmile_qr_scan"}, "fusion_lon": 0.0}, {"lat": 38.90539, "is_disabled": 0, "type": "electric_scooter", "lon": -77.05674066666667, "bike_id": "ceee89defd1effc5b2a5f0daf97b64a9", "fusion_lat": 0.0, "name": "ceee89defd1effc5b2a5f0daf97b64a9", "is_reserved": 0, "rental_uris": {"android": "https://dc.lft.to/lastmile_qr_scan", "ios": "https://dc.lft.to/lastmile_qr_scan"}, "fusion_lon": 0.0}, {"lat": 38.9191095, "is_disabled": 0, "type": "electric_scooter", "lon": -77.0416845, "bike_id": "7a7ea9f7a03254ed447ec81a165a5806", "fusion_lat": 0.0, "name": "7a7ea9f7a03254ed447ec81a165a5806", "is_reserved": 0, "rental_uris": {"android": "https://dc.lft.to/lastmile_qr_scan", "ios": "https://dc.lft.to/lastmile_qr_scan"}, "fusion_lon": 0.0}, {"lat": 38.8006515, "is_disabled": 0, "type": "electric_bike", "lon": -77.071208, "bike_id": "b9168755d29150a0ebae28ac693a3bfe", "fusion_lat": 0.0, "name": "b9168755d29150a0ebae28ac693a3bfe", "is_reserved": 0, "rental_uris": {"android": "https://dc.lft.to/lastmile_qr_scan", "ios": "https://dc.lft.to/lastmile_qr_scan"}, "fusion_lon": 0.0}, {"lat": 38.866248166666665, "is_disabled": 0, "type": "electric_scooter", "lon": -76.98660033333333, "bike_id": "f93b2785e9c08104b719e8a469bda439", "fusion_lat": 0.0, "name": "f93b2785e9c08104b719e8a469bda439", "is_reserved": 0, "rental_uris": {"android": "https://dc.lft.to/lastmile_qr_scan", "ios": "https://dc.lft.to/lastmile_qr_scan"}, "fusion_lon": 0.0}, {"lat": 38.866528333333335, "is_disabled": 0, "type": "electric_scooter", "lon": -76.988844, "bike_id": "c2b9d2150f31a18bf7f0d6ac22c333fd", "fusion_lat": 0.0, "name": "c2b9d2150f31a18bf7f0d6ac22c333fd", "is_reserved": 0, "rental_uris": {"android": "https://dc.lft.to/lastmile_qr_scan", "ios": "https://dc.lft.to/lastmile_qr_scan"}, "fusion_lon": 0.0}, {"lat": 38.884931333333334, "is_disabled": 0, "type": "electric_scooter", "lon": -77.00701966666666, "bike_id": "e585da28bc1df6c0ad67819d99efdc90", "fusion_lat": 0.0, "name": "e585da28bc1df6c0ad67819d99efdc90", "is_reserved": 0, "rental_uris": {"android": "https://dc.lft.to/lastmile_qr_scan", "ios": "https://dc.lft.to/lastmile_qr_scan"}, "fusion_lon": 0.0}, {"lat": 38.90930766666666, "is_disabled": 0, "type": "electric_bike", "lon": -77.06120583333333, "bike_id": "1ebdc1e78721ef149ac5f6ab58c966c2", "fusion_lat": 0.0, "name": "1ebdc1e78721ef149ac5f6ab58c966c2", "is_reserved": 0, "rental_uris": {"android": "https://dc.lft.to/lastmile_qr_scan", "ios": "https://dc.lft.to/lastmile_qr_scan"}, "fusion_lon": 0.0}, {"lat": 38.88689166666666, "is_disabled": 0, "type": "electric_scooter", "lon": -77.0129865, "bike_id": "eb31246abc92a3ec25f6dad025b16cbe", "fusion_lat": 0.0, "name": "eb31246abc92a3ec25f6dad025b16cbe", "is_reserved": 0, "rental_uris": {"android": "https://dc.lft.to/lastmile_qr_scan", "ios": "https://dc.lft.to/lastmile_qr_scan"}, "fusion_lon": 0.0}, {"lat": 38.933567, "is_disabled": 0, "type": "electric_scooter", "lon": -77.073667, "bike_id": "a7dc056f77805c0aa84e18c8d4aab82e", "fusion_lat": 0.0, "name": "a7dc056f77805c0aa84e18c8d4aab82e", "is_reserved": 0, "rental_uris": {"android": "https://dc.lft.to/lastmile_qr_scan", "ios": "https://dc.lft.to/lastmile_qr_scan"}, "fusion_lon": 0.0}, {"lat": 38.89245866666667, "is_disabled": 0, "type": "electric_scooter", "lon": -77.04893516666667, "bike_id": "61e9d5b9796afa455f18fa24860e3bd5", "fusion_lat": 0.0, "name": "61e9d5b9796afa455f18fa24860e3bd5", "is_reserved": 0, "rental_uris": {"android": "https://dc.lft.to/lastmile_qr_scan", "ios": "https://dc.lft.to/lastmile_qr_scan"}, "fusion_lon": 0.0}, {"lat": 38.89835433333333, "is_disabled": 0, "type": "electric_scooter", "lon": -76.93100966666667, "bike_id": "0d03021fb655c8a88cf6af75cc063948", "fusion_lat": 0.0, "name": "0d03021fb655c8a88cf6af75cc063948", "is_reserved": 0, "rental_uris": {"android": "https://dc.lft.to/lastmile_qr_scan", "ios": "https://dc.lft.to/lastmile_qr_scan"}, "fusion_lon": 0.0}, {"lat": 38.9086205, "is_disabled": 0, "type": "electric_bike", "lon": -76.93163833333334, "bike_id": "d7a2ecd2b47aa28d702ab166d99bb70d", "fusion_lat": 0.0, "name": "d7a2ecd2b47aa28d702ab166d99bb70d", "is_reserved": 0, "rental_uris": {"android": "https://dc.lft.to/lastmile_qr_scan", "ios": "https://dc.lft.to/lastmile_qr_scan"}, "fusion_lon": 0.0}, {"lat": 38.903179, "is_disabled": 0, "type": "electric_scooter", "lon": -76.98997216666666, "bike_id": "132f628656d1b8dc50bd2048440b2e19", "fusion_lat": 0.0, "name": "132f628656d1b8dc50bd2048440b2e19", "is_reserved": 0, "rental_uris": {"android": "https://dc.lft.to/lastmile_qr_scan", "ios": "https://dc.lft.to/lastmile_qr_scan"}, "fusion_lon": 0.0}, {"lat": 38.96923866666667, "is_disabled": 0, "type": "electric_bike", "lon": -77.02618266666667, "bike_id": "7fbf293b7744f5f969a5af4193859dff", "fusion_lat": 0.0, "name": "7fbf293b7744f5f969a5af4193859dff", "is_reserved": 0, "rental_uris": {"android": "https://dc.lft.to/lastmile_qr_scan", "ios": "https://dc.lft.to/lastmile_qr_scan"}, "fusion_lon": 0.0}, {"lat": 38.87459316666666, "is_disabled": 0, "type": "electric_scooter", "lon": -77.00926166666666, "bike_id": "21ee2c0e88b95b146108644eef866c75", "fusion_lat": 0.0, "name": "21ee2c0e88b95b146108644eef866c75", "is_reserved": 0, "rental_uris": {"android": "https://dc.lft.to/lastmile_qr_scan", "ios": "https://dc.lft.to/lastmile_qr_scan"}, "fusion_lon": 0.0}, {"lat": 38.87375466666667, "is_disabled": 0, "type": "electric_bike", "lon": -77.11797966666667, "bike_id": "dfed4c70646c6eea7bea1006517ceeae", "fusion_lat": 0.0, "name": "dfed4c70646c6eea7bea1006517ceeae", "is_reserved": 0, "rental_uris": {"android": "https://dc.lft.to/lastmile_qr_scan", "ios": "https://dc.lft.to/lastmile_qr_scan"}, "fusion_lon": 0.0}, {"lat": 38.92082216666667, "is_disabled": 0, "type": "electric_bike", "lon": -76.99186783333333, "bike_id": "8b4a8621f936ab551229464d00ba8238", "fusion_lat": 0.0, "name": "8b4a8621f936ab551229464d00ba8238", "is_reserved": 0, "rental_uris": {"android": "https://dc.lft.to/lastmile_qr_scan", "ios": "https://dc.lft.to/lastmile_qr_scan"}, "fusion_lon": 0.0}, {"lat": 38.8965005, "is_disabled": 0, "type": "electric_scooter", "lon": -77.04672, "bike_id": "61f1f96386d0957aee5ad69860ba8e6e", "fusion_lat": 0.0, "name": "61f1f96386d0957aee5ad69860ba8e6e", "is_reserved": 0, "rental_uris": {"android": "https://dc.lft.to/lastmile_qr_scan", "ios": "https://dc.lft.to/lastmile_qr_scan"}, "fusion_lon": 0.0}, {"lat": 38.9660155, "is_disabled": 0, "type": "electric_bike", "lon": -76.983342, "bike_id": "b93fcc563924e56fbcac0b4ddb7c6bc8", "fusion_lat": 0.0, "name": "b93fcc563924e56fbcac0b4ddb7c6bc8", "is_reserved": 0, "rental_uris": {"android": "https://dc.lft.to/lastmile_qr_scan", "ios": "https://dc.lft.to/lastmile_qr_scan"}, "fusion_lon": 0.0}, {"lat": 38.930900333333334, "is_disabled": 0, "type": "electric_scooter", "lon": -77.0255895, "bike_id": "5aa4d51fccc4a5f8d816dd136ce7ff93", "fusion_lat": 0.0, "name": "5aa4d51fccc4a5f8d816dd136ce7ff93", "is_reserved": 0, "rental_uris": {"android": "https://dc.lft.to/lastmile_qr_scan", "ios": "https://dc.lft.to/lastmile_qr_scan"}, "fusion_lon": 0.0}, {"lat": 38.90458916666667, "is_disabled": 0, "type": "electric_scooter", "lon": -76.994548, "bike_id": "f831c931a409c0e135072de09dab05c6", "fusion_lat": 0.0, "name": "f831c931a409c0e135072de09dab05c6", "is_reserved": 0, "rental_uris": {"android": "https://dc.lft.to/lastmile_qr_scan", "ios": "https://dc.lft.to/lastmile_qr_scan"}, "fusion_lon": 0.0}, {"lat": 38.90082683333333, "is_disabled": 0, "type": "electric_scooter", "lon": -77.05052666666667, "bike_id": "827b45cde9c01c1e0dc3f7ce38ff85dc", "fusion_lat": 0.0, "name": "827b45cde9c01c1e0dc3f7ce38ff85dc", "is_reserved": 0, "rental_uris": {"android": "https://dc.lft.to/lastmile_qr_scan", "ios": "https://dc.lft.to/lastmile_qr_scan"}, "fusion_lon": 0.0}, {"lat": 38.881160333333334, "is_disabled": 0, "type": "electric_scooter", "lon": -77.0163385, "bike_id": "4642f55fc59af0245e67b0b9fe2993a6", "fusion_lat": 0.0, "name": "4642f55fc59af0245e67b0b9fe2993a6", "is_reserved": 0, "rental_uris": {"android": "https://dc.lft.to/lastmile_qr_scan", "ios": "https://dc.lft.to/lastmile_qr_scan"}, "fusion_lon": 0.0}, {"lat": 38.867081, "is_disabled": 0, "type": "electric_scooter", "lon": -76.98729383333334, "bike_id": "104b2f44440a80d71f39b453c1539ef4", "fusion_lat": 0.0, "name": "104b2f44440a80d71f39b453c1539ef4", "is_reserved": 0, "rental_uris": {"android": "https://dc.lft.to/lastmile_qr_scan", "ios": "https://dc.lft.to/lastmile_qr_scan"}, "fusion_lon": 0.0}, {"lat": 38.865088166666666, "is_disabled": 0, "type": "electric_scooter", "lon": -76.9900395, "bike_id": "16777a1e35e37e65698580190f018257", "fusion_lat": 0.0, "name": "16777a1e35e37e65698580190f018257", "is_reserved": 0, "rental_uris": {"android": "https://dc.lft.to/lastmile_qr_scan", "ios": "https://dc.lft.to/lastmile_qr_scan"}, "fusion_lon": 0.0}, {"lat": 38.9249855, "is_disabled": 0, "type": "electric_scooter", "lon": -76.98234433333333, "bike_id": "87def6af93e9d3091c60ce6002e65df1", "fusion_lat": 0.0, "name": "87def6af93e9d3091c60ce6002e65df1", "is_reserved": 0, "rental_uris": {"android": "https://dc.lft.to/lastmile_qr_scan", "ios": "https://dc.lft.to/lastmile_qr_scan"}, "fusion_lon": 0.0}, {"lat": 38.949239666666664, "is_disabled": 0, "type": "electric_bike", "lon": -77.00800433333333, "bike_id": "8d44ea785bf69636b261a8dcafe99348", "fusion_lat": 0.0, "name": "8d44ea785bf69636b261a8dcafe99348", "is_reserved": 0, "rental_uris": {"android": "https://dc.lft.to/lastmile_qr_scan", "ios": "https://dc.lft.to/lastmile_qr_scan"}, "fusion_lon": 0.0}, {"lat": 38.90531566666667, "is_disabled": 0, "type": "electric_scooter", "lon": -77.04853483333333, "bike_id": "778ad16e488f178c575df1902d37bbe7", "fusion_lat": 0.0, "name": "778ad16e488f178c575df1902d37bbe7", "is_reserved": 0, "rental_uris": {"android": "https://dc.lft.to/lastmile_qr_scan", "ios": "https://dc.lft.to/lastmile_qr_scan"}, "fusion_lon": 0.0}, {"lat": 38.900111, "is_disabled": 0, "type": "electric_scooter", "lon": -77.01198883333333, "bike_id": "00c87399a64ac6a15a5cdf0dac435d49", "fusion_lat": 0.0, "name": "00c87399a64ac6a15a5cdf0dac435d49", "is_reserved": 0, "rental_uris": {"android": "https://dc.lft.to/lastmile_qr_scan", "ios": "https://dc.lft.to/lastmile_qr_scan"}, "fusion_lon": 0.0}, {"lat": 38.884666833333334, "is_disabled": 0, "type": "electric_scooter", "lon": -77.0241475, "bike_id": "311e6d6b7737da2696bcf2f2e68c6827", "fusion_lat": 0.0, "name": "311e6d6b7737da2696bcf2f2e68c6827", "is_reserved": 0, "rental_uris": {"android": "https://dc.lft.to/lastmile_qr_scan", "ios": "https://dc.lft.to/lastmile_qr_scan"}, "fusion_lon": 0.0}, {"lat": 38.90073816666666, "is_disabled": 0, "type": "electric_scooter", "lon": -77.04924233333334, "bike_id": "2b549f121b3f1602bdd5f39bdb4f8edb", "fusion_lat": 0.0, "name": "2b549f121b3f1602bdd5f39bdb4f8edb", "is_reserved": 0, "rental_uris": {"android": "https://dc.lft.to/lastmile_qr_scan", "ios": "https://dc.lft.to/lastmile_qr_scan"}, "fusion_lon": 0.0}, {"lat": 38.9397495, "is_disabled": 0, "type": "electric_scooter", "lon": -77.03591383333334, "bike_id": "b4f056c8c916510939b5b20cfd92dfbf", "fusion_lat": 0.0, "name": "b4f056c8c916510939b5b20cfd92dfbf", "is_reserved": 0, "rental_uris": {"android": "https://dc.lft.to/lastmile_qr_scan", "ios": "https://dc.lft.to/lastmile_qr_scan"}, "fusion_lon": 0.0}, {"lat": 38.920238499999996, "is_disabled": 0, "type": "electric_scooter", "lon": -77.0373135, "bike_id": "6028352ef09c1f96c7414dd3f6f2d485", "fusion_lat": 0.0, "name": "6028352ef09c1f96c7414dd3f6f2d485", "is_reserved": 0, "rental_uris": {"android": "https://dc.lft.to/lastmile_qr_scan", "ios": "https://dc.lft.to/lastmile_qr_scan"}, "fusion_lon": 0.0}, {"lat": 38.907687, "is_disabled": 0, "type": "electric_scooter", "lon": -77.038499, "bike_id": "a102936095e4def7a8d0c84549b5f487", "fusion_lat": 0.0, "name": "a102936095e4def7a8d0c84549b5f487", "is_reserved": 0, "rental_uris": {"android": "https://dc.lft.to/lastmile_qr_scan", "ios": "https://dc.lft.to/lastmile_qr_scan"}, "fusion_lon": 0.0}, {"lat": 38.957822, "is_disabled": 0, "type": "electric_scooter", "lon": -77.02750466666667, "bike_id": "b05de14de026d34f1646f501e52fa17c", "fusion_lat": 0.0, "name": "b05de14de026d34f1646f501e52fa17c", "is_reserved": 0, "rental_uris": {"android": "https://dc.lft.to/lastmile_qr_scan", "ios": "https://dc.lft.to/lastmile_qr_scan"}, "fusion_lon": 0.0}, {"lat": 38.932829, "is_disabled": 0, "type": "electric_scooter", "lon": -77.03551883333333, "bike_id": "cfc95c687d9b6d38451403e2efa930c6", "fusion_lat": 0.0, "name": "cfc95c687d9b6d38451403e2efa930c6", "is_reserved": 0, "rental_uris": {"android": "https://dc.lft.to/lastmile_qr_scan", "ios": "https://dc.lft.to/lastmile_qr_scan"}, "fusion_lon": 0.0}, {"lat": 38.90877483333333, "is_disabled": 0, "type": "electric_scooter", "lon": -77.03668083333334, "bike_id": "7e8baaddd34ae7def7e574997411250d", "fusion_lat": 0.0, "name": "7e8baaddd34ae7def7e574997411250d", "is_reserved": 0, "rental_uris": {"android": "https://dc.lft.to/lastmile_qr_scan", "ios": "https://dc.lft.to/lastmile_qr_scan"}, "fusion_lon": 0.0}, {"lat": 38.925898, "is_disabled": 0, "type": "electric_scooter", "lon": -77.02288283333333, "bike_id": "2b39aefe9f76433c3331ca8b2ba9664b", "fusion_lat": 0.0, "name": "2b39aefe9f76433c3331ca8b2ba9664b", "is_reserved": 0, "rental_uris": {"android": "https://dc.lft.to/lastmile_qr_scan", "ios": "https://dc.lft.to/lastmile_qr_scan"}, "fusion_lon": 0.0}, {"lat": 38.9528885, "is_disabled": 0, "type": "electric_bike", "lon": -76.94597033333334, "bike_id": "001770ab5aa62f9b4b45efe4576a2e03", "fusion_lat": 0.0, "name": "001770ab5aa62f9b4b45efe4576a2e03", "is_reserved": 0, "rental_uris": {"android": "https://dc.lft.to/lastmile_qr_scan", "ios": "https://dc.lft.to/lastmile_qr_scan"}, "fusion_lon": 0.0}, {"lat": 38.956474166666666, "is_disabled": 0, "type": "electric_bike", "lon": -77.02253883333333, "bike_id": "61f46a84298ea3b77223d441ecf754ca", "fusion_lat": 0.0, "name": "61f46a84298ea3b77223d441ecf754ca", "is_reserved": 0, "rental_uris": {"android": "https://dc.lft.to/lastmile_qr_scan", "ios": "https://dc.lft.to/lastmile_qr_scan"}, "fusion_lon": 0.0}, {"lat": 38.922698, "is_disabled": 0, "type": "electric_scooter", "lon": -77.04141566666667, "bike_id": "580c84abfa1a548fabbfe3333449caf7", "fusion_lat": 0.0, "name": "580c84abfa1a548fabbfe3333449caf7", "is_reserved": 0, "rental_uris": {"android": "https://dc.lft.to/lastmile_qr_scan", "ios": "https://dc.lft.to/lastmile_qr_scan"}, "fusion_lon": 0.0}, {"lat": 38.9170735, "is_disabled": 0, "type": "electric_scooter", "lon": -77.001128, "bike_id": "6076d3311dc8e07e9f35ab6cee977adf", "fusion_lat": 0.0, "name": "6076d3311dc8e07e9f35ab6cee977adf", "is_reserved": 0, "rental_uris": {"android": "https://dc.lft.to/lastmile_qr_scan", "ios": "https://dc.lft.to/lastmile_qr_scan"}, "fusion_lon": 0.0}, {"lat": 38.884916833333335, "is_disabled": 0, "type": "electric_scooter", "lon": -77.0072525, "bike_id": "c655ed32e92d9727400f8ba993b01643", "fusion_lat": 0.0, "name": "c655ed32e92d9727400f8ba993b01643", "is_reserved": 0, "rental_uris": {"android": "https://dc.lft.to/lastmile_qr_scan", "ios": "https://dc.lft.to/lastmile_qr_scan"}, "fusion_lon": 0.0}, {"lat": 38.895552333333335, "is_disabled": 0, "type": "electric_scooter", "lon": -76.930794, "bike_id": "803f8221a77d3f8ce3a64a1356f91fc2", "fusion_lat": 0.0, "name": "803f8221a77d3f8ce3a64a1356f91fc2", "is_reserved": 0, "rental_uris": {"android": "https://dc.lft.to/lastmile_qr_scan", "ios": "https://dc.lft.to/lastmile_qr_scan"}, "fusion_lon": 0.0}, {"lat": 38.90266916666667, "is_disabled": 0, "type": "electric_scooter", "lon": -77.0032265, "bike_id": "e4e30f5494f4b52cf6c68391d3ba0750", "fusion_lat": 0.0, "name": "e4e30f5494f4b52cf6c68391d3ba0750", "is_reserved": 0, "rental_uris": {"android": "https://dc.lft.to/lastmile_qr_scan", "ios": "https://dc.lft.to/lastmile_qr_scan"}, "fusion_lon": 0.0}, {"lat": 38.9283145, "is_disabled": 0, "type": "electric_scooter", "lon": -77.0261975, "bike_id": "1c076942a673a0d05e07b6ed612cefa7", "fusion_lat": 0.0, "name": "1c076942a673a0d05e07b6ed612cefa7", "is_reserved": 0, "rental_uris": {"android": "https://dc.lft.to/lastmile_qr_scan", "ios": "https://dc.lft.to/lastmile_qr_scan"}, "fusion_lon": 0.0}, {"lat": 38.919192833333334, "is_disabled": 0, "type": "electric_scooter", "lon": -77.0318545, "bike_id": "e721b44a373291f34ac981ffd637ec66", "fusion_lat": 0.0, "name": "e721b44a373291f34ac981ffd637ec66", "is_reserved": 0, "rental_uris": {"android": "https://dc.lft.to/lastmile_qr_scan", "ios": "https://dc.lft.to/lastmile_qr_scan"}, "fusion_lon": 0.0}, {"lat": 38.902949, "is_disabled": 0, "type": "electric_scooter", "lon": -77.0386785, "bike_id": "7eb98936bad0be6fcf090a7e42a79efa", "fusion_lat": 0.0, "name": "7eb98936bad0be6fcf090a7e42a79efa", "is_reserved": 0, "rental_uris": {"android": "https://dc.lft.to/lastmile_qr_scan", "ios": "https://dc.lft.to/lastmile_qr_scan"}, "fusion_lon": 0.0}, {"lat": 38.939525, "is_disabled": 0, "type": "electric_bike", "lon": -77.36095166666667, "bike_id": "a72ce4a75a4f723b5d9b7dcffc5e1167", "fusion_lat": 0.0, "name": "a72ce4a75a4f723b5d9b7dcffc5e1167", "is_reserved": 0, "rental_uris": {"android": "https://dc.lft.to/lastmile_qr_scan", "ios": "https://dc.lft.to/lastmile_qr_scan"}, "fusion_lon": 0.0}, {"lat": 38.90825816666667, "is_disabled": 0, "type": "electric_scooter", "lon": -77.0637755, "bike_id": "77acef1c57325eda4948791c24ddcc59", "fusion_lat": 0.0, "name": "77acef1c57325eda4948791c24ddcc59", "is_reserved": 0, "rental_uris": {"android": "https://dc.lft.to/lastmile_qr_scan", "ios": "https://dc.lft.to/lastmile_qr_scan"}, "fusion_lon": 0.0}, {"lat": 38.8988215, "is_disabled": 0, "type": "electric_scooter", "lon": -76.93176566666666, "bike_id": "7ec5579af2e074769bd98c257f3332bc", "fusion_lat": 0.0, "name": "7ec5579af2e074769bd98c257f3332bc", "is_reserved": 0, "rental_uris": {"android": "https://dc.lft.to/lastmile_qr_scan", "ios": "https://dc.lft.to/lastmile_qr_scan"}, "fusion_lon": 0.0}, {"lat": 38.9193425, "is_disabled": 0, "type": "electric_scooter", "lon": -77.02300883333334, "bike_id": "dc34197375864250e405ac04bb9bd38a", "fusion_lat": 0.0, "name": "dc34197375864250e405ac04bb9bd38a", "is_reserved": 0, "rental_uris": {"android": "https://dc.lft.to/lastmile_qr_scan", "ios": "https://dc.lft.to/lastmile_qr_scan"}, "fusion_lon": 0.0}, {"lat": 38.9070165, "is_disabled": 0, "type": "electric_scooter", "lon": -77.037591, "bike_id": "694bd0d40c4aa8363286cc1ae6db290a", "fusion_lat": 0.0, "name": "694bd0d40c4aa8363286cc1ae6db290a", "is_reserved": 0, "rental_uris": {"android": "https://dc.lft.to/lastmile_qr_scan", "ios": "https://dc.lft.to/lastmile_qr_scan"}, "fusion_lon": 0.0}, {"lat": 38.922297666666665, "is_disabled": 0, "type": "electric_scooter", "lon": -77.04580466666667, "bike_id": "015303b6141557855cf28cc424165b6b", "fusion_lat": 0.0, "name": "015303b6141557855cf28cc424165b6b", "is_reserved": 0, "rental_uris": {"android": "https://dc.lft.to/lastmile_qr_scan", "ios": "https://dc.lft.to/lastmile_qr_scan"}, "fusion_lon": 0.0}, {"lat": 38.90023766666667, "is_disabled": 0, "type": "electric_scooter", "lon": -77.02605816666667, "bike_id": "2f2af146932fb7a41211713bcbcf65e9", "fusion_lat": 0.0, "name": "2f2af146932fb7a41211713bcbcf65e9", "is_reserved": 0, "rental_uris": {"android": "https://dc.lft.to/lastmile_qr_scan", "ios": "https://dc.lft.to/lastmile_qr_scan"}, "fusion_lon": 0.0}, {"lat": 38.85048533333333, "is_disabled": 0, "type": "electric_bike", "lon": -76.97318433333334, "bike_id": "f956080a68f0f50c29d0a6a1f4d24613", "fusion_lat": 0.0, "name": "f956080a68f0f50c29d0a6a1f4d24613", "is_reserved": 0, "rental_uris": {"android": "https://dc.lft.to/lastmile_qr_scan", "ios": "https://dc.lft.to/lastmile_qr_scan"}, "fusion_lon": 0.0}, {"lat": 38.933323333333334, "is_disabled": 0, "type": "electric_bike", "lon": -77.0420535, "bike_id": "a0fa17e9832becbdf8dcb460d9e9761a", "fusion_lat": 0.0, "name": "a0fa17e9832becbdf8dcb460d9e9761a", "is_reserved": 0, "rental_uris": {"android": "https://dc.lft.to/lastmile_qr_scan", "ios": "https://dc.lft.to/lastmile_qr_scan"}, "fusion_lon": 0.0}, {"lat": 38.913852, "is_disabled": 0, "type": "electric_scooter", "lon": -77.04166733333334, "bike_id": "58773ca8166433701e115322c207d173", "fusion_lat": 0.0, "name": "58773ca8166433701e115322c207d173", "is_reserved": 0, "rental_uris": {"android": "https://dc.lft.to/lastmile_qr_scan", "ios": "https://dc.lft.to/lastmile_qr_scan"}, "fusion_lon": 0.0}, {"lat": 38.90166633333333, "is_disabled": 0, "type": "electric_scooter", "lon": -77.02509783333333, "bike_id": "2e7736856635aff9c4c731422a78d12d", "fusion_lat": 0.0, "name": "2e7736856635aff9c4c731422a78d12d", "is_reserved": 0, "rental_uris": {"android": "https://dc.lft.to/lastmile_qr_scan", "ios": "https://dc.lft.to/lastmile_qr_scan"}, "fusion_lon": 0.0}, {"lat": 38.93228783333333, "is_disabled": 0, "type": "electric_scooter", "lon": -76.99600233333334, "bike_id": "062ea02b56b3a682fc550173111774db", "fusion_lat": 0.0, "name": "062ea02b56b3a682fc550173111774db", "is_reserved": 0, "rental_uris": {"android": "https://dc.lft.to/lastmile_qr_scan", "ios": "https://dc.lft.to/lastmile_qr_scan"}, "fusion_lon": 0.0}, {"lat": 38.897287166666665, "is_disabled": 0, "type": "electric_scooter", "lon": -77.04758266666667, "bike_id": "b89095bf815ce86eddb6582560e243de", "fusion_lat": 0.0, "name": "b89095bf815ce86eddb6582560e243de", "is_reserved": 0, "rental_uris": {"android": "https://dc.lft.to/lastmile_qr_scan", "ios": "https://dc.lft.to/lastmile_qr_scan"}, "fusion_lon": 0.0}, {"lat": 38.906723666666664, "is_disabled": 0, "type": "electric_scooter", "lon": -77.02707666666667, "bike_id": "fabcf5ec4af24807be5b425b7e789b03", "fusion_lat": 0.0, "name": "fabcf5ec4af24807be5b425b7e789b03", "is_reserved": 0, "rental_uris": {"android": "https://dc.lft.to/lastmile_qr_scan", "ios": "https://dc.lft.to/lastmile_qr_scan"}, "fusion_lon": 0.0}, {"lat": 38.872164833333336, "is_disabled": 0, "type": "electric_bike", "lon": -77.01529233333333, "bike_id": "723f4079783186a5aa11efc3d7dd0b71", "fusion_lat": 0.0, "name": "723f4079783186a5aa11efc3d7dd0b71", "is_reserved": 0, "rental_uris": {"android": "https://dc.lft.to/lastmile_qr_scan", "ios": "https://dc.lft.to/lastmile_qr_scan"}, "fusion_lon": 0.0}, {"lat": 38.903280333333335, "is_disabled": 0, "type": "electric_scooter", "lon": -77.02873183333334, "bike_id": "81593fb492ec81ee752dfdcf047941fb", "fusion_lat": 0.0, "name": "81593fb492ec81ee752dfdcf047941fb", "is_reserved": 0, "rental_uris": {"android": "https://dc.lft.to/lastmile_qr_scan", "ios": "https://dc.lft.to/lastmile_qr_scan"}, "fusion_lon": 0.0}, {"lat": 38.928561333333334, "is_disabled": 0, "type": "electric_bike", "lon": -77.22214483333333, "bike_id": "24a85cfb2b7ef00929705c3105d581a3", "fusion_lat": 0.0, "name": "24a85cfb2b7ef00929705c3105d581a3", "is_reserved": 0, "rental_uris": {"android": "https://dc.lft.to/lastmile_qr_scan", "ios": "https://dc.lft.to/lastmile_qr_scan"}, "fusion_lon": 0.0}, {"lat": 38.93133183333333, "is_disabled": 0, "type": "electric_scooter", "lon": -77.03249966666667, "bike_id": "72d8437002c227bb9f4e3adbcb1bbf2c", "fusion_lat": 0.0, "name": "72d8437002c227bb9f4e3adbcb1bbf2c", "is_reserved": 0, "rental_uris": {"android": "https://dc.lft.to/lastmile_qr_scan", "ios": "https://dc.lft.to/lastmile_qr_scan"}, "fusion_lon": 0.0}, {"lat": 38.96559, "is_disabled": 0, "type": "electric_bike", "lon": -77.02035666666667, "bike_id": "a69a05d494f5399fcaa6991902897c32", "fusion_lat": 0.0, "name": "a69a05d494f5399fcaa6991902897c32", "is_reserved": 0, "rental_uris": {"android": "https://dc.lft.to/lastmile_qr_scan", "ios": "https://dc.lft.to/lastmile_qr_scan"}, "fusion_lon": 0.0}, {"lat": 38.902407833333335, "is_disabled": 0, "type": "electric_scooter", "lon": -77.04347416666667, "bike_id": "efdcc1bc365f40a9a0e9b80fdf129775", "fusion_lat": 0.0, "name": "efdcc1bc365f40a9a0e9b80fdf129775", "is_reserved": 0, "rental_uris": {"android": "https://dc.lft.to/lastmile_qr_scan", "ios": "https://dc.lft.to/lastmile_qr_scan"}, "fusion_lon": 0.0}, {"lat": 39.08855716666667, "is_disabled": 0, "type": "electric_bike", "lon": -77.17840133333333, "bike_id": "9e495cf54fc00ebce8c3d0ff392be804", "fusion_lat": 0.0, "name": "9e495cf54fc00ebce8c3d0ff392be804", "is_reserved": 0, "rental_uris": {"android": "https://dc.lft.to/lastmile_qr_scan", "ios": "https://dc.lft.to/lastmile_qr_scan"}, "fusion_lon": 0.0}, {"lat": 38.89972016666667, "is_disabled": 0, "type": "electric_scooter", "lon": -77.02299316666667, "bike_id": "7b4365325f914dc2a0406a1cf7352a6d", "fusion_lat": 0.0, "name": "7b4365325f914dc2a0406a1cf7352a6d", "is_reserved": 0, "rental_uris": {"android": "https://dc.lft.to/lastmile_qr_scan", "ios": "https://dc.lft.to/lastmile_qr_scan"}, "fusion_lon": 0.0}, {"lat": 38.9226035, "is_disabled": 0, "type": "electric_scooter", "lon": -77.04289833333333, "bike_id": "008788b142f4755e46e53a73aa033401", "fusion_lat": 0.0, "name": "008788b142f4755e46e53a73aa033401", "is_reserved": 0, "rental_uris": {"android": "https://dc.lft.to/lastmile_qr_scan", "ios": "https://dc.lft.to/lastmile_qr_scan"}, "fusion_lon": 0.0}, {"lat": 38.906401833333334, "is_disabled": 0, "type": "electric_scooter", "lon": -77.04678833333334, "bike_id": "abe9199fd9d153e32bf1d8a475b5aeb1", "fusion_lat": 0.0, "name": "abe9199fd9d153e32bf1d8a475b5aeb1", "is_reserved": 0, "rental_uris": {"android": "https://dc.lft.to/lastmile_qr_scan", "ios": "https://dc.lft.to/lastmile_qr_scan"}, "fusion_lon": 0.0}, {"lat": 38.922012333333335, "is_disabled": 0, "type": "electric_scooter", "lon": -76.95660833333334, "bike_id": "ef834965ba6eb1d518e78427f34d0726", "fusion_lat": 0.0, "name": "ef834965ba6eb1d518e78427f34d0726", "is_reserved": 0, "rental_uris": {"android": "https://dc.lft.to/lastmile_qr_scan", "ios": "https://dc.lft.to/lastmile_qr_scan"}, "fusion_lon": 0.0}, {"lat": 38.9177895, "is_disabled": 0, "type": "electric_scooter", "lon": -77.02868516666666, "bike_id": "9da723ea05a44ad47d38ea5cb78da958", "fusion_lat": 0.0, "name": "9da723ea05a44ad47d38ea5cb78da958", "is_reserved": 0, "rental_uris": {"android": "https://dc.lft.to/lastmile_qr_scan", "ios": "https://dc.lft.to/lastmile_qr_scan"}, "fusion_lon": 0.0}, {"lat": 38.90986783333334, "is_disabled": 0, "type": "electric_scooter", "lon": -76.99734083333334, "bike_id": "1507fefc373b4c6c92cc884947156efd", "fusion_lat": 0.0, "name": "1507fefc373b4c6c92cc884947156efd", "is_reserved": 0, "rental_uris": {"android": "https://dc.lft.to/lastmile_qr_scan", "ios": "https://dc.lft.to/lastmile_qr_scan"}, "fusion_lon": 0.0}, {"lat": 38.92402666666667, "is_disabled": 0, "type": "electric_scooter", "lon": -77.0341195, "bike_id": "612a7936b3b6ffe77cdda705a2d42031", "fusion_lat": 0.0, "name": "612a7936b3b6ffe77cdda705a2d42031", "is_reserved": 0, "rental_uris": {"android": "https://dc.lft.to/lastmile_qr_scan", "ios": "https://dc.lft.to/lastmile_qr_scan"}, "fusion_lon": 0.0}, {"lat": 38.92654983333333, "is_disabled": 0, "type": "electric_scooter", "lon": -77.024195, "bike_id": "d2fb6381cefa75059edc3345121d076c", "fusion_lat": 0.0, "name": "d2fb6381cefa75059edc3345121d076c", "is_reserved": 0, "rental_uris": {"android": "https://dc.lft.to/lastmile_qr_scan", "ios": "https://dc.lft.to/lastmile_qr_scan"}, "fusion_lon": 0.0}, {"lat": 38.930221333333336, "is_disabled": 0, "type": "electric_scooter", "lon": -77.02050283333334, "bike_id": "ea7420b3d0dfed97c5e57ccdbdbbf3fc", "fusion_lat": 0.0, "name": "ea7420b3d0dfed97c5e57ccdbdbbf3fc", "is_reserved": 0, "rental_uris": {"android": "https://dc.lft.to/lastmile_qr_scan", "ios": "https://dc.lft.to/lastmile_qr_scan"}, "fusion_lon": 0.0}, {"lat": 38.929624, "is_disabled": 0, "type": "electric_scooter", "lon": -77.032079, "bike_id": "ddc7169233fd401740fdddebeb61aa90", "fusion_lat": 0.0, "name": "ddc7169233fd401740fdddebeb61aa90", "is_reserved": 0, "rental_uris": {"android": "https://dc.lft.to/lastmile_qr_scan", "ios": "https://dc.lft.to/lastmile_qr_scan"}, "fusion_lon": 0.0}, {"lat": 38.866586833333336, "is_disabled": 0, "type": "electric_scooter", "lon": -76.98901566666666, "bike_id": "46ff00e828ec12c159b682ff39c08f12", "fusion_lat": 0.0, "name": "46ff00e828ec12c159b682ff39c08f12", "is_reserved": 0, "rental_uris": {"android": "https://dc.lft.to/lastmile_qr_scan", "ios": "https://dc.lft.to/lastmile_qr_scan"}, "fusion_lon": 0.0}, {"lat": 38.92439, "is_disabled": 0, "type": "electric_scooter", "lon": -77.0335935, "bike_id": "8aeb06c17007238d077361d65e9cb1c0", "fusion_lat": 0.0, "name": "8aeb06c17007238d077361d65e9cb1c0", "is_reserved": 0, "rental_uris": {"android": "https://dc.lft.to/lastmile_qr_scan", "ios": "https://dc.lft.to/lastmile_qr_scan"}, "fusion_lon": 0.0}, {"lat": 38.924299500000004, "is_disabled": 0, "type": "electric_scooter", "lon": -77.03414033333334, "bike_id": "9425f27d3886aa9c1d470a5c362e884a", "fusion_lat": 0.0, "name": "9425f27d3886aa9c1d470a5c362e884a", "is_reserved": 0, "rental_uris": {"android": "https://dc.lft.to/lastmile_qr_scan", "ios": "https://dc.lft.to/lastmile_qr_scan"}, "fusion_lon": 0.0}, {"lat": 38.914670666666666, "is_disabled": 0, "type": "electric_scooter", "lon": -77.06691716666667, "bike_id": "3d5ccb01094377de2afdc05e7dc633a9", "fusion_lat": 0.0, "name": "3d5ccb01094377de2afdc05e7dc633a9", "is_reserved": 0, "rental_uris": {"android": "https://dc.lft.to/lastmile_qr_scan", "ios": "https://dc.lft.to/lastmile_qr_scan"}, "fusion_lon": 0.0}, {"lat": 38.936091833333336, "is_disabled": 0, "type": "electric_scooter", "lon": -77.057607, "bike_id": "54b792e0654f0d13c67fcc08081d3355", "fusion_lat": 0.0, "name": "54b792e0654f0d13c67fcc08081d3355", "is_reserved": 0, "rental_uris": {"android": "https://dc.lft.to/lastmile_qr_scan", "ios": "https://dc.lft.to/lastmile_qr_scan"}, "fusion_lon": 0.0}, {"lat": 38.87985716666667, "is_disabled": 0, "type": "electric_scooter", "lon": -76.98673616666666, "bike_id": "298a9baeffc4743ee53a336d31556935", "fusion_lat": 0.0, "name": "298a9baeffc4743ee53a336d31556935", "is_reserved": 0, "rental_uris": {"android": "https://dc.lft.to/lastmile_qr_scan", "ios": "https://dc.lft.to/lastmile_qr_scan"}, "fusion_lon": 0.0}, {"lat": 38.8670025, "is_disabled": 0, "type": "electric_scooter", "lon": -76.98711016666667, "bike_id": "09ea5789c7dc1b74fd7ccda55536e23b", "fusion_lat": 0.0, "name": "09ea5789c7dc1b74fd7ccda55536e23b", "is_reserved": 0, "rental_uris": {"android": "https://dc.lft.to/lastmile_qr_scan", "ios": "https://dc.lft.to/lastmile_qr_scan"}, "fusion_lon": 0.0}, {"lat": 38.90273216666667, "is_disabled": 0, "type": "electric_scooter", "lon": -77.01773516666667, "bike_id": "5241984eeab658db948ae36b7b20dfb3", "fusion_lat": 0.0, "name": "5241984eeab658db948ae36b7b20dfb3", "is_reserved": 0, "rental_uris": {"android": "https://dc.lft.to/lastmile_qr_scan", "ios": "https://dc.lft.to/lastmile_qr_scan"}, "fusion_lon": 0.0}, {"lat": 38.9250525, "is_disabled": 0, "type": "electric_scooter", "lon": -77.07644016666667, "bike_id": "36b28c13871275f1e54c0f5a1fd536c0", "fusion_lat": 0.0, "name": "36b28c13871275f1e54c0f5a1fd536c0", "is_reserved": 0, "rental_uris": {"android": "https://dc.lft.to/lastmile_qr_scan", "ios": "https://dc.lft.to/lastmile_qr_scan"}, "fusion_lon": 0.0},