{"data": {"bikes": [{"lon": -77.036403, "lat": 38.949098, "name": "c6c5dc2077f4a94871462e8c91097da7", "fusion_lat": 0.0, "fusion_lon": 0.0, "rental_uris": {"android": "https://dc.lft.to/lastmile_qr_scan", "ios": "https://dc.lft.to/lastmile_qr_scan"}, "is_reserved": 0, "is_disabled": 0, "type": "electric_scooter", "bike_id": "c6c5dc2077f4a94871462e8c91097da7"}, {"lon": -77.0683345, "lat": 38.911758, "name": "2272712c0f56bebdb506573dca2ae9b7", "fusion_lat": 0.0, "fusion_lon": 0.0, "rental_uris": {"android": "https://dc.lft.to/lastmile_qr_scan", "ios": "https://dc.lft.to/lastmile_qr_scan"}, "is_reserved": 0, "is_disabled": 0, "type": "electric_scooter", "bike_id": "2272712c0f56bebdb506573dca2ae9b7"}, {"lon": -77.053764, "lat": 38.92333433333334, "name": "14562411d72fc97f15dc7b950a57ba25", "fusion_lat": 0.0, "fusion_lon": 0.0, "rental_uris": {"android": "https://dc.lft.to/lastmile_qr_scan", "ios": "https://dc.lft.to/lastmile_qr_scan"}, "is_reserved": 0, "is_disabled": 0, "type": "electric_scooter", "bike_id": "14562411d72fc97f15dc7b950a57ba25"}, {"lon": -77.02956583333334, "lat": 38.91150966666667, "name": "9f39a862db8f327510baf975bf594981", "fusion_lat": 0.0, "fusion_lon": 0.0, "rental_uris": {"android": "https://dc.lft.to/lastmile_qr_scan", "ios": "https://dc.lft.to/lastmile_qr_scan"}, "is_reserved": 0, "is_disabled": 0, "type": "electric_bike", "bike_id": "9f39a862db8f327510baf975bf594981"}, {"lon": -77.03856466666667, "lat": 38.93212483333333, "name": "4706a1572140be0362d14c5baf865753", "fusion_lat": 0.0, "fusion_lon": 0.0, "rental_uris": {"android": "https://dc.lft.to/lastmile_qr_scan", "ios": "https://dc.lft.to/lastmile_qr_scan"}, "is_reserved": 0, "is_disabled": 0, "type": "electric_scooter", "bike_id": "4706a1572140be0362d14c5baf865753"}, {"lon": -77.14989483333333, "lat": 39.0945865, "name": "eab40ecf21402a588007cbe444f19993", "fusion_lat": 0.0, "fusion_lon": 0.0, "rental_uris": {"android": "https://dc.lft.to/lastmile_qr_scan", "ios": "https://dc.lft.to/lastmile_qr_scan"}, "is_reserved": 0, "is_disabled": 0, "type": "electric_bike", "bike_id": "eab40ecf21402a588007cbe444f19993"}, {"lon": -77.003482, "lat": 38.891562666666665, "name": "a53ff3697974a04fb59e69f5004150da", "fusion_lat": 0.0, "fusion_lon": 0.0, "rental_uris": {"android": "https://dc.lft.to/lastmile_qr_scan", "ios": "https://dc.lft.to/lastmile_qr_scan"}, "is_reserved": 0, "is_disabled": 0, "type": "electric_scooter", "bike_id": "a53ff3697974a04fb59e69f5004150da"}, {"lon": -77.06918333333333, "lat": 38.9127135, "name": "5e504f18c238bdd58cae1e977aaeecdb", "fusion_lat": 0.0, "fusion_lon": 0.0, "rental_uris": {"android": "https://dc.lft.to/lastmile_qr_scan", "ios": "https://dc.lft.to/lastmile_qr_scan"}, "is_reserved": 0, "is_disabled": 0, "type": "electric_scooter", "bike_id": "5e504f18c238bdd58cae1e977aaeecdb"}, {"lon": -77.00652866666667, "lat": 38.908613, "name": "c48c883b42b2fc92e743a86f991931ca", "fusion_lat": 0.0, "fusion_lon": 0.0, "rental_uris": {"android": "https://dc.lft.to/lastmile_qr_scan", "ios": "https://dc.lft.to/lastmile_qr_scan"}, "is_reserved": 0, "is_disabled": 0, "type": "electric_scooter", "bike_id": "c48c883b42b2fc92e743a86f991931ca"}, {"lon": -77.19910183333333, "lat": 38.875271, "name": "bae9c558b732ed2eb48fbd3cd8b1a683", "fusion_lat": 0.0, "fusion_lon": 0.0, "rental_uris": {"android": "https://dc.lft.to/lastmile_qr_scan", "ios": "https://dc.lft.to/lastmile_qr_scan"}, "is_reserved": 0, "is_disabled": 0, "type": "electric_bike", "bike_id": "bae9c558b732ed2eb48fbd3cd8b1a683"}, {"lon": -77.02429366666667, "lat": 38.904157833333336, "name": "edb5ce7ae8044370181cc296418315c7", "fusion_lat": 0.0, "fusion_lon": 0.0, "rental_uris": {"android": "https://dc.lft.to/lastmile_qr_scan", "ios": "https://dc.lft.to/lastmile_qr_scan"}, "is_reserved": 0, "is_disabled": 0, "type": "electric_scooter", "bike_id": "edb5ce7ae8044370181cc296418315c7"}, {"lon": -77.04660116666666, "lat": 38.8933735, "name": "db25022a9e77a69bcdd1bbdc36c979a1", "fusion_lat": 0.0, "fusion_lon": 0.0, "rental_uris": {"android": "https://dc.lft.to/lastmile_qr_scan", "ios": "https://dc.lft.to/lastmile_qr_scan"}, "is_reserved": 0, "is_disabled": 0, "type": "electric_scooter", "bike_id": "db25022a9e77a69bcdd1bbdc36c979a1"}, {"lon": -76.991592, "lat": 38.90042483333333, "name": "1823082c25fb47e5807f409f448ff287", "fusion_lat": 0.0, "fusion_lon": 0.0, "rental_uris": {"android": "https://dc.lft.to/lastmile_qr_scan", "ios": "https://dc.lft.to/lastmile_qr_scan"}, "is_reserved": 0, "is_disabled": 0, "type": "electric_scooter", "bike_id": "1823082c25fb47e5807f409f448ff287"}, {"lon": -77.01087966666667, "lat": 38.89395183333333, "name": "0728057a066561ca459c7b2c10676051", "fusion_lat": 0.0, "fusion_lon": 0.0, "rental_uris": {"android": "https://dc.lft.to/lastmile_qr_scan", "ios": "https://dc.lft.to/lastmile_qr_scan"}, "is_reserved": 0, "is_disabled": 0, "type": "electric_scooter", "bike_id": "0728057a066561ca459c7b2c10676051"}, {"lon": -77.0322915, "lat": 38.892290333333335, "name": "d29adb7b75324159378f455de6693507", "fusion_lat": 0.0, "fusion_lon": 0.0, "rental_uris": {"android": "https://dc.lft.to/lastmile_qr_scan", "ios": "https://dc.lft.to/lastmile_qr_scan"}, "is_reserved": 0, "is_disabled": 0, "type": "electric_scooter", "bike_id": "d29adb7b75324159378f455de6693507"}, {"lon": -77.030732, "lat": 38.90800616666667, "name": "e917f76dc7f6662fe69297bdfa9b5b1c", "fusion_lat": 0.0, "fusion_lon": 0.0, "rental_uris": {"android": "https://dc.lft.to/lastmile_qr_scan", "ios": "https://dc.lft.to/lastmile_qr_scan"}, "is_reserved": 0, "is_disabled": 0, "type": "electric_scooter", "bike_id": "e917f76dc7f6662fe69297bdfa9b5b1c"}, {"lon": -77.04282466666666, "lat": 38.9029395, "name": "3d0b0f14a1941e3337b99290d49cca7d", "fusion_lat": 0.0, "fusion_lon": 0.0, "rental_uris": {"android": "https://dc.lft.to/lastmile_qr_scan", "ios": "https://dc.lft.to/lastmile_qr_scan"}, "is_reserved": 0, "is_disabled": 0, "type": "electric_scooter", "bike_id": "3d0b0f14a1941e3337b99290d49cca7d"}, {"lon": -77.10683333333333, "lat": 38.93582133333334, "name": "32bf6c2d94495b989152a79aae516acc", "fusion_lat": 0.0, "fusion_lon": 0.0, "rental_uris": {"android": "https://dc.lft.to/lastmile_qr_scan", "ios": "https://dc.lft.to/lastmile_qr_scan"}, "is_reserved": 0, "is_disabled": 0, "type": "electric_bike", "bike_id": "32bf6c2d94495b989152a79aae516acc"}, {"lon": -77.0446565, "lat": 38.912087, "name": "4066211812864f0a36cb57f5db966e47", "fusion_lat": 0.0, "fusion_lon": 0.0, "rental_uris": {"android": "https://dc.lft.to/lastmile_qr_scan", "ios": "https://dc.lft.to/lastmile_qr_scan"}, "is_reserved": 0, "is_disabled": 0, "type": "electric_scooter", "bike_id": "4066211812864f0a36cb57f5db966e47"}, {"lon": -77.027168, "lat": 38.906710833333335, "name": "51e57b8ee5b12686d5b72192079fc668", "fusion_lat": 0.0, "fusion_lon": 0.0, "rental_uris": {"android": "https://dc.lft.to/lastmile_qr_scan", "ios": "https://dc.lft.to/lastmile_qr_scan"}, "is_reserved": 0, "is_disabled": 0, "type": "electric_scooter", "bike_id": "51e57b8ee5b12686d5b72192079fc668"}, {"lon": -77.04916433333334, "lat": 38.90545216666666, "name": "4f835d15b8712b954b0eb5e458906592", "fusion_lat": 0.0, "fusion_lon": 0.0, "rental_uris": {"android": "https://dc.lft.to/lastmile_qr_scan", "ios": "https://dc.lft.to/lastmile_qr_scan"}, "is_reserved": 0, "is_disabled": 0, "type": "electric_scooter", "bike_id": "4f835d15b8712b954b0eb5e458906592"}, {"lon": -76.93434083333334, "lat": 38.89965316666667, "name": "c7540b5fd183f5b8c25203e0705e2dd2", "fusion_lat": 0.0, "fusion_lon": 0.0, "rental_uris": {"android": "https://dc.lft.to/lastmile_qr_scan", "ios": "https://dc.lft.to/lastmile_qr_scan"}, "is_reserved": 0, "is_disabled": 0, "type": "electric_scooter", "bike_id": "c7540b5fd183f5b8c25203e0705e2dd2"}, {"lon": -77.0531885, "lat": 38.90652083333333, "name": "1959ca8c2fa17da9990fba761faaad59", "fusion_lat": 0.0, "fusion_lon": 0.0, "rental_uris": {"android": "https://dc.lft.to/lastmile_qr_scan", "ios": "https://dc.lft.to/lastmile_qr_scan"}, "is_reserved": 0, "is_disabled": 0, "type": "electric_scooter", "bike_id": "1959ca8c2fa17da9990fba761faaad59"}, {"lon": -77.0121005, "lat": 38.912449, "name": "a51ba31b8a412bd4fced0569a7ffc36b", "fusion_lat": 0.0, "fusion_lon": 0.0, "rental_uris": {"android": "https://dc.lft.to/lastmile_qr_scan", "ios": "https://dc.lft.to/lastmile_qr_scan"}, "is_reserved": 0, "is_disabled": 0, "type": "electric_scooter", "bike_id": "a51ba31b8a412bd4fced0569a7ffc36b"}, {"lon": -77.00506716666666, "lat": 38.8753465, "name": "dc73ec322292017a72ad3a9ffcec640d", "fusion_lat": 0.0, "fusion_lon": 0.0, "rental_uris": {"android": "https://dc.lft.to/lastmile_qr_scan", "ios": "https://dc.lft.to/lastmile_qr_scan"}, "is_reserved": 0, "is_disabled": 0, "type": "electric_scooter", "bike_id": "dc73ec322292017a72ad3a9ffcec640d"}, {"lon": -77.003481, "lat": 38.89260766666666, "name": "41a5af159e80cf2c34649e08333ef5fb", "fusion_lat": 0.0, "fusion_lon": 0.0, "rental_uris": {"android": "https://dc.lft.to/lastmile_qr_scan", "ios": "https://dc.lft.to/lastmile_qr_scan"}, "is_reserved": 0, "is_disabled": 0, "type": "electric_scooter", "bike_id": "41a5af159e80cf2c34649e08333ef5fb"}, {"lon": -76.98358233333333, "lat": 38.914984, "name": "65a01c7b3ed90b72ca8055014e0bc3c0", "fusion_lat": 0.0, "fusion_lon": 0.0, "rental_uris": {"android": "https://dc.lft.to/lastmile_qr_scan", "ios": "https://dc.lft.to/lastmile_qr_scan"}, "is_reserved": 0, "is_disabled": 0, "type": "electric_scooter", "bike_id": "65a01c7b3ed90b72ca8055014e0bc3c0"}, {"lon": -76.99002516666667, "lat": 38.86506166666667, "name": "d500822f3a35d2e955eaf5ae305874d2", "fusion_lat": 0.0, "fusion_lon": 0.0, "rental_uris": {"android": "https://dc.lft.to/lastmile_qr_scan", "ios": "https://dc.lft.to/lastmile_qr_scan"}, "is_reserved": 0, "is_disabled": 0, "type": "electric_scooter", "bike_id": "d500822f3a35d2e955eaf5ae305874d2"}, {"lon": -76.9864335, "lat": 38.90008433333333, "name": "bc8c907fc22772c6c3b5921f12b52f47", "fusion_lat": 0.0, "fusion_lon": 0.0, "rental_uris": {"android": "https://dc.lft.to/lastmile_qr_scan", "ios": "https://dc.lft.to/lastmile_qr_scan"}, "is_reserved": 0, "is_disabled": 0, "type": "electric_scooter", "bike_id": "bc8c907fc22772c6c3b5921f12b52f47"}, {"lon": -77.02278916666667, "lat": 38.92719666666667, "name": "d4d195d4f9ae799401931b2fae7abe46", "fusion_lat": 0.0, "fusion_lon": 0.0, "rental_uris": {"android": "https://dc.lft.to/lastmile_qr_scan", "ios": "https://dc.lft.to/lastmile_qr_scan"}, "is_reserved": 0, "is_disabled": 0, "type": "electric_scooter", "bike_id": "d4d195d4f9ae799401931b2fae7abe46"}, {"lon": -77.02882833333334, "lat": 38.907155833333334, "name": "1c8dd2117215a32125921faa1e6ee33c", "fusion_lat": 0.0, "fusion_lon": 0.0, "rental_uris": {"android": "https://dc.lft.to/lastmile_qr_scan", "ios": "https://dc.lft.to/lastmile_qr_scan"}, "is_reserved": 0, "is_disabled": 0, "type": "electric_bike", "bike_id": "1c8dd2117215a32125921faa1e6ee33c"}, {"lon": -77.044272, "lat": 38.905793, "name": "4c5a7243323cf3282f9a373ef4ede4a2", "fusion_lat": 0.0, "fusion_lon": 0.0, "rental_uris": {"android": "https://dc.lft.to/lastmile_qr_scan", "ios": "https://dc.lft.to/lastmile_qr_scan"}, "is_reserved": 0, "is_disabled": 0, "type": "electric_scooter", "bike_id": "4c5a7243323cf3282f9a373ef4ede4a2"}, {"lon": -77.04793316666667, "lat": 38.89367033333333, "name": "a99b319d673e977a954f9b2a958d49cb", "fusion_lat": 0.0, "fusion_lon": 0.0, "rental_uris": {"android": "https://dc.lft.to/lastmile_qr_scan", "ios": "https://dc.lft.to/lastmile_qr_scan"}, "is_reserved": 0, "is_disabled": 0, "type": "electric_scooter", "bike_id": "a99b319d673e977a954f9b2a958d49cb"}, {"lon": -77.03663733333333, "lat": 38.92553816666667, "name": "3ff6aa44a29c806577acea986bb4316e", "fusion_lat": 0.0, "fusion_lon": 0.0, "rental_uris": {"android": "https://dc.lft.to/lastmile_qr_scan", "ios": "https://dc.lft.to/lastmile_qr_scan"}, "is_reserved": 0, "is_disabled": 0, "type": "electric_scooter", "bike_id": "3ff6aa44a29c806577acea986bb4316e"}, {"lon": -77.05442, "lat": 38.89605066666667, "name": "bfe78bc9ec79b4549267e3ee2508c2e1", "fusion_lat": 0.0, "fusion_lon": 0.0, "rental_uris": {"android": "https://dc.lft.to/lastmile_qr_scan", "ios": "https://dc.lft.to/lastmile_qr_scan"}, "is_reserved": 0, "is_disabled": 0, "type": "electric_scooter", "bike_id": "bfe78bc9ec79b4549267e3ee2508c2e1"}, {"lon": -77.04235466666667, "lat": 38.9386945, "name": "e87b50b259b515ad8939ce670c5f5fb4", "fusion_lat": 0.0, "fusion_lon": 0.0, "rental_uris": {"android": "https://dc.lft.to/lastmile_qr_scan", "ios": "https://dc.lft.to/lastmile_qr_scan"}, "is_reserved": 0, "is_disabled": 0, "type": "electric_bike", "bike_id": "e87b50b259b515ad8939ce670c5f5fb4"}, {"lon": -77.02490166666666, "lat": 38.93867616666667, "name": "b9a6ceccd156127f3fa97b834c6fde7b", "fusion_lat": 0.0, "fusion_lon": 0.0, "rental_uris": {"android": "https://dc.lft.to/lastmile_qr_scan", "ios": "https://dc.lft.to/lastmile_qr_scan"}, "is_reserved": 0, "is_disabled": 0, "type": "electric_scooter", "bike_id": "b9a6ceccd156127f3fa97b834c6fde7b"}, {"lon": -77.01655566666666, "lat": 38.953276333333335, "name": "e4c3221ee7b7e4bf403a60c8e10b94ea", "fusion_lat": 0.0, "fusion_lon": 0.0, "rental_uris": {"android": "https://dc.lft.to/lastmile_qr_scan", "ios": "https://dc.lft.to/lastmile_qr_scan"}, "is_reserved": 0, "is_disabled": 0, "type": "electric_scooter", "bike_id": "e4c3221ee7b7e4bf403a60c8e10b94ea"}, {"lon": -77.01840016666667, "lat": 38.90874383333333, "name": "c2c2c5d798640841a5d7989964368cbf", "fusion_lat": 0.0, "fusion_lon": 0.0, "rental_uris": {"android": "https://dc.lft.to/lastmile_qr_scan", "ios": "https://dc.lft.to/lastmile_qr_scan"}, "is_reserved": 0, "is_disabled": 0, "type": "electric_scooter", "bike_id": "c2c2c5d798640841a5d7989964368cbf"}, {"lon": -76.98263766666666, "lat": 38.863517333333334, "name": "3a2d6abd705cf571d9df9b24c1686e51", "fusion_lat": 0.0, "fusion_lon": 0.0, "rental_uris": {"android": "https://dc.lft.to/lastmile_qr_scan", "ios": "https://dc.lft.to/lastmile_qr_scan"}, "is_reserved": 0, "is_disabled": 0, "type": "electric_scooter", "bike_id": "3a2d6abd705cf571d9df9b24c1686e51"}, {"lon": -77.011938, "lat": 38.900337666666665, "name": "20ab62ffcd6a659eab65204f0a3bc1a7", "fusion_lat": 0.0, "fusion_lon": 0.0, "rental_uris": {"android": "https://dc.lft.to/lastmile_qr_scan", "ios": "https://dc.lft.to/lastmile_qr_scan"}, "is_reserved": 0, "is_disabled": 0, "type": "electric_scooter", "bike_id": "20ab62ffcd6a659eab65204f0a3bc1a7"}, {"lon": -77.002659, "lat": 38.87730766666667, "name": "fc69179ba4b659ba0880bacff59f11c4", "fusion_lat": 0.0, "fusion_lon": 0.0, "rental_uris": {"android": "https://dc.lft.to/lastmile_qr_scan", "ios": "https://dc.lft.to/lastmile_qr_scan"}, "is_reserved": 0, "is_disabled": 0, "type": "electric_scooter", "bike_id": "fc69179ba4b659ba0880bacff59f11c4"}, {"lon": -77.029606, "lat": 38.917176, "name": "ce7f652554ce6b10a5c56c95c313d072", "fusion_lat": 0.0, "fusion_lon": 0.0, "rental_uris": {"android": "https://dc.lft.to/lastmile_qr_scan", "ios": "https://dc.lft.to/lastmile_qr_scan"}, "is_reserved": 0, "is_disabled": 0, "type": "electric_scooter", "bike_id": "ce7f652554ce6b10a5c56c95c313d072"}, {"lon": -77.02711583333334, "lat": 38.949954166666664, "name": "155a644ca77c3d20acb8119853684cf9", "fusion_lat": 0.0, "fusion_lon": 0.0, "rental_uris": {"android": "https://dc.lft.to/lastmile_qr_scan", "ios": "https://dc.lft.to/lastmile_qr_scan"}, "is_reserved": 0, "is_disabled": 0, "type": "electric_scooter", "bike_id": "155a644ca77c3d20acb8119853684cf9"}, {"lon": -77.08220416666667, "lat": 38.93552733333333, "name": "84802dc7beb66213673b4c8958738ebc", "fusion_lat": 0.0, "fusion_lon": 0.0, "rental_uris": {"android": "https://dc.lft.to/lastmile_qr_scan", "ios": "https://dc.lft.to/lastmile_qr_scan"}, "is_reserved": 0, "is_disabled": 0, "type": "electric_scooter", "bike_id": "84802dc7beb66213673b4c8958738ebc"}, {"lon": -76.997797, "lat": 38.8855315, "name": "3237698e3c1ab0e57aa862c42315866f", "fusion_lat": 0.0, "fusion_lon": 0.0, "rental_uris": {"android": "https://dc.lft.to/lastmile_qr_scan", "ios": "https://dc.lft.to/lastmile_qr_scan"}, "is_reserved": 0, "is_disabled": 0, "type": "electric_scooter", "bike_id": "3237698e3c1ab0e57aa862c42315866f"}, {"lon": -77.03654033333333, "lat": 38.902794166666666, "name": "027816e947e521ba7915fc9e253f1092", "fusion_lat": 0.0, "fusion_lon": 0.0, "rental_uris": {"android": "https://dc.lft.to/lastmile_qr_scan", "ios": "https://dc.lft.to/lastmile_qr_scan"}, "is_reserved": 0, "is_disabled": 0, "type": "electric_scooter", "bike_id": "027816e947e521ba7915fc9e253f1092"}, {"lon": -76.98902566666666, "lat": 38.866914666666666, "name": "963257bcfa2fc44c7f4b24a995d96ddc", "fusion_lat": 0.0, "fusion_lon": 0.0, "rental_uris": {"android": "https://dc.lft.to/lastmile_qr_scan", "ios": "https://dc.lft.to/lastmile_qr_scan"}, "is_reserved": 0, "is_disabled": 0, "type": "electric_scooter", "bike_id": "963257bcfa2fc44c7f4b24a995d96ddc"}, {"lon": -77.0430735, "lat": 39.0544465, "name": "ec6103e7a2dd88cd5d0b013a9d0011d0", "fusion_lat": 0.0, "fusion_lon": 0.0, "rental_uris": {"android": "https://dc.lft.to/lastmile_qr_scan", "ios": "https://dc.lft.to/lastmile_qr_scan"}, "is_reserved": 0, "is_disabled": 0, "type": "electric_bike", "bike_id": "ec6103e7a2dd88cd5d0b013a9d0011d0"}, {"lon": -77.17846216666666, "lat": 39.08856016666667, "name": "08e874ac82bd09a2caae10bacd712afe", "fusion_lat": 0.0, "fusion_lon": 0.0, "rental_uris": {"android": "https://dc.lft.to/lastmile_qr_scan", "ios": "https://dc.lft.to/lastmile_qr_scan"}, "is_reserved": 0, "is_disabled": 0, "type": "electric_bike", "bike_id": "08e874ac82bd09a2caae10bacd712afe"}, {"lon": -77.01888466666666, "lat": 38.902376, "name": "147d4bf97f3241e2ca65977220e953d4", "fusion_lat": 0.0, "fusion_lon": 0.0, "rental_uris": {"android": "https://dc.lft.to/lastmile_qr_scan", "ios": "https://dc.lft.to/lastmile_qr_scan"}, "is_reserved": 0, "is_disabled": 0, "type": "electric_scooter", "bike_id": "147d4bf97f3241e2ca65977220e953d4"}, {"lon": -77.00338433333333, "lat": 38.89354933333333, "name": "637546514c36744a2f94124247d01428", "fusion_lat": 0.0, "fusion_lon": 0.0, "rental_uris": {"android": "https://dc.lft.to/lastmile_qr_scan", "ios": "https://dc.lft.to/lastmile_qr_scan"}, "is_reserved": 0, "is_disabled": 0, "type": "electric_scooter", "bike_id": "637546514c36744a2f94124247d01428"}, {"lon": -77.03983533333333, "lat": 38.89884266666667, "name": "96566360a3dbd992d08b1eace029cfc7", "fusion_lat": 0.0, "fusion_lon": 0.0, "rental_uris": {"android": "https://dc.lft.to/lastmile_qr_scan", "ios": "https://dc.lft.to/lastmile_qr_scan"}, "is_reserved": 0, "is_disabled": 0, "type": "electric_scooter", "bike_id": "96566360a3dbd992d08b1eace029cfc7"}, {"lon": -77.03296166666667, "lat": 38.90841133333333, "name": "02e2de231240a4561dffaa17946fd9ed", "fusion_lat": 0.0, "fusion_lon": 0.0, "rental_uris": {"android": "https://dc.lft.to/lastmile_qr_scan", "ios": "https://dc.lft.to/lastmile_qr_scan"}, "is_reserved": 0, "is_disabled": 0, "type": "electric_scooter", "bike_id": "02e2de231240a4561dffaa17946fd9ed"}, {"lon": -77.01384166666666, "lat": 38.898283, "name": "7f368837c665400e3e52c8a5d9dae9bc", "fusion_lat": 0.0, "fusion_lon": 0.0, "rental_uris": {"android": "https://dc.lft.to/lastmile_qr_scan", "ios": "https://dc.lft.to/lastmile_qr_scan"}, "is_reserved": 0, "is_disabled": 0, "type": "electric_scooter", "bike_id": "7f368837c665400e3e52c8a5d9dae9bc"}, {"lon": -76.97939416666667, "lat": 38.866066333333336, "name": "a567d8f79a36d67c0e343a58b902ba8e", "fusion_lat": 0.0, "fusion_lon": 0.0, "rental_uris": {"android": "https://dc.lft.to/lastmile_qr_scan", "ios": "https://dc.lft.to/lastmile_qr_scan"}, "is_reserved": 0, "is_disabled": 0, "type": "electric_scooter", "bike_id": "a567d8f79a36d67c0e343a58b902ba8e"}, {"lon": -77.0242085, "lat": 38.902074999999996, "name": "e080ff06407aabc0994ee98776de24d3", "fusion_lat": 0.0, "fusion_lon": 0.0, "rental_uris": {"android": "https://dc.lft.to/lastmile_qr_scan", "ios": "https://dc.lft.to/lastmile_qr_scan"}, "is_reserved": 0, "is_disabled": 0, "type": "electric_scooter", "bike_id": "e080ff06407aabc0994ee98776de24d3"}, {"lon": -77.0159575, "lat": 38.918647166666666, "name": "76743f65c1fb9e3016ab7f53e42c059b", "fusion_lat": 0.0, "fusion_lon": 0.0, "rental_uris": {"android": "https://dc.lft.to/lastmile_qr_scan", "ios": "https://dc.lft.to/lastmile_qr_scan"}, "is_reserved": 0, "is_disabled": 0, "type": "electric_scooter", "bike_id": "76743f65c1fb9e3016ab7f53e42c059b"}, {"lon": -76.98572166666666, "lat": 38.899579, "name": "47ac092c1ca98f0ed202f18ce514c521", "fusion_lat": 0.0, "fusion_lon": 0.0, "rental_uris": {"android": "https://dc.lft.to/lastmile_qr_scan", "ios": "https://dc.lft.to/lastmile_qr_scan"}, "is_reserved": 0, "is_disabled": 0, "type": "electric_scooter", "bike_id": "47ac092c1ca98f0ed202f18ce514c521"}, {"lon": -77.02718133333333, "lat": 38.90953366666667, "name": "763a03437bd2c5d5c5ea19a0e8ce6e9b", "fusion_lat": 0.0, "fusion_lon": 0.0, "rental_uris": {"android": "https://dc.lft.to/lastmile_qr_scan", "ios": "https://dc.lft.to/lastmile_qr_scan"}, "is_reserved": 0, "is_disabled": 0, "type": "electric_scooter", "bike_id": "763a03437bd2c5d5c5ea19a0e8ce6e9b"}, {"lon": -76.97942016666667, "lat": 38.9024365, "name": "b5f3e1a56d836ab3c47e15af354699c1", "fusion_lat": 0.0, "fusion_lon": 0.0, "rental_uris": {"android": "https://dc.lft.to/lastmile_qr_scan", "ios": "https://dc.lft.to/lastmile_qr_scan"}, "is_reserved": 0, "is_disabled": 0, "type": "electric_scooter", "bike_id": "b5f3e1a56d836ab3c47e15af354699c1"}, {"lon": -77.04576583333333, "lat": 38.92129033333333, "name": "e3c5c9bda43c7b448c8e775ed6d36816", "fusion_lat": 0.0, "fusion_lon": 0.0, "rental_uris": {"android": "https://dc.lft.to/lastmile_qr_scan", "ios": "https://dc.lft.to/lastmile_qr_scan"}, "is_reserved": 0, "is_disabled": 0, "type": "electric_scooter", "bike_id": "e3c5c9bda43c7b448c8e775ed6d36816"}, {"lon": -77.03780333333333, "lat": 38.92551783333333, "name": "e46cc91c1624e184a6e19142fefa62bf", "fusion_lat": 0.0, "fusion_lon": 0.0, "rental_uris": {"android": "https://dc.lft.to/lastmile_qr_scan", "ios": "https://dc.lft.to/lastmile_qr_scan"}, "is_reserved": 0, "is_disabled": 0, "type": "electric_scooter", "bike_id": "e46cc91c1624e184a6e19142fefa62bf"}, {"lon": -77.031727, "lat": 38.89795383333333, "name": "bca9c5c0c6024b1338a59d8ed99b1535", "fusion_lat": 0.0, "fusion_lon": 0.0, "rental_uris": {"android": "https://dc.lft.to/lastmile_qr_scan", "ios": "https://dc.lft.to/lastmile_qr_scan"}, "is_reserved": 0, "is_disabled": 0, "type": "electric_scooter", "bike_id": "bca9c5c0c6024b1338a59d8ed99b1535"}, {"lon": -77.01990516666666, "lat": 38.90472, "name": "e0f8d459cd541dda3c89ecf76ee52465", "fusion_lat": 0.0, "fusion_lon": 0.0, "rental_uris": {"android": "https://dc.lft.to/lastmile_qr_scan", "ios": "https://dc.lft.to/lastmile_qr_scan"}, "is_reserved": 0, "is_disabled": 0, "type": "electric_scooter", "bike_id": "e0f8d459cd541dda3c89ecf76ee52465"}, {"lon": -77.02342866666666, "lat": 38.9294545, "name": "c6852db09b16b2b2f338a31d396dcb0f", "fusion_lat": 0.0, "fusion_lon": 0.0, "rental_uris": {"android": "https://dc.lft.to/lastmile_qr_scan", "ios": "https://dc.lft.to/lastmile_qr_scan"}, "is_reserved": 0, "is_disabled": 0, "type": "electric_scooter", "bike_id": "c6852db09b16b2b2f338a31d396dcb0f"}, {"lon": -76.90535333333334, "lat": 38.89736766666667, "name": "c94192d8c198df643e28908ce613c648", "fusion_lat": 0.0, "fusion_lon": 0.0, "rental_uris": {"android": "https://dc.lft.to/lastmile_qr_scan", "ios": "https://dc.lft.to/lastmile_qr_scan"}, "is_reserved": 0, "is_disabled": 0, "type": "electric_bike", "bike_id": "c94192d8c198df643e28908ce613c648"}, {"lon": -77.007257, "lat": 38.8848895, "name": "1fa5001308c319404435d094321084fd", "fusion_lat": 0.0, "fusion_lon": 0.0, "rental_uris": {"android": "https://dc.lft.to/lastmile_qr_scan", "ios": "https://dc.lft.to/lastmile_qr_scan"}, "is_reserved": 0, "is_disabled": 0, "type": "electric_scooter", "bike_id": "1fa5001308c319404435d094321084fd"}, {"lon": -77.03452883333334, "lat": 38.903577166666665, "name": "e579fa559028679d7e2844a389893495", "fusion_lat": 0.0, "fusion_lon": 0.0, "rental_uris": {"android": "https://dc.lft.to/lastmile_qr_scan", "ios": "https://dc.lft.to/lastmile_qr_scan"}, "is_reserved": 0, "is_disabled": 0, "type": "electric_scooter", "bike_id": "e579fa559028679d7e2844a389893495"}, {"lon": -77.02396533333334, "lat": 38.90704383333333, "name": "1ccd713c986bcee6b16960067b93c72b", "fusion_lat": 0.0, "fusion_lon": 0.0, "rental_uris": {"android": "https://dc.lft.to/lastmile_qr_scan", "ios": "https://dc.lft.to/lastmile_qr_scan"}, "is_reserved": 0, "is_disabled": 0, "type": "electric_scooter", "bike_id": "1ccd713c986bcee6b16960067b93c72b"}, {"lon": -77.008407, "lat": 38.91553866666667, "name": "3e6d6f8522d5f4803798a234f8cf0585", "fusion_lat": 0.0, "fusion_lon": 0.0, "rental_uris": {"android": "https://dc.lft.to/lastmile_qr_scan", "ios": "https://dc.lft.to/lastmile_qr_scan"}, "is_reserved": 0, "is_disabled": 0, "type": "electric_scooter", "bike_id": "3e6d6f8522d5f4803798a234f8cf0585"}, {"lon": -77.03088566666666, "lat": 38.909918833333336, "name": "a765b8d291f2156f3c198f7373e29478", "fusion_lat": 0.0, "fusion_lon": 0.0, "rental_uris": {"android": "https://dc.lft.to/lastmile_qr_scan", "ios": "https://dc.lft.to/lastmile_qr_scan"}, "is_reserved": 0, "is_disabled": 0, "type": "electric_scooter", "bike_id": "a765b8d291f2156f3c198f7373e29478"}, {"lon": -77.03887366666666, "lat": 38.90238133333333, "name": "6e9572ba1cbe5d611c32e59870b32469", "fusion_lat": 0.0, "fusion_lon": 0.0, "rental_uris": {"android": "https://dc.lft.to/lastmile_qr_scan", "ios": "https://dc.lft.to/lastmile_qr_scan"}, "is_reserved": 0, "is_disabled": 0, "type": "electric_scooter", "bike_id": "6e9572ba1cbe5d611c32e59870b32469"}, {"lon": -77.01514633333333, "lat": 38.88732483333333, "name": "b2881403984d79787152ed56b9bb5c59", "fusion_lat": 0.0, "fusion_lon": 0.0, "rental_uris": {"android": "https://dc.lft.to/lastmile_qr_scan", "ios": "https://dc.lft.to/lastmile_qr_scan"}, "is_reserved": 0, "is_disabled": 0, "type": "electric_scooter", "bike_id": "b2881403984d79787152ed56b9bb5c59"}, {"lon": -77.048791, "lat": 38.912382, "name": "29ebff3dd44aaaac52ced253bbb0be28", "fusion_lat": 0.0, "fusion_lon": 0.0, "rental_uris": {"android": "https://dc.lft.to/lastmile_qr_scan", "ios": "https://dc.lft.to/lastmile_qr_scan"}, "is_reserved": 0, "is_disabled": 0, "type": "electric_scooter", "bike_id": "29ebff3dd44aaaac52ced253bbb0be28"}, {"lon": -76.997716, "lat": 38.921715166666665, "name": "0bad53e2809596f4c6882ef2e8f77108", "fusion_lat": 0.0, "fusion_lon": 0.0, "rental_uris": {"android": "https://dc.lft.to/lastmile_qr_scan", "ios": "https://dc.lft.to/lastmile_qr_scan"}, "is_reserved": 0, "is_disabled": 0, "type": "electric_scooter", "bike_id": "0bad53e2809596f4c6882ef2e8f77108"}, {"lon": -77.04042583333333, "lat": 38.92306333333333, "name": "231a99321b799fc6dd234c4d61625644", "fusion_lat": 0.0, "fusion_lon": 0.0, "rental_uris": {"android": "https://dc.lft.to/lastmile_qr_scan", "ios": "https://dc.lft.to/lastmile_qr_scan"}, "is_reserved": 0, "is_disabled": 0, "type": "electric_scooter", "bike_id": "231a99321b799fc6dd234c4d61625644"}, {"lon": -77.043841, "lat": 38.907264166666664, "name": "4b0e990a71cf4f9511b8f39e91a22673", "fusion_lat": 0.0, "fusion_lon": 0.0, "rental_uris": {"android": "https://dc.lft.to/lastmile_qr_scan", "ios": "https://dc.lft.to/lastmile_qr_scan"}, "is_reserved": 0, "is_disabled": 0, "type": "electric_scooter", "bike_id": "4b0e990a71cf4f9511b8f39e91a22673"}, {"lon": -76.99555183333334, "lat": 38.86231883333333, "name": "8595f859b3d150efcb162d16dfb7ebf6", "fusion_lat": 0.0, "fusion_lon": 0.0, "rental_uris": {"android": "https://dc.lft.to/lastmile_qr_scan", "ios": "https://dc.lft.to/lastmile_qr_scan"}, "is_reserved": 0, "is_disabled": 0, "type": "electric_scooter", "bike_id": "8595f859b3d150efcb162d16dfb7ebf6"}, {"lon": -77.03302616666667, "lat": 38.928952333333335, "name": "f76fe0a1f6806a70796f3a0ae5be5158", "fusion_lat": 0.0, "fusion_lon": 0.0, "rental_uris": {"android": "https://dc.lft.to/lastmile_qr_scan", "ios": "https://dc.lft.to/lastmile_qr_scan"}, "is_reserved": 0, "is_disabled": 0, "type": "electric_scooter", "bike_id": "f76fe0a1f6806a70796f3a0ae5be5158"}, {"lon": -76.998294, "lat": 38.90038666666667, "name": "680713dd5d03f62d024023edc3a5b626", "fusion_lat": 0.0, "fusion_lon": 0.0, "rental_uris": {"android": "https://dc.lft.to/lastmile_qr_scan", "ios": "https://dc.lft.to/lastmile_qr_scan"}, "is_reserved": 0, "is_disabled": 0, "type": "electric_scooter", "bike_id": "680713dd5d03f62d024023edc3a5b626"}, {"lon": -77.0544975, "lat": 38.92814116666667, "name": "b4fe45461c874be38a852a3009552014", "fusion_lat": 0.0, "fusion_lon": 0.0, "rental_uris": {"android": "https://dc.lft.to/lastmile_qr_scan", "ios": "https://dc.lft.to/lastmile_qr_scan"}, "is_reserved": 0, "is_disabled": 0, "type": "electric_scooter", "bike_id": "b4fe45461c874be38a852a3009552014"}, {"lon": -76.98998483333334, "lat": 38.9038645, "name": "aabd0e9b1409c1d6ddda5ede2d25400a", "fusion_lat": 0.0, "fusion_lon": 0.0, "rental_uris": {"android": "https://dc.lft.to/lastmile_qr_scan", "ios": "https://dc.lft.to/lastmile_qr_scan"}, "is_reserved": 0, "is_disabled": 0, "type": "electric_scooter", "bike_id": "aabd0e9b1409c1d6ddda5ede2d25400a"}, {"lon": -77.03147, "lat": 38.914030833333335, "name": "c94aa3eccafcad264d55dbbecc784c30", "fusion_lat": 0.0, "fusion_lon": 0.0, "rental_uris": {"android": "https://dc.lft.to/lastmile_qr_scan", "ios": "https://dc.lft.to/lastmile_qr_scan"}, "is_reserved": 0, "is_disabled": 0, "type": "electric_scooter", "bike_id": "c94aa3eccafcad264d55dbbecc784c30"}, {"lon": -77.03441116666667, "lat": 38.91807283333333, "name": "fdfc394ab7041f6194d555380602136b", "fusion_lat": 0.0, "fusion_lon": 0.0, "rental_uris": {"android": "https://dc.lft.to/lastmile_qr_scan", "ios": "https://dc.lft.to/lastmile_qr_scan"}, "is_reserved": 0, "is_disabled": 0, "type": "electric_scooter", "bike_id": "fdfc394ab7041f6194d555380602136b"}, {"lon": -77.0288925, "lat": 38.900218833333334, "name": "5a8a0e13c9b7610f752f3f60bdd70c08", "fusion_lat": 0.0, "fusion_lon": 0.0, "rental_uris": {"android": "https://dc.lft.to/lastmile_qr_scan", "ios": "https://dc.lft.to/lastmile_qr_scan"}, "is_reserved": 0, "is_disabled": 0, "type": "electric_scooter", "bike_id": "5a8a0e13c9b7610f752f3f60bdd70c08"}, {"lon": -76.9799645, "lat": 38.90092416666667, "name": "bd00d4b87035db44d780e34284fb27e9", "fusion_lat": 0.0, "fusion_lon": 0.0, "rental_uris": {"android": "https://dc.lft.to/lastmile_qr_scan", "ios": "https://dc.lft.to/lastmile_qr_scan"}, "is_reserved": 0, "is_disabled": 0, "type": "electric_scooter", "bike_id": "bd00d4b87035db44d780e34284fb27e9"}, {"lon": -77.03462966666666, "lat": 38.92059366666667, "name": "a5bbe2ec5b1e5b7ecd487be01a77ffdd", "fusion_lat": 0.0, "fusion_lon": 0.0, "rental_uris": {"android": "https://dc.lft.to/lastmile_qr_scan", "ios": "https://dc.lft.to/lastmile_qr_scan"}, "is_reserved": 0, "is_disabled": 0, "type": "electric_scooter", "bike_id": "a5bbe2ec5b1e5b7ecd487be01a77ffdd"}, {"lon": -77.02213733333333, "lat": 38.88765016666667, "name": "6b75f20e81b0a3d23f5c554444283c18", "fusion_lat": 0.0, "fusion_lon": 0.0, "rental_uris": {"android": "https://dc.lft.to/lastmile_qr_scan", "ios": "https://dc.lft.to/lastmile_qr_scan"}, "is_reserved": 0, "is_disabled": 0, "type": "electric_scooter", "bike_id": "6b75f20e81b0a3d23f5c554444283c18"}, {"lon": -76.98376066666667, "lat": 38.8647555, "name": "f3328e2e35bbea151eb8d3b48b380cf1", "fusion_lat": 0.0, "fusion_lon": 0.0, "rental_uris": {"android": "https://dc.lft.to/lastmile_qr_scan", "ios": "https://dc.lft.to/lastmile_qr_scan"}, "is_reserved": 0, "is_disabled": 0, "type": "electric_scooter", "bike_id": "f3328e2e35bbea151eb8d3b48b380cf1"}, {"lon": -77.11431933333333, "lat": 38.852423, "name": "04e3833a392b8a38231f84ea1e505a48", "fusion_lat": 0.0, "fusion_lon": 0.0, "rental_uris": {"android": "https://dc.lft.to/lastmile_qr_scan", "ios": "https://dc.lft.to/lastmile_qr_scan"}, "is_reserved": 0, "is_disabled": 0, "type": "electric_bike", "bike_id": "04e3833a392b8a38231f84ea1e505a48"}, {"lon": -76.967786, "lat": 38.8614675, "name": "2dac0a126932bca1fdc041c5d1513c61", "fusion_lat": 0.0, "fusion_lon": 0.0, "rental_uris": {"android": "https://dc.lft.to/lastmile_qr_scan", "ios": "https://dc.lft.to/lastmile_qr_scan"}, "is_reserved": 0, "is_disabled": 0, "type": "electric_scooter", "bike_id": "2dac0a126932bca1fdc041c5d1513c61"}, {"lon": -77.02891683333333, "lat": 38.9072585, "name": "5140fd40fb374ed88a42720544e3c3f2", "fusion_lat": 0.0, "fusion_lon": 0.0, "rental_uris": {"android": "https://dc.lft.to/lastmile_qr_scan", "ios": "https://dc.lft.to/lastmile_qr_scan"}, "is_reserved": 0, "is_disabled": 0, "type": "electric_scooter", "bike_id": "5140fd40fb374ed88a42720544e3c3f2"}, {"lon": -76.99948633333334, "lat": 38.908614, "name": "42f5b27f6ad39057b688b0b39fde4c93", "fusion_lat": 0.0, "fusion_lon": 0.0, "rental_uris": {"android": "https://dc.lft.to/lastmile_qr_scan", "ios": "https://dc.lft.to/lastmile_qr_scan"}, "is_reserved": 0, "is_disabled": 0, "type": "electric_scooter", "bike_id": "42f5b27f6ad39057b688b0b39fde4c93"}, {"lon": -76.997605, "lat": 38.9226745, "name": "c1e1eefbef40f9b8e01ca85189f8afe7", "fusion_lat": 0.0, "fusion_lon": 0.0, "rental_uris": {"android": "https://dc.lft.to/lastmile_qr_scan", "ios": "https://dc.lft.to/lastmile_qr_scan"}, "is_reserved": 0, "is_disabled": 0, "type": "electric_scooter", "bike_id": "c1e1eefbef40f9b8e01ca85189f8afe7"}, {"lon": -77.0364005, "lat": 38.9162145, "name": "946295ee24117e12b2018c5775f47b47", "fusion_lat": 0.0, "fusion_lon": 0.0, "rental_uris": {"android": "https://dc.lft.to/lastmile_qr_scan", "ios": "https://dc.lft.to/lastmile_qr_scan"}, "is_reserved": 0, "is_disabled": 0, "type": "electric_scooter", "bike_id": "946295ee24117e12b2018c5775f47b47"}, {"lon": -77.0532405, "lat": 38.904905, "name": "a403690a53dd1d25514610c51557f17f", "fusion_lat": 0.0, "fusion_lon": 0.0, "rental_uris": {"android": "https://dc.lft.to/lastmile_qr_scan", "ios": "https://dc.lft.to/lastmile_qr_scan"}, "is_reserved": 0, "is_disabled": 0, "type": "electric_scooter", "bike_id": "a403690a53dd1d25514610c51557f17f"}, {"lon": -77.04488933333333, "lat": 38.9090355, "name": "1fc0fe361e46320abc9c6c63993b2ec2", "fusion_lat": 0.0, "fusion_lon": 0.0, "rental_uris": {"android": "https://dc.lft.to/lastmile_qr_scan", "ios": "https://dc.lft.to/lastmile_qr_scan"}, "is_reserved": 0, "is_disabled": 0, "type": "electric_scooter", "bike_id": "1fc0fe361e46320abc9c6c63993b2ec2"}, {"lon": -77.0322485, "lat": 38.8922585, "name": "8093a9b9c3de15aeeff6bfb0b4de6a6e", "fusion_lat": 0.0, "fusion_lon": 0.0, "rental_uris": {"android": "https://dc.lft.to/lastmile_qr_scan", "ios": "https://dc.lft.to/lastmile_qr_scan"}, "is_reserved": 0, "is_disabled": 0, "type": "electric_scooter", "bike_id": "8093a9b9c3de15aeeff6bfb0b4de6a6e"}, {"lon": -76.97092616666667, "lat": 38.878754, "name": "a004fde5899167cde8d36a829e13c9df", "fusion_lat": 0.0, "fusion_lon": 0.0, "rental_uris": {"android": "https://dc.lft.to/lastmile_qr_scan", "ios": "https://dc.lft.to/lastmile_qr_scan"}, "is_reserved": 0, "is_disabled": 0, "type": "electric_scooter", "bike_id": "a004fde5899167cde8d36a829e13c9df"}, {"lon": -77.04381416666666, "lat": 38.90719166666667, "name": "1bc80b3db95d6b2185c91e8bd72135bb", "fusion_lat": 0.0, "fusion_lon": 0.0, "rental_uris": {"android": "https://dc.lft.to/lastmile_qr_scan", "ios": "https://dc.lft.to/lastmile_qr_scan"}, "is_reserved": 0, "is_disabled": 0, "type": "electric_scooter", "bike_id": "1bc80b3db95d6b2185c91e8bd72135bb"}, {"lon": -77.03468133333334, "lat": 38.91662433333333, "name": "9b6f30973455f76971d4cc5bb81f412b", "fusion_lat": 0.0, "fusion_lon": 0.0, "rental_uris": {"android": "https://dc.lft.to/lastmile_qr_scan", "ios": "https://dc.lft.to/lastmile_qr_scan"}, "is_reserved": 0, "is_disabled": 0, "type": "electric_scooter", "bike_id": "9b6f30973455f76971d4cc5bb81f412b"}, {"lon": -76.98760116666666, "lat": 38.84499533333333, "name": "afcad2c81371c69b06e1ad7c5b1c3fa3", "fusion_lat": 0.0, "fusion_lon": 0.0, "rental_uris": {"android": "https://dc.lft.to/lastmile_qr_scan", "ios": "https://dc.lft.to/lastmile_qr_scan"}, "is_reserved": 0, "is_disabled": 0, "type": "electric_scooter", "bike_id": "afcad2c81371c69b06e1ad7c5b1c3fa3"}, {"lon": -77.07188683333334, "lat": 38.919949833333334, "name": "1e5e7773b4c077f6632c87765b4d4cda", "fusion_lat": 0.0, "fusion_lon": 0.0, "rental_uris": {"android": "https://dc.lft.to/lastmile_qr_scan", "ios": "https://dc.lft.to/lastmile_qr_scan"}, "is_reserved": 0, "is_disabled": 0, "type": "electric_scooter", "bike_id": "1e5e7773b4c077f6632c87765b4d4cda"}, {"lon": -77.03726683333333, "lat": 38.926656, "name": "c8b86ab8b6b2fe67afdc662648d13326", "fusion_lat": 0.0, "fusion_lon": 0.0, "rental_uris": {"android": "https://dc.lft.to/lastmile_qr_scan", "ios": "https://dc.lft.to/lastmile_qr_scan"}, "is_reserved": 0, "is_disabled": 0, "type": "electric_scooter", "bike_id": "c8b86ab8b6b2fe67afdc662648d13326"}, {"lon": -77.04173233333333, "lat": 38.91343333333333, "name": "dc423431b8c8f8af763a0aa04acda304", "fusion_lat": 0.0, "fusion_lon": 0.0, "rental_uris": {"android": "https://dc.lft.to/lastmile_qr_scan", "ios": "https://dc.lft.to/lastmile_qr_scan"}, "is_reserved": 0, "is_disabled": 0, "type": "electric_scooter", "bike_id": "dc423431b8c8f8af763a0aa04acda304"}, {"lon": -77.04617583333334, "lat": 38.909668, "name": "5d25ca957af0cbc232cc55dc41637510", "fusion_lat": 0.0, "fusion_lon": 0.0, "rental_uris": {"android": "https://dc.lft.to/lastmile_qr_scan", "ios": "https://dc.lft.to/lastmile_qr_scan"}, "is_reserved": 0, "is_disabled": 0, "type": "electric_scooter", "bike_id": "5d25ca957af0cbc232cc55dc41637510"}, {"lon": -77.00339616666666, "lat": 38.900453, "name": "7e8a651d5c2a4fc48dbf16c5c72ea6c9", "fusion_lat": 0.0, "fusion_lon": 0.0, "rental_uris": {"android": "https://dc.lft.to/lastmile_qr_scan", "ios": "https://dc.lft.to/lastmile_qr_scan"}, "is_reserved": 0, "is_disabled": 0, "type": "electric_scooter", "bike_id": "7e8a651d5c2a4fc48dbf16c5c72ea6c9"}, {"lon": -76.98232266666666, "lat": 38.867589833333334, "name": "90add2d596b6a1208d6ae6a05d07a7c3", "fusion_lat": 0.0, "fusion_lon": 0.0, "rental_uris": {"android": "https://dc.lft.to/lastmile_qr_scan", "ios": "https://dc.lft.to/lastmile_qr_scan"}, "is_reserved": 0, "is_disabled": 0, "type": "electric_scooter", "bike_id": "90add2d596b6a1208d6ae6a05d07a7c3"}, {"lon": -77.05693983333333, "lat": 38.923345833333336, "name": "6778e13bcbf8b31ba0d8d9b701fa9a77", "fusion_lat": 0.0, "fusion_lon": 0.0, "rental_uris": {"android": "https://dc.lft.to/lastmile_qr_scan", "ios": "https://dc.lft.to/lastmile_qr_scan"}, "is_reserved": 0, "is_disabled": 0, "type": "electric_scooter", "bike_id": "6778e13bcbf8b31ba0d8d9b701fa9a77"}, {"lon": -76.996258, "lat": 38.88566816666667, "name": "e35fc7f2bd151dc807af7c488ad829a2", "fusion_lat": 0.0, "fusion_lon": 0.0, "rental_uris": {"android": "https://dc.lft.to/lastmile_qr_scan", "ios": "https://dc.lft.to/lastmile_qr_scan"}, "is_reserved": 0, "is_disabled": 0, "type": "electric_scooter", "bike_id": "e35fc7f2bd151dc807af7c488ad829a2"}, {"lon": -77.02573616666666, "lat": 38.8874515, "name": "72b4f9d98076bf0e25c0f1d21d7488b5", "fusion_lat": 0.0, "fusion_lon": 0.0, "rental_uris": {"android": "https://dc.lft.to/lastmile_qr_scan", "ios": "https://dc.lft.to/lastmile_qr_scan"}, "is_reserved": 0, "is_disabled": 0, "type": "electric_scooter", "bike_id": "72b4f9d98076bf0e25c0f1d21d7488b5"}, {"lon": -77.03521966666666, "lat": 38.93591383333333, "name": "83d625a30a85610c1accd3148484f8ff", "fusion_lat": 0.0, "fusion_lon": 0.0, "rental_uris": {"android": "https://dc.lft.to/lastmile_qr_scan", "ios": "https://dc.lft.to/lastmile_qr_scan"}, "is_reserved": 0, "is_disabled": 0, "type": "electric_scooter", "bike_id": "83d625a30a85610c1accd3148484f8ff"}, {"lon": -77.06610866666666, "lat": 38.905243166666665, "name": "bb998f6514ed54bb53c695c3d2d59fd3", "fusion_lat": 0.0, "fusion_lon": 0.0, "rental_uris": {"android": "https://dc.lft.to/lastmile_qr_scan", "ios": "https://dc.lft.to/lastmile_qr_scan"}, "is_reserved": 0, "is_disabled": 0, "type": "electric_scooter", "bike_id": "bb998f6514ed54bb53c695c3d2d59fd3"}, {"lon": -77.02679033333334, "lat": 38.99744866666666, "name": "8f3e4443276171f25652e36e750125ac", "fusion_lat": 0.0, "fusion_lon": 0.0, "rental_uris": {"android": "https://dc.lft.to/lastmile_qr_scan", "ios": "https://dc.lft.to/lastmile_qr_scan"}, "is_reserved": 0, "is_disabled": 0, "type": "electric_bike", "bike_id": "8f3e4443276171f25652e36e750125ac"}, {"lon": -77.04422, "lat": 38.91076783333333, "name": "e7d852e09ffa1f218840ddd1f7ab18c3", "fusion_lat": 0.0, "fusion_lon": 0.0, "rental_uris": {"android": "https://dc.lft.to/lastmile_qr_scan", "ios": "https://dc.lft.to/lastmile_qr_scan"}, "is_reserved": 0, "is_disabled": 0, "type": "electric_scooter", "bike_id": "e7d852e09ffa1f218840ddd1f7ab18c3"}, {"lon": -77.03689633333333, "lat": 38.9168225, "name": "5a9bc536011199c0cd08071c1c6e091b", "fusion_lat": 0.0, "fusion_lon": 0.0, "rental_uris": {"android": "https://dc.lft.to/lastmile_qr_scan", "ios": "https://dc.lft.to/lastmile_qr_scan"}, "is_reserved": 0, "is_disabled": 0, "type": "electric_scooter", "bike_id": "5a9bc536011199c0cd08071c1c6e091b"}, {"lon": -77.02008483333333, "lat": 38.902662, "name": "3aaf2e952d47917214a084d8b6313a63", "fusion_lat": 0.0, "fusion_lon": 0.0, "rental_uris": {"android": "https://dc.lft.to/lastmile_qr_scan", "ios": "https://dc.lft.to/lastmile_qr_scan"}, "is_reserved": 0, "is_disabled": 0, "type": "electric_scooter", "bike_id": "3aaf2e952d47917214a084d8b6313a63"}, {"lon": -77.0690665, "lat": 38.90750716666667, "name": "53615ec2fc47275296bbf9ddf626a0d5", "fusion_lat": 0.0, "fusion_lon": 0.0, "rental_uris": {"android": "https://dc.lft.to/lastmile_qr_scan", "ios": "https://dc.lft.to/lastmile_qr_scan"}, "is_reserved": 0, "is_disabled": 0, "type": "electric_scooter", "bike_id": "53615ec2fc47275296bbf9ddf626a0d5"}, {"lon": -77.10726283333334, "lat": 38.85548583333333, "name": "5e0f57e8061e5eb0cfe14974afed34c6", "fusion_lat": 0.0, "fusion_lon": 0.0, "rental_uris": {"android": "https://dc.lft.to/lastmile_qr_scan", "ios": "https://dc.lft.to/lastmile_qr_scan"}, "is_reserved": 0, "is_disabled": 0, "type": "electric_bike", "bike_id": "5e0f57e8061e5eb0cfe14974afed34c6"}, {"lon": -77.04904416666666, "lat": 38.888386, "name": "fd487cca0f20c9411b933819bd88e8c8", "fusion_lat": 0.0, "fusion_lon": 0.0, "rental_uris": {"android": "https://dc.lft.to/lastmile_qr_scan", "ios": "https://dc.lft.to/lastmile_qr_scan"}, "is_reserved": 0, "is_disabled": 0, "type": "electric_scooter", "bike_id": "fd487cca0f20c9411b933819bd88e8c8"}, {"lon": -77.04738233333333, "lat": 38.9110845, "name": "cb10f4cd3ee519655da77ce48ab31b05", "fusion_lat": 0.0, "fusion_lon": 0.0, "rental_uris": {"android": "https://dc.lft.to/lastmile_qr_scan", "ios": "https://dc.lft.to/lastmile_qr_scan"}, "is_reserved": 0, "is_disabled": 0, "type": "electric_scooter", "bike_id": "cb10f4cd3ee519655da77ce48ab31b05"}, {"lon": -76.988371, "lat": 38.901787, "name": "a42b5e2d6b5470ffc67bbda5fc79ef9f", "fusion_lat": 0.0, "fusion_lon": 0.0, "rental_uris": {"android": "https://dc.lft.to/lastmile_qr_scan", "ios": "https://dc.lft.to/lastmile_qr_scan"}, "is_reserved": 0, "is_disabled": 0, "type": "electric_scooter", "bike_id": "a42b5e2d6b5470ffc67bbda5fc79ef9f"}, {"lon": -77.04238283333333, "lat": 38.9226915, "name": "8f90a8fa03813a7008b9619a6687c559", "fusion_lat": 0.0, "fusion_lon": 0.0, "rental_uris": {"android": "https://dc.lft.to/lastmile_qr_scan", "ios": "https://dc.lft.to/lastmile_qr_scan"}, "is_reserved": 0, "is_disabled": 0, "type": "electric_scooter", "bike_id": "8f90a8fa03813a7008b9619a6687c559"}, {"lon": -77.00710633333334, "lat": 38.884884166666666, "name": "b028f6059b8f726c9c818112c433a707", "fusion_lat": 0.0, "fusion_lon": 0.0, "rental_uris": {"android": "https://dc.lft.to/lastmile_qr_scan", "ios": "https://dc.lft.to/lastmile_qr_scan"}, "is_reserved": 0, "is_disabled": 0, "type": "electric_scooter", "bike_id": "b028f6059b8f726c9c818112c433a707"}, {"lon": -77.02762583333333, "lat": 38.956117166666665, "name": "3a0cfa278876a160eb5bce2b760536a3", "fusion_lat": 0.0, "fusion_lon": 0.0, "rental_uris": {"android": "https://dc.lft.to/lastmile_qr_scan", "ios": "https://dc.lft.to/lastmile_qr_scan"}, "is_reserved": 0, "is_disabled": 0, "type": "electric_scooter", "bike_id": "3a0cfa278876a160eb5bce2b760536a3"}, {"lon": -77.029655, "lat": 38.95421666666667, "name": "257fab5c069aebb534b4466a941c64dc", "fusion_lat": 0.0, "fusion_lon": 0.0, "rental_uris": {"android": "https://dc.lft.to/lastmile_qr_scan", "ios": "https://dc.lft.to/lastmile_qr_scan"}, "is_reserved": 0, "is_disabled": 0, "type": "electric_scooter", "bike_id": "257fab5c069aebb534b4466a941c64dc"}, {"lon": -77.0227115, "lat": 38.916611833333334, "name": "894ad995841f8c3e3f0a0bf1b1472d29", "fusion_lat": 0.0, "fusion_lon": 0.0, "rental_uris": {"android": "https://dc.lft.to/lastmile_qr_scan", "ios": "https://dc.lft.to/lastmile_qr_scan"}, "is_reserved": 0, "is_disabled": 0, "type": "electric_scooter", "bike_id": "894ad995841f8c3e3f0a0bf1b1472d29"}, {"lon": -77.06953266666666, "lat": 38.990436833333334, "name": "847212f48f05eaaadb7677315b9bc983", "fusion_lat": 0.0, "fusion_lon": 0.0, "rental_uris": {"android": "https://dc.lft.to/lastmile_qr_scan", "ios": "https://dc.lft.to/lastmile_qr_scan"}, "is_reserved": 0, "is_disabled": 0, "type": "electric_bike", "bike_id": "847212f48f05eaaadb7677315b9bc983"}, {"lon": -76.937585, "lat": 38.8996455, "name": "833400f1e3e86919129e2b0183ca1b40", "fusion_lat": 0.0, "fusion_lon": 0.0, "rental_uris": {"android": "https://dc.lft.to/lastmile_qr_scan", "ios": "https://dc.lft.to/lastmile_qr_scan"}, "is_reserved": 0, "is_disabled": 0, "type": "electric_scooter", "bike_id": "833400f1e3e86919129e2b0183ca1b40"}, {"lon": -76.99059066666666, "lat": 38.902950833333335, "name": "93038b7162f75210f17167a6c5ff3a8c", "fusion_lat": 0.0, "fusion_lon": 0.0, "rental_uris": {"android": "https://dc.lft.to/lastmile_qr_scan", "ios": "https://dc.lft.to/lastmile_qr_scan"}, "is_reserved": 0, "is_disabled": 0, "type": "electric_bike", "bike_id": "93038b7162f75210f17167a6c5ff3a8c"}, {"lon": -77.01079, "lat": 38.962572333333334, "name": "08e55e0cb0611fe30760d7c22dc8bbed", "fusion_lat": 0.0, "fusion_lon": 0.0, "rental_uris": {"android": "https://dc.lft.to/lastmile_qr_scan", "ios": "https://dc.lft.to/lastmile_qr_scan"}, "is_reserved": 0, "is_disabled": 0, "type": "electric_bike", "bike_id": "08e55e0cb0611fe30760d7c22dc8bbed"}, {"lon": -77.00037016666667, "lat": 38.9068925, "name": "5d35ed550b5c0be48bfe297599068f64", "fusion_lat": 0.0, "fusion_lon": 0.0, "rental_uris": {"android": "https://dc.lft.to/lastmile_qr_scan", "ios": "https://dc.lft.to/lastmile_qr_scan"}, "is_reserved": 0, "is_disabled": 0, "type": "electric_scooter", "bike_id": "5d35ed550b5c0be48bfe297599068f64"}, {"lon": -76.9861505, "lat": 38.8546175, "name": "5a357eebfe9a7c92c95822f6b8b1276d", "fusion_lat": 0.0, "fusion_lon": 0.0, "rental_uris": {"android": "https://dc.lft.to/lastmile_qr_scan", "ios": "https://dc.lft.to/lastmile_qr_scan"}, "is_reserved": 0, "is_disabled": 0, "type": "electric_scooter", "bike_id": "5a357eebfe9a7c92c95822f6b8b1276d"}, {"lon": -77.012112, "lat": 38.893239, "name": "5a071df19e17719c45088082cb8b5d3b", "fusion_lat": 0.0, "fusion_lon": 0.0, "rental_uris": {"android": "https://dc.lft.to/lastmile_qr_scan", "ios": "https://dc.lft.to/lastmile_qr_scan"}, "is_reserved": 0, "is_disabled": 0, "type": "electric_scooter", "bike_id": "5a071df19e17719c45088082cb8b5d3b"}, {"lon": -77.0265485, "lat": 38.938614333333334, "name": "5582ace2139262754b4b63659ae18438", "fusion_lat": 0.0, "fusion_lon": 0.0, "rental_uris": {"android": "https://dc.lft.to/lastmile_qr_scan", "ios": "https://dc.lft.to/lastmile_qr_scan"}, "is_reserved": 0, "is_disabled": 0, "type": "electric_scooter", "bike_id": "5582ace2139262754b4b63659ae18438"}, {"lon": -77.02180383333334, "lat": 38.91402183333334, "name": "2de5712121dda1f9cf6f3e3091d2aa40", "fusion_lat": 0.0, "fusion_lon": 0.0, "rental_uris": {"android": "https://dc.lft.to/lastmile_qr_scan", "ios": "https://dc.lft.to/lastmile_qr_scan"}, "is_reserved": 0, "is_disabled": 0, "type": "electric_scooter", "bike_id": "2de5712121dda1f9cf6f3e3091d2aa40"}, {"lon": -77.04109416666667, "lat": 38.9236545, "name": "fa4127e5b0f102a7fe3ab3d34fac32ab", "fusion_lat": 0.0, "fusion_lon": 0.0, "rental_uris": {"android": "https://dc.lft.to/lastmile_qr_scan", "ios": "https://dc.lft.to/lastmile_qr_scan"}, "is_reserved": 0, "is_disabled": 0, "type": "electric_scooter", "bike_id": "fa4127e5b0f102a7fe3ab3d34fac32ab"}, {"lon": -77.02572216666667, "lat": 38.887495666666666, "name": "3ad792c7e4ce92dec7a88f76458cf1e6", "fusion_lat": 0.0, "fusion_lon": 0.0, "rental_uris": {"android": "https://dc.lft.to/lastmile_qr_scan", "ios": "https://dc.lft.to/lastmile_qr_scan"}, "is_reserved": 0, "is_disabled": 0, "type": "electric_scooter", "bike_id": "3ad792c7e4ce92dec7a88f76458cf1e6"}, {"lon": -77.01484783333333, "lat": 38.91864433333333, "name": "d86c459c454b49272a89d73068fd4eaa", "fusion_lat": 0.0, "fusion_lon": 0.0, "rental_uris": {"android": "https://dc.lft.to/lastmile_qr_scan", "ios": "https://dc.lft.to/lastmile_qr_scan"}, "is_reserved": 0, "is_disabled": 0, "type": "electric_scooter", "bike_id": "d86c459c454b49272a89d73068fd4eaa"}, {"lon": -76.99840133333333, "lat": 38.839124166666664, "name": "426a4c65f0191de8d37fea0096e1c4d3", "fusion_lat": 0.0, "fusion_lon": 0.0, "rental_uris": {"android": "https://dc.lft.to/lastmile_qr_scan", "ios": "https://dc.lft.to/lastmile_qr_scan"}, "is_reserved": 0, "is_disabled": 0, "type": "electric_bike", "bike_id": "426a4c65f0191de8d37fea0096e1c4d3"}, {"lon": -76.98021316666667, "lat": 38.9037815, "name": "ad66edbf30c1a5390a95238ef7838595", "fusion_lat": 0.0, "fusion_lon": 0.0, "rental_uris": {"android": "https://dc.lft.to/lastmile_qr_scan", "ios": "https://dc.lft.to/lastmile_qr_scan"}, "is_reserved": 0, "is_disabled": 0, "type": "electric_scooter", "bike_id": "ad66edbf30c1a5390a95238ef7838595"}, {"lon": -77.03206166666666, "lat": 38.916445833333334, "name": "f2d2dd324c36bd3680015500922efbd3", "fusion_lat": 0.0, "fusion_lon": 0.0, "rental_uris": {"android": "https://dc.lft.to/lastmile_qr_scan", "ios": "https://dc.lft.to/lastmile_qr_scan"}, "is_reserved": 0, "is_disabled": 0, "type": "electric_scooter", "bike_id": "f2d2dd324c36bd3680015500922efbd3"}, {"lon": -76.93572016666667, "lat": 38.885267166666665, "name": "d2a83fb303804e19978870dadc81eee9", "fusion_lat": 0.0, "fusion_lon": 0.0, "rental_uris": {"android": "https://dc.lft.to/lastmile_qr_scan", "ios": "https://dc.lft.to/lastmile_qr_scan"}, "is_reserved": 0, "is_disabled": 0, "type": "electric_bike", "bike_id": "d2a83fb303804e19978870dadc81eee9"}, {"lon": -77.005065, "lat": 38.87534516666667, "name": "55f26c3823803c1951fe1841ee09f8ba", "fusion_lat": 0.0, "fusion_lon": 0.0, "rental_uris": {"android": "https://dc.lft.to/lastmile_qr_scan", "ios": "https://dc.lft.to/lastmile_qr_scan"}, "is_reserved": 0, "is_disabled": 0, "type": "electric_scooter", "bike_id": "55f26c3823803c1951fe1841ee09f8ba"}, {"lon": -77.03006, "lat": 38.934499, "name": "ac24fb17d127265c26185c81b6931fcb", "fusion_lat": 0.0, "fusion_lon": 0.0, "rental_uris": {"android": "https://dc.lft.to/lastmile_qr_scan", "ios": "https://dc.lft.to/lastmile_qr_scan"}, "is_reserved": 0, "is_disabled": 0, "type": "electric_scooter", "bike_id": "ac24fb17d127265c26185c81b6931fcb"}, {"lon": -77.01335433333334, "lat": 38.916978666666665, "name": "1ffdbed4895b4496d6f17746f68fcb4a", "fusion_lat": 0.0, "fusion_lon": 0.0, "rental_uris": {"android": "https://dc.lft.to/lastmile_qr_scan", "ios": "https://dc.lft.to/lastmile_qr_scan"}, "is_reserved": 0, "is_disabled": 0, "type": "electric_scooter", "bike_id": "1ffdbed4895b4496d6f17746f68fcb4a"}, {"lon": -77.04509616666667, "lat": 38.911095833333334, "name": "e19901ef40fe66c990490168a2d850cb", "fusion_lat": 0.0, "fusion_lon": 0.0, "rental_uris": {"android": "https://dc.lft.to/lastmile_qr_scan", "ios": "https://dc.lft.to/lastmile_qr_scan"}, "is_reserved": 0, "is_disabled": 0, "type": "electric_scooter", "bike_id": "e19901ef40fe66c990490168a2d850cb"}, {"lon": -76.94720416666667, "lat": 38.896797166666666, "name": "9419439165844f63f7f865565d27353d", "fusion_lat": 0.0, "fusion_lon": 0.0, "rental_uris": {"android": "https://dc.lft.to/lastmile_qr_scan", "ios": "https://dc.lft.to/lastmile_qr_scan"}, "is_reserved": 0, "is_disabled": 0, "type": "electric_scooter", "bike_id": "9419439165844f63f7f865565d27353d"}, {"lon": -77.129876, "lat": 38.79986066666667, "name": "352ada6f2d37b6b217b230ebe01a4f1a", "fusion_lat": 0.0, "fusion_lon": 0.0, "rental_uris": {"android": "https://dc.lft.to/lastmile_qr_scan", "ios": "https://dc.lft.to/lastmile_qr_scan"}, "is_reserved": 0, "is_disabled": 0, "type": "electric_bike", "bike_id": "352ada6f2d37b6b217b230ebe01a4f1a"}, {"lon": -77.06393733333333, "lat": 38.92902016666667, "name": "26cf79fb217752497591768f6f60ffc7", "fusion_lat": 0.0, "fusion_lon": 0.0, "rental_uris": {"android": "https://dc.lft.to/lastmile_qr_scan", "ios": "https://dc.lft.to/lastmile_qr_scan"}, "is_reserved": 0, "is_disabled": 0, "type": "electric_scooter", "bike_id": "26cf79fb217752497591768f6f60ffc7"}, {"lon": -77.0437345, "lat": 38.8922175, "name": "7854dcd5112a3c8fce4f8bb157abc481", "fusion_lat": 0.0, "fusion_lon": 0.0, "rental_uris": {"android": "https://dc.lft.to/lastmile_qr_scan", "ios": "https://dc.lft.to/lastmile_qr_scan"}, "is_reserved": 0, "is_disabled": 0, "type": "electric_scooter", "bike_id": "7854dcd5112a3c8fce4f8bb157abc481"}, {"lon": -77.12812683333334, "lat": 38.86532866666667, "name": "277777101d507d98f5a75158313d1f89", "fusion_lat": 0.0, "fusion_lon": 0.0, "rental_uris": {"android": "https://dc.lft.to/lastmile_qr_scan", "ios": "https://dc.lft.to/lastmile_qr_scan"}, "is_reserved": 0, "is_disabled": 0, "type": "electric_bike", "bike_id": "277777101d507d98f5a75158313d1f89"}, {"lon": -77.01697033333333, "lat": 38.905161166666666, "name": "585138415a7e537f2032f1f9c6cbfdad", "fusion_lat": 0.0, "fusion_lon": 0.0, "rental_uris": {"android": "https://dc.lft.to/lastmile_qr_scan", "ios": "https://dc.lft.to/lastmile_qr_scan"}, "is_reserved": 0, "is_disabled": 0, "type": "electric_scooter", "bike_id": "585138415a7e537f2032f1f9c6cbfdad"}, {"lon": -77.07043516666667, "lat": 38.824484166666664, "name": "89644bffd241f0f581c6ab58b7aeb645", "fusion_lat": 0.0, "fusion_lon": 0.0, "rental_uris": {"android": "https://dc.lft.to/lastmile_qr_scan", "ios": "https://dc.lft.to/lastmile_qr_scan"}, "is_reserved": 0, "is_disabled": 0, "type": "electric_bike", "bike_id": "89644bffd241f0f581c6ab58b7aeb645"}, {"lon": -77.002716, "lat": 38.877493, "name": "6f894ffdb0a7ba745f2d5c4c1d26851c", "fusion_lat": 0.0, "fusion_lon": 0.0, "rental_uris": {"android": "https://dc.lft.to/lastmile_qr_scan", "ios": "https://dc.lft.to/lastmile_qr_scan"}, "is_reserved": 0, "is_disabled": 0, "type": "electric_scooter", "bike_id": "6f894ffdb0a7ba745f2d5c4c1d26851c"}, {"lon": -77.00216083333333, "lat": 38.904785333333336, "name": "1224e867abe128af6d3432ded8a3696d", "fusion_lat": 0.0, "fusion_lon": 0.0, "rental_uris": {"android": "https://dc.lft.to/lastmile_qr_scan", "ios": "https://dc.lft.to/lastmile_qr_scan"}, "is_reserved": 0, "is_disabled": 0, "type": "electric_scooter", "bike_id": "1224e867abe128af6d3432ded8a3696d"}, {"lon": -77.03349433333334, "lat": 38.911026166666666, "name": "d40c269b6b61c3eb6a70693fd1bc3b1d", "fusion_lat": 0.0, "fusion_lon": 0.0, "rental_uris": {"android": "https://dc.lft.to/lastmile_qr_scan", "ios": "https://dc.lft.to/lastmile_qr_scan"}, "is_reserved": 0, "is_disabled": 0, "type": "electric_scooter", "bike_id": "d40c269b6b61c3eb6a70693fd1bc3b1d"}, {"lon": -77.012305, "lat": 38.900400166666664, "name": "16f0c9b90f2d09fb38ac05e839cfef3d", "fusion_lat": 0.0, "fusion_lon": 0.0, "rental_uris": {"android": "https://dc.lft.to/lastmile_qr_scan", "ios": "https://dc.lft.to/lastmile_qr_scan"}, "is_reserved": 0, "is_disabled": 0, "type": "electric_scooter", "bike_id": "16f0c9b90f2d09fb38ac05e839cfef3d"}, {"lon": -77.04036466666666, "lat": 38.91709483333333, "name": "08c7b039963bc005cd0114476ef548c6", "fusion_lat": 0.0, "fusion_lon": 0.0, "rental_uris": {"android": "https://dc.lft.to/lastmile_qr_scan", "ios": "https://dc.lft.to/lastmile_qr_scan"}, "is_reserved": 0, "is_disabled": 0, "type": "electric_scooter", "bike_id": "08c7b039963bc005cd0114476ef548c6"}, {"lon": -76.96553966666667, "lat": 38.95095716666667, "name": "555dfe1543e08ce41a312c74b0f91006", "fusion_lat": 0.0, "fusion_lon": 0.0, "rental_uris": {"android": "https://dc.lft.to/lastmile_qr_scan", "ios": "https://dc.lft.to/lastmile_qr_scan"}, "is_reserved": 0, "is_disabled": 0, "type": "electric_bike", "bike_id": "555dfe1543e08ce41a312c74b0f91006"}, {"lon": -77.01371833333333, "lat": 38.92849233333333, "name": "2e1a5d6f1c7200d41335a753062ca7d9", "fusion_lat": 0.0, "fusion_lon": 0.0, "rental_uris": {"android": "https://dc.lft.to/lastmile_qr_scan", "ios": "https://dc.lft.to/lastmile_qr_scan"}, "is_reserved": 0, "is_disabled": 0, "type": "electric_scooter", "bike_id": "2e1a5d6f1c7200d41335a753062ca7d9"}, {"lon": -77.0218, "lat": 38.909804333333334, "name": "e7ba08fa694e9eb53eab178b7a140192", "fusion_lat": 0.0, "fusion_lon": 0.0, "rental_uris": {"android": "https://dc.lft.to/lastmile_qr_scan", "ios": "https://dc.lft.to/lastmile_qr_scan"}, "is_reserved": 0, "is_disabled": 0, "type": "electric_scooter", "bike_id": "e7ba08fa694e9eb53eab178b7a140192"}, {"lon": -77.07859233333333, "lat": 38.93151983333333, "name": "80be1e0480aba433f72ef5fbbeef277b", "fusion_lat": 0.0, "fusion_lon": 0.0, "rental_uris": {"android": "https://dc.lft.to/lastmile_qr_scan", "ios": "https://dc.lft.to/lastmile_qr_scan"}, "is_reserved": 0, "is_disabled": 0, "type": "electric_scooter", "bike_id": "80be1e0480aba433f72ef5fbbeef277b"}, {"lon": -77.036822, "lat": 38.92093766666667, "name": "de4ee1e98f34cf2b2e625a721de1d529", "fusion_lat": 0.0, "fusion_lon": 0.0, "rental_uris": {"android": "https://dc.lft.to/lastmile_qr_scan", "ios": "https://dc.lft.to/lastmile_qr_scan"}, "is_reserved": 0, "is_disabled": 0, "type": "electric_scooter", "bike_id": "de4ee1e98f34cf2b2e625a721de1d529"}, {"lon": -77.107262, "lat": 38.85516616666666, "name": "6bd82c2696c146a8a244aa3937e18049", "fusion_lat": 0.0, "fusion_lon": 0.0, "rental_uris": {"android": "https://dc.lft.to/lastmile_qr_scan", "ios": "https://dc.lft.to/lastmile_qr_scan"}, "is_reserved": 0, "is_disabled": 0, "type": "electric_bike", "bike_id": "6bd82c2696c146a8a244aa3937e18049"}, {"lon": -76.94844883333333, "lat": 38.894847166666665, "name": "935c047d8e5d016831372211a10ecc89", "fusion_lat": 0.0, "fusion_lon": 0.0, "rental_uris": {"android": "https://dc.lft.to/lastmile_qr_scan", "ios": "https://dc.lft.to/lastmile_qr_scan"}, "is_reserved": 0, "is_disabled": 0, "type": "electric_scooter", "bike_id": "935c047d8e5d016831372211a10ecc89"}, {"lon": -77.041523, "lat": 38.90750516666667, "name": "c6d26c44a613c5ec6ad8a04723b9aef7", "fusion_lat": 0.0, "fusion_lon": 0.0, "rental_uris": {"android": "https://dc.lft.to/lastmile_qr_scan", "ios": "https://dc.lft.to/lastmile_qr_scan"}, "is_reserved": 0, "is_disabled": 0, "type": "electric_scooter", "bike_id": "c6d26c44a613c5ec6ad8a04723b9aef7"}, {"lon": -77.06530533333333, "lat": 38.91127383333333, "name": "26aa48d94332fef14bcce94dc5518b6e", "fusion_lat": 0.0, "fusion_lon": 0.0, "rental_uris": {"android": "https://dc.lft.to/lastmile_qr_scan", "ios": "https://dc.lft.to/lastmile_qr_scan"}, "is_reserved": 0, "is_disabled": 0, "type": "electric_scooter", "bike_id": "26aa48d94332fef14bcce94dc5518b6e"}, {"lon": -76.99516916666667, "lat": 38.894806833333334, "name": "65cef6df1ee5abf58b01ed1c1ff5581f", "fusion_lat": 0.0, "fusion_lon": 0.0, "rental_uris": {"android": "https://dc.lft.to/lastmile_qr_scan", "ios": "https://dc.lft.to/lastmile_qr_scan"}, "is_reserved": 0, "is_disabled": 0, "type": "electric_scooter", "bike_id": "65cef6df1ee5abf58b01ed1c1ff5581f"}, {"lon": -77.03204483333333, "lat": 38.911601166666664, "name": "0807b59a3e15f76590fcc2689eb9a3b6", "fusion_lat": 0.0, "fusion_lon": 0.0, "rental_uris": {"android": "https://dc.lft.to/lastmile_qr_scan", "ios": "https://dc.lft.to/lastmile_qr_scan"}, "is_reserved": 0, "is_disabled": 0, "type": "electric_scooter", "bike_id": "0807b59a3e15f76590fcc2689eb9a3b6"}, {"lon": -77.03231183333334, "lat": 38.938722166666665, "name": "db239f09594145acf20146fc75521585", "fusion_lat": 0.0, "fusion_lon": 0.0, "rental_uris": {"android": "https://dc.lft.to/lastmile_qr_scan", "ios": "https://dc.lft.to/lastmile_qr_scan"}, "is_reserved": 0, "is_disabled": 0, "type": "electric_scooter", "bike_id": "db239f09594145acf20146fc75521585"}, {"lon": -76.94853666666667, "lat": 38.883068333333334, "name": "d19e9418840a54d181ca84a993f28b5a", "fusion_lat": 0.0, "fusion_lon": 0.0, "rental_uris": {"android": "https://dc.lft.to/lastmile_qr_scan", "ios": "https://dc.lft.to/lastmile_qr_scan"}, "is_reserved": 0, "is_disabled": 0, "type": "electric_scooter", "bike_id": "d19e9418840a54d181ca84a993f28b5a"}, {"lon": -77.0590695, "lat": 38.9014075, "name": "2967cf555848c1258f554f6453bed0af", "fusion_lat": 0.0, "fusion_lon": 0.0, "rental_uris": {"android": "https://dc.lft.to/lastmile_qr_scan", "ios": "https://dc.lft.to/lastmile_qr_scan"}, "is_reserved": 0, "is_disabled": 0, "type": "electric_scooter", "bike_id": "2967cf555848c1258f554f6453bed0af"}, {"lon": -77.02973183333333, "lat": 38.922703, "name": "f2b192daf74d3a78d5b2e9360deaaf9a", "fusion_lat": 0.0, "fusion_lon": 0.0, "rental_uris": {"android": "https://dc.lft.to/lastmile_qr_scan", "ios": "https://dc.lft.to/lastmile_qr_scan"}, "is_reserved": 0, "is_disabled": 0, "type": "electric_bike", "bike_id": "f2b192daf74d3a78d5b2e9360deaaf9a"}, {"lon": -77.0335745, "lat": 38.885054333333336, "name": "5214c1d59eecdc93e072915ad1c2c285", "fusion_lat": 0.0, "fusion_lon": 0.0, "rental_uris": {"android": "https://dc.lft.to/lastmile_qr_scan", "ios": "https://dc.lft.to/lastmile_qr_scan"}, "is_reserved": 0, "is_disabled": 0, "type": "electric_scooter", "bike_id": "5214c1d59eecdc93e072915ad1c2c285"}, {"lon": -76.93176, "lat": 38.89882633333333, "name": "2ce8269474bdf67b2b888bff61a727e0", "fusion_lat": 0.0, "fusion_lon": 0.0, "rental_uris": {"android": "https://dc.lft.to/lastmile_qr_scan", "ios": "https://dc.lft.to/lastmile_qr_scan"}, "is_reserved": 0, "is_disabled": 0, "type": "electric_scooter", "bike_id": "2ce8269474bdf67b2b888bff61a727e0"}, {"lon": -77.04184933333333, "lat": 38.9060845, "name": "4b8ee4b9a32c17df01ee81d9f95b5b26", "fusion_lat": 0.0, "fusion_lon": 0.0, "rental_uris": {"android": "https://dc.lft.to/lastmile_qr_scan", "ios": "https://dc.lft.to/lastmile_qr_scan"}, "is_reserved": 0, "is_disabled": 0, "type": "electric_scooter", "bike_id": "4b8ee4b9a32c17df01ee81d9f95b5b26"}, {"lon": -76.98167733333334, "lat": 38.8458435, "name": "b9db1b9f91d952479c357c6ff9d8be3e", "fusion_lat": 0.0, "fusion_lon": 0.0, "rental_uris": {"android": "https://dc.lft.to/lastmile_qr_scan", "ios": "https://dc.lft.to/lastmile_qr_scan"}, "is_reserved": 0, "is_disabled": 0, "type": "electric_bike", "bike_id": "b9db1b9f91d952479c357c6ff9d8be3e"}, {"lon": -76.99276816666666, "lat": 38.8969335, "name": "b1d4ef0e93a0c2b0b33988d7ad6b8345", "fusion_lat": 0.0, "fusion_lon": 0.0, "rental_uris": {"android": "https://dc.lft.to/lastmile_qr_scan", "ios": "https://dc.lft.to/lastmile_qr_scan"}, "is_reserved": 0, "is_disabled": 0, "type": "electric_scooter", "bike_id": "b1d4ef0e93a0c2b0b33988d7ad6b8345"}, {"lon": -77.04520683333334, "lat": 38.9097135, "name": "99cf26eaec7f7737d30362753c687e25", "fusion_lat": 0.0, "fusion_lon": 0.0, "rental_uris": {"android": "https://dc.lft.to/lastmile_qr_scan", "ios": "https://dc.lft.to/lastmile_qr_scan"}, "is_reserved": 0, "is_disabled": 0, "type": "electric_scooter", "bike_id": "99cf26eaec7f7737d30362753c687e25"}, {"lon": -77.03362083333333, "lat": 38.88505716666667, "name": "f6d04eb2fd39489a8bdce96d50a6c08c", "fusion_lat": 0.0, "fusion_lon": 0.0, "rental_uris": {"android": "https://dc.lft.to/lastmile_qr_scan", "ios": "https://dc.lft.to/lastmile_qr_scan"}, "is_reserved": 0, "is_disabled": 0, "type": "electric_scooter", "bike_id": "f6d04eb2fd39489a8bdce96d50a6c08c"}, {"lon": -77.03837016666667, "lat": 38.9108235, "name": "815efeeb45aac5763bfa9a110300ca1a", "fusion_lat": 0.0, "fusion_lon": 0.0, "rental_uris": {"android": "https://dc.lft.to/lastmile_qr_scan", "ios": "https://dc.lft.to/lastmile_qr_scan"}, "is_reserved": 0, "is_disabled": 0, "type": "electric_scooter", "bike_id": "815efeeb45aac5763bfa9a110300ca1a"}, {"lon": -77.09524583333334, "lat": 38.8381075, "name": "63d991ad7e2dbd67b0482649e4d3458e", "fusion_lat": 0.0, "fusion_lon": 0.0, "rental_uris": {"android": "https://dc.lft.to/lastmile_qr_scan", "ios": "https://dc.lft.to/lastmile_qr_scan"}, "is_reserved": 0, "is_disabled": 0, "type": "electric_bike", "bike_id": "63d991ad7e2dbd67b0482649e4d3458e"}, {"lon": -77.03064783333333, "lat": 38.92250083333333, "name": "373eb38bad332a21fd76e8c11daac59d", "fusion_lat": 0.0, "fusion_lon": 0.0, "rental_uris": {"android": "https://dc.lft.to/lastmile_qr_scan", "ios": "https://dc.lft.to/lastmile_qr_scan"}, "is_reserved": 0, "is_disabled": 0, "type": "electric_scooter", "bike_id": "373eb38bad332a21fd76e8c11daac59d"}, {"lon": -77.04446483333334, "lat": 38.91882866666667, "name": "4fd3e180b3a6fcb5706de1076eb949b9", "fusion_lat": 0.0, "fusion_lon": 0.0, "rental_uris": {"android": "https://dc.lft.to/lastmile_qr_scan", "ios": "https://dc.lft.to/lastmile_qr_scan"}, "is_reserved": 0, "is_disabled": 0, "type": "electric_scooter", "bike_id": "4fd3e180b3a6fcb5706de1076eb949b9"}, {"lon": -77.0560405, "lat": 38.9278425, "name": "9df7e1d4f873256cbfaa7183cfa0eb0c", "fusion_lat": 0.0, "fusion_lon": 0.0, "rental_uris": {"android": "https://dc.lft.to/lastmile_qr_scan", "ios": "https://dc.lft.to/lastmile_qr_scan"}, "is_reserved": 0, "is_disabled": 0, "type": "electric_scooter", "bike_id": "9df7e1d4f873256cbfaa7183cfa0eb0c"}, {"lon": -77.03829616666667, "lat": 38.920551833333334, "name": "c8b2046289ffc2ae5d12bdeedc9dd549", "fusion_lat": 0.0, "fusion_lon": 0.0, "rental_uris": {"android": "https://dc.lft.to/lastmile_qr_scan", "ios": "https://dc.lft.to/lastmile_qr_scan"}, "is_reserved": 0, "is_disabled": 0, "type": "electric_scooter", "bike_id": "c8b2046289ffc2ae5d12bdeedc9dd549"}, {"lon": -77.04378466666667, "lat": 38.89222, "name": "ff3cfd3ad8ede33034838d426e3d92d1", "fusion_lat": 0.0, "fusion_lon": 0.0, "rental_uris": {"android": "https://dc.lft.to/lastmile_qr_scan", "ios": "https://dc.lft.to/lastmile_qr_scan"}, "is_reserved": 0, "is_disabled": 0, "type": "electric_scooter", "bike_id": "ff3cfd3ad8ede33034838d426e3d92d1"}, {"lon": -77.07562316666667, "lat": 38.92091583333333, "name": "4b5ad5aca696b1259d78080690f251b3", "fusion_lat": 0.0, "fusion_lon": 0.0, "rental_uris": {"android": "https://dc.lft.to/lastmile_qr_scan", "ios": "https://dc.lft.to/lastmile_qr_scan"}, "is_reserved": 0, "is_disabled": 0, "type": "electric_scooter", "bike_id": "4b5ad5aca696b1259d78080690f251b3"}, {"lon": -77.02805483333333, "lat": 38.893765333333334, "name": "400da48946ce58fefd4422f6bc595230", "fusion_lat": 0.0, "fusion_lon": 0.0, "rental_uris": {"android": "https://dc.lft.to/lastmile_qr_scan", "ios": "https://dc.lft.to/lastmile_qr_scan"}, "is_reserved": 0, "is_disabled": 0, "type": "electric_scooter", "bike_id": "400da48946ce58fefd4422f6bc595230"}, {"lon": -77.03185983333333, "lat": 38.919023333333335, "name": "607106f494674e2140503902f5057960", "fusion_lat": 0.0, "fusion_lon": 0.0, "rental_uris": {"android": "https://dc.lft.to/lastmile_qr_scan", "ios": "https://dc.lft.to/lastmile_qr_scan"}, "is_reserved": 0, "is_disabled": 0, "type": "electric_scooter", "bike_id": "607106f494674e2140503902f5057960"}, {"lon": -76.95820033333334, "lat": 38.89057583333334, "name": "38dfcaea093c0f6aa4293ffa5ae714a0", "fusion_lat": 0.0, "fusion_lon": 0.0, "rental_uris": {"android": "https://dc.lft.to/lastmile_qr_scan", "ios": "https://dc.lft.to/lastmile_qr_scan"}, "is_reserved": 0, "is_disabled": 0, "type": "electric_scooter", "bike_id": "38dfcaea093c0f6aa4293ffa5ae714a0"}, {"lon": -77.05530833333333, "lat": 38.899214, "name": "1da9d798412922b4d97330969ed08a45", "fusion_lat": 0.0, "fusion_lon": 0.0, "rental_uris": {"android": "https://dc.lft.to/lastmile_qr_scan", "ios": "https://dc.lft.to/lastmile_qr_scan"}, "is_reserved": 0, "is_disabled": 0, "type": "electric_scooter", "bike_id": "1da9d798412922b4d97330969ed08a45"}, {"lon": -77.03094866666666, "lat": 38.90022466666667, "name": "feb9c8dd028d044f722df193ef80d821", "fusion_lat": 0.0, "fusion_lon": 0.0, "rental_uris": {"android": "https://dc.lft.to/lastmile_qr_scan", "ios": "https://dc.lft.to/lastmile_qr_scan"}, "is_reserved": 0, "is_disabled": 0, "type": "electric_scooter", "bike_id": "feb9c8dd028d044f722df193ef80d821"}, {"lon": -77.02213383333333, "lat": 38.8876625, "name": "30fad2660ac5d1285bfcade9a29d921d", "fusion_lat": 0.0, "fusion_lon": 0.0, "rental_uris": {"android": "https://dc.lft.to/lastmile_qr_scan", "ios": "https://dc.lft.to/lastmile_qr_scan"}, "is_reserved": 0, "is_disabled": 0, "type": "electric_scooter", "bike_id": "30fad2660ac5d1285bfcade9a29d921d"}, {"lon": -77.08943283333333, "lat": 38.84106766666667, "name": "dcef6b804865eb8bced31ce28618d267", "fusion_lat": 0.0, "fusion_lon": 0.0, "rental_uris": {"android": "https://dc.lft.to/lastmile_qr_scan", "ios": "https://dc.lft.to/lastmile_qr_scan"}, "is_reserved": 0, "is_disabled": 0, "type": "electric_bike", "bike_id": "dcef6b804865eb8bced31ce28618d267"}, {"lon": -76.98414566666666, "lat": 38.859678333333335, "name": "c0161380bec1af48ffcc8009f0ac40c8", "fusion_lat": 0.0, "fusion_lon": 0.0, "rental_uris": {"android": "https://dc.lft.to/lastmile_qr_scan", "ios": "https://dc.lft.to/lastmile_qr_scan"}, "is_reserved": 0, "is_disabled": 0, "type": "electric_scooter", "bike_id": "c0161380bec1af48ffcc8009f0ac40c8"}, {"lon": -77.10515633333333, "lat": 38.92846316666667, "name": "69638ba9550ce65ee2cedba79b7ef9e1", "fusion_lat": 0.0, "fusion_lon": 0.0, "rental_uris": {"android": "https://dc.lft.to/lastmile_qr_scan", "ios": "https://dc.lft.to/lastmile_qr_scan"}, "is_reserved": 0, "is_disabled": 0, "type": "electric_bike", "bike_id": "69638ba9550ce65ee2cedba79b7ef9e1"}, {"lon": -77.04501966666666, "lat": 38.90770466666667, "name": "36f8edc37b7af823438e27a7f1eb187f", "fusion_lat": 0.0, "fusion_lon": 0.0, "rental_uris": {"android": "https://dc.lft.to/lastmile_qr_scan", "ios": "https://dc.lft.to/lastmile_qr_scan"}, "is_reserved": 0, "is_disabled": 0, "type": "electric_scooter", "bike_id": "36f8edc37b7af823438e27a7f1eb187f"}, {"lon": -77.02880766666667, "lat": 38.950728166666664, "name": "361d30eecff10b6fb36df9f4151b07a2", "fusion_lat": 0.0, "fusion_lon": 0.0, "rental_uris": {"android": "https://dc.lft.to/lastmile_qr_scan", "ios": "https://dc.lft.to/lastmile_qr_scan"}, "is_reserved": 0, "is_disabled": 0, "type": "electric_scooter", "bike_id": "361d30eecff10b6fb36df9f4151b07a2"}, {"lon": -76.95754283333333, "lat": 38.8842895, "name": "23ff068a91b677aec1958dfce29f00b2", "fusion_lat": 0.0, "fusion_lon": 0.0, "rental_uris": {"android": "https://dc.lft.to/lastmile_qr_scan", "ios": "https://dc.lft.to/lastmile_qr_scan"}, "is_reserved": 0, "is_disabled": 0, "type": "electric_scooter", "bike_id": "23ff068a91b677aec1958dfce29f00b2"}, {"lon": -77.02954683333333, "lat": 38.917198166666665, "name": "6c71addff937887e56e894d12ea056f0", "fusion_lat": 0.0, "fusion_lon": 0.0, "rental_uris": {"android": "https://dc.lft.to/lastmile_qr_scan", "ios": "https://dc.lft.to/lastmile_qr_scan"}, "is_reserved": 0, "is_disabled": 0, "type": "electric_scooter", "bike_id": "6c71addff937887e56e894d12ea056f0"}, {"lon": -76.98329883333334, "lat": 38.86167233333333, "name": "950991234b0d01201c2896d867d4ad6b", "fusion_lat": 0.0, "fusion_lon": 0.0, "rental_uris": {"android": "https://dc.lft.to/lastmile_qr_scan", "ios": "https://dc.lft.to/lastmile_qr_scan"}, "is_reserved": 0, "is_disabled": 0, "type": "electric_scooter", "bike_id": "950991234b0d01201c2896d867d4ad6b"}, {"lon": -77.0300145, "lat": 38.910236166666664, "name": "34b2f1582f3df40dab704ca25c23994a", "fusion_lat": 0.0, "fusion_lon": 0.0, "rental_uris": {"android": "https://dc.lft.to/lastmile_qr_scan", "ios": "https://dc.lft.to/lastmile_qr_scan"}, "is_reserved": 0, "is_disabled": 0, "type": "electric_scooter", "bike_id": "34b2f1582f3df40dab704ca25c23994a"}, {"lon": -77.1086905, "lat": 38.99682716666667, "name": "2a32efde5713a5bc49b7b88c2abca645", "fusion_lat": 0.0, "fusion_lon": 0.0, "rental_uris": {"android": "https://dc.lft.to/lastmile_qr_scan", "ios": "https://dc.lft.to/lastmile_qr_scan"}, "is_reserved": 0, "is_disabled": 0, "type": "electric_bike", "bike_id": "2a32efde5713a5bc49b7b88c2abca645"}, {"lon": -77.05359666666666, "lat": 38.927931, "name": "691a8226306129503c13580b82149b1f", "fusion_lat": 0.0, "fusion_lon": 0.0, "rental_uris": {"android": "https://dc.lft.to/lastmile_qr_scan", "ios": "https://dc.lft.to/lastmile_qr_scan"}, "is_reserved": 0, "is_disabled": 0, "type": "electric_scooter", "bike_id": "691a8226306129503c13580b82149b1f"}, {"lon": -77.02967716666667, "lat": 38.92407083333333, "name": "af0dfad7f449e0ecc80e0e9da5355629", "fusion_lat": 0.0, "fusion_lon": 0.0, "rental_uris": {"android": "https://dc.lft.to/lastmile_qr_scan", "ios": "https://dc.lft.to/lastmile_qr_scan"}, "is_reserved": 0, "is_disabled": 0, "type": "electric_scooter", "bike_id": "af0dfad7f449e0ecc80e0e9da5355629"}, {"lon": -77.0141315, "lat": 38.928171166666665, "name": "04dcdcd55b3cc435dae58ab14aefb3bf", "fusion_lat": 0.0, "fusion_lon": 0.0, "rental_uris": {"android": "https://dc.lft.to/lastmile_qr_scan", "ios": "https://dc.lft.to/lastmile_qr_scan"}, "is_reserved": 0, "is_disabled": 0, "type": "electric_scooter", "bike_id": "04dcdcd55b3cc435dae58ab14aefb3bf"}, {"lon": -77.02358683333334, "lat": 38.9251365, "name": "e8cc4a4bd8b22989b51e25b5824d0566", "fusion_lat": 0.0, "fusion_lon": 0.0, "rental_uris": {"android": "https://dc.lft.to/lastmile_qr_scan", "ios": "https://dc.lft.to/lastmile_qr_scan"}, "is_reserved": 0, "is_disabled": 0, "type": "electric_scooter", "bike_id": "e8cc4a4bd8b22989b51e25b5824d0566"}, {"lon": -77.05301383333334, "lat": 38.925557833333336, "name": "8d73a8412989456f8ebffb40a3b9f2b8", "fusion_lat": 0.0, "fusion_lon": 0.0, "rental_uris": {"android": "https://dc.lft.to/lastmile_qr_scan", "ios": "https://dc.lft.to/lastmile_qr_scan"}, "is_reserved": 0, "is_disabled": 0, "type": "electric_scooter", "bike_id": "8d73a8412989456f8ebffb40a3b9f2b8"}, {"lon": -77.15268216666666, "lat": 39.105639833333335, "name": "e5e8a506f53b488688cf381995b1dded", "fusion_lat": 0.0, "fusion_lon": 0.0, "rental_uris": {"android": "https://dc.lft.to/lastmile_qr_scan", "ios": "https://dc.lft.to/lastmile_qr_scan"}, "is_reserved": 0, "is_disabled": 0, "type": "electric_bike", "bike_id": "e5e8a506f53b488688cf381995b1dded"}, {"lon": -77.034568, "lat": 38.91817116666667, "name": "d8df42987ba50c552a65664bfe5a665e", "fusion_lat": 0.0, "fusion_lon": 0.0, "rental_uris": {"android": "https://dc.lft.to/lastmile_qr_scan", "ios": "https://dc.lft.to/lastmile_qr_scan"}, "is_reserved": 0, "is_disabled": 0, "type": "electric_scooter", "bike_id": "d8df42987ba50c552a65664bfe5a665e"}, {"lon": -77.1122855, "lat": 38.81209966666667, "name": "159b0474c7df3891cb3327bed2d19872", "fusion_lat": 0.0, "fusion_lon": 0.0, "rental_uris": {"android": "https://dc.lft.to/lastmile_qr_scan", "ios": "https://dc.lft.to/lastmile_qr_scan"}, "is_reserved": 0, "is_disabled": 0, "type": "electric_bike", "bike_id": "159b0474c7df3891cb3327bed2d19872"}, {"lon": -77.02206433333333, "lat": 38.88713816666667, "name": "22a9b8bd59f2d746dcc17783adecf560", "fusion_lat": 0.0, "fusion_lon": 0.0, "rental_uris": {"android": "https://dc.lft.to/lastmile_qr_scan", "ios": "https://dc.lft.to/lastmile_qr_scan"}, "is_reserved": 0, "is_disabled": 0, "type": "electric_scooter", "bike_id": "22a9b8bd59f2d746dcc17783adecf560"}, {"lon": -76.95255066666667, "lat": 38.90692266666667, "name": "63230fa66eacdfa34deea6acf6ea728e", "fusion_lat": 0.0, "fusion_lon": 0.0, "rental_uris": {"android": "https://dc.lft.to/lastmile_qr_scan", "ios": "https://dc.lft.to/lastmile_qr_scan"}, "is_reserved": 0, "is_disabled": 0, "type": "electric_bike", "bike_id": "63230fa66eacdfa34deea6acf6ea728e"}, {"lon": -77.05003516666666, "lat": 38.892316, "name": "4c50ec0f48aa1f75018346752207acbc", "fusion_lat": 0.0, "fusion_lon": 0.0, "rental_uris": {"android": "https://dc.lft.to/lastmile_qr_scan", "ios": "https://dc.lft.to/lastmile_qr_scan"}, "is_reserved": 0, "is_disabled": 0, "type": "electric_scooter", "bike_id": "4c50ec0f48aa1f75018346752207acbc"}, {"lon": -77.0608795, "lat": 38.905279666666665, "name": "f0205ba55f0f2016e55186ffa04aa3bd", "fusion_lat": 0.0, "fusion_lon": 0.0, "rental_uris": {"android": "https://dc.lft.to/lastmile_qr_scan", "ios": "https://dc.lft.to/lastmile_qr_scan"}, "is_reserved": 0, "is_disabled": 0, "type": "electric_scooter", "bike_id": "f0205ba55f0f2016e55186ffa04aa3bd"}, {"lon": -76.98705766666667, "lat": 38.90008433333333, "name": "29f5a70eba4cebeb737c943811fd9f91", "fusion_lat": 0.0, "fusion_lon": 0.0, "rental_uris": {"android": "https://dc.lft.to/lastmile_qr_scan", "ios": "https://dc.lft.to/lastmile_qr_scan"}, "is_reserved": 0, "is_disabled": 0, "type": "electric_scooter", "bike_id": "29f5a70eba4cebeb737c943811fd9f91"}, {"lon": -77.02259083333334, "lat": 38.912606833333335, "name": "15c79424f87971e9f12d8d5fa4a2b167", "fusion_lat": 0.0, "fusion_lon": 0.0, "rental_uris": {"android": "https://dc.lft.to/lastmile_qr_scan", "ios": "https://dc.lft.to/lastmile_qr_scan"}, "is_reserved": 0, "is_disabled": 0, "type": "electric_scooter", "bike_id": "15c79424f87971e9f12d8d5fa4a2b167"}, {"lon": -77.02558833333333, "lat": 38.9212975, "name": "01a0072f6ce784f85548b8ce6593ffae", "fusion_lat": 0.0, "fusion_lon": 0.0, "rental_uris": {"android": "https://dc.lft.to/lastmile_qr_scan", "ios": "https://dc.lft.to/lastmile_qr_scan"}, "is_reserved": 0, "is_disabled": 0, "type": "electric_scooter", "bike_id": "01a0072f6ce784f85548b8ce6593ffae"}, {"lon": -77.02971233333334, "lat": 38.92258833333333, "name": "783a1f6e946c33e89f2b3e3d8f83eb97", "fusion_lat": 0.0, "fusion_lon": 0.0, "rental_uris": {"android": "https://dc.lft.to/lastmile_qr_scan", "ios": "https://dc.lft.to/lastmile_qr_scan"}, "is_reserved": 0, "is_disabled": 0, "type": "electric_scooter", "bike_id": "783a1f6e946c33e89f2b3e3d8f83eb97"}, {"lon": -77.022052, "lat": 38.90834566666667, "name": "f3f75e3602415284a7c95f88aa4b958e", "fusion_lat": 0.0, "fusion_lon": 0.0, "rental_uris": {"android": "https://dc.lft.to/lastmile_qr_scan", "ios": "https://dc.lft.to/lastmile_qr_scan"}, "is_reserved": 0, "is_disabled": 0, "type": "electric_scooter", "bike_id": "f3f75e3602415284a7c95f88aa4b958e"}, {"lon": -77.02833233333334, "lat": 38.895218166666666, "name": "56655dcfe1c5b43d0137309f4086c053", "fusion_lat": 0.0, "fusion_lon": 0.0, "rental_uris": {"android": "https://dc.lft.to/lastmile_qr_scan", "ios": "https://dc.lft.to/lastmile_qr_scan"}, "is_reserved": 0, "is_disabled": 0, "type": "electric_scooter", "bike_id": "56655dcfe1c5b43d0137309f4086c053"}, {"lon": -77.00716716666666, "lat": 38.90565566666667, "name": "d8746f03beb23e3eab577ee6bb9144d1", "fusion_lat": 0.0, "fusion_lon": 0.0, "rental_uris": {"android": "https://dc.lft.to/lastmile_qr_scan", "ios": "https://dc.lft.to/lastmile_qr_scan"}, "is_reserved": 0, "is_disabled": 0, "type": "electric_scooter", "bike_id": "d8746f03beb23e3eab577ee6bb9144d1"}, {"lon": -77.02294033333334, "lat": 38.91691133333333, "name": "1ea43319e309569019745a5bdc8449ae", "fusion_lat": 0.0, "fusion_lon": 0.0, "rental_uris": {"android": "https://dc.lft.to/lastmile_qr_scan", "ios": "https://dc.lft.to/lastmile_qr_scan"}, "is_reserved": 0, "is_disabled": 0, "type": "electric_scooter", "bike_id": "1ea43319e309569019745a5bdc8449ae"}, {"lon": -76.9812015, "lat": 38.89668866666667, "name": "7d78226238437b18156783902fa68430", "fusion_lat": 0.0, "fusion_lon": 0.0, "rental_uris": {"android": "https://dc.lft.to/lastmile_qr_scan", "ios": "https://dc.lft.to/lastmile_qr_scan"}, "is_reserved": 0, "is_disabled": 0, "type": "electric_bike", "bike_id": "7d78226238437b18156783902fa68430"}, {"lon": -76.94930183333334, "lat": 38.89478066666667, "name": "11ea5ea7d0decb9b2144c72acb8e2a30", "fusion_lat": 0.0, "fusion_lon": 0.0, "rental_uris": {"android": "https://dc.lft.to/lastmile_qr_scan", "ios": "https://dc.lft.to/lastmile_qr_scan"}, "is_reserved": 0, "is_disabled": 0, "type": "electric_scooter", "bike_id": "11ea5ea7d0decb9b2144c72acb8e2a30"}, {"lon": -77.0235685, "lat": 38.879156333333334, "name": "f2fc24dd664c240516724f277753898c", "fusion_lat": 0.0, "fusion_lon": 0.0, "rental_uris": {"android": "https://dc.lft.to/lastmile_qr_scan", "ios": "https://dc.lft.to/lastmile_qr_scan"}, "is_reserved": 0, "is_disabled": 0, "type": "electric_scooter", "bike_id": "f2fc24dd664c240516724f277753898c"}, {"lon": -77.06767033333334, "lat": 38.905158666666665, "name": "a60655c42c62d0d590e09eff70a2ba16", "fusion_lat": 0.0, "fusion_lon": 0.0, "rental_uris": {"android": "https://dc.lft.to/lastmile_qr_scan", "ios": "https://dc.lft.to/lastmile_qr_scan"}, "is_reserved": 0, "is_disabled": 0, "type": "electric_scooter", "bike_id": "a60655c42c62d0d590e09eff70a2ba16"}, {"lon": -76.931879, "lat": 38.89874366666667, "name": "bbde9f44108155927252a98a3a1f5c55", "fusion_lat": 0.0, "fusion_lon": 0.0, "rental_uris": {"android": "https://dc.lft.to/lastmile_qr_scan", "ios": "https://dc.lft.to/lastmile_qr_scan"}, "is_reserved": 0, "is_disabled": 0, "type": "electric_scooter", "bike_id": "bbde9f44108155927252a98a3a1f5c55"}, {"lon": -76.9521315, "lat": 38.93667516666667, "name": "64f78d3a797cb1af52b75bb9ac2519f9", "fusion_lat": 0.0, "fusion_lon": 0.0, "rental_uris": {"android": "https://dc.lft.to/lastmile_qr_scan", "ios": "https://dc.lft.to/lastmile_qr_scan"}, "is_reserved": 0, "is_disabled": 0, "type": "electric_bike", "bike_id": "64f78d3a797cb1af52b75bb9ac2519f9"}, {"lon": -77.02813383333333, "lat": 38.89518316666667, "name": "89c5f1b0fd7246a99a66c6f51f3911ef", "fusion_lat": 0.0, "fusion_lon": 0.0, "rental_uris": {"android": "https://dc.lft.to/lastmile_qr_scan", "ios": "https://dc.lft.to/lastmile_qr_scan"}, "is_reserved": 0, "is_disabled": 0, "type": "electric_scooter", "bike_id": "89c5f1b0fd7246a99a66c6f51f3911ef"}, {"lon": -77.00137816666667, "lat": 38.9040695, "name": "339547e214977f2f1d99031a9f4f73d3", "fusion_lat": 0.0, "fusion_lon": 0.0, "rental_uris": {"android": "https://dc.lft.to/lastmile_qr_scan", "ios": "https://dc.lft.to/lastmile_qr_scan"}, "is_reserved": 0, "is_disabled": 0, "type": "electric_scooter", "bike_id": "339547e214977f2f1d99031a9f4f73d3"}, {"lon": -77.03220233333333, "lat": 38.9200675, "name": "de2660e0be4d85219ca714a96f17af6e", "fusion_lat": 0.0, "fusion_lon": 0.0, "rental_uris": {"android": "https://dc.lft.to/lastmile_qr_scan", "ios": "https://dc.lft.to/lastmile_qr_scan"}, "is_reserved": 0, "is_disabled": 0, "type": "electric_scooter", "bike_id": "de2660e0be4d85219ca714a96f17af6e"}, {"lon": -76.990653, "lat": 38.900231833333336, "name": "d5a63a366fce1cd7f00e3542c8c339e0", "fusion_lat": 0.0, "fusion_lon": 0.0, "rental_uris": {"android": "https://dc.lft.to/lastmile_qr_scan", "ios": "https://dc.lft.to/lastmile_qr_scan"}, "is_reserved": 0, "is_disabled": 0, "type": "electric_scooter", "bike_id": "d5a63a366fce1cd7f00e3542c8c339e0"}, {"lon": -77.04831016666667, "lat": 38.904412666666666, "name": "98f5850e7823bd29b076d30bec1525b7", "fusion_lat": 0.0, "fusion_lon": 0.0, "rental_uris": {"android": "https://dc.lft.to/lastmile_qr_scan", "ios": "https://dc.lft.to/lastmile_qr_scan"}, "is_reserved": 0, "is_disabled": 0, "type": "electric_scooter", "bike_id": "98f5850e7823bd29b076d30bec1525b7"}, {"lon": -77.03351166666667, "lat": 38.92165766666667, "name": "eeb97927cc64b641534133bcdfaa8248", "fusion_lat": 0.0, "fusion_lon": 0.0, "rental_uris": {"android": "https://dc.lft.to/lastmile_qr_scan", "ios": "https://dc.lft.to/lastmile_qr_scan"}, "is_reserved": 0, "is_disabled": 0, "type": "electric_scooter", "bike_id": "eeb97927cc64b641534133bcdfaa8248"}, {"lon": -76.99938583333333, "lat": 38.896159, "name": "0d872348f16353fb22c8ca309f009ef6", "fusion_lat": 0.0, "fusion_lon": 0.0, "rental_uris": {"android": "https://dc.lft.to/lastmile_qr_scan", "ios": "https://dc.lft.to/lastmile_qr_scan"}, "is_reserved": 0, "is_disabled": 0, "type": "electric_scooter", "bike_id": "0d872348f16353fb22c8ca309f009ef6"}, {"lon": -77.02210416666667, "lat": 38.91414566666667, "name": "31f1ef17790c759b83d06274187c85a8", "fusion_lat": 0.0, "fusion_lon": 0.0, "rental_uris": {"android": "https://dc.lft.to/lastmile_qr_scan", "ios": "https://dc.lft.to/lastmile_qr_scan"}, "is_reserved": 0, "is_disabled": 0, "type": "electric_scooter", "bike_id": "31f1ef17790c759b83d06274187c85a8"}, {"lon": -77.03193466666667, "lat": 38.91986833333333, "name": "538c9561c57fdebf888bd64538ba1f22", "fusion_lat": 0.0, "fusion_lon": 0.0, "rental_uris": {"android": "https://dc.lft.to/lastmile_qr_scan", "ios": "https://dc.lft.to/lastmile_qr_scan"}, "is_reserved": 0, "is_disabled": 0, "type": "electric_scooter", "bike_id": "538c9561c57fdebf888bd64538ba1f22"}, {"lon": -77.01965483333333, "lat": 38.878497, "name": "a4b4298f86ed8eb8ec85a46c4fdbe844", "fusion_lat": 0.0, "fusion_lon": 0.0, "rental_uris": {"android": "https://dc.lft.to/lastmile_qr_scan", "ios": "https://dc.lft.to/lastmile_qr_scan"}, "is_reserved": 0, "is_disabled": 0, "type": "electric_scooter", "bike_id": "a4b4298f86ed8eb8ec85a46c4fdbe844"}, {"lon": -77.0283135, "lat": 38.91711133333333, "name": "c5b3234c8b290d015e7f6d665689a292", "fusion_lat": 0.0, "fusion_lon": 0.0, "rental_uris": {"android": "https://dc.lft.to/lastmile_qr_scan", "ios": "https://dc.lft.to/lastmile_qr_scan"}, "is_reserved": 0, "is_disabled": 0, "type": "electric_scooter", "bike_id": "c5b3234c8b290d015e7f6d665689a292"}, {"lon": -76.9851015, "lat": 38.88080133333333, "name": "7b987750316b961a17ad1137a1b8c781", "fusion_lat": 0.0, "fusion_lon": 0.0, "rental_uris": {"android": "https://dc.lft.to/lastmile_qr_scan", "ios": "https://dc.lft.to/lastmile_qr_scan"}, "is_reserved": 0, "is_disabled": 0, "type": "electric_bike", "bike_id": "7b987750316b961a17ad1137a1b8c781"}, {"lon": -77.01535333333334, "lat": 38.88628333333333, "name": "e234422bbf337bb4d57d21cd65877d6f", "fusion_lat": 0.0, "fusion_lon": 0.0, "rental_uris": {"android": "https://dc.lft.to/lastmile_qr_scan", "ios": "https://dc.lft.to/lastmile_qr_scan"}, "is_reserved": 0, "is_disabled": 0, "type": "electric_scooter", "bike_id": "e234422bbf337bb4d57d21cd65877d6f"}, {"lon": -77.01112583333334, "lat": 38.915586, "name": "6a767fd5865a669c2f98cad5e46745b0", "fusion_lat": 0.0, "fusion_lon": 0.0, "rental_uris": {"android": "https://dc.lft.to/lastmile_qr_scan", "ios": "https://dc.lft.to/lastmile_qr_scan"}, "is_reserved": 0, "is_disabled": 0, "type": "electric_scooter", "bike_id": "6a767fd5865a669c2f98cad5e46745b0"}, {"lon": -77.0274055, "lat": 38.92844783333334, "name": "89b607b8b46891f5152d5d0eee849f72", "fusion_lat": 0.0, "fusion_lon": 0.0, "rental_uris": {"android": "https://dc.lft.to/lastmile_qr_scan", "ios": "https://dc.lft.to/lastmile_qr_scan"}, "is_reserved": 0, "is_disabled": 0, "type": "electric_scooter", "bike_id": "89b607b8b46891f5152d5d0eee849f72"}, {"lon": -77.006048, "lat": 38.8771325, "name": "0b98cf5a9bb18ba4a317ee9fb76b4829", "fusion_lat": 0.0, "fusion_lon": 0.0, "rental_uris": {"android": "https://dc.lft.to/lastmile_qr_scan", "ios": "https://dc.lft.to/lastmile_qr_scan"}, "is_reserved": 0, "is_disabled": 0, "type": "electric_scooter", "bike_id": "0b98cf5a9bb18ba4a317ee9fb76b4829"}, {"lon": -76.99822466666667, "lat": 38.888728, "name": "585326294e995f4b134ce4ed757b14d9", "fusion_lat": 0.0, "fusion_lon": 0.0, "rental_uris": {"android": "https://dc.lft.to/lastmile_qr_scan", "ios": "https://dc.lft.to/lastmile_qr_scan"}, "is_reserved": 0, "is_disabled": 0, "type": "electric_scooter", "bike_id": "585326294e995f4b134ce4ed757b14d9"}, {"lon": -77.0256765, "lat": 38.883947, "name": "534d38b76cb9e5eb095526f9332bdc84", "fusion_lat": 0.0, "fusion_lon": 0.0, "rental_uris": {"android": "https://dc.lft.to/lastmile_qr_scan", "ios": "https://dc.lft.to/lastmile_qr_scan"}, "is_reserved": 0, "is_disabled": 0, "type": "electric_scooter", "bike_id": "534d38b76cb9e5eb095526f9332bdc84"}, {"lon": -77.03173233333334, "lat": 38.91834133333333, "name": "9c37e10a8327bd24a455d6d3ec894817", "fusion_lat": 0.0, "fusion_lon": 0.0, "rental_uris": {"android": "https://dc.lft.to/lastmile_qr_scan", "ios": "https://dc.lft.to/lastmile_qr_scan"}, "is_reserved": 0, "is_disabled": 0, "type": "electric_scooter", "bike_id": "9c37e10a8327bd24a455d6d3ec894817"}, {"lon": -76.985134, "lat": 38.906085166666664, "name": "363189fe4896f062bf781bb5ad793cc0", "fusion_lat": 0.0, "fusion_lon": 0.0, "rental_uris": {"android": "https://dc.lft.to/lastmile_qr_scan", "ios": "https://dc.lft.to/lastmile_qr_scan"}, "is_reserved": 0, "is_disabled": 0, "type": "electric_scooter", "bike_id": "363189fe4896f062bf781bb5ad793cc0"}, {"lon": -77.01894783333333, "lat": 38.91185083333333, "name": "e919741320969a87266c008ff8bcf4ff", "fusion_lat": 0.0, "fusion_lon": 0.0, "rental_uris": {"android": "https://dc.lft.to/lastmile_qr_scan", "ios": "https://dc.lft.to/lastmile_qr_scan"}, "is_reserved": 0, "is_disabled": 0, "type": "electric_scooter", "bike_id": "e919741320969a87266c008ff8bcf4ff"}, {"lon": -77.03660116666667, "lat": 38.922856, "name": "a0b5dd98af88126995c768b4a296b268", "fusion_lat": 0.0, "fusion_lon": 0.0, "rental_uris": {"android": "https://dc.lft.to/lastmile_qr_scan", "ios": "https://dc.lft.to/lastmile_qr_scan"}, "is_reserved": 0, "is_disabled": 0, "type": "electric_scooter", "bike_id": "a0b5dd98af88126995c768b4a296b268"}, {"lon": -77.0434135, "lat": 38.89660533333333, "name": "d1974b2fe95bb32cffc74402fdea1910", "fusion_lat": 0.0, "fusion_lon": 0.0, "rental_uris": {"android": "https://dc.lft.to/lastmile_qr_scan", "ios": "https://dc.lft.to/lastmile_qr_scan"}, "is_reserved": 0, "is_disabled": 0, "type": "electric_scooter", "bike_id": "d1974b2fe95bb32cffc74402fdea1910"}, {"lon": -77.042071, "lat": 38.92109466666667, "name": "a0af715b5024782d9d583d32d23f301c", "fusion_lat": 0.0, "fusion_lon": 0.0, "rental_uris": {"android": "https://dc.lft.to/lastmile_qr_scan", "ios": "https://dc.lft.to/lastmile_qr_scan"}, "is_reserved": 0, "is_disabled": 0, "type": "electric_scooter", "bike_id": "a0af715b5024782d9d583d32d23f301c"}, {"lon": -76.985296, "lat": 38.883875333333336, "name": "415cb9f7e764bf7c2dd4f924a09bd40b", "fusion_lat": 0.0, "fusion_lon": 0.0, "rental_uris": {"android": "https://dc.lft.to/lastmile_qr_scan", "ios": "https://dc.lft.to/lastmile_qr_scan"}, "is_reserved": 0, "is_disabled": 0, "type": "electric_scooter", "bike_id": "415cb9f7e764bf7c2dd4f924a09bd40b"}, {"lon": -77.0523685, "lat": 38.92461316666667, "name": "5802e08ba7e4fee1e39e03a146965de2", "fusion_lat": 0.0, "fusion_lon": 0.0, "rental_uris": {"android": "https://dc.lft.to/lastmile_qr_scan", "ios": "https://dc.lft.to/lastmile_qr_scan"}, "is_reserved": 0, "is_disabled": 0, "type": "electric_scooter", "bike_id": "5802e08ba7e4fee1e39e03a146965de2"}, {"lon": -76.999594, "lat": 38.90864116666667, "name": "7683e6e8cadd79330db0326b6c747441", "fusion_lat": 0.0, "fusion_lon": 0.0, "rental_uris": {"android": "https://dc.lft.to/lastmile_qr_scan", "ios": "https://dc.lft.to/lastmile_qr_scan"}, "is_reserved": 0, "is_disabled": 0, "type": "electric_scooter", "bike_id": "7683e6e8cadd79330db0326b6c747441"}, {"lon": -77.03236833333334, "lat": 38.91485633333333, "name": "604c79dd81222b3e574527b1663a1e50", "fusion_lat": 0.0, "fusion_lon": 0.0, "rental_uris": {"android": "https://dc.lft.to/lastmile_qr_scan", "ios": "https://dc.lft.to/lastmile_qr_scan"}, "is_reserved": 0, "is_disabled": 0, "type": "electric_scooter", "bike_id": "604c79dd81222b3e574527b1663a1e50"}, {"lon": -77.03163233333333, "lat": 38.914156166666665, "name": "a55b31d4c4d5cce58aa001039a9ab5bc", "fusion_lat": 0.0, "fusion_lon": 0.0, "rental_uris": {"android": "https://dc.lft.to/lastmile_qr_scan", "ios": "https://dc.lft.to/lastmile_qr_scan"}, "is_reserved": 0, "is_disabled": 0, "type": "electric_scooter", "bike_id": "a55b31d4c4d5cce58aa001039a9ab5bc"}, {"lon": -77.00880883333333, "lat": 38.914038833333336, "name": "c0f549e189c9ebf81b42da729421ea5e", "fusion_lat": 0.0, "fusion_lon": 0.0, "rental_uris": {"android": "https://dc.lft.to/lastmile_qr_scan", "ios": "https://dc.lft.to/lastmile_qr_scan"}, "is_reserved": 0, "is_disabled": 0, "type": "electric_scooter", "bike_id": "c0f549e189c9ebf81b42da729421ea5e"}, {"lon": -77.10336433333333, "lat": 38.85230516666667, "name": "12990b253ee04bcc7fff1b089991a52f", "fusion_lat": 0.0, "fusion_lon": 0.0, "rental_uris": {"android": "https://dc.lft.to/lastmile_qr_scan", "ios": "https://dc.lft.to/lastmile_qr_scan"}, "is_reserved": 0, "is_disabled": 0, "type": "electric_bike", "bike_id": "12990b253ee04bcc7fff1b089991a52f"}, {"lon": -77.02981066666666, "lat": 38.96230166666667, "name": "b69166891b8c48eca98f3e229cf27817", "fusion_lat": 0.0, "fusion_lon": 0.0, "rental_uris": {"android": "https://dc.lft.to/lastmile_qr_scan", "ios": "https://dc.lft.to/lastmile_qr_scan"}, "is_reserved": 0, "is_disabled": 0, "type": "electric_scooter", "bike_id": "b69166891b8c48eca98f3e229cf27817"}, {"lon": -77.032017, "lat": 38.91456516666667, "name": "e8bf56336f3978baa1afb3e329a4c40f", "fusion_lat": 0.0, "fusion_lon": 0.0, "rental_uris": {"android": "https://dc.lft.to/lastmile_qr_scan", "ios": "https://dc.lft.to/lastmile_qr_scan"}, "is_reserved": 0, "is_disabled": 0, "type": "electric_scooter", "bike_id": "e8bf56336f3978baa1afb3e329a4c40f"}, {"lon": -77.02163766666666, "lat": 38.886268333333334, "name": "cd4a9701d7039ee18bfe3de220c350dc", "fusion_lat": 0.0, "fusion_lon": 0.0, "rental_uris": {"android": "https://dc.lft.to/lastmile_qr_scan", "ios": "https://dc.lft.to/lastmile_qr_scan"}, "is_reserved": 0, "is_disabled": 0, "type": "electric_scooter", "bike_id": "cd4a9701d7039ee18bfe3de220c350dc"}, {"lon": -77.00135333333333, "lat": 38.904098, "name": "d0e77134f1dc435814908973c446c86b", "fusion_lat": 0.0, "fusion_lon": 0.0, "rental_uris": {"android": "https://dc.lft.to/lastmile_qr_scan", "ios": "https://dc.lft.to/lastmile_qr_scan"}, "is_reserved": 0, "is_disabled": 0, "type": "electric_scooter", "bike_id": "d0e77134f1dc435814908973c446c86b"}, {"lon": -77.04210666666667, "lat": 38.93341933333333, "name": "35e20d8b3fa0c029b7429421abc44671", "fusion_lat": 0.0, "fusion_lon": 0.0, "rental_uris": {"android": "https://dc.lft.to/lastmile_qr_scan", "ios": "https://dc.lft.to/lastmile_qr_scan"}, "is_reserved": 0, "is_disabled": 0, "type": "electric_bike", "bike_id": "35e20d8b3fa0c029b7429421abc44671"}, {"lon": -77.02097866666666, "lat": 38.934517666666665, "name": "5f6d49f5a950af753cd76fe656c4100e", "fusion_lat": 0.0, "fusion_lon": 0.0, "rental_uris": {"android": "https://dc.lft.to/lastmile_qr_scan", "ios": "https://dc.lft.to/lastmile_qr_scan"}, "is_reserved": 0, "is_disabled": 0, "type": "electric_scooter", "bike_id": "5f6d49f5a950af753cd76fe656c4100e"}, {"lon": -77.03945583333334, "lat": 38.908164166666666, "name": "6c72a8ef7b2c3d6bd2531a0456029c70", "fusion_lat": 0.0, "fusion_lon": 0.0, "rental_uris": {"android": "https://dc.lft.to/lastmile_qr_scan", "ios": "https://dc.lft.to/lastmile_qr_scan"}, "is_reserved": 0, "is_disabled": 0, "type": "electric_scooter", "bike_id": "6c72a8ef7b2c3d6bd2531a0456029c70"}, {"lon": -77.0261865, "lat": 38.89643566666667, "name": "a4226d421008dfd753a8ee02d6575ccf", "fusion_lat": 0.0, "fusion_lon": 0.0, "rental_uris": {"android": "https://dc.lft.to/lastmile_qr_scan", "ios": "https://dc.lft.to/lastmile_qr_scan"}, "is_reserved": 0, "is_disabled": 0, "type": "electric_scooter", "bike_id": "a4226d421008dfd753a8ee02d6575ccf"}, {"lon": -76.9467135, "lat": 38.898665, "name": "5b9eab0448110daff105560e72447fb6", "fusion_lat": 0.0, "fusion_lon": 0.0, "rental_uris": {"android": "https://dc.lft.to/lastmile_qr_scan", "ios": "https://dc.lft.to/lastmile_qr_scan"}, "is_reserved": 0, "is_disabled": 0, "type": "electric_scooter", "bike_id": "5b9eab0448110daff105560e72447fb6"}, {"lon": -77.0330555, "lat": 38.9096475, "name": "daa18f2b64e8e17ef12905aa93b5e2cd", "fusion_lat": 0.0, "fusion_lon": 0.0, "rental_uris": {"android": "https://dc.lft.to/lastmile_qr_scan", "ios": "https://dc.lft.to/lastmile_qr_scan"}, "is_reserved": 0, "is_disabled": 0, "type": "electric_scooter", "bike_id": "daa18f2b64e8e17ef12905aa93b5e2cd"}, {"lon": -77.02493983333333, "lat": 38.918065666666664, "name": "6527c7e184abdfeb891720d58527e8e0", "fusion_lat": 0.0, "fusion_lon": 0.0, "rental_uris": {"android": "https://dc.lft.to/lastmile_qr_scan", "ios": "https://dc.lft.to/lastmile_qr_scan"}, "is_reserved": 0, "is_disabled": 0, "type": "electric_scooter", "bike_id": "6527c7e184abdfeb891720d58527e8e0"}, {"lon": -77.00336716666666, "lat": 38.8935265, "name": "7fb08e09eebc7c35885cdea31e215c5b", "fusion_lat": 0.0, "fusion_lon": 0.0, "rental_uris": {"android": "https://dc.lft.to/lastmile_qr_scan", "ios": "https://dc.lft.to/lastmile_qr_scan"}, "is_reserved": 0, "is_disabled": 0, "type": "electric_scooter", "bike_id": "7fb08e09eebc7c35885cdea31e215c5b"}, {"lon": -76.99703016666666, "lat": 38.90829566666667, "name": "6f1ebbe646b6153452336abfd65221d0", "fusion_lat": 0.0, "fusion_lon": 0.0, "rental_uris": {"android": "https://dc.lft.to/lastmile_qr_scan", "ios": "https://dc.lft.to/lastmile_qr_scan"}, "is_reserved": 0, "is_disabled": 0, "type": "electric_scooter", "bike_id": "6f1ebbe646b6153452336abfd65221d0"}, {"lon": -77.04689866666666, "lat": 38.92132333333333, "name": "7e0475ef63b695189748b674d42e5341", "fusion_lat": 0.0, "fusion_lon": 0.0, "rental_uris": {"android": "https://dc.lft.to/lastmile_qr_scan", "ios": "https://dc.lft.to/lastmile_qr_scan"}, "is_reserved": 0, "is_disabled": 0, "type": "electric_scooter", "bike_id": "7e0475ef63b695189748b674d42e5341"}, {"lon": -77.04740366666667, "lat": 38.9125435, "name": "7ab5ea5eb99fa02cbbb682d0b1b84f18", "fusion_lat": 0.0, "fusion_lon": 0.0, "rental_uris": {"android": "https://dc.lft.to/lastmile_qr_scan", "ios": "https://dc.lft.to/lastmile_qr_scan"}, "is_reserved": 0, "is_disabled": 0, "type": "electric_scooter", "bike_id": "7ab5ea5eb99fa02cbbb682d0b1b84f18"}, {"lon": -76.98745066666666, "lat": 38.85791533333333, "name": "7449575dd9100d57f722e93251a224e9", "fusion_lat": 0.0, "fusion_lon": 0.0, "rental_uris": {"android": "https://dc.lft.to/lastmile_qr_scan", "ios": "https://dc.lft.to/lastmile_qr_scan"}, "is_reserved": 0, "is_disabled": 0, "type": "electric_bike", "bike_id": "7449575dd9100d57f722e93251a224e9"}, {"lon": -77.02960783333333, "lat": 38.892229, "name": "001879945ccc045b23e9fe3213b44198", "fusion_lat": 0.0, "fusion_lon": 0.0, "rental_uris": {"android": "https://dc.lft.to/lastmile_qr_scan", "ios": "https://dc.lft.to/lastmile_qr_scan"}, "is_reserved": 0, "is_disabled": 0, "type": "electric_scooter", "bike_id": "001879945ccc045b23e9fe3213b44198"}, {"lon": -76.98396316666667, "lat": 38.921982166666666, "name": "6990a8907b787f7acd6a0f90aef81aad", "fusion_lat": 0.0, "fusion_lon": 0.0, "rental_uris": {"android": "https://dc.lft.to/lastmile_qr_scan", "ios": "https://dc.lft.to/lastmile_qr_scan"}, "is_reserved": 0, "is_disabled": 0, "type": "electric_bike", "bike_id": "6990a8907b787f7acd6a0f90aef81aad"}, {"lon": -77.03130283333333, "lat": 38.910312166666664, "name": "b685ea5bfd03b45a190957f07a8403a5", "fusion_lat": 0.0, "fusion_lon": 0.0, "rental_uris": {"android": "https://dc.lft.to/lastmile_qr_scan", "ios": "https://dc.lft.to/lastmile_qr_scan"}, "is_reserved": 0, "is_disabled": 0, "type": "electric_scooter", "bike_id": "b685ea5bfd03b45a190957f07a8403a5"},