{"data": {"bikes": [{"fusion_lon": 0.0, "name": "9882b5a1c77d524700e58a51c296ed42", "rental_uris": {"android": "https://dc.lft.to/lastmile_qr_scan", "ios": "https://dc.lft.to/lastmile_qr_scan"}, "lat": 38.87681216666667, "bike_id": "9882b5a1c77d524700e58a51c296ed42", "is_disabled": 0, "lon": -77.01977566666666, "is_reserved": 0, "fusion_lat": 0.0, "type": "electric_scooter"}, {"fusion_lon": 0.0, "name": "33a9c9ee2ac6823832f6c02cba9a0b6e", "rental_uris": {"android": "https://dc.lft.to/lastmile_qr_scan", "ios": "https://dc.lft.to/lastmile_qr_scan"}, "lat": 38.90763966666667, "bike_id": "33a9c9ee2ac6823832f6c02cba9a0b6e", "is_disabled": 0, "lon": -77.024537, "is_reserved": 0, "fusion_lat": 0.0, "type": "electric_scooter"}, {"fusion_lon": 0.0, "name": "ea53f3ca107dddbbd1f1afbd66556903", "rental_uris": {"android": "https://dc.lft.to/lastmile_qr_scan", "ios": "https://dc.lft.to/lastmile_qr_scan"}, "lat": 38.92079066666667, "bike_id": "ea53f3ca107dddbbd1f1afbd66556903", "is_disabled": 0, "lon": -77.04379316666666, "is_reserved": 0, "fusion_lat": 0.0, "type": "electric_scooter"}, {"fusion_lon": 0.0, "name": "6c67421a262ebe43c1a555001c65bfc3", "rental_uris": {"android": "https://dc.lft.to/lastmile_qr_scan", "ios": "https://dc.lft.to/lastmile_qr_scan"}, "lat": 38.89396433333334, "bike_id": "6c67421a262ebe43c1a555001c65bfc3", "is_disabled": 0, "lon": -76.86843566666667, "is_reserved": 0, "fusion_lat": 0.0, "type": "electric_bike"}, {"fusion_lon": 0.0, "name": "03a87f0c467d01d0b5eead4eea71abc3", "rental_uris": {"android": "https://dc.lft.to/lastmile_qr_scan", "ios": "https://dc.lft.to/lastmile_qr_scan"}, "lat": 38.92797616666667, "bike_id": "03a87f0c467d01d0b5eead4eea71abc3", "is_disabled": 0, "lon": -77.05525233333333, "is_reserved": 0, "fusion_lat": 0.0, "type": "electric_scooter"}, {"fusion_lon": 0.0, "name": "fbad1c698f11d8dd98d43707fb70375d", "rental_uris": {"android": "https://dc.lft.to/lastmile_qr_scan", "ios": "https://dc.lft.to/lastmile_qr_scan"}, "lat": 38.90379433333333, "bike_id": "fbad1c698f11d8dd98d43707fb70375d", "is_disabled": 0, "lon": -77.03310933333333, "is_reserved": 0, "fusion_lat": 0.0, "type": "electric_scooter"}, {"fusion_lon": 0.0, "name": "91a8e6b74e2c9e3ba8d0a27ababf6ff4", "rental_uris": {"android": "https://dc.lft.to/lastmile_qr_scan", "ios": "https://dc.lft.to/lastmile_qr_scan"}, "lat": 38.9350915, "bike_id": "91a8e6b74e2c9e3ba8d0a27ababf6ff4", "is_disabled": 0, "lon": -77.03713966666666, "is_reserved": 0, "fusion_lat": 0.0, "type": "electric_scooter"}, {"fusion_lon": 0.0, "name": "aca11189b96b5b588380048ab4f8964b", "rental_uris": {"android": "https://dc.lft.to/lastmile_qr_scan", "ios": "https://dc.lft.to/lastmile_qr_scan"}, "lat": 38.903929833333336, "bike_id": "aca11189b96b5b588380048ab4f8964b", "is_disabled": 0, "lon": -76.981082, "is_reserved": 0, "fusion_lat": 0.0, "type": "electric_scooter"}, {"fusion_lon": 0.0, "name": "b1d0746794f1c6e74c71bcd10e84b9bd", "rental_uris": {"android": "https://dc.lft.to/lastmile_qr_scan", "ios": "https://dc.lft.to/lastmile_qr_scan"}, "lat": 38.871814, "bike_id": "b1d0746794f1c6e74c71bcd10e84b9bd", "is_disabled": 0, "lon": -77.0064245, "is_reserved": 0, "fusion_lat": 0.0, "type": "electric_scooter"}, {"fusion_lon": 0.0, "name": "affe3ee63832dd8d18347c8d6718a13b", "rental_uris": {"android": "https://dc.lft.to/lastmile_qr_scan", "ios": "https://dc.lft.to/lastmile_qr_scan"}, "lat": 38.92449966666667, "bike_id": "affe3ee63832dd8d18347c8d6718a13b", "is_disabled": 0, "lon": -77.03964366666666, "is_reserved": 0, "fusion_lat": 0.0, "type": "electric_scooter"}, {"fusion_lon": 0.0, "name": "5c59100e5dd0d566547eb6b0818f162a", "rental_uris": {"android": "https://dc.lft.to/lastmile_qr_scan", "ios": "https://dc.lft.to/lastmile_qr_scan"}, "lat": 38.920584166666664, "bike_id": "5c59100e5dd0d566547eb6b0818f162a", "is_disabled": 0, "lon": -77.02310083333333, "is_reserved": 0, "fusion_lat": 0.0, "type": "electric_scooter"}, {"fusion_lon": 0.0, "name": "6f78ee5049b16f59bd9158f21916c714", "rental_uris": {"android": "https://dc.lft.to/lastmile_qr_scan", "ios": "https://dc.lft.to/lastmile_qr_scan"}, "lat": 38.9242445, "bike_id": "6f78ee5049b16f59bd9158f21916c714", "is_disabled": 0, "lon": -77.019498, "is_reserved": 0, "fusion_lat": 0.0, "type": "electric_scooter"}, {"fusion_lon": 0.0, "name": "29bbff29d134647e2bf2fddd1c30329e", "rental_uris": {"android": "https://dc.lft.to/lastmile_qr_scan", "ios": "https://dc.lft.to/lastmile_qr_scan"}, "lat": 38.921201333333336, "bike_id": "29bbff29d134647e2bf2fddd1c30329e", "is_disabled": 0, "lon": -77.02091266666666, "is_reserved": 0, "fusion_lat": 0.0, "type": "electric_scooter"}, {"fusion_lon": 0.0, "name": "94cd80c2c6c0f093672d4b3911707efb", "rental_uris": {"android": "https://dc.lft.to/lastmile_qr_scan", "ios": "https://dc.lft.to/lastmile_qr_scan"}, "lat": 38.88437866666666, "bike_id": "94cd80c2c6c0f093672d4b3911707efb", "is_disabled": 0, "lon": -76.95765866666666, "is_reserved": 0, "fusion_lat": 0.0, "type": "electric_scooter"}, {"fusion_lon": 0.0, "name": "cb5c957f92db111f314d7cc86d954d34", "rental_uris": {"android": "https://dc.lft.to/lastmile_qr_scan", "ios": "https://dc.lft.to/lastmile_qr_scan"}, "lat": 38.924121166666666, "bike_id": "cb5c957f92db111f314d7cc86d954d34", "is_disabled": 0, "lon": -77.02129583333334, "is_reserved": 0, "fusion_lat": 0.0, "type": "electric_scooter"}, {"fusion_lon": 0.0, "name": "557d5b8bdf32484d03ef3a8807467798", "rental_uris": {"android": "https://dc.lft.to/lastmile_qr_scan", "ios": "https://dc.lft.to/lastmile_qr_scan"}, "lat": 38.884318, "bike_id": "557d5b8bdf32484d03ef3a8807467798", "is_disabled": 0, "lon": -76.99727916666667, "is_reserved": 0, "fusion_lat": 0.0, "type": "electric_scooter"}, {"fusion_lon": 0.0, "name": "bfd6b8e0ce29b29c80554a392826f003", "rental_uris": {"android": "https://dc.lft.to/lastmile_qr_scan", "ios": "https://dc.lft.to/lastmile_qr_scan"}, "lat": 38.9030455, "bike_id": "bfd6b8e0ce29b29c80554a392826f003", "is_disabled": 0, "lon": -76.97506216666666, "is_reserved": 0, "fusion_lat": 0.0, "type": "electric_scooter"}, {"fusion_lon": 0.0, "name": "711dd26bc374bd2de56a610f2c3240b4", "rental_uris": {"android": "https://dc.lft.to/lastmile_qr_scan", "ios": "https://dc.lft.to/lastmile_qr_scan"}, "lat": 38.90724316666667, "bike_id": "711dd26bc374bd2de56a610f2c3240b4", "is_disabled": 0, "lon": -77.05026266666667, "is_reserved": 0, "fusion_lat": 0.0, "type": "electric_scooter"}, {"fusion_lon": 0.0, "name": "daecf79b95a7a357d81b42f1a9abc59c", "rental_uris": {"android": "https://dc.lft.to/lastmile_qr_scan", "ios": "https://dc.lft.to/lastmile_qr_scan"}, "lat": 38.91261933333333, "bike_id": "daecf79b95a7a357d81b42f1a9abc59c", "is_disabled": 0, "lon": -77.03126516666667, "is_reserved": 0, "fusion_lat": 0.0, "type": "electric_scooter"}, {"fusion_lon": 0.0, "name": "96e48a2997c65f0bdc54c86aaade1649", "rental_uris": {"android": "https://dc.lft.to/lastmile_qr_scan", "ios": "https://dc.lft.to/lastmile_qr_scan"}, "lat": 38.9230105, "bike_id": "96e48a2997c65f0bdc54c86aaade1649", "is_disabled": 0, "lon": -77.023461, "is_reserved": 0, "fusion_lat": 0.0, "type": "electric_bike"}, {"fusion_lon": 0.0, "name": "eedc9785ca7330f9791b255698764c78", "rental_uris": {"android": "https://dc.lft.to/lastmile_qr_scan", "ios": "https://dc.lft.to/lastmile_qr_scan"}, "lat": 38.865231, "bike_id": "eedc9785ca7330f9791b255698764c78", "is_disabled": 0, "lon": -76.96903066666667, "is_reserved": 0, "fusion_lat": 0.0, "type": "electric_scooter"}, {"fusion_lon": 0.0, "name": "587002460c041bf40d82a912e50d6c91", "rental_uris": {"android": "https://dc.lft.to/lastmile_qr_scan", "ios": "https://dc.lft.to/lastmile_qr_scan"}, "lat": 38.922397, "bike_id": "587002460c041bf40d82a912e50d6c91", "is_disabled": 0, "lon": -77.03170816666666, "is_reserved": 0, "fusion_lat": 0.0, "type": "electric_scooter"}, {"fusion_lon": 0.0, "name": "8e21c70fcff3342e892be63e9ab0ad5e", "rental_uris": {"android": "https://dc.lft.to/lastmile_qr_scan", "ios": "https://dc.lft.to/lastmile_qr_scan"}, "lat": 38.932808666666666, "bike_id": "8e21c70fcff3342e892be63e9ab0ad5e", "is_disabled": 0, "lon": -77.0354075, "is_reserved": 0, "fusion_lat": 0.0, "type": "electric_scooter"}, {"fusion_lon": 0.0, "name": "ebe4f78e884620df2c39a787ae260095", "rental_uris": {"android": "https://dc.lft.to/lastmile_qr_scan", "ios": "https://dc.lft.to/lastmile_qr_scan"}, "lat": 38.89832533333333, "bike_id": "ebe4f78e884620df2c39a787ae260095", "is_disabled": 0, "lon": -77.02381233333334, "is_reserved": 0, "fusion_lat": 0.0, "type": "electric_scooter"}, {"fusion_lon": 0.0, "name": "2feca13049bb9cc9fbda5fdc5148a4ab", "rental_uris": {"android": "https://dc.lft.to/lastmile_qr_scan", "ios": "https://dc.lft.to/lastmile_qr_scan"}, "lat": 38.95087566666667, "bike_id": "2feca13049bb9cc9fbda5fdc5148a4ab", "is_disabled": 0, "lon": -77.01230316666667, "is_reserved": 0, "fusion_lat": 0.0, "type": "electric_bike"}, {"fusion_lon": 0.0, "name": "bb5836ab7d2b0407930467fe4d7560d6", "rental_uris": {"android": "https://dc.lft.to/lastmile_qr_scan", "ios": "https://dc.lft.to/lastmile_qr_scan"}, "lat": 38.9158085, "bike_id": "bb5836ab7d2b0407930467fe4d7560d6", "is_disabled": 0, "lon": -77.03649283333333, "is_reserved": 0, "fusion_lat": 0.0, "type": "electric_scooter"}, {"fusion_lon": 0.0, "name": "cf775e0500f75e7cf81a622d850bce3a", "rental_uris": {"android": "https://dc.lft.to/lastmile_qr_scan", "ios": "https://dc.lft.to/lastmile_qr_scan"}, "lat": 38.95182833333333, "bike_id": "cf775e0500f75e7cf81a622d850bce3a", "is_disabled": 0, "lon": -77.012656, "is_reserved": 0, "fusion_lat": 0.0, "type": "electric_scooter"}, {"fusion_lon": 0.0, "name": "0fe056671f2ea19f6ef6961cb4efe60b", "rental_uris": {"android": "https://dc.lft.to/lastmile_qr_scan", "ios": "https://dc.lft.to/lastmile_qr_scan"}, "lat": 38.91362566666667, "bike_id": "0fe056671f2ea19f6ef6961cb4efe60b", "is_disabled": 0, "lon": -77.0918905, "is_reserved": 0, "fusion_lat": 0.0, "type": "electric_scooter"}, {"fusion_lon": 0.0, "name": "8cc6d14e35fad03d1e2681c73f7d3512", "rental_uris": {"android": "https://dc.lft.to/lastmile_qr_scan", "ios": "https://dc.lft.to/lastmile_qr_scan"}, "lat": 38.9223015, "bike_id": "8cc6d14e35fad03d1e2681c73f7d3512", "is_disabled": 0, "lon": -77.042435, "is_reserved": 0, "fusion_lat": 0.0, "type": "electric_scooter"}, {"fusion_lon": 0.0, "name": "5d7123adeb043cd651beccae26543ff8", "rental_uris": {"android": "https://dc.lft.to/lastmile_qr_scan", "ios": "https://dc.lft.to/lastmile_qr_scan"}, "lat": 38.920890166666666, "bike_id": "5d7123adeb043cd651beccae26543ff8", "is_disabled": 0, "lon": -77.024281, "is_reserved": 0, "fusion_lat": 0.0, "type": "electric_scooter"}, {"fusion_lon": 0.0, "name": "5c75612b483b95b5a4980fd97fe7d874", "rental_uris": {"android": "https://dc.lft.to/lastmile_qr_scan", "ios": "https://dc.lft.to/lastmile_qr_scan"}, "lat": 38.90319983333333, "bike_id": "5c75612b483b95b5a4980fd97fe7d874", "is_disabled": 0, "lon": -76.98149433333333, "is_reserved": 0, "fusion_lat": 0.0, "type": "electric_scooter"}, {"fusion_lon": 0.0, "name": "f413d5c6ef86031fb3b87973ded8ec22", "rental_uris": {"android": "https://dc.lft.to/lastmile_qr_scan", "ios": "https://dc.lft.to/lastmile_qr_scan"}, "lat": 38.8962155, "bike_id": "f413d5c6ef86031fb3b87973ded8ec22", "is_disabled": 0, "lon": -76.90747283333333, "is_reserved": 0, "fusion_lat": 0.0, "type": "electric_bike"}, {"fusion_lon": 0.0, "name": "797c3a6d0c1772786fed33e956b96351", "rental_uris": {"android": "https://dc.lft.to/lastmile_qr_scan", "ios": "https://dc.lft.to/lastmile_qr_scan"}, "lat": 38.920253833333334, "bike_id": "797c3a6d0c1772786fed33e956b96351", "is_disabled": 0, "lon": -77.011113, "is_reserved": 0, "fusion_lat": 0.0, "type": "electric_scooter"}, {"fusion_lon": 0.0, "name": "cfcabfed6284e8717a7a0636785a9d0d", "rental_uris": {"android": "https://dc.lft.to/lastmile_qr_scan", "ios": "https://dc.lft.to/lastmile_qr_scan"}, "lat": 38.8860345, "bike_id": "cfcabfed6284e8717a7a0636785a9d0d", "is_disabled": 0, "lon": -77.045105, "is_reserved": 0, "fusion_lat": 0.0, "type": "electric_scooter"}, {"fusion_lon": 0.0, "name": "e0044f02b16d8692be5883b1af9ba000", "rental_uris": {"android": "https://dc.lft.to/lastmile_qr_scan", "ios": "https://dc.lft.to/lastmile_qr_scan"}, "lat": 38.9211485, "bike_id": "e0044f02b16d8692be5883b1af9ba000", "is_disabled": 0, "lon": -76.98570683333334, "is_reserved": 0, "fusion_lat": 0.0, "type": "electric_scooter"}, {"fusion_lon": 0.0, "name": "a5ec0d37d5be4c52c2fbca3a815c73c2", "rental_uris": {"android": "https://dc.lft.to/lastmile_qr_scan", "ios": "https://dc.lft.to/lastmile_qr_scan"}, "lat": 38.907858, "bike_id": "a5ec0d37d5be4c52c2fbca3a815c73c2", "is_disabled": 0, "lon": -77.00964933333333, "is_reserved": 0, "fusion_lat": 0.0, "type": "electric_scooter"}, {"fusion_lon": 0.0, "name": "d1a23f20641cec3b0072ead0709f0b8e", "rental_uris": {"android": "https://dc.lft.to/lastmile_qr_scan", "ios": "https://dc.lft.to/lastmile_qr_scan"}, "lat": 38.91494683333333, "bike_id": "d1a23f20641cec3b0072ead0709f0b8e", "is_disabled": 0, "lon": -77.03202666666667, "is_reserved": 0, "fusion_lat": 0.0, "type": "electric_scooter"}, {"fusion_lon": 0.0, "name": "a852f2e22994ca17f26f501d045faf19", "rental_uris": {"android": "https://dc.lft.to/lastmile_qr_scan", "ios": "https://dc.lft.to/lastmile_qr_scan"}, "lat": 38.917096, "bike_id": "a852f2e22994ca17f26f501d045faf19", "is_disabled": 0, "lon": -77.041527, "is_reserved": 0, "fusion_lat": 0.0, "type": "electric_scooter"}, {"fusion_lon": 0.0, "name": "8b059d17f776dad5caad9e7ff26bb971", "rental_uris": {"android": "https://dc.lft.to/lastmile_qr_scan", "ios": "https://dc.lft.to/lastmile_qr_scan"}, "lat": 38.900809333333335, "bike_id": "8b059d17f776dad5caad9e7ff26bb971", "is_disabled": 0, "lon": -77.044667, "is_reserved": 0, "fusion_lat": 0.0, "type": "electric_scooter"}, {"fusion_lon": 0.0, "name": "4ce5f4797616351c5678f4438182dce1", "rental_uris": {"android": "https://dc.lft.to/lastmile_qr_scan", "ios": "https://dc.lft.to/lastmile_qr_scan"}, "lat": 38.908676, "bike_id": "4ce5f4797616351c5678f4438182dce1", "is_disabled": 0, "lon": -77.0859065, "is_reserved": 0, "fusion_lat": 0.0, "type": "electric_scooter"}, {"fusion_lon": 0.0, "name": "db512054f19b41096f40ff2a7d1fb669", "rental_uris": {"android": "https://dc.lft.to/lastmile_qr_scan", "ios": "https://dc.lft.to/lastmile_qr_scan"}, "lat": 38.924672, "bike_id": "db512054f19b41096f40ff2a7d1fb669", "is_disabled": 0, "lon": -77.022623, "is_reserved": 0, "fusion_lat": 0.0, "type": "electric_scooter"}, {"fusion_lon": 0.0, "name": "6f3b449da381ed64359389883c42549d", "rental_uris": {"android": "https://dc.lft.to/lastmile_qr_scan", "ios": "https://dc.lft.to/lastmile_qr_scan"}, "lat": 38.87766283333333, "bike_id": "6f3b449da381ed64359389883c42549d", "is_disabled": 0, "lon": -76.9951465, "is_reserved": 0, "fusion_lat": 0.0, "type": "electric_scooter"}, {"fusion_lon": 0.0, "name": "8ccebad04ad16880da363a5ff531a655", "rental_uris": {"android": "https://dc.lft.to/lastmile_qr_scan", "ios": "https://dc.lft.to/lastmile_qr_scan"}, "lat": 38.91123266666666, "bike_id": "8ccebad04ad16880da363a5ff531a655", "is_disabled": 0, "lon": -77.02183583333333, "is_reserved": 0, "fusion_lat": 0.0, "type": "electric_scooter"}, {"fusion_lon": 0.0, "name": "da449665aaf5161cf6fa594a70a28f93", "rental_uris": {"android": "https://dc.lft.to/lastmile_qr_scan", "ios": "https://dc.lft.to/lastmile_qr_scan"}, "lat": 38.919501, "bike_id": "da449665aaf5161cf6fa594a70a28f93", "is_disabled": 0, "lon": -77.0269715, "is_reserved": 0, "fusion_lat": 0.0, "type": "electric_scooter"}, {"fusion_lon": 0.0, "name": "a5601b217febe893ba95e9ecbdea0cf9", "rental_uris": {"android": "https://dc.lft.to/lastmile_qr_scan", "ios": "https://dc.lft.to/lastmile_qr_scan"}, "lat": 38.915824666666666, "bike_id": "a5601b217febe893ba95e9ecbdea0cf9", "is_disabled": 0, "lon": -77.04497616666667, "is_reserved": 0, "fusion_lat": 0.0, "type": "electric_scooter"}, {"fusion_lon": 0.0, "name": "21fd591d458daff343842e49a10e30fa", "rental_uris": {"android": "https://dc.lft.to/lastmile_qr_scan", "ios": "https://dc.lft.to/lastmile_qr_scan"}, "lat": 38.90526116666667, "bike_id": "21fd591d458daff343842e49a10e30fa", "is_disabled": 0, "lon": -77.06097033333333, "is_reserved": 0, "fusion_lat": 0.0, "type": "electric_scooter"}, {"fusion_lon": 0.0, "name": "39db30d4cc66ee32e34db12f7d0d4432", "rental_uris": {"android": "https://dc.lft.to/lastmile_qr_scan", "ios": "https://dc.lft.to/lastmile_qr_scan"}, "lat": 38.90822516666667, "bike_id": "39db30d4cc66ee32e34db12f7d0d4432", "is_disabled": 0, "lon": -77.04273866666666, "is_reserved": 0, "fusion_lat": 0.0, "type": "electric_scooter"}, {"fusion_lon": 0.0, "name": "4e19a4a69ea6b41ff7f90dac3ea1308b", "rental_uris": {"android": "https://dc.lft.to/lastmile_qr_scan", "ios": "https://dc.lft.to/lastmile_qr_scan"}, "lat": 38.89046483333333, "bike_id": "4e19a4a69ea6b41ff7f90dac3ea1308b", "is_disabled": 0, "lon": -76.93746116666667, "is_reserved": 0, "fusion_lat": 0.0, "type": "electric_scooter"}, {"fusion_lon": 0.0, "name": "c20ebab1678df10817802ef2d9eeeb4d", "rental_uris": {"android": "https://dc.lft.to/lastmile_qr_scan", "ios": "https://dc.lft.to/lastmile_qr_scan"}, "lat": 38.926744, "bike_id": "c20ebab1678df10817802ef2d9eeeb4d", "is_disabled": 0, "lon": -77.02584866666666, "is_reserved": 0, "fusion_lat": 0.0, "type": "electric_scooter"}, {"fusion_lon": 0.0, "name": "e71876e7275ea5290404e7274f7d2105", "rental_uris": {"android": "https://dc.lft.to/lastmile_qr_scan", "ios": "https://dc.lft.to/lastmile_qr_scan"}, "lat": 38.91006933333333, "bike_id": "e71876e7275ea5290404e7274f7d2105", "is_disabled": 0, "lon": -76.9939915, "is_reserved": 0, "fusion_lat": 0.0, "type": "electric_scooter"}, {"fusion_lon": 0.0, "name": "187bb2ebb8f7476dd2d5a3f456782742", "rental_uris": {"android": "https://dc.lft.to/lastmile_qr_scan", "ios": "https://dc.lft.to/lastmile_qr_scan"}, "lat": 38.9135925, "bike_id": "187bb2ebb8f7476dd2d5a3f456782742", "is_disabled": 0, "lon": -77.01991983333333, "is_reserved": 0, "fusion_lat": 0.0, "type": "electric_scooter"}, {"fusion_lon": 0.0, "name": "486ebf45ec2e32c05e6b64268bd408e7", "rental_uris": {"android": "https://dc.lft.to/lastmile_qr_scan", "ios": "https://dc.lft.to/lastmile_qr_scan"}, "lat": 38.9000605, "bike_id": "486ebf45ec2e32c05e6b64268bd408e7", "is_disabled": 0, "lon": -77.04384133333333, "is_reserved": 0, "fusion_lat": 0.0, "type": "electric_scooter"}, {"fusion_lon": 0.0, "name": "f31c17540aa51d34f89b6762e4498cca", "rental_uris": {"android": "https://dc.lft.to/lastmile_qr_scan", "ios": "https://dc.lft.to/lastmile_qr_scan"}, "lat": 38.91286383333333, "bike_id": "f31c17540aa51d34f89b6762e4498cca", "is_disabled": 0, "lon": -77.03218466666667, "is_reserved": 0, "fusion_lat": 0.0, "type": "electric_scooter"}, {"fusion_lon": 0.0, "name": "5b5e64aa468a4021b9961ac1ad608769", "rental_uris": {"android": "https://dc.lft.to/lastmile_qr_scan", "ios": "https://dc.lft.to/lastmile_qr_scan"}, "lat": 38.909654, "bike_id": "5b5e64aa468a4021b9961ac1ad608769", "is_disabled": 0, "lon": -77.03276, "is_reserved": 0, "fusion_lat": 0.0, "type": "electric_scooter"}, {"fusion_lon": 0.0, "name": "a76dec35d522272a9acf57e000117344", "rental_uris": {"android": "https://dc.lft.to/lastmile_qr_scan", "ios": "https://dc.lft.to/lastmile_qr_scan"}, "lat": 38.924459666666664, "bike_id": "a76dec35d522272a9acf57e000117344", "is_disabled": 0, "lon": -77.04015716666666, "is_reserved": 0, "fusion_lat": 0.0, "type": "electric_scooter"}, {"fusion_lon": 0.0, "name": "04d12db65f8b044f6f080caa73a13964", "rental_uris": {"android": "https://dc.lft.to/lastmile_qr_scan", "ios": "https://dc.lft.to/lastmile_qr_scan"}, "lat": 38.921733333333336, "bike_id": "04d12db65f8b044f6f080caa73a13964", "is_disabled": 0, "lon": -77.0422545, "is_reserved": 0, "fusion_lat": 0.0, "type": "electric_scooter"}, {"fusion_lon": 0.0, "name": "0d08a378956d3a9c2b449f1f3a28ffee", "rental_uris": {"android": "https://dc.lft.to/lastmile_qr_scan", "ios": "https://dc.lft.to/lastmile_qr_scan"}, "lat": 38.96913816666667, "bike_id": "0d08a378956d3a9c2b449f1f3a28ffee", "is_disabled": 0, "lon": -76.99491366666666, "is_reserved": 0, "fusion_lat": 0.0, "type": "electric_bike"}, {"fusion_lon": 0.0, "name": "9f4babbb8180794180a1c54400f88391", "rental_uris": {"android": "https://dc.lft.to/lastmile_qr_scan", "ios": "https://dc.lft.to/lastmile_qr_scan"}, "lat": 38.924619166666666, "bike_id": "9f4babbb8180794180a1c54400f88391", "is_disabled": 0, "lon": -77.02208216666666, "is_reserved": 0, "fusion_lat": 0.0, "type": "electric_scooter"}, {"fusion_lon": 0.0, "name": "8f9a366d1e7ce970852a3a1cf909ca82", "rental_uris": {"android": "https://dc.lft.to/lastmile_qr_scan", "ios": "https://dc.lft.to/lastmile_qr_scan"}, "lat": 38.87183816666667, "bike_id": "8f9a366d1e7ce970852a3a1cf909ca82", "is_disabled": 0, "lon": -77.0064515, "is_reserved": 0, "fusion_lat": 0.0, "type": "electric_scooter"}, {"fusion_lon": 0.0, "name": "c489c282b2ac898541a126e82fb7d250", "rental_uris": {"android": "https://dc.lft.to/lastmile_qr_scan", "ios": "https://dc.lft.to/lastmile_qr_scan"}, "lat": 38.91019583333333, "bike_id": "c489c282b2ac898541a126e82fb7d250", "is_disabled": 0, "lon": -77.04449383333333, "is_reserved": 0, "fusion_lat": 0.0, "type": "electric_scooter"}, {"fusion_lon": 0.0, "name": "0c950d0607ea9bf98330ac691226308a", "rental_uris": {"android": "https://dc.lft.to/lastmile_qr_scan", "ios": "https://dc.lft.to/lastmile_qr_scan"}, "lat": 38.90596716666667, "bike_id": "0c950d0607ea9bf98330ac691226308a", "is_disabled": 0, "lon": -77.04351216666667, "is_reserved": 0, "fusion_lat": 0.0, "type": "electric_scooter"}, {"fusion_lon": 0.0, "name": "305288f28c5c1d2e7ccfa637eb7885af", "rental_uris": {"android": "https://dc.lft.to/lastmile_qr_scan", "ios": "https://dc.lft.to/lastmile_qr_scan"}, "lat": 38.926189, "bike_id": "305288f28c5c1d2e7ccfa637eb7885af", "is_disabled": 0, "lon": -77.02232366666667, "is_reserved": 0, "fusion_lat": 0.0, "type": "electric_scooter"}, {"fusion_lon": 0.0, "name": "55c8bd4f6673b84fc0930a220768087c", "rental_uris": {"android": "https://dc.lft.to/lastmile_qr_scan", "ios": "https://dc.lft.to/lastmile_qr_scan"}, "lat": 38.88813283333333, "bike_id": "55c8bd4f6673b84fc0930a220768087c", "is_disabled": 0, "lon": -76.93969, "is_reserved": 0, "fusion_lat": 0.0, "type": "electric_scooter"}, {"fusion_lon": 0.0, "name": "40f20e25685de1ba994e8e98d35768e8", "rental_uris": {"android": "https://dc.lft.to/lastmile_qr_scan", "ios": "https://dc.lft.to/lastmile_qr_scan"}, "lat": 38.900443, "bike_id": "40f20e25685de1ba994e8e98d35768e8", "is_disabled": 0, "lon": -77.02945533333333, "is_reserved": 0, "fusion_lat": 0.0, "type": "electric_scooter"}, {"fusion_lon": 0.0, "name": "e7aa8a3b9c9452bb3881dcabdde61219", "rental_uris": {"android": "https://dc.lft.to/lastmile_qr_scan", "ios": "https://dc.lft.to/lastmile_qr_scan"}, "lat": 38.934733333333334, "bike_id": "e7aa8a3b9c9452bb3881dcabdde61219", "is_disabled": 0, "lon": -77.086642, "is_reserved": 0, "fusion_lat": 0.0, "type": "electric_scooter"}, {"fusion_lon": 0.0, "name": "55f6b8cd99516e6811fe8648d74fa2c1", "rental_uris": {"android": "https://dc.lft.to/lastmile_qr_scan", "ios": "https://dc.lft.to/lastmile_qr_scan"}, "lat": 38.8358225, "bike_id": "55f6b8cd99516e6811fe8648d74fa2c1", "is_disabled": 0, "lon": -76.99019966666667, "is_reserved": 0, "fusion_lat": 0.0, "type": "electric_bike"}, {"fusion_lon": 0.0, "name": "07930b7ba58ba8b6ae1cf9e799bac423", "rental_uris": {"android": "https://dc.lft.to/lastmile_qr_scan", "ios": "https://dc.lft.to/lastmile_qr_scan"}, "lat": 38.882877, "bike_id": "07930b7ba58ba8b6ae1cf9e799bac423", "is_disabled": 0, "lon": -76.93429216666667, "is_reserved": 0, "fusion_lat": 0.0, "type": "electric_scooter"}, {"fusion_lon": 0.0, "name": "a03e68b0ad87d661823944e5c16f9440", "rental_uris": {"android": "https://dc.lft.to/lastmile_qr_scan", "ios": "https://dc.lft.to/lastmile_qr_scan"}, "lat": 38.863817, "bike_id": "a03e68b0ad87d661823944e5c16f9440", "is_disabled": 0, "lon": -76.98815983333333, "is_reserved": 0, "fusion_lat": 0.0, "type": "electric_scooter"}, {"fusion_lon": 0.0, "name": "0b22b5bf40ae9b2e1ce38665f36e8907", "rental_uris": {"android": "https://dc.lft.to/lastmile_qr_scan", "ios": "https://dc.lft.to/lastmile_qr_scan"}, "lat": 38.906163, "bike_id": "0b22b5bf40ae9b2e1ce38665f36e8907", "is_disabled": 0, "lon": -77.04132216666666, "is_reserved": 0, "fusion_lat": 0.0, "type": "electric_scooter"}, {"fusion_lon": 0.0, "name": "54c83abf0a2cf02f47b78fdc08283078", "rental_uris": {"android": "https://dc.lft.to/lastmile_qr_scan", "ios": "https://dc.lft.to/lastmile_qr_scan"}, "lat": 38.86353233333333, "bike_id": "54c83abf0a2cf02f47b78fdc08283078", "is_disabled": 0, "lon": -76.9868645, "is_reserved": 0, "fusion_lat": 0.0, "type": "electric_scooter"}, {"fusion_lon": 0.0, "name": "7b8732f04e251d465791f2d21b8fea8e", "rental_uris": {"android": "https://dc.lft.to/lastmile_qr_scan", "ios": "https://dc.lft.to/lastmile_qr_scan"}, "lat": 38.898289166666665, "bike_id": "7b8732f04e251d465791f2d21b8fea8e", "is_disabled": 0, "lon": -76.9300605, "is_reserved": 0, "fusion_lat": 0.0, "type": "electric_scooter"}, {"fusion_lon": 0.0, "name": "4f1e4f313056c6947eaf2158d9373c61", "rental_uris": {"android": "https://dc.lft.to/lastmile_qr_scan", "ios": "https://dc.lft.to/lastmile_qr_scan"}, "lat": 38.899811666666665, "bike_id": "4f1e4f313056c6947eaf2158d9373c61", "is_disabled": 0, "lon": -77.01599433333334, "is_reserved": 0, "fusion_lat": 0.0, "type": "electric_scooter"}, {"fusion_lon": 0.0, "name": "044ab0a87713b09c852850a6b9489d9d", "rental_uris": {"android": "https://dc.lft.to/lastmile_qr_scan", "ios": "https://dc.lft.to/lastmile_qr_scan"}, "lat": 38.8793375, "bike_id": "044ab0a87713b09c852850a6b9489d9d", "is_disabled": 0, "lon": -77.017183, "is_reserved": 0, "fusion_lat": 0.0, "type": "electric_scooter"}, {"fusion_lon": 0.0, "name": "fed8d2d590e3177129b5fca5f6a29444", "rental_uris": {"android": "https://dc.lft.to/lastmile_qr_scan", "ios": "https://dc.lft.to/lastmile_qr_scan"}, "lat": 38.9013375, "bike_id": "fed8d2d590e3177129b5fca5f6a29444", "is_disabled": 0, "lon": -77.04544733333333, "is_reserved": 0, "fusion_lat": 0.0, "type": "electric_scooter"}, {"fusion_lon": 0.0, "name": "ce78c9c099e3251d173ede702efbb49c", "rental_uris": {"android": "https://dc.lft.to/lastmile_qr_scan", "ios": "https://dc.lft.to/lastmile_qr_scan"}, "lat": 38.89713883333334, "bike_id": "ce78c9c099e3251d173ede702efbb49c", "is_disabled": 0, "lon": -77.00678316666666, "is_reserved": 0, "fusion_lat": 0.0, "type": "electric_scooter"}, {"fusion_lon": 0.0, "name": "38507fae2f459a97a19386eab62ac987", "rental_uris": {"android": "https://dc.lft.to/lastmile_qr_scan", "ios": "https://dc.lft.to/lastmile_qr_scan"}, "lat": 38.92129116666667, "bike_id": "38507fae2f459a97a19386eab62ac987", "is_disabled": 0, "lon": -77.028603, "is_reserved": 0, "fusion_lat": 0.0, "type": "electric_bike"}, {"fusion_lon": 0.0, "name": "0e68b847730bc0aff7ad692b5d70b49a", "rental_uris": {"android": "https://dc.lft.to/lastmile_qr_scan", "ios": "https://dc.lft.to/lastmile_qr_scan"}, "lat": 38.900191666666665, "bike_id": "0e68b847730bc0aff7ad692b5d70b49a", "is_disabled": 0, "lon": -77.03938083333334, "is_reserved": 0, "fusion_lat": 0.0, "type": "electric_scooter"}, {"fusion_lon": 0.0, "name": "5ccdd2af10ddf9988e19c55268b54ec1", "rental_uris": {"android": "https://dc.lft.to/lastmile_qr_scan", "ios": "https://dc.lft.to/lastmile_qr_scan"}, "lat": 38.87477833333333, "bike_id": "5ccdd2af10ddf9988e19c55268b54ec1", "is_disabled": 0, "lon": -77.0078885, "is_reserved": 0, "fusion_lat": 0.0, "type": "electric_bike"}, {"fusion_lon": 0.0, "name": "eca744d3f73c1b44a92f7a5f2bb4be00", "rental_uris": {"android": "https://dc.lft.to/lastmile_qr_scan", "ios": "https://dc.lft.to/lastmile_qr_scan"}, "lat": 38.89690916666667, "bike_id": "eca744d3f73c1b44a92f7a5f2bb4be00", "is_disabled": 0, "lon": -77.031815, "is_reserved": 0, "fusion_lat": 0.0, "type": "electric_scooter"}, {"fusion_lon": 0.0, "name": "aa8682356d41fe2e8189a54c9d92fc5e", "rental_uris": {"android": "https://dc.lft.to/lastmile_qr_scan", "ios": "https://dc.lft.to/lastmile_qr_scan"}, "lat": 38.88266983333333, "bike_id": "aa8682356d41fe2e8189a54c9d92fc5e", "is_disabled": 0, "lon": -76.93233183333334, "is_reserved": 0, "fusion_lat": 0.0, "type": "electric_bike"}, {"fusion_lon": 0.0, "name": "304038d6aa37315b3f1dad7ac22adc11", "rental_uris": {"android": "https://dc.lft.to/lastmile_qr_scan", "ios": "https://dc.lft.to/lastmile_qr_scan"}, "lat": 38.88489416666667, "bike_id": "304038d6aa37315b3f1dad7ac22adc11", "is_disabled": 0, "lon": -77.00713216666666, "is_reserved": 0, "fusion_lat": 0.0, "type": "electric_scooter"}, {"fusion_lon": 0.0, "name": "97e644d1d08a6824bde98cd50d069588", "rental_uris": {"android": "https://dc.lft.to/lastmile_qr_scan", "ios": "https://dc.lft.to/lastmile_qr_scan"}, "lat": 38.904504, "bike_id": "97e644d1d08a6824bde98cd50d069588", "is_disabled": 0, "lon": -77.04056333333334, "is_reserved": 0, "fusion_lat": 0.0, "type": "electric_scooter"}, {"fusion_lon": 0.0, "name": "d2148e981ab5f1ac2378837043694fc0", "rental_uris": {"android": "https://dc.lft.to/lastmile_qr_scan", "ios": "https://dc.lft.to/lastmile_qr_scan"}, "lat": 38.924152166666666, "bike_id": "d2148e981ab5f1ac2378837043694fc0", "is_disabled": 0, "lon": -77.02126133333333, "is_reserved": 0, "fusion_lat": 0.0, "type": "electric_scooter"}, {"fusion_lon": 0.0, "name": "f580e0a209a6250a61ae92092b22c8f5", "rental_uris": {"android": "https://dc.lft.to/lastmile_qr_scan", "ios": "https://dc.lft.to/lastmile_qr_scan"}, "lat": 38.921938, "bike_id": "f580e0a209a6250a61ae92092b22c8f5", "is_disabled": 0, "lon": -77.035181, "is_reserved": 0, "fusion_lat": 0.0, "type": "electric_scooter"}, {"fusion_lon": 0.0, "name": "32c91a9bed35fcc4926dbe32e2e5e8a5", "rental_uris": {"android": "https://dc.lft.to/lastmile_qr_scan", "ios": "https://dc.lft.to/lastmile_qr_scan"}, "lat": 38.918828166666664, "bike_id": "32c91a9bed35fcc4926dbe32e2e5e8a5", "is_disabled": 0, "lon": -76.96434883333333, "is_reserved": 0, "fusion_lat": 0.0, "type": "electric_bike"}, {"fusion_lon": 0.0, "name": "88814e4ea454fecb262be3648a9c6e9d", "rental_uris": {"android": "https://dc.lft.to/lastmile_qr_scan", "ios": "https://dc.lft.to/lastmile_qr_scan"}, "lat": 38.925764, "bike_id": "88814e4ea454fecb262be3648a9c6e9d", "is_disabled": 0, "lon": -77.02763866666666, "is_reserved": 0, "fusion_lat": 0.0, "type": "electric_scooter"}, {"fusion_lon": 0.0, "name": "12ff71fef47e45f6da10ba477868ada5", "rental_uris": {"android": "https://dc.lft.to/lastmile_qr_scan", "ios": "https://dc.lft.to/lastmile_qr_scan"}, "lat": 38.90902666666667, "bike_id": "12ff71fef47e45f6da10ba477868ada5", "is_disabled": 0, "lon": -77.07271816666666, "is_reserved": 0, "fusion_lat": 0.0, "type": "electric_scooter"}, {"fusion_lon": 0.0, "name": "68ba1fba81c3d70ae2a77a036aead86c", "rental_uris": {"android": "https://dc.lft.to/lastmile_qr_scan", "ios": "https://dc.lft.to/lastmile_qr_scan"}, "lat": 38.89875933333333, "bike_id": "68ba1fba81c3d70ae2a77a036aead86c", "is_disabled": 0, "lon": -76.9883595, "is_reserved": 0, "fusion_lat": 0.0, "type": "electric_scooter"}, {"fusion_lon": 0.0, "name": "2edd5cbd1918a9a07a1f0e79b21cf62d", "rental_uris": {"android": "https://dc.lft.to/lastmile_qr_scan", "ios": "https://dc.lft.to/lastmile_qr_scan"}, "lat": 38.92314283333333, "bike_id": "2edd5cbd1918a9a07a1f0e79b21cf62d", "is_disabled": 0, "lon": -77.0194985, "is_reserved": 0, "fusion_lat": 0.0, "type": "electric_scooter"}, {"fusion_lon": 0.0, "name": "629c12737e11492e0891c0d887c1c70d", "rental_uris": {"android": "https://dc.lft.to/lastmile_qr_scan", "ios": "https://dc.lft.to/lastmile_qr_scan"}, "lat": 38.8991085, "bike_id": "629c12737e11492e0891c0d887c1c70d", "is_disabled": 0, "lon": -77.03168933333333, "is_reserved": 0, "fusion_lat": 0.0, "type": "electric_scooter"}, {"fusion_lon": 0.0, "name": "897a6102068bcc17faa8101e625cad0a", "rental_uris": {"android": "https://dc.lft.to/lastmile_qr_scan", "ios": "https://dc.lft.to/lastmile_qr_scan"}, "lat": 38.925103, "bike_id": "897a6102068bcc17faa8101e625cad0a", "is_disabled": 0, "lon": -77.02713016666667, "is_reserved": 0, "fusion_lat": 0.0, "type": "electric_scooter"}, {"fusion_lon": 0.0, "name": "049038e84fd53f636c74ff3bdf0fe49e", "rental_uris": {"android": "https://dc.lft.to/lastmile_qr_scan", "ios": "https://dc.lft.to/lastmile_qr_scan"}, "lat": 38.8484305, "bike_id": "049038e84fd53f636c74ff3bdf0fe49e", "is_disabled": 0, "lon": -77.08483066666666, "is_reserved": 0, "fusion_lat": 0.0, "type": "electric_bike"}, {"fusion_lon": 0.0, "name": "53db1a7d87f295293fbe4ff08140aada", "rental_uris": {"android": "https://dc.lft.to/lastmile_qr_scan", "ios": "https://dc.lft.to/lastmile_qr_scan"}, "lat": 38.92367266666667, "bike_id": "53db1a7d87f295293fbe4ff08140aada", "is_disabled": 0, "lon": -77.0194975, "is_reserved": 0, "fusion_lat": 0.0, "type": "electric_scooter"}, {"fusion_lon": 0.0, "name": "db1b1adc7af975d00a8b8822dd299503", "rental_uris": {"android": "https://dc.lft.to/lastmile_qr_scan", "ios": "https://dc.lft.to/lastmile_qr_scan"}, "lat": 38.92636433333333, "bike_id": "db1b1adc7af975d00a8b8822dd299503", "is_disabled": 0, "lon": -77.02503916666667, "is_reserved": 0, "fusion_lat": 0.0, "type": "electric_scooter"}, {"fusion_lon": 0.0, "name": "b38c81d9c95dc0b673c96b05e98da6d0", "rental_uris": {"android": "https://dc.lft.to/lastmile_qr_scan", "ios": "https://dc.lft.to/lastmile_qr_scan"}, "lat": 38.88596966666667, "bike_id": "b38c81d9c95dc0b673c96b05e98da6d0", "is_disabled": 0, "lon": -77.0451025, "is_reserved": 0, "fusion_lat": 0.0, "type": "electric_scooter"}, {"fusion_lon": 0.0, "name": "8327affc0530554e6c11f0ed1cc4c17f", "rental_uris": {"android": "https://dc.lft.to/lastmile_qr_scan", "ios": "https://dc.lft.to/lastmile_qr_scan"}, "lat": 38.897048833333336, "bike_id": "8327affc0530554e6c11f0ed1cc4c17f", "is_disabled": 0, "lon": -76.9911225, "is_reserved": 0, "fusion_lat": 0.0, "type": "electric_scooter"}, {"fusion_lon": 0.0, "name": "a4575e17d02d59bde8072804a4945d5c", "rental_uris": {"android": "https://dc.lft.to/lastmile_qr_scan", "ios": "https://dc.lft.to/lastmile_qr_scan"}, "lat": 38.9011915, "bike_id": "a4575e17d02d59bde8072804a4945d5c", "is_disabled": 0, "lon": -77.04481233333334, "is_reserved": 0, "fusion_lat": 0.0, "type": "electric_scooter"}, {"fusion_lon": 0.0, "name": "7696063269d1ab8afb2b9b3a576e9ad7", "rental_uris": {"android": "https://dc.lft.to/lastmile_qr_scan", "ios": "https://dc.lft.to/lastmile_qr_scan"}, "lat": 38.932911, "bike_id": "7696063269d1ab8afb2b9b3a576e9ad7", "is_disabled": 0, "lon": -77.028385, "is_reserved": 0, "fusion_lat": 0.0, "type": "electric_scooter"}, {"fusion_lon": 0.0, "name": "34e7783ce7b64be07e2d376a7eb12cbd", "rental_uris": {"android": "https://dc.lft.to/lastmile_qr_scan", "ios": "https://dc.lft.to/lastmile_qr_scan"}, "lat": 38.924641333333334, "bike_id": "34e7783ce7b64be07e2d376a7eb12cbd", "is_disabled": 0, "lon": -77.02709916666667, "is_reserved": 0, "fusion_lat": 0.0, "type": "electric_scooter"}, {"fusion_lon": 0.0, "name": "0cde04bc9b4746fd03e27bf01be0914f", "rental_uris": {"android": "https://dc.lft.to/lastmile_qr_scan", "ios": "https://dc.lft.to/lastmile_qr_scan"}, "lat": 38.895022166666664, "bike_id": "0cde04bc9b4746fd03e27bf01be0914f", "is_disabled": 0, "lon": -77.00330333333333, "is_reserved": 0, "fusion_lat": 0.0, "type": "electric_scooter"}, {"fusion_lon": 0.0, "name": "457015dce583ef6fd375b7ee3d6c2ebd", "rental_uris": {"android": "https://dc.lft.to/lastmile_qr_scan", "ios": "https://dc.lft.to/lastmile_qr_scan"}, "lat": 38.9089825, "bike_id": "457015dce583ef6fd375b7ee3d6c2ebd", "is_disabled": 0, "lon": -76.99619683333333, "is_reserved": 0, "fusion_lat": 0.0, "type": "electric_scooter"}, {"fusion_lon": 0.0, "name": "b97caf180b46f42c63d8061e2f15a56d", "rental_uris": {"android": "https://dc.lft.to/lastmile_qr_scan", "ios": "https://dc.lft.to/lastmile_qr_scan"}, "lat": 38.90709566666666, "bike_id": "b97caf180b46f42c63d8061e2f15a56d", "is_disabled": 0, "lon": -77.03211183333333, "is_reserved": 0, "fusion_lat": 0.0, "type": "electric_scooter"}, {"fusion_lon": 0.0, "name": "fd287bbcd426dd27b2f68f8a49b7979a", "rental_uris": {"android": "https://dc.lft.to/lastmile_qr_scan", "ios": "https://dc.lft.to/lastmile_qr_scan"}, "lat": 38.91994483333333, "bike_id": "fd287bbcd426dd27b2f68f8a49b7979a", "is_disabled": 0, "lon": -76.98391133333334, "is_reserved": 0, "fusion_lat": 0.0, "type": "electric_scooter"}, {"fusion_lon": 0.0, "name": "e144fa498b7d7505c01b5f3d3da3f2c4", "rental_uris": {"android": "https://dc.lft.to/lastmile_qr_scan", "ios": "https://dc.lft.to/lastmile_qr_scan"}, "lat": 38.91953933333333, "bike_id": "e144fa498b7d7505c01b5f3d3da3f2c4", "is_disabled": 0, "lon": -77.03181383333333, "is_reserved": 0, "fusion_lat": 0.0, "type": "electric_scooter"}, {"fusion_lon": 0.0, "name": "a1086d0f1afafa51bab49d16302119b7", "rental_uris": {"android": "https://dc.lft.to/lastmile_qr_scan", "ios": "https://dc.lft.to/lastmile_qr_scan"}, "lat": 38.90402433333333, "bike_id": "a1086d0f1afafa51bab49d16302119b7", "is_disabled": 0, "lon": -77.06296516666667, "is_reserved": 0, "fusion_lat": 0.0, "type": "electric_scooter"}, {"fusion_lon": 0.0, "name": "7fd0ca5edc4ca92cae2b30a03fa0fd69", "rental_uris": {"android": "https://dc.lft.to/lastmile_qr_scan", "ios": "https://dc.lft.to/lastmile_qr_scan"}, "lat": 38.93054883333333, "bike_id": "7fd0ca5edc4ca92cae2b30a03fa0fd69", "is_disabled": 0, "lon": -77.02316633333334, "is_reserved": 0, "fusion_lat": 0.0, "type": "electric_scooter"}, {"fusion_lon": 0.0, "name": "37238d72a75436327a923de26e45436d", "rental_uris": {"android": "https://dc.lft.to/lastmile_qr_scan", "ios": "https://dc.lft.to/lastmile_qr_scan"}, "lat": 38.89980833333333, "bike_id": "37238d72a75436327a923de26e45436d", "is_disabled": 0, "lon": -77.02091333333334, "is_reserved": 0, "fusion_lat": 0.0, "type": "electric_scooter"}, {"fusion_lon": 0.0, "name": "43f1db64f3b56674582abd3830431e9c", "rental_uris": {"android": "https://dc.lft.to/lastmile_qr_scan", "ios": "https://dc.lft.to/lastmile_qr_scan"}, "lat": 38.90059516666667, "bike_id": "43f1db64f3b56674582abd3830431e9c", "is_disabled": 0, "lon": -77.04655033333333, "is_reserved": 0, "fusion_lat": 0.0, "type": "electric_scooter"}, {"fusion_lon": 0.0, "name": "b763c05d19854100de4350bc99c4ca69", "rental_uris": {"android": "https://dc.lft.to/lastmile_qr_scan", "ios": "https://dc.lft.to/lastmile_qr_scan"}, "lat": 38.8543645, "bike_id": "b763c05d19854100de4350bc99c4ca69", "is_disabled": 0, "lon": -76.97172866666666, "is_reserved": 0, "fusion_lat": 0.0, "type": "electric_scooter"}, {"fusion_lon": 0.0, "name": "8cebf0d966b29ac17e288a0adb1e1aa1", "rental_uris": {"android": "https://dc.lft.to/lastmile_qr_scan", "ios": "https://dc.lft.to/lastmile_qr_scan"}, "lat": 38.901686833333336, "bike_id": "8cebf0d966b29ac17e288a0adb1e1aa1", "is_disabled": 0, "lon": -76.97685616666666, "is_reserved": 0, "fusion_lat": 0.0, "type": "electric_bike"}, {"fusion_lon": 0.0, "name": "669248d4550a58b30fc1a4d125f5f84b", "rental_uris": {"android": "https://dc.lft.to/lastmile_qr_scan", "ios": "https://dc.lft.to/lastmile_qr_scan"}, "lat": 38.912158, "bike_id": "669248d4550a58b30fc1a4d125f5f84b", "is_disabled": 0, "lon": -77.07592716666667, "is_reserved": 0, "fusion_lat": 0.0, "type": "electric_scooter"}, {"fusion_lon": 0.0, "name": "da26e0a54007f65aa767a6f2b7ac813c", "rental_uris": {"android": "https://dc.lft.to/lastmile_qr_scan", "ios": "https://dc.lft.to/lastmile_qr_scan"}, "lat": 38.907251333333335, "bike_id": "da26e0a54007f65aa767a6f2b7ac813c", "is_disabled": 0, "lon": -77.02427783333333, "is_reserved": 0, "fusion_lat": 0.0, "type": "electric_scooter"}, {"fusion_lon": 0.0, "name": "6562141a2b193c19bec266c8426db8cc", "rental_uris": {"android": "https://dc.lft.to/lastmile_qr_scan", "ios": "https://dc.lft.to/lastmile_qr_scan"}, "lat": 38.943943, "bike_id": "6562141a2b193c19bec266c8426db8cc", "is_disabled": 0, "lon": -77.06369733333334, "is_reserved": 0, "fusion_lat": 0.0, "type": "electric_scooter"}, {"fusion_lon": 0.0, "name": "d9ce50b9832f5ec07fd1697cc4c2efd3", "rental_uris": {"android": "https://dc.lft.to/lastmile_qr_scan", "ios": "https://dc.lft.to/lastmile_qr_scan"}, "lat": 38.8948055, "bike_id": "d9ce50b9832f5ec07fd1697cc4c2efd3", "is_disabled": 0, "lon": -76.995152, "is_reserved": 0, "fusion_lat": 0.0, "type": "electric_scooter"}, {"fusion_lon": 0.0, "name": "312ea1f0713a100c39db2a33cfcc96bd", "rental_uris": {"android": "https://dc.lft.to/lastmile_qr_scan", "ios": "https://dc.lft.to/lastmile_qr_scan"}, "lat": 38.8844125, "bike_id": "312ea1f0713a100c39db2a33cfcc96bd", "is_disabled": 0, "lon": -76.957616, "is_reserved": 0, "fusion_lat": 0.0, "type": "electric_scooter"}, {"fusion_lon": 0.0, "name": "87374c8bfd982fbecd9f4e50050b55ba", "rental_uris": {"android": "https://dc.lft.to/lastmile_qr_scan", "ios": "https://dc.lft.to/lastmile_qr_scan"}, "lat": 38.8747755, "bike_id": "87374c8bfd982fbecd9f4e50050b55ba", "is_disabled": 0, "lon": -76.965302, "is_reserved": 0, "fusion_lat": 0.0, "type": "electric_bike"}, {"fusion_lon": 0.0, "name": "0c58f3f3d18cde9c83921e0f04918bae", "rental_uris": {"android": "https://dc.lft.to/lastmile_qr_scan", "ios": "https://dc.lft.to/lastmile_qr_scan"}, "lat": 38.919223833333334, "bike_id": "0c58f3f3d18cde9c83921e0f04918bae", "is_disabled": 0, "lon": -77.01781916666667, "is_reserved": 0, "fusion_lat": 0.0, "type": "electric_scooter"}, {"fusion_lon": 0.0, "name": "de5a5c3a779814008f21a568c8819a02", "rental_uris": {"android": "https://dc.lft.to/lastmile_qr_scan", "ios": "https://dc.lft.to/lastmile_qr_scan"}, "lat": 38.913869, "bike_id": "de5a5c3a779814008f21a568c8819a02", "is_disabled": 0, "lon": -77.04607816666666, "is_reserved": 0, "fusion_lat": 0.0, "type": "electric_scooter"}, {"fusion_lon": 0.0, "name": "47912017c0cfdaccdcb1bce6090a7b27", "rental_uris": {"android": "https://dc.lft.to/lastmile_qr_scan", "ios": "https://dc.lft.to/lastmile_qr_scan"}, "lat": 38.906162, "bike_id": "47912017c0cfdaccdcb1bce6090a7b27", "is_disabled": 0, "lon": -77.0260035, "is_reserved": 0, "fusion_lat": 0.0, "type": "electric_scooter"}, {"fusion_lon": 0.0, "name": "07f1a65581dbde451724e017f63fcf61", "rental_uris": {"android": "https://dc.lft.to/lastmile_qr_scan", "ios": "https://dc.lft.to/lastmile_qr_scan"}, "lat": 38.90238333333333, "bike_id": "07f1a65581dbde451724e017f63fcf61", "is_disabled": 0, "lon": -77.01839483333333, "is_reserved": 0, "fusion_lat": 0.0, "type": "electric_scooter"}, {"fusion_lon": 0.0, "name": "336517d1bd9f67391350872590b813cc", "rental_uris": {"android": "https://dc.lft.to/lastmile_qr_scan", "ios": "https://dc.lft.to/lastmile_qr_scan"}, "lat": 38.899069, "bike_id": "336517d1bd9f67391350872590b813cc", "is_disabled": 0, "lon": -77.0244455, "is_reserved": 0, "fusion_lat": 0.0, "type": "electric_scooter"}, {"fusion_lon": 0.0, "name": "ec7bb59b077b98b8d4eca0f83f1e345c", "rental_uris": {"android": "https://dc.lft.to/lastmile_qr_scan", "ios": "https://dc.lft.to/lastmile_qr_scan"}, "lat": 38.87680616666667, "bike_id": "ec7bb59b077b98b8d4eca0f83f1e345c", "is_disabled": 0, "lon": -77.00067066666666, "is_reserved": 0, "fusion_lat": 0.0, "type": "electric_scooter"}, {"fusion_lon": 0.0, "name": "819c4dc2d534ce5f536323a33e9980ed", "rental_uris": {"android": "https://dc.lft.to/lastmile_qr_scan", "ios": "https://dc.lft.to/lastmile_qr_scan"}, "lat": 38.90379766666667, "bike_id": "819c4dc2d534ce5f536323a33e9980ed", "is_disabled": 0, "lon": -77.00578083333333, "is_reserved": 0, "fusion_lat": 0.0, "type": "electric_scooter"}, {"fusion_lon": 0.0, "name": "84fdd144415bd47aebfecfc1b13f3a73", "rental_uris": {"android": "https://dc.lft.to/lastmile_qr_scan", "ios": "https://dc.lft.to/lastmile_qr_scan"}, "lat": 38.8756795, "bike_id": "84fdd144415bd47aebfecfc1b13f3a73", "is_disabled": 0, "lon": -77.0057865, "is_reserved": 0, "fusion_lat": 0.0, "type": "electric_scooter"}, {"fusion_lon": 0.0, "name": "0dfabff521be966ffdfc83887593ea10", "rental_uris": {"android": "https://dc.lft.to/lastmile_qr_scan", "ios": "https://dc.lft.to/lastmile_qr_scan"}, "lat": 38.832959333333335, "bike_id": "0dfabff521be966ffdfc83887593ea10", "is_disabled": 0, "lon": -77.084092, "is_reserved": 0, "fusion_lat": 0.0, "type": "electric_bike"}, {"fusion_lon": 0.0, "name": "7d13524626373efd2e40933b346f0a47", "rental_uris": {"android": "https://dc.lft.to/lastmile_qr_scan", "ios": "https://dc.lft.to/lastmile_qr_scan"}, "lat": 38.88478283333333, "bike_id": "7d13524626373efd2e40933b346f0a47", "is_disabled": 0, "lon": -77.01987383333334, "is_reserved": 0, "fusion_lat": 0.0, "type": "electric_scooter"}, {"fusion_lon": 0.0, "name": "9cf3055bb852fe5c78ebf6b54ffc0a22", "rental_uris": {"android": "https://dc.lft.to/lastmile_qr_scan", "ios": "https://dc.lft.to/lastmile_qr_scan"}, "lat": 38.89389333333333, "bike_id": "9cf3055bb852fe5c78ebf6b54ffc0a22", "is_disabled": 0, "lon": -77.02250766666667, "is_reserved": 0, "fusion_lat": 0.0, "type": "electric_scooter"}, {"fusion_lon": 0.0, "name": "299df1b9be47282efe604fae5987c463", "rental_uris": {"android": "https://dc.lft.to/lastmile_qr_scan", "ios": "https://dc.lft.to/lastmile_qr_scan"}, "lat": 38.9219065, "bike_id": "299df1b9be47282efe604fae5987c463", "is_disabled": 0, "lon": -76.99622066666667, "is_reserved": 0, "fusion_lat": 0.0, "type": "electric_scooter"}, {"fusion_lon": 0.0, "name": "510d1205786f40a6cda31250cafbf49a", "rental_uris": {"android": "https://dc.lft.to/lastmile_qr_scan", "ios": "https://dc.lft.to/lastmile_qr_scan"}, "lat": 38.89716, "bike_id": "510d1205786f40a6cda31250cafbf49a", "is_disabled": 0, "lon": -77.03150683333334, "is_reserved": 0, "fusion_lat": 0.0, "type": "electric_scooter"}, {"fusion_lon": 0.0, "name": "e72726d1017935042cc675b00b783d80", "rental_uris": {"android": "https://dc.lft.to/lastmile_qr_scan", "ios": "https://dc.lft.to/lastmile_qr_scan"}, "lat": 38.975490666666666, "bike_id": "e72726d1017935042cc675b00b783d80", "is_disabled": 0, "lon": -77.02674266666666, "is_reserved": 0, "fusion_lat": 0.0, "type": "electric_scooter"}, {"fusion_lon": 0.0, "name": "d80e55264b1aba9cc17e05b1a12b858e", "rental_uris": {"android": "https://dc.lft.to/lastmile_qr_scan", "ios": "https://dc.lft.to/lastmile_qr_scan"}, "lat": 38.90802816666667, "bike_id": "d80e55264b1aba9cc17e05b1a12b858e", "is_disabled": 0, "lon": -77.083981, "is_reserved": 0, "fusion_lat": 0.0, "type": "electric_scooter"}, {"fusion_lon": 0.0, "name": "5b2e9c30e1cebc5cf7ab6679782d220b", "rental_uris": {"android": "https://dc.lft.to/lastmile_qr_scan", "ios": "https://dc.lft.to/lastmile_qr_scan"}, "lat": 38.90069366666667, "bike_id": "5b2e9c30e1cebc5cf7ab6679782d220b", "is_disabled": 0, "lon": -77.04909633333334, "is_reserved": 0, "fusion_lat": 0.0, "type": "electric_scooter"}, {"fusion_lon": 0.0, "name": "0fe84e9784b0ba0a1a89041f1a6a251d", "rental_uris": {"android": "https://dc.lft.to/lastmile_qr_scan", "ios": "https://dc.lft.to/lastmile_qr_scan"}, "lat": 38.90862633333333, "bike_id": "0fe84e9784b0ba0a1a89041f1a6a251d", "is_disabled": 0, "lon": -77.08072383333334, "is_reserved": 0, "fusion_lat": 0.0, "type": "electric_bike"}, {"fusion_lon": 0.0, "name": "69bd29221e43a0573e59a1701b40bc5e", "rental_uris": {"android": "https://dc.lft.to/lastmile_qr_scan", "ios": "https://dc.lft.to/lastmile_qr_scan"}, "lat": 38.97256433333333, "bike_id": "69bd29221e43a0573e59a1701b40bc5e", "is_disabled": 0, "lon": -76.99277766666667, "is_reserved": 0, "fusion_lat": 0.0, "type": "electric_bike"}, {"fusion_lon": 0.0, "name": "356aec4222562e0d6326b750e064f0a8", "rental_uris": {"android": "https://dc.lft.to/lastmile_qr_scan", "ios": "https://dc.lft.to/lastmile_qr_scan"}, "lat": 38.9234465, "bike_id": "356aec4222562e0d6326b750e064f0a8", "is_disabled": 0, "lon": -77.020901, "is_reserved": 0, "fusion_lat": 0.0, "type": "electric_scooter"}, {"fusion_lon": 0.0, "name": "2c1023c4e2e0a1134277a03682dc8fe7", "rental_uris": {"android": "https://dc.lft.to/lastmile_qr_scan", "ios": "https://dc.lft.to/lastmile_qr_scan"}, "lat": 38.92428116666667, "bike_id": "2c1023c4e2e0a1134277a03682dc8fe7", "is_disabled": 0, "lon": -77.02127816666666, "is_reserved": 0, "fusion_lat": 0.0, "type": "electric_scooter"}, {"fusion_lon": 0.0, "name": "9279db4c4e2ca3edda2c83ad749e2903", "rental_uris": {"android": "https://dc.lft.to/lastmile_qr_scan", "ios": "https://dc.lft.to/lastmile_qr_scan"}, "lat": 38.963793, "bike_id": "9279db4c4e2ca3edda2c83ad749e2903", "is_disabled": 0, "lon": -77.02955966666667, "is_reserved": 0, "fusion_lat": 0.0, "type": "electric_scooter"}, {"fusion_lon": 0.0, "name": "851777243d152079772f14757125d1a8", "rental_uris": {"android": "https://dc.lft.to/lastmile_qr_scan", "ios": "https://dc.lft.to/lastmile_qr_scan"}, "lat": 38.92420633333333, "bike_id": "851777243d152079772f14757125d1a8", "is_disabled": 0, "lon": -77.0197795, "is_reserved": 0, "fusion_lat": 0.0, "type": "electric_scooter"}, {"fusion_lon": 0.0, "name": "e401168d48697ec5a8d3b1f8a44c57da", "rental_uris": {"android": "https://dc.lft.to/lastmile_qr_scan", "ios": "https://dc.lft.to/lastmile_qr_scan"}, "lat": 38.925106166666666, "bike_id": "e401168d48697ec5a8d3b1f8a44c57da", "is_disabled": 0, "lon": -77.04142533333334, "is_reserved": 0, "fusion_lat": 0.0, "type": "electric_scooter"}, {"fusion_lon": 0.0, "name": "23b4c567d8be8ed2ce9dabeb46115497", "rental_uris": {"android": "https://dc.lft.to/lastmile_qr_scan", "ios": "https://dc.lft.to/lastmile_qr_scan"}, "lat": 38.90287466666667, "bike_id": "23b4c567d8be8ed2ce9dabeb46115497", "is_disabled": 0, "lon": -77.03353783333333, "is_reserved": 0, "fusion_lat": 0.0, "type": "electric_scooter"}, {"fusion_lon": 0.0, "name": "667ed16eeef2a07818e4e190be0635c7", "rental_uris": {"android": "https://dc.lft.to/lastmile_qr_scan", "ios": "https://dc.lft.to/lastmile_qr_scan"}, "lat": 38.941037, "bike_id": "667ed16eeef2a07818e4e190be0635c7", "is_disabled": 0, "lon": -77.06136133333334, "is_reserved": 0, "fusion_lat": 0.0, "type": "electric_scooter"}, {"fusion_lon": 0.0, "name": "c9f9263c8b35e8c621b13bc457b24a0d", "rental_uris": {"android": "https://dc.lft.to/lastmile_qr_scan", "ios": "https://dc.lft.to/lastmile_qr_scan"}, "lat": 38.941796833333335, "bike_id": "c9f9263c8b35e8c621b13bc457b24a0d", "is_disabled": 0, "lon": -77.03650616666667, "is_reserved": 0, "fusion_lat": 0.0, "type": "electric_scooter"}, {"fusion_lon": 0.0, "name": "020dba9676d7d270802d99a685047f51", "rental_uris": {"android": "https://dc.lft.to/lastmile_qr_scan", "ios": "https://dc.lft.to/lastmile_qr_scan"}, "lat": 38.927886, "bike_id": "020dba9676d7d270802d99a685047f51", "is_disabled": 0, "lon": -77.03087283333333, "is_reserved": 0, "fusion_lat": 0.0, "type": "electric_scooter"}, {"fusion_lon": 0.0, "name": "54d16e1af3d3f8ed87a7bc28d448fd25", "rental_uris": {"android": "https://dc.lft.to/lastmile_qr_scan", "ios": "https://dc.lft.to/lastmile_qr_scan"}, "lat": 38.908997666666664, "bike_id": "54d16e1af3d3f8ed87a7bc28d448fd25", "is_disabled": 0, "lon": -77.07266566666667, "is_reserved": 0, "fusion_lat": 0.0, "type": "electric_scooter"}, {"fusion_lon": 0.0, "name": "c15cd12ad9fbfc055a339747cb888442", "rental_uris": {"android": "https://dc.lft.to/lastmile_qr_scan", "ios": "https://dc.lft.to/lastmile_qr_scan"}, "lat": 38.915518166666665, "bike_id": "c15cd12ad9fbfc055a339747cb888442", "is_disabled": 0, "lon": -77.00717366666667, "is_reserved": 0, "fusion_lat": 0.0, "type": "electric_scooter"}, {"fusion_lon": 0.0, "name": "c39421c18a93e2395b636ed5bee07b83", "rental_uris": {"android": "https://dc.lft.to/lastmile_qr_scan", "ios": "https://dc.lft.to/lastmile_qr_scan"}, "lat": 38.92462283333333, "bike_id": "c39421c18a93e2395b636ed5bee07b83", "is_disabled": 0, "lon": -77.03937066666667, "is_reserved": 0, "fusion_lat": 0.0, "type": "electric_scooter"}, {"fusion_lon": 0.0, "name": "c026bc4b5193595581b7084042bdfe49", "rental_uris": {"android": "https://dc.lft.to/lastmile_qr_scan", "ios": "https://dc.lft.to/lastmile_qr_scan"}, "lat": 38.9236725, "bike_id": "c026bc4b5193595581b7084042bdfe49", "is_disabled": 0, "lon": -77.019592, "is_reserved": 0, "fusion_lat": 0.0, "type": "electric_scooter"}, {"fusion_lon": 0.0, "name": "d7ba4bb29da0622ede7f061a0d481015", "rental_uris": {"android": "https://dc.lft.to/lastmile_qr_scan", "ios": "https://dc.lft.to/lastmile_qr_scan"}, "lat": 38.88874933333334, "bike_id": "d7ba4bb29da0622ede7f061a0d481015", "is_disabled": 0, "lon": -76.98670983333334, "is_reserved": 0, "fusion_lat": 0.0, "type": "electric_scooter"}, {"fusion_lon": 0.0, "name": "cd1777da4eb7dc9e8c5f4c2410c7b386", "rental_uris": {"android": "https://dc.lft.to/lastmile_qr_scan", "ios": "https://dc.lft.to/lastmile_qr_scan"}, "lat": 38.904646166666666, "bike_id": "cd1777da4eb7dc9e8c5f4c2410c7b386", "is_disabled": 0, "lon": -77.0260605, "is_reserved": 0, "fusion_lat": 0.0, "type": "electric_scooter"}, {"fusion_lon": 0.0, "name": "16f4b15b59d73993ab639bb11d3bec10", "rental_uris": {"android": "https://dc.lft.to/lastmile_qr_scan", "ios": "https://dc.lft.to/lastmile_qr_scan"}, "lat": 38.955835, "bike_id": "16f4b15b59d73993ab639bb11d3bec10", "is_disabled": 0, "lon": -76.96884066666667, "is_reserved": 0, "fusion_lat": 0.0, "type": "electric_bike"}, {"fusion_lon": 0.0, "name": "2c66ff450f4b429a877f2a0bb4ee9509", "rental_uris": {"android": "https://dc.lft.to/lastmile_qr_scan", "ios": "https://dc.lft.to/lastmile_qr_scan"}, "lat": 38.9230225, "bike_id": "2c66ff450f4b429a877f2a0bb4ee9509", "is_disabled": 0, "lon": -77.03110366666667, "is_reserved": 0, "fusion_lat": 0.0, "type": "electric_scooter"}, {"fusion_lon": 0.0, "name": "3722c208acafc0bc6e97ffca580d7592", "rental_uris": {"android": "https://dc.lft.to/lastmile_qr_scan", "ios": "https://dc.lft.to/lastmile_qr_scan"}, "lat": 38.9358945, "bike_id": "3722c208acafc0bc6e97ffca580d7592", "is_disabled": 0, "lon": -77.0584225, "is_reserved": 0, "fusion_lat": 0.0, "type": "electric_scooter"}, {"fusion_lon": 0.0, "name": "150056a0552609ac6e44f5b4c9ddf564", "rental_uris": {"android": "https://dc.lft.to/lastmile_qr_scan", "ios": "https://dc.lft.to/lastmile_qr_scan"}, "lat": 38.89303966666667, "bike_id": "150056a0552609ac6e44f5b4c9ddf564", "is_disabled": 0, "lon": -77.021654, "is_reserved": 0, "fusion_lat": 0.0, "type": "electric_scooter"}, {"fusion_lon": 0.0, "name": "267012a0784dfbb360b734327b152f23", "rental_uris": {"android": "https://dc.lft.to/lastmile_qr_scan", "ios": "https://dc.lft.to/lastmile_qr_scan"}, "lat": 38.900505, "bike_id": "267012a0784dfbb360b734327b152f23", "is_disabled": 0, "lon": -76.98487466666667, "is_reserved": 0, "fusion_lat": 0.0, "type": "electric_scooter"}, {"fusion_lon": 0.0, "name": "fb22fdf5e9f07e05761b56ede43b608b", "rental_uris": {"android": "https://dc.lft.to/lastmile_qr_scan", "ios": "https://dc.lft.to/lastmile_qr_scan"}, "lat": 38.920048, "bike_id": "fb22fdf5e9f07e05761b56ede43b608b", "is_disabled": 0, "lon": -77.0321125, "is_reserved": 0, "fusion_lat": 0.0, "type": "electric_scooter"}, {"fusion_lon": 0.0, "name": "427df3e70e9418496e8755866b42a42f", "rental_uris": {"android": "https://dc.lft.to/lastmile_qr_scan", "ios": "https://dc.lft.to/lastmile_qr_scan"}, "lat": 38.900383833333336, "bike_id": "427df3e70e9418496e8755866b42a42f", "is_disabled": 0, "lon": -76.98554383333334, "is_reserved": 0, "fusion_lat": 0.0, "type": "electric_scooter"}, {"fusion_lon": 0.0, "name": "a8334ffa171e322d375d26e450af20ea", "rental_uris": {"android": "https://dc.lft.to/lastmile_qr_scan", "ios": "https://dc.lft.to/lastmile_qr_scan"}, "lat": 38.9732115, "bike_id": "a8334ffa171e322d375d26e450af20ea", "is_disabled": 0, "lon": -77.02698933333333, "is_reserved": 0, "fusion_lat": 0.0, "type": "electric_scooter"}, {"fusion_lon": 0.0, "name": "b4108db999c479d3d2904af0fb09f168", "rental_uris": {"android": "https://dc.lft.to/lastmile_qr_scan", "ios": "https://dc.lft.to/lastmile_qr_scan"}, "lat": 38.90428583333333, "bike_id": "b4108db999c479d3d2904af0fb09f168", "is_disabled": 0, "lon": -77.02611066666667, "is_reserved": 0, "fusion_lat": 0.0, "type": "electric_scooter"}, {"fusion_lon": 0.0, "name": "be4188fcebdcd406662228c8daf12b29", "rental_uris": {"android": "https://dc.lft.to/lastmile_qr_scan", "ios": "https://dc.lft.to/lastmile_qr_scan"}, "lat": 38.926831, "bike_id": "be4188fcebdcd406662228c8daf12b29", "is_disabled": 0, "lon": -77.01478033333333, "is_reserved": 0, "fusion_lat": 0.0, "type": "electric_scooter"}, {"fusion_lon": 0.0, "name": "dc8df092813b3069b6446bdbb1921c17", "rental_uris": {"android": "https://dc.lft.to/lastmile_qr_scan", "ios": "https://dc.lft.to/lastmile_qr_scan"}, "lat": 38.92605533333333, "bike_id": "dc8df092813b3069b6446bdbb1921c17", "is_disabled": 0, "lon": -77.07394566666666, "is_reserved": 0, "fusion_lat": 0.0, "type": "electric_bike"}, {"fusion_lon": 0.0, "name": "cf7be36702655080735c1ff603234b07", "rental_uris": {"android": "https://dc.lft.to/lastmile_qr_scan", "ios": "https://dc.lft.to/lastmile_qr_scan"}, "lat": 38.93784566666667, "bike_id": "cf7be36702655080735c1ff603234b07", "is_disabled": 0, "lon": -77.0326525, "is_reserved": 0, "fusion_lat": 0.0, "type": "electric_scooter"}, {"fusion_lon": 0.0, "name": "e085ac3572d0553c99d83bf6f578e54d", "rental_uris": {"android": "https://dc.lft.to/lastmile_qr_scan", "ios": "https://dc.lft.to/lastmile_qr_scan"}, "lat": 38.914860166666664, "bike_id": "e085ac3572d0553c99d83bf6f578e54d", "is_disabled": 0, "lon": -77.02185216666666, "is_reserved": 0, "fusion_lat": 0.0, "type": "electric_scooter"}, {"fusion_lon": 0.0, "name": "39fb741ab13381cd6ef44fe6619c2920", "rental_uris": {"android": "https://dc.lft.to/lastmile_qr_scan", "ios": "https://dc.lft.to/lastmile_qr_scan"}, "lat": 38.9023335, "bike_id": "39fb741ab13381cd6ef44fe6619c2920", "is_disabled": 0, "lon": -77.0590695, "is_reserved": 0, "fusion_lat": 0.0, "type": "electric_scooter"}, {"fusion_lon": 0.0, "name": "55cc8c33a2185608d7271a820968c118", "rental_uris": {"android": "https://dc.lft.to/lastmile_qr_scan", "ios": "https://dc.lft.to/lastmile_qr_scan"}, "lat": 38.9012675, "bike_id": "55cc8c33a2185608d7271a820968c118", "is_disabled": 0, "lon": -77.02196883333333, "is_reserved": 0, "fusion_lat": 0.0, "type": "electric_scooter"}, {"fusion_lon": 0.0, "name": "9859594c27caa50b70059639876bf895", "rental_uris": {"android": "https://dc.lft.to/lastmile_qr_scan", "ios": "https://dc.lft.to/lastmile_qr_scan"}, "lat": 38.92458966666667, "bike_id": "9859594c27caa50b70059639876bf895", "is_disabled": 0, "lon": -77.04196766666666, "is_reserved": 0, "fusion_lat": 0.0, "type": "electric_scooter"}, {"fusion_lon": 0.0, "name": "14bf740fe7a49edec753050fc4098139", "rental_uris": {"android": "https://dc.lft.to/lastmile_qr_scan", "ios": "https://dc.lft.to/lastmile_qr_scan"}, "lat": 38.92412266666667, "bike_id": "14bf740fe7a49edec753050fc4098139", "is_disabled": 0, "lon": -77.02013116666667, "is_reserved": 0, "fusion_lat": 0.0, "type": "electric_scooter"}, {"fusion_lon": 0.0, "name": "600b033c258545cc1f488ad76ce370b9", "rental_uris": {"android": "https://dc.lft.to/lastmile_qr_scan", "ios": "https://dc.lft.to/lastmile_qr_scan"}, "lat": 38.91178433333333, "bike_id": "600b033c258545cc1f488ad76ce370b9", "is_disabled": 0, "lon": -77.01056116666666, "is_reserved": 0, "fusion_lat": 0.0, "type": "electric_scooter"}, {"fusion_lon": 0.0, "name": "276c492728a8828a88fdefffb8109889", "rental_uris": {"android": "https://dc.lft.to/lastmile_qr_scan", "ios": "https://dc.lft.to/lastmile_qr_scan"}, "lat": 38.94193333333333, "bike_id": "276c492728a8828a88fdefffb8109889", "is_disabled": 0, "lon": -77.024829, "is_reserved": 0, "fusion_lat": 0.0, "type": "electric_scooter"}, {"fusion_lon": 0.0, "name": "bce3368dc5fc8e3de7ef4088ef121c66", "rental_uris": {"android": "https://dc.lft.to/lastmile_qr_scan", "ios": "https://dc.lft.to/lastmile_qr_scan"}, "lat": 38.90109966666667, "bike_id": "bce3368dc5fc8e3de7ef4088ef121c66", "is_disabled": 0, "lon": -77.04348683333333, "is_reserved": 0, "fusion_lat": 0.0, "type": "electric_scooter"}, {"fusion_lon": 0.0, "name": "23ec0800bfe47c2bfdcf2fae1135b985", "rental_uris": {"android": "https://dc.lft.to/lastmile_qr_scan", "ios": "https://dc.lft.to/lastmile_qr_scan"}, "lat": 38.918616666666665, "bike_id": "23ec0800bfe47c2bfdcf2fae1135b985", "is_disabled": 0, "lon": -77.03189616666667, "is_reserved": 0, "fusion_lat": 0.0, "type": "electric_scooter"}, {"fusion_lon": 0.0, "name": "6c95c53f4375361ffe92082e2393557c", "rental_uris": {"android": "https://dc.lft.to/lastmile_qr_scan", "ios": "https://dc.lft.to/lastmile_qr_scan"}, "lat": 38.93448033333333, "bike_id": "6c95c53f4375361ffe92082e2393557c", "is_disabled": 0, "lon": -77.08965633333334, "is_reserved": 0, "fusion_lat": 0.0, "type": "electric_scooter"}, {"fusion_lon": 0.0, "name": "44f9d198d1eab10999c3f59f73f9d67e", "rental_uris": {"android": "https://dc.lft.to/lastmile_qr_scan", "ios": "https://dc.lft.to/lastmile_qr_scan"}, "lat": 38.905178666666664, "bike_id": "44f9d198d1eab10999c3f59f73f9d67e", "is_disabled": 0, "lon": -77.05994366666667, "is_reserved": 0, "fusion_lat": 0.0, "type": "electric_scooter"}, {"fusion_lon": 0.0, "name": "9acc5abd5aa9b766108a8471f06a23a3", "rental_uris": {"android": "https://dc.lft.to/lastmile_qr_scan", "ios": "https://dc.lft.to/lastmile_qr_scan"}, "lat": 38.891922666666666, "bike_id": "9acc5abd5aa9b766108a8471f06a23a3", "is_disabled": 0, "lon": -76.95810383333334, "is_reserved": 0, "fusion_lat": 0.0, "type": "electric_scooter"}, {"fusion_lon": 0.0, "name": "8495e25cf94d73c6675a85d32e720291", "rental_uris": {"android": "https://dc.lft.to/lastmile_qr_scan", "ios": "https://dc.lft.to/lastmile_qr_scan"}, "lat": 38.909513833333335, "bike_id": "8495e25cf94d73c6675a85d32e720291", "is_disabled": 0, "lon": -77.03182816666667, "is_reserved": 0, "fusion_lat": 0.0, "type": "electric_scooter"}, {"fusion_lon": 0.0, "name": "40d74025216e55d9185d655bf39adcf9", "rental_uris": {"android": "https://dc.lft.to/lastmile_qr_scan", "ios": "https://dc.lft.to/lastmile_qr_scan"}, "lat": 38.92359883333334, "bike_id": "40d74025216e55d9185d655bf39adcf9", "is_disabled": 0, "lon": -77.02807766666666, "is_reserved": 0, "fusion_lat": 0.0, "type": "electric_scooter"}, {"fusion_lon": 0.0, "name": "c4a971d2ead203df8cfc8f826bb97a97", "rental_uris": {"android": "https://dc.lft.to/lastmile_qr_scan", "ios": "https://dc.lft.to/lastmile_qr_scan"}, "lat": 38.92361566666666, "bike_id": "c4a971d2ead203df8cfc8f826bb97a97", "is_disabled": 0, "lon": -77.02064483333334, "is_reserved": 0, "fusion_lat": 0.0, "type": "electric_scooter"}, {"fusion_lon": 0.0, "name": "13144733298199056464901b5b0b67f4", "rental_uris": {"android": "https://dc.lft.to/lastmile_qr_scan", "ios": "https://dc.lft.to/lastmile_qr_scan"}, "lat": 38.9004015, "bike_id": "13144733298199056464901b5b0b67f4", "is_disabled": 0, "lon": -77.04347133333333, "is_reserved": 0, "fusion_lat": 0.0, "type": "electric_scooter"}, {"fusion_lon": 0.0, "name": "dd9cbf24c8c25f20a5d3b6879f49c637", "rental_uris": {"android": "https://dc.lft.to/lastmile_qr_scan", "ios": "https://dc.lft.to/lastmile_qr_scan"}, "lat": 38.9293435, "bike_id": "dd9cbf24c8c25f20a5d3b6879f49c637", "is_disabled": 0, "lon": -77.03764333333334, "is_reserved": 0, "fusion_lat": 0.0, "type": "electric_scooter"}, {"fusion_lon": 0.0, "name": "5cd6a5dd26c88f4781013cd2d9ec2398", "rental_uris": {"android": "https://dc.lft.to/lastmile_qr_scan", "ios": "https://dc.lft.to/lastmile_qr_scan"}, "lat": 38.89397966666667, "bike_id": "5cd6a5dd26c88f4781013cd2d9ec2398", "is_disabled": 0, "lon": -77.02957183333334, "is_reserved": 0, "fusion_lat": 0.0, "type": "electric_scooter"}, {"fusion_lon": 0.0, "name": "8d79285775bdbe78c86ea37f9773e573", "rental_uris": {"android": "https://dc.lft.to/lastmile_qr_scan", "ios": "https://dc.lft.to/lastmile_qr_scan"}, "lat": 38.919781, "bike_id": "8d79285775bdbe78c86ea37f9773e573", "is_disabled": 0, "lon": -77.03260666666667, "is_reserved": 0, "fusion_lat": 0.0, "type": "electric_scooter"}, {"fusion_lon": 0.0, "name": "888679e448bea338ba6ff23dff19a30b", "rental_uris": {"android": "https://dc.lft.to/lastmile_qr_scan", "ios": "https://dc.lft.to/lastmile_qr_scan"}, "lat": 38.889584166666666, "bike_id": "888679e448bea338ba6ff23dff19a30b", "is_disabled": 0, "lon": -76.98819783333333, "is_reserved": 0, "fusion_lat": 0.0, "type": "electric_scooter"}, {"fusion_lon": 0.0, "name": "ed5c124b2ee3b0ca3aee2673c1cf19e1", "rental_uris": {"android": "https://dc.lft.to/lastmile_qr_scan", "ios": "https://dc.lft.to/lastmile_qr_scan"}, "lat": 38.908347, "bike_id": "ed5c124b2ee3b0ca3aee2673c1cf19e1", "is_disabled": 0, "lon": -77.07304533333334, "is_reserved": 0, "fusion_lat": 0.0, "type": "electric_scooter"}, {"fusion_lon": 0.0, "name": "c5caef71c5ad9b1afba6cc53c714ffb1", "rental_uris": {"android": "https://dc.lft.to/lastmile_qr_scan", "ios": "https://dc.lft.to/lastmile_qr_scan"}, "lat": 38.90014133333333, "bike_id": "c5caef71c5ad9b1afba6cc53c714ffb1", "is_disabled": 0, "lon": -76.97832616666666, "is_reserved": 0, "fusion_lat": 0.0, "type": "electric_scooter"}, {"fusion_lon": 0.0, "name": "81776488defb720612336f35e32049c8", "rental_uris": {"android": "https://dc.lft.to/lastmile_qr_scan", "ios": "https://dc.lft.to/lastmile_qr_scan"}, "lat": 38.899009666666664, "bike_id": "81776488defb720612336f35e32049c8", "is_disabled": 0, "lon": -76.988212, "is_reserved": 0, "fusion_lat": 0.0, "type": "electric_scooter"}, {"fusion_lon": 0.0, "name": "83d8b919505014c53b10af611ae43d14", "rental_uris": {"android": "https://dc.lft.to/lastmile_qr_scan", "ios": "https://dc.lft.to/lastmile_qr_scan"}, "lat": 38.89162133333333, "bike_id": "83d8b919505014c53b10af611ae43d14", "is_disabled": 0, "lon": -76.99149616666666, "is_reserved": 0, "fusion_lat": 0.0, "type": "electric_scooter"}, {"fusion_lon": 0.0, "name": "3ca52c8733fce22affa9a95888253724", "rental_uris": {"android": "https://dc.lft.to/lastmile_qr_scan", "ios": "https://dc.lft.to/lastmile_qr_scan"}, "lat": 38.917990833333334, "bike_id": "3ca52c8733fce22affa9a95888253724", "is_disabled": 0, "lon": -77.0444035, "is_reserved": 0, "fusion_lat": 0.0, "type": "electric_scooter"}, {"fusion_lon": 0.0, "name": "ed5edb66027bf75e44b8b63bdf25fd26", "rental_uris": {"android": "https://dc.lft.to/lastmile_qr_scan", "ios": "https://dc.lft.to/lastmile_qr_scan"}, "lat": 38.912642166666664, "bike_id": "ed5edb66027bf75e44b8b63bdf25fd26", "is_disabled": 0, "lon": -77.00101433333333, "is_reserved": 0, "fusion_lat": 0.0, "type": "electric_scooter"}, {"fusion_lon": 0.0, "name": "ae090cb5b0668ea1046cbea440a0e7eb", "rental_uris": {"android": "https://dc.lft.to/lastmile_qr_scan", "ios": "https://dc.lft.to/lastmile_qr_scan"}, "lat": 38.8923305, "bike_id": "ae090cb5b0668ea1046cbea440a0e7eb", "is_disabled": 0, "lon": -77.03349916666667, "is_reserved": 0, "fusion_lat": 0.0, "type": "electric_scooter"}, {"fusion_lon": 0.0, "name": "0137cd6c55eb7da0cc7cc15243a029e0", "rental_uris": {"android": "https://dc.lft.to/lastmile_qr_scan", "ios": "https://dc.lft.to/lastmile_qr_scan"}, "lat": 38.90947166666667, "bike_id": "0137cd6c55eb7da0cc7cc15243a029e0", "is_disabled": 0, "lon": -77.02383716666667, "is_reserved": 0, "fusion_lat": 0.0, "type": "electric_scooter"}, {"fusion_lon": 0.0, "name": "467026efdb844096d8c21e69c592f77b", "rental_uris": {"android": "https://dc.lft.to/lastmile_qr_scan", "ios": "https://dc.lft.to/lastmile_qr_scan"}, "lat": 38.90081833333333, "bike_id": "467026efdb844096d8c21e69c592f77b", "is_disabled": 0, "lon": -77.0491595, "is_reserved": 0, "fusion_lat": 0.0, "type": "electric_scooter"}, {"fusion_lon": 0.0, "name": "baa1ca6342dc4183c07089f2ad4c26aa", "rental_uris": {"android": "https://dc.lft.to/lastmile_qr_scan", "ios": "https://dc.lft.to/lastmile_qr_scan"}, "lat": 38.919679333333335, "bike_id": "baa1ca6342dc4183c07089f2ad4c26aa", "is_disabled": 0, "lon": -77.02757533333333, "is_reserved": 0, "fusion_lat": 0.0, "type": "electric_scooter"}, {"fusion_lon": 0.0, "name": "50cc9ed7cc5b3d1d29982985a73df15d", "rental_uris": {"android": "https://dc.lft.to/lastmile_qr_scan", "ios": "https://dc.lft.to/lastmile_qr_scan"}, "lat": 38.901434, "bike_id": "50cc9ed7cc5b3d1d29982985a73df15d", "is_disabled": 0, "lon": -77.03373, "is_reserved": 0, "fusion_lat": 0.0, "type": "electric_scooter"}, {"fusion_lon": 0.0, "name": "b911b7e908329092e794c854c8c5c1f4", "rental_uris": {"android": "https://dc.lft.to/lastmile_qr_scan", "ios": "https://dc.lft.to/lastmile_qr_scan"}, "lat": 38.90609933333333, "bike_id": "b911b7e908329092e794c854c8c5c1f4", "is_disabled": 0, "lon": -77.034329, "is_reserved": 0, "fusion_lat": 0.0, "type": "electric_scooter"}, {"fusion_lon": 0.0, "name": "a31b3b6fd1a8adcf7e47cfb2880d46d2", "rental_uris": {"android": "https://dc.lft.to/lastmile_qr_scan", "ios": "https://dc.lft.to/lastmile_qr_scan"}, "lat": 38.91681083333334, "bike_id": "a31b3b6fd1a8adcf7e47cfb2880d46d2", "is_disabled": 0, "lon": -77.0269255, "is_reserved": 0, "fusion_lat": 0.0, "type": "electric_scooter"}, {"fusion_lon": 0.0, "name": "34d2d94d2de75b1a8507979d401bbc3c", "rental_uris": {"android": "https://dc.lft.to/lastmile_qr_scan", "ios": "https://dc.lft.to/lastmile_qr_scan"}, "lat": 38.92496716666667, "bike_id": "34d2d94d2de75b1a8507979d401bbc3c", "is_disabled": 0, "lon": -77.02392183333333, "is_reserved": 0, "fusion_lat": 0.0, "type": "electric_scooter"}, {"fusion_lon": 0.0, "name": "c5ab69a885e1da0303ff0812df0b98cb", "rental_uris": {"android": "https://dc.lft.to/lastmile_qr_scan", "ios": "https://dc.lft.to/lastmile_qr_scan"}, "lat": 38.92248633333333, "bike_id": "c5ab69a885e1da0303ff0812df0b98cb", "is_disabled": 0, "lon": -77.03700133333334, "is_reserved": 0, "fusion_lat": 0.0, "type": "electric_scooter"}, {"fusion_lon": 0.0, "name": "9efd56a84c538df0217c78d31f58bba6", "rental_uris": {"android": "https://dc.lft.to/lastmile_qr_scan", "ios": "https://dc.lft.to/lastmile_qr_scan"}, "lat": 38.92639416666667, "bike_id": "9efd56a84c538df0217c78d31f58bba6", "is_disabled": 0, "lon": -77.03833666666667, "is_reserved": 0, "fusion_lat": 0.0, "type": "electric_scooter"}, {"fusion_lon": 0.0, "name": "75a4724af0d091d9ad48f6f82ae144d0", "rental_uris": {"android": "https://dc.lft.to/lastmile_qr_scan", "ios": "https://dc.lft.to/lastmile_qr_scan"}, "lat": 38.899123333333335, "bike_id": "75a4724af0d091d9ad48f6f82ae144d0", "is_disabled": 0, "lon": -77.032845, "is_reserved": 0, "fusion_lat": 0.0, "type": "electric_scooter"}, {"fusion_lon": 0.0, "name": "1ebb63057f0677093663e35705393c7b", "rental_uris": {"android": "https://dc.lft.to/lastmile_qr_scan", "ios": "https://dc.lft.to/lastmile_qr_scan"}, "lat": 38.94475633333333, "bike_id": "1ebb63057f0677093663e35705393c7b", "is_disabled": 0, "lon": -76.98685333333333, "is_reserved": 0, "fusion_lat": 0.0, "type": "electric_bike"}, {"fusion_lon": 0.0, "name": "9fab7b16255efa1e23880aedc3e229c5", "rental_uris": {"android": "https://dc.lft.to/lastmile_qr_scan", "ios": "https://dc.lft.to/lastmile_qr_scan"}, "lat": 38.9279025, "bike_id": "9fab7b16255efa1e23880aedc3e229c5", "is_disabled": 0, "lon": -77.03714483333333, "is_reserved": 0, "fusion_lat": 0.0, "type": "electric_scooter"}, {"fusion_lon": 0.0, "name": "e95836bb643d3662fb0ca59ff696c933", "rental_uris": {"android": "https://dc.lft.to/lastmile_qr_scan", "ios": "https://dc.lft.to/lastmile_qr_scan"}, "lat": 38.9061805, "bike_id": "e95836bb643d3662fb0ca59ff696c933", "is_disabled": 0, "lon": -77.00589366666667, "is_reserved": 0, "fusion_lat": 0.0, "type": "electric_scooter"}, {"fusion_lon": 0.0, "name": "3fe72930564ecd163c4fe21ede76146c", "rental_uris": {"android": "https://dc.lft.to/lastmile_qr_scan", "ios": "https://dc.lft.to/lastmile_qr_scan"}, "lat": 38.92859766666667, "bike_id": "3fe72930564ecd163c4fe21ede76146c", "is_disabled": 0, "lon": -77.03625016666666, "is_reserved": 0, "fusion_lat": 0.0, "type": "electric_scooter"}, {"fusion_lon": 0.0, "name": "86f4c6a508a98e41d6043cbb07406e92", "rental_uris": {"android": "https://dc.lft.to/lastmile_qr_scan", "ios": "https://dc.lft.to/lastmile_qr_scan"}, "lat": 38.99409983333334, "bike_id": "86f4c6a508a98e41d6043cbb07406e92", "is_disabled": 0, "lon": -77.01798483333333, "is_reserved": 0, "fusion_lat": 0.0, "type": "electric_bike"}, {"fusion_lon": 0.0, "name": "a4b556e597d38d15b7abd18736931db4", "rental_uris": {"android": "https://dc.lft.to/lastmile_qr_scan", "ios": "https://dc.lft.to/lastmile_qr_scan"}, "lat": 38.89046033333333, "bike_id": "a4b556e597d38d15b7abd18736931db4", "is_disabled": 0, "lon": -76.989872, "is_reserved": 0, "fusion_lat": 0.0, "type": "electric_scooter"}, {"fusion_lon": 0.0, "name": "3410bcc524225bec5d01c2a16db72df4", "rental_uris": {"android": "https://dc.lft.to/lastmile_qr_scan", "ios": "https://dc.lft.to/lastmile_qr_scan"}, "lat": 38.928841, "bike_id": "3410bcc524225bec5d01c2a16db72df4", "is_disabled": 0, "lon": -77.026064, "is_reserved": 0, "fusion_lat": 0.0, "type": "electric_scooter"}, {"fusion_lon": 0.0, "name": "a8077cb95cb6b9ad1e4e6e89c2cdefdd", "rental_uris": {"android": "https://dc.lft.to/lastmile_qr_scan", "ios": "https://dc.lft.to/lastmile_qr_scan"}, "lat": 38.90032633333333, "bike_id": "a8077cb95cb6b9ad1e4e6e89c2cdefdd", "is_disabled": 0, "lon": -76.986325, "is_reserved": 0, "fusion_lat": 0.0, "type": "electric_scooter"}, {"fusion_lon": 0.0, "name": "3c0154d07ef1789f1db351e1fe5ce61b", "rental_uris": {"android": "https://dc.lft.to/lastmile_qr_scan", "ios": "https://dc.lft.to/lastmile_qr_scan"}, "lat": 38.92607916666667, "bike_id": "3c0154d07ef1789f1db351e1fe5ce61b", "is_disabled": 0, "lon": -77.021588, "is_reserved": 0, "fusion_lat": 0.0, "type": "electric_scooter"}, {"fusion_lon": 0.0, "name": "cb1b3a5dd9771da02855879b2dd68d8f", "rental_uris": {"android": "https://dc.lft.to/lastmile_qr_scan", "ios": "https://dc.lft.to/lastmile_qr_scan"}, "lat": 38.917021166666665, "bike_id": "cb1b3a5dd9771da02855879b2dd68d8f", "is_disabled": 0, "lon": -77.0311265, "is_reserved": 0, "fusion_lat": 0.0, "type": "electric_scooter"}, {"fusion_lon": 0.0, "name": "0c98fdff5ed4fbaf6ac5cc14f51d8f26", "rental_uris": {"android": "https://dc.lft.to/lastmile_qr_scan", "ios": "https://dc.lft.to/lastmile_qr_scan"}, "lat": 38.9108715, "bike_id": "0c98fdff5ed4fbaf6ac5cc14f51d8f26", "is_disabled": 0, "lon": -77.04399966666666, "is_reserved": 0, "fusion_lat": 0.0, "type": "electric_scooter"}, {"fusion_lon": 0.0, "name": "31ccd93a1651f5ecdfe3c8bec1eb0134", "rental_uris": {"android": "https://dc.lft.to/lastmile_qr_scan", "ios": "https://dc.lft.to/lastmile_qr_scan"}, "lat": 38.8987955, "bike_id": "31ccd93a1651f5ecdfe3c8bec1eb0134", "is_disabled": 0, "lon": -76.98836916666667, "is_reserved": 0, "fusion_lat": 0.0, "type": "electric_scooter"}, {"fusion_lon": 0.0, "name": "de8e9c538d247f09fea5619c8b4bf882", "rental_uris": {"android": "https://dc.lft.to/lastmile_qr_scan", "ios": "https://dc.lft.to/lastmile_qr_scan"}, "lat": 38.90019933333333, "bike_id": "de8e9c538d247f09fea5619c8b4bf882", "is_disabled": 0, "lon": -77.00188683333333, "is_reserved": 0, "fusion_lat": 0.0, "type": "electric_scooter"}, {"fusion_lon": 0.0, "name": "17b6b2f5cbde8a3b9d5a417a6dcbec0c", "rental_uris": {"android": "https://dc.lft.to/lastmile_qr_scan", "ios": "https://dc.lft.to/lastmile_qr_scan"}, "lat": 38.875862, "bike_id": "17b6b2f5cbde8a3b9d5a417a6dcbec0c", "is_disabled": 0, "lon": -77.00576916666667, "is_reserved": 0, "fusion_lat": 0.0, "type": "electric_scooter"}, {"fusion_lon": 0.0, "name": "c8567ec7846e0871f5daf702a16f7511", "rental_uris": {"android": "https://dc.lft.to/lastmile_qr_scan", "ios": "https://dc.lft.to/lastmile_qr_scan"}, "lat": 38.900117333333334, "bike_id": "c8567ec7846e0871f5daf702a16f7511", "is_disabled": 0, "lon": -76.9302255, "is_reserved": 0, "fusion_lat": 0.0, "type": "electric_scooter"}, {"fusion_lon": 0.0, "name": "ae9cc78082ac51084129d9eb66e8c4b3", "rental_uris": {"android": "https://dc.lft.to/lastmile_qr_scan", "ios": "https://dc.lft.to/lastmile_qr_scan"}, "lat": 38.9096405, "bike_id": "ae9cc78082ac51084129d9eb66e8c4b3", "is_disabled": 0, "lon": -77.02743433333333, "is_reserved": 0, "fusion_lat": 0.0, "type": "electric_scooter"}, {"fusion_lon": 0.0, "name": "eb4111e0010b47719ea87444575fccb8", "rental_uris": {"android": "https://dc.lft.to/lastmile_qr_scan", "ios": "https://dc.lft.to/lastmile_qr_scan"}, "lat": 38.918725, "bike_id": "eb4111e0010b47719ea87444575fccb8", "is_disabled": 0, "lon": -77.02475783333334, "is_reserved": 0, "fusion_lat": 0.0, "type": "electric_scooter"}, {"fusion_lon": 0.0, "name": "694c42f7b21bd5540b33a9f1a9154eca", "rental_uris": {"android": "https://dc.lft.to/lastmile_qr_scan", "ios": "https://dc.lft.to/lastmile_qr_scan"}, "lat": 38.878787333333335, "bike_id": "694c42f7b21bd5540b33a9f1a9154eca", "is_disabled": 0, "lon": -77.02187333333333, "is_reserved": 0, "fusion_lat": 0.0, "type": "electric_scooter"}, {"fusion_lon": 0.0, "name": "ca00b3e7f338572d9c526a0516978f9a", "rental_uris": {"android": "https://dc.lft.to/lastmile_qr_scan", "ios": "https://dc.lft.to/lastmile_qr_scan"}, "lat": 38.903929166666664, "bike_id": "ca00b3e7f338572d9c526a0516978f9a", "is_disabled": 0, "lon": -76.98106066666666, "is_reserved": 0, "fusion_lat": 0.0, "type": "electric_scooter"}, {"fusion_lon": 0.0, "name": "9b1c5becd6c44979970a422102fcfc2c", "rental_uris": {"android": "https://dc.lft.to/lastmile_qr_scan", "ios": "https://dc.lft.to/lastmile_qr_scan"}, "lat": 38.893071166666665, "bike_id": "9b1c5becd6c44979970a422102fcfc2c", "is_disabled": 0, "lon": -76.9298495, "is_reserved": 0, "fusion_lat": 0.0, "type": "electric_scooter"}, {"fusion_lon": 0.0, "name": "4b9e769d43b0e80a94f75ac1a2309666", "rental_uris": {"android": "https://dc.lft.to/lastmile_qr_scan", "ios": "https://dc.lft.to/lastmile_qr_scan"}, "lat": 38.89300883333333, "bike_id": "4b9e769d43b0e80a94f75ac1a2309666", "is_disabled": 0, "lon": -77.02159516666667, "is_reserved": 0, "fusion_lat": 0.0, "type": "electric_scooter"}, {"fusion_lon": 0.0, "name": "8d8a0bf5eb680c8e73de043410e983d7", "rental_uris": {"android": "https://dc.lft.to/lastmile_qr_scan", "ios": "https://dc.lft.to/lastmile_qr_scan"}, "lat": 38.88815783333333, "bike_id": "8d8a0bf5eb680c8e73de043410e983d7", "is_disabled": 0, "lon": -76.97703066666666, "is_reserved": 0, "fusion_lat": 0.0, "type": "electric_scooter"}, {"fusion_lon": 0.0, "name": "ce275bfd312471568c50b431e0d3983c", "rental_uris": {"android": "https://dc.lft.to/lastmile_qr_scan", "ios": "https://dc.lft.to/lastmile_qr_scan"}, "lat": 38.922400333333336, "bike_id": "ce275bfd312471568c50b431e0d3983c", "is_disabled": 0, "lon": -77.04360833333334, "is_reserved": 0, "fusion_lat": 0.0, "type": "electric_scooter"}, {"fusion_lon": 0.0, "name": "3e304ef294d7b8ce067bdaadcf54735b", "rental_uris": {"android": "https://dc.lft.to/lastmile_qr_scan", "ios": "https://dc.lft.to/lastmile_qr_scan"}, "lat": 38.89496533333333, "bike_id": "3e304ef294d7b8ce067bdaadcf54735b", "is_disabled": 0, "lon": -77.002114, "is_reserved": 0, "fusion_lat": 0.0, "type": "electric_scooter"}, {"fusion_lon": 0.0, "name": "3d7b441e64893b299750e811f94b8163", "rental_uris": {"android": "https://dc.lft.to/lastmile_qr_scan", "ios": "https://dc.lft.to/lastmile_qr_scan"}, "lat": 38.936244333333335, "bike_id": "3d7b441e64893b299750e811f94b8163", "is_disabled": 0, "lon": -77.06426816666666, "is_reserved": 0, "fusion_lat": 0.0, "type": "electric_scooter"}, {"fusion_lon": 0.0, "name": "77f6390453df2b99626327cf4ce990be", "rental_uris": {"android": "https://dc.lft.to/lastmile_qr_scan", "ios": "https://dc.lft.to/lastmile_qr_scan"}, "lat": 38.914025, "bike_id": "77f6390453df2b99626327cf4ce990be", "is_disabled": 0, "lon": -77.01840583333333, "is_reserved": 0, "fusion_lat": 0.0, "type": "electric_scooter"}, {"fusion_lon": 0.0, "name": "da75837f5e4758e73fe42a533d4d8f9d", "rental_uris": {"android": "https://dc.lft.to/lastmile_qr_scan", "ios": "https://dc.lft.to/lastmile_qr_scan"}, "lat": 38.94323216666667, "bike_id": "da75837f5e4758e73fe42a533d4d8f9d", "is_disabled": 0, "lon": -77.013105, "is_reserved": 0, "fusion_lat": 0.0, "type": "electric_scooter"}, {"fusion_lon": 0.0, "name": "40fc7a13fb5c6becefdf11d8d6cae525", "rental_uris": {"android": "https://dc.lft.to/lastmile_qr_scan", "ios": "https://dc.lft.to/lastmile_qr_scan"}, "lat": 38.899612833333336, "bike_id": "40fc7a13fb5c6becefdf11d8d6cae525", "is_disabled": 0, "lon": -77.04495466666667, "is_reserved": 0, "fusion_lat": 0.0, "type": "electric_scooter"}, {"fusion_lon": 0.0, "name": "4aec568d22971c3ca37121716bc7b462", "rental_uris": {"android": "https://dc.lft.to/lastmile_qr_scan", "ios": "https://dc.lft.to/lastmile_qr_scan"}, "lat": 38.989188666666664, "bike_id": "4aec568d22971c3ca37121716bc7b462", "is_disabled": 0, "lon": -77.097828, "is_reserved": 0, "fusion_lat": 0.0, "type": "electric_bike"}, {"fusion_lon": 0.0, "name": "be6c7c748ac2c706b2ea3b23cca95ed8", "rental_uris": {"android": "https://dc.lft.to/lastmile_qr_scan", "ios": "https://dc.lft.to/lastmile_qr_scan"}, "lat": 38.92364233333333, "bike_id": "be6c7c748ac2c706b2ea3b23cca95ed8", "is_disabled": 0, "lon": -77.01916616666666, "is_reserved": 0, "fusion_lat": 0.0, "type": "electric_scooter"}, {"fusion_lon": 0.0, "name": "8978a77ad084d24550a12c3bd5ed78a3", "rental_uris": {"android": "https://dc.lft.to/lastmile_qr_scan", "ios": "https://dc.lft.to/lastmile_qr_scan"}, "lat": 38.900514333333334, "bike_id": "8978a77ad084d24550a12c3bd5ed78a3", "is_disabled": 0, "lon": -77.0447705, "is_reserved": 0, "fusion_lat": 0.0, "type": "electric_scooter"}, {"fusion_lon": 0.0, "name": "29a54e0d98b250251c67cac28009a1c4", "rental_uris": {"android": "https://dc.lft.to/lastmile_qr_scan", "ios": "https://dc.lft.to/lastmile_qr_scan"}, "lat": 38.90765433333333, "bike_id": "29a54e0d98b250251c67cac28009a1c4", "is_disabled": 0, "lon": -77.0372355, "is_reserved": 0, "fusion_lat": 0.0, "type": "electric_scooter"}, {"fusion_lon": 0.0, "name": "c5c1cca0ca6c4fe91271a1a47712beb4", "rental_uris": {"android": "https://dc.lft.to/lastmile_qr_scan", "ios": "https://dc.lft.to/lastmile_qr_scan"}, "lat": 38.91480683333333, "bike_id": "c5c1cca0ca6c4fe91271a1a47712beb4", "is_disabled": 0, "lon": -77.0182415, "is_reserved": 0, "fusion_lat": 0.0, "type": "electric_scooter"}, {"fusion_lon": 0.0, "name": "a59be7f0a7bab0313ad389a65d625db9", "rental_uris": {"android": "https://dc.lft.to/lastmile_qr_scan", "ios": "https://dc.lft.to/lastmile_qr_scan"}, "lat": 38.91548266666667, "bike_id": "a59be7f0a7bab0313ad389a65d625db9", "is_disabled": 0, "lon": -77.02237966666667, "is_reserved": 0, "fusion_lat": 0.0, "type": "electric_scooter"}, {"fusion_lon": 0.0, "name": "f9c0b2e0b9456325306d453a41ed2bfb", "rental_uris": {"android": "https://dc.lft.to/lastmile_qr_scan", "ios": "https://dc.lft.to/lastmile_qr_scan"}, "lat": 38.897258666666666, "bike_id": "f9c0b2e0b9456325306d453a41ed2bfb", "is_disabled": 0, "lon": -77.0459515, "is_reserved": 0, "fusion_lat": 0.0, "type": "electric_scooter"}, {"fusion_lon": 0.0, "name": "c2f0b0254cc5bf601686182a785b81d6", "rental_uris": {"android": "https://dc.lft.to/lastmile_qr_scan", "ios": "https://dc.lft.to/lastmile_qr_scan"}, "lat": 38.9077625, "bike_id": "c2f0b0254cc5bf601686182a785b81d6", "is_disabled": 0, "lon": -76.998564, "is_reserved": 0, "fusion_lat": 0.0, "type": "electric_scooter"}, {"fusion_lon": 0.0, "name": "eadd62bb66df4efaf2268bc484018179", "rental_uris": {"android": "https://dc.lft.to/lastmile_qr_scan", "ios": "https://dc.lft.to/lastmile_qr_scan"}, "lat": 38.917609666666664, "bike_id": "eadd62bb66df4efaf2268bc484018179", "is_disabled": 0, "lon": -77.0091985, "is_reserved": 0, "fusion_lat": 0.0, "type": "electric_scooter"}, {"fusion_lon": 0.0, "name": "0a7b0a62c941c72a4bb743ab4f7824f6", "rental_uris": {"android": "https://dc.lft.to/lastmile_qr_scan", "ios": "https://dc.lft.to/lastmile_qr_scan"}, "lat": 38.80897183333333, "bike_id": "0a7b0a62c941c72a4bb743ab4f7824f6", "is_disabled": 0, "lon": -77.11556, "is_reserved": 0, "fusion_lat": 0.0, "type": "electric_bike"}, {"fusion_lon": 0.0, "name": "6e7f41802eaa396dd1bd2d2b7196a88e", "rental_uris": {"android": "https://dc.lft.to/lastmile_qr_scan", "ios": "https://dc.lft.to/lastmile_qr_scan"}, "lat": 38.87200983333334, "bike_id": "6e7f41802eaa396dd1bd2d2b7196a88e", "is_disabled": 0, "lon": -77.00928016666667, "is_reserved": 0, "fusion_lat": 0.0, "type": "electric_scooter"}, {"fusion_lon": 0.0, "name": "69f3cf2a3e14bb981e346e97257b090d", "rental_uris": {"android": "https://dc.lft.to/lastmile_qr_scan", "ios": "https://dc.lft.to/lastmile_qr_scan"}, "lat": 38.88077883333333, "bike_id": "69f3cf2a3e14bb981e346e97257b090d", "is_disabled": 0, "lon": -76.98533766666667, "is_reserved": 0, "fusion_lat": 0.0, "type": "electric_scooter"}, {"fusion_lon": 0.0, "name": "4a022e9dc22161f5ffe4a634b5c91be1", "rental_uris": {"android": "https://dc.lft.to/lastmile_qr_scan", "ios": "https://dc.lft.to/lastmile_qr_scan"}, "lat": 38.922222166666664, "bike_id": "4a022e9dc22161f5ffe4a634b5c91be1", "is_disabled": 0, "lon": -77.04325116666666, "is_reserved": 0, "fusion_lat": 0.0, "type": "electric_scooter"}, {"fusion_lon": 0.0, "name": "fa6160a9f3762503469d46e9fa5b716e", "rental_uris": {"android": "https://dc.lft.to/lastmile_qr_scan", "ios": "https://dc.lft.to/lastmile_qr_scan"}, "lat": 38.9147405, "bike_id": "fa6160a9f3762503469d46e9fa5b716e", "is_disabled": 0, "lon": -77.04007916666667, "is_reserved": 0, "fusion_lat": 0.0, "type": "electric_scooter"}, {"fusion_lon": 0.0, "name": "f78986a1cd263b56e9ad4cd31968e6e4", "rental_uris": {"android": "https://dc.lft.to/lastmile_qr_scan", "ios": "https://dc.lft.to/lastmile_qr_scan"}, "lat": 38.92016366666667, "bike_id": "f78986a1cd263b56e9ad4cd31968e6e4", "is_disabled": 0, "lon": -76.97833983333334, "is_reserved": 0, "fusion_lat": 0.0, "type": "electric_scooter"}, {"fusion_lon": 0.0, "name": "baff7cf4feb714472e315bbf345c54b0", "rental_uris": {"android": "https://dc.lft.to/lastmile_qr_scan", "ios": "https://dc.lft.to/lastmile_qr_scan"}, "lat": 38.89885183333333, "bike_id": "baff7cf4feb714472e315bbf345c54b0", "is_disabled": 0, "lon": -77.02136033333333, "is_reserved": 0, "fusion_lat": 0.0, "type": "electric_scooter"}, {"fusion_lon": 0.0, "name": "b8a1d917a8531912b3cad139a90902a7", "rental_uris": {"android": "https://dc.lft.to/lastmile_qr_scan", "ios": "https://dc.lft.to/lastmile_qr_scan"}, "lat": 38.92056633333333, "bike_id": "b8a1d917a8531912b3cad139a90902a7", "is_disabled": 0, "lon": -77.02509, "is_reserved": 0, "fusion_lat": 0.0, "type": "electric_scooter"}, {"fusion_lon": 0.0, "name": "32f68f3479acb63a350abdfbb3284a48", "rental_uris": {"android": "https://dc.lft.to/lastmile_qr_scan", "ios": "https://dc.lft.to/lastmile_qr_scan"}, "lat": 38.90670383333333, "bike_id": "32f68f3479acb63a350abdfbb3284a48", "is_disabled": 0, "lon": -76.983745, "is_reserved": 0, "fusion_lat": 0.0, "type": "electric_scooter"}, {"fusion_lon": 0.0, "name": "4d03a2266f74cac442fc9c1c2733387f", "rental_uris": {"android": "https://dc.lft.to/lastmile_qr_scan", "ios": "https://dc.lft.to/lastmile_qr_scan"}, "lat": 38.916125, "bike_id": "4d03a2266f74cac442fc9c1c2733387f", "is_disabled": 0, "lon": -77.03193333333333, "is_reserved": 0, "fusion_lat": 0.0, "type": "electric_scooter"}, {"fusion_lon": 0.0, "name": "1328b4d4e3897dd7aa9bc7dfe4c50787", "rental_uris": {"android": "https://dc.lft.to/lastmile_qr_scan", "ios": "https://dc.lft.to/lastmile_qr_scan"}, "lat": 38.974501333333336, "bike_id": "1328b4d4e3897dd7aa9bc7dfe4c50787", "is_disabled": 0, "lon": -77.018095, "is_reserved": 0, "fusion_lat": 0.0, "type": "electric_scooter"}, {"fusion_lon": 0.0, "name": "1b44787b2eadc9d5da0cc1acbcf59f8d", "rental_uris": {"android": "https://dc.lft.to/lastmile_qr_scan", "ios": "https://dc.lft.to/lastmile_qr_scan"}, "lat": 38.875727166666664, "bike_id": "1b44787b2eadc9d5da0cc1acbcf59f8d", "is_disabled": 0, "lon": -77.00580416666666, "is_reserved": 0, "fusion_lat": 0.0, "type": "electric_scooter"}, {"fusion_lon": 0.0, "name": "7a7bb0b2c8dec784abdedd0ec9634280", "rental_uris": {"android": "https://dc.lft.to/lastmile_qr_scan", "ios": "https://dc.lft.to/lastmile_qr_scan"}, "lat": 38.90869216666667, "bike_id": "7a7bb0b2c8dec784abdedd0ec9634280", "is_disabled": 0, "lon": -77.07161533333333, "is_reserved": 0, "fusion_lat": 0.0, "type": "electric_scooter"}, {"fusion_lon": 0.0, "name": "5a3af6ef66fdde9bdf984ed1100230cd", "rental_uris": {"android": "https://dc.lft.to/lastmile_qr_scan", "ios": "https://dc.lft.to/lastmile_qr_scan"}, "lat": 38.87174516666666, "bike_id": "5a3af6ef66fdde9bdf984ed1100230cd", "is_disabled": 0, "lon": -77.23384583333333, "is_reserved": 0, "fusion_lat": 0.0, "type": "electric_bike"}, {"fusion_lon": 0.0, "name": "49758c6dbb40b463dc8874a5cef9015c", "rental_uris": {"android": "https://dc.lft.to/lastmile_qr_scan", "ios": "https://dc.lft.to/lastmile_qr_scan"}, "lat": 38.882326166666665, "bike_id": "49758c6dbb40b463dc8874a5cef9015c", "is_disabled": 0, "lon": -76.99084666666667, "is_reserved": 0, "fusion_lat": 0.0, "type": "electric_scooter"}, {"fusion_lon": 0.0, "name": "43c747641080af89c4998b1ca42eb89f", "rental_uris": {"android": "https://dc.lft.to/lastmile_qr_scan", "ios": "https://dc.lft.to/lastmile_qr_scan"}, "lat": 38.916756, "bike_id": "43c747641080af89c4998b1ca42eb89f", "is_disabled": 0, "lon": -77.03217933333333, "is_reserved": 0, "fusion_lat": 0.0, "type": "electric_scooter"}, {"fusion_lon": 0.0, "name": "76c5d2682bc68e24dbe587fdbdf6ea81", "rental_uris": {"android": "https://dc.lft.to/lastmile_qr_scan", "ios": "https://dc.lft.to/lastmile_qr_scan"}, "lat": 38.9145095, "bike_id": "76c5d2682bc68e24dbe587fdbdf6ea81", "is_disabled": 0, "lon": -77.04160816666666, "is_reserved": 0, "fusion_lat": 0.0, "type": "electric_scooter"}, {"fusion_lon": 0.0, "name": "3ee4635ee0da33a033dfe52a6d7355d6", "rental_uris": {"android": "https://dc.lft.to/lastmile_qr_scan", "ios": "https://dc.lft.to/lastmile_qr_scan"}, "lat": 38.9132485, "bike_id": "3ee4635ee0da33a033dfe52a6d7355d6", "is_disabled": 0, "lon": -77.0453615, "is_reserved": 0, "fusion_lat": 0.0, "type": "electric_scooter"}, {"fusion_lon": 0.0, "name": "3237fcef5b456e5f1448c9394c8b5bc6", "rental_uris": {"android": "https://dc.lft.to/lastmile_qr_scan", "ios": "https://dc.lft.to/lastmile_qr_scan"}, "lat": 38.92333283333333, "bike_id": "3237fcef5b456e5f1448c9394c8b5bc6", "is_disabled": 0, "lon": -77.04704083333333, "is_reserved": 0, "fusion_lat": 0.0, "type": "electric_scooter"}, {"fusion_lon": 0.0, "name": "caeaa5b46b7350f3156856ad952e977f", "rental_uris": {"android": "https://dc.lft.to/lastmile_qr_scan", "ios": "https://dc.lft.to/lastmile_qr_scan"}, "lat": 38.93045933333333, "bike_id": "caeaa5b46b7350f3156856ad952e977f", "is_disabled": 0, "lon": -76.9583325, "is_reserved": 0, "fusion_lat": 0.0, "type": "electric_scooter"}, {"fusion_lon": 0.0, "name": "dd550d59d8c25506b5ee34007953e86f", "rental_uris": {"android": "https://dc.lft.to/lastmile_qr_scan", "ios": "https://dc.lft.to/lastmile_qr_scan"}, "lat": 38.8467065, "bike_id": "dd550d59d8c25506b5ee34007953e86f", "is_disabled": 0, "lon": -77.13922533333333, "is_reserved": 0, "fusion_lat": 0.0, "type": "electric_bike"}, {"fusion_lon": 0.0, "name": "4b769d56f3318b85b1ef7fbec9729c9f", "rental_uris": {"android": "https://dc.lft.to/lastmile_qr_scan", "ios": "https://dc.lft.to/lastmile_qr_scan"}, "lat": 38.91690416666667, "bike_id": "4b769d56f3318b85b1ef7fbec9729c9f", "is_disabled": 0, "lon": -77.0384955, "is_reserved": 0, "fusion_lat": 0.0, "type": "electric_scooter"}, {"fusion_lon": 0.0, "name": "00a28c80dd8f9a64a35635102a2c9b74", "rental_uris": {"android": "https://dc.lft.to/lastmile_qr_scan", "ios": "https://dc.lft.to/lastmile_qr_scan"}, "lat": 38.90672566666667, "bike_id": "00a28c80dd8f9a64a35635102a2c9b74", "is_disabled": 0, "lon": -77.034569, "is_reserved": 0, "fusion_lat": 0.0, "type": "electric_scooter"}, {"fusion_lon": 0.0, "name": "531988aa8255579ef3f5c4079c2c5e0a", "rental_uris": {"android": "https://dc.lft.to/lastmile_qr_scan", "ios": "https://dc.lft.to/lastmile_qr_scan"}, "lat": 38.87496383333333, "bike_id": "531988aa8255579ef3f5c4079c2c5e0a", "is_disabled": 0, "lon": -76.99792366666667, "is_reserved": 0, "fusion_lat": 0.0, "type": "electric_scooter"}, {"fusion_lon": 0.0, "name": "e4786f9f95aa1ad29b49d5bf13dea9e1", "rental_uris": {"android": "https://dc.lft.to/lastmile_qr_scan", "ios": "https://dc.lft.to/lastmile_qr_scan"}, "lat": 38.9640975, "bike_id": "e4786f9f95aa1ad29b49d5bf13dea9e1", "is_disabled": 0, "lon": -77.03286916666667, "is_reserved": 0, "fusion_lat": 0.0, "type": "electric_scooter"}, {"fusion_lon": 0.0, "name": "b2ebabe96e5712a37dd82729e7a497ea", "rental_uris": {"android": "https://dc.lft.to/lastmile_qr_scan", "ios": "https://dc.lft.to/lastmile_qr_scan"}, "lat": 38.923917, "bike_id": "b2ebabe96e5712a37dd82729e7a497ea", "is_disabled": 0, "lon": -77.0340685, "is_reserved": 0, "fusion_lat": 0.0, "type": "electric_scooter"}, {"fusion_lon": 0.0, "name": "3ed804a78b4293a0dff6f731240268e3", "rental_uris": {"android": "https://dc.lft.to/lastmile_qr_scan", "ios": "https://dc.lft.to/lastmile_qr_scan"}, "lat": 38.900763833333336, "bike_id": "3ed804a78b4293a0dff6f731240268e3", "is_disabled": 0, "lon": -77.04750783333333, "is_reserved": 0, "fusion_lat": 0.0, "type": "electric_scooter"}, {"fusion_lon": 0.0, "name": "2f012adf50cb5d09c959f41c850b4cc8", "rental_uris": {"android": "https://dc.lft.to/lastmile_qr_scan", "ios": "https://dc.lft.to/lastmile_qr_scan"}, "lat": 38.90262416666667, "bike_id": "2f012adf50cb5d09c959f41c850b4cc8", "is_disabled": 0, "lon": -77.03034633333333, "is_reserved": 0, "fusion_lat": 0.0, "type": "electric_scooter"}, {"fusion_lon": 0.0, "name": "ff4b52c7ec33c95800ecd45292729892", "rental_uris": {"android": "https://dc.lft.to/lastmile_qr_scan", "ios": "https://dc.lft.to/lastmile_qr_scan"}, "lat": 38.92689033333333, "bike_id": "ff4b52c7ec33c95800ecd45292729892", "is_disabled": 0, "lon": -77.02962516666666, "is_reserved": 0, "fusion_lat": 0.0, "type": "electric_scooter"}, {"fusion_lon": 0.0, "name": "a298faba5cc46518a0612c7904782dfb", "rental_uris": {"android": "https://dc.lft.to/lastmile_qr_scan", "ios": "https://dc.lft.to/lastmile_qr_scan"}, "lat": 38.92969516666667, "bike_id": "a298faba5cc46518a0612c7904782dfb", "is_disabled": 0, "lon": -77.02336133333333, "is_reserved": 0, "fusion_lat": 0.0, "type": "electric_scooter"}, {"fusion_lon": 0.0, "name": "bef80dc0a5af2c0c8be33d2fc2fd96b4", "rental_uris": {"android": "https://dc.lft.to/lastmile_qr_scan", "ios": "https://dc.lft.to/lastmile_qr_scan"}, "lat": 38.899735666666665, "bike_id": "bef80dc0a5af2c0c8be33d2fc2fd96b4", "is_disabled": 0, "lon": -77.009303, "is_reserved": 0, "fusion_lat": 0.0, "type": "electric_scooter"}, {"fusion_lon": 0.0, "name": "490654b10f5b3146d393d705825f57a1", "rental_uris": {"android": "https://dc.lft.to/lastmile_qr_scan", "ios": "https://dc.lft.to/lastmile_qr_scan"}, "lat": 38.917052166666664, "bike_id": "490654b10f5b3146d393d705825f57a1", "is_disabled": 0, "lon": -77.037244, "is_reserved": 0, "fusion_lat": 0.0, "type": "electric_scooter"}, {"fusion_lon": 0.0, "name": "744c1c91a3ce0da7ebf287d0b65c4ab8", "rental_uris": {"android": "https://dc.lft.to/lastmile_qr_scan", "ios": "https://dc.lft.to/lastmile_qr_scan"}, "lat": 38.9038735, "bike_id": "744c1c91a3ce0da7ebf287d0b65c4ab8", "is_disabled": 0, "lon": -77.04335783333333, "is_reserved": 0, "fusion_lat": 0.0, "type": "electric_scooter"}, {"fusion_lon": 0.0, "name": "be5dca660dcd3e60516f9fb6cbcdc56e", "rental_uris": {"android": "https://dc.lft.to/lastmile_qr_scan", "ios": "https://dc.lft.to/lastmile_qr_scan"}, "lat": 38.8706125, "bike_id": "be5dca660dcd3e60516f9fb6cbcdc56e", "is_disabled": 0, "lon": -77.110398, "is_reserved": 0, "fusion_lat": 0.0, "type": "electric_bike"}, {"fusion_lon": 0.0, "name": "353c42ea9dfc89adbcae42cc5685e372", "rental_uris": {"android": "https://dc.lft.to/lastmile_qr_scan", "ios": "https://dc.lft.to/lastmile_qr_scan"}, "lat": 38.92375083333334, "bike_id": "353c42ea9dfc89adbcae42cc5685e372", "is_disabled": 0, "lon": -77.02957933333333, "is_reserved": 0, "fusion_lat": 0.0, "type": "electric_scooter"}, {"fusion_lon": 0.0, "name": "2f5be8761cce3a2d8116a1b7aab9977f", "rental_uris": {"android": "https://dc.lft.to/lastmile_qr_scan", "ios": "https://dc.lft.to/lastmile_qr_scan"}, "lat": 38.92317583333333, "bike_id": "2f5be8761cce3a2d8116a1b7aab9977f", "is_disabled": 0, "lon": -77.0290245, "is_reserved": 0, "fusion_lat": 0.0, "type": "electric_scooter"}, {"fusion_lon": 0.0, "name": "5c2669dcbff544f13ef9bfd01c320092", "rental_uris": {"android": "https://dc.lft.to/lastmile_qr_scan", "ios": "https://dc.lft.to/lastmile_qr_scan"}, "lat": 38.91977283333333, "bike_id": "5c2669dcbff544f13ef9bfd01c320092", "is_disabled": 0, "lon": -77.03259116666666, "is_reserved": 0, "fusion_lat": 0.0, "type": "electric_scooter"}, {"fusion_lon": 0.0, "name": "610bca932117c0b30c8e8f7ef6c8aa89", "rental_uris": {"android": "https://dc.lft.to/lastmile_qr_scan", "ios": "https://dc.lft.to/lastmile_qr_scan"}, "lat": 38.95376983333333, "bike_id": "610bca932117c0b30c8e8f7ef6c8aa89", "is_disabled": 0, "lon": -77.00753183333333, "is_reserved": 0, "fusion_lat": 0.0, "type": "electric_scooter"}, {"fusion_lon": 0.0, "name": "0bc0d3c61c6ac6f8879267885ad135af", "rental_uris": {"android": "https://dc.lft.to/lastmile_qr_scan", "ios": "https://dc.lft.to/lastmile_qr_scan"}, "lat": 38.89942516666667, "bike_id": "0bc0d3c61c6ac6f8879267885ad135af", "is_disabled": 0, "lon": -77.02690166666666, "is_reserved": 0, "fusion_lat": 0.0, "type": "electric_scooter"}, {"fusion_lon": 0.0, "name": "8e88192fe7a5ad2de835d37ef4d85fb9", "rental_uris": {"android": "https://dc.lft.to/lastmile_qr_scan", "ios": "https://dc.lft.to/lastmile_qr_scan"}, "lat": 38.924939333333334, "bike_id": "8e88192fe7a5ad2de835d37ef4d85fb9", "is_disabled": 0, "lon": -77.03921166666667, "is_reserved": 0, "fusion_lat": 0.0, "type": "electric_scooter"}, {"fusion_lon": 0.0, "name": "047e2a64823124d7bfe32b8030bb08fe", "rental_uris": {"android": "https://dc.lft.to/lastmile_qr_scan", "ios": "https://dc.lft.to/lastmile_qr_scan"}, "lat": 38.8867565, "bike_id": "047e2a64823124d7bfe32b8030bb08fe", "is_disabled": 0, "lon": -77.03170883333334, "is_reserved": 0, "fusion_lat": 0.0, "type": "electric_scooter"}, {"fusion_lon": 0.0, "name": "b1e2fec2c5b5646824a1c2fa68eb8a35", "rental_uris": {"android": "https://dc.lft.to/lastmile_qr_scan", "ios": "https://dc.lft.to/lastmile_qr_scan"}, "lat": 38.896408666666666, "bike_id": "b1e2fec2c5b5646824a1c2fa68eb8a35", "is_disabled": 0, "lon": -76.948017, "is_reserved": 0, "fusion_lat": 0.0, "type": "electric_scooter"}, {"fusion_lon": 0.0, "name": "b621e57771a74a0aa1babf84ed8c55b1", "rental_uris": {"android": "https://dc.lft.to/lastmile_qr_scan", "ios": "https://dc.lft.to/lastmile_qr_scan"}, "lat": 38.905603, "bike_id": "b621e57771a74a0aa1babf84ed8c55b1", "is_disabled": 0, "lon": -77.04136633333333, "is_reserved": 0, "fusion_lat": 0.0, "type": "electric_scooter"}, {"fusion_lon": 0.0, "name": "b9c9e0168e460c9c91550efc2d3bafb1", "rental_uris": {"android": "https://dc.lft.to/lastmile_qr_scan", "ios": "https://dc.lft.to/lastmile_qr_scan"}, "lat": 38.92415033333333, "bike_id": "b9c9e0168e460c9c91550efc2d3bafb1", "is_disabled": 0, "lon": -77.0354705, "is_reserved": 0, "fusion_lat": 0.0, "type": "electric_scooter"}, {"fusion_lon": 0.0, "name": "78eba5088b407fc385005a39e7b15594", "rental_uris": {"android": "https://dc.lft.to/lastmile_qr_scan", "ios": "https://dc.lft.to/lastmile_qr_scan"}, "lat": 38.896846, "bike_id": "78eba5088b407fc385005a39e7b15594", "is_disabled": 0, "lon": -76.9277995, "is_reserved": 0, "fusion_lat": 0.0, "type": "electric_scooter"}, {"fusion_lon": 0.0, "name": "7461d3b3027688d061a7b8c342fef407", "rental_uris": {"android": "https://dc.lft.to/lastmile_qr_scan", "ios": "https://dc.lft.to/lastmile_qr_scan"}, "lat": 38.91787033333333, "bike_id": "7461d3b3027688d061a7b8c342fef407", "is_disabled": 0, "lon": -77.03188233333333, "is_reserved": 0, "fusion_lat": 0.0, "type": "electric_scooter"}, {"fusion_lon": 0.0, "name": "5eeadc16246dc65c1f975fbdcab0c3e5", "rental_uris": {"android": "https://dc.lft.to/lastmile_qr_scan", "ios": "https://dc.lft.to/lastmile_qr_scan"}, "lat": 38.838088, "bike_id": "5eeadc16246dc65c1f975fbdcab0c3e5", "is_disabled": 0, "lon": -77.09522966666667, "is_reserved": 0, "fusion_lat": 0.0, "type": "electric_bike"}, {"fusion_lon": 0.0, "name": "58ebe962e5e1d48a6d67c29f7fa14cc7", "rental_uris": {"android": "https://dc.lft.to/lastmile_qr_scan", "ios": "https://dc.lft.to/lastmile_qr_scan"},