{"data": {"bikes": [{"type": "electric_scooter", "bike_id": "67974f2ea0c491907508745f29618c1b", "is_disabled": 0, "name": "67974f2ea0c491907508745f29618c1b", "lon": -77.02979166666667, "is_reserved": 0, "fusion_lon": 0.0, "lat": 38.897624, "rental_uris": {"android": "https://dc.lft.to/lastmile_qr_scan", "ios": "https://dc.lft.to/lastmile_qr_scan"}, "fusion_lat": 0.0}, {"type": "electric_scooter", "bike_id": "cd50679a3b396b901cf0e6afe79c8239", "is_disabled": 0, "name": "cd50679a3b396b901cf0e6afe79c8239", "lon": -77.01817983333333, "is_reserved": 0, "fusion_lon": 0.0, "lat": 38.914099666666665, "rental_uris": {"android": "https://dc.lft.to/lastmile_qr_scan", "ios": "https://dc.lft.to/lastmile_qr_scan"}, "fusion_lat": 0.0}, {"type": "electric_scooter", "bike_id": "073703cab0ef26c1a75c081b11c70109", "is_disabled": 0, "name": "073703cab0ef26c1a75c081b11c70109", "lon": -77.02892016666667, "is_reserved": 0, "fusion_lon": 0.0, "lat": 38.93609716666667, "rental_uris": {"android": "https://dc.lft.to/lastmile_qr_scan", "ios": "https://dc.lft.to/lastmile_qr_scan"}, "fusion_lat": 0.0}, {"type": "electric_scooter", "bike_id": "37a87c5263aa0b9c88944302a05ba64b", "is_disabled": 0, "name": "37a87c5263aa0b9c88944302a05ba64b", "lon": -77.03270616666667, "is_reserved": 0, "fusion_lon": 0.0, "lat": 38.935045, "rental_uris": {"android": "https://dc.lft.to/lastmile_qr_scan", "ios": "https://dc.lft.to/lastmile_qr_scan"}, "fusion_lat": 0.0}, {"type": "electric_scooter", "bike_id": "86bfba14ffcfdb2e9ae106fe037ea17d", "is_disabled": 0, "name": "86bfba14ffcfdb2e9ae106fe037ea17d", "lon": -77.01077766666667, "is_reserved": 0, "fusion_lon": 0.0, "lat": 38.903178, "rental_uris": {"android": "https://dc.lft.to/lastmile_qr_scan", "ios": "https://dc.lft.to/lastmile_qr_scan"}, "fusion_lat": 0.0}, {"type": "electric_scooter", "bike_id": "e3648003ac59824655ea988390ee3fbb", "is_disabled": 0, "name": "e3648003ac59824655ea988390ee3fbb", "lon": -77.03626983333334, "is_reserved": 0, "fusion_lon": 0.0, "lat": 38.90343383333333, "rental_uris": {"android": "https://dc.lft.to/lastmile_qr_scan", "ios": "https://dc.lft.to/lastmile_qr_scan"}, "fusion_lat": 0.0}, {"type": "electric_scooter", "bike_id": "1d0fd18f98883fe25c49777234791143", "is_disabled": 0, "name": "1d0fd18f98883fe25c49777234791143", "lon": -77.01627683333334, "is_reserved": 0, "fusion_lon": 0.0, "lat": 38.887354, "rental_uris": {"android": "https://dc.lft.to/lastmile_qr_scan", "ios": "https://dc.lft.to/lastmile_qr_scan"}, "fusion_lat": 0.0}, {"type": "electric_scooter", "bike_id": "10a9d2ec8c54aaef4e572c0ddd9e9bc6", "is_disabled": 0, "name": "10a9d2ec8c54aaef4e572c0ddd9e9bc6", "lon": -77.03094383333334, "is_reserved": 0, "fusion_lon": 0.0, "lat": 38.91050116666667, "rental_uris": {"android": "https://dc.lft.to/lastmile_qr_scan", "ios": "https://dc.lft.to/lastmile_qr_scan"}, "fusion_lat": 0.0}, {"type": "electric_scooter", "bike_id": "5c91eddd2c57eed91d99d78ca81422ec", "is_disabled": 0, "name": "5c91eddd2c57eed91d99d78ca81422ec", "lon": -77.0345025, "is_reserved": 0, "fusion_lon": 0.0, "lat": 38.9139135, "rental_uris": {"android": "https://dc.lft.to/lastmile_qr_scan", "ios": "https://dc.lft.to/lastmile_qr_scan"}, "fusion_lat": 0.0}, {"type": "electric_scooter", "bike_id": "2c3f10be58ea366d537c72edb767bcfe", "is_disabled": 0, "name": "2c3f10be58ea366d537c72edb767bcfe", "lon": -77.03941366666666, "is_reserved": 0, "fusion_lon": 0.0, "lat": 38.908170166666665, "rental_uris": {"android": "https://dc.lft.to/lastmile_qr_scan", "ios": "https://dc.lft.to/lastmile_qr_scan"}, "fusion_lat": 0.0}, {"type": "electric_scooter", "bike_id": "7241d673386916ddcd431ae7de8a4f7d", "is_disabled": 0, "name": "7241d673386916ddcd431ae7de8a4f7d", "lon": -77.00343866666667, "is_reserved": 0, "fusion_lon": 0.0, "lat": 38.899112333333335, "rental_uris": {"android": "https://dc.lft.to/lastmile_qr_scan", "ios": "https://dc.lft.to/lastmile_qr_scan"}, "fusion_lat": 0.0}, {"type": "electric_scooter", "bike_id": "6bee60cb73040a7cd9f74aca9a2d06a0", "is_disabled": 0, "name": "6bee60cb73040a7cd9f74aca9a2d06a0", "lon": -77.0337555, "is_reserved": 0, "fusion_lon": 0.0, "lat": 38.9004865, "rental_uris": {"android": "https://dc.lft.to/lastmile_qr_scan", "ios": "https://dc.lft.to/lastmile_qr_scan"}, "fusion_lat": 0.0}, {"type": "electric_scooter", "bike_id": "f8e63a9b88b3dc2d98c299016595188f", "is_disabled": 0, "name": "f8e63a9b88b3dc2d98c299016595188f", "lon": -76.98082683333334, "is_reserved": 0, "fusion_lon": 0.0, "lat": 38.89436166666667, "rental_uris": {"android": "https://dc.lft.to/lastmile_qr_scan", "ios": "https://dc.lft.to/lastmile_qr_scan"}, "fusion_lat": 0.0}, {"type": "electric_scooter", "bike_id": "661c7b587a889e2158a4a5e92865f9b4", "is_disabled": 0, "name": "661c7b587a889e2158a4a5e92865f9b4", "lon": -77.00917283333334, "is_reserved": 0, "fusion_lon": 0.0, "lat": 38.89548333333333, "rental_uris": {"android": "https://dc.lft.to/lastmile_qr_scan", "ios": "https://dc.lft.to/lastmile_qr_scan"}, "fusion_lat": 0.0}, {"type": "electric_scooter", "bike_id": "9f588e132e33786eba04f43b188d1ac2", "is_disabled": 0, "name": "9f588e132e33786eba04f43b188d1ac2", "lon": -77.05903566666667, "is_reserved": 0, "fusion_lon": 0.0, "lat": 38.9014285, "rental_uris": {"android": "https://dc.lft.to/lastmile_qr_scan", "ios": "https://dc.lft.to/lastmile_qr_scan"}, "fusion_lat": 0.0}, {"type": "electric_scooter", "bike_id": "8b3d8348e94574d3f2add07cefacd90c", "is_disabled": 0, "name": "8b3d8348e94574d3f2add07cefacd90c", "lon": -77.04235233333333, "is_reserved": 0, "fusion_lon": 0.0, "lat": 38.911169, "rental_uris": {"android": "https://dc.lft.to/lastmile_qr_scan", "ios": "https://dc.lft.to/lastmile_qr_scan"}, "fusion_lat": 0.0}, {"type": "electric_scooter", "bike_id": "1b0c2a63a20647524017af65a84cef5f", "is_disabled": 0, "name": "1b0c2a63a20647524017af65a84cef5f", "lon": -77.0227795, "is_reserved": 0, "fusion_lon": 0.0, "lat": 38.898513666666666, "rental_uris": {"android": "https://dc.lft.to/lastmile_qr_scan", "ios": "https://dc.lft.to/lastmile_qr_scan"}, "fusion_lat": 0.0}, {"type": "electric_scooter", "bike_id": "4fc43002b911044a8f6da96b4817194f", "is_disabled": 0, "name": "4fc43002b911044a8f6da96b4817194f", "lon": -77.0020035, "is_reserved": 0, "fusion_lon": 0.0, "lat": 38.88744033333333, "rental_uris": {"android": "https://dc.lft.to/lastmile_qr_scan", "ios": "https://dc.lft.to/lastmile_qr_scan"}, "fusion_lat": 0.0}, {"type": "electric_bike", "bike_id": "daf5ba7a83d5f1bee7e606d3c2e0ad58", "is_disabled": 0, "name": "daf5ba7a83d5f1bee7e606d3c2e0ad58", "lon": -76.9962675, "is_reserved": 0, "fusion_lon": 0.0, "lat": 38.900000166666665, "rental_uris": {"android": "https://dc.lft.to/lastmile_qr_scan", "ios": "https://dc.lft.to/lastmile_qr_scan"}, "fusion_lat": 0.0}, {"type": "electric_scooter", "bike_id": "6ab005cb1f281e6a33b7061f0966bc0f", "is_disabled": 0, "name": "6ab005cb1f281e6a33b7061f0966bc0f", "lon": -77.03282266666666, "is_reserved": 0, "fusion_lon": 0.0, "lat": 38.93633533333333, "rental_uris": {"android": "https://dc.lft.to/lastmile_qr_scan", "ios": "https://dc.lft.to/lastmile_qr_scan"}, "fusion_lat": 0.0}, {"type": "electric_scooter", "bike_id": "41a24162484cf76910d15d137822c8cd", "is_disabled": 0, "name": "41a24162484cf76910d15d137822c8cd", "lon": -77.039462, "is_reserved": 0, "fusion_lon": 0.0, "lat": 38.9084235, "rental_uris": {"android": "https://dc.lft.to/lastmile_qr_scan", "ios": "https://dc.lft.to/lastmile_qr_scan"}, "fusion_lat": 0.0}, {"type": "electric_scooter", "bike_id": "fd29338ad83206e2fabd1aea01f13ff5", "is_disabled": 0, "name": "fd29338ad83206e2fabd1aea01f13ff5", "lon": -77.01391966666667, "is_reserved": 0, "fusion_lon": 0.0, "lat": 38.914995833333336, "rental_uris": {"android": "https://dc.lft.to/lastmile_qr_scan", "ios": "https://dc.lft.to/lastmile_qr_scan"}, "fusion_lat": 0.0}, {"type": "electric_scooter", "bike_id": "35218dfe854672707e581a62d5c0f8a9", "is_disabled": 0, "name": "35218dfe854672707e581a62d5c0f8a9", "lon": -77.03967666666667, "is_reserved": 0, "fusion_lon": 0.0, "lat": 38.93153566666667, "rental_uris": {"android": "https://dc.lft.to/lastmile_qr_scan", "ios": "https://dc.lft.to/lastmile_qr_scan"}, "fusion_lat": 0.0}, {"type": "electric_scooter", "bike_id": "3f151b5b4cb758203904f0b9cba9ce5e", "is_disabled": 0, "name": "3f151b5b4cb758203904f0b9cba9ce5e", "lon": -77.03279483333333, "is_reserved": 0, "fusion_lon": 0.0, "lat": 38.8986065, "rental_uris": {"android": "https://dc.lft.to/lastmile_qr_scan", "ios": "https://dc.lft.to/lastmile_qr_scan"}, "fusion_lat": 0.0}, {"type": "electric_scooter", "bike_id": "92c649390235c477b7d57b9d491b3a32", "is_disabled": 0, "name": "92c649390235c477b7d57b9d491b3a32", "lon": -77.01956033333333, "is_reserved": 0, "fusion_lon": 0.0, "lat": 38.931953666666665, "rental_uris": {"android": "https://dc.lft.to/lastmile_qr_scan", "ios": "https://dc.lft.to/lastmile_qr_scan"}, "fusion_lat": 0.0}, {"type": "electric_scooter", "bike_id": "bd043052701d1fb34d31d175f942f8df", "is_disabled": 0, "name": "bd043052701d1fb34d31d175f942f8df", "lon": -77.02207316666667, "is_reserved": 0, "fusion_lon": 0.0, "lat": 38.902030833333335, "rental_uris": {"android": "https://dc.lft.to/lastmile_qr_scan", "ios": "https://dc.lft.to/lastmile_qr_scan"}, "fusion_lat": 0.0}, {"type": "electric_scooter", "bike_id": "825e7c855e09e45341ac564bc888a2f7", "is_disabled": 0, "name": "825e7c855e09e45341ac564bc888a2f7", "lon": -76.98081616666667, "is_reserved": 0, "fusion_lon": 0.0, "lat": 38.90413, "rental_uris": {"android": "https://dc.lft.to/lastmile_qr_scan", "ios": "https://dc.lft.to/lastmile_qr_scan"}, "fusion_lat": 0.0}, {"type": "electric_scooter", "bike_id": "23fd563b9bf98ed7bf9813636be2fd98", "is_disabled": 0, "name": "23fd563b9bf98ed7bf9813636be2fd98", "lon": -77.068342, "is_reserved": 0, "fusion_lon": 0.0, "lat": 38.917285166666666, "rental_uris": {"android": "https://dc.lft.to/lastmile_qr_scan", "ios": "https://dc.lft.to/lastmile_qr_scan"}, "fusion_lat": 0.0}, {"type": "electric_scooter", "bike_id": "2744ac483b1d9ddebf0a9e5a445c695b", "is_disabled": 0, "name": "2744ac483b1d9ddebf0a9e5a445c695b", "lon": -77.02803533333334, "is_reserved": 0, "fusion_lon": 0.0, "lat": 38.901227166666665, "rental_uris": {"android": "https://dc.lft.to/lastmile_qr_scan", "ios": "https://dc.lft.to/lastmile_qr_scan"}, "fusion_lat": 0.0}, {"type": "electric_scooter", "bike_id": "1d3ab8cd468d74169f5d686ff7c7499d", "is_disabled": 0, "name": "1d3ab8cd468d74169f5d686ff7c7499d", "lon": -77.03894466666667, "is_reserved": 0, "fusion_lon": 0.0, "lat": 38.922110833333335, "rental_uris": {"android": "https://dc.lft.to/lastmile_qr_scan", "ios": "https://dc.lft.to/lastmile_qr_scan"}, "fusion_lat": 0.0}, {"type": "electric_scooter", "bike_id": "b935333caab258e311a6ecc1376c3d92", "is_disabled": 0, "name": "b935333caab258e311a6ecc1376c3d92", "lon": -77.0610755, "is_reserved": 0, "fusion_lon": 0.0, "lat": 38.9053435, "rental_uris": {"android": "https://dc.lft.to/lastmile_qr_scan", "ios": "https://dc.lft.to/lastmile_qr_scan"}, "fusion_lat": 0.0}, {"type": "electric_scooter", "bike_id": "ee486a99137a65bb89282b1d07fb8698", "is_disabled": 0, "name": "ee486a99137a65bb89282b1d07fb8698", "lon": -77.01707616666667, "is_reserved": 0, "fusion_lon": 0.0, "lat": 38.872956333333335, "rental_uris": {"android": "https://dc.lft.to/lastmile_qr_scan", "ios": "https://dc.lft.to/lastmile_qr_scan"}, "fusion_lat": 0.0}, {"type": "electric_scooter", "bike_id": "0920eedb9acff428c268bd15194d856c", "is_disabled": 0, "name": "0920eedb9acff428c268bd15194d856c", "lon": -77.03621733333334, "is_reserved": 0, "fusion_lon": 0.0, "lat": 38.903941, "rental_uris": {"android": "https://dc.lft.to/lastmile_qr_scan", "ios": "https://dc.lft.to/lastmile_qr_scan"}, "fusion_lat": 0.0}, {"type": "electric_scooter", "bike_id": "b2490a553380e0499ff8b7c723db1aa0", "is_disabled": 0, "name": "b2490a553380e0499ff8b7c723db1aa0", "lon": -76.926341, "is_reserved": 0, "fusion_lon": 0.0, "lat": 38.88371816666667, "rental_uris": {"android": "https://dc.lft.to/lastmile_qr_scan", "ios": "https://dc.lft.to/lastmile_qr_scan"}, "fusion_lat": 0.0}, {"type": "electric_scooter", "bike_id": "07029f4f0b49b1a1477a45ae349ec783", "is_disabled": 0, "name": "07029f4f0b49b1a1477a45ae349ec783", "lon": -77.04680266666666, "is_reserved": 0, "fusion_lon": 0.0, "lat": 38.898217, "rental_uris": {"android": "https://dc.lft.to/lastmile_qr_scan", "ios": "https://dc.lft.to/lastmile_qr_scan"}, "fusion_lat": 0.0}, {"type": "electric_scooter", "bike_id": "421923b6d4734b598ce2fe16e75c0db5", "is_disabled": 0, "name": "421923b6d4734b598ce2fe16e75c0db5", "lon": -77.01617133333333, "is_reserved": 0, "fusion_lon": 0.0, "lat": 38.9130555, "rental_uris": {"android": "https://dc.lft.to/lastmile_qr_scan", "ios": "https://dc.lft.to/lastmile_qr_scan"}, "fusion_lat": 0.0}, {"type": "electric_scooter", "bike_id": "89060f5e02fb0816f99312c81c02fd88", "is_disabled": 0, "name": "89060f5e02fb0816f99312c81c02fd88", "lon": -77.052543, "is_reserved": 0, "fusion_lon": 0.0, "lat": 38.9236695, "rental_uris": {"android": "https://dc.lft.to/lastmile_qr_scan", "ios": "https://dc.lft.to/lastmile_qr_scan"}, "fusion_lat": 0.0}, {"type": "electric_scooter", "bike_id": "a055e3cf6bc21413bde66c9df89cde30", "is_disabled": 0, "name": "a055e3cf6bc21413bde66c9df89cde30", "lon": -76.92504833333334, "is_reserved": 0, "fusion_lon": 0.0, "lat": 38.886023333333334, "rental_uris": {"android": "https://dc.lft.to/lastmile_qr_scan", "ios": "https://dc.lft.to/lastmile_qr_scan"}, "fusion_lat": 0.0}, {"type": "electric_scooter", "bike_id": "03fbd58a3c1686ef3ded994efeb49f97", "is_disabled": 0, "name": "03fbd58a3c1686ef3ded994efeb49f97", "lon": -77.04687216666666, "is_reserved": 0, "fusion_lon": 0.0, "lat": 38.90576383333333, "rental_uris": {"android": "https://dc.lft.to/lastmile_qr_scan", "ios": "https://dc.lft.to/lastmile_qr_scan"}, "fusion_lat": 0.0}, {"type": "electric_scooter", "bike_id": "33fec6e15a5f52cc2fd0b5ae1c0610c4", "is_disabled": 0, "name": "33fec6e15a5f52cc2fd0b5ae1c0610c4", "lon": -77.01761383333333, "is_reserved": 0, "fusion_lon": 0.0, "lat": 38.8768115, "rental_uris": {"android": "https://dc.lft.to/lastmile_qr_scan", "ios": "https://dc.lft.to/lastmile_qr_scan"}, "fusion_lat": 0.0}, {"type": "electric_scooter", "bike_id": "00420c4e56a728d92bfe7beeb1cb08b2", "is_disabled": 0, "name": "00420c4e56a728d92bfe7beeb1cb08b2", "lon": -77.0221145, "is_reserved": 0, "fusion_lon": 0.0, "lat": 38.88731816666667, "rental_uris": {"android": "https://dc.lft.to/lastmile_qr_scan", "ios": "https://dc.lft.to/lastmile_qr_scan"}, "fusion_lat": 0.0}, {"type": "electric_scooter", "bike_id": "9701e34016cd2134e35ce8b36b055b7d", "is_disabled": 0, "name": "9701e34016cd2134e35ce8b36b055b7d", "lon": -77.01097366666667, "is_reserved": 0, "fusion_lon": 0.0, "lat": 38.908514833333335, "rental_uris": {"android": "https://dc.lft.to/lastmile_qr_scan", "ios": "https://dc.lft.to/lastmile_qr_scan"}, "fusion_lat": 0.0}, {"type": "electric_scooter", "bike_id": "4a1dfd3a25363c68cfe81106a51e7bcd", "is_disabled": 0, "name": "4a1dfd3a25363c68cfe81106a51e7bcd", "lon": -77.02662833333333, "is_reserved": 0, "fusion_lon": 0.0, "lat": 38.92221083333333, "rental_uris": {"android": "https://dc.lft.to/lastmile_qr_scan", "ios": "https://dc.lft.to/lastmile_qr_scan"}, "fusion_lat": 0.0}, {"type": "electric_scooter", "bike_id": "4295435a5f4fdf8c48d35f4e74901865", "is_disabled": 0, "name": "4295435a5f4fdf8c48d35f4e74901865", "lon": -77.0447765, "is_reserved": 0, "fusion_lon": 0.0, "lat": 38.91173883333333, "rental_uris": {"android": "https://dc.lft.to/lastmile_qr_scan", "ios": "https://dc.lft.to/lastmile_qr_scan"}, "fusion_lat": 0.0}, {"type": "electric_scooter", "bike_id": "e41f7f1722f9038e80da7a10c4672d50", "is_disabled": 0, "name": "e41f7f1722f9038e80da7a10c4672d50", "lon": -76.99080716666667, "is_reserved": 0, "fusion_lon": 0.0, "lat": 38.855597833333334, "rental_uris": {"android": "https://dc.lft.to/lastmile_qr_scan", "ios": "https://dc.lft.to/lastmile_qr_scan"}, "fusion_lat": 0.0}, {"type": "electric_scooter", "bike_id": "85128d1b88f1e81a5cc92d66d58a08f6", "is_disabled": 0, "name": "85128d1b88f1e81a5cc92d66d58a08f6", "lon": -77.02181533333334, "is_reserved": 0, "fusion_lon": 0.0, "lat": 38.8922965, "rental_uris": {"android": "https://dc.lft.to/lastmile_qr_scan", "ios": "https://dc.lft.to/lastmile_qr_scan"}, "fusion_lat": 0.0}, {"type": "electric_bike", "bike_id": "2293aa375b7b7d33ff25c389aa3b1458", "is_disabled": 0, "name": "2293aa375b7b7d33ff25c389aa3b1458", "lon": -77.054689, "is_reserved": 0, "fusion_lon": 0.0, "lat": 38.864776166666665, "rental_uris": {"android": "https://dc.lft.to/lastmile_qr_scan", "ios": "https://dc.lft.to/lastmile_qr_scan"}, "fusion_lat": 0.0}, {"type": "electric_scooter", "bike_id": "c4de7244a02163eada14dd3dcf9a809f", "is_disabled": 0, "name": "c4de7244a02163eada14dd3dcf9a809f", "lon": -76.9788995, "is_reserved": 0, "fusion_lon": 0.0, "lat": 38.8854325, "rental_uris": {"android": "https://dc.lft.to/lastmile_qr_scan", "ios": "https://dc.lft.to/lastmile_qr_scan"}, "fusion_lat": 0.0}, {"type": "electric_scooter", "bike_id": "a6d576593868ced4f2104d210b40da9d", "is_disabled": 0, "name": "a6d576593868ced4f2104d210b40da9d", "lon": -77.03766166666666, "is_reserved": 0, "fusion_lon": 0.0, "lat": 38.905414666666665, "rental_uris": {"android": "https://dc.lft.to/lastmile_qr_scan", "ios": "https://dc.lft.to/lastmile_qr_scan"}, "fusion_lat": 0.0}, {"type": "electric_scooter", "bike_id": "d0b67ac70a6e79c17eb9fbe534a44d5d", "is_disabled": 0, "name": "d0b67ac70a6e79c17eb9fbe534a44d5d", "lon": -77.03180566666667, "is_reserved": 0, "fusion_lon": 0.0, "lat": 38.900082, "rental_uris": {"android": "https://dc.lft.to/lastmile_qr_scan", "ios": "https://dc.lft.to/lastmile_qr_scan"}, "fusion_lat": 0.0}, {"type": "electric_scooter", "bike_id": "5de1a59b3ad7f999cd75cd648627df25", "is_disabled": 0, "name": "5de1a59b3ad7f999cd75cd648627df25", "lon": -77.03518183333334, "is_reserved": 0, "fusion_lon": 0.0, "lat": 38.92239433333334, "rental_uris": {"android": "https://dc.lft.to/lastmile_qr_scan", "ios": "https://dc.lft.to/lastmile_qr_scan"}, "fusion_lat": 0.0}, {"type": "electric_scooter", "bike_id": "1c450bd783968a99de1ce8dc9954025b", "is_disabled": 0, "name": "1c450bd783968a99de1ce8dc9954025b", "lon": -77.03837533333333, "is_reserved": 0, "fusion_lon": 0.0, "lat": 38.90796016666667, "rental_uris": {"android": "https://dc.lft.to/lastmile_qr_scan", "ios": "https://dc.lft.to/lastmile_qr_scan"}, "fusion_lat": 0.0}, {"type": "electric_scooter", "bike_id": "db0ffe4318ead83994fa8c4169e8dc02", "is_disabled": 0, "name": "db0ffe4318ead83994fa8c4169e8dc02", "lon": -76.98636816666667, "is_reserved": 0, "fusion_lon": 0.0, "lat": 38.85515183333333, "rental_uris": {"android": "https://dc.lft.to/lastmile_qr_scan", "ios": "https://dc.lft.to/lastmile_qr_scan"}, "fusion_lat": 0.0}, {"type": "electric_scooter", "bike_id": "8b687839445a320321a8d7d5e66a3d66", "is_disabled": 0, "name": "8b687839445a320321a8d7d5e66a3d66", "lon": -76.98576233333333, "is_reserved": 0, "fusion_lon": 0.0, "lat": 38.9001045, "rental_uris": {"android": "https://dc.lft.to/lastmile_qr_scan", "ios": "https://dc.lft.to/lastmile_qr_scan"}, "fusion_lat": 0.0}, {"type": "electric_scooter", "bike_id": "c9b83dd87e10b23f7f516b3eafc3c599", "is_disabled": 0, "name": "c9b83dd87e10b23f7f516b3eafc3c599", "lon": -77.03536333333334, "is_reserved": 0, "fusion_lon": 0.0, "lat": 38.92467083333333, "rental_uris": {"android": "https://dc.lft.to/lastmile_qr_scan", "ios": "https://dc.lft.to/lastmile_qr_scan"}, "fusion_lat": 0.0}, {"type": "electric_scooter", "bike_id": "1c3db3c02da41009a57f74be7aea174b", "is_disabled": 0, "name": "1c3db3c02da41009a57f74be7aea174b", "lon": -77.043905, "is_reserved": 0, "fusion_lon": 0.0, "lat": 38.9055915, "rental_uris": {"android": "https://dc.lft.to/lastmile_qr_scan", "ios": "https://dc.lft.to/lastmile_qr_scan"}, "fusion_lat": 0.0}, {"type": "electric_scooter", "bike_id": "bda213609ff2bcf13d612dd0a96a8414", "is_disabled": 0, "name": "bda213609ff2bcf13d612dd0a96a8414", "lon": -77.01998316666666, "is_reserved": 0, "fusion_lon": 0.0, "lat": 38.900513, "rental_uris": {"android": "https://dc.lft.to/lastmile_qr_scan", "ios": "https://dc.lft.to/lastmile_qr_scan"}, "fusion_lat": 0.0}, {"type": "electric_bike", "bike_id": "c293109ad1cb48a7b5401f153a3e1e0e", "is_disabled": 0, "name": "c293109ad1cb48a7b5401f153a3e1e0e", "lon": -76.99643683333333, "is_reserved": 0, "fusion_lon": 0.0, "lat": 38.898884333333335, "rental_uris": {"android": "https://dc.lft.to/lastmile_qr_scan", "ios": "https://dc.lft.to/lastmile_qr_scan"}, "fusion_lat": 0.0}, {"type": "electric_scooter", "bike_id": "2f40bfdb21c3cbb1a107f23e075b0800", "is_disabled": 0, "name": "2f40bfdb21c3cbb1a107f23e075b0800", "lon": -77.04507966666667, "is_reserved": 0, "fusion_lon": 0.0, "lat": 38.90400116666667, "rental_uris": {"android": "https://dc.lft.to/lastmile_qr_scan", "ios": "https://dc.lft.to/lastmile_qr_scan"}, "fusion_lat": 0.0}, {"type": "electric_scooter", "bike_id": "9a2b7cf9ae1c82e37ca14b3bb657ea33", "is_disabled": 0, "name": "9a2b7cf9ae1c82e37ca14b3bb657ea33", "lon": -77.03300116666666, "is_reserved": 0, "fusion_lon": 0.0, "lat": 38.92621916666667, "rental_uris": {"android": "https://dc.lft.to/lastmile_qr_scan", "ios": "https://dc.lft.to/lastmile_qr_scan"}, "fusion_lat": 0.0}, {"type": "electric_scooter", "bike_id": "5eb95dd526c64056d763b95e87afc7e9", "is_disabled": 0, "name": "5eb95dd526c64056d763b95e87afc7e9", "lon": -77.03666633333333, "is_reserved": 0, "fusion_lon": 0.0, "lat": 38.92275633333333, "rental_uris": {"android": "https://dc.lft.to/lastmile_qr_scan", "ios": "https://dc.lft.to/lastmile_qr_scan"}, "fusion_lat": 0.0}, {"type": "electric_scooter", "bike_id": "8082e2dd2f21f9c8183a694cbf7ba4ce", "is_disabled": 0, "name": "8082e2dd2f21f9c8183a694cbf7ba4ce", "lon": -77.03453283333333, "is_reserved": 0, "fusion_lon": 0.0, "lat": 38.9106875, "rental_uris": {"android": "https://dc.lft.to/lastmile_qr_scan", "ios": "https://dc.lft.to/lastmile_qr_scan"}, "fusion_lat": 0.0}, {"type": "electric_scooter", "bike_id": "50d24079b309d0bebf537b7703ed5311", "is_disabled": 0, "name": "50d24079b309d0bebf537b7703ed5311", "lon": -77.02563583333334, "is_reserved": 0, "fusion_lon": 0.0, "lat": 38.88336316666667, "rental_uris": {"android": "https://dc.lft.to/lastmile_qr_scan", "ios": "https://dc.lft.to/lastmile_qr_scan"}, "fusion_lat": 0.0}, {"type": "electric_scooter", "bike_id": "216fa3a2707d893bc7cc3282e77b64fd", "is_disabled": 0, "name": "216fa3a2707d893bc7cc3282e77b64fd", "lon": -77.0434005, "is_reserved": 0, "fusion_lon": 0.0, "lat": 38.89637916666667, "rental_uris": {"android": "https://dc.lft.to/lastmile_qr_scan", "ios": "https://dc.lft.to/lastmile_qr_scan"}, "fusion_lat": 0.0}, {"type": "electric_scooter", "bike_id": "6ab7ede11530610ac33d308aa7a263f4", "is_disabled": 0, "name": "6ab7ede11530610ac33d308aa7a263f4", "lon": -77.00338966666666, "is_reserved": 0, "fusion_lon": 0.0, "lat": 38.893601833333335, "rental_uris": {"android": "https://dc.lft.to/lastmile_qr_scan", "ios": "https://dc.lft.to/lastmile_qr_scan"}, "fusion_lat": 0.0}, {"type": "electric_scooter", "bike_id": "ecd16e0fe9e527230b7d4d8f0ac7666b", "is_disabled": 0, "name": "ecd16e0fe9e527230b7d4d8f0ac7666b", "lon": -77.0336695, "is_reserved": 0, "fusion_lon": 0.0, "lat": 38.927577, "rental_uris": {"android": "https://dc.lft.to/lastmile_qr_scan", "ios": "https://dc.lft.to/lastmile_qr_scan"}, "fusion_lat": 0.0}, {"type": "electric_bike", "bike_id": "c677d8b9c1e37d39a02dc1b6c128d62c", "is_disabled": 0, "name": "c677d8b9c1e37d39a02dc1b6c128d62c", "lon": -77.029042, "is_reserved": 0, "fusion_lon": 0.0, "lat": 38.995313333333335, "rental_uris": {"android": "https://dc.lft.to/lastmile_qr_scan", "ios": "https://dc.lft.to/lastmile_qr_scan"}, "fusion_lat": 0.0}, {"type": "electric_scooter", "bike_id": "76bc7dbd11e190c814ccd35d4ec5d45c", "is_disabled": 0, "name": "76bc7dbd11e190c814ccd35d4ec5d45c", "lon": -77.02505533333333, "is_reserved": 0, "fusion_lon": 0.0, "lat": 38.920802333333334, "rental_uris": {"android": "https://dc.lft.to/lastmile_qr_scan", "ios": "https://dc.lft.to/lastmile_qr_scan"}, "fusion_lat": 0.0}, {"type": "electric_scooter", "bike_id": "9712d69339490ceea9526de3c8b92000", "is_disabled": 0, "name": "9712d69339490ceea9526de3c8b92000", "lon": -77.04205566666667, "is_reserved": 0, "fusion_lon": 0.0, "lat": 38.9229125, "rental_uris": {"android": "https://dc.lft.to/lastmile_qr_scan", "ios": "https://dc.lft.to/lastmile_qr_scan"}, "fusion_lat": 0.0}, {"type": "electric_scooter", "bike_id": "73ff2ca232ef5f660431431950513e0f", "is_disabled": 0, "name": "73ff2ca232ef5f660431431950513e0f", "lon": -76.99844133333333, "is_reserved": 0, "fusion_lon": 0.0, "lat": 38.90644833333333, "rental_uris": {"android": "https://dc.lft.to/lastmile_qr_scan", "ios": "https://dc.lft.to/lastmile_qr_scan"}, "fusion_lat": 0.0}, {"type": "electric_scooter", "bike_id": "dbf925586767439e26dba5410fdeba48", "is_disabled": 0, "name": "dbf925586767439e26dba5410fdeba48", "lon": -77.01291483333334, "is_reserved": 0, "fusion_lon": 0.0, "lat": 38.898329, "rental_uris": {"android": "https://dc.lft.to/lastmile_qr_scan", "ios": "https://dc.lft.to/lastmile_qr_scan"}, "fusion_lat": 0.0}, {"type": "electric_scooter", "bike_id": "8abd77d4c55cb518a8302d823a847deb", "is_disabled": 0, "name": "8abd77d4c55cb518a8302d823a847deb", "lon": -77.0114715, "is_reserved": 0, "fusion_lon": 0.0, "lat": 38.9296205, "rental_uris": {"android": "https://dc.lft.to/lastmile_qr_scan", "ios": "https://dc.lft.to/lastmile_qr_scan"}, "fusion_lat": 0.0}, {"type": "electric_scooter", "bike_id": "588ff9c9601a42f88328348796acb00c", "is_disabled": 0, "name": "588ff9c9601a42f88328348796acb00c", "lon": -77.05784883333334, "is_reserved": 0, "fusion_lon": 0.0, "lat": 38.934765666666664, "rental_uris": {"android": "https://dc.lft.to/lastmile_qr_scan", "ios": "https://dc.lft.to/lastmile_qr_scan"}, "fusion_lat": 0.0}, {"type": "electric_bike", "bike_id": "5eb90f2032a6e1f49c6254e33f2d87a4", "is_disabled": 0, "name": "5eb90f2032a6e1f49c6254e33f2d87a4", "lon": -76.9029865, "is_reserved": 0, "fusion_lon": 0.0, "lat": 39.00293, "rental_uris": {"android": "https://dc.lft.to/lastmile_qr_scan", "ios": "https://dc.lft.to/lastmile_qr_scan"}, "fusion_lat": 0.0}, {"type": "electric_scooter", "bike_id": "4800a0fd6aa8958feccd266e9b76248b", "is_disabled": 0, "name": "4800a0fd6aa8958feccd266e9b76248b", "lon": -76.99411766666667, "is_reserved": 0, "fusion_lon": 0.0, "lat": 38.8779365, "rental_uris": {"android": "https://dc.lft.to/lastmile_qr_scan", "ios": "https://dc.lft.to/lastmile_qr_scan"}, "fusion_lat": 0.0}, {"type": "electric_scooter", "bike_id": "a9a45fd095acda938bffa2e8271eab3f", "is_disabled": 0, "name": "a9a45fd095acda938bffa2e8271eab3f", "lon": -77.05995033333333, "is_reserved": 0, "fusion_lon": 0.0, "lat": 38.93823783333333, "rental_uris": {"android": "https://dc.lft.to/lastmile_qr_scan", "ios": "https://dc.lft.to/lastmile_qr_scan"}, "fusion_lat": 0.0}, {"type": "electric_scooter", "bike_id": "90fc71eee0112931d0979b5c2adff85a", "is_disabled": 0, "name": "90fc71eee0112931d0979b5c2adff85a", "lon": -77.01216433333333, "is_reserved": 0, "fusion_lon": 0.0, "lat": 38.897846666666666, "rental_uris": {"android": "https://dc.lft.to/lastmile_qr_scan", "ios": "https://dc.lft.to/lastmile_qr_scan"}, "fusion_lat": 0.0}, {"type": "electric_scooter", "bike_id": "1aff206197551edd8cacb82335bffed5", "is_disabled": 0, "name": "1aff206197551edd8cacb82335bffed5", "lon": -77.0296945, "is_reserved": 0, "fusion_lon": 0.0, "lat": 38.89226216666667, "rental_uris": {"android": "https://dc.lft.to/lastmile_qr_scan", "ios": "https://dc.lft.to/lastmile_qr_scan"}, "fusion_lat": 0.0}, {"type": "electric_scooter", "bike_id": "4a585992bd13abd924819ccf74eddaed", "is_disabled": 0, "name": "4a585992bd13abd924819ccf74eddaed", "lon": -77.02969616666667, "is_reserved": 0, "fusion_lon": 0.0, "lat": 38.907160166666664, "rental_uris": {"android": "https://dc.lft.to/lastmile_qr_scan", "ios": "https://dc.lft.to/lastmile_qr_scan"}, "fusion_lat": 0.0}, {"type": "electric_scooter", "bike_id": "8100e758f0e2467a9a7bc9486ffff07b", "is_disabled": 0, "name": "8100e758f0e2467a9a7bc9486ffff07b", "lon": -77.01176133333334, "is_reserved": 0, "fusion_lon": 0.0, "lat": 38.896279666666665, "rental_uris": {"android": "https://dc.lft.to/lastmile_qr_scan", "ios": "https://dc.lft.to/lastmile_qr_scan"}, "fusion_lat": 0.0}, {"type": "electric_scooter", "bike_id": "63d4acd562badbc34a7f7a94033df0cf", "is_disabled": 0, "name": "63d4acd562badbc34a7f7a94033df0cf", "lon": -77.0410315, "is_reserved": 0, "fusion_lon": 0.0, "lat": 38.918408666666664, "rental_uris": {"android": "https://dc.lft.to/lastmile_qr_scan", "ios": "https://dc.lft.to/lastmile_qr_scan"}, "fusion_lat": 0.0}, {"type": "electric_bike", "bike_id": "a7efaa42c62a25d01640fe54394b8999", "is_disabled": 0, "name": "a7efaa42c62a25d01640fe54394b8999", "lon": -77.12741733333333, "is_reserved": 0, "fusion_lon": 0.0, "lat": 38.89561066666667, "rental_uris": {"android": "https://dc.lft.to/lastmile_qr_scan", "ios": "https://dc.lft.to/lastmile_qr_scan"}, "fusion_lat": 0.0}, {"type": "electric_scooter", "bike_id": "b793aec9f0a0e610a262154613d0cbfd", "is_disabled": 0, "name": "b793aec9f0a0e610a262154613d0cbfd", "lon": -77.02385183333334, "is_reserved": 0, "fusion_lon": 0.0, "lat": 38.89196283333333, "rental_uris": {"android": "https://dc.lft.to/lastmile_qr_scan", "ios": "https://dc.lft.to/lastmile_qr_scan"}, "fusion_lat": 0.0}, {"type": "electric_scooter", "bike_id": "cf31d9b2d1efcd4cc736d955cf419571", "is_disabled": 0, "name": "cf31d9b2d1efcd4cc736d955cf419571", "lon": -77.02540216666667, "is_reserved": 0, "fusion_lon": 0.0, "lat": 38.92099233333333, "rental_uris": {"android": "https://dc.lft.to/lastmile_qr_scan", "ios": "https://dc.lft.to/lastmile_qr_scan"}, "fusion_lat": 0.0}, {"type": "electric_bike", "bike_id": "6df2e73da705815ae39938a0620b79d4", "is_disabled": 0, "name": "6df2e73da705815ae39938a0620b79d4", "lon": -77.03878083333333, "is_reserved": 0, "fusion_lon": 0.0, "lat": 39.026221666666665, "rental_uris": {"android": "https://dc.lft.to/lastmile_qr_scan", "ios": "https://dc.lft.to/lastmile_qr_scan"}, "fusion_lat": 0.0}, {"type": "electric_scooter", "bike_id": "5390cb0945505413280fb9e66c426713", "is_disabled": 0, "name": "5390cb0945505413280fb9e66c426713", "lon": -76.94581266666667, "is_reserved": 0, "fusion_lon": 0.0, "lat": 38.899235166666664, "rental_uris": {"android": "https://dc.lft.to/lastmile_qr_scan", "ios": "https://dc.lft.to/lastmile_qr_scan"}, "fusion_lat": 0.0}, {"type": "electric_scooter", "bike_id": "016e771871ebe097faace667c26883c2", "is_disabled": 0, "name": "016e771871ebe097faace667c26883c2", "lon": -77.0038715, "is_reserved": 0, "fusion_lon": 0.0, "lat": 38.9075255, "rental_uris": {"android": "https://dc.lft.to/lastmile_qr_scan", "ios": "https://dc.lft.to/lastmile_qr_scan"}, "fusion_lat": 0.0}, {"type": "electric_scooter", "bike_id": "7e7112fea48f6ec18d63fac9a074139e", "is_disabled": 0, "name": "7e7112fea48f6ec18d63fac9a074139e", "lon": -77.058097, "is_reserved": 0, "fusion_lon": 0.0, "lat": 38.904933166666666, "rental_uris": {"android": "https://dc.lft.to/lastmile_qr_scan", "ios": "https://dc.lft.to/lastmile_qr_scan"}, "fusion_lat": 0.0}, {"type": "electric_scooter", "bike_id": "a8819055f446873405b3f2ef708b37dc", "is_disabled": 0, "name": "a8819055f446873405b3f2ef708b37dc", "lon": -76.987031, "is_reserved": 0, "fusion_lon": 0.0, "lat": 38.85965866666667, "rental_uris": {"android": "https://dc.lft.to/lastmile_qr_scan", "ios": "https://dc.lft.to/lastmile_qr_scan"}, "fusion_lat": 0.0}, {"type": "electric_scooter", "bike_id": "28b60ae4cf44fcc41254ba0cfde5a6d2", "is_disabled": 0, "name": "28b60ae4cf44fcc41254ba0cfde5a6d2", "lon": -77.04003533333334, "is_reserved": 0, "fusion_lon": 0.0, "lat": 38.899253, "rental_uris": {"android": "https://dc.lft.to/lastmile_qr_scan", "ios": "https://dc.lft.to/lastmile_qr_scan"}, "fusion_lat": 0.0}, {"type": "electric_scooter", "bike_id": "f1f382d77e0d633b25d719fb7d6ac6db", "is_disabled": 0, "name": "f1f382d77e0d633b25d719fb7d6ac6db", "lon": -77.00964633333334, "is_reserved": 0, "fusion_lon": 0.0, "lat": 38.91700766666666, "rental_uris": {"android": "https://dc.lft.to/lastmile_qr_scan", "ios": "https://dc.lft.to/lastmile_qr_scan"}, "fusion_lat": 0.0}, {"type": "electric_scooter", "bike_id": "82722ac63d55c9c57bc13f24b2827062", "is_disabled": 0, "name": "82722ac63d55c9c57bc13f24b2827062", "lon": -77.02422183333333, "is_reserved": 0, "fusion_lon": 0.0, "lat": 38.89610866666666, "rental_uris": {"android": "https://dc.lft.to/lastmile_qr_scan", "ios": "https://dc.lft.to/lastmile_qr_scan"}, "fusion_lat": 0.0}, {"type": "electric_scooter", "bike_id": "86980848e9ceeee2b30cca01ab1ac341", "is_disabled": 0, "name": "86980848e9ceeee2b30cca01ab1ac341", "lon": -77.03853833333334, "is_reserved": 0, "fusion_lon": 0.0, "lat": 38.913199666666664, "rental_uris": {"android": "https://dc.lft.to/lastmile_qr_scan", "ios": "https://dc.lft.to/lastmile_qr_scan"}, "fusion_lat": 0.0}, {"type": "electric_scooter", "bike_id": "903a106af4da0eb656f9631e0be10024", "is_disabled": 0, "name": "903a106af4da0eb656f9631e0be10024", "lon": -77.04593466666667, "is_reserved": 0, "fusion_lon": 0.0, "lat": 38.902577666666666, "rental_uris": {"android": "https://dc.lft.to/lastmile_qr_scan", "ios": "https://dc.lft.to/lastmile_qr_scan"}, "fusion_lat": 0.0}, {"type": "electric_scooter", "bike_id": "b7a37c16c25a5b1704c3585440af5559", "is_disabled": 0, "name": "b7a37c16c25a5b1704c3585440af5559", "lon": -77.04354783333334, "is_reserved": 0, "fusion_lon": 0.0, "lat": 38.90702783333333, "rental_uris": {"android": "https://dc.lft.to/lastmile_qr_scan", "ios": "https://dc.lft.to/lastmile_qr_scan"}, "fusion_lat": 0.0}, {"type": "electric_scooter", "bike_id": "e1d028ec0fe2279cfaf0d46fc1b98752", "is_disabled": 0, "name": "e1d028ec0fe2279cfaf0d46fc1b98752", "lon": -77.02224966666667, "is_reserved": 0, "fusion_lon": 0.0, "lat": 38.894822166666664, "rental_uris": {"android": "https://dc.lft.to/lastmile_qr_scan", "ios": "https://dc.lft.to/lastmile_qr_scan"}, "fusion_lat": 0.0}, {"type": "electric_scooter", "bike_id": "b0743dce5e76505ed423a74b24f4cb33", "is_disabled": 0, "name": "b0743dce5e76505ed423a74b24f4cb33", "lon": -76.95452383333334, "is_reserved": 0, "fusion_lon": 0.0, "lat": 38.8839055, "rental_uris": {"android": "https://dc.lft.to/lastmile_qr_scan", "ios": "https://dc.lft.to/lastmile_qr_scan"}, "fusion_lat": 0.0}, {"type": "electric_scooter", "bike_id": "4ddf84e8c6a827d9b63aaeab00487d60", "is_disabled": 0, "name": "4ddf84e8c6a827d9b63aaeab00487d60", "lon": -77.04252366666667, "is_reserved": 0, "fusion_lon": 0.0, "lat": 38.907409, "rental_uris": {"android": "https://dc.lft.to/lastmile_qr_scan", "ios": "https://dc.lft.to/lastmile_qr_scan"}, "fusion_lat": 0.0}, {"type": "electric_scooter", "bike_id": "04f35a3bcd350aa60d9b0f034f11408f", "is_disabled": 0, "name": "04f35a3bcd350aa60d9b0f034f11408f", "lon": -76.9960015, "is_reserved": 0, "fusion_lon": 0.0, "lat": 38.884277, "rental_uris": {"android": "https://dc.lft.to/lastmile_qr_scan", "ios": "https://dc.lft.to/lastmile_qr_scan"}, "fusion_lat": 0.0}, {"type": "electric_scooter", "bike_id": "412399841f0ee70795726f8c342b0569", "is_disabled": 0, "name": "412399841f0ee70795726f8c342b0569", "lon": -77.029929, "is_reserved": 0, "fusion_lon": 0.0, "lat": 38.9012225, "rental_uris": {"android": "https://dc.lft.to/lastmile_qr_scan", "ios": "https://dc.lft.to/lastmile_qr_scan"}, "fusion_lat": 0.0}, {"type": "electric_scooter", "bike_id": "67836c371b8917572935065465f2e51e", "is_disabled": 0, "name": "67836c371b8917572935065465f2e51e", "lon": -77.02199683333333, "is_reserved": 0, "fusion_lon": 0.0, "lat": 38.90545066666667, "rental_uris": {"android": "https://dc.lft.to/lastmile_qr_scan", "ios": "https://dc.lft.to/lastmile_qr_scan"}, "fusion_lat": 0.0}, {"type": "electric_bike", "bike_id": "fe7b4fcbe5d2379da88d0c75632dcfc8", "is_disabled": 0, "name": "fe7b4fcbe5d2379da88d0c75632dcfc8", "lon": -77.09964833333333, "is_reserved": 0, "fusion_lon": 0.0, "lat": 38.8580105, "rental_uris": {"android": "https://dc.lft.to/lastmile_qr_scan", "ios": "https://dc.lft.to/lastmile_qr_scan"}, "fusion_lat": 0.0}, {"type": "electric_scooter", "bike_id": "3e81ea7e1c3cc360d62443fbe368bb4e", "is_disabled": 0, "name": "3e81ea7e1c3cc360d62443fbe368bb4e", "lon": -77.0343815, "is_reserved": 0, "fusion_lon": 0.0, "lat": 38.90261066666667, "rental_uris": {"android": "https://dc.lft.to/lastmile_qr_scan", "ios": "https://dc.lft.to/lastmile_qr_scan"}, "fusion_lat": 0.0}, {"type": "electric_scooter", "bike_id": "fd379fc9c982d798a606c0c4f7a9d9b8", "is_disabled": 0, "name": "fd379fc9c982d798a606c0c4f7a9d9b8", "lon": -77.03568666666666, "is_reserved": 0, "fusion_lon": 0.0, "lat": 38.924727, "rental_uris": {"android": "https://dc.lft.to/lastmile_qr_scan", "ios": "https://dc.lft.to/lastmile_qr_scan"}, "fusion_lat": 0.0}, {"type": "electric_scooter", "bike_id": "cdcb70c1b6bd0b03ad46cc4551b9deeb", "is_disabled": 0, "name": "cdcb70c1b6bd0b03ad46cc4551b9deeb", "lon": -77.03377733333333, "is_reserved": 0, "fusion_lon": 0.0, "lat": 38.900283333333334, "rental_uris": {"android": "https://dc.lft.to/lastmile_qr_scan", "ios": "https://dc.lft.to/lastmile_qr_scan"}, "fusion_lat": 0.0}, {"type": "electric_scooter", "bike_id": "4b35a01c016df7b2715ecf3e7a093805", "is_disabled": 0, "name": "4b35a01c016df7b2715ecf3e7a093805", "lon": -77.03888733333334, "is_reserved": 0, "fusion_lon": 0.0, "lat": 38.90649233333333, "rental_uris": {"android": "https://dc.lft.to/lastmile_qr_scan", "ios": "https://dc.lft.to/lastmile_qr_scan"}, "fusion_lat": 0.0}, {"type": "electric_scooter", "bike_id": "5f21c9c498ab43378693b87b01dac2d4", "is_disabled": 0, "name": "5f21c9c498ab43378693b87b01dac2d4", "lon": -77.07102766666667, "is_reserved": 0, "fusion_lon": 0.0, "lat": 38.919610166666665, "rental_uris": {"android": "https://dc.lft.to/lastmile_qr_scan", "ios": "https://dc.lft.to/lastmile_qr_scan"}, "fusion_lat": 0.0}, {"type": "electric_scooter", "bike_id": "89053ec4d3b422a304a0147d8f14f57b", "is_disabled": 0, "name": "89053ec4d3b422a304a0147d8f14f57b", "lon": -76.9870365, "is_reserved": 0, "fusion_lon": 0.0, "lat": 38.88837483333333, "rental_uris": {"android": "https://dc.lft.to/lastmile_qr_scan", "ios": "https://dc.lft.to/lastmile_qr_scan"}, "fusion_lat": 0.0}, {"type": "electric_scooter", "bike_id": "cd73effa57690c4b59a184076e80a171", "is_disabled": 0, "name": "cd73effa57690c4b59a184076e80a171", "lon": -77.0281175, "is_reserved": 0, "fusion_lon": 0.0, "lat": 38.90456016666667, "rental_uris": {"android": "https://dc.lft.to/lastmile_qr_scan", "ios": "https://dc.lft.to/lastmile_qr_scan"}, "fusion_lat": 0.0}, {"type": "electric_scooter", "bike_id": "db9f707b9d618fee8b48c8ec3784d07b", "is_disabled": 0, "name": "db9f707b9d618fee8b48c8ec3784d07b", "lon": -77.01556216666667, "is_reserved": 0, "fusion_lon": 0.0, "lat": 38.92790383333333, "rental_uris": {"android": "https://dc.lft.to/lastmile_qr_scan", "ios": "https://dc.lft.to/lastmile_qr_scan"}, "fusion_lat": 0.0}, {"type": "electric_scooter", "bike_id": "af4708d30f185eda503d601772dae119", "is_disabled": 0, "name": "af4708d30f185eda503d601772dae119", "lon": -77.02271933333333, "is_reserved": 0, "fusion_lon": 0.0, "lat": 38.926891166666664, "rental_uris": {"android": "https://dc.lft.to/lastmile_qr_scan", "ios": "https://dc.lft.to/lastmile_qr_scan"}, "fusion_lat": 0.0}, {"type": "electric_scooter", "bike_id": "702c7298dd4f62918eade10679ec88ce", "is_disabled": 0, "name": "702c7298dd4f62918eade10679ec88ce", "lon": -77.02022433333333, "is_reserved": 0, "fusion_lon": 0.0, "lat": 38.924440833333335, "rental_uris": {"android": "https://dc.lft.to/lastmile_qr_scan", "ios": "https://dc.lft.to/lastmile_qr_scan"}, "fusion_lat": 0.0}, {"type": "electric_scooter", "bike_id": "41f9bb11dd6f6bac77330580fe58e39c", "is_disabled": 0, "name": "41f9bb11dd6f6bac77330580fe58e39c", "lon": -77.02580083333334, "is_reserved": 0, "fusion_lon": 0.0, "lat": 38.9252765, "rental_uris": {"android": "https://dc.lft.to/lastmile_qr_scan", "ios": "https://dc.lft.to/lastmile_qr_scan"}, "fusion_lat": 0.0}, {"type": "electric_scooter", "bike_id": "bbcef4a6ea7406e23c38fab7358adb11", "is_disabled": 0, "name": "bbcef4a6ea7406e23c38fab7358adb11", "lon": -77.03202416666667, "is_reserved": 0, "fusion_lon": 0.0, "lat": 38.917841, "rental_uris": {"android": "https://dc.lft.to/lastmile_qr_scan", "ios": "https://dc.lft.to/lastmile_qr_scan"}, "fusion_lat": 0.0}, {"type": "electric_scooter", "bike_id": "7700aff9090c3d33b53e8a7b7b407eaf", "is_disabled": 0, "name": "7700aff9090c3d33b53e8a7b7b407eaf", "lon": -77.0186855, "is_reserved": 0, "fusion_lon": 0.0, "lat": 38.951509, "rental_uris": {"android": "https://dc.lft.to/lastmile_qr_scan", "ios": "https://dc.lft.to/lastmile_qr_scan"}, "fusion_lat": 0.0}, {"type": "electric_scooter", "bike_id": "1c7a6dedbdeff458dc64d68a81dd4088", "is_disabled": 0, "name": "1c7a6dedbdeff458dc64d68a81dd4088", "lon": -77.04651116666666, "is_reserved": 0, "fusion_lon": 0.0, "lat": 38.900831, "rental_uris": {"android": "https://dc.lft.to/lastmile_qr_scan", "ios": "https://dc.lft.to/lastmile_qr_scan"}, "fusion_lat": 0.0}, {"type": "electric_scooter", "bike_id": "06b1a9121dd1f2a6a877983f6a8b9fb1", "is_disabled": 0, "name": "06b1a9121dd1f2a6a877983f6a8b9fb1", "lon": -77.00047433333333, "is_reserved": 0, "fusion_lon": 0.0, "lat": 38.90024666666667, "rental_uris": {"android": "https://dc.lft.to/lastmile_qr_scan", "ios": "https://dc.lft.to/lastmile_qr_scan"}, "fusion_lat": 0.0}, {"type": "electric_scooter", "bike_id": "a1cdf6827deefe140378f3eb2c43a50b", "is_disabled": 0, "name": "a1cdf6827deefe140378f3eb2c43a50b", "lon": -77.02213733333333, "is_reserved": 0, "fusion_lon": 0.0, "lat": 38.922003, "rental_uris": {"android": "https://dc.lft.to/lastmile_qr_scan", "ios": "https://dc.lft.to/lastmile_qr_scan"}, "fusion_lat": 0.0}, {"type": "electric_scooter", "bike_id": "85ba466ecf8194ed65f9d6bed037386a", "is_disabled": 0, "name": "85ba466ecf8194ed65f9d6bed037386a", "lon": -77.01194366666667, "is_reserved": 0, "fusion_lon": 0.0, "lat": 38.8979015, "rental_uris": {"android": "https://dc.lft.to/lastmile_qr_scan", "ios": "https://dc.lft.to/lastmile_qr_scan"}, "fusion_lat": 0.0}, {"type": "electric_bike", "bike_id": "d9232f88fa3950d8a174e7752322b45c", "is_disabled": 0, "name": "d9232f88fa3950d8a174e7752322b45c", "lon": -77.02206033333333, "is_reserved": 0, "fusion_lon": 0.0, "lat": 38.96503666666667, "rental_uris": {"android": "https://dc.lft.to/lastmile_qr_scan", "ios": "https://dc.lft.to/lastmile_qr_scan"}, "fusion_lat": 0.0}, {"type": "electric_scooter", "bike_id": "42bdca733648109ebe1a09aae585ef40", "is_disabled": 0, "name": "42bdca733648109ebe1a09aae585ef40", "lon": -77.05173783333333, "is_reserved": 0, "fusion_lon": 0.0, "lat": 38.9024315, "rental_uris": {"android": "https://dc.lft.to/lastmile_qr_scan", "ios": "https://dc.lft.to/lastmile_qr_scan"}, "fusion_lat": 0.0}, {"type": "electric_scooter", "bike_id": "74950ed5fbf1f6f0bbfcff33c064fb7e", "is_disabled": 0, "name": "74950ed5fbf1f6f0bbfcff33c064fb7e", "lon": -77.008309, "is_reserved": 0, "fusion_lon": 0.0, "lat": 38.913685, "rental_uris": {"android": "https://dc.lft.to/lastmile_qr_scan", "ios": "https://dc.lft.to/lastmile_qr_scan"}, "fusion_lat": 0.0}, {"type": "electric_scooter", "bike_id": "f069e611a4d93a1bcf671d41dd2da5ab", "is_disabled": 0, "name": "f069e611a4d93a1bcf671d41dd2da5ab", "lon": -77.0273615, "is_reserved": 0, "fusion_lon": 0.0, "lat": 38.92376466666666, "rental_uris": {"android": "https://dc.lft.to/lastmile_qr_scan", "ios": "https://dc.lft.to/lastmile_qr_scan"}, "fusion_lat": 0.0}, {"type": "electric_scooter", "bike_id": "4cc20f5d1af36557b8e037a2162ca19a", "is_disabled": 0, "name": "4cc20f5d1af36557b8e037a2162ca19a", "lon": -77.02063433333333, "is_reserved": 0, "fusion_lon": 0.0, "lat": 38.90846633333334, "rental_uris": {"android": "https://dc.lft.to/lastmile_qr_scan", "ios": "https://dc.lft.to/lastmile_qr_scan"}, "fusion_lat": 0.0}, {"type": "electric_scooter", "bike_id": "3803377d1b2ae540b74f52a0963d641d", "is_disabled": 0, "name": "3803377d1b2ae540b74f52a0963d641d", "lon": -77.02394633333333, "is_reserved": 0, "fusion_lon": 0.0, "lat": 38.91709083333333, "rental_uris": {"android": "https://dc.lft.to/lastmile_qr_scan", "ios": "https://dc.lft.to/lastmile_qr_scan"}, "fusion_lat": 0.0}, {"type": "electric_scooter", "bike_id": "c639175a8d7b1f16b683f5e8621d182e", "is_disabled": 0, "name": "c639175a8d7b1f16b683f5e8621d182e", "lon": -77.02812583333333, "is_reserved": 0, "fusion_lon": 0.0, "lat": 38.9142675, "rental_uris": {"android": "https://dc.lft.to/lastmile_qr_scan", "ios": "https://dc.lft.to/lastmile_qr_scan"}, "fusion_lat": 0.0}, {"type": "electric_scooter", "bike_id": "735c018bb0bdd43dede01c42ee2b3ea5", "is_disabled": 0, "name": "735c018bb0bdd43dede01c42ee2b3ea5", "lon": -77.04355833333334, "is_reserved": 0, "fusion_lon": 0.0, "lat": 38.9213375, "rental_uris": {"android": "https://dc.lft.to/lastmile_qr_scan", "ios": "https://dc.lft.to/lastmile_qr_scan"}, "fusion_lat": 0.0}, {"type": "electric_scooter", "bike_id": "9eb0000c838c46804d8a3ff7362ffd56", "is_disabled": 0, "name": "9eb0000c838c46804d8a3ff7362ffd56", "lon": -77.03211666666667, "is_reserved": 0, "fusion_lon": 0.0, "lat": 38.884682166666664, "rental_uris": {"android": "https://dc.lft.to/lastmile_qr_scan", "ios": "https://dc.lft.to/lastmile_qr_scan"}, "fusion_lat": 0.0}, {"type": "electric_bike", "bike_id": "cbee9edbc943e2fc5644b545cb075f96", "is_disabled": 0, "name": "cbee9edbc943e2fc5644b545cb075f96", "lon": -76.90752766666667, "is_reserved": 0, "fusion_lon": 0.0, "lat": 38.89620733333334, "rental_uris": {"android": "https://dc.lft.to/lastmile_qr_scan", "ios": "https://dc.lft.to/lastmile_qr_scan"}, "fusion_lat": 0.0}, {"type": "electric_scooter", "bike_id": "b2575e55bdf3f68219e84ed23a886ad7", "is_disabled": 0, "name": "b2575e55bdf3f68219e84ed23a886ad7", "lon": -77.02809816666667, "is_reserved": 0, "fusion_lon": 0.0, "lat": 38.930789833333336, "rental_uris": {"android": "https://dc.lft.to/lastmile_qr_scan", "ios": "https://dc.lft.to/lastmile_qr_scan"}, "fusion_lat": 0.0}, {"type": "electric_scooter", "bike_id": "3c39a114a30c9f10403a87ef4557319e", "is_disabled": 0, "name": "3c39a114a30c9f10403a87ef4557319e", "lon": -77.0053215, "is_reserved": 0, "fusion_lon": 0.0, "lat": 38.87471033333333, "rental_uris": {"android": "https://dc.lft.to/lastmile_qr_scan", "ios": "https://dc.lft.to/lastmile_qr_scan"}, "fusion_lat": 0.0}, {"type": "electric_scooter", "bike_id": "e302aa2a119f7dd7b772b13953751add", "is_disabled": 0, "name": "e302aa2a119f7dd7b772b13953751add", "lon": -77.03838616666667, "is_reserved": 0, "fusion_lon": 0.0, "lat": 38.907249166666666, "rental_uris": {"android": "https://dc.lft.to/lastmile_qr_scan", "ios": "https://dc.lft.to/lastmile_qr_scan"}, "fusion_lat": 0.0}, {"type": "electric_scooter", "bike_id": "1ffa4ccc729e1c604399cf103d7f6a9d", "is_disabled": 0, "name": "1ffa4ccc729e1c604399cf103d7f6a9d", "lon": -77.04698183333333, "is_reserved": 0, "fusion_lon": 0.0, "lat": 38.9209825, "rental_uris": {"android": "https://dc.lft.to/lastmile_qr_scan", "ios": "https://dc.lft.to/lastmile_qr_scan"}, "fusion_lat": 0.0}, {"type": "electric_scooter", "bike_id": "1b9a6381dc1c643ac3e170f178152c2f", "is_disabled": 0, "name": "1b9a6381dc1c643ac3e170f178152c2f", "lon": -77.03653483333333, "is_reserved": 0, "fusion_lon": 0.0, "lat": 38.917968333333334, "rental_uris": {"android": "https://dc.lft.to/lastmile_qr_scan", "ios": "https://dc.lft.to/lastmile_qr_scan"}, "fusion_lat": 0.0}, {"type": "electric_bike", "bike_id": "ee47163904a398767c7a666e072fd2c0", "is_disabled": 0, "name": "ee47163904a398767c7a666e072fd2c0", "lon": -77.09669216666667, "is_reserved": 0, "fusion_lon": 0.0, "lat": 38.9521815, "rental_uris": {"android": "https://dc.lft.to/lastmile_qr_scan", "ios": "https://dc.lft.to/lastmile_qr_scan"}, "fusion_lat": 0.0}, {"type": "electric_scooter", "bike_id": "59f43864dcc34fe3e20f2980fbcfc6d7", "is_disabled": 0, "name": "59f43864dcc34fe3e20f2980fbcfc6d7", "lon": -77.028109, "is_reserved": 0, "fusion_lon": 0.0, "lat": 38.91567283333333, "rental_uris": {"android": "https://dc.lft.to/lastmile_qr_scan", "ios": "https://dc.lft.to/lastmile_qr_scan"}, "fusion_lat": 0.0}, {"type": "electric_scooter", "bike_id": "024cba0271aaa5210d91099ae11b486d", "is_disabled": 0, "name": "024cba0271aaa5210d91099ae11b486d", "lon": -77.039876, "is_reserved": 0, "fusion_lon": 0.0, "lat": 38.908530166666665, "rental_uris": {"android": "https://dc.lft.to/lastmile_qr_scan", "ios": "https://dc.lft.to/lastmile_qr_scan"}, "fusion_lat": 0.0}, {"type": "electric_scooter", "bike_id": "f0b75e2a8afc2ccaa50ba6c914263000", "is_disabled": 0, "name": "f0b75e2a8afc2ccaa50ba6c914263000", "lon": -77.02811916666667, "is_reserved": 0, "fusion_lon": 0.0, "lat": 38.93085683333334, "rental_uris": {"android": "https://dc.lft.to/lastmile_qr_scan", "ios": "https://dc.lft.to/lastmile_qr_scan"}, "fusion_lat": 0.0}, {"type": "electric_scooter", "bike_id": "ae3e3f841371e22e46bc80cfee90bf4e", "is_disabled": 0, "name": "ae3e3f841371e22e46bc80cfee90bf4e", "lon": -77.03307616666666, "is_reserved": 0, "fusion_lon": 0.0, "lat": 38.911259666666666, "rental_uris": {"android": "https://dc.lft.to/lastmile_qr_scan", "ios": "https://dc.lft.to/lastmile_qr_scan"}, "fusion_lat": 0.0}, {"type": "electric_scooter", "bike_id": "c02cf5950ed61d9627328506641fb42c", "is_disabled": 0, "name": "c02cf5950ed61d9627328506641fb42c", "lon": -77.01913716666667, "is_reserved": 0, "fusion_lon": 0.0, "lat": 38.9237475, "rental_uris": {"android": "https://dc.lft.to/lastmile_qr_scan", "ios": "https://dc.lft.to/lastmile_qr_scan"}, "fusion_lat": 0.0}, {"type": "electric_scooter", "bike_id": "3824fcea4d3897c4ab4fad7031fc84d9", "is_disabled": 0, "name": "3824fcea4d3897c4ab4fad7031fc84d9", "lon": -77.0195175, "is_reserved": 0, "fusion_lon": 0.0, "lat": 38.9233065, "rental_uris": {"android": "https://dc.lft.to/lastmile_qr_scan", "ios": "https://dc.lft.to/lastmile_qr_scan"}, "fusion_lat": 0.0}, {"type": "electric_scooter", "bike_id": "034391008dda2ad09beb2ab875c05c26", "is_disabled": 0, "name": "034391008dda2ad09beb2ab875c05c26", "lon": -77.036275, "is_reserved": 0, "fusion_lon": 0.0, "lat": 38.903801, "rental_uris": {"android": "https://dc.lft.to/lastmile_qr_scan", "ios": "https://dc.lft.to/lastmile_qr_scan"}, "fusion_lat": 0.0}, {"type": "electric_scooter", "bike_id": "ab718002901370a4b918a0e28d734c7b", "is_disabled": 0, "name": "ab718002901370a4b918a0e28d734c7b", "lon": -77.01321366666667, "is_reserved": 0, "fusion_lon": 0.0, "lat": 38.89224, "rental_uris": {"android": "https://dc.lft.to/lastmile_qr_scan", "ios": "https://dc.lft.to/lastmile_qr_scan"}, "fusion_lat": 0.0}, {"type": "electric_scooter", "bike_id": "76f3b62a71e8771822d1e5c82fad33fc", "is_disabled": 0, "name": "76f3b62a71e8771822d1e5c82fad33fc", "lon": -76.98372233333333, "is_reserved": 0, "fusion_lon": 0.0, "lat": 38.892652166666664, "rental_uris": {"android": "https://dc.lft.to/lastmile_qr_scan", "ios": "https://dc.lft.to/lastmile_qr_scan"}, "fusion_lat": 0.0}, {"type": "electric_scooter", "bike_id": "a00bd78f3bc0a7c856a80d3cc96578f4", "is_disabled": 0, "name": "a00bd78f3bc0a7c856a80d3cc96578f4", "lon": -76.92955533333334, "is_reserved": 0, "fusion_lon": 0.0, "lat": 38.88445183333333, "rental_uris": {"android": "https://dc.lft.to/lastmile_qr_scan", "ios": "https://dc.lft.to/lastmile_qr_scan"}, "fusion_lat": 0.0}, {"type": "electric_bike", "bike_id": "528c70a2b2927ffeeef3e04da111231f", "is_disabled": 0, "name": "528c70a2b2927ffeeef3e04da111231f", "lon": -76.9897545, "is_reserved": 0, "fusion_lon": 0.0, "lat": 38.86698283333333, "rental_uris": {"android": "https://dc.lft.to/lastmile_qr_scan", "ios": "https://dc.lft.to/lastmile_qr_scan"}, "fusion_lat": 0.0}, {"type": "electric_scooter", "bike_id": "94cac1d165d0563a7af89cebae6404a8", "is_disabled": 0, "name": "94cac1d165d0563a7af89cebae6404a8", "lon": -76.98577833333333, "is_reserved": 0, "fusion_lon": 0.0, "lat": 38.896012, "rental_uris": {"android": "https://dc.lft.to/lastmile_qr_scan", "ios": "https://dc.lft.to/lastmile_qr_scan"}, "fusion_lat": 0.0}, {"type": "electric_scooter", "bike_id": "6711f00f0d412ac6d1ce72e458fdd087", "is_disabled": 0, "name": "6711f00f0d412ac6d1ce72e458fdd087", "lon": -77.00199233333333, "is_reserved": 0, "fusion_lon": 0.0, "lat": 38.900321, "rental_uris": {"android": "https://dc.lft.to/lastmile_qr_scan", "ios": "https://dc.lft.to/lastmile_qr_scan"}, "fusion_lat": 0.0}, {"type": "electric_scooter", "bike_id": "a882690ac911e2e57e0468ce3d7915be", "is_disabled": 0, "name": "a882690ac911e2e57e0468ce3d7915be", "lon": -77.04096383333334, "is_reserved": 0, "fusion_lon": 0.0, "lat": 38.90559183333333, "rental_uris": {"android": "https://dc.lft.to/lastmile_qr_scan", "ios": "https://dc.lft.to/lastmile_qr_scan"}, "fusion_lat": 0.0}, {"type": "electric_scooter", "bike_id": "e837066bbd12902a0bf09f6f58ddb69f", "is_disabled": 0, "name": "e837066bbd12902a0bf09f6f58ddb69f", "lon": -77.02909233333334, "is_reserved": 0, "fusion_lon": 0.0, "lat": 38.953035666666665, "rental_uris": {"android": "https://dc.lft.to/lastmile_qr_scan", "ios": "https://dc.lft.to/lastmile_qr_scan"}, "fusion_lat": 0.0}, {"type": "electric_scooter", "bike_id": "91b3a1aa9c1a50d40630d85f468632a6", "is_disabled": 0, "name": "91b3a1aa9c1a50d40630d85f468632a6", "lon": -77.01789016666666, "is_reserved": 0, "fusion_lon": 0.0, "lat": 38.91966, "rental_uris": {"android": "https://dc.lft.to/lastmile_qr_scan", "ios": "https://dc.lft.to/lastmile_qr_scan"}, "fusion_lat": 0.0}, {"type": "electric_scooter", "bike_id": "96ea4e72440de8bab0eb8b061efc2587", "is_disabled": 0, "name": "96ea4e72440de8bab0eb8b061efc2587", "lon": -77.0348505, "is_reserved": 0, "fusion_lon": 0.0, "lat": 38.902396833333334, "rental_uris": {"android": "https://dc.lft.to/lastmile_qr_scan", "ios": "https://dc.lft.to/lastmile_qr_scan"}, "fusion_lat": 0.0}, {"type": "electric_scooter", "bike_id": "a7a4bc2c5347d42fce0da6f7fb57ab86", "is_disabled": 0, "name": "a7a4bc2c5347d42fce0da6f7fb57ab86", "lon": -77.01707366666666, "is_reserved": 0, "fusion_lon": 0.0, "lat": 38.904633833333335, "rental_uris": {"android": "https://dc.lft.to/lastmile_qr_scan", "ios": "https://dc.lft.to/lastmile_qr_scan"}, "fusion_lat": 0.0}, {"type": "electric_scooter", "bike_id": "1e2522760bb95c8554ecebb233135518", "is_disabled": 0, "name": "1e2522760bb95c8554ecebb233135518", "lon": -77.025623, "is_reserved": 0, "fusion_lon": 0.0, "lat": 38.9539105, "rental_uris": {"android": "https://dc.lft.to/lastmile_qr_scan", "ios": "https://dc.lft.to/lastmile_qr_scan"}, "fusion_lat": 0.0}, {"type": "electric_scooter", "bike_id": "87f2100b8879e4fe318dbcfd32b47329", "is_disabled": 0, "name": "87f2100b8879e4fe318dbcfd32b47329", "lon": -77.07172516666667, "is_reserved": 0, "fusion_lon": 0.0, "lat": 38.90765566666666, "rental_uris": {"android": "https://dc.lft.to/lastmile_qr_scan", "ios": "https://dc.lft.to/lastmile_qr_scan"}, "fusion_lat": 0.0}, {"type": "electric_bike", "bike_id": "caeaddddde6c0212a372ba725760aaf8", "is_disabled": 0, "name": "caeaddddde6c0212a372ba725760aaf8", "lon": -76.97311266666667, "is_reserved": 0, "fusion_lon": 0.0, "lat": 38.917562833333335, "rental_uris": {"android": "https://dc.lft.to/lastmile_qr_scan", "ios": "https://dc.lft.to/lastmile_qr_scan"}, "fusion_lat": 0.0}, {"type": "electric_scooter", "bike_id": "2f30e32a04de2d91a2afb36a5347901d", "is_disabled": 0, "name": "2f30e32a04de2d91a2afb36a5347901d", "lon": -77.017768, "is_reserved": 0, "fusion_lon": 0.0, "lat": 38.921142, "rental_uris": {"android": "https://dc.lft.to/lastmile_qr_scan", "ios": "https://dc.lft.to/lastmile_qr_scan"}, "fusion_lat": 0.0}, {"type": "electric_scooter", "bike_id": "1c39a280d341755516d74aefa171b081", "is_disabled": 0, "name": "1c39a280d341755516d74aefa171b081", "lon": -77.0331495, "is_reserved": 0, "fusion_lon": 0.0, "lat": 38.9190875, "rental_uris": {"android": "https://dc.lft.to/lastmile_qr_scan", "ios": "https://dc.lft.to/lastmile_qr_scan"}, "fusion_lat": 0.0}, {"type": "electric_scooter", "bike_id": "e98098b664b1aa5653132497496813f0", "is_disabled": 0, "name": "e98098b664b1aa5653132497496813f0", "lon": -77.02395833333334, "is_reserved": 0, "fusion_lon": 0.0, "lat": 38.9207745, "rental_uris": {"android": "https://dc.lft.to/lastmile_qr_scan", "ios": "https://dc.lft.to/lastmile_qr_scan"}, "fusion_lat": 0.0}, {"type": "electric_bike", "bike_id": "13c58d72b8a7e0347accf3a7a57a70db", "is_disabled": 0, "name": "13c58d72b8a7e0347accf3a7a57a70db", "lon": -76.9608865, "is_reserved": 0, "fusion_lon": 0.0, "lat": 38.91857566666667, "rental_uris": {"android": "https://dc.lft.to/lastmile_qr_scan", "ios": "https://dc.lft.to/lastmile_qr_scan"}, "fusion_lat": 0.0}, {"type": "electric_scooter", "bike_id": "bac5f01b21e9b22a2390f890ebf7d511", "is_disabled": 0, "name": "bac5f01b21e9b22a2390f890ebf7d511", "lon": -77.0466965, "is_reserved": 0, "fusion_lon": 0.0, "lat": 38.90382283333334, "rental_uris": {"android": "https://dc.lft.to/lastmile_qr_scan", "ios": "https://dc.lft.to/lastmile_qr_scan"}, "fusion_lat": 0.0}, {"type": "electric_bike", "bike_id": "80409fb05bacea07b79e0283a614a4c2", "is_disabled": 0, "name": "80409fb05bacea07b79e0283a614a4c2", "lon": -76.91806266666667, "is_reserved": 0, "fusion_lon": 0.0, "lat": 39.00001916666667, "rental_uris": {"android": "https://dc.lft.to/lastmile_qr_scan", "ios": "https://dc.lft.to/lastmile_qr_scan"}, "fusion_lat": 0.0}, {"type": "electric_scooter", "bike_id": "baa5b839a48ba033a9193c6a8e34c1f5", "is_disabled": 0, "name": "baa5b839a48ba033a9193c6a8e34c1f5", "lon": -77.0344215, "is_reserved": 0, "fusion_lon": 0.0, "lat": 38.9179585, "rental_uris": {"android": "https://dc.lft.to/lastmile_qr_scan", "ios": "https://dc.lft.to/lastmile_qr_scan"}, "fusion_lat": 0.0}, {"type": "electric_scooter", "bike_id": "8e23b008e38b07287aca7484cbf4bf29", "is_disabled": 0, "name": "8e23b008e38b07287aca7484cbf4bf29", "lon": -76.92945716666667, "is_reserved": 0, "fusion_lon": 0.0, "lat": 38.9035255, "rental_uris": {"android": "https://dc.lft.to/lastmile_qr_scan", "ios": "https://dc.lft.to/lastmile_qr_scan"}, "fusion_lat": 0.0}, {"type": "electric_bike", "bike_id": "a137a85a2261e631479867e8d603f57c", "is_disabled": 0, "name": "a137a85a2261e631479867e8d603f57c", "lon": -77.07754716666666, "is_reserved": 0, "fusion_lon": 0.0, "lat": 38.841933166666664, "rental_uris": {"android": "https://dc.lft.to/lastmile_qr_scan", "ios": "https://dc.lft.to/lastmile_qr_scan"}, "fusion_lat": 0.0}, {"type": "electric_scooter", "bike_id": "e88dd692306230bae4de9cf48e7eff28", "is_disabled": 0, "name": "e88dd692306230bae4de9cf48e7eff28", "lon": -77.04190766666666, "is_reserved": 0, "fusion_lon": 0.0, "lat": 38.920524, "rental_uris": {"android": "https://dc.lft.to/lastmile_qr_scan", "ios": "https://dc.lft.to/lastmile_qr_scan"}, "fusion_lat": 0.0}, {"type": "electric_scooter", "bike_id": "7d56772a61beb64c3db564477e42fe71", "is_disabled": 0, "name": "7d56772a61beb64c3db564477e42fe71", "lon": -77.02109733333333, "is_reserved": 0, "fusion_lon": 0.0, "lat": 38.905969666666664, "rental_uris": {"android": "https://dc.lft.to/lastmile_qr_scan", "ios": "https://dc.lft.to/lastmile_qr_scan"}, "fusion_lat": 0.0}, {"type": "electric_scooter", "bike_id": "fe0d677876895a03e6ef4064f5f697d0", "is_disabled": 0, "name": "fe0d677876895a03e6ef4064f5f697d0", "lon": -77.0204235, "is_reserved": 0, "fusion_lon": 0.0, "lat": 38.921781333333335, "rental_uris": {"android": "https://dc.lft.to/lastmile_qr_scan", "ios": "https://dc.lft.to/lastmile_qr_scan"}, "fusion_lat": 0.0}, {"type": "electric_scooter", "bike_id": "fd7e134482c52b979296a9ea661567d9", "is_disabled": 0, "name": "fd7e134482c52b979296a9ea661567d9", "lon": -77.02613883333333, "is_reserved": 0, "fusion_lon": 0.0, "lat": 38.9040285, "rental_uris": {"android": "https://dc.lft.to/lastmile_qr_scan", "ios": "https://dc.lft.to/lastmile_qr_scan"}, "fusion_lat": 0.0}, {"type": "electric_bike", "bike_id": "337f627cd56a7a9aaa04c360b3b433f3", "is_disabled": 0, "name": "337f627cd56a7a9aaa04c360b3b433f3", "lon": -77.03260633333333, "is_reserved": 0, "fusion_lon": 0.0, "lat": 38.935190166666665, "rental_uris": {"android": "https://dc.lft.to/lastmile_qr_scan", "ios": "https://dc.lft.to/lastmile_qr_scan"}, "fusion_lat": 0.0}, {"type": "electric_scooter", "bike_id": "ff9b069be7417757015bb612157b1c02", "is_disabled": 0, "name": "ff9b069be7417757015bb612157b1c02", "lon": -77.04009233333333, "is_reserved": 0, "fusion_lon": 0.0, "lat": 38.91000433333333, "rental_uris": {"android": "https://dc.lft.to/lastmile_qr_scan", "ios": "https://dc.lft.to/lastmile_qr_scan"}, "fusion_lat": 0.0}, {"type": "electric_scooter", "bike_id": "cf4c077f1e3488a46b12cbd68d15c56e", "is_disabled": 0, "name": "cf4c077f1e3488a46b12cbd68d15c56e", "lon": -77.02152883333333, "is_reserved": 0, "fusion_lon": 0.0, "lat": 38.887463833333335, "rental_uris": {"android": "https://dc.lft.to/lastmile_qr_scan", "ios": "https://dc.lft.to/lastmile_qr_scan"}, "fusion_lat": 0.0}, {"type": "electric_scooter", "bike_id": "fdab54315cfd2eed363572ff300fbb1b", "is_disabled": 0, "name": "fdab54315cfd2eed363572ff300fbb1b", "lon": -77.075382, "is_reserved": 0, "fusion_lon": 0.0, "lat": 38.90879233333333, "rental_uris": {"android": "https://dc.lft.to/lastmile_qr_scan", "ios": "https://dc.lft.to/lastmile_qr_scan"}, "fusion_lat": 0.0}, {"type": "electric_scooter", "bike_id": "dba62e723ab82f32321659b2d79a81a6", "is_disabled": 0, "name": "dba62e723ab82f32321659b2d79a81a6", "lon": -77.03441883333333, "is_reserved": 0, "fusion_lon": 0.0, "lat": 38.902638, "rental_uris": {"android": "https://dc.lft.to/lastmile_qr_scan", "ios": "https://dc.lft.to/lastmile_qr_scan"}, "fusion_lat": 0.0}, {"type": "electric_scooter", "bike_id": "1f845b04c820fcf6fba68c96146d877b", "is_disabled": 0, "name": "1f845b04c820fcf6fba68c96146d877b", "lon": -76.99500816666666, "is_reserved": 0, "fusion_lon": 0.0, "lat": 38.86208416666667, "rental_uris": {"android": "https://dc.lft.to/lastmile_qr_scan", "ios": "https://dc.lft.to/lastmile_qr_scan"}, "fusion_lat": 0.0}, {"type": "electric_scooter", "bike_id": "28f5c0162be798fd7b373b047d6dfddb", "is_disabled": 0, "name": "28f5c0162be798fd7b373b047d6dfddb", "lon": -77.0037705, "is_reserved": 0, "fusion_lon": 0.0, "lat": 38.89738766666667, "rental_uris": {"android": "https://dc.lft.to/lastmile_qr_scan", "ios": "https://dc.lft.to/lastmile_qr_scan"}, "fusion_lat": 0.0}, {"type": "electric_scooter", "bike_id": "133d569ff0193185fd5653e510548d73", "is_disabled": 0, "name": "133d569ff0193185fd5653e510548d73", "lon": -77.02178883333333, "is_reserved": 0, "fusion_lon": 0.0, "lat": 38.903207, "rental_uris": {"android": "https://dc.lft.to/lastmile_qr_scan", "ios": "https://dc.lft.to/lastmile_qr_scan"}, "fusion_lat": 0.0}, {"type": "electric_scooter", "bike_id": "d7c8c00fcbcdcd23fb6d6d74ef55441f", "is_disabled": 0, "name": "d7c8c00fcbcdcd23fb6d6d74ef55441f", "lon": -77.029912, "is_reserved": 0, "fusion_lon": 0.0, "lat": 38.911969, "rental_uris": {"android": "https://dc.lft.to/lastmile_qr_scan", "ios": "https://dc.lft.to/lastmile_qr_scan"}, "fusion_lat": 0.0}, {"type": "electric_scooter", "bike_id": "818090d3d7389bd2e36f41e20cc3d713", "is_disabled": 0, "name": "818090d3d7389bd2e36f41e20cc3d713", "lon": -77.02504816666666, "is_reserved": 0, "fusion_lon": 0.0, "lat": 38.918083, "rental_uris": {"android": "https://dc.lft.to/lastmile_qr_scan", "ios": "https://dc.lft.to/lastmile_qr_scan"}, "fusion_lat": 0.0}, {"type": "electric_scooter", "bike_id": "05b80915910bf301061cdc82088ffead", "is_disabled": 0, "name": "05b80915910bf301061cdc82088ffead", "lon": -77.032735, "is_reserved": 0, "fusion_lon": 0.0, "lat": 38.932464333333336, "rental_uris": {"android": "https://dc.lft.to/lastmile_qr_scan", "ios": "https://dc.lft.to/lastmile_qr_scan"}, "fusion_lat": 0.0}, {"type": "electric_scooter", "bike_id": "1d0ac9321605a032054e6c50a851b012", "is_disabled": 0, "name": "1d0ac9321605a032054e6c50a851b012", "lon": -77.0413345, "is_reserved": 0, "fusion_lon": 0.0, "lat": 38.91189583333333, "rental_uris": {"android": "https://dc.lft.to/lastmile_qr_scan", "ios": "https://dc.lft.to/lastmile_qr_scan"}, "fusion_lat": 0.0}, {"type": "electric_scooter", "bike_id": "2633e47c0a891d19ca2a58add3ee5afb", "is_disabled": 0, "name": "2633e47c0a891d19ca2a58add3ee5afb", "lon": -77.0123745, "is_reserved": 0, "fusion_lon": 0.0, "lat": 38.916977333333335, "rental_uris": {"android": "https://dc.lft.to/lastmile_qr_scan", "ios": "https://dc.lft.to/lastmile_qr_scan"}, "fusion_lat": 0.0}, {"type": "electric_scooter", "bike_id": "c9bf3cbfe25e21508982aab641950ecb", "is_disabled": 0, "name": "c9bf3cbfe25e21508982aab641950ecb", "lon": -77.044024, "is_reserved": 0, "fusion_lon": 0.0, "lat": 38.901426, "rental_uris": {"android": "https://dc.lft.to/lastmile_qr_scan", "ios": "https://dc.lft.to/lastmile_qr_scan"}, "fusion_lat": 0.0}, {"type": "electric_scooter", "bike_id": "b5bd54bdd9bfe12a5ec5756c32974df8", "is_disabled": 0, "name": "b5bd54bdd9bfe12a5ec5756c32974df8", "lon": -77.04889966666667, "is_reserved": 0, "fusion_lon": 0.0, "lat": 38.900697666666666, "rental_uris": {"android": "https://dc.lft.to/lastmile_qr_scan", "ios": "https://dc.lft.to/lastmile_qr_scan"}, "fusion_lat": 0.0}, {"type": "electric_bike", "bike_id": "d2df551e66c7b2d492263f042a6190ee", "is_disabled": 0, "name": "d2df551e66c7b2d492263f042a6190ee", "lon": -77.002352, "is_reserved": 0, "fusion_lon": 0.0, "lat": 38.95204016666667, "rental_uris": {"android": "https://dc.lft.to/lastmile_qr_scan", "ios": "https://dc.lft.to/lastmile_qr_scan"}, "fusion_lat": 0.0}, {"type": "electric_scooter", "bike_id": "a0a8c1074b1e0710ae0cf6cb6f833278", "is_disabled": 0, "name": "a0a8c1074b1e0710ae0cf6cb6f833278", "lon": -77.0257305, "is_reserved": 0, "fusion_lon": 0.0, "lat": 38.9125745, "rental_uris": {"android": "https://dc.lft.to/lastmile_qr_scan", "ios": "https://dc.lft.to/lastmile_qr_scan"}, "fusion_lat": 0.0}, {"type": "electric_scooter", "bike_id": "946ce481de569553ed76bc9cd7b4e0e8", "is_disabled": 0, "name": "946ce481de569553ed76bc9cd7b4e0e8", "lon": -77.030035, "is_reserved": 0, "fusion_lon": 0.0, "lat": 38.902527166666665, "rental_uris": {"android": "https://dc.lft.to/lastmile_qr_scan", "ios": "https://dc.lft.to/lastmile_qr_scan"}, "fusion_lat": 0.0}, {"type": "electric_scooter", "bike_id": "2682d28560fd32fc7c2a9344de0ba41a", "is_disabled": 0, "name": "2682d28560fd32fc7c2a9344de0ba41a", "lon": -77.02768016666667, "is_reserved": 0, "fusion_lon": 0.0, "lat": 38.9341295, "rental_uris": {"android": "https://dc.lft.to/lastmile_qr_scan", "ios": "https://dc.lft.to/lastmile_qr_scan"}, "fusion_lat": 0.0}, {"type": "electric_scooter", "bike_id": "e352de939fa9575ea445c72dd019375c", "is_disabled": 0, "name": "e352de939fa9575ea445c72dd019375c", "lon": -77.03817766666667, "is_reserved": 0, "fusion_lon": 0.0, "lat": 38.93106083333333, "rental_uris": {"android": "https://dc.lft.to/lastmile_qr_scan", "ios": "https://dc.lft.to/lastmile_qr_scan"}, "fusion_lat": 0.0}, {"type": "electric_scooter", "bike_id": "8f6e1cee276645ef6aefbb23fdf66fd6", "is_disabled": 0, "name": "8f6e1cee276645ef6aefbb23fdf66fd6", "lon": -77.03295983333334, "is_reserved": 0, "fusion_lon": 0.0, "lat": 38.914081333333336, "rental_uris": {"android": "https://dc.lft.to/lastmile_qr_scan", "ios": "https://dc.lft.to/lastmile_qr_scan"}, "fusion_lat": 0.0}, {"type": "electric_scooter", "bike_id": "33c14bb061cafa4c660cf7801207e36a", "is_disabled": 0, "name": "33c14bb061cafa4c660cf7801207e36a", "lon": -77.006692, "is_reserved": 0, "fusion_lon": 0.0, "lat": 38.8998065, "rental_uris": {"android": "https://dc.lft.to/lastmile_qr_scan", "ios": "https://dc.lft.to/lastmile_qr_scan"}, "fusion_lat": 0.0}, {"type": "electric_scooter", "bike_id": "e0cd04ba2af1ed01e7bcdfc1ce0ff9aa", "is_disabled": 0, "name": "e0cd04ba2af1ed01e7bcdfc1ce0ff9aa", "lon": -76.96711433333333, "is_reserved": 0, "fusion_lon": 0.0, "lat": 38.859702166666665, "rental_uris": {"android": "https://dc.lft.to/lastmile_qr_scan", "ios": "https://dc.lft.to/lastmile_qr_scan"}, "fusion_lat": 0.0}, {"type": "electric_scooter", "bike_id": "c55db43b478b8669155b1aa8f39424b7", "is_disabled": 0, "name": "c55db43b478b8669155b1aa8f39424b7", "lon": -77.0248855, "is_reserved": 0, "fusion_lon": 0.0, "lat": 38.92088733333333, "rental_uris": {"android": "https://dc.lft.to/lastmile_qr_scan", "ios": "https://dc.lft.to/lastmile_qr_scan"}, "fusion_lat": 0.0}, {"type": "electric_scooter", "bike_id": "570da0a1346cb599529c52bb2ff7f299", "is_disabled": 0, "name": "570da0a1346cb599529c52bb2ff7f299", "lon": -77.03091616666667, "is_reserved": 0, "fusion_lon": 0.0, "lat": 38.895311, "rental_uris": {"android": "https://dc.lft.to/lastmile_qr_scan", "ios": "https://dc.lft.to/lastmile_qr_scan"}, "fusion_lat": 0.0}, {"type": "electric_scooter", "bike_id": "655cbe6bce5cc6dc1e86a2ad6015516a", "is_disabled": 0, "name": "655cbe6bce5cc6dc1e86a2ad6015516a", "lon": -77.01949783333333, "is_reserved": 0, "fusion_lon": 0.0, "lat": 38.924173333333336, "rental_uris": {"android": "https://dc.lft.to/lastmile_qr_scan", "ios": "https://dc.lft.to/lastmile_qr_scan"}, "fusion_lat": 0.0}, {"type": "electric_scooter", "bike_id": "f3e7654c3179d27ad71214198127f95d", "is_disabled": 0, "name": "f3e7654c3179d27ad71214198127f95d", "lon": -77.05515916666667, "is_reserved": 0, "fusion_lon": 0.0, "lat": 38.92842233333333, "rental_uris": {"android": "https://dc.lft.to/lastmile_qr_scan", "ios": "https://dc.lft.to/lastmile_qr_scan"}, "fusion_lat": 0.0}, {"type": "electric_scooter", "bike_id": "c69dd368152427d5d422a2b5f39af70d", "is_disabled": 0, "name": "c69dd368152427d5d422a2b5f39af70d", "lon": -77.03300366666667, "is_reserved": 0, "fusion_lon": 0.0, "lat": 38.937842, "rental_uris": {"android": "https://dc.lft.to/lastmile_qr_scan", "ios": "https://dc.lft.to/lastmile_qr_scan"}, "fusion_lat": 0.0}, {"type": "electric_scooter", "bike_id": "1885cd216bef61c33fe42c9ff6af1047", "is_disabled": 0, "name": "1885cd216bef61c33fe42c9ff6af1047", "lon": -77.01853166666666, "is_reserved": 0, "fusion_lon": 0.0, "lat": 38.903661666666665, "rental_uris": {"android": "https://dc.lft.to/lastmile_qr_scan", "ios": "https://dc.lft.to/lastmile_qr_scan"}, "fusion_lat": 0.0}, {"type": "electric_scooter", "bike_id": "dea62bbc14a6ebd688d9052b7986b5e7", "is_disabled": 0, "name": "dea62bbc14a6ebd688d9052b7986b5e7", "lon": -77.00288716666667, "is_reserved": 0, "fusion_lon": 0.0, "lat": 38.891926, "rental_uris": {"android": "https://dc.lft.to/lastmile_qr_scan", "ios": "https://dc.lft.to/lastmile_qr_scan"}, "fusion_lat": 0.0}, {"type": "electric_scooter", "bike_id": "cef29377a782c9828eaa39a2b55dcf8f", "is_disabled": 0, "name": "cef29377a782c9828eaa39a2b55dcf8f", "lon": -77.023369, "is_reserved": 0, "fusion_lon": 0.0, "lat": 38.922282, "rental_uris": {"android": "https://dc.lft.to/lastmile_qr_scan", "ios": "https://dc.lft.to/lastmile_qr_scan"}, "fusion_lat": 0.0}, {"type": "electric_scooter", "bike_id": "b2172e74a22295b6f9a58dd88c77f41c", "is_disabled": 0, "name": "b2172e74a22295b6f9a58dd88c77f41c", "lon": -77.04343133333333, "is_reserved": 0, "fusion_lon": 0.0, "lat": 38.896595, "rental_uris": {"android": "https://dc.lft.to/lastmile_qr_scan", "ios": "https://dc.lft.to/lastmile_qr_scan"}, "fusion_lat": 0.0}, {"type": "electric_scooter", "bike_id": "6d8748d4f1af7a3e3a8dbf9f588fba96", "is_disabled": 0, "name": "6d8748d4f1af7a3e3a8dbf9f588fba96", "lon": -77.04230583333333, "is_reserved": 0, "fusion_lon": 0.0, "lat": 38.911044, "rental_uris": {"android": "https://dc.lft.to/lastmile_qr_scan", "ios": "https://dc.lft.to/lastmile_qr_scan"}, "fusion_lat": 0.0}, {"type": "electric_scooter", "bike_id": "98edf3869de07948fd32617b3005bddd", "is_disabled": 0, "name": "98edf3869de07948fd32617b3005bddd", "lon": -77.03484683333333, "is_reserved": 0, "fusion_lon": 0.0, "lat": 38.90051583333333, "rental_uris": {"android": "https://dc.lft.to/lastmile_qr_scan", "ios": "https://dc.lft.to/lastmile_qr_scan"}, "fusion_lat": 0.0}, {"type": "electric_bike", "bike_id": "bea920ae606927d16454150d679bc7b5", "is_disabled": 0, "name": "bea920ae606927d16454150d679bc7b5", "lon": -76.91721783333334, "is_reserved": 0, "fusion_lon": 0.0, "lat": 38.88027366666667, "rental_uris": {"android": "https://dc.lft.to/lastmile_qr_scan", "ios": "https://dc.lft.to/lastmile_qr_scan"}, "fusion_lat": 0.0}, {"type": "electric_scooter", "bike_id": "a53525644aa03705b9081a9266f40bd6", "is_disabled": 0, "name": "a53525644aa03705b9081a9266f40bd6", "lon": -77.03860283333333, "is_reserved": 0, "fusion_lon": 0.0, "lat": 38.91173216666667, "rental_uris": {"android": "https://dc.lft.to/lastmile_qr_scan", "ios": "https://dc.lft.to/lastmile_qr_scan"}, "fusion_lat": 0.0}, {"type": "electric_scooter", "bike_id": "d077db150560aaa6ce6468e67ecfdb4e", "is_disabled": 0, "name": "d077db150560aaa6ce6468e67ecfdb4e", "lon": -77.0217215, "is_reserved": 0, "fusion_lon": 0.0, "lat": 38.9199275, "rental_uris": {"android": "https://dc.lft.to/lastmile_qr_scan", "ios": "https://dc.lft.to/lastmile_qr_scan"}, "fusion_lat": 0.0}, {"type": "electric_scooter", "bike_id": "31d99f2f988f8c19ed44ab320f31d03e", "is_disabled": 0, "name": "31d99f2f988f8c19ed44ab320f31d03e", "lon": -76.9977205, "is_reserved": 0, "fusion_lon": 0.0, "lat": 38.911159166666664, "rental_uris": {"android": "https://dc.lft.to/lastmile_qr_scan", "ios": "https://dc.lft.to/lastmile_qr_scan"}, "fusion_lat": 0.0}, {"type": "electric_scooter", "bike_id": "69a0810d49ba7633f0acb581c9275085", "is_disabled": 0, "name": "69a0810d49ba7633f0acb581c9275085", "lon": -77.0442425, "is_reserved": 0, "fusion_lon": 0.0, "lat": 38.90114783333333, "rental_uris": {"android": "https://dc.lft.to/lastmile_qr_scan", "ios": "https://dc.lft.to/lastmile_qr_scan"}, "fusion_lat": 0.0}, {"type": "electric_scooter", "bike_id": "5fb18d7e35c22aeb5989b32f6b9a201a", "is_disabled": 0, "name": "5fb18d7e35c22aeb5989b32f6b9a201a", "lon": -77.03191166666667, "is_reserved": 0, "fusion_lon": 0.0, "lat": 38.89242333333333, "rental_uris": {"android": "https://dc.lft.to/lastmile_qr_scan", "ios": "https://dc.lft.to/lastmile_qr_scan"}, "fusion_lat": 0.0}, {"type": "electric_scooter", "bike_id": "25d2821c9d132888a34bd1009a34d4e9", "is_disabled": 0, "name": "25d2821c9d132888a34bd1009a34d4e9", "lon": -76.98364266666667, "is_reserved": 0, "fusion_lon": 0.0, "lat": 38.92203266666667, "rental_uris": {"android": "https://dc.lft.to/lastmile_qr_scan", "ios": "https://dc.lft.to/lastmile_qr_scan"}, "fusion_lat": 0.0}, {"type": "electric_scooter", "bike_id": "041ab59f062ba2830ac4d8d97abdc7be", "is_disabled": 0, "name": "041ab59f062ba2830ac4d8d97abdc7be", "lon": -77.03216516666667, "is_reserved": 0, "fusion_lon": 0.0, "lat": 38.928681, "rental_uris": {"android": "https://dc.lft.to/lastmile_qr_scan", "ios": "https://dc.lft.to/lastmile_qr_scan"}, "fusion_lat": 0.0}, {"type": "electric_scooter", "bike_id": "89ee2f8b45dc7956001624b8f7dcc9bd", "is_disabled": 0, "name": "89ee2f8b45dc7956001624b8f7dcc9bd", "lon": -77.03288033333334, "is_reserved": 0, "fusion_lon": 0.0, "lat": 38.929169333333334, "rental_uris": {"android": "https://dc.lft.to/lastmile_qr_scan", "ios": "https://dc.lft.to/lastmile_qr_scan"}, "fusion_lat": 0.0}, {"type": "electric_scooter", "bike_id": "56112a7d487fbb84709d6b2e9172fb90", "is_disabled": 0, "name": "56112a7d487fbb84709d6b2e9172fb90", "lon": -76.93752866666667, "is_reserved": 0, "fusion_lon": 0.0, "lat": 38.89040516666667, "rental_uris": {"android": "https://dc.lft.to/lastmile_qr_scan", "ios": "https://dc.lft.to/lastmile_qr_scan"}, "fusion_lat": 0.0}, {"type": "electric_scooter", "bike_id": "70b04e68e5c1d134572e883bfe4c8cc5", "is_disabled": 0, "name": "70b04e68e5c1d134572e883bfe4c8cc5", "lon": -77.00572816666667, "is_reserved": 0, "fusion_lon": 0.0, "lat": 38.88513316666667, "rental_uris": {"android": "https://dc.lft.to/lastmile_qr_scan", "ios": "https://dc.lft.to/lastmile_qr_scan"}, "fusion_lat": 0.0}, {"type": "electric_scooter", "bike_id": "a44511d6ce5821988f0e2d08e7d3f78c", "is_disabled": 0, "name": "a44511d6ce5821988f0e2d08e7d3f78c", "lon": -77.02138933333333, "is_reserved": 0, "fusion_lon": 0.0, "lat": 38.927959333333334, "rental_uris": {"android": "https://dc.lft.to/lastmile_qr_scan", "ios": "https://dc.lft.to/lastmile_qr_scan"}, "fusion_lat": 0.0}, {"type": "electric_scooter", "bike_id": "e859ab592c9355645810a04b04642d96", "is_disabled": 0, "name": "e859ab592c9355645810a04b04642d96", "lon": -77.02196166666667, "is_reserved": 0, "fusion_lon": 0.0, "lat": 38.916429666666666, "rental_uris": {"android": "https://dc.lft.to/lastmile_qr_scan", "ios": "https://dc.lft.to/lastmile_qr_scan"}, "fusion_lat": 0.0}, {"type": "electric_scooter", "bike_id": "3403aaff78385795521d96b1f81703f0", "is_disabled": 0, "name": "3403aaff78385795521d96b1f81703f0", "lon": -76.988595, "is_reserved": 0, "fusion_lon": 0.0, "lat": 38.906978, "rental_uris": {"android": "https://dc.lft.to/lastmile_qr_scan", "ios": "https://dc.lft.to/lastmile_qr_scan"}, "fusion_lat": 0.0}, {"type": "electric_scooter", "bike_id": "ed60f76018ea6adbe478f9287cfee654", "is_disabled": 0, "name": "ed60f76018ea6adbe478f9287cfee654", "lon": -76.99887033333333, "is_reserved": 0, "fusion_lon": 0.0, "lat": 38.920564666666664, "rental_uris": {"android": "https://dc.lft.to/lastmile_qr_scan", "ios": "https://dc.lft.to/lastmile_qr_scan"}, "fusion_lat": 0.0}, {"type": "electric_scooter", "bike_id": "e0136d61b386d1e359759d9cbf516a6e", "is_disabled": 0, "name": "e0136d61b386d1e359759d9cbf516a6e", "lon": -76.97304383333334, "is_reserved": 0, "fusion_lon": 0.0, "lat": 38.919906166666664, "rental_uris": {"android": "https://dc.lft.to/lastmile_qr_scan", "ios": "https://dc.lft.to/lastmile_qr_scan"}, "fusion_lat": 0.0}, {"type": "electric_bike", "bike_id": "7fc50ed160e34b5bb7d80943a1696cab", "is_disabled": 0, "name": "7fc50ed160e34b5bb7d80943a1696cab", "lon": -77.043103, "is_reserved": 0, "fusion_lon": 0.0, "lat": 39.03424283333333, "rental_uris": {"android": "https://dc.lft.to/lastmile_qr_scan", "ios": "https://dc.lft.to/lastmile_qr_scan"}, "fusion_lat": 0.0}, {"type": "electric_scooter", "bike_id": "4f1e5ddb2bad1bb4edaf72281985ccb0", "is_disabled": 0, "name": "4f1e5ddb2bad1bb4edaf72281985ccb0", "lon": -77.019575, "is_reserved": 0, "fusion_lon": 0.0, "lat": 38.923323333333336, "rental_uris": {"android": "https://dc.lft.to/lastmile_qr_scan", "ios": "https://dc.lft.to/lastmile_qr_scan"}, "fusion_lat": 0.0}, {"type": "electric_scooter", "bike_id": "7ff7f06ae9ad4ecd5dbed2f69376abe4", "is_disabled": 0, "name": "7ff7f06ae9ad4ecd5dbed2f69376abe4", "lon": -77.02809733333333, "is_reserved": 0, "fusion_lon": 0.0, "lat": 38.9103365, "rental_uris": {"android": "https://dc.lft.to/lastmile_qr_scan", "ios": "https://dc.lft.to/lastmile_qr_scan"}, "fusion_lat": 0.0}, {"type": "electric_scooter", "bike_id": "44bb18cc9b70dd99d8a572810fa654b8", "is_disabled": 0, "name": "44bb18cc9b70dd99d8a572810fa654b8", "lon": -77.035065, "is_reserved": 0, "fusion_lon": 0.0, "lat": 38.921524, "rental_uris": {"android": "https://dc.lft.to/lastmile_qr_scan", "ios": "https://dc.lft.to/lastmile_qr_scan"}, "fusion_lat": 0.0}, {"type": "electric_scooter", "bike_id": "8cfe1f21d6616ae2621fc585ec453900", "is_disabled": 0, "name": "8cfe1f21d6616ae2621fc585ec453900", "lon": -77.02215333333334, "is_reserved": 0, "fusion_lon": 0.0, "lat": 38.893170166666664, "rental_uris": {"android": "https://dc.lft.to/lastmile_qr_scan", "ios": "https://dc.lft.to/lastmile_qr_scan"}, "fusion_lat": 0.0}, {"type": "electric_scooter", "bike_id": "2e0de73dc9d48617cfc3cea30e0f4811", "is_disabled": 0, "name": "2e0de73dc9d48617cfc3cea30e0f4811", "lon": -77.01916933333334, "is_reserved": 0, "fusion_lon": 0.0, "lat": 38.920230333333336, "rental_uris": {"android": "https://dc.lft.to/lastmile_qr_scan", "ios": "https://dc.lft.to/lastmile_qr_scan"}, "fusion_lat": 0.0}, {"type": "electric_scooter", "bike_id": "829e2be4ed4026153646406e34b681d6", "is_disabled": 0, "name": "829e2be4ed4026153646406e34b681d6", "lon": -77.0175855, "is_reserved": 0, "fusion_lon": 0.0, "lat": 38.87686933333333, "rental_uris": {"android": "https://dc.lft.to/lastmile_qr_scan", "ios": "https://dc.lft.to/lastmile_qr_scan"}, "fusion_lat": 0.0}, {"type": "electric_scooter", "bike_id": "87bfddd63ce6cd39d236aba3383d3df5", "is_disabled": 0, "name": "87bfddd63ce6cd39d236aba3383d3df5", "lon": -77.021757, "is_reserved": 0, "fusion_lon": 0.0, "lat": 38.91992533333333, "rental_uris": {"android": "https://dc.lft.to/lastmile_qr_scan", "ios": "https://dc.lft.to/lastmile_qr_scan"}, "fusion_lat": 0.0}, {"type": "electric_scooter", "bike_id": "05660911545ac344136a0337db05917b", "is_disabled": 0, "name": "05660911545ac344136a0337db05917b", "lon": -77.02803083333333, "is_reserved": 0, "fusion_lon": 0.0, "lat": 38.9072545, "rental_uris": {"android": "https://dc.lft.to/lastmile_qr_scan", "ios": "https://dc.lft.to/lastmile_qr_scan"}, "fusion_lat": 0.0}, {"type": "electric_scooter", "bike_id": "3951aa27502af039a9e26cfa6df30591", "is_disabled": 0, "name": "3951aa27502af039a9e26cfa6df30591", "lon": -77.07455216666666, "is_reserved": 0, "fusion_lon": 0.0, "lat": 38.937837333333334, "rental_uris": {"android": "https://dc.lft.to/lastmile_qr_scan", "ios": "https://dc.lft.to/lastmile_qr_scan"}, "fusion_lat": 0.0}, {"type": "electric_scooter", "bike_id": "1015a0038ce3082d0818254e84ee011d", "is_disabled": 0, "name": "1015a0038ce3082d0818254e84ee011d", "lon": -77.05312333333333, "is_reserved": 0, "fusion_lon": 0.0, "lat": 38.904532833333334, "rental_uris": {"android": "https://dc.lft.to/lastmile_qr_scan", "ios": "https://dc.lft.to/lastmile_qr_scan"}, "fusion_lat": 0.0}, {"type": "electric_scooter", "bike_id": "f913ec5db943cf2ddb4a0c9eabc47862", "is_disabled": 0, "name": "f913ec5db943cf2ddb4a0c9eabc47862", "lon": -77.04530083333333, "is_reserved": 0, "fusion_lon": 0.0, "lat": 38.903559666666666, "rental_uris": {"android": "https://dc.lft.to/lastmile_qr_scan", "ios": "https://dc.lft.to/lastmile_qr_scan"}, "fusion_lat": 0.0}, {"type": "electric_scooter", "bike_id": "8bb1437e822dc081ee4e7df3d4b59149", "is_disabled": 0, "name": "8bb1437e822dc081ee4e7df3d4b59149", "lon": -77.01999183333334, "is_reserved": 0, "fusion_lon": 0.0, "lat": 38.91174916666667, "rental_uris": {"android": "https://dc.lft.to/lastmile_qr_scan", "ios": "https://dc.lft.to/lastmile_qr_scan"}, "fusion_lat": 0.0}, {"type": "electric_scooter", "bike_id": "6263cfce00368d536635a41649ca4004", "is_disabled": 0, "name": "6263cfce00368d536635a41649ca4004", "lon": -77.076399, "is_reserved": 0, "fusion_lon": 0.0, "lat": 38.90871933333333, "rental_uris": {"android": "https://dc.lft.to/lastmile_qr_scan", "ios": "https://dc.lft.to/lastmile_qr_scan"}, "fusion_lat": 0.0}, {"type": "electric_scooter", "bike_id": "df445d01cea3cbe9fa01440a1b2506cc", "is_disabled": 0, "name": "df445d01cea3cbe9fa01440a1b2506cc", "lon": -77.0517235, "is_reserved": 0, "fusion_lon": 0.0, "lat": 38.902554333333335, "rental_uris": {"android": "https://dc.lft.to/lastmile_qr_scan", "ios": "https://dc.lft.to/lastmile_qr_scan"}, "fusion_lat": 0.0}, {"type": "electric_scooter", "bike_id": "8a75a600628716f72dc1086ef150dd25", "is_disabled": 0, "name": "8a75a600628716f72dc1086ef150dd25", "lon": -77.03905, "is_reserved": 0, "fusion_lon": 0.0, "lat": 38.91410033333333, "rental_uris": {"android": "https://dc.lft.to/lastmile_qr_scan", "ios": "https://dc.lft.to/lastmile_qr_scan"}, "fusion_lat": 0.0}, {"type": "electric_scooter", "bike_id": "afb60dee41a59ed570dcf66ea7c1d4a0", "is_disabled": 0, "name": "afb60dee41a59ed570dcf66ea7c1d4a0", "lon": -77.02111966666666, "is_reserved": 0, "fusion_lon": 0.0, "lat": 38.8945795, "rental_uris": {"android": "https://dc.lft.to/lastmile_qr_scan", "ios": "https://dc.lft.to/lastmile_qr_scan"}, "fusion_lat": 0.0}, {"type": "electric_scooter", "bike_id": "0c4e43f564b267082878340dfd28ddc7", "is_disabled": 0, "name": "0c4e43f564b267082878340dfd28ddc7", "lon": -77.0277215, "is_reserved": 0, "fusion_lon": 0.0, "lat": 38.930702333333336, "rental_uris": {"android": "https://dc.lft.to/lastmile_qr_scan", "ios": "https://dc.lft.to/lastmile_qr_scan"}, "fusion_lat": 0.0}, {"type": "electric_scooter", "bike_id": "865375179cf57e5956556bca851f81d1", "is_disabled": 0, "name": "865375179cf57e5956556bca851f81d1", "lon": -76.94662516666666, "is_reserved": 0, "fusion_lon": 0.0, "lat": 38.898665, "rental_uris": {"android": "https://dc.lft.to/lastmile_qr_scan", "ios": "https://dc.lft.to/lastmile_qr_scan"}, "fusion_lat": 0.0}, {"type": "electric_scooter", "bike_id": "cfb54777a0bc865c334c359ba94ad4b3", "is_disabled": 0, "name": "cfb54777a0bc865c334c359ba94ad4b3", "lon": -77.0265575, "is_reserved": 0, "fusion_lon": 0.0, "lat": 38.92380216666667, "rental_uris": {"android": "https://dc.lft.to/lastmile_qr_scan", "ios": "https://dc.lft.to/lastmile_qr_scan"}, "fusion_lat": 0.0}, {"type": "electric_scooter", "bike_id": "6b7bcd64ec5942baa47c647b399fdbb1", "is_disabled": 0, "name": "6b7bcd64ec5942baa47c647b399fdbb1", "lon": -77.02285983333333, "is_reserved": 0, "fusion_lon": 0.0, "lat": 38.925171666666664, "rental_uris": {"android": "https://dc.lft.to/lastmile_qr_scan", "ios": "https://dc.lft.to/lastmile_qr_scan"}, "fusion_lat": 0.0}, {"type": "electric_scooter", "bike_id": "bd92be46a13acaa671dd53ec76848ac7", "is_disabled": 0, "name": "bd92be46a13acaa671dd53ec76848ac7", "lon": -77.02402, "is_reserved": 0, "fusion_lon": 0.0, "lat": 38.8971985, "rental_uris": {"android": "https://dc.lft.to/lastmile_qr_scan", "ios": "https://dc.lft.to/lastmile_qr_scan"}, "fusion_lat": 0.0}, {"type": "electric_scooter", "bike_id": "5ff7d8a5d12501f4100ab0c36f8b7133", "is_disabled": 0, "name": "5ff7d8a5d12501f4100ab0c36f8b7133", "lon": -77.04342366666667, "is_reserved": 0, "fusion_lon": 0.0, "lat": 38.90014383333333, "rental_uris": {"android": "https://dc.lft.to/lastmile_qr_scan", "ios": "https://dc.lft.to/lastmile_qr_scan"}, "fusion_lat": 0.0}, {"type": "electric_scooter", "bike_id": "470471acfbed9ba662b98789b89e7e25", "is_disabled": 0, "name": "470471acfbed9ba662b98789b89e7e25", "lon": -77.04503233333334, "is_reserved": 0, "fusion_lon": 0.0, "lat": 38.9119115, "rental_uris": {"android": "https://dc.lft.to/lastmile_qr_scan", "ios": "https://dc.lft.to/lastmile_qr_scan"}, "fusion_lat": 0.0}, {"type": "electric_bike", "bike_id": "54fdc82756fe835d09bb0758806d6a38", "is_disabled": 0, "name": "54fdc82756fe835d09bb0758806d6a38", "lon": -76.95568483333334, "is_reserved": 0, "fusion_lon": 0.0, "lat": 38.985013, "rental_uris": {"android": "https://dc.lft.to/lastmile_qr_scan", "ios": "https://dc.lft.to/lastmile_qr_scan"}, "fusion_lat": 0.0}, {"type": "electric_bike", "bike_id": "c2ff0d07cc4d9f40510a1c0d2f34950c", "is_disabled": 0, "name": "c2ff0d07cc4d9f40510a1c0d2f34950c", "lon": -77.0119975, "is_reserved": 0, "fusion_lon": 0.0, "lat": 38.950721333333334, "rental_uris": {"android": "https://dc.lft.to/lastmile_qr_scan", "ios": "https://dc.lft.to/lastmile_qr_scan"}, "fusion_lat": 0.0}, {"type": "electric_scooter", "bike_id": "13c7ece9724eb3677fd55b60d5fdc863", "is_disabled": 0, "name": "13c7ece9724eb3677fd55b60d5fdc863", "lon": -77.0344865, "is_reserved": 0, "fusion_lon": 0.0, "lat": 38.90512116666667, "rental_uris": {"android": "https://dc.lft.to/lastmile_qr_scan", "ios": "https://dc.lft.to/lastmile_qr_scan"}, "fusion_lat": 0.0}, {"type": "electric_scooter", "bike_id": "6df8d65312b481ed4c1c2cb626223c16", "is_disabled": 0, "name": "6df8d65312b481ed4c1c2cb626223c16", "lon": -77.0630215, "is_reserved": 0, "fusion_lon": 0.0, "lat": 38.903897666666666, "rental_uris": {"android": "https://dc.lft.to/lastmile_qr_scan", "ios": "https://dc.lft.to/lastmile_qr_scan"}, "fusion_lat": 0.0}, {"type": "electric_scooter", "bike_id": "d3bab94d0dd35c125586e100d214ac8f", "is_disabled": 0, "name": "d3bab94d0dd35c125586e100d214ac8f", "lon": -77.02553616666667, "is_reserved": 0, "fusion_lon": 0.0, "lat": 38.916340166666664, "rental_uris": {"android": "https://dc.lft.to/lastmile_qr_scan", "ios": "https://dc.lft.to/lastmile_qr_scan"}, "fusion_lat": 0.0}, {"type": "electric_scooter", "bike_id": "0f5175ca7cb692d944a8decef654c813", "is_disabled": 0, "name": "0f5175ca7cb692d944a8decef654c813", "lon": -77.01545533333334, "is_reserved": 0, "fusion_lon": 0.0, "lat": 38.8916595, "rental_uris": {"android": "https://dc.lft.to/lastmile_qr_scan", "ios": "https://dc.lft.to/lastmile_qr_scan"}, "fusion_lat": 0.0}, {"type": "electric_scooter", "bike_id": "93f06e8ff307af8b54096b8d2b7961e9", "is_disabled": 0, "name": "93f06e8ff307af8b54096b8d2b7961e9", "lon": -77.02808066666667, "is_reserved": 0, "fusion_lon": 0.0, "lat": 38.9174675, "rental_uris": {"android": "https://dc.lft.to/lastmile_qr_scan", "ios": "https://dc.lft.to/lastmile_qr_scan"}, "fusion_lat": 0.0}, {"type": "electric_scooter", "bike_id": "687149fd80620f75cc7d3f2ed353c368", "is_disabled": 0, "name": "687149fd80620f75cc7d3f2ed353c368", "lon": -77.0211105, "is_reserved": 0, "fusion_lon": 0.0, "lat": 38.9235875, "rental_uris": {"android": "https://dc.lft.to/lastmile_qr_scan", "ios": "https://dc.lft.to/lastmile_qr_scan"}, "fusion_lat": 0.0}, {"type": "electric_scooter", "bike_id": "5b06a39e3948d9fa45eaeb7138e4aa43", "is_disabled": 0, "name": "5b06a39e3948d9fa45eaeb7138e4aa43", "lon": -77.02976833333334, "is_reserved": 0, "fusion_lon": 0.0, "lat": 38.94293616666667, "rental_uris": {"android": "https://dc.lft.to/lastmile_qr_scan", "ios": "https://dc.lft.to/lastmile_qr_scan"}, "fusion_lat": 0.0}, {"type": "electric_scooter", "bike_id": "146df1aba0a4d2eeb3854f2008675f6a", "is_disabled": 0, "name": "146df1aba0a4d2eeb3854f2008675f6a", "lon": -77.032908, "is_reserved": 0, "fusion_lon": 0.0, "lat": 38.9234925, "rental_uris": {"android": "https://dc.lft.to/lastmile_qr_scan", "ios": "https://dc.lft.to/lastmile_qr_scan"}, "fusion_lat": 0.0}, {"type": "electric_scooter", "bike_id": "47b05f1cff015c777732ba2633826496", "is_disabled": 0, "name": "47b05f1cff015c777732ba2633826496", "lon": -77.04332316666667, "is_reserved": 0, "fusion_lon": 0.0, "lat": 38.903812, "rental_uris": {"android": "https://dc.lft.to/lastmile_qr_scan", "ios": "https://dc.lft.to/lastmile_qr_scan"}, "fusion_lat": 0.0}, {"type": "electric_scooter", "bike_id": "de2016d1ba576a366e0a44185dff2855", "is_disabled": 0, "name": "de2016d1ba576a366e0a44185dff2855", "lon": -77.04516783333334, "is_reserved": 0, "fusion_lon": 0.0, "lat": 38.89609383333333, "rental_uris": {"android": "https://dc.lft.to/lastmile_qr_scan", "ios": "https://dc.lft.to/lastmile_qr_scan"}, "fusion_lat": 0.0}, {"type": "electric_scooter", "bike_id": "bfadb482d8c452f64eab0a4da2fa7834", "is_disabled": 0, "name": "bfadb482d8c452f64eab0a4da2fa7834", "lon": -77.0446095, "is_reserved": 0, "fusion_lon": 0.0, "lat": 38.9247205, "rental_uris": {"android": "https://dc.lft.to/lastmile_qr_scan", "ios": "https://dc.lft.to/lastmile_qr_scan"}, "fusion_lat": 0.0}, {"type": "electric_scooter", "bike_id": "d12dd58b571b0529cd1d5d42835cee2d", "is_disabled": 0, "name": "d12dd58b571b0529cd1d5d42835cee2d", "lon": -77.0236945, "is_reserved": 0, "fusion_lon": 0.0, "lat": 38.89222866666667, "rental_uris": {"android": "https://dc.lft.to/lastmile_qr_scan", "ios": "https://dc.lft.to/lastmile_qr_scan"}, "fusion_lat": 0.0}, {"type": "electric_scooter", "bike_id": "8fa644109e5a88c09e05061e196961b0", "is_disabled": 0, "name": "8fa644109e5a88c09e05061e196961b0", "lon": -77.019821, "is_reserved": 0, "fusion_lon": 0.0, "lat": 38.88723366666667, "rental_uris": {"android": "https://dc.lft.to/lastmile_qr_scan", "ios": "https://dc.lft.to/lastmile_qr_scan"}, "fusion_lat": 0.0}, {"type": "electric_scooter", "bike_id": "5f2a96b60fb805bed34d362deca49580", "is_disabled": 0, "name": "5f2a96b60fb805bed34d362deca49580", "lon": -77.03182333333334, "is_reserved": 0, "fusion_lon": 0.0, "lat": 38.902114, "rental_uris": {"android": "https://dc.lft.to/lastmile_qr_scan", "ios": "https://dc.lft.to/lastmile_qr_scan"}, "fusion_lat": 0.0}, {"type": "electric_scooter", "bike_id": "b5a30b1ebb33c7267f7cbcbb28ee1c50", "is_disabled": 0, "name": "b5a30b1ebb33c7267f7cbcbb28ee1c50", "lon": -77.01114866666667, "is_reserved": 0, "fusion_lon": 0.0, "lat": 38.89513983333333, "rental_uris": {"android": "https://dc.lft.to/lastmile_qr_scan", "ios": "https://dc.lft.to/lastmile_qr_scan"}, "fusion_lat": 0.0}, {"type": "electric_scooter", "bike_id": "41699f61581253c70540479758d59800", "is_disabled": 0, "name": "41699f61581253c70540479758d59800", "lon": -77.02544733333333, "is_reserved": 0, "fusion_lon": 0.0, "lat": 38.920645666666665, "rental_uris": {"android": "https://dc.lft.to/lastmile_qr_scan", "ios": "https://dc.lft.to/lastmile_qr_scan"}, "fusion_lat": 0.0}, {"type": "electric_scooter", "bike_id": "a1216654f7dabdc3991a6b8ba3ad46b8", "is_disabled": 0, "name": "a1216654f7dabdc3991a6b8ba3ad46b8", "lon": -77.00041733333333, "is_reserved": 0, "fusion_lon": 0.0, "lat": 38.88127433333333, "rental_uris": {"android": "https://dc.lft.to/lastmile_qr_scan", "ios": "https://dc.lft.to/lastmile_qr_scan"}, "fusion_lat": 0.0}, {"type": "electric_scooter", "bike_id": "626622ab709d4f68b8ee96d4f833b858", "is_disabled": 0, "name": "626622ab709d4f68b8ee96d4f833b858", "lon": -76.98697733333333, "is_reserved": 0, "fusion_lon": 0.0, "lat": 38.90014733333334, "rental_uris": {"android": "https://dc.lft.to/lastmile_qr_scan", "ios": "https://dc.lft.to/lastmile_qr_scan"}, "fusion_lat": 0.0}, {"type": "electric_bike", "bike_id": "7685d6d10cabe94cd6b44f0b056dc6c0", "is_disabled": 0, "name": "7685d6d10cabe94cd6b44f0b056dc6c0", "lon": -77.002823, "is_reserved": 0, "fusion_lon": 0.0, "lat": 38.83835533333333, "rental_uris": {"android": "https://dc.lft.to/lastmile_qr_scan", "ios": "https://dc.lft.to/lastmile_qr_scan"}, "fusion_lat": 0.0}, {"type": "electric_scooter", "bike_id": "bd1a50edc570be3251d5090f8bdd9efa", "is_disabled": 0, "name": "bd1a50edc570be3251d5090f8bdd9efa", "lon": -77.0346945, "is_reserved": 0, "fusion_lon": 0.0, "lat": 38.921497, "rental_uris": {"android": "https://dc.lft.to/lastmile_qr_scan", "ios": "https://dc.lft.to/lastmile_qr_scan"}, "fusion_lat": 0.0}, {"type": "electric_scooter", "bike_id": "9ee35a1761d5ef4234c6b2ea9942656c", "is_disabled": 0, "name": "9ee35a1761d5ef4234c6b2ea9942656c", "lon": -77.02449916666667, "is_reserved": 0, "fusion_lon": 0.0, "lat": 38.91853616666667, "rental_uris": {"android": "https://dc.lft.to/lastmile_qr_scan", "ios": "https://dc.lft.to/lastmile_qr_scan"}, "fusion_lat": 0.0}, {"type": "electric_scooter", "bike_id": "ea6f33de89e7f128819909975c6b2064", "is_disabled": 0, "name": "ea6f33de89e7f128819909975c6b2064", "lon": -77.02204883333333, "is_reserved": 0, "fusion_lon": 0.0, "lat": 38.91047283333333, "rental_uris": {"android": "https://dc.lft.to/lastmile_qr_scan", "ios": "https://dc.lft.to/lastmile_qr_scan"}, "fusion_lat": 0.0}, {"type": "electric_scooter", "bike_id": "babebad6e4d8fecfd9b6094abb8889c0", "is_disabled": 0, "name": "babebad6e4d8fecfd9b6094abb8889c0", "lon": -77.02831666666667, "is_reserved": 0, "fusion_lon": 0.0, "lat": 38.899216, "rental_uris": {"android": "https://dc.lft.to/lastmile_qr_scan", "ios": "https://dc.lft.to/lastmile_qr_scan"}, "fusion_lat": 0.0}, {"type": "electric_bike", "bike_id": "34e890f11331d9ab831fc525aa72c5f7", "is_disabled": 0, "name": "34e890f11331d9ab831fc525aa72c5f7", "lon": -77.00378516666666, "is_reserved": 0, "fusion_lon": 0.0, "lat": 38.8360875, "rental_uris": {"android": "https://dc.lft.to/lastmile_qr_scan", "ios": "https://dc.lft.to/lastmile_qr_scan"}, "fusion_lat": 0.0}, {"type": "electric_scooter", "bike_id": "3564660510c211ed9650e4a19d400d1a", "is_disabled": 0, "name": "3564660510c211ed9650e4a19d400d1a", "lon": -77.0185695, "is_reserved": 0, "fusion_lon": 0.0, "lat": 38.94919766666667, "rental_uris": {"android": "https://dc.lft.to/lastmile_qr_scan", "ios": "https://dc.lft.to/lastmile_qr_scan"}, "fusion_lat": 0.0}, {"type": "electric_scooter", "bike_id": "475f1bb9db7e43943f8d3a838271d03f", "is_disabled": 0, "name": "475f1bb9db7e43943f8d3a838271d03f", "lon": -77.03730483333334, "is_reserved": 0, "fusion_lon": 0.0, "lat": 38.920289833333335, "rental_uris": {"android": "https://dc.lft.to/lastmile_qr_scan", "ios": "https://dc.lft.to/lastmile_qr_scan"}, "fusion_lat": 0.0}, {"type": "electric_scooter", "bike_id": "2407e76061992dc4e887d24294135a5c", "is_disabled": 0, "name": "2407e76061992dc4e887d24294135a5c", "lon": -77.02074616666667, "is_reserved": 0, "fusion_lon": 0.0, "lat": 38.93022533333333, "rental_uris": {"android": "https://dc.lft.to/lastmile_qr_scan", "ios": "https://dc.lft.to/lastmile_qr_scan"}, "fusion_lat": 0.0}, {"type": "electric_scooter", "bike_id": "c3c4a7113db091bea39238265e45e19c", "is_disabled": 0, "name": "c3c4a7113db091bea39238265e45e19c", "lon": -77.01382483333333, "is_reserved": 0, "fusion_lon": 0.0, "lat": 38.875985, "rental_uris": {"android": "https://dc.lft.to/lastmile_qr_scan", "ios": "https://dc.lft.to/lastmile_qr_scan"}, "fusion_lat": 0.0}, {"type": "electric_bike", "bike_id": "98a48f1515577777d07fdea5f2c7e0c6", "is_disabled": 0, "name": "98a48f1515577777d07fdea5f2c7e0c6", "lon": -76.96325933333334, "is_reserved": 0, "fusion_lon": 0.0, "lat": 38.93897833333333, "rental_uris": {"android": "https://dc.lft.to/lastmile_qr_scan", "ios": "https://dc.lft.to/lastmile_qr_scan"}, "fusion_lat": 0.0}, {"type": "electric_scooter", "bike_id": "7dac7f56798bce04092a124f032cbf89", "is_disabled": 0, "name": "7dac7f56798bce04092a124f032cbf89", "lon": -77.0209905, "is_reserved": 0, "fusion_lon": 0.0, "lat": 38.9214215, "rental_uris": {"android": "https://dc.lft.to/lastmile_qr_scan", "ios": "https://dc.lft.to/lastmile_qr_scan"}, "fusion_lat": 0.0}, {"type": "electric_scooter", "bike_id": "a21ac9d5a3a84d30145e680d2527e24f", "is_disabled": 0, "name": "a21ac9d5a3a84d30145e680d2527e24f", "lon": -77.03257983333333, "is_reserved": 0, "fusion_lon": 0.0, "lat": 38.931567333333334, "rental_uris": {"android": "https://dc.lft.to/lastmile_qr_scan", "ios": "https://dc.lft.to/lastmile_qr_scan"}, "fusion_lat": 0.0}, {"type": "electric_scooter", "bike_id": "0ed8e25c451dc2bb08a7d29203e7c571", "is_disabled": 0, "name": "0ed8e25c451dc2bb08a7d29203e7c571", "lon": -77.01689733333333, "is_reserved": 0, "fusion_lon": 0.0, "lat": 38.920445, "rental_uris": {"android": "https://dc.lft.to/lastmile_qr_scan", "ios": "https://dc.lft.to/lastmile_qr_scan"}, "fusion_lat": 0.0}, {"type": "electric_scooter", "bike_id": "39ca0b03e336c129878a07503e658034", "is_disabled": 0, "name": "39ca0b03e336c129878a07503e658034", "lon": -77.02807533333333, "is_reserved": 0, "fusion_lon": 0.0, "lat": 38.910540166666664, "rental_uris": {"android": "https://dc.lft.to/lastmile_qr_scan", "ios": "https://dc.lft.to/lastmile_qr_scan"}, "fusion_lat": 0.0}, {"type": "electric_scooter", "bike_id": "b490991806953fbb8048052cc3e221e6", "is_disabled": 0, "name": "b490991806953fbb8048052cc3e221e6", "lon": -77.018899, "is_reserved": 0, "fusion_lon": 0.0, "lat": 38.8974035, "rental_uris": {"android": "https://dc.lft.to/lastmile_qr_scan", "ios": "https://dc.lft.to/lastmile_qr_scan"}, "fusion_lat": 0.0}, {"type": "electric_scooter", "bike_id": "fe1786c5a7a7f6ddd77c2ce88a621ecc", "is_disabled": 0, "name": "fe1786c5a7a7f6ddd77c2ce88a621ecc", "lon": -77.03091366666666, "is_reserved": 0, "fusion_lon": 0.0, "lat": 38.923814, "rental_uris": {"android": "https://dc.lft.to/lastmile_qr_scan", "ios": "https://dc.lft.to/lastmile_qr_scan"}, "fusion_lat": 0.0}, {"type": "electric_scooter", "bike_id": "5e2c634bf37e7304967509a3d5bb3d85", "is_disabled": 0, "name": "5e2c634bf37e7304967509a3d5bb3d85", "lon": -77.01954333333333, "is_reserved": 0, "fusion_lon": 0.0, "lat": 38.92326383333333, "rental_uris": {"android": "https://dc.lft.to/lastmile_qr_scan", "ios": "https://dc.lft.to/lastmile_qr_scan"}, "fusion_lat": 0.0}, {"type": "electric_scooter", "bike_id": "a9dc383a1be590e048cfdd1ae9c14371", "is_disabled": 0, "name": "a9dc383a1be590e048cfdd1ae9c14371", "lon": -77.04333433333333, "is_reserved": 0, "fusion_lon": 0.0, "lat": 38.910822833333334, "rental_uris": {"android": "https://dc.lft.to/lastmile_qr_scan", "ios": "https://dc.lft.to/lastmile_qr_scan"}, "fusion_lat": 0.0},