{"data": {"bikes": [{"bike_id": "554ace97c9f569950e41b89ed9926f52", "type": "electric_scooter", "is_disabled": 0, "lat": 38.90974666666666, "rental_uris": {"ios": "https://dc.lft.to/lastmile_qr_scan", "android": "https://dc.lft.to/lastmile_qr_scan"}, "is_reserved": 0, "fusion_lon": 0.0, "fusion_lat": 0.0, "lon": -77.03299066666666, "name": "554ace97c9f569950e41b89ed9926f52"}, {"bike_id": "96f3a708a8b54724a1e1b621eee26e76", "type": "electric_scooter", "is_disabled": 0, "lat": 38.902461833333334, "rental_uris": {"ios": "https://dc.lft.to/lastmile_qr_scan", "android": "https://dc.lft.to/lastmile_qr_scan"}, "is_reserved": 0, "fusion_lon": 0.0, "fusion_lat": 0.0, "lon": -77.04332416666666, "name": "96f3a708a8b54724a1e1b621eee26e76"}, {"bike_id": "7cad08fef0e05075ff52bd786d3b751c", "type": "electric_scooter", "is_disabled": 0, "lat": 38.899582, "rental_uris": {"ios": "https://dc.lft.to/lastmile_qr_scan", "android": "https://dc.lft.to/lastmile_qr_scan"}, "is_reserved": 0, "fusion_lon": 0.0, "fusion_lat": 0.0, "lon": -77.02559366666667, "name": "7cad08fef0e05075ff52bd786d3b751c"}, {"bike_id": "e7e901e84c93176dd506ea52aa2012de", "type": "electric_scooter", "is_disabled": 0, "lat": 38.9031775, "rental_uris": {"ios": "https://dc.lft.to/lastmile_qr_scan", "android": "https://dc.lft.to/lastmile_qr_scan"}, "is_reserved": 0, "fusion_lon": 0.0, "fusion_lat": 0.0, "lon": -77.02183783333334, "name": "e7e901e84c93176dd506ea52aa2012de"}, {"bike_id": "2e69f528296aabf0e6c8d5e8c22e9182", "type": "electric_scooter", "is_disabled": 0, "lat": 38.876312666666664, "rental_uris": {"ios": "https://dc.lft.to/lastmile_qr_scan", "android": "https://dc.lft.to/lastmile_qr_scan"}, "is_reserved": 0, "fusion_lon": 0.0, "fusion_lat": 0.0, "lon": -76.96528333333333, "name": "2e69f528296aabf0e6c8d5e8c22e9182"}, {"bike_id": "92955d71cbf7bd1f30a5926e9086e632", "type": "electric_scooter", "is_disabled": 0, "lat": 38.90715683333333, "rental_uris": {"ios": "https://dc.lft.to/lastmile_qr_scan", "android": "https://dc.lft.to/lastmile_qr_scan"}, "is_reserved": 0, "fusion_lon": 0.0, "fusion_lat": 0.0, "lon": -77.0448105, "name": "92955d71cbf7bd1f30a5926e9086e632"}, {"bike_id": "5e09430a3ce8ca660ee3e1ed62e901f5", "type": "electric_scooter", "is_disabled": 0, "lat": 38.920523, "rental_uris": {"ios": "https://dc.lft.to/lastmile_qr_scan", "android": "https://dc.lft.to/lastmile_qr_scan"}, "is_reserved": 0, "fusion_lon": 0.0, "fusion_lat": 0.0, "lon": -76.99871983333334, "name": "5e09430a3ce8ca660ee3e1ed62e901f5"}, {"bike_id": "d52c53abbdf39488d75f198dc6fe7726", "type": "electric_scooter", "is_disabled": 0, "lat": 38.9561355, "rental_uris": {"ios": "https://dc.lft.to/lastmile_qr_scan", "android": "https://dc.lft.to/lastmile_qr_scan"}, "is_reserved": 0, "fusion_lon": 0.0, "fusion_lat": 0.0, "lon": -77.01019516666666, "name": "d52c53abbdf39488d75f198dc6fe7726"}, {"bike_id": "d2fab6edca74825233722856d10152ad", "type": "electric_scooter", "is_disabled": 0, "lat": 38.94022566666666, "rental_uris": {"ios": "https://dc.lft.to/lastmile_qr_scan", "android": "https://dc.lft.to/lastmile_qr_scan"}, "is_reserved": 0, "fusion_lon": 0.0, "fusion_lat": 0.0, "lon": -77.02638683333333, "name": "d2fab6edca74825233722856d10152ad"}, {"bike_id": "22a684334174a7c8b516e78a7c0dcfe2", "type": "electric_scooter", "is_disabled": 0, "lat": 38.91725816666667, "rental_uris": {"ios": "https://dc.lft.to/lastmile_qr_scan", "android": "https://dc.lft.to/lastmile_qr_scan"}, "is_reserved": 0, "fusion_lon": 0.0, "fusion_lat": 0.0, "lon": -77.01908566666667, "name": "22a684334174a7c8b516e78a7c0dcfe2"}, {"bike_id": "64e540216e19c3ce44e2f5c1d81fc17d", "type": "electric_scooter", "is_disabled": 0, "lat": 38.876695833333336, "rental_uris": {"ios": "https://dc.lft.to/lastmile_qr_scan", "android": "https://dc.lft.to/lastmile_qr_scan"}, "is_reserved": 0, "fusion_lon": 0.0, "fusion_lat": 0.0, "lon": -77.00821833333333, "name": "64e540216e19c3ce44e2f5c1d81fc17d"}, {"bike_id": "f834a3cf965df6c991d28fcd22d3b053", "type": "electric_scooter", "is_disabled": 0, "lat": 38.93958833333333, "rental_uris": {"ios": "https://dc.lft.to/lastmile_qr_scan", "android": "https://dc.lft.to/lastmile_qr_scan"}, "is_reserved": 0, "fusion_lon": 0.0, "fusion_lat": 0.0, "lon": -77.0606975, "name": "f834a3cf965df6c991d28fcd22d3b053"}, {"bike_id": "9e5f931b2b7b8c5e50f0804dc7dfa752", "type": "electric_scooter", "is_disabled": 0, "lat": 38.903923666666664, "rental_uris": {"ios": "https://dc.lft.to/lastmile_qr_scan", "android": "https://dc.lft.to/lastmile_qr_scan"}, "is_reserved": 0, "fusion_lon": 0.0, "fusion_lat": 0.0, "lon": -77.00886333333334, "name": "9e5f931b2b7b8c5e50f0804dc7dfa752"}, {"bike_id": "ba1ba31a43f85eeaef224e383b107218", "type": "electric_scooter", "is_disabled": 0, "lat": 38.912303, "rental_uris": {"ios": "https://dc.lft.to/lastmile_qr_scan", "android": "https://dc.lft.to/lastmile_qr_scan"}, "is_reserved": 0, "fusion_lon": 0.0, "fusion_lat": 0.0, "lon": -77.04501566666667, "name": "ba1ba31a43f85eeaef224e383b107218"}, {"bike_id": "643d68e1c9e88ead75813b4e468c86f0", "type": "electric_scooter", "is_disabled": 0, "lat": 38.9028375, "rental_uris": {"ios": "https://dc.lft.to/lastmile_qr_scan", "android": "https://dc.lft.to/lastmile_qr_scan"}, "is_reserved": 0, "fusion_lon": 0.0, "fusion_lat": 0.0, "lon": -77.0227215, "name": "643d68e1c9e88ead75813b4e468c86f0"}, {"bike_id": "9909d22450c2ffd6a0bd121e65985e11", "type": "electric_scooter", "is_disabled": 0, "lat": 38.947946, "rental_uris": {"ios": "https://dc.lft.to/lastmile_qr_scan", "android": "https://dc.lft.to/lastmile_qr_scan"}, "is_reserved": 0, "fusion_lon": 0.0, "fusion_lat": 0.0, "lon": -77.02124483333333, "name": "9909d22450c2ffd6a0bd121e65985e11"}, {"bike_id": "dfbcef79ab7b85aa32e1e893e9bc5fdf", "type": "electric_scooter", "is_disabled": 0, "lat": 38.92359583333333, "rental_uris": {"ios": "https://dc.lft.to/lastmile_qr_scan", "android": "https://dc.lft.to/lastmile_qr_scan"}, "is_reserved": 0, "fusion_lon": 0.0, "fusion_lat": 0.0, "lon": -77.05239166666667, "name": "dfbcef79ab7b85aa32e1e893e9bc5fdf"}, {"bike_id": "05f4dab47f4bb2537766359767ed0e93", "type": "electric_scooter", "is_disabled": 0, "lat": 38.8922215, "rental_uris": {"ios": "https://dc.lft.to/lastmile_qr_scan", "android": "https://dc.lft.to/lastmile_qr_scan"}, "is_reserved": 0, "fusion_lon": 0.0, "fusion_lat": 0.0, "lon": -77.04652533333334, "name": "05f4dab47f4bb2537766359767ed0e93"}, {"bike_id": "582df6ba5610722e6133c4f2ef95f035", "type": "electric_scooter", "is_disabled": 0, "lat": 38.910717166666664, "rental_uris": {"ios": "https://dc.lft.to/lastmile_qr_scan", "android": "https://dc.lft.to/lastmile_qr_scan"}, "is_reserved": 0, "fusion_lon": 0.0, "fusion_lat": 0.0, "lon": -77.0449835, "name": "582df6ba5610722e6133c4f2ef95f035"}, {"bike_id": "1d052d5ecfb843c1a5f390932281a905", "type": "electric_scooter", "is_disabled": 0, "lat": 38.91171466666667, "rental_uris": {"ios": "https://dc.lft.to/lastmile_qr_scan", "android": "https://dc.lft.to/lastmile_qr_scan"}, "is_reserved": 0, "fusion_lon": 0.0, "fusion_lat": 0.0, "lon": -77.03852983333333, "name": "1d052d5ecfb843c1a5f390932281a905"}, {"bike_id": "97df397eaab7698152c344c2f8c080d2", "type": "electric_bike", "is_disabled": 0, "lat": 38.84528816666667, "rental_uris": {"ios": "https://dc.lft.to/lastmile_qr_scan", "android": "https://dc.lft.to/lastmile_qr_scan"}, "is_reserved": 0, "fusion_lon": 0.0, "fusion_lat": 0.0, "lon": -76.97394783333333, "name": "97df397eaab7698152c344c2f8c080d2"}, {"bike_id": "8ef231509753ac18eb8e094e9f05d857", "type": "electric_scooter", "is_disabled": 0, "lat": 38.8922495, "rental_uris": {"ios": "https://dc.lft.to/lastmile_qr_scan", "android": "https://dc.lft.to/lastmile_qr_scan"}, "is_reserved": 0, "fusion_lon": 0.0, "fusion_lat": 0.0, "lon": -77.03339216666667, "name": "8ef231509753ac18eb8e094e9f05d857"}, {"bike_id": "25a8390a971ca33363752b4ce8e64d02", "type": "electric_scooter", "is_disabled": 0, "lat": 38.92320633333333, "rental_uris": {"ios": "https://dc.lft.to/lastmile_qr_scan", "android": "https://dc.lft.to/lastmile_qr_scan"}, "is_reserved": 0, "fusion_lon": 0.0, "fusion_lat": 0.0, "lon": -77.021384, "name": "25a8390a971ca33363752b4ce8e64d02"}, {"bike_id": "128cfe543882acbbccc055c44d41783e", "type": "electric_scooter", "is_disabled": 0, "lat": 38.892232166666666, "rental_uris": {"ios": "https://dc.lft.to/lastmile_qr_scan", "android": "https://dc.lft.to/lastmile_qr_scan"}, "is_reserved": 0, "fusion_lon": 0.0, "fusion_lat": 0.0, "lon": -77.04194316666667, "name": "128cfe543882acbbccc055c44d41783e"}, {"bike_id": "ca19a33669e0e5b2fa50eb20003c4e34", "type": "electric_scooter", "is_disabled": 0, "lat": 38.919674666666666, "rental_uris": {"ios": "https://dc.lft.to/lastmile_qr_scan", "android": "https://dc.lft.to/lastmile_qr_scan"}, "is_reserved": 0, "fusion_lon": 0.0, "fusion_lat": 0.0, "lon": -77.01439966666666, "name": "ca19a33669e0e5b2fa50eb20003c4e34"}, {"bike_id": "03b7502964c26f9f6390f89242472af0", "type": "electric_scooter", "is_disabled": 0, "lat": 38.91686, "rental_uris": {"ios": "https://dc.lft.to/lastmile_qr_scan", "android": "https://dc.lft.to/lastmile_qr_scan"}, "is_reserved": 0, "fusion_lon": 0.0, "fusion_lat": 0.0, "lon": -77.02885833333333, "name": "03b7502964c26f9f6390f89242472af0"}, {"bike_id": "a574cb34f8c762c81ace82563a4f0387", "type": "electric_scooter", "is_disabled": 0, "lat": 38.89475083333333, "rental_uris": {"ios": "https://dc.lft.to/lastmile_qr_scan", "android": "https://dc.lft.to/lastmile_qr_scan"}, "is_reserved": 0, "fusion_lon": 0.0, "fusion_lat": 0.0, "lon": -76.99489116666666, "name": "a574cb34f8c762c81ace82563a4f0387"}, {"bike_id": "3e3857d9f7089b259bfa6e046bc5b3af", "type": "electric_bike", "is_disabled": 0, "lat": 39.014828333333334, "rental_uris": {"ios": "https://dc.lft.to/lastmile_qr_scan", "android": "https://dc.lft.to/lastmile_qr_scan"}, "is_reserved": 0, "fusion_lon": 0.0, "fusion_lat": 0.0, "lon": -77.05492066666666, "name": "3e3857d9f7089b259bfa6e046bc5b3af"}, {"bike_id": "cea5a5e10abb9c573841483a11610d43", "type": "electric_bike", "is_disabled": 0, "lat": 38.908702, "rental_uris": {"ios": "https://dc.lft.to/lastmile_qr_scan", "android": "https://dc.lft.to/lastmile_qr_scan"}, "is_reserved": 0, "fusion_lon": 0.0, "fusion_lat": 0.0, "lon": -77.07641733333334, "name": "cea5a5e10abb9c573841483a11610d43"}, {"bike_id": "9d289504c5464306db1f41d75e6373b3", "type": "electric_scooter", "is_disabled": 0, "lat": 38.898466666666664, "rental_uris": {"ios": "https://dc.lft.to/lastmile_qr_scan", "android": "https://dc.lft.to/lastmile_qr_scan"}, "is_reserved": 0, "fusion_lon": 0.0, "fusion_lat": 0.0, "lon": -76.94630716666667, "name": "9d289504c5464306db1f41d75e6373b3"}, {"bike_id": "a71928b7100de090ff714126a14b0bfb", "type": "electric_scooter", "is_disabled": 0, "lat": 38.916607, "rental_uris": {"ios": "https://dc.lft.to/lastmile_qr_scan", "android": "https://dc.lft.to/lastmile_qr_scan"}, "is_reserved": 0, "fusion_lon": 0.0, "fusion_lat": 0.0, "lon": -77.023021, "name": "a71928b7100de090ff714126a14b0bfb"}, {"bike_id": "835f09ebe6c019f6313bee08b9085c8f", "type": "electric_scooter", "is_disabled": 0, "lat": 38.902209166666665, "rental_uris": {"ios": "https://dc.lft.to/lastmile_qr_scan", "android": "https://dc.lft.to/lastmile_qr_scan"}, "is_reserved": 0, "fusion_lon": 0.0, "fusion_lat": 0.0, "lon": -77.02320233333333, "name": "835f09ebe6c019f6313bee08b9085c8f"}, {"bike_id": "e9423b480b73225199cbd27940227702", "type": "electric_scooter", "is_disabled": 0, "lat": 38.91118783333334, "rental_uris": {"ios": "https://dc.lft.to/lastmile_qr_scan", "android": "https://dc.lft.to/lastmile_qr_scan"}, "is_reserved": 0, "fusion_lon": 0.0, "fusion_lat": 0.0, "lon": -77.02236916666666, "name": "e9423b480b73225199cbd27940227702"}, {"bike_id": "a39f7bf222dfe4038a781b03594e3844", "type": "electric_bike", "is_disabled": 0, "lat": 38.861507833333334, "rental_uris": {"ios": "https://dc.lft.to/lastmile_qr_scan", "android": "https://dc.lft.to/lastmile_qr_scan"}, "is_reserved": 0, "fusion_lon": 0.0, "fusion_lat": 0.0, "lon": -77.0913835, "name": "a39f7bf222dfe4038a781b03594e3844"}, {"bike_id": "3f173d085934227f731a92fbfc9ee79f", "type": "electric_scooter", "is_disabled": 0, "lat": 38.898483666666664, "rental_uris": {"ios": "https://dc.lft.to/lastmile_qr_scan", "android": "https://dc.lft.to/lastmile_qr_scan"}, "is_reserved": 0, "fusion_lon": 0.0, "fusion_lat": 0.0, "lon": -76.94629533333334, "name": "3f173d085934227f731a92fbfc9ee79f"}, {"bike_id": "245b9b23c85c19068e23f15b1c3b424b", "type": "electric_scooter", "is_disabled": 0, "lat": 38.932482666666665, "rental_uris": {"ios": "https://dc.lft.to/lastmile_qr_scan", "android": "https://dc.lft.to/lastmile_qr_scan"}, "is_reserved": 0, "fusion_lon": 0.0, "fusion_lat": 0.0, "lon": -77.0200225, "name": "245b9b23c85c19068e23f15b1c3b424b"}, {"bike_id": "3b06c9fa5a251b551d7887970dc92dd4", "type": "electric_scooter", "is_disabled": 0, "lat": 38.89001616666667, "rental_uris": {"ios": "https://dc.lft.to/lastmile_qr_scan", "android": "https://dc.lft.to/lastmile_qr_scan"}, "is_reserved": 0, "fusion_lon": 0.0, "fusion_lat": 0.0, "lon": -77.0020715, "name": "3b06c9fa5a251b551d7887970dc92dd4"}, {"bike_id": "4caeefae82d86f0b6fa25231cf1d4dba", "type": "electric_scooter", "is_disabled": 0, "lat": 38.91489583333333, "rental_uris": {"ios": "https://dc.lft.to/lastmile_qr_scan", "android": "https://dc.lft.to/lastmile_qr_scan"}, "is_reserved": 0, "fusion_lon": 0.0, "fusion_lat": 0.0, "lon": -77.02182616666667, "name": "4caeefae82d86f0b6fa25231cf1d4dba"}, {"bike_id": "b597f6337faec7f9bcbb28ecec14d33d", "type": "electric_scooter", "is_disabled": 0, "lat": 38.892218, "rental_uris": {"ios": "https://dc.lft.to/lastmile_qr_scan", "android": "https://dc.lft.to/lastmile_qr_scan"}, "is_reserved": 0, "fusion_lon": 0.0, "fusion_lat": 0.0, "lon": -77.031601, "name": "b597f6337faec7f9bcbb28ecec14d33d"}, {"bike_id": "477f55553a01579eade24d8529379b13", "type": "electric_scooter", "is_disabled": 0, "lat": 38.902767, "rental_uris": {"ios": "https://dc.lft.to/lastmile_qr_scan", "android": "https://dc.lft.to/lastmile_qr_scan"}, "is_reserved": 0, "fusion_lon": 0.0, "fusion_lat": 0.0, "lon": -77.058072, "name": "477f55553a01579eade24d8529379b13"}, {"bike_id": "71d525bf18afcd5c241cd9402302a131", "type": "electric_scooter", "is_disabled": 0, "lat": 38.916186, "rental_uris": {"ios": "https://dc.lft.to/lastmile_qr_scan", "android": "https://dc.lft.to/lastmile_qr_scan"}, "is_reserved": 0, "fusion_lon": 0.0, "fusion_lat": 0.0, "lon": -77.0230385, "name": "71d525bf18afcd5c241cd9402302a131"}, {"bike_id": "1364576f6057cb806523b1443cdda5e4", "type": "electric_scooter", "is_disabled": 0, "lat": 38.8706795, "rental_uris": {"ios": "https://dc.lft.to/lastmile_qr_scan", "android": "https://dc.lft.to/lastmile_qr_scan"}, "is_reserved": 0, "fusion_lon": 0.0, "fusion_lat": 0.0, "lon": -76.981278, "name": "1364576f6057cb806523b1443cdda5e4"}, {"bike_id": "cc9f97222a2f2a81adccba31e6a5bc29", "type": "electric_scooter", "is_disabled": 0, "lat": 38.91826966666667, "rental_uris": {"ios": "https://dc.lft.to/lastmile_qr_scan", "android": "https://dc.lft.to/lastmile_qr_scan"}, "is_reserved": 0, "fusion_lon": 0.0, "fusion_lat": 0.0, "lon": -77.0417065, "name": "cc9f97222a2f2a81adccba31e6a5bc29"}, {"bike_id": "187b9f92baf37995fe75b2efad003e77", "type": "electric_scooter", "is_disabled": 0, "lat": 38.91327233333333, "rental_uris": {"ios": "https://dc.lft.to/lastmile_qr_scan", "android": "https://dc.lft.to/lastmile_qr_scan"}, "is_reserved": 0, "fusion_lon": 0.0, "fusion_lat": 0.0, "lon": -77.03189483333334, "name": "187b9f92baf37995fe75b2efad003e77"}, {"bike_id": "bcab2954c822d859c21ffec64171e6b5", "type": "electric_scooter", "is_disabled": 0, "lat": 38.915745, "rental_uris": {"ios": "https://dc.lft.to/lastmile_qr_scan", "android": "https://dc.lft.to/lastmile_qr_scan"}, "is_reserved": 0, "fusion_lon": 0.0, "fusion_lat": 0.0, "lon": -77.031946, "name": "bcab2954c822d859c21ffec64171e6b5"}, {"bike_id": "4b533290b07044146109c741a18aa2a7", "type": "electric_scooter", "is_disabled": 0, "lat": 38.9055855, "rental_uris": {"ios": "https://dc.lft.to/lastmile_qr_scan", "android": "https://dc.lft.to/lastmile_qr_scan"}, "is_reserved": 0, "fusion_lon": 0.0, "fusion_lat": 0.0, "lon": -77.04427816666667, "name": "4b533290b07044146109c741a18aa2a7"}, {"bike_id": "207b737472299687eae27c3bc5c9bfe2", "type": "electric_scooter", "is_disabled": 0, "lat": 38.9091055, "rental_uris": {"ios": "https://dc.lft.to/lastmile_qr_scan", "android": "https://dc.lft.to/lastmile_qr_scan"}, "is_reserved": 0, "fusion_lon": 0.0, "fusion_lat": 0.0, "lon": -77.018952, "name": "207b737472299687eae27c3bc5c9bfe2"}, {"bike_id": "9dbfa54222751d3165a15fe00ec8ac97", "type": "electric_scooter", "is_disabled": 0, "lat": 38.866247666666666, "rental_uris": {"ios": "https://dc.lft.to/lastmile_qr_scan", "android": "https://dc.lft.to/lastmile_qr_scan"}, "is_reserved": 0, "fusion_lon": 0.0, "fusion_lat": 0.0, "lon": -76.98717983333333, "name": "9dbfa54222751d3165a15fe00ec8ac97"}, {"bike_id": "748cfc08e3a90be5870237762bb70b57", "type": "electric_scooter", "is_disabled": 0, "lat": 38.8751905, "rental_uris": {"ios": "https://dc.lft.to/lastmile_qr_scan", "android": "https://dc.lft.to/lastmile_qr_scan"}, "is_reserved": 0, "fusion_lon": 0.0, "fusion_lat": 0.0, "lon": -77.00042466666666, "name": "748cfc08e3a90be5870237762bb70b57"}, {"bike_id": "27950dedeeb5ec4c9084f37147fd0593", "type": "electric_scooter", "is_disabled": 0, "lat": 38.886396833333336, "rental_uris": {"ios": "https://dc.lft.to/lastmile_qr_scan", "android": "https://dc.lft.to/lastmile_qr_scan"}, "is_reserved": 0, "fusion_lon": 0.0, "fusion_lat": 0.0, "lon": -77.02139183333334, "name": "27950dedeeb5ec4c9084f37147fd0593"}, {"bike_id": "7fe97025ad375e49affd3aba28c3812f", "type": "electric_scooter", "is_disabled": 0, "lat": 38.89194483333333, "rental_uris": {"ios": "https://dc.lft.to/lastmile_qr_scan", "android": "https://dc.lft.to/lastmile_qr_scan"}, "is_reserved": 0, "fusion_lon": 0.0, "fusion_lat": 0.0, "lon": -77.02494516666667, "name": "7fe97025ad375e49affd3aba28c3812f"}, {"bike_id": "15831715a1df260c8c799011ae4eb7af", "type": "electric_scooter", "is_disabled": 0, "lat": 38.933638, "rental_uris": {"ios": "https://dc.lft.to/lastmile_qr_scan", "android": "https://dc.lft.to/lastmile_qr_scan"}, "is_reserved": 0, "fusion_lon": 0.0, "fusion_lat": 0.0, "lon": -77.08855633333333, "name": "15831715a1df260c8c799011ae4eb7af"}, {"bike_id": "be0fe672ea3a3d203155817ff875d72a", "type": "electric_bike", "is_disabled": 0, "lat": 38.8632655, "rental_uris": {"ios": "https://dc.lft.to/lastmile_qr_scan", "android": "https://dc.lft.to/lastmile_qr_scan"}, "is_reserved": 0, "fusion_lon": 0.0, "fusion_lat": 0.0, "lon": -77.0634655, "name": "be0fe672ea3a3d203155817ff875d72a"}, {"bike_id": "df8a080653a410136bb84aa0d75cdb1b", "type": "electric_scooter", "is_disabled": 0, "lat": 38.871785833333334, "rental_uris": {"ios": "https://dc.lft.to/lastmile_qr_scan", "android": "https://dc.lft.to/lastmile_qr_scan"}, "is_reserved": 0, "fusion_lon": 0.0, "fusion_lat": 0.0, "lon": -77.0061405, "name": "df8a080653a410136bb84aa0d75cdb1b"}, {"bike_id": "b0140231b21fe9054b4051ee84b37a96", "type": "electric_scooter", "is_disabled": 0, "lat": 38.97201183333333, "rental_uris": {"ios": "https://dc.lft.to/lastmile_qr_scan", "android": "https://dc.lft.to/lastmile_qr_scan"}, "is_reserved": 0, "fusion_lon": 0.0, "fusion_lat": 0.0, "lon": -77.02658116666667, "name": "b0140231b21fe9054b4051ee84b37a96"}, {"bike_id": "48584ac82bb7b8cba9d32ded7d2d39b0", "type": "electric_scooter", "is_disabled": 0, "lat": 38.91473233333333, "rental_uris": {"ios": "https://dc.lft.to/lastmile_qr_scan", "android": "https://dc.lft.to/lastmile_qr_scan"}, "is_reserved": 0, "fusion_lon": 0.0, "fusion_lat": 0.0, "lon": -77.0198275, "name": "48584ac82bb7b8cba9d32ded7d2d39b0"}, {"bike_id": "00831a2e6d770c229d90de1e0194f619", "type": "electric_scooter", "is_disabled": 0, "lat": 38.899661, "rental_uris": {"ios": "https://dc.lft.to/lastmile_qr_scan", "android": "https://dc.lft.to/lastmile_qr_scan"}, "is_reserved": 0, "fusion_lon": 0.0, "fusion_lat": 0.0, "lon": -76.9830345, "name": "00831a2e6d770c229d90de1e0194f619"}, {"bike_id": "504458b58607067e9629f481ccdea104", "type": "electric_scooter", "is_disabled": 0, "lat": 38.91573116666667, "rental_uris": {"ios": "https://dc.lft.to/lastmile_qr_scan", "android": "https://dc.lft.to/lastmile_qr_scan"}, "is_reserved": 0, "fusion_lon": 0.0, "fusion_lat": 0.0, "lon": -77.0318995, "name": "504458b58607067e9629f481ccdea104"}, {"bike_id": "ec1a850d814b9f85ac05f22d33b3db0b", "type": "electric_scooter", "is_disabled": 0, "lat": 38.897391666666664, "rental_uris": {"ios": "https://dc.lft.to/lastmile_qr_scan", "android": "https://dc.lft.to/lastmile_qr_scan"}, "is_reserved": 0, "fusion_lon": 0.0, "fusion_lat": 0.0, "lon": -76.947281, "name": "ec1a850d814b9f85ac05f22d33b3db0b"}, {"bike_id": "66b1ec620eec10cbd9e9fc1fd456a2fe", "type": "electric_bike", "is_disabled": 0, "lat": 38.85895633333333, "rental_uris": {"ios": "https://dc.lft.to/lastmile_qr_scan", "android": "https://dc.lft.to/lastmile_qr_scan"}, "is_reserved": 0, "fusion_lon": 0.0, "fusion_lat": 0.0, "lon": -77.118626, "name": "66b1ec620eec10cbd9e9fc1fd456a2fe"}, {"bike_id": "f2075312e82ca3cff18b22563e27b711", "type": "electric_scooter", "is_disabled": 0, "lat": 38.904732, "rental_uris": {"ios": "https://dc.lft.to/lastmile_qr_scan", "android": "https://dc.lft.to/lastmile_qr_scan"}, "is_reserved": 0, "fusion_lon": 0.0, "fusion_lat": 0.0, "lon": -77.009198, "name": "f2075312e82ca3cff18b22563e27b711"}, {"bike_id": "057ea26466a60d34667ec0cb4065826e", "type": "electric_scooter", "is_disabled": 0, "lat": 38.94559516666666, "rental_uris": {"ios": "https://dc.lft.to/lastmile_qr_scan", "android": "https://dc.lft.to/lastmile_qr_scan"}, "is_reserved": 0, "fusion_lon": 0.0, "fusion_lat": 0.0, "lon": -77.07124933333333, "name": "057ea26466a60d34667ec0cb4065826e"}, {"bike_id": "ff71efcf2f5de3b5e2616b4d89e85194", "type": "electric_scooter", "is_disabled": 0, "lat": 38.89734816666667, "rental_uris": {"ios": "https://dc.lft.to/lastmile_qr_scan", "android": "https://dc.lft.to/lastmile_qr_scan"}, "is_reserved": 0, "fusion_lon": 0.0, "fusion_lat": 0.0, "lon": -77.027038, "name": "ff71efcf2f5de3b5e2616b4d89e85194"}, {"bike_id": "92e53b3863c4432ba71ad1719acb4246", "type": "electric_scooter", "is_disabled": 0, "lat": 38.904105, "rental_uris": {"ios": "https://dc.lft.to/lastmile_qr_scan", "android": "https://dc.lft.to/lastmile_qr_scan"}, "is_reserved": 0, "fusion_lon": 0.0, "fusion_lat": 0.0, "lon": -76.97332016666667, "name": "92e53b3863c4432ba71ad1719acb4246"}, {"bike_id": "90547b164ed2ce0a29ec791dd015108f", "type": "electric_scooter", "is_disabled": 0, "lat": 38.8998355, "rental_uris": {"ios": "https://dc.lft.to/lastmile_qr_scan", "android": "https://dc.lft.to/lastmile_qr_scan"}, "is_reserved": 0, "fusion_lon": 0.0, "fusion_lat": 0.0, "lon": -77.0270975, "name": "90547b164ed2ce0a29ec791dd015108f"}, {"bike_id": "efaef48867f994369e1f38f6481bb083", "type": "electric_scooter", "is_disabled": 0, "lat": 38.9170665, "rental_uris": {"ios": "https://dc.lft.to/lastmile_qr_scan", "android": "https://dc.lft.to/lastmile_qr_scan"}, "is_reserved": 0, "fusion_lon": 0.0, "fusion_lat": 0.0, "lon": -77.02887066666666, "name": "efaef48867f994369e1f38f6481bb083"}, {"bike_id": "57dcdd16e40232c855dbb0baaaa38221", "type": "electric_scooter", "is_disabled": 0, "lat": 38.9159055, "rental_uris": {"ios": "https://dc.lft.to/lastmile_qr_scan", "android": "https://dc.lft.to/lastmile_qr_scan"}, "is_reserved": 0, "fusion_lon": 0.0, "fusion_lat": 0.0, "lon": -77.00197666666666, "name": "57dcdd16e40232c855dbb0baaaa38221"}, {"bike_id": "1abc41dfc5fd8980a7636f1ae04485f8", "type": "electric_scooter", "is_disabled": 0, "lat": 38.90947216666667, "rental_uris": {"ios": "https://dc.lft.to/lastmile_qr_scan", "android": "https://dc.lft.to/lastmile_qr_scan"}, "is_reserved": 0, "fusion_lon": 0.0, "fusion_lat": 0.0, "lon": -77.03451033333333, "name": "1abc41dfc5fd8980a7636f1ae04485f8"}, {"bike_id": "9b84d99c4ac4bb3cc53bc0b2b765080d", "type": "electric_scooter", "is_disabled": 0, "lat": 38.90531716666667, "rental_uris": {"ios": "https://dc.lft.to/lastmile_qr_scan", "android": "https://dc.lft.to/lastmile_qr_scan"}, "is_reserved": 0, "fusion_lon": 0.0, "fusion_lat": 0.0, "lon": -77.04364416666667, "name": "9b84d99c4ac4bb3cc53bc0b2b765080d"}, {"bike_id": "99acfd2e809b2f79d4d7e22a98d2469f", "type": "electric_scooter", "is_disabled": 0, "lat": 38.929615, "rental_uris": {"ios": "https://dc.lft.to/lastmile_qr_scan", "android": "https://dc.lft.to/lastmile_qr_scan"}, "is_reserved": 0, "fusion_lon": 0.0, "fusion_lat": 0.0, "lon": -77.01149033333333, "name": "99acfd2e809b2f79d4d7e22a98d2469f"}, {"bike_id": "296af908e8c9972aa56bfbde2362a811", "type": "electric_scooter", "is_disabled": 0, "lat": 38.9361365, "rental_uris": {"ios": "https://dc.lft.to/lastmile_qr_scan", "android": "https://dc.lft.to/lastmile_qr_scan"}, "is_reserved": 0, "fusion_lon": 0.0, "fusion_lat": 0.0, "lon": -77.0378525, "name": "296af908e8c9972aa56bfbde2362a811"}, {"bike_id": "76ba17eeb6f485df11d8d95a5411e1ab", "type": "electric_bike", "is_disabled": 0, "lat": 38.987701666666666, "rental_uris": {"ios": "https://dc.lft.to/lastmile_qr_scan", "android": "https://dc.lft.to/lastmile_qr_scan"}, "is_reserved": 0, "fusion_lon": 0.0, "fusion_lat": 0.0, "lon": -77.14055383333333, "name": "76ba17eeb6f485df11d8d95a5411e1ab"}, {"bike_id": "4c54303926f6032da480926b9129d6f8", "type": "electric_bike", "is_disabled": 0, "lat": 38.95176933333333, "rental_uris": {"ios": "https://dc.lft.to/lastmile_qr_scan", "android": "https://dc.lft.to/lastmile_qr_scan"}, "is_reserved": 0, "fusion_lon": 0.0, "fusion_lat": 0.0, "lon": -76.97730483333333, "name": "4c54303926f6032da480926b9129d6f8"}, {"bike_id": "1267846783ed8f8b7b13358715e78d30", "type": "electric_scooter", "is_disabled": 0, "lat": 38.92487766666667, "rental_uris": {"ios": "https://dc.lft.to/lastmile_qr_scan", "android": "https://dc.lft.to/lastmile_qr_scan"}, "is_reserved": 0, "fusion_lon": 0.0, "fusion_lat": 0.0, "lon": -77.03178633333333, "name": "1267846783ed8f8b7b13358715e78d30"}, {"bike_id": "d40f4528f4aefd1604eec959deecb6b3", "type": "electric_scooter", "is_disabled": 0, "lat": 38.91820933333333, "rental_uris": {"ios": "https://dc.lft.to/lastmile_qr_scan", "android": "https://dc.lft.to/lastmile_qr_scan"}, "is_reserved": 0, "fusion_lon": 0.0, "fusion_lat": 0.0, "lon": -77.02714216666666, "name": "d40f4528f4aefd1604eec959deecb6b3"}, {"bike_id": "bc3eb66e916cae22b0198a33585f970e", "type": "electric_scooter", "is_disabled": 0, "lat": 38.900501166666665, "rental_uris": {"ios": "https://dc.lft.to/lastmile_qr_scan", "android": "https://dc.lft.to/lastmile_qr_scan"}, "is_reserved": 0, "fusion_lon": 0.0, "fusion_lat": 0.0, "lon": -77.0172735, "name": "bc3eb66e916cae22b0198a33585f970e"}, {"bike_id": "c452d09ef4a991432793a6ad455f0d20", "type": "electric_scooter", "is_disabled": 0, "lat": 38.916543833333336, "rental_uris": {"ios": "https://dc.lft.to/lastmile_qr_scan", "android": "https://dc.lft.to/lastmile_qr_scan"}, "is_reserved": 0, "fusion_lon": 0.0, "fusion_lat": 0.0, "lon": -76.97906633333334, "name": "c452d09ef4a991432793a6ad455f0d20"}, {"bike_id": "6619a249c52f7e919ba6b66d98ce0617", "type": "electric_scooter", "is_disabled": 0, "lat": 38.9233165, "rental_uris": {"ios": "https://dc.lft.to/lastmile_qr_scan", "android": "https://dc.lft.to/lastmile_qr_scan"}, "is_reserved": 0, "fusion_lon": 0.0, "fusion_lat": 0.0, "lon": -77.0088265, "name": "6619a249c52f7e919ba6b66d98ce0617"}, {"bike_id": "fdc27efd0607beffba79cb71ef69a69e", "type": "electric_bike", "is_disabled": 0, "lat": 38.91002866666667, "rental_uris": {"ios": "https://dc.lft.to/lastmile_qr_scan", "android": "https://dc.lft.to/lastmile_qr_scan"}, "is_reserved": 0, "fusion_lon": 0.0, "fusion_lat": 0.0, "lon": -77.0571715, "name": "fdc27efd0607beffba79cb71ef69a69e"}, {"bike_id": "50f84874d7b832dac34129552a89930e", "type": "electric_scooter", "is_disabled": 0, "lat": 38.93364716666667, "rental_uris": {"ios": "https://dc.lft.to/lastmile_qr_scan", "android": "https://dc.lft.to/lastmile_qr_scan"}, "is_reserved": 0, "fusion_lon": 0.0, "fusion_lat": 0.0, "lon": -77.026449, "name": "50f84874d7b832dac34129552a89930e"}, {"bike_id": "9f16e0dcd590f7971b7254d7b40c35bc", "type": "electric_scooter", "is_disabled": 0, "lat": 38.90910733333333, "rental_uris": {"ios": "https://dc.lft.to/lastmile_qr_scan", "android": "https://dc.lft.to/lastmile_qr_scan"}, "is_reserved": 0, "fusion_lon": 0.0, "fusion_lat": 0.0, "lon": -77.042141, "name": "9f16e0dcd590f7971b7254d7b40c35bc"}, {"bike_id": "491d237f39da5226be5140713c27d7de", "type": "electric_scooter", "is_disabled": 0, "lat": 38.886573, "rental_uris": {"ios": "https://dc.lft.to/lastmile_qr_scan", "android": "https://dc.lft.to/lastmile_qr_scan"}, "is_reserved": 0, "fusion_lon": 0.0, "fusion_lat": 0.0, "lon": -77.0283005, "name": "491d237f39da5226be5140713c27d7de"}, {"bike_id": "fb49bcd1d10cf4447b896054486a11f9", "type": "electric_scooter", "is_disabled": 0, "lat": 38.9057065, "rental_uris": {"ios": "https://dc.lft.to/lastmile_qr_scan", "android": "https://dc.lft.to/lastmile_qr_scan"}, "is_reserved": 0, "fusion_lon": 0.0, "fusion_lat": 0.0, "lon": -77.043351, "name": "fb49bcd1d10cf4447b896054486a11f9"}, {"bike_id": "50b5056c2f1385f5c61928b56eeb2075", "type": "electric_scooter", "is_disabled": 0, "lat": 38.91025666666667, "rental_uris": {"ios": "https://dc.lft.to/lastmile_qr_scan", "android": "https://dc.lft.to/lastmile_qr_scan"}, "is_reserved": 0, "fusion_lon": 0.0, "fusion_lat": 0.0, "lon": -77.028236, "name": "50b5056c2f1385f5c61928b56eeb2075"}, {"bike_id": "b95a9e8f03dd15af7e8b69557577aa43", "type": "electric_scooter", "is_disabled": 0, "lat": 38.98695816666667, "rental_uris": {"ios": "https://dc.lft.to/lastmile_qr_scan", "android": "https://dc.lft.to/lastmile_qr_scan"}, "is_reserved": 0, "fusion_lon": 0.0, "fusion_lat": 0.0, "lon": -77.02977166666666, "name": "b95a9e8f03dd15af7e8b69557577aa43"}, {"bike_id": "b91e5a4895217be03d4d7979b115b752", "type": "electric_scooter", "is_disabled": 0, "lat": 38.90539916666667, "rental_uris": {"ios": "https://dc.lft.to/lastmile_qr_scan", "android": "https://dc.lft.to/lastmile_qr_scan"}, "is_reserved": 0, "fusion_lon": 0.0, "fusion_lat": 0.0, "lon": -77.04997, "name": "b91e5a4895217be03d4d7979b115b752"}, {"bike_id": "f2fe1d61de6f1b452d0e82983658c837", "type": "electric_scooter", "is_disabled": 0, "lat": 38.91841383333333, "rental_uris": {"ios": "https://dc.lft.to/lastmile_qr_scan", "android": "https://dc.lft.to/lastmile_qr_scan"}, "is_reserved": 0, "fusion_lon": 0.0, "fusion_lat": 0.0, "lon": -76.96555433333333, "name": "f2fe1d61de6f1b452d0e82983658c837"}, {"bike_id": "3e911d30289fea50b553deaeee2a7abe", "type": "electric_scooter", "is_disabled": 0, "lat": 38.89222383333333, "rental_uris": {"ios": "https://dc.lft.to/lastmile_qr_scan", "android": "https://dc.lft.to/lastmile_qr_scan"}, "is_reserved": 0, "fusion_lon": 0.0, "fusion_lat": 0.0, "lon": -77.03978566666666, "name": "3e911d30289fea50b553deaeee2a7abe"}, {"bike_id": "db3f64c827f68037480a335483de17d4", "type": "electric_scooter", "is_disabled": 0, "lat": 38.91783483333333, "rental_uris": {"ios": "https://dc.lft.to/lastmile_qr_scan", "android": "https://dc.lft.to/lastmile_qr_scan"}, "is_reserved": 0, "fusion_lon": 0.0, "fusion_lat": 0.0, "lon": -77.02392083333334, "name": "db3f64c827f68037480a335483de17d4"}, {"bike_id": "45d72ffaebe432952738ef5f26cbac13", "type": "electric_scooter", "is_disabled": 0, "lat": 38.88719783333333, "rental_uris": {"ios": "https://dc.lft.to/lastmile_qr_scan", "android": "https://dc.lft.to/lastmile_qr_scan"}, "is_reserved": 0, "fusion_lon": 0.0, "fusion_lat": 0.0, "lon": -77.02209183333333, "name": "45d72ffaebe432952738ef5f26cbac13"}, {"bike_id": "b0735eaeb0a375d6e6bc9d7d9737838b", "type": "electric_scooter", "is_disabled": 0, "lat": 38.928733333333334, "rental_uris": {"ios": "https://dc.lft.to/lastmile_qr_scan", "android": "https://dc.lft.to/lastmile_qr_scan"}, "is_reserved": 0, "fusion_lon": 0.0, "fusion_lat": 0.0, "lon": -77.032922, "name": "b0735eaeb0a375d6e6bc9d7d9737838b"}, {"bike_id": "21166e12ef27513abbc4911bfdfc20fb", "type": "electric_scooter", "is_disabled": 0, "lat": 38.92850033333333, "rental_uris": {"ios": "https://dc.lft.to/lastmile_qr_scan", "android": "https://dc.lft.to/lastmile_qr_scan"}, "is_reserved": 0, "fusion_lon": 0.0, "fusion_lat": 0.0, "lon": -77.03275533333333, "name": "21166e12ef27513abbc4911bfdfc20fb"}, {"bike_id": "1d4a6503d01e0e0dc65e4e64076cd8d5", "type": "electric_scooter", "is_disabled": 0, "lat": 38.902649833333335, "rental_uris": {"ios": "https://dc.lft.to/lastmile_qr_scan", "android": "https://dc.lft.to/lastmile_qr_scan"}, "is_reserved": 0, "fusion_lon": 0.0, "fusion_lat": 0.0, "lon": -77.01757516666666, "name": "1d4a6503d01e0e0dc65e4e64076cd8d5"}, {"bike_id": "2e4f7e199f53b90f3804176104cbd2cf", "type": "electric_scooter", "is_disabled": 0, "lat": 38.902443166666664, "rental_uris": {"ios": "https://dc.lft.to/lastmile_qr_scan", "android": "https://dc.lft.to/lastmile_qr_scan"}, "is_reserved": 0, "fusion_lon": 0.0, "fusion_lat": 0.0, "lon": -77.02652833333333, "name": "2e4f7e199f53b90f3804176104cbd2cf"}, {"bike_id": "eea2792a308f0393c7dffee9772442fc", "type": "electric_scooter", "is_disabled": 0, "lat": 38.867181, "rental_uris": {"ios": "https://dc.lft.to/lastmile_qr_scan", "android": "https://dc.lft.to/lastmile_qr_scan"}, "is_reserved": 0, "fusion_lon": 0.0, "fusion_lat": 0.0, "lon": -77.01011333333334, "name": "eea2792a308f0393c7dffee9772442fc"}, {"bike_id": "26a7741483a656ff3c832d1f2a7f75bb", "type": "electric_scooter", "is_disabled": 0, "lat": 38.92441766666666, "rental_uris": {"ios": "https://dc.lft.to/lastmile_qr_scan", "android": "https://dc.lft.to/lastmile_qr_scan"}, "is_reserved": 0, "fusion_lon": 0.0, "fusion_lat": 0.0, "lon": -77.04026566666667, "name": "26a7741483a656ff3c832d1f2a7f75bb"}, {"bike_id": "7bdb4b3fcc1480ec58b87fdd0ee102a6", "type": "electric_scooter", "is_disabled": 0, "lat": 38.9163755, "rental_uris": {"ios": "https://dc.lft.to/lastmile_qr_scan", "android": "https://dc.lft.to/lastmile_qr_scan"}, "is_reserved": 0, "fusion_lon": 0.0, "fusion_lat": 0.0, "lon": -77.0396055, "name": "7bdb4b3fcc1480ec58b87fdd0ee102a6"}, {"bike_id": "f62951f22dcf62e7ef214e3b233c0250", "type": "electric_scooter", "is_disabled": 0, "lat": 38.91001033333333, "rental_uris": {"ios": "https://dc.lft.to/lastmile_qr_scan", "android": "https://dc.lft.to/lastmile_qr_scan"}, "is_reserved": 0, "fusion_lon": 0.0, "fusion_lat": 0.0, "lon": -77.04003966666667, "name": "f62951f22dcf62e7ef214e3b233c0250"}, {"bike_id": "90d098587d61836418252b11a3401bf1", "type": "electric_scooter", "is_disabled": 0, "lat": 38.923413833333335, "rental_uris": {"ios": "https://dc.lft.to/lastmile_qr_scan", "android": "https://dc.lft.to/lastmile_qr_scan"}, "is_reserved": 0, "fusion_lon": 0.0, "fusion_lat": 0.0, "lon": -77.05249383333333, "name": "90d098587d61836418252b11a3401bf1"}, {"bike_id": "67f6aa3e5f500d18dcc18083a6cd8413", "type": "electric_scooter", "is_disabled": 0, "lat": 38.931968, "rental_uris": {"ios": "https://dc.lft.to/lastmile_qr_scan", "android": "https://dc.lft.to/lastmile_qr_scan"}, "is_reserved": 0, "fusion_lon": 0.0, "fusion_lat": 0.0, "lon": -77.0201485, "name": "67f6aa3e5f500d18dcc18083a6cd8413"}, {"bike_id": "655ec588ca4ffbdbbbd798c3eaaeecdb", "type": "electric_scooter", "is_disabled": 0, "lat": 38.90141416666667, "rental_uris": {"ios": "https://dc.lft.to/lastmile_qr_scan", "android": "https://dc.lft.to/lastmile_qr_scan"}, "is_reserved": 0, "fusion_lon": 0.0, "fusion_lat": 0.0, "lon": -77.01609466666666, "name": "655ec588ca4ffbdbbbd798c3eaaeecdb"}, {"bike_id": "0b5cf31516b7bda0f0f69ca2f22df589", "type": "electric_scooter", "is_disabled": 0, "lat": 38.91708083333333, "rental_uris": {"ios": "https://dc.lft.to/lastmile_qr_scan", "android": "https://dc.lft.to/lastmile_qr_scan"}, "is_reserved": 0, "fusion_lon": 0.0, "fusion_lat": 0.0, "lon": -77.02419116666667, "name": "0b5cf31516b7bda0f0f69ca2f22df589"}, {"bike_id": "c8444e7a023ee0e0b9745cc1cb79d482", "type": "electric_scooter", "is_disabled": 0, "lat": 38.92873516666667, "rental_uris": {"ios": "https://dc.lft.to/lastmile_qr_scan", "android": "https://dc.lft.to/lastmile_qr_scan"}, "is_reserved": 0, "fusion_lon": 0.0, "fusion_lat": 0.0, "lon": -77.03440216666667, "name": "c8444e7a023ee0e0b9745cc1cb79d482"}, {"bike_id": "7774d9c6bab16726391da41e86ff8036", "type": "electric_scooter", "is_disabled": 0, "lat": 38.845386500000004, "rental_uris": {"ios": "https://dc.lft.to/lastmile_qr_scan", "android": "https://dc.lft.to/lastmile_qr_scan"}, "is_reserved": 0, "fusion_lon": 0.0, "fusion_lat": 0.0, "lon": -76.9854395, "name": "7774d9c6bab16726391da41e86ff8036"}, {"bike_id": "7c80cf567908b278c547bf6f21eff2a2", "type": "electric_bike", "is_disabled": 0, "lat": 38.948030333333335, "rental_uris": {"ios": "https://dc.lft.to/lastmile_qr_scan", "android": "https://dc.lft.to/lastmile_qr_scan"}, "is_reserved": 0, "fusion_lon": 0.0, "fusion_lat": 0.0, "lon": -76.9553865, "name": "7c80cf567908b278c547bf6f21eff2a2"}, {"bike_id": "c5adc3095e2d4f28a49847571e1abb3c", "type": "electric_scooter", "is_disabled": 0, "lat": 38.918258, "rental_uris": {"ios": "https://dc.lft.to/lastmile_qr_scan", "android": "https://dc.lft.to/lastmile_qr_scan"}, "is_reserved": 0, "fusion_lon": 0.0, "fusion_lat": 0.0, "lon": -77.031795, "name": "c5adc3095e2d4f28a49847571e1abb3c"}, {"bike_id": "42d586148e093837e23968655bae9f96", "type": "electric_scooter", "is_disabled": 0, "lat": 38.905211666666666, "rental_uris": {"ios": "https://dc.lft.to/lastmile_qr_scan", "android": "https://dc.lft.to/lastmile_qr_scan"}, "is_reserved": 0, "fusion_lon": 0.0, "fusion_lat": 0.0, "lon": -77.06785333333333, "name": "42d586148e093837e23968655bae9f96"}, {"bike_id": "b0cf757ae7244f6f3d4219efacca851b", "type": "electric_scooter", "is_disabled": 0, "lat": 38.923159, "rental_uris": {"ios": "https://dc.lft.to/lastmile_qr_scan", "android": "https://dc.lft.to/lastmile_qr_scan"}, "is_reserved": 0, "fusion_lon": 0.0, "fusion_lat": 0.0, "lon": -77.04639116666667, "name": "b0cf757ae7244f6f3d4219efacca851b"}, {"bike_id": "82ce1017ff40d77fc40426c125ec0bed", "type": "electric_scooter", "is_disabled": 0, "lat": 38.907195333333334, "rental_uris": {"ios": "https://dc.lft.to/lastmile_qr_scan", "android": "https://dc.lft.to/lastmile_qr_scan"}, "is_reserved": 0, "fusion_lon": 0.0, "fusion_lat": 0.0, "lon": -77.02247666666666, "name": "82ce1017ff40d77fc40426c125ec0bed"}, {"bike_id": "a789d5ae1d39d94dd9f66a759aa02ef4", "type": "electric_scooter", "is_disabled": 0, "lat": 38.915557, "rental_uris": {"ios": "https://dc.lft.to/lastmile_qr_scan", "android": "https://dc.lft.to/lastmile_qr_scan"}, "is_reserved": 0, "fusion_lon": 0.0, "fusion_lat": 0.0, "lon": -77.03174983333334, "name": "a789d5ae1d39d94dd9f66a759aa02ef4"}, {"bike_id": "fbab0633efa8bcc839556cb5642e8d7d", "type": "electric_bike", "is_disabled": 0, "lat": 38.86508116666667, "rental_uris": {"ios": "https://dc.lft.to/lastmile_qr_scan", "android": "https://dc.lft.to/lastmile_qr_scan"}, "is_reserved": 0, "fusion_lon": 0.0, "fusion_lat": 0.0, "lon": -76.97339683333334, "name": "fbab0633efa8bcc839556cb5642e8d7d"}, {"bike_id": "19bc615b2de3b43624411c31593da681", "type": "electric_scooter", "is_disabled": 0, "lat": 38.90707833333333, "rental_uris": {"ios": "https://dc.lft.to/lastmile_qr_scan", "android": "https://dc.lft.to/lastmile_qr_scan"}, "is_reserved": 0, "fusion_lon": 0.0, "fusion_lat": 0.0, "lon": -77.02393533333333, "name": "19bc615b2de3b43624411c31593da681"}, {"bike_id": "f9304399b675fca4df92c4d1bfb1e0b1", "type": "electric_scooter", "is_disabled": 0, "lat": 38.908234666666665, "rental_uris": {"ios": "https://dc.lft.to/lastmile_qr_scan", "android": "https://dc.lft.to/lastmile_qr_scan"}, "is_reserved": 0, "fusion_lon": 0.0, "fusion_lat": 0.0, "lon": -77.03192716666666, "name": "f9304399b675fca4df92c4d1bfb1e0b1"}, {"bike_id": "226d5638e73ac7b982536f2938ca4ff2", "type": "electric_scooter", "is_disabled": 0, "lat": 38.90833216666667, "rental_uris": {"ios": "https://dc.lft.to/lastmile_qr_scan", "android": "https://dc.lft.to/lastmile_qr_scan"}, "is_reserved": 0, "fusion_lon": 0.0, "fusion_lat": 0.0, "lon": -77.03449433333333, "name": "226d5638e73ac7b982536f2938ca4ff2"}, {"bike_id": "64a6aa3c1443cc59d8da319dc1565cf2", "type": "electric_scooter", "is_disabled": 0, "lat": 38.9053275, "rental_uris": {"ios": "https://dc.lft.to/lastmile_qr_scan", "android": "https://dc.lft.to/lastmile_qr_scan"}, "is_reserved": 0, "fusion_lon": 0.0, "fusion_lat": 0.0, "lon": -77.05825183333333, "name": "64a6aa3c1443cc59d8da319dc1565cf2"}, {"bike_id": "e5fb0ac8a068147b99d8863fd4588cf5", "type": "electric_scooter", "is_disabled": 0, "lat": 38.84313933333333, "rental_uris": {"ios": "https://dc.lft.to/lastmile_qr_scan", "android": "https://dc.lft.to/lastmile_qr_scan"}, "is_reserved": 0, "fusion_lon": 0.0, "fusion_lat": 0.0, "lon": -76.999277, "name": "e5fb0ac8a068147b99d8863fd4588cf5"}, {"bike_id": "ef7ad7cb8d0fd15c792e67e987bd5178", "type": "electric_scooter", "is_disabled": 0, "lat": 38.895401666666665, "rental_uris": {"ios": "https://dc.lft.to/lastmile_qr_scan", "android": "https://dc.lft.to/lastmile_qr_scan"}, "is_reserved": 0, "fusion_lon": 0.0, "fusion_lat": 0.0, "lon": -76.98864316666666, "name": "ef7ad7cb8d0fd15c792e67e987bd5178"}, {"bike_id": "8005ed4cf3405684b280ab7909f2b9fc", "type": "electric_scooter", "is_disabled": 0, "lat": 38.92432683333333, "rental_uris": {"ios": "https://dc.lft.to/lastmile_qr_scan", "android": "https://dc.lft.to/lastmile_qr_scan"}, "is_reserved": 0, "fusion_lon": 0.0, "fusion_lat": 0.0, "lon": -77.04009683333334, "name": "8005ed4cf3405684b280ab7909f2b9fc"}, {"bike_id": "5d2e3a81b1e39e68226b1f208652d63c", "type": "electric_bike", "is_disabled": 0, "lat": 38.9207025, "rental_uris": {"ios": "https://dc.lft.to/lastmile_qr_scan", "android": "https://dc.lft.to/lastmile_qr_scan"}, "is_reserved": 0, "fusion_lon": 0.0, "fusion_lat": 0.0, "lon": -76.890705, "name": "5d2e3a81b1e39e68226b1f208652d63c"}, {"bike_id": "3bfae9dfaf7ddfcd87c5955c2dddcd7e", "type": "electric_scooter", "is_disabled": 0, "lat": 38.93511683333333, "rental_uris": {"ios": "https://dc.lft.to/lastmile_qr_scan", "android": "https://dc.lft.to/lastmile_qr_scan"}, "is_reserved": 0, "fusion_lon": 0.0, "fusion_lat": 0.0, "lon": -77.03456766666666, "name": "3bfae9dfaf7ddfcd87c5955c2dddcd7e"}, {"bike_id": "c19df1cefcac9c5f5ea67c0b2d7b0238", "type": "electric_scooter", "is_disabled": 0, "lat": 38.90070816666667, "rental_uris": {"ios": "https://dc.lft.to/lastmile_qr_scan", "android": "https://dc.lft.to/lastmile_qr_scan"}, "is_reserved": 0, "fusion_lon": 0.0, "fusion_lat": 0.0, "lon": -77.036453, "name": "c19df1cefcac9c5f5ea67c0b2d7b0238"}, {"bike_id": "806f06facd5cbdf05e8bc0d8e1b87218", "type": "electric_scooter", "is_disabled": 0, "lat": 38.843145166666666, "rental_uris": {"ios": "https://dc.lft.to/lastmile_qr_scan", "android": "https://dc.lft.to/lastmile_qr_scan"}, "is_reserved": 0, "fusion_lon": 0.0, "fusion_lat": 0.0, "lon": -76.99913966666666, "name": "806f06facd5cbdf05e8bc0d8e1b87218"}, {"bike_id": "c6489b53663d78b0714b9eaed5748941", "type": "electric_scooter", "is_disabled": 0, "lat": 38.871780333333334, "rental_uris": {"ios": "https://dc.lft.to/lastmile_qr_scan", "android": "https://dc.lft.to/lastmile_qr_scan"}, "is_reserved": 0, "fusion_lon": 0.0, "fusion_lat": 0.0, "lon": -77.00614333333333, "name": "c6489b53663d78b0714b9eaed5748941"}, {"bike_id": "a1fbd1799bd1d8b561fcf7ae3b357ae1", "type": "electric_scooter", "is_disabled": 0, "lat": 38.91405866666667, "rental_uris": {"ios": "https://dc.lft.to/lastmile_qr_scan", "android": "https://dc.lft.to/lastmile_qr_scan"}, "is_reserved": 0, "fusion_lon": 0.0, "fusion_lat": 0.0, "lon": -77.02115516666667, "name": "a1fbd1799bd1d8b561fcf7ae3b357ae1"}, {"bike_id": "6b3ed341b4e33e4e62773627e1eb7747", "type": "electric_bike", "is_disabled": 0, "lat": 38.8427485, "rental_uris": {"ios": "https://dc.lft.to/lastmile_qr_scan", "android": "https://dc.lft.to/lastmile_qr_scan"}, "is_reserved": 0, "fusion_lon": 0.0, "fusion_lat": 0.0, "lon": -76.98840633333333, "name": "6b3ed341b4e33e4e62773627e1eb7747"}, {"bike_id": "ac92f9f96e4109523cd4bda518de6c97", "type": "electric_scooter", "is_disabled": 0, "lat": 38.9140355, "rental_uris": {"ios": "https://dc.lft.to/lastmile_qr_scan", "android": "https://dc.lft.to/lastmile_qr_scan"}, "is_reserved": 0, "fusion_lon": 0.0, "fusion_lat": 0.0, "lon": -77.03598233333334, "name": "ac92f9f96e4109523cd4bda518de6c97"}, {"bike_id": "cc3dcd0fbe1376e6c17fcaec02c0dfc5", "type": "electric_scooter", "is_disabled": 0, "lat": 38.90559183333333, "rental_uris": {"ios": "https://dc.lft.to/lastmile_qr_scan", "android": "https://dc.lft.to/lastmile_qr_scan"}, "is_reserved": 0, "fusion_lon": 0.0, "fusion_lat": 0.0, "lon": -77.06525983333333, "name": "cc3dcd0fbe1376e6c17fcaec02c0dfc5"}, {"bike_id": "be433bbe59b5b06ed36b29400e191035", "type": "electric_scooter", "is_disabled": 0, "lat": 38.92860233333333, "rental_uris": {"ios": "https://dc.lft.to/lastmile_qr_scan", "android": "https://dc.lft.to/lastmile_qr_scan"}, "is_reserved": 0, "fusion_lon": 0.0, "fusion_lat": 0.0, "lon": -77.03195233333334, "name": "be433bbe59b5b06ed36b29400e191035"}, {"bike_id": "fbac745fb032533303ae72f7446a2e7d", "type": "electric_scooter", "is_disabled": 0, "lat": 38.920941166666665, "rental_uris": {"ios": "https://dc.lft.to/lastmile_qr_scan", "android": "https://dc.lft.to/lastmile_qr_scan"}, "is_reserved": 0, "fusion_lon": 0.0, "fusion_lat": 0.0, "lon": -77.0316905, "name": "fbac745fb032533303ae72f7446a2e7d"}, {"bike_id": "0a5fcdb1b3ec9ce82cfd97a5755f6ebe", "type": "electric_scooter", "is_disabled": 0, "lat": 38.89845366666667, "rental_uris": {"ios": "https://dc.lft.to/lastmile_qr_scan", "android": "https://dc.lft.to/lastmile_qr_scan"}, "is_reserved": 0, "fusion_lon": 0.0, "fusion_lat": 0.0, "lon": -76.94632733333333, "name": "0a5fcdb1b3ec9ce82cfd97a5755f6ebe"}, {"bike_id": "38a3300ed65da3530a8d272bf9f5b45f", "type": "electric_scooter", "is_disabled": 0, "lat": 38.913119333333334, "rental_uris": {"ios": "https://dc.lft.to/lastmile_qr_scan", "android": "https://dc.lft.to/lastmile_qr_scan"}, "is_reserved": 0, "fusion_lon": 0.0, "fusion_lat": 0.0, "lon": -77.04488716666667, "name": "38a3300ed65da3530a8d272bf9f5b45f"}, {"bike_id": "35d0127d8ff9d789cca5b3ad230c40de", "type": "electric_scooter", "is_disabled": 0, "lat": 38.92366083333334, "rental_uris": {"ios": "https://dc.lft.to/lastmile_qr_scan", "android": "https://dc.lft.to/lastmile_qr_scan"}, "is_reserved": 0, "fusion_lon": 0.0, "fusion_lat": 0.0, "lon": -77.051309, "name": "35d0127d8ff9d789cca5b3ad230c40de"}, {"bike_id": "d590035b81aa303f949edb45c75a987e", "type": "electric_scooter", "is_disabled": 0, "lat": 38.9161855, "rental_uris": {"ios": "https://dc.lft.to/lastmile_qr_scan", "android": "https://dc.lft.to/lastmile_qr_scan"}, "is_reserved": 0, "fusion_lon": 0.0, "fusion_lat": 0.0, "lon": -77.0238645, "name": "d590035b81aa303f949edb45c75a987e"}, {"bike_id": "c31edf4341fa268146318e2356575393", "type": "electric_scooter", "is_disabled": 0, "lat": 38.910559, "rental_uris": {"ios": "https://dc.lft.to/lastmile_qr_scan", "android": "https://dc.lft.to/lastmile_qr_scan"}, "is_reserved": 0, "fusion_lon": 0.0, "fusion_lat": 0.0, "lon": -77.0218595, "name": "c31edf4341fa268146318e2356575393"}, {"bike_id": "f7a032cf3a5e317def053dfede2b4db3", "type": "electric_scooter", "is_disabled": 0, "lat": 38.91281733333334, "rental_uris": {"ios": "https://dc.lft.to/lastmile_qr_scan", "android": "https://dc.lft.to/lastmile_qr_scan"}, "is_reserved": 0, "fusion_lon": 0.0, "fusion_lat": 0.0, "lon": -77.06115066666666, "name": "f7a032cf3a5e317def053dfede2b4db3"}, {"bike_id": "97fc33eb3f8a2576ea52f59955aad454", "type": "electric_bike", "is_disabled": 0, "lat": 38.87920116666667, "rental_uris": {"ios": "https://dc.lft.to/lastmile_qr_scan", "android": "https://dc.lft.to/lastmile_qr_scan"}, "is_reserved": 0, "fusion_lon": 0.0, "fusion_lat": 0.0, "lon": -77.00707716666666, "name": "97fc33eb3f8a2576ea52f59955aad454"}, {"bike_id": "c0bf9e158ca3ab35dccb9ba67a9456e0", "type": "electric_scooter", "is_disabled": 0, "lat": 38.9007225, "rental_uris": {"ios": "https://dc.lft.to/lastmile_qr_scan", "android": "https://dc.lft.to/lastmile_qr_scan"}, "is_reserved": 0, "fusion_lon": 0.0, "fusion_lat": 0.0, "lon": -77.03121316666666, "name": "c0bf9e158ca3ab35dccb9ba67a9456e0"}, {"bike_id": "49ed05f5700d2e458a2456b7c5c70276", "type": "electric_scooter", "is_disabled": 0, "lat": 38.89851216666667, "rental_uris": {"ios": "https://dc.lft.to/lastmile_qr_scan", "android": "https://dc.lft.to/lastmile_qr_scan"}, "is_reserved": 0, "fusion_lon": 0.0, "fusion_lat": 0.0, "lon": -77.0220515, "name": "49ed05f5700d2e458a2456b7c5c70276"}, {"bike_id": "d34abea8e5edb00a993f9d5f6c3861bb", "type": "electric_scooter", "is_disabled": 0, "lat": 38.920456333333334, "rental_uris": {"ios": "https://dc.lft.to/lastmile_qr_scan", "android": "https://dc.lft.to/lastmile_qr_scan"}, "is_reserved": 0, "fusion_lon": 0.0, "fusion_lat": 0.0, "lon": -77.03403583333333, "name": "d34abea8e5edb00a993f9d5f6c3861bb"}, {"bike_id": "39023caf020a9fab1caecf8a2c452ad0", "type": "electric_scooter", "is_disabled": 0, "lat": 38.915644666666665, "rental_uris": {"ios": "https://dc.lft.to/lastmile_qr_scan", "android": "https://dc.lft.to/lastmile_qr_scan"}, "is_reserved": 0, "fusion_lon": 0.0, "fusion_lat": 0.0, "lon": -77.031229, "name": "39023caf020a9fab1caecf8a2c452ad0"}, {"bike_id": "dfde9f62528b46253966665f2c505021", "type": "electric_scooter", "is_disabled": 0, "lat": 38.9096085, "rental_uris": {"ios": "https://dc.lft.to/lastmile_qr_scan", "android": "https://dc.lft.to/lastmile_qr_scan"}, "is_reserved": 0, "fusion_lon": 0.0, "fusion_lat": 0.0, "lon": -77.04541816666666, "name": "dfde9f62528b46253966665f2c505021"}, {"bike_id": "8f5b628425899f750efb5a80be15bb5d", "type": "electric_scooter", "is_disabled": 0, "lat": 38.905277833333336, "rental_uris": {"ios": "https://dc.lft.to/lastmile_qr_scan", "android": "https://dc.lft.to/lastmile_qr_scan"}, "is_reserved": 0, "fusion_lon": 0.0, "fusion_lat": 0.0, "lon": -77.06526216666667, "name": "8f5b628425899f750efb5a80be15bb5d"}, {"bike_id": "62a95cd69b231c7ce51fd6e6f697f30e", "type": "electric_bike", "is_disabled": 0, "lat": 38.831618666666664, "rental_uris": {"ios": "https://dc.lft.to/lastmile_qr_scan", "android": "https://dc.lft.to/lastmile_qr_scan"}, "is_reserved": 0, "fusion_lon": 0.0, "fusion_lat": 0.0, "lon": -76.99544566666667, "name": "62a95cd69b231c7ce51fd6e6f697f30e"}, {"bike_id": "00ea1396127f24460c39b24c11c5c283", "type": "electric_scooter", "is_disabled": 0, "lat": 38.9114975, "rental_uris": {"ios": "https://dc.lft.to/lastmile_qr_scan", "android": "https://dc.lft.to/lastmile_qr_scan"}, "is_reserved": 0, "fusion_lon": 0.0, "fusion_lat": 0.0, "lon": -77.02950183333333, "name": "00ea1396127f24460c39b24c11c5c283"}, {"bike_id": "870b6aa27098af9e5150cbe8a18ed578", "type": "electric_scooter", "is_disabled": 0, "lat": 38.9097665, "rental_uris": {"ios": "https://dc.lft.to/lastmile_qr_scan", "android": "https://dc.lft.to/lastmile_qr_scan"}, "is_reserved": 0, "fusion_lon": 0.0, "fusion_lat": 0.0, "lon": -77.03271033333333, "name": "870b6aa27098af9e5150cbe8a18ed578"}, {"bike_id": "6f441553e96f031a602bae69e482790c", "type": "electric_scooter", "is_disabled": 0, "lat": 38.92043916666667, "rental_uris": {"ios": "https://dc.lft.to/lastmile_qr_scan", "android": "https://dc.lft.to/lastmile_qr_scan"}, "is_reserved": 0, "fusion_lon": 0.0, "fusion_lat": 0.0, "lon": -77.04195833333333, "name": "6f441553e96f031a602bae69e482790c"}, {"bike_id": "9d19d538704358f628c39c22a59fe704", "type": "electric_scooter", "is_disabled": 0, "lat": 38.9072805, "rental_uris": {"ios": "https://dc.lft.to/lastmile_qr_scan", "android": "https://dc.lft.to/lastmile_qr_scan"}, "is_reserved": 0, "fusion_lon": 0.0, "fusion_lat": 0.0, "lon": -77.01148, "name": "9d19d538704358f628c39c22a59fe704"}, {"bike_id": "7e4f297de117bb52a072abf5192fe228", "type": "electric_scooter", "is_disabled": 0, "lat": 38.934607666666665, "rental_uris": {"ios": "https://dc.lft.to/lastmile_qr_scan", "android": "https://dc.lft.to/lastmile_qr_scan"}, "is_reserved": 0, "fusion_lon": 0.0, "fusion_lat": 0.0, "lon": -76.9643825, "name": "7e4f297de117bb52a072abf5192fe228"}, {"bike_id": "c3c98fd9922cb50f01152d8acc193dfc", "type": "electric_scooter", "is_disabled": 0, "lat": 38.9230105, "rental_uris": {"ios": "https://dc.lft.to/lastmile_qr_scan", "android": "https://dc.lft.to/lastmile_qr_scan"}, "is_reserved": 0, "fusion_lon": 0.0, "fusion_lat": 0.0, "lon": -76.99771266666667, "name": "c3c98fd9922cb50f01152d8acc193dfc"}, {"bike_id": "1e529b9a90fb9e60faa3c9d6fa3a4ad3", "type": "electric_bike", "is_disabled": 0, "lat": 38.957102, "rental_uris": {"ios": "https://dc.lft.to/lastmile_qr_scan", "android": "https://dc.lft.to/lastmile_qr_scan"}, "is_reserved": 0, "fusion_lon": 0.0, "fusion_lat": 0.0, "lon": -77.0240605, "name": "1e529b9a90fb9e60faa3c9d6fa3a4ad3"}, {"bike_id": "22776107701cfcebfb28570fdc7c4348", "type": "electric_scooter", "is_disabled": 0, "lat": 38.89224166666666, "rental_uris": {"ios": "https://dc.lft.to/lastmile_qr_scan", "android": "https://dc.lft.to/lastmile_qr_scan"}, "is_reserved": 0, "fusion_lon": 0.0, "fusion_lat": 0.0, "lon": -77.04865183333334, "name": "22776107701cfcebfb28570fdc7c4348"}, {"bike_id": "ec10a22a210621fb0fd54d3f1e783101", "type": "electric_scooter", "is_disabled": 0, "lat": 38.917046, "rental_uris": {"ios": "https://dc.lft.to/lastmile_qr_scan", "android": "https://dc.lft.to/lastmile_qr_scan"}, "is_reserved": 0, "fusion_lon": 0.0, "fusion_lat": 0.0, "lon": -77.0287255, "name": "ec10a22a210621fb0fd54d3f1e783101"}, {"bike_id": "d15203b08bbaa9545d6552dc95065836", "type": "electric_scooter", "is_disabled": 0, "lat": 38.92125216666667, "rental_uris": {"ios": "https://dc.lft.to/lastmile_qr_scan", "android": "https://dc.lft.to/lastmile_qr_scan"}, "is_reserved": 0, "fusion_lon": 0.0, "fusion_lat": 0.0, "lon": -77.03667633333333, "name": "d15203b08bbaa9545d6552dc95065836"}, {"bike_id": "b42d75417d6b9149ed4429cf27203ce5", "type": "electric_scooter", "is_disabled": 0, "lat": 38.904546, "rental_uris": {"ios": "https://dc.lft.to/lastmile_qr_scan", "android": "https://dc.lft.to/lastmile_qr_scan"}, "is_reserved": 0, "fusion_lon": 0.0, "fusion_lat": 0.0, "lon": -77.02896583333333, "name": "b42d75417d6b9149ed4429cf27203ce5"}, {"bike_id": "163d8aad267440098ceb5afdbd5f69ef", "type": "electric_bike", "is_disabled": 0, "lat": 39.02438083333333, "rental_uris": {"ios": "https://dc.lft.to/lastmile_qr_scan", "android": "https://dc.lft.to/lastmile_qr_scan"}, "is_reserved": 0, "fusion_lon": 0.0, "fusion_lat": 0.0, "lon": -77.13100516666667, "name": "163d8aad267440098ceb5afdbd5f69ef"}, {"bike_id": "ba8ac881ec758b04e559c204d9935e36", "type": "electric_scooter", "is_disabled": 0, "lat": 38.86696466666667, "rental_uris": {"ios": "https://dc.lft.to/lastmile_qr_scan", "android": "https://dc.lft.to/lastmile_qr_scan"}, "is_reserved": 0, "fusion_lon": 0.0, "fusion_lat": 0.0, "lon": -76.98714366666667, "name": "ba8ac881ec758b04e559c204d9935e36"}, {"bike_id": "cdb65c9d34ad575a439461478d76efe7", "type": "electric_scooter", "is_disabled": 0, "lat": 38.909606833333335, "rental_uris": {"ios": "https://dc.lft.to/lastmile_qr_scan", "android": "https://dc.lft.to/lastmile_qr_scan"}, "is_reserved": 0, "fusion_lon": 0.0, "fusion_lat": 0.0, "lon": -77.02122133333333, "name": "cdb65c9d34ad575a439461478d76efe7"}, {"bike_id": "4ff54eff71a2a714f536b45c5c2fb4b0", "type": "electric_bike", "is_disabled": 0, "lat": 38.898483166666665, "rental_uris": {"ios": "https://dc.lft.to/lastmile_qr_scan", "android": "https://dc.lft.to/lastmile_qr_scan"}, "is_reserved": 0, "fusion_lon": 0.0, "fusion_lat": 0.0, "lon": -77.05301, "name": "4ff54eff71a2a714f536b45c5c2fb4b0"}, {"bike_id": "88ee63d39f3f283bbe12eb907f648637", "type": "electric_scooter", "is_disabled": 0, "lat": 38.908691, "rental_uris": {"ios": "https://dc.lft.to/lastmile_qr_scan", "android": "https://dc.lft.to/lastmile_qr_scan"}, "is_reserved": 0, "fusion_lon": 0.0, "fusion_lat": 0.0, "lon": -77.03464516666666, "name": "88ee63d39f3f283bbe12eb907f648637"}, {"bike_id": "dc09033c4934f8186b9ccb8d56320e00", "type": "electric_scooter", "is_disabled": 0, "lat": 38.931410166666666, "rental_uris": {"ios": "https://dc.lft.to/lastmile_qr_scan", "android": "https://dc.lft.to/lastmile_qr_scan"}, "is_reserved": 0, "fusion_lon": 0.0, "fusion_lat": 0.0, "lon": -77.04241933333333, "name": "dc09033c4934f8186b9ccb8d56320e00"}, {"bike_id": "f093a1d5badc7dad90850a19d3dab5c6", "type": "electric_scooter", "is_disabled": 0, "lat": 38.957352666666665, "rental_uris": {"ios": "https://dc.lft.to/lastmile_qr_scan", "android": "https://dc.lft.to/lastmile_qr_scan"}, "is_reserved": 0, "fusion_lon": 0.0, "fusion_lat": 0.0, "lon": -77.02798583333333, "name": "f093a1d5badc7dad90850a19d3dab5c6"}, {"bike_id": "ba1993e41f8950b8637d4d4b766b26b0", "type": "electric_scooter", "is_disabled": 0, "lat": 38.9217835, "rental_uris": {"ios": "https://dc.lft.to/lastmile_qr_scan", "android": "https://dc.lft.to/lastmile_qr_scan"}, "is_reserved": 0, "fusion_lon": 0.0, "fusion_lat": 0.0, "lon": -76.99789933333334, "name": "ba1993e41f8950b8637d4d4b766b26b0"}, {"bike_id": "066506c92e9ebf8ceb95dede95ab5498", "type": "electric_scooter", "is_disabled": 0, "lat": 38.91480116666666, "rental_uris": {"ios": "https://dc.lft.to/lastmile_qr_scan", "android": "https://dc.lft.to/lastmile_qr_scan"}, "is_reserved": 0, "fusion_lon": 0.0, "fusion_lat": 0.0, "lon": -77.00287, "name": "066506c92e9ebf8ceb95dede95ab5498"}, {"bike_id": "21814587afe762680a1424a5caa41ae4", "type": "electric_scooter", "is_disabled": 0, "lat": 38.874992666666664, "rental_uris": {"ios": "https://dc.lft.to/lastmile_qr_scan", "android": "https://dc.lft.to/lastmile_qr_scan"}, "is_reserved": 0, "fusion_lon": 0.0, "fusion_lat": 0.0, "lon": -77.000976, "name": "21814587afe762680a1424a5caa41ae4"}, {"bike_id": "05df63d90623062fdda2f6ee2a058126", "type": "electric_scooter", "is_disabled": 0, "lat": 38.86503116666667, "rental_uris": {"ios": "https://dc.lft.to/lastmile_qr_scan", "android": "https://dc.lft.to/lastmile_qr_scan"}, "is_reserved": 0, "fusion_lon": 0.0, "fusion_lat": 0.0, "lon": -76.990038, "name": "05df63d90623062fdda2f6ee2a058126"}, {"bike_id": "a080b93b79883606ae2a46c11e733aef", "type": "electric_scooter", "is_disabled": 0, "lat": 38.91554466666667, "rental_uris": {"ios": "https://dc.lft.to/lastmile_qr_scan", "android": "https://dc.lft.to/lastmile_qr_scan"}, "is_reserved": 0, "fusion_lon": 0.0, "fusion_lat": 0.0, "lon": -77.02569666666666, "name": "a080b93b79883606ae2a46c11e733aef"}, {"bike_id": "769128d73d94f227669949ccfd65ad35", "type": "electric_scooter", "is_disabled": 0, "lat": 38.946137666666665, "rental_uris": {"ios": "https://dc.lft.to/lastmile_qr_scan", "android": "https://dc.lft.to/lastmile_qr_scan"}, "is_reserved": 0, "fusion_lon": 0.0, "fusion_lat": 0.0, "lon": -77.0226845, "name": "769128d73d94f227669949ccfd65ad35"}, {"bike_id": "6b38276383d72a32ff2ea5511ee796f5", "type": "electric_scooter", "is_disabled": 0, "lat": 38.90792316666667, "rental_uris": {"ios": "https://dc.lft.to/lastmile_qr_scan", "android": "https://dc.lft.to/lastmile_qr_scan"}, "is_reserved": 0, "fusion_lon": 0.0, "fusion_lat": 0.0, "lon": -76.9941835, "name": "6b38276383d72a32ff2ea5511ee796f5"}, {"bike_id": "3e08c53bdd727d9048e0cc2e3b85c92b", "type": "electric_scooter", "is_disabled": 0, "lat": 38.939796666666666, "rental_uris": {"ios": "https://dc.lft.to/lastmile_qr_scan", "android": "https://dc.lft.to/lastmile_qr_scan"}, "is_reserved": 0, "fusion_lon": 0.0, "fusion_lat": 0.0, "lon": -77.02874166666666, "name": "3e08c53bdd727d9048e0cc2e3b85c92b"}, {"bike_id": "885a25d7c5551e70e5b2d88c34492669", "type": "electric_scooter", "is_disabled": 0, "lat": 38.92329566666667, "rental_uris": {"ios": "https://dc.lft.to/lastmile_qr_scan", "android": "https://dc.lft.to/lastmile_qr_scan"}, "is_reserved": 0, "fusion_lon": 0.0, "fusion_lat": 0.0, "lon": -77.00048816666667, "name": "885a25d7c5551e70e5b2d88c34492669"}, {"bike_id": "f141623c4c23d214213bc9abbe5acb3b", "type": "electric_scooter", "is_disabled": 0, "lat": 38.866298, "rental_uris": {"ios": "https://dc.lft.to/lastmile_qr_scan", "android": "https://dc.lft.to/lastmile_qr_scan"}, "is_reserved": 0, "fusion_lon": 0.0, "fusion_lat": 0.0, "lon": -76.98716916666666, "name": "f141623c4c23d214213bc9abbe5acb3b"}, {"bike_id": "01010e5a24a1920fbfcff3b391a93dca", "type": "electric_scooter", "is_disabled": 0, "lat": 38.894889, "rental_uris": {"ios": "https://dc.lft.to/lastmile_qr_scan", "android": "https://dc.lft.to/lastmile_qr_scan"}, "is_reserved": 0, "fusion_lon": 0.0, "fusion_lat": 0.0, "lon": -76.9878105, "name": "01010e5a24a1920fbfcff3b391a93dca"}, {"bike_id": "79602dc9c12405d4a882e3d70660ea6b", "type": "electric_scooter", "is_disabled": 0, "lat": 38.892956833333336, "rental_uris": {"ios": "https://dc.lft.to/lastmile_qr_scan", "android": "https://dc.lft.to/lastmile_qr_scan"}, "is_reserved": 0, "fusion_lon": 0.0, "fusion_lat": 0.0, "lon": -77.02021966666666, "name": "79602dc9c12405d4a882e3d70660ea6b"}, {"bike_id": "2ab1b865d582326c43ec5549ae9e8bb5", "type": "electric_scooter", "is_disabled": 0, "lat": 38.90555483333333, "rental_uris": {"ios": "https://dc.lft.to/lastmile_qr_scan", "android": "https://dc.lft.to/lastmile_qr_scan"}, "is_reserved": 0, "fusion_lon": 0.0, "fusion_lat": 0.0, "lon": -77.02179033333333, "name": "2ab1b865d582326c43ec5549ae9e8bb5"}, {"bike_id": "4738f5bbe2c1166634fff915d8dab77c", "type": "electric_scooter", "is_disabled": 0, "lat": 38.895586, "rental_uris": {"ios": "https://dc.lft.to/lastmile_qr_scan", "android": "https://dc.lft.to/lastmile_qr_scan"}, "is_reserved": 0, "fusion_lon": 0.0, "fusion_lat": 0.0, "lon": -77.008989, "name": "4738f5bbe2c1166634fff915d8dab77c"}, {"bike_id": "7abe83b15fc59fb6794e0b5a3ab8ee29", "type": "electric_scooter", "is_disabled": 0, "lat": 38.858095, "rental_uris": {"ios": "https://dc.lft.to/lastmile_qr_scan", "android": "https://dc.lft.to/lastmile_qr_scan"}, "is_reserved": 0, "fusion_lon": 0.0, "fusion_lat": 0.0, "lon": -76.98918616666667, "name": "7abe83b15fc59fb6794e0b5a3ab8ee29"}, {"bike_id": "11390d0f032ebf59126891c67f0ccdb6", "type": "electric_scooter", "is_disabled": 0, "lat": 38.916973666666664, "rental_uris": {"ios": "https://dc.lft.to/lastmile_qr_scan", "android": "https://dc.lft.to/lastmile_qr_scan"}, "is_reserved": 0, "fusion_lon": 0.0, "fusion_lat": 0.0, "lon": -77.03178416666667, "name": "11390d0f032ebf59126891c67f0ccdb6"}, {"bike_id": "99a39fbb0263d6fde9734a023086929d", "type": "electric_scooter", "is_disabled": 0, "lat": 38.897246333333335, "rental_uris": {"ios": "https://dc.lft.to/lastmile_qr_scan", "android": "https://dc.lft.to/lastmile_qr_scan"}, "is_reserved": 0, "fusion_lon": 0.0, "fusion_lat": 0.0, "lon": -77.0270545, "name": "99a39fbb0263d6fde9734a023086929d"}, {"bike_id": "add1865787e8d70d3216f0d4343162ca", "type": "electric_scooter", "is_disabled": 0, "lat": 38.87074233333333, "rental_uris": {"ios": "https://dc.lft.to/lastmile_qr_scan", "android": "https://dc.lft.to/lastmile_qr_scan"}, "is_reserved": 0, "fusion_lon": 0.0, "fusion_lat": 0.0, "lon": -76.98129333333333, "name": "add1865787e8d70d3216f0d4343162ca"}, {"bike_id": "2c54a54ca6760ae0cd4bb2c4468b23e6", "type": "electric_scooter", "is_disabled": 0, "lat": 38.88638433333333, "rental_uris": {"ios": "https://dc.lft.to/lastmile_qr_scan", "android": "https://dc.lft.to/lastmile_qr_scan"}, "is_reserved": 0, "fusion_lon": 0.0, "fusion_lat": 0.0, "lon": -77.01363, "name": "2c54a54ca6760ae0cd4bb2c4468b23e6"}, {"bike_id": "036b02545887affaeba72a1ffbf2ac29", "type": "electric_bike", "is_disabled": 0, "lat": 38.94364433333333, "rental_uris": {"ios": "https://dc.lft.to/lastmile_qr_scan", "android": "https://dc.lft.to/lastmile_qr_scan"}, "is_reserved": 0, "fusion_lon": 0.0, "fusion_lat": 0.0, "lon": -77.00352766666667, "name": "036b02545887affaeba72a1ffbf2ac29"}, {"bike_id": "ff4f09d8a9c2af1c27a1465b0cc5ae2f", "type": "electric_bike", "is_disabled": 0, "lat": 38.80756816666667, "rental_uris": {"ios": "https://dc.lft.to/lastmile_qr_scan", "android": "https://dc.lft.to/lastmile_qr_scan"}, "is_reserved": 0, "fusion_lon": 0.0, "fusion_lat": 0.0, "lon": -77.09454583333333, "name": "ff4f09d8a9c2af1c27a1465b0cc5ae2f"}, {"bike_id": "ae3870444a994223349bdaddd870c9df", "type": "electric_scooter", "is_disabled": 0, "lat": 38.89197166666667, "rental_uris": {"ios": "https://dc.lft.to/lastmile_qr_scan", "android": "https://dc.lft.to/lastmile_qr_scan"}, "is_reserved": 0, "fusion_lon": 0.0, "fusion_lat": 0.0, "lon": -77.025021, "name": "ae3870444a994223349bdaddd870c9df"}, {"bike_id": "3f405243075b440e8f49418876bde6c1", "type": "electric_scooter", "is_disabled": 0, "lat": 38.916983333333334, "rental_uris": {"ios": "https://dc.lft.to/lastmile_qr_scan", "android": "https://dc.lft.to/lastmile_qr_scan"}, "is_reserved": 0, "fusion_lon": 0.0, "fusion_lat": 0.0, "lon": -77.028898, "name": "3f405243075b440e8f49418876bde6c1"}, {"bike_id": "9ae0cfd8eeabacc57c1a51c2be32d53f", "type": "electric_scooter", "is_disabled": 0, "lat": 38.93325033333333, "rental_uris": {"ios": "https://dc.lft.to/lastmile_qr_scan", "android": "https://dc.lft.to/lastmile_qr_scan"}, "is_reserved": 0, "fusion_lon": 0.0, "fusion_lat": 0.0, "lon": -77.023978, "name": "9ae0cfd8eeabacc57c1a51c2be32d53f"}, {"bike_id": "33050356b664965e27d2d38268177c17", "type": "electric_scooter", "is_disabled": 0, "lat": 38.899701, "rental_uris": {"ios": "https://dc.lft.to/lastmile_qr_scan", "android": "https://dc.lft.to/lastmile_qr_scan"}, "is_reserved": 0, "fusion_lon": 0.0, "fusion_lat": 0.0, "lon": -76.98304933333333, "name": "33050356b664965e27d2d38268177c17"}, {"bike_id": "1edd7b08ec1e282af11dafc95666d899", "type": "electric_scooter", "is_disabled": 0, "lat": 38.9159955, "rental_uris": {"ios": "https://dc.lft.to/lastmile_qr_scan", "android": "https://dc.lft.to/lastmile_qr_scan"}, "is_reserved": 0, "fusion_lon": 0.0, "fusion_lat": 0.0, "lon": -77.03985216666666, "name": "1edd7b08ec1e282af11dafc95666d899"}, {"bike_id": "f6a5d933accf109c9a0b72cd8f35cbdf", "type": "electric_scooter", "is_disabled": 0, "lat": 38.89292583333334, "rental_uris": {"ios": "https://dc.lft.to/lastmile_qr_scan", "android": "https://dc.lft.to/lastmile_qr_scan"}, "is_reserved": 0, "fusion_lon": 0.0, "fusion_lat": 0.0, "lon": -77.04875583333333, "name": "f6a5d933accf109c9a0b72cd8f35cbdf"}, {"bike_id": "8204f4e171f58eec6a4bfa160d411708", "type": "electric_bike", "is_disabled": 0, "lat": 38.917154, "rental_uris": {"ios": "https://dc.lft.to/lastmile_qr_scan", "android": "https://dc.lft.to/lastmile_qr_scan"}, "is_reserved": 0, "fusion_lon": 0.0, "fusion_lat": 0.0, "lon": -77.04486816666666, "name": "8204f4e171f58eec6a4bfa160d411708"}, {"bike_id": "921ab87140fb28c1438fa7a6d6170051", "type": "electric_scooter", "is_disabled": 0, "lat": 38.8644375, "rental_uris": {"ios": "https://dc.lft.to/lastmile_qr_scan", "android": "https://dc.lft.to/lastmile_qr_scan"}, "is_reserved": 0, "fusion_lon": 0.0, "fusion_lat": 0.0, "lon": -76.979884, "name": "921ab87140fb28c1438fa7a6d6170051"}, {"bike_id": "fb7f08ef1b3c7ce2cf7933987cd499c9", "type": "electric_scooter", "is_disabled": 0, "lat": 38.89259583333333, "rental_uris": {"ios": "https://dc.lft.to/lastmile_qr_scan", "android": "https://dc.lft.to/lastmile_qr_scan"}, "is_reserved": 0, "fusion_lon": 0.0, "fusion_lat": 0.0, "lon": -76.92570916666666, "name": "fb7f08ef1b3c7ce2cf7933987cd499c9"}, {"bike_id": "a08528cae3200357647b5d05dc253b9a", "type": "electric_scooter", "is_disabled": 0, "lat": 38.908548, "rental_uris": {"ios": "https://dc.lft.to/lastmile_qr_scan", "android": "https://dc.lft.to/lastmile_qr_scan"}, "is_reserved": 0, "fusion_lon": 0.0, "fusion_lat": 0.0, "lon": -77.03007866666667, "name": "a08528cae3200357647b5d05dc253b9a"}, {"bike_id": "e218161a94938334c8f0fff534ec98a3", "type": "electric_scooter", "is_disabled": 0, "lat": 38.95665066666667, "rental_uris": {"ios": "https://dc.lft.to/lastmile_qr_scan", "android": "https://dc.lft.to/lastmile_qr_scan"}, "is_reserved": 0, "fusion_lon": 0.0, "fusion_lat": 0.0, "lon": -77.02402266666667, "name": "e218161a94938334c8f0fff534ec98a3"}, {"bike_id": "4be6015f34dc7d5c66e3e56048492e7d", "type": "electric_scooter", "is_disabled": 0, "lat": 38.874353166666666, "rental_uris": {"ios": "https://dc.lft.to/lastmile_qr_scan", "android": "https://dc.lft.to/lastmile_qr_scan"}, "is_reserved": 0, "fusion_lon": 0.0, "fusion_lat": 0.0, "lon": -77.000513, "name": "4be6015f34dc7d5c66e3e56048492e7d"}, {"bike_id": "600c92424d7dcdaf6ca84156da8dccd5", "type": "electric_scooter", "is_disabled": 0, "lat": 38.904871666666665, "rental_uris": {"ios": "https://dc.lft.to/lastmile_qr_scan", "android": "https://dc.lft.to/lastmile_qr_scan"}, "is_reserved": 0, "fusion_lon": 0.0, "fusion_lat": 0.0, "lon": -77.02936833333334, "name": "600c92424d7dcdaf6ca84156da8dccd5"}, {"bike_id": "5036b53d5c122ec9e96a785c5e4ecdd2", "type": "electric_scooter", "is_disabled": 0, "lat": 38.92005066666667, "rental_uris": {"ios": "https://dc.lft.to/lastmile_qr_scan", "android": "https://dc.lft.to/lastmile_qr_scan"}, "is_reserved": 0, "fusion_lon": 0.0, "fusion_lat": 0.0, "lon": -77.04170583333334, "name": "5036b53d5c122ec9e96a785c5e4ecdd2"}, {"bike_id": "040c65ec8083585a3f7e43ef233830d8", "type": "electric_scooter", "is_disabled": 0, "lat": 38.9140145, "rental_uris": {"ios": "https://dc.lft.to/lastmile_qr_scan", "android": "https://dc.lft.to/lastmile_qr_scan"}, "is_reserved": 0, "fusion_lon": 0.0, "fusion_lat": 0.0, "lon": -77.03184966666667, "name": "040c65ec8083585a3f7e43ef233830d8"}, {"bike_id": "89abde941846c439d916059f4204795f", "type": "electric_scooter", "is_disabled": 0, "lat": 38.89219216666667, "rental_uris": {"ios": "https://dc.lft.to/lastmile_qr_scan", "android": "https://dc.lft.to/lastmile_qr_scan"}, "is_reserved": 0, "fusion_lon": 0.0, "fusion_lat": 0.0, "lon": -77.043607, "name": "89abde941846c439d916059f4204795f"}, {"bike_id": "15e4672ba2179e6810688efbe18224db", "type": "electric_scooter", "is_disabled": 0, "lat": 38.9025485, "rental_uris": {"ios": "https://dc.lft.to/lastmile_qr_scan", "android": "https://dc.lft.to/lastmile_qr_scan"}, "is_reserved": 0, "fusion_lon": 0.0, "fusion_lat": 0.0, "lon": -77.04136683333333, "name": "15e4672ba2179e6810688efbe18224db"}, {"bike_id": "1621617ef34dff3f9f3d52777d7c3af0", "type": "electric_scooter", "is_disabled": 0, "lat": 38.933789833333336, "rental_uris": {"ios": "https://dc.lft.to/lastmile_qr_scan", "android": "https://dc.lft.to/lastmile_qr_scan"}, "is_reserved": 0, "fusion_lon": 0.0, "fusion_lat": 0.0, "lon": -77.05729616666666, "name": "1621617ef34dff3f9f3d52777d7c3af0"}, {"bike_id": "092c2afef272983167a0d75e7c095cfe", "type": "electric_scooter", "is_disabled": 0, "lat": 38.9097815, "rental_uris": {"ios": "https://dc.lft.to/lastmile_qr_scan", "android": "https://dc.lft.to/lastmile_qr_scan"}, "is_reserved": 0, "fusion_lon": 0.0, "fusion_lat": 0.0, "lon": -77.033327, "name": "092c2afef272983167a0d75e7c095cfe"}, {"bike_id": "61e1da63b02edd7647a65f9dab0ca4fb", "type": "electric_scooter", "is_disabled": 0, "lat": 38.9058915, "rental_uris": {"ios": "https://dc.lft.to/lastmile_qr_scan", "android": "https://dc.lft.to/lastmile_qr_scan"}, "is_reserved": 0, "fusion_lon": 0.0, "fusion_lat": 0.0, "lon": -77.023836, "name": "61e1da63b02edd7647a65f9dab0ca4fb"}, {"bike_id": "e56c8e17fe09920e30a4dc8956b09da1", "type": "electric_scooter", "is_disabled": 0, "lat": 38.912663333333334, "rental_uris": {"ios": "https://dc.lft.to/lastmile_qr_scan", "android": "https://dc.lft.to/lastmile_qr_scan"}, "is_reserved": 0, "fusion_lon": 0.0, "fusion_lat": 0.0, "lon": -77.04036916666666, "name": "e56c8e17fe09920e30a4dc8956b09da1"}, {"bike_id": "8f82a1a0eff0b0dbf994864fd550446d", "type": "electric_scooter", "is_disabled": 0, "lat": 38.902438, "rental_uris": {"ios": "https://dc.lft.to/lastmile_qr_scan", "android": "https://dc.lft.to/lastmile_qr_scan"}, "is_reserved": 0, "fusion_lon": 0.0, "fusion_lat": 0.0, "lon": -77.0433445, "name": "8f82a1a0eff0b0dbf994864fd550446d"}, {"bike_id": "2621041d2794e71011c1d9152fcbbc95", "type": "electric_bike", "is_disabled": 0, "lat": 38.809081, "rental_uris": {"ios": "https://dc.lft.to/lastmile_qr_scan", "android": "https://dc.lft.to/lastmile_qr_scan"}, "is_reserved": 0, "fusion_lon": 0.0, "fusion_lat": 0.0, "lon": -77.08650733333333, "name": "2621041d2794e71011c1d9152fcbbc95"}, {"bike_id": "10d010b280533ba93f5aaadeeb53c24c", "type": "electric_scooter", "is_disabled": 0, "lat": 38.911341166666666, "rental_uris": {"ios": "https://dc.lft.to/lastmile_qr_scan", "android": "https://dc.lft.to/lastmile_qr_scan"}, "is_reserved": 0, "fusion_lon": 0.0, "fusion_lat": 0.0, "lon": -77.02202733333333, "name": "10d010b280533ba93f5aaadeeb53c24c"}, {"bike_id": "db02b48ae2f774b55f5ba5e60bc4d349", "type": "electric_scooter", "is_disabled": 0, "lat": 38.9264495, "rental_uris": {"ios": "https://dc.lft.to/lastmile_qr_scan", "android": "https://dc.lft.to/lastmile_qr_scan"}, "is_reserved": 0, "fusion_lon": 0.0, "fusion_lat": 0.0, "lon": -77.01383816666667, "name": "db02b48ae2f774b55f5ba5e60bc4d349"}, {"bike_id": "72cd1b1da59e1efbeff0dd7646cf0399", "type": "electric_scooter", "is_disabled": 0, "lat": 38.885371166666665, "rental_uris": {"ios": "https://dc.lft.to/lastmile_qr_scan", "android": "https://dc.lft.to/lastmile_qr_scan"}, "is_reserved": 0, "fusion_lon": 0.0, "fusion_lat": 0.0, "lon": -76.9982505, "name": "72cd1b1da59e1efbeff0dd7646cf0399"}, {"bike_id": "749b3be0f49307cb0d3ecb8db6a808b4", "type": "electric_scooter", "is_disabled": 0, "lat": 38.922307833333335, "rental_uris": {"ios": "https://dc.lft.to/lastmile_qr_scan", "android": "https://dc.lft.to/lastmile_qr_scan"}, "is_reserved": 0, "fusion_lon": 0.0, "fusion_lat": 0.0, "lon": -77.02213116666667, "name": "749b3be0f49307cb0d3ecb8db6a808b4"}, {"bike_id": "976f75f4a624b6ee9dadf522e63a8462", "type": "electric_scooter", "is_disabled": 0, "lat": 38.9116, "rental_uris": {"ios": "https://dc.lft.to/lastmile_qr_scan", "android": "https://dc.lft.to/lastmile_qr_scan"}, "is_reserved": 0, "fusion_lon": 0.0, "fusion_lat": 0.0, "lon": -77.02951233333333, "name": "976f75f4a624b6ee9dadf522e63a8462"}, {"bike_id": "d7d26779859f59b137d99b6fb12e2456", "type": "electric_scooter", "is_disabled": 0, "lat": 38.8930035, "rental_uris": {"ios": "https://dc.lft.to/lastmile_qr_scan", "android": "https://dc.lft.to/lastmile_qr_scan"}, "is_reserved": 0, "fusion_lon": 0.0, "fusion_lat": 0.0, "lon": -77.041636, "name": "d7d26779859f59b137d99b6fb12e2456"}, {"bike_id": "159082b35cb6fad4e45bfab3e994c219", "type": "electric_scooter", "is_disabled": 0, "lat": 38.892402, "rental_uris": {"ios": "https://dc.lft.to/lastmile_qr_scan", "android": "https://dc.lft.to/lastmile_qr_scan"}, "is_reserved": 0, "fusion_lon": 0.0, "fusion_lat": 0.0, "lon": -76.95327516666667, "name": "159082b35cb6fad4e45bfab3e994c219"}, {"bike_id": "dde14d52635c74ef6c82c64f220ed464", "type": "electric_scooter", "is_disabled": 0, "lat": 38.86506683333333, "rental_uris": {"ios": "https://dc.lft.to/lastmile_qr_scan", "android": "https://dc.lft.to/lastmile_qr_scan"}, "is_reserved": 0, "fusion_lon": 0.0, "fusion_lat": 0.0, "lon": -76.99004233333334, "name": "dde14d52635c74ef6c82c64f220ed464"}, {"bike_id": "817928404136007aaf218a09481d64c8", "type": "electric_scooter", "is_disabled": 0, "lat": 38.8850215, "rental_uris": {"ios": "https://dc.lft.to/lastmile_qr_scan", "android": "https://dc.lft.to/lastmile_qr_scan"}, "is_reserved": 0, "fusion_lon": 0.0, "fusion_lat": 0.0, "lon": -77.02536366666666, "name": "817928404136007aaf218a09481d64c8"}, {"bike_id": "0cf448e1943296ae7bce56f58bc5f056", "type": "electric_scooter", "is_disabled": 0, "lat": 38.9024855, "rental_uris": {"ios": "https://dc.lft.to/lastmile_qr_scan", "android": "https://dc.lft.to/lastmile_qr_scan"}, "is_reserved": 0, "fusion_lon": 0.0, "fusion_lat": 0.0, "lon": -77.01826633333333, "name": "0cf448e1943296ae7bce56f58bc5f056"}, {"bike_id": "004ce12fa66accb56105d8f0ff83d5c4", "type": "electric_scooter", "is_disabled": 0, "lat": 38.927497, "rental_uris": {"ios": "https://dc.lft.to/lastmile_qr_scan", "android": "https://dc.lft.to/lastmile_qr_scan"}, "is_reserved": 0, "fusion_lon": 0.0, "fusion_lat": 0.0, "lon": -77.023807, "name": "004ce12fa66accb56105d8f0ff83d5c4"}, {"bike_id": "b701fdfec3f4a73cd26633dc5581a16e", "type": "electric_scooter", "is_disabled": 0, "lat": 38.902855333333335, "rental_uris": {"ios": "https://dc.lft.to/lastmile_qr_scan", "android": "https://dc.lft.to/lastmile_qr_scan"}, "is_reserved": 0, "fusion_lon": 0.0, "fusion_lat": 0.0, "lon": -77.03641733333333, "name": "b701fdfec3f4a73cd26633dc5581a16e"}, {"bike_id": "597b042b457d692a586bfc645ef19152", "type": "electric_scooter", "is_disabled": 0, "lat": 38.91904016666667, "rental_uris": {"ios": "https://dc.lft.to/lastmile_qr_scan", "android": "https://dc.lft.to/lastmile_qr_scan"}, "is_reserved": 0, "fusion_lon": 0.0, "fusion_lat": 0.0, "lon": -77.04456733333333, "name": "597b042b457d692a586bfc645ef19152"}, {"bike_id": "5d28826bf27bf3135a20b2ead0d83bad", "type": "electric_scooter", "is_disabled": 0, "lat": 38.91133466666667, "rental_uris": {"ios": "https://dc.lft.to/lastmile_qr_scan", "android": "https://dc.lft.to/lastmile_qr_scan"}, "is_reserved": 0, "fusion_lon": 0.0, "fusion_lat": 0.0, "lon": -77.02202, "name": "5d28826bf27bf3135a20b2ead0d83bad"}, {"bike_id": "b2a817081d221d52fac8e6e5b0fde8ad", "type": "electric_scooter", "is_disabled": 0, "lat": 38.9191835, "rental_uris": {"ios": "https://dc.lft.to/lastmile_qr_scan", "android": "https://dc.lft.to/lastmile_qr_scan"}, "is_reserved": 0, "fusion_lon": 0.0, "fusion_lat": 0.0, "lon": -77.00252133333333, "name": "b2a817081d221d52fac8e6e5b0fde8ad"}, {"bike_id": "a4e38084bb3c024e628fb99db4ac420b", "type": "electric_scooter", "is_disabled": 0, "lat": 38.90936133333334, "rental_uris": {"ios": "https://dc.lft.to/lastmile_qr_scan", "android": "https://dc.lft.to/lastmile_qr_scan"}, "is_reserved": 0, "fusion_lon": 0.0, "fusion_lat": 0.0, "lon": -77.04940166666667, "name": "a4e38084bb3c024e628fb99db4ac420b"}, {"bike_id": "0072b5e6c31b5e765b77d66459af1c67", "type": "electric_scooter", "is_disabled": 0, "lat": 38.903894666666666, "rental_uris": {"ios": "https://dc.lft.to/lastmile_qr_scan", "android": "https://dc.lft.to/lastmile_qr_scan"}, "is_reserved": 0, "fusion_lon": 0.0, "fusion_lat": 0.0, "lon": -77.0088125, "name": "0072b5e6c31b5e765b77d66459af1c67"}, {"bike_id": "b355f73e7aba99513fa89d1b6580f568", "type": "electric_scooter", "is_disabled": 0, "lat": 38.914237166666666, "rental_uris": {"ios": "https://dc.lft.to/lastmile_qr_scan", "android": "https://dc.lft.to/lastmile_qr_scan"}, "is_reserved": 0, "fusion_lon": 0.0, "fusion_lat": 0.0, "lon": -77.03248233333333, "name": "b355f73e7aba99513fa89d1b6580f568"}, {"bike_id": "727087c1dfe3711cfb6b68535eab621c", "type": "electric_bike", "is_disabled": 0, "lat": 38.96503466666667, "rental_uris": {"ios": "https://dc.lft.to/lastmile_qr_scan", "android": "https://dc.lft.to/lastmile_qr_scan"}, "is_reserved": 0, "fusion_lon": 0.0, "fusion_lat": 0.0, "lon": -77.020999, "name": "727087c1dfe3711cfb6b68535eab621c"}, {"bike_id": "47831ab4c02052c628be53d296de555d", "type": "electric_scooter", "is_disabled": 0, "lat": 38.89611133333333, "rental_uris": {"ios": "https://dc.lft.to/lastmile_qr_scan", "android": "https://dc.lft.to/lastmile_qr_scan"}, "is_reserved": 0, "fusion_lon": 0.0, "fusion_lat": 0.0, "lon": -77.04506683333334, "name": "47831ab4c02052c628be53d296de555d"}, {"bike_id": "a78761432eae3046f4c6037e1a173fac", "type": "electric_scooter", "is_disabled": 0, "lat": 38.921929666666664, "rental_uris": {"ios": "https://dc.lft.to/lastmile_qr_scan", "android": "https://dc.lft.to/lastmile_qr_scan"}, "is_reserved": 0, "fusion_lon": 0.0, "fusion_lat": 0.0, "lon": -77.02089866666667, "name": "a78761432eae3046f4c6037e1a173fac"}, {"bike_id": "11be5216c65a7eb9f01f677b74a52268", "type": "electric_scooter", "is_disabled": 0, "lat": 38.92461183333333, "rental_uris": {"ios": "https://dc.lft.to/lastmile_qr_scan", "android": "https://dc.lft.to/lastmile_qr_scan"}, "is_reserved": 0, "fusion_lon": 0.0, "fusion_lat": 0.0, "lon": -77.05202683333333, "name": "11be5216c65a7eb9f01f677b74a52268"}, {"bike_id": "c52d4890d24a57c0bb57aaaca2f66d72", "type": "electric_scooter", "is_disabled": 0, "lat": 38.9142845, "rental_uris": {"ios": "https://dc.lft.to/lastmile_qr_scan", "android": "https://dc.lft.to/lastmile_qr_scan"}, "is_reserved": 0, "fusion_lon": 0.0, "fusion_lat": 0.0, "lon": -77.0458315, "name": "c52d4890d24a57c0bb57aaaca2f66d72"}, {"bike_id": "bfdde53d7e6069e24ebb8b246c3e4037", "type": "electric_scooter", "is_disabled": 0, "lat": 38.905586666666665, "rental_uris": {"ios": "https://dc.lft.to/lastmile_qr_scan", "android": "https://dc.lft.to/lastmile_qr_scan"}, "is_reserved": 0, "fusion_lon": 0.0, "fusion_lat": 0.0, "lon": -77.04242483333333, "name": "bfdde53d7e6069e24ebb8b246c3e4037"}, {"bike_id": "a353dc800b251769aee188a6f0048e40", "type": "electric_scooter", "is_disabled": 0, "lat": 38.8935965, "rental_uris": {"ios": "https://dc.lft.to/lastmile_qr_scan", "android": "https://dc.lft.to/lastmile_qr_scan"}, "is_reserved": 0, "fusion_lon": 0.0, "fusion_lat": 0.0, "lon": -76.94931333333334, "name": "a353dc800b251769aee188a6f0048e40"}, {"bike_id": "144b6d666c69a17638f34a225b2d3c48", "type": "electric_scooter", "is_disabled": 0, "lat": 38.909717666666666, "rental_uris": {"ios": "https://dc.lft.to/lastmile_qr_scan", "android": "https://dc.lft.to/lastmile_qr_scan"}, "is_reserved": 0, "fusion_lon": 0.0, "fusion_lat": 0.0, "lon": -77.04229916666667, "name": "144b6d666c69a17638f34a225b2d3c48"}, {"bike_id": "212c34c2fde90f19614c469038af7890", "type": "electric_scooter", "is_disabled": 0, "lat": 38.90560083333333, "rental_uris": {"ios": "https://dc.lft.to/lastmile_qr_scan", "android": "https://dc.lft.to/lastmile_qr_scan"}, "is_reserved": 0, "fusion_lon": 0.0, "fusion_lat": 0.0, "lon": -77.06522183333334, "name": "212c34c2fde90f19614c469038af7890"}, {"bike_id": "a15c766de4599248b7632d915ee9a2a5", "type": "electric_scooter", "is_disabled": 0, "lat": 38.88861816666667, "rental_uris": {"ios": "https://dc.lft.to/lastmile_qr_scan", "android": "https://dc.lft.to/lastmile_qr_scan"}, "is_reserved": 0, "fusion_lon": 0.0, "fusion_lat": 0.0, "lon": -76.99142433333333, "name": "a15c766de4599248b7632d915ee9a2a5"}, {"bike_id": "2f283f460d356170a3e9386853520b42", "type": "electric_scooter", "is_disabled": 0, "lat": 38.91971483333333, "rental_uris": {"ios": "https://dc.lft.to/lastmile_qr_scan", "android": "https://dc.lft.to/lastmile_qr_scan"}, "is_reserved": 0, "fusion_lon": 0.0, "fusion_lat": 0.0, "lon": -77.04270033333333, "name": "2f283f460d356170a3e9386853520b42"}, {"bike_id": "df5796033e93295498fd028309928895", "type": "electric_scooter", "is_disabled": 0, "lat": 38.911764, "rental_uris": {"ios": "https://dc.lft.to/lastmile_qr_scan", "android": "https://dc.lft.to/lastmile_qr_scan"}, "is_reserved": 0, "fusion_lon": 0.0, "fusion_lat": 0.0, "lon": -77.031846, "name": "df5796033e93295498fd028309928895"}, {"bike_id": "c33b63ed48a775688730e757b8d478d8", "type": "electric_scooter", "is_disabled": 0, "lat": 38.8464145, "rental_uris": {"ios": "https://dc.lft.to/lastmile_qr_scan", "android": "https://dc.lft.to/lastmile_qr_scan"}, "is_reserved": 0, "fusion_lon": 0.0, "fusion_lat": 0.0, "lon": -76.99128716666667, "name": "c33b63ed48a775688730e757b8d478d8"}, {"bike_id": "a3d8bc63b22fe85852654c5d5d0ed2b9", "type": "electric_bike", "is_disabled": 0, "lat": 38.82175483333333, "rental_uris": {"ios": "https://dc.lft.to/lastmile_qr_scan", "android": "https://dc.lft.to/lastmile_qr_scan"}, "is_reserved": 0, "fusion_lon": 0.0, "fusion_lat": 0.0, "lon": -76.995112, "name": "a3d8bc63b22fe85852654c5d5d0ed2b9"}, {"bike_id": "5486119720dc2842ccce6f430ac19e53", "type": "electric_bike", "is_disabled": 0, "lat": 38.89627683333333, "rental_uris": {"ios": "https://dc.lft.to/lastmile_qr_scan", "android": "https://dc.lft.to/lastmile_qr_scan"}, "is_reserved": 0, "fusion_lon": 0.0, "fusion_lat": 0.0, "lon": -77.03004833333334, "name": "5486119720dc2842ccce6f430ac19e53"}, {"bike_id": "e0a3e6f8fd35fb9d07e6f6720d2f816c", "type": "electric_bike", "is_disabled": 0, "lat": 39.043099833333336, "rental_uris": {"ios": "https://dc.lft.to/lastmile_qr_scan", "android": "https://dc.lft.to/lastmile_qr_scan"}, "is_reserved": 0, "fusion_lon": 0.0, "fusion_lat": 0.0, "lon": -77.05157033333333, "name": "e0a3e6f8fd35fb9d07e6f6720d2f816c"}, {"bike_id": "7b1cc527f9777f73b9efb53f6f53ae4b", "type": "electric_scooter", "is_disabled": 0, "lat": 38.883556, "rental_uris": {"ios": "https://dc.lft.to/lastmile_qr_scan", "android": "https://dc.lft.to/lastmile_qr_scan"}, "is_reserved": 0, "fusion_lon": 0.0, "fusion_lat": 0.0, "lon": -76.99488816666667, "name": "7b1cc527f9777f73b9efb53f6f53ae4b"}, {"bike_id": "11e2d956315cbcbcfa91e0db0269d224", "type": "electric_scooter", "is_disabled": 0, "lat": 38.9308435, "rental_uris": {"ios": "https://dc.lft.to/lastmile_qr_scan", "android": "https://dc.lft.to/lastmile_qr_scan"}, "is_reserved": 0, "fusion_lon": 0.0, "fusion_lat": 0.0, "lon": -77.025537, "name": "11e2d956315cbcbcfa91e0db0269d224"}, {"bike_id": "cc41d5c674cba8d0216d79322c14c08e", "type": "electric_scooter", "is_disabled": 0, "lat": 38.9246385, "rental_uris": {"ios": "https://dc.lft.to/lastmile_qr_scan", "android": "https://dc.lft.to/lastmile_qr_scan"}, "is_reserved": 0, "fusion_lon": 0.0, "fusion_lat": 0.0, "lon": -77.02266616666667, "name": "cc41d5c674cba8d0216d79322c14c08e"}, {"bike_id": "f247e79e893ad7ed8f38e2ed2c50f8ca", "type": "electric_scooter", "is_disabled": 0, "lat": 38.87158866666667, "rental_uris": {"ios": "https://dc.lft.to/lastmile_qr_scan", "android": "https://dc.lft.to/lastmile_qr_scan"}, "is_reserved": 0, "fusion_lon": 0.0, "fusion_lat": 0.0, "lon": -77.013523, "name": "f247e79e893ad7ed8f38e2ed2c50f8ca"}, {"bike_id": "39d6165f8dc8d682c4c8592af0caf18d", "type": "electric_scooter", "is_disabled": 0, "lat": 38.90367366666667, "rental_uris": {"ios": "https://dc.lft.to/lastmile_qr_scan", "android": "https://dc.lft.to/lastmile_qr_scan"}, "is_reserved": 0, "fusion_lon": 0.0, "fusion_lat": 0.0, "lon": -76.99943883333333, "name": "39d6165f8dc8d682c4c8592af0caf18d"}, {"bike_id": "9bdc0493346bee9cd30e3bd982b3a9db", "type": "electric_scooter", "is_disabled": 0, "lat": 38.88936833333333, "rental_uris": {"ios": "https://dc.lft.to/lastmile_qr_scan", "android": "https://dc.lft.to/lastmile_qr_scan"}, "is_reserved": 0, "fusion_lon": 0.0, "fusion_lat": 0.0, "lon": -76.9357695, "name": "9bdc0493346bee9cd30e3bd982b3a9db"}, {"bike_id": "3b1bdc709cb7c49df2bb6eea7f4e2d1d", "type": "electric_scooter", "is_disabled": 0, "lat": 38.94752733333333, "rental_uris": {"ios": "https://dc.lft.to/lastmile_qr_scan", "android": "https://dc.lft.to/lastmile_qr_scan"}, "is_reserved": 0, "fusion_lon": 0.0, "fusion_lat": 0.0, "lon": -77.0758165, "name": "3b1bdc709cb7c49df2bb6eea7f4e2d1d"}, {"bike_id": "d738fe17b27b9d8332672262f639d80f", "type": "electric_scooter", "is_disabled": 0, "lat": 38.90867133333333, "rental_uris": {"ios": "https://dc.lft.to/lastmile_qr_scan", "android": "https://dc.lft.to/lastmile_qr_scan"}, "is_reserved": 0, "fusion_lon": 0.0, "fusion_lat": 0.0, "lon": -77.02324, "name": "d738fe17b27b9d8332672262f639d80f"}, {"bike_id": "3d2b47063843080d204dda561ac995fc", "type": "electric_scooter", "is_disabled": 0, "lat": 38.90970166666666, "rental_uris": {"ios": "https://dc.lft.to/lastmile_qr_scan", "android": "https://dc.lft.to/lastmile_qr_scan"}, "is_reserved": 0, "fusion_lon": 0.0, "fusion_lat": 0.0, "lon": -77.04642683333333, "name": "3d2b47063843080d204dda561ac995fc"}, {"bike_id": "dcc1a7dd50297db243445303b291e1fd", "type": "electric_scooter", "is_disabled": 0, "lat": 38.930752, "rental_uris": {"ios": "https://dc.lft.to/lastmile_qr_scan", "android": "https://dc.lft.to/lastmile_qr_scan"}, "is_reserved": 0, "fusion_lon": 0.0, "fusion_lat": 0.0, "lon": -77.03158383333333, "name": "dcc1a7dd50297db243445303b291e1fd"}, {"bike_id": "5da289f1af7a629f5649b1f32cf70cfa", "type": "electric_scooter", "is_disabled": 0, "lat": 38.89955466666667, "rental_uris": {"ios": "https://dc.lft.to/lastmile_qr_scan", "android": "https://dc.lft.to/lastmile_qr_scan"}, "is_reserved": 0, "fusion_lon": 0.0, "fusion_lat": 0.0, "lon": -77.00343633333334, "name": "5da289f1af7a629f5649b1f32cf70cfa"}, {"bike_id": "dfaddd174593fb823004e714ab08abc1", "type": "electric_scooter", "is_disabled": 0, "lat": 38.918222666666665, "rental_uris": {"ios": "https://dc.lft.to/lastmile_qr_scan", "android": "https://dc.lft.to/lastmile_qr_scan"}, "is_reserved": 0, "fusion_lon": 0.0, "fusion_lat": 0.0, "lon": -77.04942766666667, "name": "dfaddd174593fb823004e714ab08abc1"}, {"bike_id": "8e617ff955c376dcfd4fad013f2c728e", "type": "electric_bike", "is_disabled": 0, "lat": 39.05281166666666, "rental_uris": {"ios": "https://dc.lft.to/lastmile_qr_scan", "android": "https://dc.lft.to/lastmile_qr_scan"}, "is_reserved": 0, "fusion_lon": 0.0, "fusion_lat": 0.0, "lon": -77.08069766666667, "name": "8e617ff955c376dcfd4fad013f2c728e"}, {"bike_id": "b910b58c26dc47d97bc2fa469c68cfa3", "type": "electric_scooter", "is_disabled": 0, "lat": 38.866969166666664, "rental_uris": {"ios": "https://dc.lft.to/lastmile_qr_scan", "android": "https://dc.lft.to/lastmile_qr_scan"}, "is_reserved": 0, "fusion_lon": 0.0, "fusion_lat": 0.0, "lon": -76.98715233333333, "name": "b910b58c26dc47d97bc2fa469c68cfa3"}, {"bike_id": "1fcf24663e4bff773fe7b92ec669785a", "type": "electric_scooter", "is_disabled": 0, "lat": 38.9170245, "rental_uris": {"ios": "https://dc.lft.to/lastmile_qr_scan", "android": "https://dc.lft.to/lastmile_qr_scan"}, "is_reserved": 0, "fusion_lon": 0.0, "fusion_lat": 0.0, "lon": -77.00654266666666, "name": "1fcf24663e4bff773fe7b92ec669785a"}, {"bike_id": "816dca1151d1ae283219859261ad6ec4", "type": "electric_scooter", "is_disabled": 0, "lat": 38.931302, "rental_uris": {"ios": "https://dc.lft.to/lastmile_qr_scan", "android": "https://dc.lft.to/lastmile_qr_scan"}, "is_reserved": 0, "fusion_lon": 0.0, "fusion_lat": 0.0, "lon": -76.99576733333333, "name": "816dca1151d1ae283219859261ad6ec4"}, {"bike_id": "6559c57e8cd30bb8324468037d71654f", "type": "electric_scooter", "is_disabled": 0, "lat": 38.91692533333333, "rental_uris": {"ios": "https://dc.lft.to/lastmile_qr_scan", "android": "https://dc.lft.to/lastmile_qr_scan"}, "is_reserved": 0, "fusion_lon": 0.0, "fusion_lat": 0.0, "lon": -77.02954, "name": "6559c57e8cd30bb8324468037d71654f"}, {"bike_id": "ab342cd73d0dac3375c3c193e4e2c84a", "type": "electric_scooter", "is_disabled": 0, "lat": 38.933400166666665, "rental_uris": {"ios": "https://dc.lft.to/lastmile_qr_scan", "android": "https://dc.lft.to/lastmile_qr_scan"}, "is_reserved": 0, "fusion_lon": 0.0, "fusion_lat": 0.0, "lon": -77.02058816666667, "name": "ab342cd73d0dac3375c3c193e4e2c84a"}, {"bike_id": "376ef9a9a3809a299e3ebb50e4fbb9e1", "type": "electric_scooter", "is_disabled": 0, "lat": 38.9071005, "rental_uris": {"ios": "https://dc.lft.to/lastmile_qr_scan", "android": "https://dc.lft.to/lastmile_qr_scan"}, "is_reserved": 0, "fusion_lon": 0.0, "fusion_lat": 0.0, "lon": -77.02389366666667, "name": "376ef9a9a3809a299e3ebb50e4fbb9e1"}, {"bike_id": "00450f025957d2c2878384a8144bee4c", "type": "electric_scooter", "is_disabled": 0, "lat": 38.9118435, "rental_uris": {"ios": "https://dc.lft.to/lastmile_qr_scan", "android": "https://dc.lft.to/lastmile_qr_scan"}, "is_reserved": 0, "fusion_lon": 0.0, "fusion_lat": 0.0, "lon": -77.03196933333334, "name": "00450f025957d2c2878384a8144bee4c"}, {"bike_id": "756fbe01db2a7c3052f8b7ba90218fbe", "type": "electric_scooter", "is_disabled": 0, "lat": 38.922340166666665, "rental_uris": {"ios": "https://dc.lft.to/lastmile_qr_scan", "android": "https://dc.lft.to/lastmile_qr_scan"}, "is_reserved": 0, "fusion_lon": 0.0, "fusion_lat": 0.0, "lon": -77.04267966666667, "name": "756fbe01db2a7c3052f8b7ba90218fbe"}, {"bike_id": "f0da443f4ad8501f62f4bec4597c38f7", "type": "electric_scooter", "is_disabled": 0, "lat": 38.892907666666666, "rental_uris": {"ios": "https://dc.lft.to/lastmile_qr_scan", "android": "https://dc.lft.to/lastmile_qr_scan"}, "is_reserved": 0, "fusion_lon": 0.0, "fusion_lat": 0.0, "lon": -77.04481866666667, "name": "f0da443f4ad8501f62f4bec4597c38f7"}, {"bike_id": "1cc55edd587afd78d92d899d4ebfabff", "type": "electric_scooter", "is_disabled": 0, "lat": 38.93343866666667, "rental_uris": {"ios": "https://dc.lft.to/lastmile_qr_scan", "android": "https://dc.lft.to/lastmile_qr_scan"}, "is_reserved": 0, "fusion_lon": 0.0, "fusion_lat": 0.0, "lon": -77.03986066666667, "name": "1cc55edd587afd78d92d899d4ebfabff"}, {"bike_id": "4815a0c176bbd1207579251cb89674e4", "type": "electric_scooter", "is_disabled": 0, "lat": 38.919161, "rental_uris": {"ios": "https://dc.lft.to/lastmile_qr_scan", "android": "https://dc.lft.to/lastmile_qr_scan"}, "is_reserved": 0, "fusion_lon": 0.0, "fusion_lat": 0.0, "lon": -77.032087, "name": "4815a0c176bbd1207579251cb89674e4"}, {"bike_id": "49cb3a35b4c4e45a672ac2e74ebe3b6c", "type": "electric_scooter", "is_disabled": 0, "lat": 38.942924, "rental_uris": {"ios": "https://dc.lft.to/lastmile_qr_scan", "android": "https://dc.lft.to/lastmile_qr_scan"}, "is_reserved": 0, "fusion_lon": 0.0, "fusion_lat": 0.0, "lon": -77.021725, "name": "49cb3a35b4c4e45a672ac2e74ebe3b6c"}, {"bike_id": "c3776ce18cdacb275a280fcaf0f21545", "type": "electric_scooter", "is_disabled": 0, "lat": 38.90024183333333, "rental_uris": {"ios": "https://dc.lft.to/lastmile_qr_scan", "android": "https://dc.lft.to/lastmile_qr_scan"}, "is_reserved": 0, "fusion_lon": 0.0, "fusion_lat": 0.0, "lon": -77.00190266666667, "name": "c3776ce18cdacb275a280fcaf0f21545"}, {"bike_id": "895ed2605a9389046c6c0f2cf895dd7c", "type": "electric_scooter", "is_disabled": 0, "lat": 38.8923985, "rental_uris": {"ios": "https://dc.lft.to/lastmile_qr_scan", "android": "https://dc.lft.to/lastmile_qr_scan"}, "is_reserved": 0, "fusion_lon": 0.0, "fusion_lat": 0.0, "lon": -77.02611833333333, "name": "895ed2605a9389046c6c0f2cf895dd7c"}, {"bike_id": "b32626976bf96ead264c6e96e795b3b9", "type": "electric_scooter", "is_disabled": 0, "lat": 38.9184245, "rental_uris": {"ios": "https://dc.lft.to/lastmile_qr_scan", "android": "https://dc.lft.to/lastmile_qr_scan"}, "is_reserved": 0, "fusion_lon": 0.0, "fusion_lat": 0.0, "lon": -76.96552866666667, "name": "b32626976bf96ead264c6e96e795b3b9"}, {"bike_id": "7e0e78b6dab7f8ba8cca45849af85be4", "type": "electric_scooter", "is_disabled": 0, "lat": 38.917724, "rental_uris": {"ios": "https://dc.lft.to/lastmile_qr_scan", "android": "https://dc.lft.to/lastmile_qr_scan"}, "is_reserved": 0, "fusion_lon": 0.0, "fusion_lat": 0.0, "lon": -77.040541, "name": "7e0e78b6dab7f8ba8cca45849af85be4"}, {"bike_id": "0e05d96b78848e4d34732f8435e7a658", "type": "electric_scooter", "is_disabled": 0, "lat": 38.898455, "rental_uris": {"ios": "https://dc.lft.to/lastmile_qr_scan", "android": "https://dc.lft.to/lastmile_qr_scan"}, "is_reserved": 0, "fusion_lon": 0.0, "fusion_lat": 0.0, "lon": -76.9463325, "name": "0e05d96b78848e4d34732f8435e7a658"}, {"bike_id": "444530ea55df0f342ba2a04fef21afc6", "type": "electric_scooter", "is_disabled": 0, "lat": 38.97674883333333, "rental_uris": {"ios": "https://dc.lft.to/lastmile_qr_scan", "android": "https://dc.lft.to/lastmile_qr_scan"}, "is_reserved": 0, "fusion_lon": 0.0, "fusion_lat": 0.0, "lon": -77.0165985, "name": "444530ea55df0f342ba2a04fef21afc6"}, {"bike_id": "50b9021c3b5f92ca2974f55d6dca9cd0", "type": "electric_scooter", "is_disabled": 0, "lat": 38.923336, "rental_uris": {"ios": "https://dc.lft.to/lastmile_qr_scan", "android": "https://dc.lft.to/lastmile_qr_scan"}, "is_reserved": 0, "fusion_lon": 0.0, "fusion_lat": 0.0, "lon": -77.05419816666667, "name": "50b9021c3b5f92ca2974f55d6dca9cd0"}, {"bike_id": "f759fb03a31680df9a6ad4fe2525fa80", "type": "electric_bike", "is_disabled": 0, "lat": 38.815121166666664, "rental_uris": {"ios": "https://dc.lft.to/lastmile_qr_scan", "android": "https://dc.lft.to/lastmile_qr_scan"}, "is_reserved": 0, "fusion_lon": 0.0, "fusion_lat": 0.0, "lon": -77.12656533333333, "name": "f759fb03a31680df9a6ad4fe2525fa80"}, {"bike_id": "815c42e89d8e88b4ae6f2eb75d9a5165", "type": "electric_scooter", "is_disabled": 0, "lat": 38.881336166666664, "rental_uris": {"ios": "https://dc.lft.to/lastmile_qr_scan", "android": "https://dc.lft.to/lastmile_qr_scan"}, "is_reserved": 0, "fusion_lon": 0.0, "fusion_lat": 0.0, "lon": -77.00077483333334, "name": "815c42e89d8e88b4ae6f2eb75d9a5165"}, {"bike_id": "08b777a37a1726a0f5e6126118154a0f", "type": "electric_scooter", "is_disabled": 0, "lat": 38.9245395, "rental_uris": {"ios": "https://dc.lft.to/lastmile_qr_scan", "android": "https://dc.lft.to/lastmile_qr_scan"}, "is_reserved": 0, "fusion_lon": 0.0, "fusion_lat": 0.0, "lon": -77.033421, "name": "08b777a37a1726a0f5e6126118154a0f"}, {"bike_id": "4f198f418618b0cd21ad83a0911b2b51", "type": "electric_bike", "is_disabled": 0, "lat": 38.796045166666666, "rental_uris": {"ios": "https://dc.lft.to/lastmile_qr_scan", "android": "https://dc.lft.to/lastmile_qr_scan"}, "is_reserved": 0, "fusion_lon": 0.0, "fusion_lat": 0.0, "lon": -76.99743583333333, "name": "4f198f418618b0cd21ad83a0911b2b51"}, {"bike_id": "1de4804876120ca60953749f9433d8fd", "type": "electric_scooter", "is_disabled": 0, "lat": 38.90413133333333, "rental_uris": {"ios": "https://dc.lft.to/lastmile_qr_scan", "android": "https://dc.lft.to/lastmile_qr_scan"}, "is_reserved": 0, "fusion_lon": 0.0, "fusion_lat": 0.0, "lon": -77.0249505, "name": "1de4804876120ca60953749f9433d8fd"}, {"bike_id": "86d30782aa8213c0af2d6c8071fd6be0", "type": "electric_scooter", "is_disabled": 0, "lat": 38.906812, "rental_uris": {"ios": "https://dc.lft.to/lastmile_qr_scan", "android": "https://dc.lft.to/lastmile_qr_scan"}, "is_reserved": 0, "fusion_lon": 0.0, "fusion_lat": 0.0, "lon": -77.02695183333333, "name": "86d30782aa8213c0af2d6c8071fd6be0"}, {"bike_id": "bcb0b18f0cde0e09b9e505e90aa43f2f", "type": "electric_scooter", "is_disabled": 0, "lat": 38.904821, "rental_uris": {"ios": "https://dc.lft.to/lastmile_qr_scan", "android": "https://dc.lft.to/lastmile_qr_scan"}, "is_reserved": 0, "fusion_lon": 0.0, "fusion_lat": 0.0, "lon": -77.06107066666667, "name": "bcb0b18f0cde0e09b9e505e90aa43f2f"}, {"bike_id": "dc0be9295d1ef99950c548267acda0f8", "type": "electric_scooter", "is_disabled": 0, "lat": 38.92412383333333, "rental_uris": {"ios": "https://dc.lft.to/lastmile_qr_scan", "android": "https://dc.lft.to/lastmile_qr_scan"}, "is_reserved": 0, "fusion_lon": 0.0, "fusion_lat": 0.0, "lon": -77.03541733333333, "name": "dc0be9295d1ef99950c548267acda0f8"}, {"bike_id": "002c83e874a766b1e440bee6af0af6b3", "type": "electric_scooter", "is_disabled": 0, "lat": 38.908185, "rental_uris": {"ios": "https://dc.lft.to/lastmile_qr_scan", "android": "https://dc.lft.to/lastmile_qr_scan"}, "is_reserved": 0, "fusion_lon": 0.0, "fusion_lat": 0.0, "lon": -77.063738, "name": "002c83e874a766b1e440bee6af0af6b3"}, {"bike_id": "b6982297d2766cf6b3e1086e2527bcec", "type": "electric_scooter", "is_disabled": 0, "lat": 38.921598333333336, "rental_uris": {"ios": "https://dc.lft.to/lastmile_qr_scan", "android": "https://dc.lft.to/lastmile_qr_scan"}, "is_reserved": 0, "fusion_lon": 0.0, "fusion_lat": 0.0, "lon": -77.03381583333334, "name": "b6982297d2766cf6b3e1086e2527bcec"}, {"bike_id": "41d909db87114198c10865283a480e48", "type": "electric_scooter", "is_disabled": 0, "lat": 38.8668795, "rental_uris": {"ios": "https://dc.lft.to/lastmile_qr_scan", "android": "https://dc.lft.to/lastmile_qr_scan"}, "is_reserved": 0, "fusion_lon": 0.0, "fusion_lat": 0.0, "lon": -76.9858765, "name": "41d909db87114198c10865283a480e48"}, {"bike_id": "ae17be77758fcdccf0997b70c24e9e63", "type": "electric_scooter", "is_disabled": 0, "lat": 38.9022335, "rental_uris": {"ios": "https://dc.lft.to/lastmile_qr_scan", "android": "https://dc.lft.to/lastmile_qr_scan"},