{"data": {"bikes": [{"lon": -76.9762125, "is_disabled": 0, "lat": 38.892957833333334, "fusion_lat": 0.0, "is_reserved": 0, "rental_uris": {"ios": "https://dc.lft.to/lastmile_qr_scan", "android": "https://dc.lft.to/lastmile_qr_scan"}, "fusion_lon": 0.0, "type": "electric_bike", "bike_id": "9de1015ca034b75b46dd441401b93dd6", "name": "9de1015ca034b75b46dd441401b93dd6"}, {"lon": -77.03736266666667, "is_disabled": 0, "lat": 38.90234783333333, "fusion_lat": 0.0, "is_reserved": 0, "rental_uris": {"ios": "https://dc.lft.to/lastmile_qr_scan", "android": "https://dc.lft.to/lastmile_qr_scan"}, "fusion_lon": 0.0, "type": "electric_scooter", "bike_id": "f42ff48ccf1d138318408321d0c73325", "name": "f42ff48ccf1d138318408321d0c73325"}, {"lon": -77.002192, "is_disabled": 0, "lat": 38.823701666666665, "fusion_lat": 0.0, "is_reserved": 0, "rental_uris": {"ios": "https://dc.lft.to/lastmile_qr_scan", "android": "https://dc.lft.to/lastmile_qr_scan"}, "fusion_lon": 0.0, "type": "electric_bike", "bike_id": "4a380906db8d8c94ace8b70e8e79fa64", "name": "4a380906db8d8c94ace8b70e8e79fa64"}, {"lon": -77.009292, "is_disabled": 0, "lat": 38.91924683333333, "fusion_lat": 0.0, "is_reserved": 0, "rental_uris": {"ios": "https://dc.lft.to/lastmile_qr_scan", "android": "https://dc.lft.to/lastmile_qr_scan"}, "fusion_lon": 0.0, "type": "electric_scooter", "bike_id": "dda2c292c3746455aae2a81d90bb0b9e", "name": "dda2c292c3746455aae2a81d90bb0b9e"}, {"lon": -76.98217933333333, "is_disabled": 0, "lat": 38.90206083333333, "fusion_lat": 0.0, "is_reserved": 0, "rental_uris": {"ios": "https://dc.lft.to/lastmile_qr_scan", "android": "https://dc.lft.to/lastmile_qr_scan"}, "fusion_lon": 0.0, "type": "electric_scooter", "bike_id": "e305bccb0900ad3fc8c7eb1d7e9a06ef", "name": "e305bccb0900ad3fc8c7eb1d7e9a06ef"}, {"lon": -76.99987216666666, "is_disabled": 0, "lat": 38.8749215, "fusion_lat": 0.0, "is_reserved": 0, "rental_uris": {"ios": "https://dc.lft.to/lastmile_qr_scan", "android": "https://dc.lft.to/lastmile_qr_scan"}, "fusion_lon": 0.0, "type": "electric_scooter", "bike_id": "9b4f1a4bc3918d93d5c8faf910217ed3", "name": "9b4f1a4bc3918d93d5c8faf910217ed3"}, {"lon": -77.06901316666666, "is_disabled": 0, "lat": 38.90744983333333, "fusion_lat": 0.0, "is_reserved": 0, "rental_uris": {"ios": "https://dc.lft.to/lastmile_qr_scan", "android": "https://dc.lft.to/lastmile_qr_scan"}, "fusion_lon": 0.0, "type": "electric_scooter", "bike_id": "ae9b0e2bb25b32ddf3bd50adb0bb22e0", "name": "ae9b0e2bb25b32ddf3bd50adb0bb22e0"}, {"lon": -77.033616, "is_disabled": 0, "lat": 38.924480333333335, "fusion_lat": 0.0, "is_reserved": 0, "rental_uris": {"ios": "https://dc.lft.to/lastmile_qr_scan", "android": "https://dc.lft.to/lastmile_qr_scan"}, "fusion_lon": 0.0, "type": "electric_scooter", "bike_id": "a2915507b570bb8290bceb1315c9d4d7", "name": "a2915507b570bb8290bceb1315c9d4d7"}, {"lon": -77.11832483333333, "is_disabled": 0, "lat": 38.859413333333336, "fusion_lat": 0.0, "is_reserved": 0, "rental_uris": {"ios": "https://dc.lft.to/lastmile_qr_scan", "android": "https://dc.lft.to/lastmile_qr_scan"}, "fusion_lon": 0.0, "type": "electric_bike", "bike_id": "067ca1f73de30026f38d81387e5fbbbd", "name": "067ca1f73de30026f38d81387e5fbbbd"}, {"lon": -77.0765655, "is_disabled": 0, "lat": 38.94324316666667, "fusion_lat": 0.0, "is_reserved": 0, "rental_uris": {"ios": "https://dc.lft.to/lastmile_qr_scan", "android": "https://dc.lft.to/lastmile_qr_scan"}, "fusion_lon": 0.0, "type": "electric_scooter", "bike_id": "014930d0bb0d734620865922e86bc16f", "name": "014930d0bb0d734620865922e86bc16f"}, {"lon": -77.040066, "is_disabled": 0, "lat": 38.93431833333333, "fusion_lat": 0.0, "is_reserved": 0, "rental_uris": {"ios": "https://dc.lft.to/lastmile_qr_scan", "android": "https://dc.lft.to/lastmile_qr_scan"}, "fusion_lon": 0.0, "type": "electric_scooter", "bike_id": "16f5763692816751fc27f5199be85466", "name": "16f5763692816751fc27f5199be85466"}, {"lon": -77.02451333333333, "is_disabled": 0, "lat": 38.93804466666667, "fusion_lat": 0.0, "is_reserved": 0, "rental_uris": {"ios": "https://dc.lft.to/lastmile_qr_scan", "android": "https://dc.lft.to/lastmile_qr_scan"}, "fusion_lon": 0.0, "type": "electric_scooter", "bike_id": "a58af275ae1d9d83793c5d01c781cc4f", "name": "a58af275ae1d9d83793c5d01c781cc4f"}, {"lon": -77.03512216666667, "is_disabled": 0, "lat": 38.923390166666664, "fusion_lat": 0.0, "is_reserved": 0, "rental_uris": {"ios": "https://dc.lft.to/lastmile_qr_scan", "android": "https://dc.lft.to/lastmile_qr_scan"}, "fusion_lon": 0.0, "type": "electric_scooter", "bike_id": "77bb846164be99fb108eea83b62047be", "name": "77bb846164be99fb108eea83b62047be"}, {"lon": -77.044496, "is_disabled": 0, "lat": 38.915525833333334, "fusion_lat": 0.0, "is_reserved": 0, "rental_uris": {"ios": "https://dc.lft.to/lastmile_qr_scan", "android": "https://dc.lft.to/lastmile_qr_scan"}, "fusion_lon": 0.0, "type": "electric_scooter", "bike_id": "cfc063a8ce43d542abadaf7f0445c77b", "name": "cfc063a8ce43d542abadaf7f0445c77b"}, {"lon": -77.02718016666667, "is_disabled": 0, "lat": 38.89724966666667, "fusion_lat": 0.0, "is_reserved": 0, "rental_uris": {"ios": "https://dc.lft.to/lastmile_qr_scan", "android": "https://dc.lft.to/lastmile_qr_scan"}, "fusion_lon": 0.0, "type": "electric_scooter", "bike_id": "4e3fdf2fb18adba13ac8fd1dc4f8794a", "name": "4e3fdf2fb18adba13ac8fd1dc4f8794a"}, {"lon": -77.03512116666667, "is_disabled": 0, "lat": 38.921463833333334, "fusion_lat": 0.0, "is_reserved": 0, "rental_uris": {"ios": "https://dc.lft.to/lastmile_qr_scan", "android": "https://dc.lft.to/lastmile_qr_scan"}, "fusion_lon": 0.0, "type": "electric_scooter", "bike_id": "283168cba3976c5f2e25193b70fe0439", "name": "283168cba3976c5f2e25193b70fe0439"}, {"lon": -77.04341033333333, "is_disabled": 0, "lat": 38.922240333333335, "fusion_lat": 0.0, "is_reserved": 0, "rental_uris": {"ios": "https://dc.lft.to/lastmile_qr_scan", "android": "https://dc.lft.to/lastmile_qr_scan"}, "fusion_lon": 0.0, "type": "electric_scooter", "bike_id": "f522d410a8765216f14e646c4be8d86a", "name": "f522d410a8765216f14e646c4be8d86a"}, {"lon": -77.00114066666667, "is_disabled": 0, "lat": 38.87379933333333, "fusion_lat": 0.0, "is_reserved": 0, "rental_uris": {"ios": "https://dc.lft.to/lastmile_qr_scan", "android": "https://dc.lft.to/lastmile_qr_scan"}, "fusion_lon": 0.0, "type": "electric_scooter", "bike_id": "7430f458f18f77ebac16b6b6403a79ea", "name": "7430f458f18f77ebac16b6b6403a79ea"}, {"lon": -77.04487266666666, "is_disabled": 0, "lat": 38.89293683333333, "fusion_lat": 0.0, "is_reserved": 0, "rental_uris": {"ios": "https://dc.lft.to/lastmile_qr_scan", "android": "https://dc.lft.to/lastmile_qr_scan"}, "fusion_lon": 0.0, "type": "electric_scooter", "bike_id": "e8f11aa6b4ba729462f08574da53a595", "name": "e8f11aa6b4ba729462f08574da53a595"}, {"lon": -77.029109, "is_disabled": 0, "lat": 38.9102725, "fusion_lat": 0.0, "is_reserved": 0, "rental_uris": {"ios": "https://dc.lft.to/lastmile_qr_scan", "android": "https://dc.lft.to/lastmile_qr_scan"}, "fusion_lon": 0.0, "type": "electric_scooter", "bike_id": "48a6ac3834f0cf4999e5ae1e5ea869c6", "name": "48a6ac3834f0cf4999e5ae1e5ea869c6"}, {"lon": -77.02387416666667, "is_disabled": 0, "lat": 38.936445166666665, "fusion_lat": 0.0, "is_reserved": 0, "rental_uris": {"ios": "https://dc.lft.to/lastmile_qr_scan", "android": "https://dc.lft.to/lastmile_qr_scan"}, "fusion_lon": 0.0, "type": "electric_scooter", "bike_id": "94236e4b097c22a274c78e7307d9abd3", "name": "94236e4b097c22a274c78e7307d9abd3"}, {"lon": -77.01959533333333, "is_disabled": 0, "lat": 38.92421366666667, "fusion_lat": 0.0, "is_reserved": 0, "rental_uris": {"ios": "https://dc.lft.to/lastmile_qr_scan", "android": "https://dc.lft.to/lastmile_qr_scan"}, "fusion_lon": 0.0, "type": "electric_scooter", "bike_id": "c578ee797ad841cdd0fe3ff99fae97a8", "name": "c578ee797ad841cdd0fe3ff99fae97a8"}, {"lon": -77.0176685, "is_disabled": 0, "lat": 38.92059, "fusion_lat": 0.0, "is_reserved": 0, "rental_uris": {"ios": "https://dc.lft.to/lastmile_qr_scan", "android": "https://dc.lft.to/lastmile_qr_scan"}, "fusion_lon": 0.0, "type": "electric_scooter", "bike_id": "70dd4f7d6c3ff0cc936ca8c78a3c9e78", "name": "70dd4f7d6c3ff0cc936ca8c78a3c9e78"}, {"lon": -77.03872983333333, "is_disabled": 0, "lat": 38.909855, "fusion_lat": 0.0, "is_reserved": 0, "rental_uris": {"ios": "https://dc.lft.to/lastmile_qr_scan", "android": "https://dc.lft.to/lastmile_qr_scan"}, "fusion_lon": 0.0, "type": "electric_scooter", "bike_id": "be88388b1710c4416cc84f6d31341105", "name": "be88388b1710c4416cc84f6d31341105"}, {"lon": -77.03847683333333, "is_disabled": 0, "lat": 38.9104635, "fusion_lat": 0.0, "is_reserved": 0, "rental_uris": {"ios": "https://dc.lft.to/lastmile_qr_scan", "android": "https://dc.lft.to/lastmile_qr_scan"}, "fusion_lon": 0.0, "type": "electric_scooter", "bike_id": "59b8bf72e80466ceef772cc14faad59f", "name": "59b8bf72e80466ceef772cc14faad59f"}, {"lon": -77.02720766666667, "is_disabled": 0, "lat": 38.9001505, "fusion_lat": 0.0, "is_reserved": 0, "rental_uris": {"ios": "https://dc.lft.to/lastmile_qr_scan", "android": "https://dc.lft.to/lastmile_qr_scan"}, "fusion_lon": 0.0, "type": "electric_scooter", "bike_id": "2e9a4e37fba29f089c9a66676ceea158", "name": "2e9a4e37fba29f089c9a66676ceea158"}, {"lon": -77.03816483333334, "is_disabled": 0, "lat": 38.93100866666666, "fusion_lat": 0.0, "is_reserved": 0, "rental_uris": {"ios": "https://dc.lft.to/lastmile_qr_scan", "android": "https://dc.lft.to/lastmile_qr_scan"}, "fusion_lon": 0.0, "type": "electric_scooter", "bike_id": "b4924c43879bf45a9de2685cdfa8ab73", "name": "b4924c43879bf45a9de2685cdfa8ab73"}, {"lon": -77.04015783333334, "is_disabled": 0, "lat": 38.903986, "fusion_lat": 0.0, "is_reserved": 0, "rental_uris": {"ios": "https://dc.lft.to/lastmile_qr_scan", "android": "https://dc.lft.to/lastmile_qr_scan"}, "fusion_lon": 0.0, "type": "electric_scooter", "bike_id": "9f7714ab0f72adfd6ce2b14304ac2b54", "name": "9f7714ab0f72adfd6ce2b14304ac2b54"}, {"lon": -77.03200916666667, "is_disabled": 0, "lat": 38.91856033333333, "fusion_lat": 0.0, "is_reserved": 0, "rental_uris": {"ios": "https://dc.lft.to/lastmile_qr_scan", "android": "https://dc.lft.to/lastmile_qr_scan"}, "fusion_lon": 0.0, "type": "electric_scooter", "bike_id": "d7d2d6b2b0d99b1f94cc89662c4f1c32", "name": "d7d2d6b2b0d99b1f94cc89662c4f1c32"}, {"lon": -76.93215833333333, "is_disabled": 0, "lat": 38.89673616666666, "fusion_lat": 0.0, "is_reserved": 0, "rental_uris": {"ios": "https://dc.lft.to/lastmile_qr_scan", "android": "https://dc.lft.to/lastmile_qr_scan"}, "fusion_lon": 0.0, "type": "electric_scooter", "bike_id": "17bbfc55dade6792c1453d0685453126", "name": "17bbfc55dade6792c1453d0685453126"}, {"lon": -77.03761183333333, "is_disabled": 0, "lat": 38.925570666666665, "fusion_lat": 0.0, "is_reserved": 0, "rental_uris": {"ios": "https://dc.lft.to/lastmile_qr_scan", "android": "https://dc.lft.to/lastmile_qr_scan"}, "fusion_lon": 0.0, "type": "electric_scooter", "bike_id": "1ad0c4737305290dd3273159b0783b00", "name": "1ad0c4737305290dd3273159b0783b00"}, {"lon": -77.01647716666666, "is_disabled": 0, "lat": 38.881154333333335, "fusion_lat": 0.0, "is_reserved": 0, "rental_uris": {"ios": "https://dc.lft.to/lastmile_qr_scan", "android": "https://dc.lft.to/lastmile_qr_scan"}, "fusion_lon": 0.0, "type": "electric_scooter", "bike_id": "0772367605b13259f7b4833391cbeb84", "name": "0772367605b13259f7b4833391cbeb84"}, {"lon": -77.00526233333333, "is_disabled": 0, "lat": 38.880163833333334, "fusion_lat": 0.0, "is_reserved": 0, "rental_uris": {"ios": "https://dc.lft.to/lastmile_qr_scan", "android": "https://dc.lft.to/lastmile_qr_scan"}, "fusion_lon": 0.0, "type": "electric_scooter", "bike_id": "19f21f4567d2b85f0452e5558557b26b", "name": "19f21f4567d2b85f0452e5558557b26b"}, {"lon": -77.0444925, "is_disabled": 0, "lat": 38.899239666666666, "fusion_lat": 0.0, "is_reserved": 0, "rental_uris": {"ios": "https://dc.lft.to/lastmile_qr_scan", "android": "https://dc.lft.to/lastmile_qr_scan"}, "fusion_lon": 0.0, "type": "electric_scooter", "bike_id": "73604d1dbd89e6533da1b56dbfb996f8", "name": "73604d1dbd89e6533da1b56dbfb996f8"}, {"lon": -77.02051983333334, "is_disabled": 0, "lat": 38.9211585, "fusion_lat": 0.0, "is_reserved": 0, "rental_uris": {"ios": "https://dc.lft.to/lastmile_qr_scan", "android": "https://dc.lft.to/lastmile_qr_scan"}, "fusion_lon": 0.0, "type": "electric_scooter", "bike_id": "33ee36153adac9d5751e9bef3f433b91", "name": "33ee36153adac9d5751e9bef3f433b91"}, {"lon": -77.0300365, "is_disabled": 0, "lat": 38.90197383333334, "fusion_lat": 0.0, "is_reserved": 0, "rental_uris": {"ios": "https://dc.lft.to/lastmile_qr_scan", "android": "https://dc.lft.to/lastmile_qr_scan"}, "fusion_lon": 0.0, "type": "electric_scooter", "bike_id": "525b97616e37c8afa2fc9c08758b2a33", "name": "525b97616e37c8afa2fc9c08758b2a33"}, {"lon": -77.0998815, "is_disabled": 0, "lat": 38.883978, "fusion_lat": 0.0, "is_reserved": 0, "rental_uris": {"ios": "https://dc.lft.to/lastmile_qr_scan", "android": "https://dc.lft.to/lastmile_qr_scan"}, "fusion_lon": 0.0, "type": "electric_bike", "bike_id": "bf9b48fa430c58367a05e76f76aed94d", "name": "bf9b48fa430c58367a05e76f76aed94d"}, {"lon": -77.03182283333334, "is_disabled": 0, "lat": 38.91723566666667, "fusion_lat": 0.0, "is_reserved": 0, "rental_uris": {"ios": "https://dc.lft.to/lastmile_qr_scan", "android": "https://dc.lft.to/lastmile_qr_scan"}, "fusion_lon": 0.0, "type": "electric_scooter", "bike_id": "aaf23d65243d7325f3aa205267c5b80d", "name": "aaf23d65243d7325f3aa205267c5b80d"}, {"lon": -77.04335816666666, "is_disabled": 0, "lat": 38.92221216666667, "fusion_lat": 0.0, "is_reserved": 0, "rental_uris": {"ios": "https://dc.lft.to/lastmile_qr_scan", "android": "https://dc.lft.to/lastmile_qr_scan"}, "fusion_lon": 0.0, "type": "electric_scooter", "bike_id": "77e46d901503386a8c94015fcb566c51", "name": "77e46d901503386a8c94015fcb566c51"}, {"lon": -77.0020175, "is_disabled": 0, "lat": 38.89109916666666, "fusion_lat": 0.0, "is_reserved": 0, "rental_uris": {"ios": "https://dc.lft.to/lastmile_qr_scan", "android": "https://dc.lft.to/lastmile_qr_scan"}, "fusion_lon": 0.0, "type": "electric_scooter", "bike_id": "df351856bac4b49e081e82033562eff4", "name": "df351856bac4b49e081e82033562eff4"}, {"lon": -77.02696766666666, "is_disabled": 0, "lat": 38.9130075, "fusion_lat": 0.0, "is_reserved": 0, "rental_uris": {"ios": "https://dc.lft.to/lastmile_qr_scan", "android": "https://dc.lft.to/lastmile_qr_scan"}, "fusion_lon": 0.0, "type": "electric_scooter", "bike_id": "efbbc48073f550a251cebca14ffe18aa", "name": "efbbc48073f550a251cebca14ffe18aa"}, {"lon": -77.04318766666667, "is_disabled": 0, "lat": 38.895230833333336, "fusion_lat": 0.0, "is_reserved": 0, "rental_uris": {"ios": "https://dc.lft.to/lastmile_qr_scan", "android": "https://dc.lft.to/lastmile_qr_scan"}, "fusion_lon": 0.0, "type": "electric_scooter", "bike_id": "d39ce1e0eabe13cbd194fc4605280dcb", "name": "d39ce1e0eabe13cbd194fc4605280dcb"}, {"lon": -77.117561, "is_disabled": 0, "lat": 39.05102616666667, "fusion_lat": 0.0, "is_reserved": 0, "rental_uris": {"ios": "https://dc.lft.to/lastmile_qr_scan", "android": "https://dc.lft.to/lastmile_qr_scan"}, "fusion_lon": 0.0, "type": "electric_bike", "bike_id": "a9c170dd92dd1d6e197dbcf63dac7a65", "name": "a9c170dd92dd1d6e197dbcf63dac7a65"}, {"lon": -76.960589, "is_disabled": 0, "lat": 38.8840425, "fusion_lat": 0.0, "is_reserved": 0, "rental_uris": {"ios": "https://dc.lft.to/lastmile_qr_scan", "android": "https://dc.lft.to/lastmile_qr_scan"}, "fusion_lon": 0.0, "type": "electric_bike", "bike_id": "1e655c7c252faf55a877c992740e859a", "name": "1e655c7c252faf55a877c992740e859a"}, {"lon": -77.00108233333333, "is_disabled": 0, "lat": 38.90848533333333, "fusion_lat": 0.0, "is_reserved": 0, "rental_uris": {"ios": "https://dc.lft.to/lastmile_qr_scan", "android": "https://dc.lft.to/lastmile_qr_scan"}, "fusion_lon": 0.0, "type": "electric_scooter", "bike_id": "6fdf147aacd57c014c23826887ef1137", "name": "6fdf147aacd57c014c23826887ef1137"}, {"lon": -77.03852083333334, "is_disabled": 0, "lat": 38.90987533333333, "fusion_lat": 0.0, "is_reserved": 0, "rental_uris": {"ios": "https://dc.lft.to/lastmile_qr_scan", "android": "https://dc.lft.to/lastmile_qr_scan"}, "fusion_lon": 0.0, "type": "electric_scooter", "bike_id": "641758f5bdf84c82e20db23a5b79d9a5", "name": "641758f5bdf84c82e20db23a5b79d9a5"}, {"lon": -77.03350983333333, "is_disabled": 0, "lat": 38.928873833333334, "fusion_lat": 0.0, "is_reserved": 0, "rental_uris": {"ios": "https://dc.lft.to/lastmile_qr_scan", "android": "https://dc.lft.to/lastmile_qr_scan"}, "fusion_lon": 0.0, "type": "electric_scooter", "bike_id": "09129654678950d9ddd8ed4095ac890d", "name": "09129654678950d9ddd8ed4095ac890d"}, {"lon": -77.03871533333333, "is_disabled": 0, "lat": 38.921510833333336, "fusion_lat": 0.0, "is_reserved": 0, "rental_uris": {"ios": "https://dc.lft.to/lastmile_qr_scan", "android": "https://dc.lft.to/lastmile_qr_scan"}, "fusion_lon": 0.0, "type": "electric_scooter", "bike_id": "894374d917f75867680b7d9f67785ab3", "name": "894374d917f75867680b7d9f67785ab3"}, {"lon": -77.03630916666667, "is_disabled": 0, "lat": 38.956397833333334, "fusion_lat": 0.0, "is_reserved": 0, "rental_uris": {"ios": "https://dc.lft.to/lastmile_qr_scan", "android": "https://dc.lft.to/lastmile_qr_scan"}, "fusion_lon": 0.0, "type": "electric_scooter", "bike_id": "22929f413c33b9cbb3e0724276a647a0", "name": "22929f413c33b9cbb3e0724276a647a0"}, {"lon": -77.02938383333333, "is_disabled": 0, "lat": 38.898008833333336, "fusion_lat": 0.0, "is_reserved": 0, "rental_uris": {"ios": "https://dc.lft.to/lastmile_qr_scan", "android": "https://dc.lft.to/lastmile_qr_scan"}, "fusion_lon": 0.0, "type": "electric_scooter", "bike_id": "ca16c2db70473c260fe89d01bf6afe1e", "name": "ca16c2db70473c260fe89d01bf6afe1e"}, {"lon": -77.01041316666667, "is_disabled": 0, "lat": 38.9156485, "fusion_lat": 0.0, "is_reserved": 0, "rental_uris": {"ios": "https://dc.lft.to/lastmile_qr_scan", "android": "https://dc.lft.to/lastmile_qr_scan"}, "fusion_lon": 0.0, "type": "electric_scooter", "bike_id": "0023368d0749b82f55499cf46887d150", "name": "0023368d0749b82f55499cf46887d150"}, {"lon": -77.032832, "is_disabled": 0, "lat": 38.92646883333333, "fusion_lat": 0.0, "is_reserved": 0, "rental_uris": {"ios": "https://dc.lft.to/lastmile_qr_scan", "android": "https://dc.lft.to/lastmile_qr_scan"}, "fusion_lon": 0.0, "type": "electric_scooter", "bike_id": "016d514ffec41d08c550018a57a4a128", "name": "016d514ffec41d08c550018a57a4a128"}, {"lon": -77.02190333333333, "is_disabled": 0, "lat": 38.90685533333333, "fusion_lat": 0.0, "is_reserved": 0, "rental_uris": {"ios": "https://dc.lft.to/lastmile_qr_scan", "android": "https://dc.lft.to/lastmile_qr_scan"}, "fusion_lon": 0.0, "type": "electric_scooter", "bike_id": "996a55b73c7286d1df9a0bd0c75e742f", "name": "996a55b73c7286d1df9a0bd0c75e742f"}, {"lon": -77.0220785, "is_disabled": 0, "lat": 38.9105765, "fusion_lat": 0.0, "is_reserved": 0, "rental_uris": {"ios": "https://dc.lft.to/lastmile_qr_scan", "android": "https://dc.lft.to/lastmile_qr_scan"}, "fusion_lon": 0.0, "type": "electric_scooter", "bike_id": "a417eb5091078be6733596352ee705ee", "name": "a417eb5091078be6733596352ee705ee"}, {"lon": -77.04456866666666, "is_disabled": 0, "lat": 38.9154845, "fusion_lat": 0.0, "is_reserved": 0, "rental_uris": {"ios": "https://dc.lft.to/lastmile_qr_scan", "android": "https://dc.lft.to/lastmile_qr_scan"}, "fusion_lon": 0.0, "type": "electric_scooter", "bike_id": "c77c0e2bebe7931493aa3db952c8b4fd", "name": "c77c0e2bebe7931493aa3db952c8b4fd"}, {"lon": -77.03205766666666, "is_disabled": 0, "lat": 38.914328, "fusion_lat": 0.0, "is_reserved": 0, "rental_uris": {"ios": "https://dc.lft.to/lastmile_qr_scan", "android": "https://dc.lft.to/lastmile_qr_scan"}, "fusion_lon": 0.0, "type": "electric_scooter", "bike_id": "2d1b3bfaf483a51e8d8faeea78f24973", "name": "2d1b3bfaf483a51e8d8faeea78f24973"}, {"lon": -77.03967033333333, "is_disabled": 0, "lat": 38.894261, "fusion_lat": 0.0, "is_reserved": 0, "rental_uris": {"ios": "https://dc.lft.to/lastmile_qr_scan", "android": "https://dc.lft.to/lastmile_qr_scan"}, "fusion_lon": 0.0, "type": "electric_scooter", "bike_id": "560052c5aa797915ad0eb52ac1bb0c01", "name": "560052c5aa797915ad0eb52ac1bb0c01"}, {"lon": -77.04418266666667, "is_disabled": 0, "lat": 38.909388, "fusion_lat": 0.0, "is_reserved": 0, "rental_uris": {"ios": "https://dc.lft.to/lastmile_qr_scan", "android": "https://dc.lft.to/lastmile_qr_scan"}, "fusion_lon": 0.0, "type": "electric_scooter", "bike_id": "70dc03f146e95c2b14039fc50b9e0106", "name": "70dc03f146e95c2b14039fc50b9e0106"}, {"lon": -77.01857916666667, "is_disabled": 0, "lat": 38.94921883333333, "fusion_lat": 0.0, "is_reserved": 0, "rental_uris": {"ios": "https://dc.lft.to/lastmile_qr_scan", "android": "https://dc.lft.to/lastmile_qr_scan"}, "fusion_lon": 0.0, "type": "electric_scooter", "bike_id": "31ca53c7caf5514182eddb8fbeb824a3", "name": "31ca53c7caf5514182eddb8fbeb824a3"}, {"lon": -77.03127633333334, "is_disabled": 0, "lat": 38.93092216666667, "fusion_lat": 0.0, "is_reserved": 0, "rental_uris": {"ios": "https://dc.lft.to/lastmile_qr_scan", "android": "https://dc.lft.to/lastmile_qr_scan"}, "fusion_lon": 0.0, "type": "electric_scooter", "bike_id": "3c726829401dfb856240e06b7368ee5a", "name": "3c726829401dfb856240e06b7368ee5a"}, {"lon": -77.0488105, "is_disabled": 0, "lat": 38.8970955, "fusion_lat": 0.0, "is_reserved": 0, "rental_uris": {"ios": "https://dc.lft.to/lastmile_qr_scan", "android": "https://dc.lft.to/lastmile_qr_scan"}, "fusion_lon": 0.0, "type": "electric_scooter", "bike_id": "1d7e41ff65d21ae7ae56754f6d641ff9", "name": "1d7e41ff65d21ae7ae56754f6d641ff9"}, {"lon": -77.039681, "is_disabled": 0, "lat": 38.902618, "fusion_lat": 0.0, "is_reserved": 0, "rental_uris": {"ios": "https://dc.lft.to/lastmile_qr_scan", "android": "https://dc.lft.to/lastmile_qr_scan"}, "fusion_lon": 0.0, "type": "electric_scooter", "bike_id": "d20acb0ac871bd8f24758272998f0e14", "name": "d20acb0ac871bd8f24758272998f0e14"}, {"lon": -77.02712366666667, "is_disabled": 0, "lat": 38.8973765, "fusion_lat": 0.0, "is_reserved": 0, "rental_uris": {"ios": "https://dc.lft.to/lastmile_qr_scan", "android": "https://dc.lft.to/lastmile_qr_scan"}, "fusion_lon": 0.0, "type": "electric_scooter", "bike_id": "932ee71d5a643e7f63a88c47c21902fa", "name": "932ee71d5a643e7f63a88c47c21902fa"}, {"lon": -77.02223116666667, "is_disabled": 0, "lat": 38.897353333333335, "fusion_lat": 0.0, "is_reserved": 0, "rental_uris": {"ios": "https://dc.lft.to/lastmile_qr_scan", "android": "https://dc.lft.to/lastmile_qr_scan"}, "fusion_lon": 0.0, "type": "electric_scooter", "bike_id": "94a5f81fa2c2bff04cbc5bbb8c1822e8", "name": "94a5f81fa2c2bff04cbc5bbb8c1822e8"}, {"lon": -77.00574916666666, "is_disabled": 0, "lat": 38.903092, "fusion_lat": 0.0, "is_reserved": 0, "rental_uris": {"ios": "https://dc.lft.to/lastmile_qr_scan", "android": "https://dc.lft.to/lastmile_qr_scan"}, "fusion_lon": 0.0, "type": "electric_scooter", "bike_id": "4fb3a228ed7984a0da1ab181a9fbfd99", "name": "4fb3a228ed7984a0da1ab181a9fbfd99"}, {"lon": -77.0296395, "is_disabled": 0, "lat": 38.9225865, "fusion_lat": 0.0, "is_reserved": 0, "rental_uris": {"ios": "https://dc.lft.to/lastmile_qr_scan", "android": "https://dc.lft.to/lastmile_qr_scan"}, "fusion_lon": 0.0, "type": "electric_scooter", "bike_id": "f8eaeb81bab59be8a06e0bbace0a2f82", "name": "f8eaeb81bab59be8a06e0bbace0a2f82"}, {"lon": -77.032207, "is_disabled": 0, "lat": 38.95796416666666, "fusion_lat": 0.0, "is_reserved": 0, "rental_uris": {"ios": "https://dc.lft.to/lastmile_qr_scan", "android": "https://dc.lft.to/lastmile_qr_scan"}, "fusion_lon": 0.0, "type": "electric_scooter", "bike_id": "e8ebe52ebb6f20b9a6e475a6b716cf6b", "name": "e8ebe52ebb6f20b9a6e475a6b716cf6b"}, {"lon": -76.97729466666667, "is_disabled": 0, "lat": 38.872507666666664, "fusion_lat": 0.0, "is_reserved": 0, "rental_uris": {"ios": "https://dc.lft.to/lastmile_qr_scan", "android": "https://dc.lft.to/lastmile_qr_scan"}, "fusion_lon": 0.0, "type": "electric_scooter", "bike_id": "6678d99156a65c5d92273059fde0037d", "name": "6678d99156a65c5d92273059fde0037d"}, {"lon": -77.02306816666666, "is_disabled": 0, "lat": 38.90962416666667, "fusion_lat": 0.0, "is_reserved": 0, "rental_uris": {"ios": "https://dc.lft.to/lastmile_qr_scan", "android": "https://dc.lft.to/lastmile_qr_scan"}, "fusion_lon": 0.0, "type": "electric_scooter", "bike_id": "e0f2eadc62aa4d8de3b847e0926e96c5", "name": "e0f2eadc62aa4d8de3b847e0926e96c5"}, {"lon": -77.02464816666667, "is_disabled": 0, "lat": 38.897465833333335, "fusion_lat": 0.0, "is_reserved": 0, "rental_uris": {"ios": "https://dc.lft.to/lastmile_qr_scan", "android": "https://dc.lft.to/lastmile_qr_scan"}, "fusion_lon": 0.0, "type": "electric_scooter", "bike_id": "e428d7c4bb08da7c2c805a727b79aee4", "name": "e428d7c4bb08da7c2c805a727b79aee4"}, {"lon": -77.03187866666667, "is_disabled": 0, "lat": 38.9175205, "fusion_lat": 0.0, "is_reserved": 0, "rental_uris": {"ios": "https://dc.lft.to/lastmile_qr_scan", "android": "https://dc.lft.to/lastmile_qr_scan"}, "fusion_lon": 0.0, "type": "electric_scooter", "bike_id": "bd2bb181cf6175ecae1e5a7f6fd0df04", "name": "bd2bb181cf6175ecae1e5a7f6fd0df04"}, {"lon": -77.03353916666667, "is_disabled": 0, "lat": 38.895337833333336, "fusion_lat": 0.0, "is_reserved": 0, "rental_uris": {"ios": "https://dc.lft.to/lastmile_qr_scan", "android": "https://dc.lft.to/lastmile_qr_scan"}, "fusion_lon": 0.0, "type": "electric_scooter", "bike_id": "a7a272171b00d5cd78f09019667409ec", "name": "a7a272171b00d5cd78f09019667409ec"}, {"lon": -77.085449, "is_disabled": 0, "lat": 38.93299116666667, "fusion_lat": 0.0, "is_reserved": 0, "rental_uris": {"ios": "https://dc.lft.to/lastmile_qr_scan", "android": "https://dc.lft.to/lastmile_qr_scan"}, "fusion_lon": 0.0, "type": "electric_scooter", "bike_id": "b89a1b98a90ced57913dcb7aab486c03", "name": "b89a1b98a90ced57913dcb7aab486c03"}, {"lon": -76.99823866666667, "is_disabled": 0, "lat": 38.88537733333333, "fusion_lat": 0.0, "is_reserved": 0, "rental_uris": {"ios": "https://dc.lft.to/lastmile_qr_scan", "android": "https://dc.lft.to/lastmile_qr_scan"}, "fusion_lon": 0.0, "type": "electric_scooter", "bike_id": "992d6bb32aec7c056c690f2424149dd9", "name": "992d6bb32aec7c056c690f2424149dd9"}, {"lon": -77.023001, "is_disabled": 0, "lat": 38.91621333333333, "fusion_lat": 0.0, "is_reserved": 0, "rental_uris": {"ios": "https://dc.lft.to/lastmile_qr_scan", "android": "https://dc.lft.to/lastmile_qr_scan"}, "fusion_lon": 0.0, "type": "electric_scooter", "bike_id": "0d8f31a3ce185ab8c978495f350979ff", "name": "0d8f31a3ce185ab8c978495f350979ff"}, {"lon": -77.0383785, "is_disabled": 0, "lat": 38.91566516666666, "fusion_lat": 0.0, "is_reserved": 0, "rental_uris": {"ios": "https://dc.lft.to/lastmile_qr_scan", "android": "https://dc.lft.to/lastmile_qr_scan"}, "fusion_lon": 0.0, "type": "electric_scooter", "bike_id": "604d284991432485fa9bcca954fe9107", "name": "604d284991432485fa9bcca954fe9107"}, {"lon": -77.02813783333333, "is_disabled": 0, "lat": 38.901267, "fusion_lat": 0.0, "is_reserved": 0, "rental_uris": {"ios": "https://dc.lft.to/lastmile_qr_scan", "android": "https://dc.lft.to/lastmile_qr_scan"}, "fusion_lon": 0.0, "type": "electric_scooter", "bike_id": "6a87d2dbf3a02d755c6a31022d15dfbe", "name": "6a87d2dbf3a02d755c6a31022d15dfbe"}, {"lon": -77.00648783333334, "is_disabled": 0, "lat": 38.915572166666664, "fusion_lat": 0.0, "is_reserved": 0, "rental_uris": {"ios": "https://dc.lft.to/lastmile_qr_scan", "android": "https://dc.lft.to/lastmile_qr_scan"}, "fusion_lon": 0.0, "type": "electric_scooter", "bike_id": "02af6b00212d23a9549baa0b852716fd", "name": "02af6b00212d23a9549baa0b852716fd"}, {"lon": -77.00076183333333, "is_disabled": 0, "lat": 38.873847833333336, "fusion_lat": 0.0, "is_reserved": 0, "rental_uris": {"ios": "https://dc.lft.to/lastmile_qr_scan", "android": "https://dc.lft.to/lastmile_qr_scan"}, "fusion_lon": 0.0, "type": "electric_scooter", "bike_id": "d5b594299ef8b8408a8d95f799818d06", "name": "d5b594299ef8b8408a8d95f799818d06"}, {"lon": -77.06477716666667, "is_disabled": 0, "lat": 38.973870833333336, "fusion_lat": 0.0, "is_reserved": 0, "rental_uris": {"ios": "https://dc.lft.to/lastmile_qr_scan", "android": "https://dc.lft.to/lastmile_qr_scan"}, "fusion_lon": 0.0, "type": "electric_bike", "bike_id": "d579a44546b38f3e487d617c85053af8", "name": "d579a44546b38f3e487d617c85053af8"}, {"lon": -77.024953, "is_disabled": 0, "lat": 38.88446616666667, "fusion_lat": 0.0, "is_reserved": 0, "rental_uris": {"ios": "https://dc.lft.to/lastmile_qr_scan", "android": "https://dc.lft.to/lastmile_qr_scan"}, "fusion_lon": 0.0, "type": "electric_scooter", "bike_id": "91f9aaca12a1722f7fe075d9ead01059", "name": "91f9aaca12a1722f7fe075d9ead01059"}, {"lon": -77.02395966666667, "is_disabled": 0, "lat": 38.91674833333333, "fusion_lat": 0.0, "is_reserved": 0, "rental_uris": {"ios": "https://dc.lft.to/lastmile_qr_scan", "android": "https://dc.lft.to/lastmile_qr_scan"}, "fusion_lon": 0.0, "type": "electric_scooter", "bike_id": "9ef022127ad211d01ffd0e106ee9a156", "name": "9ef022127ad211d01ffd0e106ee9a156"}, {"lon": -77.03181616666667, "is_disabled": 0, "lat": 38.91921416666667, "fusion_lat": 0.0, "is_reserved": 0, "rental_uris": {"ios": "https://dc.lft.to/lastmile_qr_scan", "android": "https://dc.lft.to/lastmile_qr_scan"}, "fusion_lon": 0.0, "type": "electric_scooter", "bike_id": "4df92279eb6ab5a86bf4982091c5628b", "name": "4df92279eb6ab5a86bf4982091c5628b"}, {"lon": -77.0338515, "is_disabled": 0, "lat": 38.91614716666667, "fusion_lat": 0.0, "is_reserved": 0, "rental_uris": {"ios": "https://dc.lft.to/lastmile_qr_scan", "android": "https://dc.lft.to/lastmile_qr_scan"}, "fusion_lon": 0.0, "type": "electric_scooter", "bike_id": "d394005c7a770ad8b50c9d25f419437d", "name": "d394005c7a770ad8b50c9d25f419437d"}, {"lon": -77.0633805, "is_disabled": 0, "lat": 38.800261666666664, "fusion_lat": 0.0, "is_reserved": 0, "rental_uris": {"ios": "https://dc.lft.to/lastmile_qr_scan", "android": "https://dc.lft.to/lastmile_qr_scan"}, "fusion_lon": 0.0, "type": "electric_bike", "bike_id": "0041506ecd7d6da9e3eff54e1ab172cd", "name": "0041506ecd7d6da9e3eff54e1ab172cd"}, {"lon": -77.03861383333333, "is_disabled": 0, "lat": 38.9135685, "fusion_lat": 0.0, "is_reserved": 0, "rental_uris": {"ios": "https://dc.lft.to/lastmile_qr_scan", "android": "https://dc.lft.to/lastmile_qr_scan"}, "fusion_lon": 0.0, "type": "electric_scooter", "bike_id": "c515cf9a09512409f7aa4d8c6d5c15e1", "name": "c515cf9a09512409f7aa4d8c6d5c15e1"}, {"lon": -77.03868, "is_disabled": 0, "lat": 38.934536666666666, "fusion_lat": 0.0, "is_reserved": 0, "rental_uris": {"ios": "https://dc.lft.to/lastmile_qr_scan", "android": "https://dc.lft.to/lastmile_qr_scan"}, "fusion_lon": 0.0, "type": "electric_scooter", "bike_id": "b84791a6053a34d625752780a0a6414d", "name": "b84791a6053a34d625752780a0a6414d"}, {"lon": -77.02586866666667, "is_disabled": 0, "lat": 38.898437666666666, "fusion_lat": 0.0, "is_reserved": 0, "rental_uris": {"ios": "https://dc.lft.to/lastmile_qr_scan", "android": "https://dc.lft.to/lastmile_qr_scan"}, "fusion_lon": 0.0, "type": "electric_scooter", "bike_id": "d5677543c19b82a83b14c7ed9ed1b2c8", "name": "d5677543c19b82a83b14c7ed9ed1b2c8"}, {"lon": -77.009301, "is_disabled": 0, "lat": 38.913481833333336, "fusion_lat": 0.0, "is_reserved": 0, "rental_uris": {"ios": "https://dc.lft.to/lastmile_qr_scan", "android": "https://dc.lft.to/lastmile_qr_scan"}, "fusion_lon": 0.0, "type": "electric_scooter", "bike_id": "92aef405cb308d03f35630514441114b", "name": "92aef405cb308d03f35630514441114b"}, {"lon": -76.98574166666667, "is_disabled": 0, "lat": 38.8668825, "fusion_lat": 0.0, "is_reserved": 0, "rental_uris": {"ios": "https://dc.lft.to/lastmile_qr_scan", "android": "https://dc.lft.to/lastmile_qr_scan"}, "fusion_lon": 0.0, "type": "electric_scooter", "bike_id": "2f98a213f29a14be5cade270fdf2bf70", "name": "2f98a213f29a14be5cade270fdf2bf70"}, {"lon": -77.000695, "is_disabled": 0, "lat": 38.9003135, "fusion_lat": 0.0, "is_reserved": 0, "rental_uris": {"ios": "https://dc.lft.to/lastmile_qr_scan", "android": "https://dc.lft.to/lastmile_qr_scan"}, "fusion_lon": 0.0, "type": "electric_scooter", "bike_id": "8e6e64c85d047df6136b0b2a4b53d5c6", "name": "8e6e64c85d047df6136b0b2a4b53d5c6"}, {"lon": -76.98591483333334, "is_disabled": 0, "lat": 38.85871566666667, "fusion_lat": 0.0, "is_reserved": 0, "rental_uris": {"ios": "https://dc.lft.to/lastmile_qr_scan", "android": "https://dc.lft.to/lastmile_qr_scan"}, "fusion_lon": 0.0, "type": "electric_scooter", "bike_id": "ce642fcdf1b7cc1aa703fa0e0e870cad", "name": "ce642fcdf1b7cc1aa703fa0e0e870cad"}, {"lon": -77.0412525, "is_disabled": 0, "lat": 38.933643333333336, "fusion_lat": 0.0, "is_reserved": 0, "rental_uris": {"ios": "https://dc.lft.to/lastmile_qr_scan", "android": "https://dc.lft.to/lastmile_qr_scan"}, "fusion_lon": 0.0, "type": "electric_scooter", "bike_id": "fcfee80f49132b2bf9775ce8a2897ff6", "name": "fcfee80f49132b2bf9775ce8a2897ff6"}, {"lon": -77.0184395, "is_disabled": 0, "lat": 38.928823, "fusion_lat": 0.0, "is_reserved": 0, "rental_uris": {"ios": "https://dc.lft.to/lastmile_qr_scan", "android": "https://dc.lft.to/lastmile_qr_scan"}, "fusion_lon": 0.0, "type": "electric_scooter", "bike_id": "2b5384f94687134d1626ed3371e58109", "name": "2b5384f94687134d1626ed3371e58109"}, {"lon": -77.02764516666667, "is_disabled": 0, "lat": 38.91704766666667, "fusion_lat": 0.0, "is_reserved": 0, "rental_uris": {"ios": "https://dc.lft.to/lastmile_qr_scan", "android": "https://dc.lft.to/lastmile_qr_scan"}, "fusion_lon": 0.0, "type": "electric_scooter", "bike_id": "3025316ec92565b536bd234818129325", "name": "3025316ec92565b536bd234818129325"}, {"lon": -77.09453816666667, "is_disabled": 0, "lat": 38.80756316666667, "fusion_lat": 0.0, "is_reserved": 0, "rental_uris": {"ios": "https://dc.lft.to/lastmile_qr_scan", "android": "https://dc.lft.to/lastmile_qr_scan"}, "fusion_lon": 0.0, "type": "electric_bike", "bike_id": "13866db555941c717bd3e38d5d4423d1", "name": "13866db555941c717bd3e38d5d4423d1"}, {"lon": -77.01546066666667, "is_disabled": 0, "lat": 38.88580416666667, "fusion_lat": 0.0, "is_reserved": 0, "rental_uris": {"ios": "https://dc.lft.to/lastmile_qr_scan", "android": "https://dc.lft.to/lastmile_qr_scan"}, "fusion_lon": 0.0, "type": "electric_scooter", "bike_id": "707787409b548cecb19e03a20d6ddb79", "name": "707787409b548cecb19e03a20d6ddb79"}, {"lon": -77.04887666666667, "is_disabled": 0, "lat": 38.90654516666667, "fusion_lat": 0.0, "is_reserved": 0, "rental_uris": {"ios": "https://dc.lft.to/lastmile_qr_scan", "android": "https://dc.lft.to/lastmile_qr_scan"}, "fusion_lon": 0.0, "type": "electric_scooter", "bike_id": "a5ddb77ff4a03100ad4482aa87283a9a", "name": "a5ddb77ff4a03100ad4482aa87283a9a"}, {"lon": -77.03185583333334, "is_disabled": 0, "lat": 38.89254416666667, "fusion_lat": 0.0, "is_reserved": 0, "rental_uris": {"ios": "https://dc.lft.to/lastmile_qr_scan", "android": "https://dc.lft.to/lastmile_qr_scan"}, "fusion_lon": 0.0, "type": "electric_scooter", "bike_id": "adb1be02515eb759cfa75cbadca6f63a", "name": "adb1be02515eb759cfa75cbadca6f63a"}, {"lon": -77.02662516666666, "is_disabled": 0, "lat": 38.91698233333334, "fusion_lat": 0.0, "is_reserved": 0, "rental_uris": {"ios": "https://dc.lft.to/lastmile_qr_scan", "android": "https://dc.lft.to/lastmile_qr_scan"}, "fusion_lon": 0.0, "type": "electric_scooter", "bike_id": "e8d64b180e794dc35dcb29a78edac542", "name": "e8d64b180e794dc35dcb29a78edac542"}, {"lon": -77.04909216666667, "is_disabled": 0, "lat": 38.90650516666667, "fusion_lat": 0.0, "is_reserved": 0, "rental_uris": {"ios": "https://dc.lft.to/lastmile_qr_scan", "android": "https://dc.lft.to/lastmile_qr_scan"}, "fusion_lon": 0.0, "type": "electric_scooter", "bike_id": "3ca685ba8d15a874a019abbb3591bb4c", "name": "3ca685ba8d15a874a019abbb3591bb4c"}, {"lon": -77.01611716666666, "is_disabled": 0, "lat": 38.9037445, "fusion_lat": 0.0, "is_reserved": 0, "rental_uris": {"ios": "https://dc.lft.to/lastmile_qr_scan", "android": "https://dc.lft.to/lastmile_qr_scan"}, "fusion_lon": 0.0, "type": "electric_scooter", "bike_id": "f7cb525bdf758de866d951efaf18c34f", "name": "f7cb525bdf758de866d951efaf18c34f"}, {"lon": -77.04190016666666, "is_disabled": 0, "lat": 38.926264333333336, "fusion_lat": 0.0, "is_reserved": 0, "rental_uris": {"ios": "https://dc.lft.to/lastmile_qr_scan", "android": "https://dc.lft.to/lastmile_qr_scan"}, "fusion_lon": 0.0, "type": "electric_scooter", "bike_id": "6af89ee27c38586a63249626205296c8", "name": "6af89ee27c38586a63249626205296c8"}, {"lon": -76.9397995, "is_disabled": 0, "lat": 38.89322816666667, "fusion_lat": 0.0, "is_reserved": 0, "rental_uris": {"ios": "https://dc.lft.to/lastmile_qr_scan", "android": "https://dc.lft.to/lastmile_qr_scan"}, "fusion_lon": 0.0, "type": "electric_scooter", "bike_id": "f50e41244c761676ce59a90910241205", "name": "f50e41244c761676ce59a90910241205"}, {"lon": -77.02183316666667, "is_disabled": 0, "lat": 38.919107, "fusion_lat": 0.0, "is_reserved": 0, "rental_uris": {"ios": "https://dc.lft.to/lastmile_qr_scan", "android": "https://dc.lft.to/lastmile_qr_scan"}, "fusion_lon": 0.0, "type": "electric_scooter", "bike_id": "48824992aa4b12ea1ceab46e38c7509b", "name": "48824992aa4b12ea1ceab46e38c7509b"}, {"lon": -76.93361483333334, "is_disabled": 0, "lat": 38.89921483333333, "fusion_lat": 0.0, "is_reserved": 0, "rental_uris": {"ios": "https://dc.lft.to/lastmile_qr_scan", "android": "https://dc.lft.to/lastmile_qr_scan"}, "fusion_lon": 0.0, "type": "electric_scooter", "bike_id": "7dce9b24a02cbcf4b1cf8bef49177fc3", "name": "7dce9b24a02cbcf4b1cf8bef49177fc3"}, {"lon": -77.04371366666666, "is_disabled": 0, "lat": 38.8922385, "fusion_lat": 0.0, "is_reserved": 0, "rental_uris": {"ios": "https://dc.lft.to/lastmile_qr_scan", "android": "https://dc.lft.to/lastmile_qr_scan"}, "fusion_lon": 0.0, "type": "electric_scooter", "bike_id": "3dbd9416d2d8b5499fc1e0aa5a870faf", "name": "3dbd9416d2d8b5499fc1e0aa5a870faf"}, {"lon": -77.02459366666666, "is_disabled": 0, "lat": 38.937105, "fusion_lat": 0.0, "is_reserved": 0, "rental_uris": {"ios": "https://dc.lft.to/lastmile_qr_scan", "android": "https://dc.lft.to/lastmile_qr_scan"}, "fusion_lon": 0.0, "type": "electric_scooter", "bike_id": "e848b5bf03123e2456a3abf43c8c1fa8", "name": "e848b5bf03123e2456a3abf43c8c1fa8"}, {"lon": -77.03982466666666, "is_disabled": 0, "lat": 38.90354, "fusion_lat": 0.0, "is_reserved": 0, "rental_uris": {"ios": "https://dc.lft.to/lastmile_qr_scan", "android": "https://dc.lft.to/lastmile_qr_scan"}, "fusion_lon": 0.0, "type": "electric_scooter", "bike_id": "18726bf282fc072375a097d2ab59d44f", "name": "18726bf282fc072375a097d2ab59d44f"}, {"lon": -77.02397916666666, "is_disabled": 0, "lat": 38.92608466666667, "fusion_lat": 0.0, "is_reserved": 0, "rental_uris": {"ios": "https://dc.lft.to/lastmile_qr_scan", "android": "https://dc.lft.to/lastmile_qr_scan"}, "fusion_lon": 0.0, "type": "electric_scooter", "bike_id": "6f37384f1243e062745bbb5d76ed6e3f", "name": "6f37384f1243e062745bbb5d76ed6e3f"}, {"lon": -77.02264816666667, "is_disabled": 0, "lat": 38.927441333333334, "fusion_lat": 0.0, "is_reserved": 0, "rental_uris": {"ios": "https://dc.lft.to/lastmile_qr_scan", "android": "https://dc.lft.to/lastmile_qr_scan"}, "fusion_lon": 0.0, "type": "electric_scooter", "bike_id": "a68c93c7cd1be14ece3dc9849ec39cd7", "name": "a68c93c7cd1be14ece3dc9849ec39cd7"}, {"lon": -77.0164155, "is_disabled": 0, "lat": 38.906429833333334, "fusion_lat": 0.0, "is_reserved": 0, "rental_uris": {"ios": "https://dc.lft.to/lastmile_qr_scan", "android": "https://dc.lft.to/lastmile_qr_scan"}, "fusion_lon": 0.0, "type": "electric_scooter", "bike_id": "22dac429070c9639de8ddeac0f973dae", "name": "22dac429070c9639de8ddeac0f973dae"}, {"lon": -77.02200733333333, "is_disabled": 0, "lat": 38.915719, "fusion_lat": 0.0, "is_reserved": 0, "rental_uris": {"ios": "https://dc.lft.to/lastmile_qr_scan", "android": "https://dc.lft.to/lastmile_qr_scan"}, "fusion_lon": 0.0, "type": "electric_scooter", "bike_id": "12faa8fb8336d61337d6ad32c7f446fa", "name": "12faa8fb8336d61337d6ad32c7f446fa"}, {"lon": -77.03043566666666, "is_disabled": 0, "lat": 38.91622266666667, "fusion_lat": 0.0, "is_reserved": 0, "rental_uris": {"ios": "https://dc.lft.to/lastmile_qr_scan", "android": "https://dc.lft.to/lastmile_qr_scan"}, "fusion_lon": 0.0, "type": "electric_scooter", "bike_id": "655398c470b49212676a3e3e8ef7f7a8", "name": "655398c470b49212676a3e3e8ef7f7a8"}, {"lon": -77.00182566666666, "is_disabled": 0, "lat": 38.90879783333333, "fusion_lat": 0.0, "is_reserved": 0, "rental_uris": {"ios": "https://dc.lft.to/lastmile_qr_scan", "android": "https://dc.lft.to/lastmile_qr_scan"}, "fusion_lon": 0.0, "type": "electric_scooter", "bike_id": "418753463b5e61016077d083ebf2668f", "name": "418753463b5e61016077d083ebf2668f"}, {"lon": -77.0467295, "is_disabled": 0, "lat": 38.905629833333336, "fusion_lat": 0.0, "is_reserved": 0, "rental_uris": {"ios": "https://dc.lft.to/lastmile_qr_scan", "android": "https://dc.lft.to/lastmile_qr_scan"}, "fusion_lon": 0.0, "type": "electric_scooter", "bike_id": "790461b7a43dd7cbad7ceb61ac391572", "name": "790461b7a43dd7cbad7ceb61ac391572"}, {"lon": -77.03185616666667, "is_disabled": 0, "lat": 38.917504666666666, "fusion_lat": 0.0, "is_reserved": 0, "rental_uris": {"ios": "https://dc.lft.to/lastmile_qr_scan", "android": "https://dc.lft.to/lastmile_qr_scan"}, "fusion_lon": 0.0, "type": "electric_scooter", "bike_id": "12bd06652a37c257f87a204776e303ae", "name": "12bd06652a37c257f87a204776e303ae"}, {"lon": -77.05428516666667, "is_disabled": 0, "lat": 38.92852666666667, "fusion_lat": 0.0, "is_reserved": 0, "rental_uris": {"ios": "https://dc.lft.to/lastmile_qr_scan", "android": "https://dc.lft.to/lastmile_qr_scan"}, "fusion_lon": 0.0, "type": "electric_scooter", "bike_id": "9ccb0e8e7028e946ae527634c6390bfa", "name": "9ccb0e8e7028e946ae527634c6390bfa"}, {"lon": -77.03408883333333, "is_disabled": 0, "lat": 38.92210733333334, "fusion_lat": 0.0, "is_reserved": 0, "rental_uris": {"ios": "https://dc.lft.to/lastmile_qr_scan", "android": "https://dc.lft.to/lastmile_qr_scan"}, "fusion_lon": 0.0, "type": "electric_scooter", "bike_id": "e35f68227aa48dcde14c13232f0c8705", "name": "e35f68227aa48dcde14c13232f0c8705"}, {"lon": -77.048917, "is_disabled": 0, "lat": 38.90661766666667, "fusion_lat": 0.0, "is_reserved": 0, "rental_uris": {"ios": "https://dc.lft.to/lastmile_qr_scan", "android": "https://dc.lft.to/lastmile_qr_scan"}, "fusion_lon": 0.0, "type": "electric_scooter", "bike_id": "e82a1b9c877cb135963ddb5ffd976c41", "name": "e82a1b9c877cb135963ddb5ffd976c41"}, {"lon": -77.00075, "is_disabled": 0, "lat": 38.873874666666666, "fusion_lat": 0.0, "is_reserved": 0, "rental_uris": {"ios": "https://dc.lft.to/lastmile_qr_scan", "android": "https://dc.lft.to/lastmile_qr_scan"}, "fusion_lon": 0.0, "type": "electric_scooter", "bike_id": "a145b9fa26bcf1aa5bc7b8075d5c4ea1", "name": "a145b9fa26bcf1aa5bc7b8075d5c4ea1"}, {"lon": -77.04123666666666, "is_disabled": 0, "lat": 38.9170875, "fusion_lat": 0.0, "is_reserved": 0, "rental_uris": {"ios": "https://dc.lft.to/lastmile_qr_scan", "android": "https://dc.lft.to/lastmile_qr_scan"}, "fusion_lon": 0.0, "type": "electric_scooter", "bike_id": "62ed1acb0f5285c940dddf3e4c25d2a4", "name": "62ed1acb0f5285c940dddf3e4c25d2a4"}, {"lon": -77.04310866666667, "is_disabled": 0, "lat": 38.912713833333335, "fusion_lat": 0.0, "is_reserved": 0, "rental_uris": {"ios": "https://dc.lft.to/lastmile_qr_scan", "android": "https://dc.lft.to/lastmile_qr_scan"}, "fusion_lon": 0.0, "type": "electric_scooter", "bike_id": "754424ad9069315988cd803f0af63758", "name": "754424ad9069315988cd803f0af63758"}, {"lon": -77.025873, "is_disabled": 0, "lat": 38.914175, "fusion_lat": 0.0, "is_reserved": 0, "rental_uris": {"ios": "https://dc.lft.to/lastmile_qr_scan", "android": "https://dc.lft.to/lastmile_qr_scan"}, "fusion_lon": 0.0, "type": "electric_scooter", "bike_id": "69f605828286d8cf6417487d91753e12", "name": "69f605828286d8cf6417487d91753e12"}, {"lon": -77.033899, "is_disabled": 0, "lat": 38.928799, "fusion_lat": 0.0, "is_reserved": 0, "rental_uris": {"ios": "https://dc.lft.to/lastmile_qr_scan", "android": "https://dc.lft.to/lastmile_qr_scan"}, "fusion_lon": 0.0, "type": "electric_scooter", "bike_id": "1da6076dc37607421cfc16aa0e3442cb", "name": "1da6076dc37607421cfc16aa0e3442cb"}, {"lon": -77.04238633333334, "is_disabled": 0, "lat": 38.913405833333336, "fusion_lat": 0.0, "is_reserved": 0, "rental_uris": {"ios": "https://dc.lft.to/lastmile_qr_scan", "android": "https://dc.lft.to/lastmile_qr_scan"}, "fusion_lon": 0.0, "type": "electric_scooter", "bike_id": "786f32f6ab47673500ff64918a747c2d", "name": "786f32f6ab47673500ff64918a747c2d"}, {"lon": -77.0343455, "is_disabled": 0, "lat": 38.907692, "fusion_lat": 0.0, "is_reserved": 0, "rental_uris": {"ios": "https://dc.lft.to/lastmile_qr_scan", "android": "https://dc.lft.to/lastmile_qr_scan"}, "fusion_lon": 0.0, "type": "electric_scooter", "bike_id": "08eb1eb28dac68f86c4b2bbb90c805a5", "name": "08eb1eb28dac68f86c4b2bbb90c805a5"}, {"lon": -77.04375516666667, "is_disabled": 0, "lat": 38.90130816666667, "fusion_lat": 0.0, "is_reserved": 0, "rental_uris": {"ios": "https://dc.lft.to/lastmile_qr_scan", "android": "https://dc.lft.to/lastmile_qr_scan"}, "fusion_lon": 0.0, "type": "electric_scooter", "bike_id": "79ababbaaaf47cf069776f45dbab0579", "name": "79ababbaaaf47cf069776f45dbab0579"}, {"lon": -77.0312765, "is_disabled": 0, "lat": 38.91567883333333, "fusion_lat": 0.0, "is_reserved": 0, "rental_uris": {"ios": "https://dc.lft.to/lastmile_qr_scan", "android": "https://dc.lft.to/lastmile_qr_scan"}, "fusion_lon": 0.0, "type": "electric_scooter", "bike_id": "ab45c51ffe98cbba6a0fab3158b85e1c", "name": "ab45c51ffe98cbba6a0fab3158b85e1c"}, {"lon": -76.90735316666667, "is_disabled": 0, "lat": 38.89613716666667, "fusion_lat": 0.0, "is_reserved": 0, "rental_uris": {"ios": "https://dc.lft.to/lastmile_qr_scan", "android": "https://dc.lft.to/lastmile_qr_scan"}, "fusion_lon": 0.0, "type": "electric_bike", "bike_id": "ff3c72aa75eaab24788325d6f67c4ce7", "name": "ff3c72aa75eaab24788325d6f67c4ce7"}, {"lon": -77.04727416666667, "is_disabled": 0, "lat": 38.89744783333333, "fusion_lat": 0.0, "is_reserved": 0, "rental_uris": {"ios": "https://dc.lft.to/lastmile_qr_scan", "android": "https://dc.lft.to/lastmile_qr_scan"}, "fusion_lon": 0.0, "type": "electric_scooter", "bike_id": "016b1cccf3f67aba35a39cf2337a57f3", "name": "016b1cccf3f67aba35a39cf2337a57f3"}, {"lon": -77.04453466666666, "is_disabled": 0, "lat": 38.896179833333335, "fusion_lat": 0.0, "is_reserved": 0, "rental_uris": {"ios": "https://dc.lft.to/lastmile_qr_scan", "android": "https://dc.lft.to/lastmile_qr_scan"}, "fusion_lon": 0.0, "type": "electric_scooter", "bike_id": "b1e922cb7268e77de0e85c01454177ce", "name": "b1e922cb7268e77de0e85c01454177ce"}, {"lon": -77.03246483333334, "is_disabled": 0, "lat": 38.92164316666667, "fusion_lat": 0.0, "is_reserved": 0, "rental_uris": {"ios": "https://dc.lft.to/lastmile_qr_scan", "android": "https://dc.lft.to/lastmile_qr_scan"}, "fusion_lon": 0.0, "type": "electric_scooter", "bike_id": "7f4fbd6400538582e23246cd3f642062", "name": "7f4fbd6400538582e23246cd3f642062"}, {"lon": -77.04336416666666, "is_disabled": 0, "lat": 38.92226466666666, "fusion_lat": 0.0, "is_reserved": 0, "rental_uris": {"ios": "https://dc.lft.to/lastmile_qr_scan", "android": "https://dc.lft.to/lastmile_qr_scan"}, "fusion_lon": 0.0, "type": "electric_scooter", "bike_id": "fda2002a8e25df4b8e4f751d13c29304", "name": "fda2002a8e25df4b8e4f751d13c29304"}, {"lon": -77.048382, "is_disabled": 0, "lat": 38.90425533333333, "fusion_lat": 0.0, "is_reserved": 0, "rental_uris": {"ios": "https://dc.lft.to/lastmile_qr_scan", "android": "https://dc.lft.to/lastmile_qr_scan"}, "fusion_lon": 0.0, "type": "electric_scooter", "bike_id": "c8859f14544dc404ea79601775827f98", "name": "c8859f14544dc404ea79601775827f98"}, {"lon": -77.04774916666666, "is_disabled": 0, "lat": 38.9177335, "fusion_lat": 0.0, "is_reserved": 0, "rental_uris": {"ios": "https://dc.lft.to/lastmile_qr_scan", "android": "https://dc.lft.to/lastmile_qr_scan"}, "fusion_lon": 0.0, "type": "electric_scooter", "bike_id": "16c57459f0d8f90fc6d08efdc61295c9", "name": "16c57459f0d8f90fc6d08efdc61295c9"}, {"lon": -77.04246983333333, "is_disabled": 0, "lat": 38.93145966666667, "fusion_lat": 0.0, "is_reserved": 0, "rental_uris": {"ios": "https://dc.lft.to/lastmile_qr_scan", "android": "https://dc.lft.to/lastmile_qr_scan"}, "fusion_lon": 0.0, "type": "electric_scooter", "bike_id": "be05787a875e0920c0c1268bbda3a1e3", "name": "be05787a875e0920c0c1268bbda3a1e3"}, {"lon": -77.019656, "is_disabled": 0, "lat": 38.90198266666667, "fusion_lat": 0.0, "is_reserved": 0, "rental_uris": {"ios": "https://dc.lft.to/lastmile_qr_scan", "android": "https://dc.lft.to/lastmile_qr_scan"}, "fusion_lon": 0.0, "type": "electric_scooter", "bike_id": "42e1d1f2cf78795db3c9e2cc1f163982", "name": "42e1d1f2cf78795db3c9e2cc1f163982"}, {"lon": -77.13099466666667, "is_disabled": 0, "lat": 39.02437783333333, "fusion_lat": 0.0, "is_reserved": 0, "rental_uris": {"ios": "https://dc.lft.to/lastmile_qr_scan", "android": "https://dc.lft.to/lastmile_qr_scan"}, "fusion_lon": 0.0, "type": "electric_bike", "bike_id": "682959c54ae7789ca9dce6c488355d19", "name": "682959c54ae7789ca9dce6c488355d19"}, {"lon": -77.02885383333333, "is_disabled": 0, "lat": 38.91695133333333, "fusion_lat": 0.0, "is_reserved": 0, "rental_uris": {"ios": "https://dc.lft.to/lastmile_qr_scan", "android": "https://dc.lft.to/lastmile_qr_scan"}, "fusion_lon": 0.0, "type": "electric_scooter", "bike_id": "3f02239b37663decd07fc9f82a60aa6c", "name": "3f02239b37663decd07fc9f82a60aa6c"}, {"lon": -76.99953466666666, "is_disabled": 0, "lat": 38.908535, "fusion_lat": 0.0, "is_reserved": 0, "rental_uris": {"ios": "https://dc.lft.to/lastmile_qr_scan", "android": "https://dc.lft.to/lastmile_qr_scan"}, "fusion_lon": 0.0, "type": "electric_scooter", "bike_id": "5c2a4710a096a08288bf5a44e46e1071", "name": "5c2a4710a096a08288bf5a44e46e1071"}, {"lon": -77.04080416666666, "is_disabled": 0, "lat": 38.920292, "fusion_lat": 0.0, "is_reserved": 0, "rental_uris": {"ios": "https://dc.lft.to/lastmile_qr_scan", "android": "https://dc.lft.to/lastmile_qr_scan"}, "fusion_lon": 0.0, "type": "electric_scooter", "bike_id": "7442add881e5f792d4a97bccce0e2c46", "name": "7442add881e5f792d4a97bccce0e2c46"}, {"lon": -76.98710233333334, "is_disabled": 0, "lat": 38.86706016666667, "fusion_lat": 0.0, "is_reserved": 0, "rental_uris": {"ios": "https://dc.lft.to/lastmile_qr_scan", "android": "https://dc.lft.to/lastmile_qr_scan"}, "fusion_lon": 0.0, "type": "electric_scooter", "bike_id": "e8e366fe00f62e80dd1cb85403e73707", "name": "e8e366fe00f62e80dd1cb85403e73707"}, {"lon": -77.04557083333333, "is_disabled": 0, "lat": 38.914967833333336, "fusion_lat": 0.0, "is_reserved": 0, "rental_uris": {"ios": "https://dc.lft.to/lastmile_qr_scan", "android": "https://dc.lft.to/lastmile_qr_scan"}, "fusion_lon": 0.0, "type": "electric_scooter", "bike_id": "5aee6ed68fe7f7448a19de3a589cde7f", "name": "5aee6ed68fe7f7448a19de3a589cde7f"}, {"lon": -77.0114585, "is_disabled": 0, "lat": 38.9576585, "fusion_lat": 0.0, "is_reserved": 0, "rental_uris": {"ios": "https://dc.lft.to/lastmile_qr_scan", "android": "https://dc.lft.to/lastmile_qr_scan"}, "fusion_lon": 0.0, "type": "electric_scooter", "bike_id": "2b4e8fc94f8b0726731bbd6ace83e1b9", "name": "2b4e8fc94f8b0726731bbd6ace83e1b9"}, {"lon": -77.025642, "is_disabled": 0, "lat": 38.92405, "fusion_lat": 0.0, "is_reserved": 0, "rental_uris": {"ios": "https://dc.lft.to/lastmile_qr_scan", "android": "https://dc.lft.to/lastmile_qr_scan"}, "fusion_lon": 0.0, "type": "electric_scooter", "bike_id": "1be839b19f1cf1b3c556888269f5c121", "name": "1be839b19f1cf1b3c556888269f5c121"}, {"lon": -77.03867583333333, "is_disabled": 0, "lat": 38.91204116666667, "fusion_lat": 0.0, "is_reserved": 0, "rental_uris": {"ios": "https://dc.lft.to/lastmile_qr_scan", "android": "https://dc.lft.to/lastmile_qr_scan"}, "fusion_lon": 0.0, "type": "electric_bike", "bike_id": "b9c24f4a764b759eafebd87f4effcbcf", "name": "b9c24f4a764b759eafebd87f4effcbcf"}, {"lon": -77.03306066666667, "is_disabled": 0, "lat": 38.928728166666666, "fusion_lat": 0.0, "is_reserved": 0, "rental_uris": {"ios": "https://dc.lft.to/lastmile_qr_scan", "android": "https://dc.lft.to/lastmile_qr_scan"}, "fusion_lon": 0.0, "type": "electric_scooter", "bike_id": "5ec4ddcddfa7ee32970de6416fbff840", "name": "5ec4ddcddfa7ee32970de6416fbff840"}, {"lon": -77.0332395, "is_disabled": 0, "lat": 38.92058866666667, "fusion_lat": 0.0, "is_reserved": 0, "rental_uris": {"ios": "https://dc.lft.to/lastmile_qr_scan", "android": "https://dc.lft.to/lastmile_qr_scan"}, "fusion_lon": 0.0, "type": "electric_bike", "bike_id": "2efa00c5bc924e485daff58c31e1b4d1", "name": "2efa00c5bc924e485daff58c31e1b4d1"}, {"lon": -76.98427416666667, "is_disabled": 0, "lat": 38.9264895, "fusion_lat": 0.0, "is_reserved": 0, "rental_uris": {"ios": "https://dc.lft.to/lastmile_qr_scan", "android": "https://dc.lft.to/lastmile_qr_scan"}, "fusion_lon": 0.0, "type": "electric_bike", "bike_id": "1fdced23272e8a6bcfc4512f4c8cb93f", "name": "1fdced23272e8a6bcfc4512f4c8cb93f"}, {"lon": -77.012981, "is_disabled": 0, "lat": 38.901965833333335, "fusion_lat": 0.0, "is_reserved": 0, "rental_uris": {"ios": "https://dc.lft.to/lastmile_qr_scan", "android": "https://dc.lft.to/lastmile_qr_scan"}, "fusion_lon": 0.0, "type": "electric_scooter", "bike_id": "2c1e2a950cadc15b7dfa78f2aba3ea76", "name": "2c1e2a950cadc15b7dfa78f2aba3ea76"}, {"lon": -77.03379883333334, "is_disabled": 0, "lat": 38.920528166666664, "fusion_lat": 0.0, "is_reserved": 0, "rental_uris": {"ios": "https://dc.lft.to/lastmile_qr_scan", "android": "https://dc.lft.to/lastmile_qr_scan"}, "fusion_lon": 0.0, "type": "electric_scooter", "bike_id": "77c8bea96e9f50a30730e74bdf8e27c8", "name": "77c8bea96e9f50a30730e74bdf8e27c8"}, {"lon": -77.02209833333333, "is_disabled": 0, "lat": 38.92705383333333, "fusion_lat": 0.0, "is_reserved": 0, "rental_uris": {"ios": "https://dc.lft.to/lastmile_qr_scan", "android": "https://dc.lft.to/lastmile_qr_scan"}, "fusion_lon": 0.0, "type": "electric_scooter", "bike_id": "e7b237175cffb579f7beb713a98d14be", "name": "e7b237175cffb579f7beb713a98d14be"}, {"lon": -77.01208283333334, "is_disabled": 0, "lat": 38.870949333333336, "fusion_lat": 0.0, "is_reserved": 0, "rental_uris": {"ios": "https://dc.lft.to/lastmile_qr_scan", "android": "https://dc.lft.to/lastmile_qr_scan"}, "fusion_lon": 0.0, "type": "electric_bike", "bike_id": "0c3c291fed465f9198c8acfdfafd3403", "name": "0c3c291fed465f9198c8acfdfafd3403"}, {"lon": -76.95207516666666, "is_disabled": 0, "lat": 38.93675966666667, "fusion_lat": 0.0, "is_reserved": 0, "rental_uris": {"ios": "https://dc.lft.to/lastmile_qr_scan", "android": "https://dc.lft.to/lastmile_qr_scan"}, "fusion_lon": 0.0, "type": "electric_bike", "bike_id": "7e5acbd453aadfc80a5db57e5fceb67a", "name": "7e5acbd453aadfc80a5db57e5fceb67a"}, {"lon": -77.04353633333334, "is_disabled": 0, "lat": 38.914785, "fusion_lat": 0.0, "is_reserved": 0, "rental_uris": {"ios": "https://dc.lft.to/lastmile_qr_scan", "android": "https://dc.lft.to/lastmile_qr_scan"}, "fusion_lon": 0.0, "type": "electric_scooter", "bike_id": "4c7b6b141c191fc51b8409c419c6dba5", "name": "4c7b6b141c191fc51b8409c419c6dba5"}, {"lon": -77.22568566666666, "is_disabled": 0, "lat": 38.924555, "fusion_lat": 0.0, "is_reserved": 0, "rental_uris": {"ios": "https://dc.lft.to/lastmile_qr_scan", "android": "https://dc.lft.to/lastmile_qr_scan"}, "fusion_lon": 0.0, "type": "electric_bike", "bike_id": "7a4230cd82aa7dd8366ef87a9d25402e", "name": "7a4230cd82aa7dd8366ef87a9d25402e"}, {"lon": -76.9741245, "is_disabled": 0, "lat": 38.90214016666667, "fusion_lat": 0.0, "is_reserved": 0, "rental_uris": {"ios": "https://dc.lft.to/lastmile_qr_scan", "android": "https://dc.lft.to/lastmile_qr_scan"}, "fusion_lon": 0.0, "type": "electric_bike", "bike_id": "64c5b96800d2ad790c9a974baeac11c7", "name": "64c5b96800d2ad790c9a974baeac11c7"}, {"lon": -77.02421766666667, "is_disabled": 0, "lat": 38.91908733333333, "fusion_lat": 0.0, "is_reserved": 0, "rental_uris": {"ios": "https://dc.lft.to/lastmile_qr_scan", "android": "https://dc.lft.to/lastmile_qr_scan"}, "fusion_lon": 0.0, "type": "electric_scooter", "bike_id": "759733e30cf5ae2c8423ef4f39bb6ce4", "name": "759733e30cf5ae2c8423ef4f39bb6ce4"}, {"lon": -76.99488433333333, "is_disabled": 0, "lat": 38.92998733333334, "fusion_lat": 0.0, "is_reserved": 0, "rental_uris": {"ios": "https://dc.lft.to/lastmile_qr_scan", "android": "https://dc.lft.to/lastmile_qr_scan"}, "fusion_lon": 0.0, "type": "electric_scooter", "bike_id": "ff560f0d60dcf0bcdef226b50886f5f7", "name": "ff560f0d60dcf0bcdef226b50886f5f7"}, {"lon": -77.14057316666667, "is_disabled": 0, "lat": 38.98772183333333, "fusion_lat": 0.0, "is_reserved": 0, "rental_uris": {"ios": "https://dc.lft.to/lastmile_qr_scan", "android": "https://dc.lft.to/lastmile_qr_scan"}, "fusion_lon": 0.0, "type": "electric_bike", "bike_id": "9ae34c5e20d96d92be2ab5dd95825bd3", "name": "9ae34c5e20d96d92be2ab5dd95825bd3"}, {"lon": -77.0030905, "is_disabled": 0, "lat": 38.92032916666667, "fusion_lat": 0.0, "is_reserved": 0, "rental_uris": {"ios": "https://dc.lft.to/lastmile_qr_scan", "android": "https://dc.lft.to/lastmile_qr_scan"}, "fusion_lon": 0.0, "type": "electric_scooter", "bike_id": "b3dab3a006205486ee4184633db5b1aa", "name": "b3dab3a006205486ee4184633db5b1aa"}, {"lon": -76.97921133333334, "is_disabled": 0, "lat": 38.91652466666667, "fusion_lat": 0.0, "is_reserved": 0, "rental_uris": {"ios": "https://dc.lft.to/lastmile_qr_scan", "android": "https://dc.lft.to/lastmile_qr_scan"}, "fusion_lon": 0.0, "type": "electric_scooter", "bike_id": "2dbd84e0fd901df2dd8c86f587e57a2f", "name": "2dbd84e0fd901df2dd8c86f587e57a2f"}, {"lon": -77.0160505, "is_disabled": 0, "lat": 38.89230416666667, "fusion_lat": 0.0, "is_reserved": 0, "rental_uris": {"ios": "https://dc.lft.to/lastmile_qr_scan", "android": "https://dc.lft.to/lastmile_qr_scan"}, "fusion_lon": 0.0, "type": "electric_scooter", "bike_id": "f7be3753a19f950e4378472a122169e2", "name": "f7be3753a19f950e4378472a122169e2"}, {"lon": -77.00726766666666, "is_disabled": 0, "lat": 38.884946666666664, "fusion_lat": 0.0, "is_reserved": 0, "rental_uris": {"ios": "https://dc.lft.to/lastmile_qr_scan", "android": "https://dc.lft.to/lastmile_qr_scan"}, "fusion_lon": 0.0, "type": "electric_scooter", "bike_id": "6d4004ce1cc2c1c0d0f0c47683429c40", "name": "6d4004ce1cc2c1c0d0f0c47683429c40"}, {"lon": -77.00891016666667, "is_disabled": 0, "lat": 38.923308166666665, "fusion_lat": 0.0, "is_reserved": 0, "rental_uris": {"ios": "https://dc.lft.to/lastmile_qr_scan", "android": "https://dc.lft.to/lastmile_qr_scan"}, "fusion_lon": 0.0, "type": "electric_scooter", "bike_id": "1ce6e616f0dbf6e0c274673982b96991", "name": "1ce6e616f0dbf6e0c274673982b96991"}, {"lon": -77.0297055, "is_disabled": 0, "lat": 38.913023333333335, "fusion_lat": 0.0, "is_reserved": 0, "rental_uris": {"ios": "https://dc.lft.to/lastmile_qr_scan", "android": "https://dc.lft.to/lastmile_qr_scan"}, "fusion_lon": 0.0, "type": "electric_scooter", "bike_id": "109b140449f2012d48608155c6305e04", "name": "109b140449f2012d48608155c6305e04"}, {"lon": -77.03180016666667, "is_disabled": 0, "lat": 38.918606833333335, "fusion_lat": 0.0, "is_reserved": 0, "rental_uris": {"ios": "https://dc.lft.to/lastmile_qr_scan", "android": "https://dc.lft.to/lastmile_qr_scan"}, "fusion_lon": 0.0, "type": "electric_scooter", "bike_id": "76fe5fd57ecf2ab7a20b1f97d2adbc1a", "name": "76fe5fd57ecf2ab7a20b1f97d2adbc1a"}, {"lon": -77.02230483333334, "is_disabled": 0, "lat": 38.93480183333333, "fusion_lat": 0.0, "is_reserved": 0, "rental_uris": {"ios": "https://dc.lft.to/lastmile_qr_scan", "android": "https://dc.lft.to/lastmile_qr_scan"}, "fusion_lon": 0.0, "type": "electric_scooter", "bike_id": "a15b707c8a2b4875a507dadcd2a0bec0", "name": "a15b707c8a2b4875a507dadcd2a0bec0"}, {"lon": -76.94638916666666, "is_disabled": 0, "lat": 38.89872416666667, "fusion_lat": 0.0, "is_reserved": 0, "rental_uris": {"ios": "https://dc.lft.to/lastmile_qr_scan", "android": "https://dc.lft.to/lastmile_qr_scan"}, "fusion_lon": 0.0, "type": "electric_scooter", "bike_id": "af9c7e3997f33c9eebea5eb67915d186", "name": "af9c7e3997f33c9eebea5eb67915d186"}, {"lon": -77.02212533333334, "is_disabled": 0, "lat": 38.91564783333333, "fusion_lat": 0.0, "is_reserved": 0, "rental_uris": {"ios": "https://dc.lft.to/lastmile_qr_scan", "android": "https://dc.lft.to/lastmile_qr_scan"}, "fusion_lon": 0.0, "type": "electric_scooter", "bike_id": "0935ea60984760bcad30d05be8e671d1", "name": "0935ea60984760bcad30d05be8e671d1"}, {"lon": -77.03864683333333, "is_disabled": 0, "lat": 38.932297166666665, "fusion_lat": 0.0, "is_reserved": 0, "rental_uris": {"ios": "https://dc.lft.to/lastmile_qr_scan", "android": "https://dc.lft.to/lastmile_qr_scan"}, "fusion_lon": 0.0, "type": "electric_scooter", "bike_id": "98920aa737527bbe1ed49fd2250c53e1", "name": "98920aa737527bbe1ed49fd2250c53e1"}, {"lon": -77.0574205, "is_disabled": 0, "lat": 38.93391316666667, "fusion_lat": 0.0, "is_reserved": 0, "rental_uris": {"ios": "https://dc.lft.to/lastmile_qr_scan", "android": "https://dc.lft.to/lastmile_qr_scan"}, "fusion_lon": 0.0, "type": "electric_scooter", "bike_id": "5c144cd6a0f9f4b61b48cdb7cfe67809", "name": "5c144cd6a0f9f4b61b48cdb7cfe67809"}, {"lon": -76.9709865, "is_disabled": 0, "lat": 38.87064733333333, "fusion_lat": 0.0, "is_reserved": 0, "rental_uris": {"ios": "https://dc.lft.to/lastmile_qr_scan", "android": "https://dc.lft.to/lastmile_qr_scan"}, "fusion_lon": 0.0, "type": "electric_scooter", "bike_id": "d4f88bb7dc7b60eb1ac22beed030035a", "name": "d4f88bb7dc7b60eb1ac22beed030035a"}, {"lon": -77.03062033333333, "is_disabled": 0, "lat": 38.90802433333333, "fusion_lat": 0.0, "is_reserved": 0, "rental_uris": {"ios": "https://dc.lft.to/lastmile_qr_scan", "android": "https://dc.lft.to/lastmile_qr_scan"}, "fusion_lon": 0.0, "type": "electric_scooter", "bike_id": "921c8dd028f6a03b0d016e7b4f88275e", "name": "921c8dd028f6a03b0d016e7b4f88275e"}, {"lon": -77.04675766666666, "is_disabled": 0, "lat": 38.893401, "fusion_lat": 0.0, "is_reserved": 0, "rental_uris": {"ios": "https://dc.lft.to/lastmile_qr_scan", "android": "https://dc.lft.to/lastmile_qr_scan"}, "fusion_lon": 0.0, "type": "electric_scooter", "bike_id": "e71bdbc67d8e75bd177f13454e21e043", "name": "e71bdbc67d8e75bd177f13454e21e043"}, {"lon": -77.20145983333333, "is_disabled": 0, "lat": 38.92220733333333, "fusion_lat": 0.0, "is_reserved": 0, "rental_uris": {"ios": "https://dc.lft.to/lastmile_qr_scan", "android": "https://dc.lft.to/lastmile_qr_scan"}, "fusion_lon": 0.0, "type": "electric_bike", "bike_id": "50d7bdb77ba015cf5d377d3861cbc1d8", "name": "50d7bdb77ba015cf5d377d3861cbc1d8"}, {"lon": -77.05807216666666, "is_disabled": 0, "lat": 38.902769166666666, "fusion_lat": 0.0, "is_reserved": 0, "rental_uris": {"ios": "https://dc.lft.to/lastmile_qr_scan", "android": "https://dc.lft.to/lastmile_qr_scan"}, "fusion_lon": 0.0, "type": "electric_scooter", "bike_id": "25e00a6ae474be860a5b7c6248825613", "name": "25e00a6ae474be860a5b7c6248825613"}, {"lon": -77.09146383333334, "is_disabled": 0, "lat": 38.8615425, "fusion_lat": 0.0, "is_reserved": 0, "rental_uris": {"ios": "https://dc.lft.to/lastmile_qr_scan", "android": "https://dc.lft.to/lastmile_qr_scan"}, "fusion_lon": 0.0, "type": "electric_bike", "bike_id": "b9ac03001d3ee34c608d13512414bae1", "name": "b9ac03001d3ee34c608d13512414bae1"}, {"lon": -77.02376516666666, "is_disabled": 0, "lat": 38.90735433333333, "fusion_lat": 0.0, "is_reserved": 0, "rental_uris": {"ios": "https://dc.lft.to/lastmile_qr_scan", "android": "https://dc.lft.to/lastmile_qr_scan"}, "fusion_lon": 0.0, "type": "electric_scooter", "bike_id": "f7779818b10ad91c44a45b043517070d", "name": "f7779818b10ad91c44a45b043517070d"}, {"lon": -77.03159316666667, "is_disabled": 0, "lat": 38.96443266666667, "fusion_lat": 0.0, "is_reserved": 0, "rental_uris": {"ios": "https://dc.lft.to/lastmile_qr_scan", "android": "https://dc.lft.to/lastmile_qr_scan"}, "fusion_lon": 0.0, "type": "electric_bike", "bike_id": "6e6e4606f549a38987b1a5f91f2cd422", "name": "6e6e4606f549a38987b1a5f91f2cd422"}, {"lon": -77.02497666666666, "is_disabled": 0, "lat": 38.90259133333333, "fusion_lat": 0.0, "is_reserved": 0, "rental_uris": {"ios": "https://dc.lft.to/lastmile_qr_scan", "android": "https://dc.lft.to/lastmile_qr_scan"}, "fusion_lon": 0.0, "type": "electric_scooter", "bike_id": "84887735d13fbc59673b4c842103d84a", "name": "84887735d13fbc59673b4c842103d84a"}, {"lon": -77.02361516666667, "is_disabled": 0, "lat": 38.8812465, "fusion_lat": 0.0, "is_reserved": 0, "rental_uris": {"ios": "https://dc.lft.to/lastmile_qr_scan", "android": "https://dc.lft.to/lastmile_qr_scan"}, "fusion_lon": 0.0, "type": "electric_scooter", "bike_id": "a1c3e9fa39a64f0a90d4323f0366cee2", "name": "a1c3e9fa39a64f0a90d4323f0366cee2"}, {"lon": -77.03836116666666, "is_disabled": 0, "lat": 38.91265666666666, "fusion_lat": 0.0, "is_reserved": 0, "rental_uris": {"ios": "https://dc.lft.to/lastmile_qr_scan", "android": "https://dc.lft.to/lastmile_qr_scan"}, "fusion_lon": 0.0, "type": "electric_scooter", "bike_id": "78ccc7009ca7a3561f84ffb319e2d3a3", "name": "78ccc7009ca7a3561f84ffb319e2d3a3"}, {"lon": -76.98004533333334, "is_disabled": 0, "lat": 38.90679133333333, "fusion_lat": 0.0, "is_reserved": 0, "rental_uris": {"ios": "https://dc.lft.to/lastmile_qr_scan", "android": "https://dc.lft.to/lastmile_qr_scan"}, "fusion_lon": 0.0, "type": "electric_scooter", "bike_id": "eebebcb4c09393ca2323f19416ad7621", "name": "eebebcb4c09393ca2323f19416ad7621"}, {"lon": -77.03205133333333, "is_disabled": 0, "lat": 38.9201625, "fusion_lat": 0.0, "is_reserved": 0, "rental_uris": {"ios": "https://dc.lft.to/lastmile_qr_scan", "android": "https://dc.lft.to/lastmile_qr_scan"}, "fusion_lon": 0.0, "type": "electric_scooter", "bike_id": "b8ecc03d2112c786929f8de0acb9251b", "name": "b8ecc03d2112c786929f8de0acb9251b"}, {"lon": -77.03859833333334, "is_disabled": 0, "lat": 38.91721916666667, "fusion_lat": 0.0, "is_reserved": 0, "rental_uris": {"ios": "https://dc.lft.to/lastmile_qr_scan", "android": "https://dc.lft.to/lastmile_qr_scan"}, "fusion_lon": 0.0, "type": "electric_scooter", "bike_id": "a725159a32d9760ec39d2e48499c3fb5", "name": "a725159a32d9760ec39d2e48499c3fb5"}, {"lon": -77.02978066666667, "is_disabled": 0, "lat": 38.934700166666666, "fusion_lat": 0.0, "is_reserved": 0, "rental_uris": {"ios": "https://dc.lft.to/lastmile_qr_scan", "android": "https://dc.lft.to/lastmile_qr_scan"}, "fusion_lon": 0.0, "type": "electric_bike", "bike_id": "f0ce8c92fbfbb23dd8963a17bc654836", "name": "f0ce8c92fbfbb23dd8963a17bc654836"}, {"lon": -77.02775416666667, "is_disabled": 0, "lat": 38.92876166666667, "fusion_lat": 0.0, "is_reserved": 0, "rental_uris": {"ios": "https://dc.lft.to/lastmile_qr_scan", "android": "https://dc.lft.to/lastmile_qr_scan"}, "fusion_lon": 0.0, "type": "electric_scooter", "bike_id": "6a0980cd364f67ac5fcdcb8ce40936f5", "name": "6a0980cd364f67ac5fcdcb8ce40936f5"}, {"lon": -76.97612616666666, "is_disabled": 0, "lat": 38.9047105, "fusion_lat": 0.0, "is_reserved": 0, "rental_uris": {"ios": "https://dc.lft.to/lastmile_qr_scan", "android": "https://dc.lft.to/lastmile_qr_scan"}, "fusion_lon": 0.0, "type": "electric_scooter", "bike_id": "24e3c62c65b63a1fa9edc95538c5e2ba", "name": "24e3c62c65b63a1fa9edc95538c5e2ba"}, {"lon": -77.18123133333333, "is_disabled": 0, "lat": 38.932280666666664, "fusion_lat": 0.0, "is_reserved": 0, "rental_uris": {"ios": "https://dc.lft.to/lastmile_qr_scan", "android": "https://dc.lft.to/lastmile_qr_scan"}, "fusion_lon": 0.0, "type": "electric_bike", "bike_id": "c9213a8a3fd67c801a0c3fd2c7db0213", "name": "c9213a8a3fd67c801a0c3fd2c7db0213"}, {"lon": -76.956362, "is_disabled": 0, "lat": 38.88520416666667, "fusion_lat": 0.0, "is_reserved": 0, "rental_uris": {"ios": "https://dc.lft.to/lastmile_qr_scan", "android": "https://dc.lft.to/lastmile_qr_scan"}, "fusion_lon": 0.0, "type": "electric_bike", "bike_id": "cd06fed0c541928fd7f55d8ea2b76089", "name": "cd06fed0c541928fd7f55d8ea2b76089"}, {"lon": -77.0435225, "is_disabled": 0, "lat": 38.9048395, "fusion_lat": 0.0, "is_reserved": 0, "rental_uris": {"ios": "https://dc.lft.to/lastmile_qr_scan", "android": "https://dc.lft.to/lastmile_qr_scan"}, "fusion_lon": 0.0, "type": "electric_scooter", "bike_id": "19982e0d6754e4c63d2837fc75fad228", "name": "19982e0d6754e4c63d2837fc75fad228"}, {"lon": -77.02273766666667, "is_disabled": 0, "lat": 38.92731466666667, "fusion_lat": 0.0, "is_reserved": 0, "rental_uris": {"ios": "https://dc.lft.to/lastmile_qr_scan", "android": "https://dc.lft.to/lastmile_qr_scan"}, "fusion_lon": 0.0, "type": "electric_scooter", "bike_id": "cbd0dead76368939f8de87f431ef01e3", "name": "cbd0dead76368939f8de87f431ef01e3"}, {"lon": -76.98564133333333, "is_disabled": 0, "lat": 38.9000305, "fusion_lat": 0.0, "is_reserved": 0, "rental_uris": {"ios": "https://dc.lft.to/lastmile_qr_scan", "android": "https://dc.lft.to/lastmile_qr_scan"}, "fusion_lon": 0.0, "type": "electric_scooter", "bike_id": "1577c6e2f5e27b8ecbbf7cd6812c846a", "name": "1577c6e2f5e27b8ecbbf7cd6812c846a"}, {"lon": -77.00134583333333, "is_disabled": 0, "lat": 38.9051655, "fusion_lat": 0.0, "is_reserved": 0, "rental_uris": {"ios": "https://dc.lft.to/lastmile_qr_scan", "android": "https://dc.lft.to/lastmile_qr_scan"}, "fusion_lon": 0.0, "type": "electric_scooter", "bike_id": "83686ad4ce3bea68bf39eba78b759a9d", "name": "83686ad4ce3bea68bf39eba78b759a9d"}, {"lon": -77.02389633333334, "is_disabled": 0, "lat": 38.9127965, "fusion_lat": 0.0, "is_reserved": 0, "rental_uris": {"ios": "https://dc.lft.to/lastmile_qr_scan", "android": "https://dc.lft.to/lastmile_qr_scan"}, "fusion_lon": 0.0, "type": "electric_scooter", "bike_id": "478bd61090742bbd3d5107403c26b88f", "name": "478bd61090742bbd3d5107403c26b88f"}, {"lon": -77.00106616666666, "is_disabled": 0, "lat": 38.87376733333333, "fusion_lat": 0.0, "is_reserved": 0, "rental_uris": {"ios": "https://dc.lft.to/lastmile_qr_scan", "android": "https://dc.lft.to/lastmile_qr_scan"}, "fusion_lon": 0.0, "type": "electric_scooter", "bike_id": "c059cc57fb1a592bf8e0f36c5cd28989", "name": "c059cc57fb1a592bf8e0f36c5cd28989"}, {"lon": -77.040014, "is_disabled": 0, "lat": 38.90794666666667, "fusion_lat": 0.0, "is_reserved": 0, "rental_uris": {"ios": "https://dc.lft.to/lastmile_qr_scan", "android": "https://dc.lft.to/lastmile_qr_scan"}, "fusion_lon": 0.0, "type": "electric_scooter", "bike_id": "64534969347170b2f56a2f1b43fe9aa4", "name": "64534969347170b2f56a2f1b43fe9aa4"}, {"lon": -77.00099566666667, "is_disabled": 0, "lat": 38.907509833333336, "fusion_lat": 0.0, "is_reserved": 0, "rental_uris": {"ios": "https://dc.lft.to/lastmile_qr_scan", "android": "https://dc.lft.to/lastmile_qr_scan"}, "fusion_lon": 0.0, "type": "electric_scooter", "bike_id": "31fbee8b0b367b7d34724fb4728edb7a", "name": "31fbee8b0b367b7d34724fb4728edb7a"}, {"lon": -77.01981516666666, "is_disabled": 0, "lat": 38.91534883333333, "fusion_lat": 0.0, "is_reserved": 0, "rental_uris": {"ios": "https://dc.lft.to/lastmile_qr_scan", "android": "https://dc.lft.to/lastmile_qr_scan"}, "fusion_lon": 0.0, "type": "electric_scooter", "bike_id": "191bed3a3adcdf7ff2a2c089927f12e0", "name": "191bed3a3adcdf7ff2a2c089927f12e0"}, {"lon": -77.047282, "is_disabled": 0, "lat": 38.9133555, "fusion_lat": 0.0, "is_reserved": 0, "rental_uris": {"ios": "https://dc.lft.to/lastmile_qr_scan", "android": "https://dc.lft.to/lastmile_qr_scan"}, "fusion_lon": 0.0, "type": "electric_scooter", "bike_id": "1b51704986162f3a2676324968cfb1ac", "name": "1b51704986162f3a2676324968cfb1ac"}, {"lon": -77.0295785, "is_disabled": 0, "lat": 38.90235833333333, "fusion_lat": 0.0, "is_reserved": 0, "rental_uris": {"ios": "https://dc.lft.to/lastmile_qr_scan", "android": "https://dc.lft.to/lastmile_qr_scan"}, "fusion_lon": 0.0, "type": "electric_scooter", "bike_id": "e80da5602aecadfe0107b5e4e606382b", "name": "e80da5602aecadfe0107b5e4e606382b"}, {"lon": -77.05044916666667, "is_disabled": 0, "lat": 38.924118, "fusion_lat": 0.0, "is_reserved": 0, "rental_uris": {"ios": "https://dc.lft.to/lastmile_qr_scan", "android": "https://dc.lft.to/lastmile_qr_scan"}, "fusion_lon": 0.0, "type": "electric_bike", "bike_id": "319c9048412ff156af8ae981eae3fb7e", "name": "319c9048412ff156af8ae981eae3fb7e"}, {"lon": -77.03773, "is_disabled": 0, "lat": 38.91570216666667, "fusion_lat": 0.0, "is_reserved": 0, "rental_uris": {"ios": "https://dc.lft.to/lastmile_qr_scan", "android": "https://dc.lft.to/lastmile_qr_scan"}, "fusion_lon": 0.0, "type": "electric_scooter", "bike_id": "9104e9ba22bf4ae6610048a9f5b15b68", "name": "9104e9ba22bf4ae6610048a9f5b15b68"}, {"lon": -77.03838916666666, "is_disabled": 0, "lat": 38.92172266666667, "fusion_lat": 0.0, "is_reserved": 0, "rental_uris": {"ios": "https://dc.lft.to/lastmile_qr_scan", "android": "https://dc.lft.to/lastmile_qr_scan"}, "fusion_lon": 0.0, "type": "electric_scooter", "bike_id": "b849874af0fc4f7df65b734ab900f403", "name": "b849874af0fc4f7df65b734ab900f403"}, {"lon": -77.000484, "is_disabled": 0, "lat": 38.873909166666664, "fusion_lat": 0.0, "is_reserved": 0, "rental_uris": {"ios": "https://dc.lft.to/lastmile_qr_scan", "android": "https://dc.lft.to/lastmile_qr_scan"}, "fusion_lon": 0.0, "type": "electric_scooter", "bike_id": "499164e936e3248c2b999b4514ba921d", "name": "499164e936e3248c2b999b4514ba921d"}, {"lon": -77.02714866666666, "is_disabled": 0, "lat": 38.906718, "fusion_lat": 0.0, "is_reserved": 0, "rental_uris": {"ios": "https://dc.lft.to/lastmile_qr_scan", "android": "https://dc.lft.to/lastmile_qr_scan"}, "fusion_lon": 0.0, "type": "electric_scooter", "bike_id": "83ad169738a141a9aa713048145887b0", "name": "83ad169738a141a9aa713048145887b0"}, {"lon": -77.0283375, "is_disabled": 0, "lat": 38.9388215, "fusion_lat": 0.0, "is_reserved": 0, "rental_uris": {"ios": "https://dc.lft.to/lastmile_qr_scan", "android": "https://dc.lft.to/lastmile_qr_scan"}, "fusion_lon": 0.0, "type": "electric_scooter", "bike_id": "0cbe329d6993871179eb14b1746f61e1", "name": "0cbe329d6993871179eb14b1746f61e1"}, {"lon": -77.02083733333333, "is_disabled": 0, "lat": 38.88190433333333, "fusion_lat": 0.0, "is_reserved": 0, "rental_uris": {"ios": "https://dc.lft.to/lastmile_qr_scan", "android": "https://dc.lft.to/lastmile_qr_scan"}, "fusion_lon": 0.0, "type": "electric_scooter", "bike_id": "08ca0a71546766d1b6ae4ee12d7d5024", "name": "08ca0a71546766d1b6ae4ee12d7d5024"}, {"lon": -77.0334575, "is_disabled": 0, "lat": 38.92367483333334, "fusion_lat": 0.0, "is_reserved": 0, "rental_uris": {"ios": "https://dc.lft.to/lastmile_qr_scan", "android": "https://dc.lft.to/lastmile_qr_scan"}, "fusion_lon": 0.0, "type": "electric_scooter", "bike_id": "11c5b4e552aead87dbd732e3dda56243", "name": "11c5b4e552aead87dbd732e3dda56243"}, {"lon": -77.0240315, "is_disabled": 0, "lat": 38.919896666666666, "fusion_lat": 0.0, "is_reserved": 0, "rental_uris": {"ios": "https://dc.lft.to/lastmile_qr_scan", "android": "https://dc.lft.to/lastmile_qr_scan"}, "fusion_lon": 0.0, "type": "electric_scooter", "bike_id": "26be17f12f2f619cea777e1e09e5226d", "name": "26be17f12f2f619cea777e1e09e5226d"}, {"lon": -77.02991516666667, "is_disabled": 0, "lat": 38.89759883333333, "fusion_lat": 0.0, "is_reserved": 0, "rental_uris": {"ios": "https://dc.lft.to/lastmile_qr_scan", "android": "https://dc.lft.to/lastmile_qr_scan"}, "fusion_lon": 0.0, "type": "electric_scooter", "bike_id": "3122392a00849b09df12782838093ca5", "name": "3122392a00849b09df12782838093ca5"}, {"lon": -77.0057505, "is_disabled": 0, "lat": 38.905957, "fusion_lat": 0.0, "is_reserved": 0, "rental_uris": {"ios": "https://dc.lft.to/lastmile_qr_scan", "android": "https://dc.lft.to/lastmile_qr_scan"}, "fusion_lon": 0.0, "type": "electric_scooter", "bike_id": "f36b91e9fca6dda79f7d260db8fce86d", "name": "f36b91e9fca6dda79f7d260db8fce86d"}, {"lon": -77.033592, "is_disabled": 0, "lat": 38.920556166666664, "fusion_lat": 0.0, "is_reserved": 0, "rental_uris": {"ios": "https://dc.lft.to/lastmile_qr_scan", "android": "https://dc.lft.to/lastmile_qr_scan"}, "fusion_lon": 0.0, "type": "electric_scooter", "bike_id": "996fc610391ad260cf41cf21a8255229", "name": "996fc610391ad260cf41cf21a8255229"}, {"lon": -76.92654133333333, "is_disabled": 0, "lat": 38.90172666666667, "fusion_lat": 0.0, "is_reserved": 0, "rental_uris": {"ios": "https://dc.lft.to/lastmile_qr_scan", "android": "https://dc.lft.to/lastmile_qr_scan"}, "fusion_lon": 0.0, "type": "electric_scooter", "bike_id": "61b053bd4ef122f83c5a86e234f97713", "name": "61b053bd4ef122f83c5a86e234f97713"}, {"lon": -77.02507633333333, "is_disabled": 0, "lat": 38.91923466666667, "fusion_lat": 0.0, "is_reserved": 0, "rental_uris": {"ios": "https://dc.lft.to/lastmile_qr_scan", "android": "https://dc.lft.to/lastmile_qr_scan"}, "fusion_lon": 0.0, "type": "electric_scooter", "bike_id": "da8c031abb99a3a1b4ee85568d4c7dc4", "name": "da8c031abb99a3a1b4ee85568d4c7dc4"}, {"lon": -77.04686983333333, "is_disabled": 0, "lat": 38.89557933333333, "fusion_lat": 0.0, "is_reserved": 0, "rental_uris": {"ios": "https://dc.lft.to/lastmile_qr_scan", "android": "https://dc.lft.to/lastmile_qr_scan"}, "fusion_lon": 0.0, "type": "electric_scooter", "bike_id": "d3197111fa82080cc7ff9f06a92b6fc2", "name": "d3197111fa82080cc7ff9f06a92b6fc2"}, {"lon": -76.99992333333333, "is_disabled": 0, "lat": 38.964097, "fusion_lat": 0.0, "is_reserved": 0, "rental_uris": {"ios": "https://dc.lft.to/lastmile_qr_scan", "android": "https://dc.lft.to/lastmile_qr_scan"}, "fusion_lon": 0.0, "type": "electric_bike", "bike_id": "22aa190369171e94c7e50532329d1d63", "name": "22aa190369171e94c7e50532329d1d63"}, {"lon": -77.0522645, "is_disabled": 0, "lat": 38.92516083333334, "fusion_lat": 0.0, "is_reserved": 0, "rental_uris": {"ios": "https://dc.lft.to/lastmile_qr_scan", "android": "https://dc.lft.to/lastmile_qr_scan"}, "fusion_lon": 0.0, "type": "electric_scooter", "bike_id": "3b27dd25ec2d93de9d1a1a65fdcd42bc", "name": "3b27dd25ec2d93de9d1a1a65fdcd42bc"}, {"lon": -77.028132, "is_disabled": 0, "lat": 38.899225333333334, "fusion_lat": 0.0, "is_reserved": 0, "rental_uris": {"ios": "https://dc.lft.to/lastmile_qr_scan", "android": "https://dc.lft.to/lastmile_qr_scan"}, "fusion_lon": 0.0, "type": "electric_scooter", "bike_id": "8e2594e3e52f2d0bf9d42d0f68aef1f5", "name": "8e2594e3e52f2d0bf9d42d0f68aef1f5"}, {"lon": -77.0435065, "is_disabled": 0, "lat": 38.904979833333336, "fusion_lat": 0.0, "is_reserved": 0, "rental_uris": {"ios": "https://dc.lft.to/lastmile_qr_scan", "android": "https://dc.lft.to/lastmile_qr_scan"}, "fusion_lon": 0.0, "type": "electric_scooter", "bike_id": "aa909cdfcae0f8d92c3fb2c5769ceb5b", "name": "aa909cdfcae0f8d92c3fb2c5769ceb5b"}, {"lon": -77.03735033333334, "is_disabled": 0, "lat": 38.92026116666667, "fusion_lat": 0.0, "is_reserved": 0, "rental_uris": {"ios": "https://dc.lft.to/lastmile_qr_scan", "android": "https://dc.lft.to/lastmile_qr_scan"}, "fusion_lon": 0.0, "type": "electric_scooter", "bike_id": "04064f9c6b415cf03ddcdf38c4d6eb85", "name": "04064f9c6b415cf03ddcdf38c4d6eb85"}, {"lon": -77.0629965, "is_disabled": 0, "lat": 38.90397083333333, "fusion_lat": 0.0, "is_reserved": 0, "rental_uris": {"ios": "https://dc.lft.to/lastmile_qr_scan", "android": "https://dc.lft.to/lastmile_qr_scan"}, "fusion_lon": 0.0, "type": "electric_scooter", "bike_id": "0b9da4b9101ee16518c29bf99d57583e", "name": "0b9da4b9101ee16518c29bf99d57583e"}, {"lon": -77.03875116666667, "is_disabled": 0, "lat": 38.93246116666667, "fusion_lat": 0.0, "is_reserved": 0, "rental_uris": {"ios": "https://dc.lft.to/lastmile_qr_scan", "android": "https://dc.lft.to/lastmile_qr_scan"}, "fusion_lon": 0.0, "type": "electric_scooter", "bike_id": "0e0458c78944fe5070dc16d43a05bb33", "name": "0e0458c78944fe5070dc16d43a05bb33"}, {"lon": -77.03917983333334, "is_disabled": 0, "lat": 38.917104333333334, "fusion_lat": 0.0, "is_reserved": 0, "rental_uris": {"ios": "https://dc.lft.to/lastmile_qr_scan", "android": "https://dc.lft.to/lastmile_qr_scan"}, "fusion_lon": 0.0, "type": "electric_scooter", "bike_id": "43a199bbd3f98d89d9fb6611a6c39d98", "name": "43a199bbd3f98d89d9fb6611a6c39d98"}, {"lon": -77.04886333333333, "is_disabled": 0, "lat": 38.90416616666667, "fusion_lat": 0.0, "is_reserved": 0, "rental_uris": {"ios": "https://dc.lft.to/lastmile_qr_scan", "android": "https://dc.lft.to/lastmile_qr_scan"}, "fusion_lon": 0.0, "type": "electric_scooter", "bike_id": "b5e59c5e58254355b7a55e03085ac191", "name": "b5e59c5e58254355b7a55e03085ac191"}, {"lon": -76.99551483333333, "is_disabled": 0, "lat": 38.90035566666667, "fusion_lat": 0.0, "is_reserved": 0, "rental_uris": {"ios": "https://dc.lft.to/lastmile_qr_scan", "android": "https://dc.lft.to/lastmile_qr_scan"}, "fusion_lon": 0.0, "type": "electric_scooter", "bike_id": "e8bfab2f5d4dd0cca0329f6a4f345397", "name": "e8bfab2f5d4dd0cca0329f6a4f345397"}, {"lon": -77.04004383333333, "is_disabled": 0, "lat": 38.9033525, "fusion_lat": 0.0, "is_reserved": 0, "rental_uris": {"ios": "https://dc.lft.to/lastmile_qr_scan", "android": "https://dc.lft.to/lastmile_qr_scan"}, "fusion_lon": 0.0, "type": "electric_scooter", "bike_id": "f70145125c1afc4cc371d6aa9dab54b4", "name": "f70145125c1afc4cc371d6aa9dab54b4"}, {"lon": -77.01752466666667, "is_disabled": 0, "lat": 38.91720083333333, "fusion_lat": 0.0, "is_reserved": 0, "rental_uris": {"ios": "https://dc.lft.to/lastmile_qr_scan", "android": "https://dc.lft.to/lastmile_qr_scan"}, "fusion_lon": 0.0, "type": "electric_scooter", "bike_id": "f5bac7543fe19d8b10db3b2b7dd0b8a5", "name": "f5bac7543fe19d8b10db3b2b7dd0b8a5"}, {"lon": -77.0885385, "is_disabled": 0, "lat": 38.91646933333333, "fusion_lat": 0.0, "is_reserved": 0, "rental_uris": {"ios": "https://dc.lft.to/lastmile_qr_scan", "android": "https://dc.lft.to/lastmile_qr_scan"}, "fusion_lon": 0.0, "type": "electric_scooter", "bike_id": "3dd3af32a3b407701202ecf24ca94e1c", "name": "3dd3af32a3b407701202ecf24ca94e1c"}, {"lon": -76.95950716666667, "is_disabled": 0, "lat": 38.861963333333335, "fusion_lat": 0.0, "is_reserved": 0, "rental_uris": {"ios": "https://dc.lft.to/lastmile_qr_scan", "android": "https://dc.lft.to/lastmile_qr_scan"}, "fusion_lon": 0.0, "type": "electric_scooter", "bike_id": "058776f891a4298b9d684a228e51bc16", "name": "058776f891a4298b9d684a228e51bc16"}, {"lon": -77.02157716666666, "is_disabled": 0, "lat": 38.92466366666667, "fusion_lat": 0.0, "is_reserved": 0, "rental_uris": {"ios": "https://dc.lft.to/lastmile_qr_scan", "android": "https://dc.lft.to/lastmile_qr_scan"}, "fusion_lon": 0.0, "type": "electric_scooter", "bike_id": "030ba24011b460b824b95ba9f18e886a", "name": "030ba24011b460b824b95ba9f18e886a"}, {"lon": -77.03225983333333, "is_disabled": 0, "lat": 38.911115833333334, "fusion_lat": 0.0, "is_reserved": 0, "rental_uris": {"ios": "https://dc.lft.to/lastmile_qr_scan", "android": "https://dc.lft.to/lastmile_qr_scan"}, "fusion_lon": 0.0, "type": "electric_scooter", "bike_id": "85c9093bb8f31f677e78ab2d8ad7fbe8", "name": "85c9093bb8f31f677e78ab2d8ad7fbe8"}, {"lon": -77.00404883333333, "is_disabled": 0, "lat": 38.921383166666665, "fusion_lat": 0.0, "is_reserved": 0, "rental_uris": {"ios": "https://dc.lft.to/lastmile_qr_scan", "android": "https://dc.lft.to/lastmile_qr_scan"}, "fusion_lon": 0.0, "type": "electric_scooter", "bike_id": "5ac70ff9a621251750166bd553618184", "name": "5ac70ff9a621251750166bd553618184"}, {"lon": -77.0445635, "is_disabled": 0, "lat": 38.915470166666665, "fusion_lat": 0.0, "is_reserved": 0, "rental_uris": {"ios": "https://dc.lft.to/lastmile_qr_scan", "android": "https://dc.lft.to/lastmile_qr_scan"}, "fusion_lon": 0.0, "type": "electric_scooter", "bike_id": "3cb44080133cfe60c0519e853fa79fc9", "name": "3cb44080133cfe60c0519e853fa79fc9"}, {"lon": -76.965081, "is_disabled": 0, "lat": 38.87649583333334, "fusion_lat": 0.0, "is_reserved": 0, "rental_uris": {"ios": "https://dc.lft.to/lastmile_qr_scan", "android": "https://dc.lft.to/lastmile_qr_scan"}, "fusion_lon": 0.0, "type": "electric_scooter", "bike_id": "43d3b78361292c5e1e4692e41b692653", "name": "43d3b78361292c5e1e4692e41b692653"}, {"lon": -77.0335175, "is_disabled": 0, "lat": 38.928874666666665, "fusion_lat": 0.0, "is_reserved": 0, "rental_uris": {"ios": "https://dc.lft.to/lastmile_qr_scan", "android": "https://dc.lft.to/lastmile_qr_scan"}, "fusion_lon": 0.0, "type": "electric_scooter", "bike_id": "175376b879228e1ba94fd686e4001a16", "name": "175376b879228e1ba94fd686e4001a16"}, {"lon": -77.02214033333334, "is_disabled": 0, "lat": 38.89612416666667, "fusion_lat": 0.0, "is_reserved": 0, "rental_uris": {"ios": "https://dc.lft.to/lastmile_qr_scan", "android": "https://dc.lft.to/lastmile_qr_scan"}, "fusion_lon": 0.0, "type": "electric_scooter", "bike_id": "7d31a165197d41fcc99471ccdcd16567", "name": "7d31a165197d41fcc99471ccdcd16567"}, {"lon": -76.98140416666666, "is_disabled": 0, "lat": 38.897551166666666, "fusion_lat": 0.0, "is_reserved": 0, "rental_uris": {"ios": "https://dc.lft.to/lastmile_qr_scan", "android": "https://dc.lft.to/lastmile_qr_scan"}, "fusion_lon": 0.0, "type": "electric_scooter", "bike_id": "bd564393a4cad062f82fe9871efe5998", "name": "bd564393a4cad062f82fe9871efe5998"}, {"lon": -77.00517216666667, "is_disabled": 0, "lat": 38.874715, "fusion_lat": 0.0, "is_reserved": 0, "rental_uris": {"ios": "https://dc.lft.to/lastmile_qr_scan", "android": "https://dc.lft.to/lastmile_qr_scan"}, "fusion_lon": 0.0, "type": "electric_scooter", "bike_id": "30ca44dc22015a074bff71955ee6ad33", "name": "30ca44dc22015a074bff71955ee6ad33"}, {"lon": -77.08436333333333, "is_disabled": 0, "lat": 38.93193683333333, "fusion_lat": 0.0, "is_reserved": 0, "rental_uris": {"ios": "https://dc.lft.to/lastmile_qr_scan", "android": "https://dc.lft.to/lastmile_qr_scan"}, "fusion_lon": 0.0, "type": "electric_scooter", "bike_id": "49f181219208e81f223dfd40225fc2cf", "name": "49f181219208e81f223dfd40225fc2cf"}, {"lon": -77.0295705, "is_disabled": 0, "lat": 38.916835, "fusion_lat": 0.0, "is_reserved": 0, "rental_uris": {"ios": "https://dc.lft.to/lastmile_qr_scan", "android": "https://dc.lft.to/lastmile_qr_scan"}, "fusion_lon": 0.0, "type": "electric_scooter", "bike_id": "ae5b1f2b8ce13eb7383c3cd4b7bf53d5", "name": "ae5b1f2b8ce13eb7383c3cd4b7bf53d5"}, {"lon": -77.01879266666667, "is_disabled": 0, "lat": 38.87467083333333, "fusion_lat": 0.0, "is_reserved": 0, "rental_uris": {"ios": "https://dc.lft.to/lastmile_qr_scan", "android": "https://dc.lft.to/lastmile_qr_scan"}, "fusion_lon": 0.0, "type": "electric_scooter", "bike_id": "0a215f3a8d85c57a8176fe1455befa3c", "name": "0a215f3a8d85c57a8176fe1455befa3c"}, {"lon": -77.0416365, "is_disabled": 0, "lat": 38.901461833333336, "fusion_lat": 0.0, "is_reserved": 0, "rental_uris": {"ios": "https://dc.lft.to/lastmile_qr_scan", "android": "https://dc.lft.to/lastmile_qr_scan"}, "fusion_lon": 0.0, "type": "electric_scooter", "bike_id": "ef3cb7f085c9d02079d07a948b049a66", "name": "ef3cb7f085c9d02079d07a948b049a66"}, {"lon": -77.04353333333333, "is_disabled": 0, "lat": 38.911341166666666, "fusion_lat": 0.0, "is_reserved": 0, "rental_uris": {"ios": "https://dc.lft.to/lastmile_qr_scan", "android": "https://dc.lft.to/lastmile_qr_scan"}, "fusion_lon": 0.0, "type": "electric_scooter", "bike_id": "98f82f34a32cc725736ba9c7dcff081d", "name": "98f82f34a32cc725736ba9c7dcff081d"}, {"lon": -77.00682, "is_disabled": 0, "lat": 38.87175383333334, "fusion_lat": 0.0, "is_reserved": 0, "rental_uris": {"ios": "https://dc.lft.to/lastmile_qr_scan", "android": "https://dc.lft.to/lastmile_qr_scan"}, "fusion_lon": 0.0, "type": "electric_scooter", "bike_id": "f6fa0ac9fc62d77404e89573e4510039", "name": "f6fa0ac9fc62d77404e89573e4510039"}, {"lon": -76.97682733333333, "is_disabled": 0, "lat": 38.899, "fusion_lat": 0.0, "is_reserved": 0, "rental_uris": {"ios": "https://dc.lft.to/lastmile_qr_scan", "android": "https://dc.lft.to/lastmile_qr_scan"}, "fusion_lon": 0.0, "type": "electric_scooter", "bike_id": "d131ea78dc0c1193145bfd07e2145ac4", "name": "d131ea78dc0c1193145bfd07e2145ac4"}, {"lon": -77.04703116666667, "is_disabled": 0, "lat": 38.903035833333334, "fusion_lat": 0.0, "is_reserved": 0, "rental_uris": {"ios": "https://dc.lft.to/lastmile_qr_scan", "android": "https://dc.lft.to/lastmile_qr_scan"}, "fusion_lon": 0.0, "type": "electric_scooter", "bike_id": "59d6b586713bee84bfb16ee387beceb8", "name": "59d6b586713bee84bfb16ee387beceb8"}, {"lon": -76.948911, "is_disabled": 0, "lat": 38.89533433333333, "fusion_lat": 0.0, "is_reserved": 0, "rental_uris": {"ios": "https://dc.lft.to/lastmile_qr_scan", "android": "https://dc.lft.to/lastmile_qr_scan"}, "fusion_lon": 0.0, "type": "electric_scooter", "bike_id": "9e68981ec66d7afd5b8732751f51f5cf", "name": "9e68981ec66d7afd5b8732751f51f5cf"}, {"lon": -77.04538966666667, "is_disabled": 0, "lat": 38.91329416666667, "fusion_lat": 0.0, "is_reserved": 0, "rental_uris": {"ios": "https://dc.lft.to/lastmile_qr_scan", "android": "https://dc.lft.to/lastmile_qr_scan"}, "fusion_lon": 0.0, "type": "electric_scooter", "bike_id": "6b698b14f1baf928dfdbce5bfaa7fd51", "name": "6b698b14f1baf928dfdbce5bfaa7fd51"}, {"lon": -77.00798433333334, "is_disabled": 0, "lat": 38.94926616666667, "fusion_lat": 0.0, "is_reserved": 0, "rental_uris": {"ios": "https://dc.lft.to/lastmile_qr_scan", "android": "https://dc.lft.to/lastmile_qr_scan"}, "fusion_lon": 0.0, "type": "electric_bike", "bike_id": "8d2a64c77c7e1becc558cb698bdf5fb6", "name": "8d2a64c77c7e1becc558cb698bdf5fb6"}, {"lon": -77.02407416666667, "is_disabled": 0, "lat": 38.915499833333335, "fusion_lat": 0.0, "is_reserved": 0, "rental_uris": {"ios": "https://dc.lft.to/lastmile_qr_scan", "android": "https://dc.lft.to/lastmile_qr_scan"}, "fusion_lon": 0.0, "type": "electric_scooter", "bike_id": "0a11f2f95ec24473a250390654409053", "name": "0a11f2f95ec24473a250390654409053"}, {"lon": -77.03525283333333, "is_disabled": 0, "lat": 38.9223495, "fusion_lat": 0.0, "is_reserved": 0, "rental_uris": {"ios": "https://dc.lft.to/lastmile_qr_scan", "android": "https://dc.lft.to/lastmile_qr_scan"}, "fusion_lon": 0.0, "type": "electric_scooter", "bike_id": "7246c67b80b06270067153bc5a44ee28", "name": "7246c67b80b06270067153bc5a44ee28"}, {"lon": -77.03663416666667, "is_disabled": 0, "lat": 38.9216335, "fusion_lat": 0.0, "is_reserved": 0, "rental_uris": {"ios": "https://dc.lft.to/lastmile_qr_scan", "android": "https://dc.lft.to/lastmile_qr_scan"}, "fusion_lon": 0.0, "type": "electric_scooter", "bike_id": "ddc96ca5d30d451734d26a62d44ccbec", "name": "ddc96ca5d30d451734d26a62d44ccbec"}, {"lon": -77.0386065, "is_disabled": 0, "lat": 38.9171665, "fusion_lat": 0.0, "is_reserved": 0, "rental_uris": {"ios": "https://dc.lft.to/lastmile_qr_scan", "android": "https://dc.lft.to/lastmile_qr_scan"}, "fusion_lon": 0.0, "type": "electric_scooter", "bike_id": "5335b2c594d1ea0d41fcaf2695a7f65b", "name": "5335b2c594d1ea0d41fcaf2695a7f65b"}, {"lon": -77.031848, "is_disabled": 0, "lat": 38.9205985, "fusion_lat": 0.0, "is_reserved": 0, "rental_uris": {"ios": "https://dc.lft.to/lastmile_qr_scan", "android": "https://dc.lft.to/lastmile_qr_scan"}, "fusion_lon": 0.0, "type": "electric_scooter", "bike_id": "f2a0b68e9e7e4535f340e1c0c13aba97", "name": "f2a0b68e9e7e4535f340e1c0c13aba97"}, {"lon": -77.0245585, "is_disabled": 0, "lat": 38.9087005, "fusion_lat": 0.0, "is_reserved": 0, "rental_uris": {"ios": "https://dc.lft.to/lastmile_qr_scan", "android": "https://dc.lft.to/lastmile_qr_scan"}, "fusion_lon": 0.0, "type": "electric_scooter", "bike_id": "c4c9e7b38aed137bc8a6e963812e0288", "name": "c4c9e7b38aed137bc8a6e963812e0288"}, {"lon": -77.03168233333334, "is_disabled": 0, "lat": 38.892337, "fusion_lat": 0.0, "is_reserved": 0, "rental_uris": {"ios": "https://dc.lft.to/lastmile_qr_scan", "android": "https://dc.lft.to/lastmile_qr_scan"}, "fusion_lon": 0.0, "type": "electric_scooter", "bike_id": "c0a54a3cc5ff8b84de640782e2ba7fa7", "name": "c0a54a3cc5ff8b84de640782e2ba7fa7"}, {"lon": -77.0349365, "is_disabled": 0, "lat": 38.932764, "fusion_lat": 0.0, "is_reserved": 0, "rental_uris": {"ios": "https://dc.lft.to/lastmile_qr_scan", "android": "https://dc.lft.to/lastmile_qr_scan"}, "fusion_lon": 0.0, "type": "electric_scooter", "bike_id": "0915e2ed0d2e57faf0b878ab527f44d8", "name": "0915e2ed0d2e57faf0b878ab527f44d8"}, {"lon": -77.06039166666666, "is_disabled": 0, "lat": 38.94470333333334, "fusion_lat": 0.0, "is_reserved": 0, "rental_uris": {"ios": "https://dc.lft.to/lastmile_qr_scan", "android": "https://dc.lft.to/lastmile_qr_scan"}, "fusion_lon": 0.0, "type": "electric_scooter", "bike_id": "8d34bb56ec05c8425461999d30cd0bb3", "name": "8d34bb56ec05c8425461999d30cd0bb3"}, {"lon": -77.12531, "is_disabled": 0, "lat": 39.0563675, "fusion_lat": 0.0, "is_reserved": 0, "rental_uris": {"ios": "https://dc.lft.to/lastmile_qr_scan", "android": "https://dc.lft.to/lastmile_qr_scan"}, "fusion_lon": 0.0, "type": "electric_bike", "bike_id": "1c487ea56f94d10f29e1128972737047", "name": "1c487ea56f94d10f29e1128972737047"}, {"lon": -77.02963083333333, "is_disabled": 0, "lat": 38.911828, "fusion_lat": 0.0, "is_reserved": 0, "rental_uris": {"ios": "https://dc.lft.to/lastmile_qr_scan", "android": "https://dc.lft.to/lastmile_qr_scan"}, "fusion_lon": 0.0, "type": "electric_scooter", "bike_id": "ea74f1984e76ac2fee1fe2f3790a887a", "name": "ea74f1984e76ac2fee1fe2f3790a887a"}, {"lon": -77.07167783333334, "is_disabled": 0, "lat": 38.938241833333336, "fusion_lat": 0.0, "is_reserved": 0, "rental_uris": {"ios": "https://dc.lft.to/lastmile_qr_scan", "android": "https://dc.lft.to/lastmile_qr_scan"}, "fusion_lon": 0.0, "type": "electric_scooter", "bike_id": "a7d1801aeb66e18b99a7408a99886f4f", "name": "a7d1801aeb66e18b99a7408a99886f4f"}, {"lon": -77.02361316666666, "is_disabled": 0, "lat": 38.9097505, "fusion_lat": 0.0, "is_reserved": 0, "rental_uris": {"ios": "https://dc.lft.to/lastmile_qr_scan", "android": "https://dc.lft.to/lastmile_qr_scan"}, "fusion_lon": 0.0, "type": "electric_scooter", "bike_id": "0bed1712b4cde4f909b81c2bf5846195", "name": "0bed1712b4cde4f909b81c2bf5846195"}, {"lon": -77.06517916666667, "is_disabled": 0, "lat": 38.90400366666667, "fusion_lat": 0.0, "is_reserved": 0, "rental_uris": {"ios": "https://dc.lft.to/lastmile_qr_scan", "android": "https://dc.lft.to/lastmile_qr_scan"}, "fusion_lon": 0.0, "type": "electric_scooter", "bike_id": "3cae41272eb9d03f9d1627c255cbce79", "name": "3cae41272eb9d03f9d1627c255cbce79"}, {"lon": -77.03866, "is_disabled": 0, "lat": 38.91189633333333, "fusion_lat": 0.0, "is_reserved": 0, "rental_uris": {"ios": "https://dc.lft.to/lastmile_qr_scan", "android": "https://dc.lft.to/lastmile_qr_scan"}, "fusion_lon": 0.0, "type": "electric_scooter", "bike_id": "36c6dbf3892d043bbc19d2db931c7ce1", "name": "36c6dbf3892d043bbc19d2db931c7ce1"}, {"lon": -77.05729433333333, "is_disabled": 0, "lat": 38.93366916666667, "fusion_lat": 0.0, "is_reserved": 0, "rental_uris": {"ios": "https://dc.lft.to/lastmile_qr_scan", "android": "https://dc.lft.to/lastmile_qr_scan"}, "fusion_lon": 0.0, "type": "electric_scooter", "bike_id": "4c7ac0ca34aff944c6a99cf0fe76a5b4", "name": "4c7ac0ca34aff944c6a99cf0fe76a5b4"}, {"lon": -77.03873066666667, "is_disabled": 0, "lat": 38.91474783333334, "fusion_lat": 0.0, "is_reserved": 0, "rental_uris": {"ios": "https://dc.lft.to/lastmile_qr_scan", "android": "https://dc.lft.to/lastmile_qr_scan"}, "fusion_lon": 0.0, "type": "electric_scooter", "bike_id": "2f583ecf2e917138651b7040e0a4a5c1", "name": "2f583ecf2e917138651b7040e0a4a5c1"}, {"lon": -77.000974, "is_disabled": 0, "lat": 38.92554966666667, "fusion_lat": 0.0, "is_reserved": 0, "rental_uris": {"ios": "https://dc.lft.to/lastmile_qr_scan", "android": "https://dc.lft.to/lastmile_qr_scan"}, "fusion_lon": 0.0, "type": "electric_scooter", "bike_id": "97d968608e284a572195d139ef2ee509", "name": "97d968608e284a572195d139ef2ee509"}, {"lon": -77.05550916666667, "is_disabled": 0, "lat": 38.8996865, "fusion_lat": 0.0, "is_reserved": 0, "rental_uris": {"ios": "https://dc.lft.to/lastmile_qr_scan", "android": "https://dc.lft.to/lastmile_qr_scan"}, "fusion_lon": 0.0, "type": "electric_scooter", "bike_id": "cc87167c9a880053915be0946b351869", "name": "cc87167c9a880053915be0946b351869"}, {"lon": -77.13929233333333, "is_disabled": 0, "lat": 38.8730345, "fusion_lat": 0.0, "is_reserved": 0, "rental_uris": {"ios": "https://dc.lft.to/lastmile_qr_scan", "android": "https://dc.lft.to/lastmile_qr_scan"}, "fusion_lon": 0.0, "type": "electric_bike", "bike_id": "d6447fe13620610226b63de8e0026a0b", "name": "d6447fe13620610226b63de8e0026a0b"}, {"lon": -77.04439033333334, "is_disabled": 0, "lat": 38.90960583333333, "fusion_lat": 0.0, "is_reserved": 0, "rental_uris": {"ios": "https://dc.lft.to/lastmile_qr_scan", "android": "https://dc.lft.to/lastmile_qr_scan"}, "fusion_lon": 0.0, "type": "electric_scooter", "bike_id": "b42d99e7060b0e09c3c26ed92426a020", "name": "b42d99e7060b0e09c3c26ed92426a020"}, {"lon": -77.04833833333333, "is_disabled": 0, "lat": 38.898418166666666, "fusion_lat": 0.0, "is_reserved": 0, "rental_uris": {"ios": "https://dc.lft.to/lastmile_qr_scan", "android": "https://dc.lft.to/lastmile_qr_scan"}, "fusion_lon": 0.0, "type": "electric_scooter", "bike_id": "cdf07d95988fe4376088e91bbcdc758e", "name": "cdf07d95988fe4376088e91bbcdc758e"}, {"lon": -77.001365, "is_disabled": 0, "lat": 38.907077, "fusion_lat": 0.0, "is_reserved": 0, "rental_uris": {"ios": "https://dc.lft.to/lastmile_qr_scan", "android": "https://dc.lft.to/lastmile_qr_scan"}, "fusion_lon": 0.0, "type": "electric_scooter", "bike_id": "4f47462b372cef4fd37260d3a0a4db1d", "name": "4f47462b372cef4fd37260d3a0a4db1d"}, {"lon": -77.00625833333334, "is_disabled": 0, "lat": 38.871789, "fusion_lat": 0.0, "is_reserved": 0, "rental_uris": {"ios": "https://dc.lft.to/lastmile_qr_scan", "android": "https://dc.lft.to/lastmile_qr_scan"}, "fusion_lon": 0.0, "type": "electric_scooter", "bike_id": "80a5b5d280ab0cef64018796c41463b0", "name": "80a5b5d280ab0cef64018796c41463b0"}, {"lon": -77.02950133333333, "is_disabled": 0, "lat": 38.918037, "fusion_lat": 0.0, "is_reserved": 0, "rental_uris": {"ios": "https://dc.lft.to/lastmile_qr_scan", "android": "https://dc.lft.to/lastmile_qr_scan"}, "fusion_lon": 0.0, "type": "electric_scooter", "bike_id": "9bbb15c3d0d58696e8f29bfa78f1f6d5", "name": "9bbb15c3d0d58696e8f29bfa78f1f6d5"}, {"lon": -77.02545516666666, "is_disabled": 0, "lat": 38.8922585, "fusion_lat": 0.0, "is_reserved": 0, "rental_uris": {"ios": "https://dc.lft.to/lastmile_qr_scan", "android": "https://dc.lft.to/lastmile_qr_scan"}, "fusion_lon": 0.0, "type": "electric_scooter", "bike_id": "fa0bf21727157048a98d46783e858485", "name": "fa0bf21727157048a98d46783e858485"}, {"lon": -76.990153, "is_disabled": 0, "lat": 38.911442666666666, "fusion_lat": 0.0, "is_reserved": 0, "rental_uris": {"ios": "https://dc.lft.to/lastmile_qr_scan", "android": "https://dc.lft.to/lastmile_qr_scan"}, "fusion_lon": 0.0, "type": "electric_scooter", "bike_id": "8a9770826020c1f5502cf0bc14db8db7", "name": "8a9770826020c1f5502cf0bc14db8db7"}, {"lon": -77.03400266666667, "is_disabled": 0, "lat": 38.924373, "fusion_lat": 0.0, "is_reserved": 0, "rental_uris": {"ios": "https://dc.lft.to/lastmile_qr_scan", "android": "https://dc.lft.to/lastmile_qr_scan"}, "fusion_lon": 0.0, "type": "electric_scooter", "bike_id": "a10c6724aba9f6243d5af565ad5c94b0", "name": "a10c6724aba9f6243d5af565ad5c94b0"}, {"lon": -77.00066383333333, "is_disabled": 0, "lat": 38.90056366666666, "fusion_lat": 0.0, "is_reserved": 0, "rental_uris": {"ios": "https://dc.lft.to/lastmile_qr_scan", "android": "https://dc.lft.to/lastmile_qr_scan"}, "fusion_lon": 0.0, "type": "electric_scooter", "bike_id": "a39dc030b8311782179f342c79594c2c", "name": "a39dc030b8311782179f342c79594c2c"}, {"lon": -77.038372, "is_disabled": 0, "lat": 38.915674833333334, "fusion_lat": 0.0, "is_reserved": 0, "rental_uris": {"ios": "https://dc.lft.to/lastmile_qr_scan", "android": "https://dc.lft.to/lastmile_qr_scan"}, "fusion_lon": 0.0, "type": "electric_scooter", "bike_id": "f7c9cfb817111548dbd4fae59234e670", "name": "f7c9cfb817111548dbd4fae59234e670"},