{"data": {"bikes": [{"name": "82b14a4c2a6577d54176f923cccb97ab", "lon": -77.0346975, "lat": 38.9023085, "type": "electric_scooter", "is_disabled": 0, "rental_uris": {"android": "https://dc.lft.to/lastmile_qr_scan", "ios": "https://dc.lft.to/lastmile_qr_scan"}, "fusion_lon": 0.0, "bike_id": "82b14a4c2a6577d54176f923cccb97ab", "fusion_lat": 0.0, "is_reserved": 0}, {"name": "11e288f8d1a467504e9d02aabbcb85ea", "lon": -77.00270833333333, "lat": 38.9523645, "type": "electric_bike", "is_disabled": 0, "rental_uris": {"android": "https://dc.lft.to/lastmile_qr_scan", "ios": "https://dc.lft.to/lastmile_qr_scan"}, "fusion_lon": 0.0, "bike_id": "11e288f8d1a467504e9d02aabbcb85ea", "fusion_lat": 0.0, "is_reserved": 0}, {"name": "b48d0a771008b5b5ef00be8ec8b4ea2d", "lon": -77.06295583333333, "lat": 38.943736, "type": "electric_scooter", "is_disabled": 0, "rental_uris": {"android": "https://dc.lft.to/lastmile_qr_scan", "ios": "https://dc.lft.to/lastmile_qr_scan"}, "fusion_lon": 0.0, "bike_id": "b48d0a771008b5b5ef00be8ec8b4ea2d", "fusion_lat": 0.0, "is_reserved": 0}, {"name": "76f20e69706a02520d0c064679004088", "lon": -77.02821616666667, "lat": 38.956114166666666, "type": "electric_scooter", "is_disabled": 0, "rental_uris": {"android": "https://dc.lft.to/lastmile_qr_scan", "ios": "https://dc.lft.to/lastmile_qr_scan"}, "fusion_lon": 0.0, "bike_id": "76f20e69706a02520d0c064679004088", "fusion_lat": 0.0, "is_reserved": 0}, {"name": "fd470caca3ddf5b1ccf45d57a206c819", "lon": -77.0386415, "lat": 38.90272783333333, "type": "electric_scooter", "is_disabled": 0, "rental_uris": {"android": "https://dc.lft.to/lastmile_qr_scan", "ios": "https://dc.lft.to/lastmile_qr_scan"}, "fusion_lon": 0.0, "bike_id": "fd470caca3ddf5b1ccf45d57a206c819", "fusion_lat": 0.0, "is_reserved": 0}, {"name": "6c84b5cf3098c73ac30d9504e17bc7bf", "lon": -77.04445216666667, "lat": 38.918093, "type": "electric_scooter", "is_disabled": 0, "rental_uris": {"android": "https://dc.lft.to/lastmile_qr_scan", "ios": "https://dc.lft.to/lastmile_qr_scan"}, "fusion_lon": 0.0, "bike_id": "6c84b5cf3098c73ac30d9504e17bc7bf", "fusion_lat": 0.0, "is_reserved": 0}, {"name": "0f7b6c5d0c67e5f550a103c438b1ae1e", "lon": -76.9977925, "lat": 38.84434366666667, "type": "electric_scooter", "is_disabled": 0, "rental_uris": {"android": "https://dc.lft.to/lastmile_qr_scan", "ios": "https://dc.lft.to/lastmile_qr_scan"}, "fusion_lon": 0.0, "bike_id": "0f7b6c5d0c67e5f550a103c438b1ae1e", "fusion_lat": 0.0, "is_reserved": 0}, {"name": "8309bbed70162c870a1dfdfa83c56b90", "lon": -77.05507866666666, "lat": 38.929421, "type": "electric_scooter", "is_disabled": 0, "rental_uris": {"android": "https://dc.lft.to/lastmile_qr_scan", "ios": "https://dc.lft.to/lastmile_qr_scan"}, "fusion_lon": 0.0, "bike_id": "8309bbed70162c870a1dfdfa83c56b90", "fusion_lat": 0.0, "is_reserved": 0}, {"name": "7202f2c0ec7ded4d59596a7083749e1b", "lon": -77.03957533333333, "lat": 38.933294833333335, "type": "electric_bike", "is_disabled": 0, "rental_uris": {"android": "https://dc.lft.to/lastmile_qr_scan", "ios": "https://dc.lft.to/lastmile_qr_scan"}, "fusion_lon": 0.0, "bike_id": "7202f2c0ec7ded4d59596a7083749e1b", "fusion_lat": 0.0, "is_reserved": 0}, {"name": "c54f63e6e22fb5f886e78ec61f056b08", "lon": -77.05718616666667, "lat": 38.90684, "type": "electric_scooter", "is_disabled": 0, "rental_uris": {"android": "https://dc.lft.to/lastmile_qr_scan", "ios": "https://dc.lft.to/lastmile_qr_scan"}, "fusion_lon": 0.0, "bike_id": "c54f63e6e22fb5f886e78ec61f056b08", "fusion_lat": 0.0, "is_reserved": 0}, {"name": "b544bcd7add877a13645e4be082df8e4", "lon": -77.0240795, "lat": 38.91666816666667, "type": "electric_scooter", "is_disabled": 0, "rental_uris": {"android": "https://dc.lft.to/lastmile_qr_scan", "ios": "https://dc.lft.to/lastmile_qr_scan"}, "fusion_lon": 0.0, "bike_id": "b544bcd7add877a13645e4be082df8e4", "fusion_lat": 0.0, "is_reserved": 0}, {"name": "4ac3f3130b7fd2d63c31f9fd26b53f6e", "lon": -77.18737083333333, "lat": 38.89347983333333, "type": "electric_bike", "is_disabled": 0, "rental_uris": {"android": "https://dc.lft.to/lastmile_qr_scan", "ios": "https://dc.lft.to/lastmile_qr_scan"}, "fusion_lon": 0.0, "bike_id": "4ac3f3130b7fd2d63c31f9fd26b53f6e", "fusion_lat": 0.0, "is_reserved": 0}, {"name": "91fd1e36369ab72ed8dd491dd82280ca", "lon": -77.02679866666666, "lat": 38.923787833333336, "type": "electric_scooter", "is_disabled": 0, "rental_uris": {"android": "https://dc.lft.to/lastmile_qr_scan", "ios": "https://dc.lft.to/lastmile_qr_scan"}, "fusion_lon": 0.0, "bike_id": "91fd1e36369ab72ed8dd491dd82280ca", "fusion_lat": 0.0, "is_reserved": 0}, {"name": "da1ce47ed7420dc5844fc9f938c91ff1", "lon": -77.04308666666667, "lat": 38.92651583333333, "type": "electric_scooter", "is_disabled": 0, "rental_uris": {"android": "https://dc.lft.to/lastmile_qr_scan", "ios": "https://dc.lft.to/lastmile_qr_scan"}, "fusion_lon": 0.0, "bike_id": "da1ce47ed7420dc5844fc9f938c91ff1", "fusion_lat": 0.0, "is_reserved": 0}, {"name": "095cf1f270328693acef671243f78a84", "lon": -77.0238145, "lat": 38.908827333333335, "type": "electric_scooter", "is_disabled": 0, "rental_uris": {"android": "https://dc.lft.to/lastmile_qr_scan", "ios": "https://dc.lft.to/lastmile_qr_scan"}, "fusion_lon": 0.0, "bike_id": "095cf1f270328693acef671243f78a84", "fusion_lat": 0.0, "is_reserved": 0}, {"name": "c5cfd175b4846c9da45fc8b5c81a8ce4", "lon": -77.00199466666666, "lat": 38.90230583333334, "type": "electric_scooter", "is_disabled": 0, "rental_uris": {"android": "https://dc.lft.to/lastmile_qr_scan", "ios": "https://dc.lft.to/lastmile_qr_scan"}, "fusion_lon": 0.0, "bike_id": "c5cfd175b4846c9da45fc8b5c81a8ce4", "fusion_lat": 0.0, "is_reserved": 0}, {"name": "a2e84d8df0c2652b60a3f11027093d10", "lon": -76.95190816666667, "lat": 39.08441416666667, "type": "electric_bike", "is_disabled": 0, "rental_uris": {"android": "https://dc.lft.to/lastmile_qr_scan", "ios": "https://dc.lft.to/lastmile_qr_scan"}, "fusion_lon": 0.0, "bike_id": "a2e84d8df0c2652b60a3f11027093d10", "fusion_lat": 0.0, "is_reserved": 0}, {"name": "9f3d297ecad460e65ec10a7fda953a36", "lon": -76.94849783333333, "lat": 38.88296533333333, "type": "electric_scooter", "is_disabled": 0, "rental_uris": {"android": "https://dc.lft.to/lastmile_qr_scan", "ios": "https://dc.lft.to/lastmile_qr_scan"}, "fusion_lon": 0.0, "bike_id": "9f3d297ecad460e65ec10a7fda953a36", "fusion_lat": 0.0, "is_reserved": 0}, {"name": "704c30af9ac94552385adf6c7d561198", "lon": -77.0320865, "lat": 38.892409, "type": "electric_scooter", "is_disabled": 0, "rental_uris": {"android": "https://dc.lft.to/lastmile_qr_scan", "ios": "https://dc.lft.to/lastmile_qr_scan"}, "fusion_lon": 0.0, "bike_id": "704c30af9ac94552385adf6c7d561198", "fusion_lat": 0.0, "is_reserved": 0}, {"name": "9e9a83529aa414d8cd2a4ee2137f4992", "lon": -77.046621, "lat": 38.90937366666667, "type": "electric_scooter", "is_disabled": 0, "rental_uris": {"android": "https://dc.lft.to/lastmile_qr_scan", "ios": "https://dc.lft.to/lastmile_qr_scan"}, "fusion_lon": 0.0, "bike_id": "9e9a83529aa414d8cd2a4ee2137f4992", "fusion_lat": 0.0, "is_reserved": 0}, {"name": "9b788b4cae109cbce843bf48258e93c8", "lon": -77.0415975, "lat": 38.89230233333333, "type": "electric_scooter", "is_disabled": 0, "rental_uris": {"android": "https://dc.lft.to/lastmile_qr_scan", "ios": "https://dc.lft.to/lastmile_qr_scan"}, "fusion_lon": 0.0, "bike_id": "9b788b4cae109cbce843bf48258e93c8", "fusion_lat": 0.0, "is_reserved": 0}, {"name": "e30abc6c33b76f353ad61dd7e3067e6f", "lon": -76.94775383333334, "lat": 38.896119, "type": "electric_scooter", "is_disabled": 0, "rental_uris": {"android": "https://dc.lft.to/lastmile_qr_scan", "ios": "https://dc.lft.to/lastmile_qr_scan"}, "fusion_lon": 0.0, "bike_id": "e30abc6c33b76f353ad61dd7e3067e6f", "fusion_lat": 0.0, "is_reserved": 0}, {"name": "6d4ca4d2f83443f4cd72ae32c703bfee", "lon": -77.01799966666667, "lat": 38.920302666666664, "type": "electric_scooter", "is_disabled": 0, "rental_uris": {"android": "https://dc.lft.to/lastmile_qr_scan", "ios": "https://dc.lft.to/lastmile_qr_scan"}, "fusion_lon": 0.0, "bike_id": "6d4ca4d2f83443f4cd72ae32c703bfee", "fusion_lat": 0.0, "is_reserved": 0}, {"name": "e543695206663a7bd3a5ae67d81e7d5b", "lon": -77.03277816666667, "lat": 38.93682316666667, "type": "electric_scooter", "is_disabled": 0, "rental_uris": {"android": "https://dc.lft.to/lastmile_qr_scan", "ios": "https://dc.lft.to/lastmile_qr_scan"}, "fusion_lon": 0.0, "bike_id": "e543695206663a7bd3a5ae67d81e7d5b", "fusion_lat": 0.0, "is_reserved": 0}, {"name": "6b93b9e529443a488da02e912799906d", "lon": -76.99000733333334, "lat": 38.8649875, "type": "electric_scooter", "is_disabled": 0, "rental_uris": {"android": "https://dc.lft.to/lastmile_qr_scan", "ios": "https://dc.lft.to/lastmile_qr_scan"}, "fusion_lon": 0.0, "bike_id": "6b93b9e529443a488da02e912799906d", "fusion_lat": 0.0, "is_reserved": 0}, {"name": "17731f94108ce4f080fbed4fe5d2780d", "lon": -77.02152783333334, "lat": 38.925959166666665, "type": "electric_scooter", "is_disabled": 0, "rental_uris": {"android": "https://dc.lft.to/lastmile_qr_scan", "ios": "https://dc.lft.to/lastmile_qr_scan"}, "fusion_lon": 0.0, "bike_id": "17731f94108ce4f080fbed4fe5d2780d", "fusion_lat": 0.0, "is_reserved": 0}, {"name": "86ca2eea3c7e468438e237a12ccd20de", "lon": -76.98826766666667, "lat": 38.90031033333333, "type": "electric_scooter", "is_disabled": 0, "rental_uris": {"android": "https://dc.lft.to/lastmile_qr_scan", "ios": "https://dc.lft.to/lastmile_qr_scan"}, "fusion_lon": 0.0, "bike_id": "86ca2eea3c7e468438e237a12ccd20de", "fusion_lat": 0.0, "is_reserved": 0}, {"name": "479416b99f0557e8acf087d41db0ff96", "lon": -76.95162866666666, "lat": 38.885171166666666, "type": "electric_bike", "is_disabled": 0, "rental_uris": {"android": "https://dc.lft.to/lastmile_qr_scan", "ios": "https://dc.lft.to/lastmile_qr_scan"}, "fusion_lon": 0.0, "bike_id": "479416b99f0557e8acf087d41db0ff96", "fusion_lat": 0.0, "is_reserved": 0}, {"name": "c1a5db3c3b23ec4958cf534e76525010", "lon": -77.031897, "lat": 38.90372516666667, "type": "electric_scooter", "is_disabled": 0, "rental_uris": {"android": "https://dc.lft.to/lastmile_qr_scan", "ios": "https://dc.lft.to/lastmile_qr_scan"}, "fusion_lon": 0.0, "bike_id": "c1a5db3c3b23ec4958cf534e76525010", "fusion_lat": 0.0, "is_reserved": 0}, {"name": "72fcf933c1b275ec0258a2c51c6403da", "lon": -77.04250283333333, "lat": 38.9242795, "type": "electric_scooter", "is_disabled": 0, "rental_uris": {"android": "https://dc.lft.to/lastmile_qr_scan", "ios": "https://dc.lft.to/lastmile_qr_scan"}, "fusion_lon": 0.0, "bike_id": "72fcf933c1b275ec0258a2c51c6403da", "fusion_lat": 0.0, "is_reserved": 0}, {"name": "2b2abc69eccc641533c172e833adcc43", "lon": -77.03116033333333, "lat": 38.905199, "type": "electric_scooter", "is_disabled": 0, "rental_uris": {"android": "https://dc.lft.to/lastmile_qr_scan", "ios": "https://dc.lft.to/lastmile_qr_scan"}, "fusion_lon": 0.0, "bike_id": "2b2abc69eccc641533c172e833adcc43", "fusion_lat": 0.0, "is_reserved": 0}, {"name": "68d7592c32bd0e042ad3600dd42e0b27", "lon": -77.01755416666667, "lat": 38.90262216666667, "type": "electric_scooter", "is_disabled": 0, "rental_uris": {"android": "https://dc.lft.to/lastmile_qr_scan", "ios": "https://dc.lft.to/lastmile_qr_scan"}, "fusion_lon": 0.0, "bike_id": "68d7592c32bd0e042ad3600dd42e0b27", "fusion_lat": 0.0, "is_reserved": 0}, {"name": "1631613942a75efbe6a8a7ee2176f159", "lon": -77.0258025, "lat": 38.8873315, "type": "electric_scooter", "is_disabled": 0, "rental_uris": {"android": "https://dc.lft.to/lastmile_qr_scan", "ios": "https://dc.lft.to/lastmile_qr_scan"}, "fusion_lon": 0.0, "bike_id": "1631613942a75efbe6a8a7ee2176f159", "fusion_lat": 0.0, "is_reserved": 0}, {"name": "5720067666fbe6d14227e58f79142d45", "lon": -77.01959866666667, "lat": 38.878375166666665, "type": "electric_scooter", "is_disabled": 0, "rental_uris": {"android": "https://dc.lft.to/lastmile_qr_scan", "ios": "https://dc.lft.to/lastmile_qr_scan"}, "fusion_lon": 0.0, "bike_id": "5720067666fbe6d14227e58f79142d45", "fusion_lat": 0.0, "is_reserved": 0}, {"name": "320130e79b07edb322b9aaaa04cf7484", "lon": -76.98432416666667, "lat": 38.905765833333334, "type": "electric_scooter", "is_disabled": 0, "rental_uris": {"android": "https://dc.lft.to/lastmile_qr_scan", "ios": "https://dc.lft.to/lastmile_qr_scan"}, "fusion_lon": 0.0, "bike_id": "320130e79b07edb322b9aaaa04cf7484", "fusion_lat": 0.0, "is_reserved": 0}, {"name": "a09c2a3afd2e14d8c7ff94f22c82b945", "lon": -76.97337766666666, "lat": 38.86504866666667, "type": "electric_scooter", "is_disabled": 0, "rental_uris": {"android": "https://dc.lft.to/lastmile_qr_scan", "ios": "https://dc.lft.to/lastmile_qr_scan"}, "fusion_lon": 0.0, "bike_id": "a09c2a3afd2e14d8c7ff94f22c82b945", "fusion_lat": 0.0, "is_reserved": 0}, {"name": "931e1d9f049f364f691a1ca8b6534c23", "lon": -77.03931316666667, "lat": 38.908341, "type": "electric_scooter", "is_disabled": 0, "rental_uris": {"android": "https://dc.lft.to/lastmile_qr_scan", "ios": "https://dc.lft.to/lastmile_qr_scan"}, "fusion_lon": 0.0, "bike_id": "931e1d9f049f364f691a1ca8b6534c23", "fusion_lat": 0.0, "is_reserved": 0}, {"name": "9d934794a1e9e08f30a26f714b61a80f", "lon": -77.027195, "lat": 38.923678, "type": "electric_scooter", "is_disabled": 0, "rental_uris": {"android": "https://dc.lft.to/lastmile_qr_scan", "ios": "https://dc.lft.to/lastmile_qr_scan"}, "fusion_lon": 0.0, "bike_id": "9d934794a1e9e08f30a26f714b61a80f", "fusion_lat": 0.0, "is_reserved": 0}, {"name": "c5f80ac2cb5ae5f1615c92fdb6889bd3", "lon": -77.00600433333334, "lat": 38.87479116666667, "type": "electric_scooter", "is_disabled": 0, "rental_uris": {"android": "https://dc.lft.to/lastmile_qr_scan", "ios": "https://dc.lft.to/lastmile_qr_scan"}, "fusion_lon": 0.0, "bike_id": "c5f80ac2cb5ae5f1615c92fdb6889bd3", "fusion_lat": 0.0, "is_reserved": 0}, {"name": "b058da7aa4b7e07b5d85ac3395f06bce", "lon": -76.99069266666666, "lat": 38.89808083333333, "type": "electric_bike", "is_disabled": 0, "rental_uris": {"android": "https://dc.lft.to/lastmile_qr_scan", "ios": "https://dc.lft.to/lastmile_qr_scan"}, "fusion_lon": 0.0, "bike_id": "b058da7aa4b7e07b5d85ac3395f06bce", "fusion_lat": 0.0, "is_reserved": 0}, {"name": "85771f80fdafc090359d14e72c6121ca", "lon": -77.033439, "lat": 38.89741566666667, "type": "electric_scooter", "is_disabled": 0, "rental_uris": {"android": "https://dc.lft.to/lastmile_qr_scan", "ios": "https://dc.lft.to/lastmile_qr_scan"}, "fusion_lon": 0.0, "bike_id": "85771f80fdafc090359d14e72c6121ca", "fusion_lat": 0.0, "is_reserved": 0}, {"name": "a1428f26062d03ea42a3429612e59207", "lon": -77.03764283333334, "lat": 38.91689683333333, "type": "electric_scooter", "is_disabled": 0, "rental_uris": {"android": "https://dc.lft.to/lastmile_qr_scan", "ios": "https://dc.lft.to/lastmile_qr_scan"}, "fusion_lon": 0.0, "bike_id": "a1428f26062d03ea42a3429612e59207", "fusion_lat": 0.0, "is_reserved": 0}, {"name": "c2b31752b08549750880c0fed12217a8", "lon": -77.02410033333334, "lat": 38.92077616666667, "type": "electric_scooter", "is_disabled": 0, "rental_uris": {"android": "https://dc.lft.to/lastmile_qr_scan", "ios": "https://dc.lft.to/lastmile_qr_scan"}, "fusion_lon": 0.0, "bike_id": "c2b31752b08549750880c0fed12217a8", "fusion_lat": 0.0, "is_reserved": 0}, {"name": "daa464c23ec4241a41217df72147cbdf", "lon": -76.90734683333334, "lat": 38.89616783333334, "type": "electric_bike", "is_disabled": 0, "rental_uris": {"android": "https://dc.lft.to/lastmile_qr_scan", "ios": "https://dc.lft.to/lastmile_qr_scan"}, "fusion_lon": 0.0, "bike_id": "daa464c23ec4241a41217df72147cbdf", "fusion_lat": 0.0, "is_reserved": 0}, {"name": "f9d3f8940df8499aa3f4c0152dee1202", "lon": -77.02549116666667, "lat": 38.91632, "type": "electric_scooter", "is_disabled": 0, "rental_uris": {"android": "https://dc.lft.to/lastmile_qr_scan", "ios": "https://dc.lft.to/lastmile_qr_scan"}, "fusion_lon": 0.0, "bike_id": "f9d3f8940df8499aa3f4c0152dee1202", "fusion_lat": 0.0, "is_reserved": 0}, {"name": "f7809d4c17ca97cc6278fd54e82b8400", "lon": -77.10696733333333, "lat": 38.875501166666666, "type": "electric_bike", "is_disabled": 0, "rental_uris": {"android": "https://dc.lft.to/lastmile_qr_scan", "ios": "https://dc.lft.to/lastmile_qr_scan"}, "fusion_lon": 0.0, "bike_id": "f7809d4c17ca97cc6278fd54e82b8400", "fusion_lat": 0.0, "is_reserved": 0}, {"name": "2418fe62d216c3bac3d3402304ad6cb3", "lon": -77.21123966666667, "lat": 38.87489033333333, "type": "electric_bike", "is_disabled": 0, "rental_uris": {"android": "https://dc.lft.to/lastmile_qr_scan", "ios": "https://dc.lft.to/lastmile_qr_scan"}, "fusion_lon": 0.0, "bike_id": "2418fe62d216c3bac3d3402304ad6cb3", "fusion_lat": 0.0, "is_reserved": 0}, {"name": "484b7590ec944ec903b4b3a872461dea", "lon": -77.02185083333333, "lat": 38.9188165, "type": "electric_scooter", "is_disabled": 0, "rental_uris": {"android": "https://dc.lft.to/lastmile_qr_scan", "ios": "https://dc.lft.to/lastmile_qr_scan"}, "fusion_lon": 0.0, "bike_id": "484b7590ec944ec903b4b3a872461dea", "fusion_lat": 0.0, "is_reserved": 0}, {"name": "220ca25c2694962a17a18d1687f45276", "lon": -77.08564733333333, "lat": 38.87419583333333, "type": "electric_bike", "is_disabled": 0, "rental_uris": {"android": "https://dc.lft.to/lastmile_qr_scan", "ios": "https://dc.lft.to/lastmile_qr_scan"}, "fusion_lon": 0.0, "bike_id": "220ca25c2694962a17a18d1687f45276", "fusion_lat": 0.0, "is_reserved": 0}, {"name": "f193b1db9a748643754542ce9265ee06", "lon": -76.93751866666666, "lat": 38.89043816666667, "type": "electric_bike", "is_disabled": 0, "rental_uris": {"android": "https://dc.lft.to/lastmile_qr_scan", "ios": "https://dc.lft.to/lastmile_qr_scan"}, "fusion_lon": 0.0, "bike_id": "f193b1db9a748643754542ce9265ee06", "fusion_lat": 0.0, "is_reserved": 0}, {"name": "55e108f17443a6987d2718dc0c1453a4", "lon": -76.96912616666667, "lat": 38.846106, "type": "electric_bike", "is_disabled": 0, "rental_uris": {"android": "https://dc.lft.to/lastmile_qr_scan", "ios": "https://dc.lft.to/lastmile_qr_scan"}, "fusion_lon": 0.0, "bike_id": "55e108f17443a6987d2718dc0c1453a4", "fusion_lat": 0.0, "is_reserved": 0}, {"name": "d31e9f2994c555a7eb55df72273c6ece", "lon": -77.057597, "lat": 38.925001333333334, "type": "electric_scooter", "is_disabled": 0, "rental_uris": {"android": "https://dc.lft.to/lastmile_qr_scan", "ios": "https://dc.lft.to/lastmile_qr_scan"}, "fusion_lon": 0.0, "bike_id": "d31e9f2994c555a7eb55df72273c6ece", "fusion_lat": 0.0, "is_reserved": 0}, {"name": "605e8793833579b20471928c2e895c4a", "lon": -77.02210216666667, "lat": 38.91008166666667, "type": "electric_scooter", "is_disabled": 0, "rental_uris": {"android": "https://dc.lft.to/lastmile_qr_scan", "ios": "https://dc.lft.to/lastmile_qr_scan"}, "fusion_lon": 0.0, "bike_id": "605e8793833579b20471928c2e895c4a", "fusion_lat": 0.0, "is_reserved": 0}, {"name": "5903840920bfaca894d70e0c4e532564", "lon": -77.029666, "lat": 38.9072125, "type": "electric_scooter", "is_disabled": 0, "rental_uris": {"android": "https://dc.lft.to/lastmile_qr_scan", "ios": "https://dc.lft.to/lastmile_qr_scan"}, "fusion_lon": 0.0, "bike_id": "5903840920bfaca894d70e0c4e532564", "fusion_lat": 0.0, "is_reserved": 0}, {"name": "79b85bd4354a980193e84edf56657fc8", "lon": -76.99631166666667, "lat": 38.90532016666667, "type": "electric_scooter", "is_disabled": 0, "rental_uris": {"android": "https://dc.lft.to/lastmile_qr_scan", "ios": "https://dc.lft.to/lastmile_qr_scan"}, "fusion_lon": 0.0, "bike_id": "79b85bd4354a980193e84edf56657fc8", "fusion_lat": 0.0, "is_reserved": 0}, {"name": "a642e5d6808ba95689e07c6cbb72e5f3", "lon": -77.03659683333333, "lat": 38.921179333333335, "type": "electric_scooter", "is_disabled": 0, "rental_uris": {"android": "https://dc.lft.to/lastmile_qr_scan", "ios": "https://dc.lft.to/lastmile_qr_scan"}, "fusion_lon": 0.0, "bike_id": "a642e5d6808ba95689e07c6cbb72e5f3", "fusion_lat": 0.0, "is_reserved": 0}, {"name": "e76a32e15d2463d17668d23b8b55830a", "lon": -77.03499183333334, "lat": 38.921449833333334, "type": "electric_scooter", "is_disabled": 0, "rental_uris": {"android": "https://dc.lft.to/lastmile_qr_scan", "ios": "https://dc.lft.to/lastmile_qr_scan"}, "fusion_lon": 0.0, "bike_id": "e76a32e15d2463d17668d23b8b55830a", "fusion_lat": 0.0, "is_reserved": 0}, {"name": "ba6f3e1cf8d7c0ffbb8a7946d706ac52", "lon": -77.035633, "lat": 38.9015, "type": "electric_scooter", "is_disabled": 0, "rental_uris": {"android": "https://dc.lft.to/lastmile_qr_scan", "ios": "https://dc.lft.to/lastmile_qr_scan"}, "fusion_lon": 0.0, "bike_id": "ba6f3e1cf8d7c0ffbb8a7946d706ac52", "fusion_lat": 0.0, "is_reserved": 0}, {"name": "148680ac29bca716416a8fb54f1bc082", "lon": -77.024749, "lat": 38.9204805, "type": "electric_scooter", "is_disabled": 0, "rental_uris": {"android": "https://dc.lft.to/lastmile_qr_scan", "ios": "https://dc.lft.to/lastmile_qr_scan"}, "fusion_lon": 0.0, "bike_id": "148680ac29bca716416a8fb54f1bc082", "fusion_lat": 0.0, "is_reserved": 0}, {"name": "611f0f28eb00b870c3b2a20ba1e52b89", "lon": -77.03452266666666, "lat": 38.9057165, "type": "electric_scooter", "is_disabled": 0, "rental_uris": {"android": "https://dc.lft.to/lastmile_qr_scan", "ios": "https://dc.lft.to/lastmile_qr_scan"}, "fusion_lon": 0.0, "bike_id": "611f0f28eb00b870c3b2a20ba1e52b89", "fusion_lat": 0.0, "is_reserved": 0}, {"name": "1a43d7ca50425c5a46b78d51e98d1a67", "lon": -76.9333675, "lat": 38.908659166666666, "type": "electric_scooter", "is_disabled": 0, "rental_uris": {"android": "https://dc.lft.to/lastmile_qr_scan", "ios": "https://dc.lft.to/lastmile_qr_scan"}, "fusion_lon": 0.0, "bike_id": "1a43d7ca50425c5a46b78d51e98d1a67", "fusion_lat": 0.0, "is_reserved": 0}, {"name": "277cda71f9c85738df44c9385256ab1e", "lon": -77.0273955, "lat": 38.927674333333336, "type": "electric_scooter", "is_disabled": 0, "rental_uris": {"android": "https://dc.lft.to/lastmile_qr_scan", "ios": "https://dc.lft.to/lastmile_qr_scan"}, "fusion_lon": 0.0, "bike_id": "277cda71f9c85738df44c9385256ab1e", "fusion_lat": 0.0, "is_reserved": 0}, {"name": "4d9cb57b85603eeb4201595194a83529", "lon": -76.99960783333333, "lat": 38.9083215, "type": "electric_scooter", "is_disabled": 0, "rental_uris": {"android": "https://dc.lft.to/lastmile_qr_scan", "ios": "https://dc.lft.to/lastmile_qr_scan"}, "fusion_lon": 0.0, "bike_id": "4d9cb57b85603eeb4201595194a83529", "fusion_lat": 0.0, "is_reserved": 0}, {"name": "4784379c3e859283174d5f68e8640761", "lon": -76.946505, "lat": 38.8982585, "type": "electric_scooter", "is_disabled": 0, "rental_uris": {"android": "https://dc.lft.to/lastmile_qr_scan", "ios": "https://dc.lft.to/lastmile_qr_scan"}, "fusion_lon": 0.0, "bike_id": "4784379c3e859283174d5f68e8640761", "fusion_lat": 0.0, "is_reserved": 0}, {"name": "61154fe4349ed827e6f7aba0bf0a96d7", "lon": -77.00210483333333, "lat": 38.8952205, "type": "electric_scooter", "is_disabled": 0, "rental_uris": {"android": "https://dc.lft.to/lastmile_qr_scan", "ios": "https://dc.lft.to/lastmile_qr_scan"}, "fusion_lon": 0.0, "bike_id": "61154fe4349ed827e6f7aba0bf0a96d7", "fusion_lat": 0.0, "is_reserved": 0}, {"name": "4221f8629722de00e7db56234bb54101", "lon": -77.02903816666667, "lat": 38.898009, "type": "electric_scooter", "is_disabled": 0, "rental_uris": {"android": "https://dc.lft.to/lastmile_qr_scan", "ios": "https://dc.lft.to/lastmile_qr_scan"}, "fusion_lon": 0.0, "bike_id": "4221f8629722de00e7db56234bb54101", "fusion_lat": 0.0, "is_reserved": 0}, {"name": "c5eb7f440d16022a210f5df18d7edf62", "lon": -77.01765833333333, "lat": 38.92040266666667, "type": "electric_scooter", "is_disabled": 0, "rental_uris": {"android": "https://dc.lft.to/lastmile_qr_scan", "ios": "https://dc.lft.to/lastmile_qr_scan"}, "fusion_lon": 0.0, "bike_id": "c5eb7f440d16022a210f5df18d7edf62", "fusion_lat": 0.0, "is_reserved": 0}, {"name": "c087ce1e0838a85f50fa3ed6ab8f0591", "lon": -77.03648916666667, "lat": 38.920798, "type": "electric_scooter", "is_disabled": 0, "rental_uris": {"android": "https://dc.lft.to/lastmile_qr_scan", "ios": "https://dc.lft.to/lastmile_qr_scan"}, "fusion_lon": 0.0, "bike_id": "c087ce1e0838a85f50fa3ed6ab8f0591", "fusion_lat": 0.0, "is_reserved": 0}, {"name": "9bfa28db3b14e46001b3638913b54c09", "lon": -76.97223983333333, "lat": 38.90032133333333, "type": "electric_bike", "is_disabled": 0, "rental_uris": {"android": "https://dc.lft.to/lastmile_qr_scan", "ios": "https://dc.lft.to/lastmile_qr_scan"}, "fusion_lon": 0.0, "bike_id": "9bfa28db3b14e46001b3638913b54c09", "fusion_lat": 0.0, "is_reserved": 0}, {"name": "fb02d2686394c4f6f302d1da7a190268", "lon": -77.01982683333334, "lat": 38.911620166666665, "type": "electric_scooter", "is_disabled": 0, "rental_uris": {"android": "https://dc.lft.to/lastmile_qr_scan", "ios": "https://dc.lft.to/lastmile_qr_scan"}, "fusion_lon": 0.0, "bike_id": "fb02d2686394c4f6f302d1da7a190268", "fusion_lat": 0.0, "is_reserved": 0}, {"name": "7fd5e0b21c0507ca5bdbc10a362bfd06", "lon": -77.035192, "lat": 38.900268, "type": "electric_scooter", "is_disabled": 0, "rental_uris": {"android": "https://dc.lft.to/lastmile_qr_scan", "ios": "https://dc.lft.to/lastmile_qr_scan"}, "fusion_lon": 0.0, "bike_id": "7fd5e0b21c0507ca5bdbc10a362bfd06", "fusion_lat": 0.0, "is_reserved": 0}, {"name": "dcdb176ea3e057abfd0def20c0281160", "lon": -77.00371166666666, "lat": 38.89727383333334, "type": "electric_scooter", "is_disabled": 0, "rental_uris": {"android": "https://dc.lft.to/lastmile_qr_scan", "ios": "https://dc.lft.to/lastmile_qr_scan"}, "fusion_lon": 0.0, "bike_id": "dcdb176ea3e057abfd0def20c0281160", "fusion_lat": 0.0, "is_reserved": 0}, {"name": "ea845892245f48c31d4d40f13faf623e", "lon": -77.004125, "lat": 38.87682016666667, "type": "electric_scooter", "is_disabled": 0, "rental_uris": {"android": "https://dc.lft.to/lastmile_qr_scan", "ios": "https://dc.lft.to/lastmile_qr_scan"}, "fusion_lon": 0.0, "bike_id": "ea845892245f48c31d4d40f13faf623e", "fusion_lat": 0.0, "is_reserved": 0}, {"name": "9974b4a84a35c0533b0ab2dca8260d6d", "lon": -77.02836616666667, "lat": 38.92468983333333, "type": "electric_scooter", "is_disabled": 0, "rental_uris": {"android": "https://dc.lft.to/lastmile_qr_scan", "ios": "https://dc.lft.to/lastmile_qr_scan"}, "fusion_lon": 0.0, "bike_id": "9974b4a84a35c0533b0ab2dca8260d6d", "fusion_lat": 0.0, "is_reserved": 0}, {"name": "bb6fb09119501e93568e9680fd82701e", "lon": -77.03473316666667, "lat": 38.90553516666667, "type": "electric_scooter", "is_disabled": 0, "rental_uris": {"android": "https://dc.lft.to/lastmile_qr_scan", "ios": "https://dc.lft.to/lastmile_qr_scan"}, "fusion_lon": 0.0, "bike_id": "bb6fb09119501e93568e9680fd82701e", "fusion_lat": 0.0, "is_reserved": 0}, {"name": "0f8f174018f8c73af152ae2880d47227", "lon": -77.03858583333333, "lat": 38.90766416666666, "type": "electric_scooter", "is_disabled": 0, "rental_uris": {"android": "https://dc.lft.to/lastmile_qr_scan", "ios": "https://dc.lft.to/lastmile_qr_scan"}, "fusion_lon": 0.0, "bike_id": "0f8f174018f8c73af152ae2880d47227", "fusion_lat": 0.0, "is_reserved": 0}, {"name": "24940b942f69b89ff577c9998905445f", "lon": -77.02197016666666, "lat": 38.89608116666667, "type": "electric_scooter", "is_disabled": 0, "rental_uris": {"android": "https://dc.lft.to/lastmile_qr_scan", "ios": "https://dc.lft.to/lastmile_qr_scan"}, "fusion_lon": 0.0, "bike_id": "24940b942f69b89ff577c9998905445f", "fusion_lat": 0.0, "is_reserved": 0}, {"name": "f1843045c2e78524f32e227681df1112", "lon": -77.0071465, "lat": 38.884852333333335, "type": "electric_scooter", "is_disabled": 0, "rental_uris": {"android": "https://dc.lft.to/lastmile_qr_scan", "ios": "https://dc.lft.to/lastmile_qr_scan"}, "fusion_lon": 0.0, "bike_id": "f1843045c2e78524f32e227681df1112", "fusion_lat": 0.0, "is_reserved": 0}, {"name": "a681b96f924bc660116628eb84f0b5ae", "lon": -77.00725916666667, "lat": 38.88487816666667, "type": "electric_scooter", "is_disabled": 0, "rental_uris": {"android": "https://dc.lft.to/lastmile_qr_scan", "ios": "https://dc.lft.to/lastmile_qr_scan"}, "fusion_lon": 0.0, "bike_id": "a681b96f924bc660116628eb84f0b5ae", "fusion_lat": 0.0, "is_reserved": 0}, {"name": "62a0ed42916fe2e906f2e9b19ef90e8e", "lon": -77.0391895, "lat": 38.9048595, "type": "electric_scooter", "is_disabled": 0, "rental_uris": {"android": "https://dc.lft.to/lastmile_qr_scan", "ios": "https://dc.lft.to/lastmile_qr_scan"}, "fusion_lon": 0.0, "bike_id": "62a0ed42916fe2e906f2e9b19ef90e8e", "fusion_lat": 0.0, "is_reserved": 0}, {"name": "8e70acd36bc874329d9bbbf173a8f46c", "lon": -77.026905, "lat": 38.909292666666666, "type": "electric_scooter", "is_disabled": 0, "rental_uris": {"android": "https://dc.lft.to/lastmile_qr_scan", "ios": "https://dc.lft.to/lastmile_qr_scan"}, "fusion_lon": 0.0, "bike_id": "8e70acd36bc874329d9bbbf173a8f46c", "fusion_lat": 0.0, "is_reserved": 0}, {"name": "9c8bc651578d48d28788ab00d42d1a4b", "lon": -76.96713016666666, "lat": 38.860334333333334, "type": "electric_scooter", "is_disabled": 0, "rental_uris": {"android": "https://dc.lft.to/lastmile_qr_scan", "ios": "https://dc.lft.to/lastmile_qr_scan"}, "fusion_lon": 0.0, "bike_id": "9c8bc651578d48d28788ab00d42d1a4b", "fusion_lat": 0.0, "is_reserved": 0}, {"name": "66d99acaa1b1e4d183be8fdbb103cb80", "lon": -77.0971535, "lat": 38.950972, "type": "electric_scooter", "is_disabled": 0, "rental_uris": {"android": "https://dc.lft.to/lastmile_qr_scan", "ios": "https://dc.lft.to/lastmile_qr_scan"}, "fusion_lon": 0.0, "bike_id": "66d99acaa1b1e4d183be8fdbb103cb80", "fusion_lat": 0.0, "is_reserved": 0}, {"name": "425df2e0b2017fb0bf9600ff2753251e", "lon": -77.02413883333334, "lat": 38.920789, "type": "electric_scooter", "is_disabled": 0, "rental_uris": {"android": "https://dc.lft.to/lastmile_qr_scan", "ios": "https://dc.lft.to/lastmile_qr_scan"}, "fusion_lon": 0.0, "bike_id": "425df2e0b2017fb0bf9600ff2753251e", "fusion_lat": 0.0, "is_reserved": 0}, {"name": "e4b6a03256dab632ffb6f75030bb4b33", "lon": -76.981964, "lat": 38.984918666666665, "type": "electric_bike", "is_disabled": 0, "rental_uris": {"android": "https://dc.lft.to/lastmile_qr_scan", "ios": "https://dc.lft.to/lastmile_qr_scan"}, "fusion_lon": 0.0, "bike_id": "e4b6a03256dab632ffb6f75030bb4b33", "fusion_lat": 0.0, "is_reserved": 0}, {"name": "96ab7359eea270adc05ec1c8a4c3f5ff", "lon": -77.01531633333333, "lat": 38.885848833333334, "type": "electric_scooter", "is_disabled": 0, "rental_uris": {"android": "https://dc.lft.to/lastmile_qr_scan", "ios": "https://dc.lft.to/lastmile_qr_scan"}, "fusion_lon": 0.0, "bike_id": "96ab7359eea270adc05ec1c8a4c3f5ff", "fusion_lat": 0.0, "is_reserved": 0}, {"name": "8b2436d3ca47bdced9e50222d8d50c78", "lon": -77.03145433333333, "lat": 38.94172566666667, "type": "electric_scooter", "is_disabled": 0, "rental_uris": {"android": "https://dc.lft.to/lastmile_qr_scan", "ios": "https://dc.lft.to/lastmile_qr_scan"}, "fusion_lon": 0.0, "bike_id": "8b2436d3ca47bdced9e50222d8d50c78", "fusion_lat": 0.0, "is_reserved": 0}, {"name": "60a35332379dd55930f217be53a99c0f", "lon": -77.02783433333333, "lat": 38.912428, "type": "electric_scooter", "is_disabled": 0, "rental_uris": {"android": "https://dc.lft.to/lastmile_qr_scan", "ios": "https://dc.lft.to/lastmile_qr_scan"}, "fusion_lon": 0.0, "bike_id": "60a35332379dd55930f217be53a99c0f", "fusion_lat": 0.0, "is_reserved": 0}, {"name": "c491cb1ce0c24bbe344b5d7895200d63", "lon": -77.02199783333333, "lat": 38.91128616666666, "type": "electric_scooter", "is_disabled": 0, "rental_uris": {"android": "https://dc.lft.to/lastmile_qr_scan", "ios": "https://dc.lft.to/lastmile_qr_scan"}, "fusion_lon": 0.0, "bike_id": "c491cb1ce0c24bbe344b5d7895200d63", "fusion_lat": 0.0, "is_reserved": 0}, {"name": "d9babb8db546557431238f4dffc19ae6", "lon": -77.04345433333333, "lat": 38.9071585, "type": "electric_scooter", "is_disabled": 0, "rental_uris": {"android": "https://dc.lft.to/lastmile_qr_scan", "ios": "https://dc.lft.to/lastmile_qr_scan"}, "fusion_lon": 0.0, "bike_id": "d9babb8db546557431238f4dffc19ae6", "fusion_lat": 0.0, "is_reserved": 0}, {"name": "a98c74efac1b90cdc3e6608bbd7fe178", "lon": -77.03266483333333, "lat": 38.93211433333333, "type": "electric_scooter", "is_disabled": 0, "rental_uris": {"android": "https://dc.lft.to/lastmile_qr_scan", "ios": "https://dc.lft.to/lastmile_qr_scan"}, "fusion_lon": 0.0, "bike_id": "a98c74efac1b90cdc3e6608bbd7fe178", "fusion_lat": 0.0, "is_reserved": 0}, {"name": "b00bab75f929c598354b15517db91ab7", "lon": -77.0280375, "lat": 38.90907816666667, "type": "electric_scooter", "is_disabled": 0, "rental_uris": {"android": "https://dc.lft.to/lastmile_qr_scan", "ios": "https://dc.lft.to/lastmile_qr_scan"}, "fusion_lon": 0.0, "bike_id": "b00bab75f929c598354b15517db91ab7", "fusion_lat": 0.0, "is_reserved": 0}, {"name": "cf27cef067deffd69bb17311017bd03a", "lon": -76.9959575, "lat": 38.884273666666665, "type": "electric_scooter", "is_disabled": 0, "rental_uris": {"android": "https://dc.lft.to/lastmile_qr_scan", "ios": "https://dc.lft.to/lastmile_qr_scan"}, "fusion_lon": 0.0, "bike_id": "cf27cef067deffd69bb17311017bd03a", "fusion_lat": 0.0, "is_reserved": 0}, {"name": "e775d024f11156f9b601adf46838560a", "lon": -77.0263995, "lat": 38.9026255, "type": "electric_scooter", "is_disabled": 0, "rental_uris": {"android": "https://dc.lft.to/lastmile_qr_scan", "ios": "https://dc.lft.to/lastmile_qr_scan"}, "fusion_lon": 0.0, "bike_id": "e775d024f11156f9b601adf46838560a", "fusion_lat": 0.0, "is_reserved": 0}, {"name": "ef0ee6c5dd07e13915989f8ef67dee11", "lon": -77.03445033333334, "lat": 38.90946016666667, "type": "electric_scooter", "is_disabled": 0, "rental_uris": {"android": "https://dc.lft.to/lastmile_qr_scan", "ios": "https://dc.lft.to/lastmile_qr_scan"}, "fusion_lon": 0.0, "bike_id": "ef0ee6c5dd07e13915989f8ef67dee11", "fusion_lat": 0.0, "is_reserved": 0}, {"name": "1b1ea549aacc2cdbb09c709a00bb00b8", "lon": -77.034103, "lat": 38.9095445, "type": "electric_scooter", "is_disabled": 0, "rental_uris": {"android": "https://dc.lft.to/lastmile_qr_scan", "ios": "https://dc.lft.to/lastmile_qr_scan"}, "fusion_lon": 0.0, "bike_id": "1b1ea549aacc2cdbb09c709a00bb00b8", "fusion_lat": 0.0, "is_reserved": 0}, {"name": "1e6ddbac1243d5bb6a64975793a32b7e", "lon": -77.06011033333333, "lat": 38.90351666666667, "type": "electric_scooter", "is_disabled": 0, "rental_uris": {"android": "https://dc.lft.to/lastmile_qr_scan", "ios": "https://dc.lft.to/lastmile_qr_scan"}, "fusion_lon": 0.0, "bike_id": "1e6ddbac1243d5bb6a64975793a32b7e", "fusion_lat": 0.0, "is_reserved": 0}, {"name": "f0a807ea0cedd4fa691c79409a44c899", "lon": -76.9826155, "lat": 38.878669, "type": "electric_bike", "is_disabled": 0, "rental_uris": {"android": "https://dc.lft.to/lastmile_qr_scan", "ios": "https://dc.lft.to/lastmile_qr_scan"}, "fusion_lon": 0.0, "bike_id": "f0a807ea0cedd4fa691c79409a44c899", "fusion_lat": 0.0, "is_reserved": 0}, {"name": "41d01c8da2a87a66b04707c7c43d33d7", "lon": -77.00560966666667, "lat": 38.9053645, "type": "electric_scooter", "is_disabled": 0, "rental_uris": {"android": "https://dc.lft.to/lastmile_qr_scan", "ios": "https://dc.lft.to/lastmile_qr_scan"}, "fusion_lon": 0.0, "bike_id": "41d01c8da2a87a66b04707c7c43d33d7", "fusion_lat": 0.0, "is_reserved": 0}, {"name": "6817b66370a4c3de879c1f28766fa56c", "lon": -76.96554416666666, "lat": 38.91864183333333, "type": "electric_scooter", "is_disabled": 0, "rental_uris": {"android": "https://dc.lft.to/lastmile_qr_scan", "ios": "https://dc.lft.to/lastmile_qr_scan"}, "fusion_lon": 0.0, "bike_id": "6817b66370a4c3de879c1f28766fa56c", "fusion_lat": 0.0, "is_reserved": 0}, {"name": "4535856f98bcfa95fd5bb87825d0a568", "lon": -77.02708233333334, "lat": 38.90784516666667, "type": "electric_scooter", "is_disabled": 0, "rental_uris": {"android": "https://dc.lft.to/lastmile_qr_scan", "ios": "https://dc.lft.to/lastmile_qr_scan"}, "fusion_lon": 0.0, "bike_id": "4535856f98bcfa95fd5bb87825d0a568", "fusion_lat": 0.0, "is_reserved": 0}, {"name": "da952eacfac79d5fb715c62e481f09de", "lon": -77.01357883333333, "lat": 38.89787116666667, "type": "electric_scooter", "is_disabled": 0, "rental_uris": {"android": "https://dc.lft.to/lastmile_qr_scan", "ios": "https://dc.lft.to/lastmile_qr_scan"}, "fusion_lon": 0.0, "bike_id": "da952eacfac79d5fb715c62e481f09de", "fusion_lat": 0.0, "is_reserved": 0}, {"name": "5378a30717cc35ad98aeaf60a604ac01", "lon": -76.95245083333333, "lat": 38.89039833333333, "type": "electric_scooter", "is_disabled": 0, "rental_uris": {"android": "https://dc.lft.to/lastmile_qr_scan", "ios": "https://dc.lft.to/lastmile_qr_scan"}, "fusion_lon": 0.0, "bike_id": "5378a30717cc35ad98aeaf60a604ac01", "fusion_lat": 0.0, "is_reserved": 0}, {"name": "d0107b5ab9a2751e6af9b291f67b4e9e", "lon": -77.03176066666667, "lat": 38.90725966666667, "type": "electric_scooter", "is_disabled": 0, "rental_uris": {"android": "https://dc.lft.to/lastmile_qr_scan", "ios": "https://dc.lft.to/lastmile_qr_scan"}, "fusion_lon": 0.0, "bike_id": "d0107b5ab9a2751e6af9b291f67b4e9e", "fusion_lat": 0.0, "is_reserved": 0}, {"name": "9e8a587656dedbb6230396fee12ec338", "lon": -77.02366566666667, "lat": 38.919444666666664, "type": "electric_scooter", "is_disabled": 0, "rental_uris": {"android": "https://dc.lft.to/lastmile_qr_scan", "ios": "https://dc.lft.to/lastmile_qr_scan"}, "fusion_lon": 0.0, "bike_id": "9e8a587656dedbb6230396fee12ec338", "fusion_lat": 0.0, "is_reserved": 0}, {"name": "73872df2111ecf3e972d0235882747ae", "lon": -77.0364855, "lat": 38.914539166666664, "type": "electric_scooter", "is_disabled": 0, "rental_uris": {"android": "https://dc.lft.to/lastmile_qr_scan", "ios": "https://dc.lft.to/lastmile_qr_scan"}, "fusion_lon": 0.0, "bike_id": "73872df2111ecf3e972d0235882747ae", "fusion_lat": 0.0, "is_reserved": 0}, {"name": "403c5c5679f4d814d1fd4810cbf4a283", "lon": -77.0135725, "lat": 38.89215933333333, "type": "electric_scooter", "is_disabled": 0, "rental_uris": {"android": "https://dc.lft.to/lastmile_qr_scan", "ios": "https://dc.lft.to/lastmile_qr_scan"}, "fusion_lon": 0.0, "bike_id": "403c5c5679f4d814d1fd4810cbf4a283", "fusion_lat": 0.0, "is_reserved": 0}, {"name": "e0d659507b6a201f412ca34eee424bf9", "lon": -77.032673, "lat": 38.898826166666666, "type": "electric_scooter", "is_disabled": 0, "rental_uris": {"android": "https://dc.lft.to/lastmile_qr_scan", "ios": "https://dc.lft.to/lastmile_qr_scan"}, "fusion_lon": 0.0, "bike_id": "e0d659507b6a201f412ca34eee424bf9", "fusion_lat": 0.0, "is_reserved": 0}, {"name": "d77a953450227561be0eefca10897d77", "lon": -77.02730216666667, "lat": 38.928691, "type": "electric_scooter", "is_disabled": 0, "rental_uris": {"android": "https://dc.lft.to/lastmile_qr_scan", "ios": "https://dc.lft.to/lastmile_qr_scan"}, "fusion_lon": 0.0, "bike_id": "d77a953450227561be0eefca10897d77", "fusion_lat": 0.0, "is_reserved": 0}, {"name": "860e900cb32432eaa7b90197842baa86", "lon": -77.02523116666667, "lat": 38.937461, "type": "electric_scooter", "is_disabled": 0, "rental_uris": {"android": "https://dc.lft.to/lastmile_qr_scan", "ios": "https://dc.lft.to/lastmile_qr_scan"}, "fusion_lon": 0.0, "bike_id": "860e900cb32432eaa7b90197842baa86", "fusion_lat": 0.0, "is_reserved": 0}, {"name": "e9e61255d71e13ea7c58e9c4efbaa220", "lon": -77.03405333333333, "lat": 38.92439733333333, "type": "electric_scooter", "is_disabled": 0, "rental_uris": {"android": "https://dc.lft.to/lastmile_qr_scan", "ios": "https://dc.lft.to/lastmile_qr_scan"}, "fusion_lon": 0.0, "bike_id": "e9e61255d71e13ea7c58e9c4efbaa220", "fusion_lat": 0.0, "is_reserved": 0}, {"name": "9144418cd9058284f546b1c1abbdefdf", "lon": -76.98881666666666, "lat": 38.8665335, "type": "electric_scooter", "is_disabled": 0, "rental_uris": {"android": "https://dc.lft.to/lastmile_qr_scan", "ios": "https://dc.lft.to/lastmile_qr_scan"}, "fusion_lon": 0.0, "bike_id": "9144418cd9058284f546b1c1abbdefdf", "fusion_lat": 0.0, "is_reserved": 0}, {"name": "e5016bce5ef1ea8cfd5d87fd4cfc8c87", "lon": -77.010297, "lat": 38.920236, "type": "electric_scooter", "is_disabled": 0, "rental_uris": {"android": "https://dc.lft.to/lastmile_qr_scan", "ios": "https://dc.lft.to/lastmile_qr_scan"}, "fusion_lon": 0.0, "bike_id": "e5016bce5ef1ea8cfd5d87fd4cfc8c87", "fusion_lat": 0.0, "is_reserved": 0}, {"name": "2152d1b4ce4d82fc59030136bed0664e", "lon": -77.021361, "lat": 38.924862, "type": "electric_scooter", "is_disabled": 0, "rental_uris": {"android": "https://dc.lft.to/lastmile_qr_scan", "ios": "https://dc.lft.to/lastmile_qr_scan"}, "fusion_lon": 0.0, "bike_id": "2152d1b4ce4d82fc59030136bed0664e", "fusion_lat": 0.0, "is_reserved": 0}, {"name": "4db7b722a6bd0236b6dcb41cb1ed2a2a", "lon": -76.98159916666667, "lat": 38.89939866666667, "type": "electric_scooter", "is_disabled": 0, "rental_uris": {"android": "https://dc.lft.to/lastmile_qr_scan", "ios": "https://dc.lft.to/lastmile_qr_scan"}, "fusion_lon": 0.0, "bike_id": "4db7b722a6bd0236b6dcb41cb1ed2a2a", "fusion_lat": 0.0, "is_reserved": 0}, {"name": "bbff8dd366f1bf46d746b1fb492f82db", "lon": -77.0363275, "lat": 38.922982833333336, "type": "electric_scooter", "is_disabled": 0, "rental_uris": {"android": "https://dc.lft.to/lastmile_qr_scan", "ios": "https://dc.lft.to/lastmile_qr_scan"}, "fusion_lon": 0.0, "bike_id": "bbff8dd366f1bf46d746b1fb492f82db", "fusion_lat": 0.0, "is_reserved": 0}, {"name": "dbd3407006e0dafc1d096fd8266ae915", "lon": -77.02279483333334, "lat": 38.89508433333334, "type": "electric_scooter", "is_disabled": 0, "rental_uris": {"android": "https://dc.lft.to/lastmile_qr_scan", "ios": "https://dc.lft.to/lastmile_qr_scan"}, "fusion_lon": 0.0, "bike_id": "dbd3407006e0dafc1d096fd8266ae915", "fusion_lat": 0.0, "is_reserved": 0}, {"name": "f444ef2338859446691b4f960c4096fe", "lon": -77.02163083333333, "lat": 38.92596, "type": "electric_scooter", "is_disabled": 0, "rental_uris": {"android": "https://dc.lft.to/lastmile_qr_scan", "ios": "https://dc.lft.to/lastmile_qr_scan"}, "fusion_lon": 0.0, "bike_id": "f444ef2338859446691b4f960c4096fe", "fusion_lat": 0.0, "is_reserved": 0}, {"name": "9a3d435b498dd71b5221f25146f7c100", "lon": -77.04868916666666, "lat": 38.916006, "type": "electric_scooter", "is_disabled": 0, "rental_uris": {"android": "https://dc.lft.to/lastmile_qr_scan", "ios": "https://dc.lft.to/lastmile_qr_scan"}, "fusion_lon": 0.0, "bike_id": "9a3d435b498dd71b5221f25146f7c100", "fusion_lat": 0.0, "is_reserved": 0}, {"name": "219b5170d915ed6b2357a041be742762", "lon": -77.02280733333333, "lat": 38.916516, "type": "electric_scooter", "is_disabled": 0, "rental_uris": {"android": "https://dc.lft.to/lastmile_qr_scan", "ios": "https://dc.lft.to/lastmile_qr_scan"}, "fusion_lon": 0.0, "bike_id": "219b5170d915ed6b2357a041be742762", "fusion_lat": 0.0, "is_reserved": 0}, {"name": "3733a6444d645e810fa969d0775b7f3c", "lon": -76.96259683333334, "lat": 38.8824365, "type": "electric_bike", "is_disabled": 0, "rental_uris": {"android": "https://dc.lft.to/lastmile_qr_scan", "ios": "https://dc.lft.to/lastmile_qr_scan"}, "fusion_lon": 0.0, "bike_id": "3733a6444d645e810fa969d0775b7f3c", "fusion_lat": 0.0, "is_reserved": 0}, {"name": "9b25f8c02e7bd2e3969477b20ed5ab3c", "lon": -77.018576, "lat": 38.8988575, "type": "electric_scooter", "is_disabled": 0, "rental_uris": {"android": "https://dc.lft.to/lastmile_qr_scan", "ios": "https://dc.lft.to/lastmile_qr_scan"}, "fusion_lon": 0.0, "bike_id": "9b25f8c02e7bd2e3969477b20ed5ab3c", "fusion_lat": 0.0, "is_reserved": 0}, {"name": "0ddb7b60cf7350492b02447d8c53eb83", "lon": -77.03855016666667, "lat": 38.90771383333333, "type": "electric_scooter", "is_disabled": 0, "rental_uris": {"android": "https://dc.lft.to/lastmile_qr_scan", "ios": "https://dc.lft.to/lastmile_qr_scan"}, "fusion_lon": 0.0, "bike_id": "0ddb7b60cf7350492b02447d8c53eb83", "fusion_lat": 0.0, "is_reserved": 0}, {"name": "8392d34ef5b4983cc0e9edb1118858a7", "lon": -76.97628183333333, "lat": 38.901525666666664, "type": "electric_scooter", "is_disabled": 0, "rental_uris": {"android": "https://dc.lft.to/lastmile_qr_scan", "ios": "https://dc.lft.to/lastmile_qr_scan"}, "fusion_lon": 0.0, "bike_id": "8392d34ef5b4983cc0e9edb1118858a7", "fusion_lat": 0.0, "is_reserved": 0}, {"name": "7f9354d25cf1461d903172b7a00fbdee", "lon": -77.022744, "lat": 38.91647016666667, "type": "electric_scooter", "is_disabled": 0, "rental_uris": {"android": "https://dc.lft.to/lastmile_qr_scan", "ios": "https://dc.lft.to/lastmile_qr_scan"}, "fusion_lon": 0.0, "bike_id": "7f9354d25cf1461d903172b7a00fbdee", "fusion_lat": 0.0, "is_reserved": 0}, {"name": "75c295b9e9cade3221b7c1d7ba1af88f", "lon": -77.0153955, "lat": 38.88478683333334, "type": "electric_scooter", "is_disabled": 0, "rental_uris": {"android": "https://dc.lft.to/lastmile_qr_scan", "ios": "https://dc.lft.to/lastmile_qr_scan"}, "fusion_lon": 0.0, "bike_id": "75c295b9e9cade3221b7c1d7ba1af88f", "fusion_lat": 0.0, "is_reserved": 0}, {"name": "04e034953e4db0eb8e9c9844db3de23a", "lon": -77.00287666666667, "lat": 38.87725833333333, "type": "electric_scooter", "is_disabled": 0, "rental_uris": {"android": "https://dc.lft.to/lastmile_qr_scan", "ios": "https://dc.lft.to/lastmile_qr_scan"}, "fusion_lon": 0.0, "bike_id": "04e034953e4db0eb8e9c9844db3de23a", "fusion_lat": 0.0, "is_reserved": 0}, {"name": "2f4fef8d410f3552b696314dc57e7357", "lon": -77.01219333333333, "lat": 38.913404166666666, "type": "electric_scooter", "is_disabled": 0, "rental_uris": {"android": "https://dc.lft.to/lastmile_qr_scan", "ios": "https://dc.lft.to/lastmile_qr_scan"}, "fusion_lon": 0.0, "bike_id": "2f4fef8d410f3552b696314dc57e7357", "fusion_lat": 0.0, "is_reserved": 0}, {"name": "bfcb3626f1ea1bbeb78c060437eaf364", "lon": -76.98975633333333, "lat": 38.8822725, "type": "electric_scooter", "is_disabled": 0, "rental_uris": {"android": "https://dc.lft.to/lastmile_qr_scan", "ios": "https://dc.lft.to/lastmile_qr_scan"}, "fusion_lon": 0.0, "bike_id": "bfcb3626f1ea1bbeb78c060437eaf364", "fusion_lat": 0.0, "is_reserved": 0}, {"name": "30b2de0b6ef5691daa3b797f05577391", "lon": -77.02380966666666, "lat": 38.89609433333333, "type": "electric_scooter", "is_disabled": 0, "rental_uris": {"android": "https://dc.lft.to/lastmile_qr_scan", "ios": "https://dc.lft.to/lastmile_qr_scan"}, "fusion_lon": 0.0, "bike_id": "30b2de0b6ef5691daa3b797f05577391", "fusion_lat": 0.0, "is_reserved": 0}, {"name": "fe27ab939dcb50d4779df83025ac5ac3", "lon": -77.0469105, "lat": 38.902954666666666, "type": "electric_scooter", "is_disabled": 0, "rental_uris": {"android": "https://dc.lft.to/lastmile_qr_scan", "ios": "https://dc.lft.to/lastmile_qr_scan"}, "fusion_lon": 0.0, "bike_id": "fe27ab939dcb50d4779df83025ac5ac3", "fusion_lat": 0.0, "is_reserved": 0}, {"name": "9321329b31cca3b629af24e824166b3f", "lon": -77.037331, "lat": 38.9111365, "type": "electric_scooter", "is_disabled": 0, "rental_uris": {"android": "https://dc.lft.to/lastmile_qr_scan", "ios": "https://dc.lft.to/lastmile_qr_scan"}, "fusion_lon": 0.0, "bike_id": "9321329b31cca3b629af24e824166b3f", "fusion_lat": 0.0, "is_reserved": 0}, {"name": "1a8def6e752bb479b13c79f932e84220", "lon": -77.051066, "lat": 38.81333683333333, "type": "electric_bike", "is_disabled": 0, "rental_uris": {"android": "https://dc.lft.to/lastmile_qr_scan", "ios": "https://dc.lft.to/lastmile_qr_scan"}, "fusion_lon": 0.0, "bike_id": "1a8def6e752bb479b13c79f932e84220", "fusion_lat": 0.0, "is_reserved": 0}, {"name": "37fae4ac8ec6c5438171ccb4b3d19e86", "lon": -77.009335, "lat": 38.8762185, "type": "electric_scooter", "is_disabled": 0, "rental_uris": {"android": "https://dc.lft.to/lastmile_qr_scan", "ios": "https://dc.lft.to/lastmile_qr_scan"}, "fusion_lon": 0.0, "bike_id": "37fae4ac8ec6c5438171ccb4b3d19e86", "fusion_lat": 0.0, "is_reserved": 0}, {"name": "65074723c5a88eaed83bb05b7cec2ac2", "lon": -77.02696366666666, "lat": 38.9092865, "type": "electric_scooter", "is_disabled": 0, "rental_uris": {"android": "https://dc.lft.to/lastmile_qr_scan", "ios": "https://dc.lft.to/lastmile_qr_scan"}, "fusion_lon": 0.0, "bike_id": "65074723c5a88eaed83bb05b7cec2ac2", "fusion_lat": 0.0, "is_reserved": 0}, {"name": "dc39213de4125716bea7f04ec88f9ec9", "lon": -77.0280385, "lat": 38.91731566666667, "type": "electric_scooter", "is_disabled": 0, "rental_uris": {"android": "https://dc.lft.to/lastmile_qr_scan", "ios": "https://dc.lft.to/lastmile_qr_scan"}, "fusion_lon": 0.0, "bike_id": "dc39213de4125716bea7f04ec88f9ec9", "fusion_lat": 0.0, "is_reserved": 0}, {"name": "c399fb233862c5af25b8277522235e8d", "lon": -77.022389, "lat": 38.91116266666667, "type": "electric_scooter", "is_disabled": 0, "rental_uris": {"android": "https://dc.lft.to/lastmile_qr_scan", "ios": "https://dc.lft.to/lastmile_qr_scan"}, "fusion_lon": 0.0, "bike_id": "c399fb233862c5af25b8277522235e8d", "fusion_lat": 0.0, "is_reserved": 0}, {"name": "f6756555b12e617865f641fa3d727fd1", "lon": -76.98879383333333, "lat": 38.86655583333334, "type": "electric_scooter", "is_disabled": 0, "rental_uris": {"android": "https://dc.lft.to/lastmile_qr_scan", "ios": "https://dc.lft.to/lastmile_qr_scan"}, "fusion_lon": 0.0, "bike_id": "f6756555b12e617865f641fa3d727fd1", "fusion_lat": 0.0, "is_reserved": 0}, {"name": "ed774a9ec5b65916e93cda2d94005a79", "lon": -76.99503816666666, "lat": 38.86243616666667, "type": "electric_scooter", "is_disabled": 0, "rental_uris": {"android": "https://dc.lft.to/lastmile_qr_scan", "ios": "https://dc.lft.to/lastmile_qr_scan"}, "fusion_lon": 0.0, "bike_id": "ed774a9ec5b65916e93cda2d94005a79", "fusion_lat": 0.0, "is_reserved": 0}, {"name": "3379da1559b789bd7bc99da4d160a5b2", "lon": -77.02109616666667, "lat": 38.914097166666664, "type": "electric_scooter", "is_disabled": 0, "rental_uris": {"android": "https://dc.lft.to/lastmile_qr_scan", "ios": "https://dc.lft.to/lastmile_qr_scan"}, "fusion_lon": 0.0, "bike_id": "3379da1559b789bd7bc99da4d160a5b2", "fusion_lat": 0.0, "is_reserved": 0}, {"name": "284b15c11344fb8f69efaa20c09bbbf4", "lon": -77.0384395, "lat": 38.906261, "type": "electric_scooter", "is_disabled": 0, "rental_uris": {"android": "https://dc.lft.to/lastmile_qr_scan", "ios": "https://dc.lft.to/lastmile_qr_scan"}, "fusion_lon": 0.0, "bike_id": "284b15c11344fb8f69efaa20c09bbbf4", "fusion_lat": 0.0, "is_reserved": 0}, {"name": "db02c1832e177cbebf0bd79dd1ec30e5", "lon": -77.0320995, "lat": 38.9163515, "type": "electric_scooter", "is_disabled": 0, "rental_uris": {"android": "https://dc.lft.to/lastmile_qr_scan", "ios": "https://dc.lft.to/lastmile_qr_scan"}, "fusion_lon": 0.0, "bike_id": "db02c1832e177cbebf0bd79dd1ec30e5", "fusion_lat": 0.0, "is_reserved": 0}, {"name": "b23c34223a2157a51f05b885ee1a84c8", "lon": -77.027079, "lat": 38.92546333333333, "type": "electric_scooter", "is_disabled": 0, "rental_uris": {"android": "https://dc.lft.to/lastmile_qr_scan", "ios": "https://dc.lft.to/lastmile_qr_scan"}, "fusion_lon": 0.0, "bike_id": "b23c34223a2157a51f05b885ee1a84c8", "fusion_lat": 0.0, "is_reserved": 0}, {"name": "757cb0b25f8e7d78ebd188968189a0f6", "lon": -77.00699066666667, "lat": 38.952445, "type": "electric_scooter", "is_disabled": 0, "rental_uris": {"android": "https://dc.lft.to/lastmile_qr_scan", "ios": "https://dc.lft.to/lastmile_qr_scan"}, "fusion_lon": 0.0, "bike_id": "757cb0b25f8e7d78ebd188968189a0f6", "fusion_lat": 0.0, "is_reserved": 0}, {"name": "7565f17a7f1b15b9ba15481724c271b6", "lon": -77.01187116666667, "lat": 38.90012133333333, "type": "electric_scooter", "is_disabled": 0, "rental_uris": {"android": "https://dc.lft.to/lastmile_qr_scan", "ios": "https://dc.lft.to/lastmile_qr_scan"}, "fusion_lon": 0.0, "bike_id": "7565f17a7f1b15b9ba15481724c271b6", "fusion_lat": 0.0, "is_reserved": 0}, {"name": "a87574c2a3529f45b9dedf7637d38a6f", "lon": -77.02402333333333, "lat": 38.87976783333333, "type": "electric_scooter", "is_disabled": 0, "rental_uris": {"android": "https://dc.lft.to/lastmile_qr_scan", "ios": "https://dc.lft.to/lastmile_qr_scan"}, "fusion_lon": 0.0, "bike_id": "a87574c2a3529f45b9dedf7637d38a6f", "fusion_lat": 0.0, "is_reserved": 0}, {"name": "f7fc52a19fcafab96375b11da43fd260", "lon": -76.99783433333333, "lat": 38.84182716666667, "type": "electric_scooter", "is_disabled": 0, "rental_uris": {"android": "https://dc.lft.to/lastmile_qr_scan", "ios": "https://dc.lft.to/lastmile_qr_scan"}, "fusion_lon": 0.0, "bike_id": "f7fc52a19fcafab96375b11da43fd260", "fusion_lat": 0.0, "is_reserved": 0}, {"name": "802f031bc8d204af4884b6e09c6a1232", "lon": -77.063055, "lat": 38.79850583333333, "type": "electric_bike", "is_disabled": 0, "rental_uris": {"android": "https://dc.lft.to/lastmile_qr_scan", "ios": "https://dc.lft.to/lastmile_qr_scan"}, "fusion_lon": 0.0, "bike_id": "802f031bc8d204af4884b6e09c6a1232", "fusion_lat": 0.0, "is_reserved": 0}, {"name": "694930faf4f7155492138e72a7bf1e75", "lon": -77.026013, "lat": 38.944324333333334, "type": "electric_bike", "is_disabled": 0, "rental_uris": {"android": "https://dc.lft.to/lastmile_qr_scan", "ios": "https://dc.lft.to/lastmile_qr_scan"}, "fusion_lon": 0.0, "bike_id": "694930faf4f7155492138e72a7bf1e75", "fusion_lat": 0.0, "is_reserved": 0}, {"name": "ede57d013a975d8d2061f08b3eca145a", "lon": -76.98754616666666, "lat": 38.8576645, "type": "electric_bike", "is_disabled": 0, "rental_uris": {"android": "https://dc.lft.to/lastmile_qr_scan", "ios": "https://dc.lft.to/lastmile_qr_scan"}, "fusion_lon": 0.0, "bike_id": "ede57d013a975d8d2061f08b3eca145a", "fusion_lat": 0.0, "is_reserved": 0}, {"name": "bd9929765fe5bebeb347c51e61e17eaf", "lon": -77.00198166666667, "lat": 38.902331833333335, "type": "electric_scooter", "is_disabled": 0, "rental_uris": {"android": "https://dc.lft.to/lastmile_qr_scan", "ios": "https://dc.lft.to/lastmile_qr_scan"}, "fusion_lon": 0.0, "bike_id": "bd9929765fe5bebeb347c51e61e17eaf", "fusion_lat": 0.0, "is_reserved": 0}, {"name": "cd476f7d0be193349ba6f20c8f077555", "lon": -77.02956533333334, "lat": 38.91691083333333, "type": "electric_scooter", "is_disabled": 0, "rental_uris": {"android": "https://dc.lft.to/lastmile_qr_scan", "ios": "https://dc.lft.to/lastmile_qr_scan"}, "fusion_lon": 0.0, "bike_id": "cd476f7d0be193349ba6f20c8f077555", "fusion_lat": 0.0, "is_reserved": 0}, {"name": "bb0ed4caa433301dc663d33d7f86fdfe", "lon": -77.03481166666667, "lat": 38.905552, "type": "electric_scooter", "is_disabled": 0, "rental_uris": {"android": "https://dc.lft.to/lastmile_qr_scan", "ios": "https://dc.lft.to/lastmile_qr_scan"}, "fusion_lon": 0.0, "bike_id": "bb0ed4caa433301dc663d33d7f86fdfe", "fusion_lat": 0.0, "is_reserved": 0}, {"name": "e4170b0d5f00ab557e96443cfda1f247", "lon": -77.02598516666667, "lat": 38.94407533333333, "type": "electric_scooter", "is_disabled": 0, "rental_uris": {"android": "https://dc.lft.to/lastmile_qr_scan", "ios": "https://dc.lft.to/lastmile_qr_scan"}, "fusion_lon": 0.0, "bike_id": "e4170b0d5f00ab557e96443cfda1f247", "fusion_lat": 0.0, "is_reserved": 0}, {"name": "0f28db8761422011cb40dd37b1a1d3f2", "lon": -77.02350483333333, "lat": 38.91946883333333, "type": "electric_scooter", "is_disabled": 0, "rental_uris": {"android": "https://dc.lft.to/lastmile_qr_scan", "ios": "https://dc.lft.to/lastmile_qr_scan"}, "fusion_lon": 0.0, "bike_id": "0f28db8761422011cb40dd37b1a1d3f2", "fusion_lat": 0.0, "is_reserved": 0}, {"name": "30be48db4b09f5bf09b8c628cd926273", "lon": -77.02830816666666, "lat": 38.887287, "type": "electric_scooter", "is_disabled": 0, "rental_uris": {"android": "https://dc.lft.to/lastmile_qr_scan", "ios": "https://dc.lft.to/lastmile_qr_scan"}, "fusion_lon": 0.0, "bike_id": "30be48db4b09f5bf09b8c628cd926273", "fusion_lat": 0.0, "is_reserved": 0}, {"name": "a66b6eeffbd65efc0c3d35405723d3d5", "lon": -77.02285416666666, "lat": 38.89508083333333, "type": "electric_scooter", "is_disabled": 0, "rental_uris": {"android": "https://dc.lft.to/lastmile_qr_scan", "ios": "https://dc.lft.to/lastmile_qr_scan"}, "fusion_lon": 0.0, "bike_id": "a66b6eeffbd65efc0c3d35405723d3d5", "fusion_lat": 0.0, "is_reserved": 0}, {"name": "bc89ef5cdf9b96e95d969bc8484febe0", "lon": -77.02200266666667, "lat": 38.91127633333333, "type": "electric_scooter", "is_disabled": 0, "rental_uris": {"android": "https://dc.lft.to/lastmile_qr_scan", "ios": "https://dc.lft.to/lastmile_qr_scan"}, "fusion_lon": 0.0, "bike_id": "bc89ef5cdf9b96e95d969bc8484febe0", "fusion_lat": 0.0, "is_reserved": 0}, {"name": "cb8aefc7ada27c0a5f8dfd8aadf91bcf", "lon": -77.00442116666666, "lat": 38.911696, "type": "electric_scooter", "is_disabled": 0, "rental_uris": {"android": "https://dc.lft.to/lastmile_qr_scan", "ios": "https://dc.lft.to/lastmile_qr_scan"}, "fusion_lon": 0.0, "bike_id": "cb8aefc7ada27c0a5f8dfd8aadf91bcf", "fusion_lat": 0.0, "is_reserved": 0}, {"name": "3da222c883d7fc618590498e2fcc6128", "lon": -77.02579033333333, "lat": 38.88730966666667, "type": "electric_scooter", "is_disabled": 0, "rental_uris": {"android": "https://dc.lft.to/lastmile_qr_scan", "ios": "https://dc.lft.to/lastmile_qr_scan"}, "fusion_lon": 0.0, "bike_id": "3da222c883d7fc618590498e2fcc6128", "fusion_lat": 0.0, "is_reserved": 0}, {"name": "911146569a1764821f6d7ff369c8c27e", "lon": -77.01766283333333, "lat": 38.88307783333333, "type": "electric_scooter", "is_disabled": 0, "rental_uris": {"android": "https://dc.lft.to/lastmile_qr_scan", "ios": "https://dc.lft.to/lastmile_qr_scan"}, "fusion_lon": 0.0, "bike_id": "911146569a1764821f6d7ff369c8c27e", "fusion_lat": 0.0, "is_reserved": 0}, {"name": "a78ba5153f5ff9ad61a5abef0686c400", "lon": -77.032776, "lat": 38.94087666666667, "type": "electric_scooter", "is_disabled": 0, "rental_uris": {"android": "https://dc.lft.to/lastmile_qr_scan", "ios": "https://dc.lft.to/lastmile_qr_scan"}, "fusion_lon": 0.0, "bike_id": "a78ba5153f5ff9ad61a5abef0686c400", "fusion_lat": 0.0, "is_reserved": 0}, {"name": "8c1ce35a32958977a531a2749fc8b701", "lon": -76.97974516666666, "lat": 38.89737066666667, "type": "electric_scooter", "is_disabled": 0, "rental_uris": {"android": "https://dc.lft.to/lastmile_qr_scan", "ios": "https://dc.lft.to/lastmile_qr_scan"}, "fusion_lon": 0.0, "bike_id": "8c1ce35a32958977a531a2749fc8b701", "fusion_lat": 0.0, "is_reserved": 0}, {"name": "6dc7517d11d6c9ac0cae54fed7ba59aa", "lon": -77.0513115, "lat": 38.89732466666667, "type": "electric_scooter", "is_disabled": 0, "rental_uris": {"android": "https://dc.lft.to/lastmile_qr_scan", "ios": "https://dc.lft.to/lastmile_qr_scan"}, "fusion_lon": 0.0, "bike_id": "6dc7517d11d6c9ac0cae54fed7ba59aa", "fusion_lat": 0.0, "is_reserved": 0}, {"name": "810e0b96351093201000a36419b21518", "lon": -76.98571433333333, "lat": 38.8668155, "type": "electric_scooter", "is_disabled": 0, "rental_uris": {"android": "https://dc.lft.to/lastmile_qr_scan", "ios": "https://dc.lft.to/lastmile_qr_scan"}, "fusion_lon": 0.0, "bike_id": "810e0b96351093201000a36419b21518", "fusion_lat": 0.0, "is_reserved": 0}, {"name": "dd9728e7680a55729ee4ecd38daa3126", "lon": -77.02073233333333, "lat": 38.901831666666666, "type": "electric_scooter", "is_disabled": 0, "rental_uris": {"android": "https://dc.lft.to/lastmile_qr_scan", "ios": "https://dc.lft.to/lastmile_qr_scan"}, "fusion_lon": 0.0, "bike_id": "dd9728e7680a55729ee4ecd38daa3126", "fusion_lat": 0.0, "is_reserved": 0}, {"name": "c8e8d0228ac769f0e16d9314b6f289c7", "lon": -77.05136766666666, "lat": 38.9235655, "type": "electric_scooter", "is_disabled": 0, "rental_uris": {"android": "https://dc.lft.to/lastmile_qr_scan", "ios": "https://dc.lft.to/lastmile_qr_scan"}, "fusion_lon": 0.0, "bike_id": "c8e8d0228ac769f0e16d9314b6f289c7", "fusion_lat": 0.0, "is_reserved": 0}, {"name": "b291a3316067759a7f3a29dd5c5bbb4b", "lon": -77.04238883333333, "lat": 38.91064633333333, "type": "electric_scooter", "is_disabled": 0, "rental_uris": {"android": "https://dc.lft.to/lastmile_qr_scan", "ios": "https://dc.lft.to/lastmile_qr_scan"}, "fusion_lon": 0.0, "bike_id": "b291a3316067759a7f3a29dd5c5bbb4b", "fusion_lat": 0.0, "is_reserved": 0}, {"name": "a8ff97da7554626931eeef58e38eceba", "lon": -77.00924366666666, "lat": 38.89641266666667, "type": "electric_scooter", "is_disabled": 0, "rental_uris": {"android": "https://dc.lft.to/lastmile_qr_scan", "ios": "https://dc.lft.to/lastmile_qr_scan"}, "fusion_lon": 0.0, "bike_id": "a8ff97da7554626931eeef58e38eceba", "fusion_lat": 0.0, "is_reserved": 0}, {"name": "0cc8572988992e25390788db299fdd2c", "lon": -77.04514, "lat": 38.89216366666667, "type": "electric_scooter", "is_disabled": 0, "rental_uris": {"android": "https://dc.lft.to/lastmile_qr_scan", "ios": "https://dc.lft.to/lastmile_qr_scan"}, "fusion_lon": 0.0, "bike_id": "0cc8572988992e25390788db299fdd2c", "fusion_lat": 0.0, "is_reserved": 0}, {"name": "8c512ba9c4192ae65fa81807b1f45e92", "lon": -77.0368665, "lat": 38.91674533333333, "type": "electric_scooter", "is_disabled": 0, "rental_uris": {"android": "https://dc.lft.to/lastmile_qr_scan", "ios": "https://dc.lft.to/lastmile_qr_scan"}, "fusion_lon": 0.0, "bike_id": "8c512ba9c4192ae65fa81807b1f45e92", "fusion_lat": 0.0, "is_reserved": 0}, {"name": "27036a7ed90fe669139ad3778e178500", "lon": -77.007281, "lat": 38.88486666666667, "type": "electric_scooter", "is_disabled": 0, "rental_uris": {"android": "https://dc.lft.to/lastmile_qr_scan", "ios": "https://dc.lft.to/lastmile_qr_scan"}, "fusion_lon": 0.0, "bike_id": "27036a7ed90fe669139ad3778e178500", "fusion_lat": 0.0, "is_reserved": 0}, {"name": "d553694617f94a44292b9d212d0f17a1", "lon": -77.021744, "lat": 38.901665, "type": "electric_scooter", "is_disabled": 0, "rental_uris": {"android": "https://dc.lft.to/lastmile_qr_scan", "ios": "https://dc.lft.to/lastmile_qr_scan"}, "fusion_lon": 0.0, "bike_id": "d553694617f94a44292b9d212d0f17a1", "fusion_lat": 0.0, "is_reserved": 0}, {"name": "fe09e0bb2266b65b53fb64a83afb3f66", "lon": -77.070113, "lat": 38.95584133333333, "type": "electric_scooter", "is_disabled": 0, "rental_uris": {"android": "https://dc.lft.to/lastmile_qr_scan", "ios": "https://dc.lft.to/lastmile_qr_scan"}, "fusion_lon": 0.0, "bike_id": "fe09e0bb2266b65b53fb64a83afb3f66", "fusion_lat": 0.0, "is_reserved": 0}, {"name": "84bc1aebcbf7055db19108ba1f717a8b", "lon": -77.00903783333334, "lat": 38.89859383333334, "type": "electric_scooter", "is_disabled": 0, "rental_uris": {"android": "https://dc.lft.to/lastmile_qr_scan", "ios": "https://dc.lft.to/lastmile_qr_scan"}, "fusion_lon": 0.0, "bike_id": "84bc1aebcbf7055db19108ba1f717a8b", "fusion_lat": 0.0, "is_reserved": 0}, {"name": "690d4428a1695d37053347c0af70f3f2", "lon": -77.035585, "lat": 38.901495833333335, "type": "electric_scooter", "is_disabled": 0, "rental_uris": {"android": "https://dc.lft.to/lastmile_qr_scan", "ios": "https://dc.lft.to/lastmile_qr_scan"}, "fusion_lon": 0.0, "bike_id": "690d4428a1695d37053347c0af70f3f2", "fusion_lat": 0.0, "is_reserved": 0}, {"name": "70abb01ead1380e0f3628cc665228c17", "lon": -77.01541233333333, "lat": 38.88633133333333, "type": "electric_scooter", "is_disabled": 0, "rental_uris": {"android": "https://dc.lft.to/lastmile_qr_scan", "ios": "https://dc.lft.to/lastmile_qr_scan"}, "fusion_lon": 0.0, "bike_id": "70abb01ead1380e0f3628cc665228c17", "fusion_lat": 0.0, "is_reserved": 0}, {"name": "b19417a3ccd5a318b143aff47e64777f", "lon": -77.0006785, "lat": 38.876810166666665, "type": "electric_scooter", "is_disabled": 0, "rental_uris": {"android": "https://dc.lft.to/lastmile_qr_scan", "ios": "https://dc.lft.to/lastmile_qr_scan"}, "fusion_lon": 0.0, "bike_id": "b19417a3ccd5a318b143aff47e64777f", "fusion_lat": 0.0, "is_reserved": 0}, {"name": "2afd7c08099ed2137c106303e6c1817b", "lon": -77.028751, "lat": 38.95720033333333, "type": "electric_scooter", "is_disabled": 0, "rental_uris": {"android": "https://dc.lft.to/lastmile_qr_scan", "ios": "https://dc.lft.to/lastmile_qr_scan"}, "fusion_lon": 0.0, "bike_id": "2afd7c08099ed2137c106303e6c1817b", "fusion_lat": 0.0, "is_reserved": 0}, {"name": "5ce2b26a31abc97ad23b5c0055a47df5", "lon": -77.03779666666667, "lat": 38.902342833333336, "type": "electric_scooter", "is_disabled": 0, "rental_uris": {"android": "https://dc.lft.to/lastmile_qr_scan", "ios": "https://dc.lft.to/lastmile_qr_scan"}, "fusion_lon": 0.0, "bike_id": "5ce2b26a31abc97ad23b5c0055a47df5", "fusion_lat": 0.0, "is_reserved": 0}, {"name": "d8d4528ff82903b75955b8b6f22b9411", "lon": -77.02529016666666, "lat": 38.90649116666667, "type": "electric_scooter", "is_disabled": 0, "rental_uris": {"android": "https://dc.lft.to/lastmile_qr_scan", "ios": "https://dc.lft.to/lastmile_qr_scan"}, "fusion_lon": 0.0, "bike_id": "d8d4528ff82903b75955b8b6f22b9411", "fusion_lat": 0.0, "is_reserved": 0}, {"name": "9bb7f86124a67db56ce4019439cf540f", "lon": -77.04712066666667, "lat": 38.897057, "type": "electric_scooter", "is_disabled": 0, "rental_uris": {"android": "https://dc.lft.to/lastmile_qr_scan", "ios": "https://dc.lft.to/lastmile_qr_scan"}, "fusion_lon": 0.0, "bike_id": "9bb7f86124a67db56ce4019439cf540f", "fusion_lat": 0.0, "is_reserved": 0}, {"name": "d349a0b34fff8adc46452d90413eaa6a", "lon": -77.02200083333334, "lat": 38.92471116666667, "type": "electric_scooter", "is_disabled": 0, "rental_uris": {"android": "https://dc.lft.to/lastmile_qr_scan", "ios": "https://dc.lft.to/lastmile_qr_scan"}, "fusion_lon": 0.0, "bike_id": "d349a0b34fff8adc46452d90413eaa6a", "fusion_lat": 0.0, "is_reserved": 0}, {"name": "f387dde769f708f2ae26168596e66b0b", "lon": -77.0552305, "lat": 38.92796766666667, "type": "electric_scooter", "is_disabled": 0, "rental_uris": {"android": "https://dc.lft.to/lastmile_qr_scan", "ios": "https://dc.lft.to/lastmile_qr_scan"}, "fusion_lon": 0.0, "bike_id": "f387dde769f708f2ae26168596e66b0b", "fusion_lat": 0.0, "is_reserved": 0}, {"name": "6f67a09dbefca78d919a260fc90781b3", "lon": -77.03882466666667, "lat": 38.918384833333334, "type": "electric_scooter", "is_disabled": 0, "rental_uris": {"android": "https://dc.lft.to/lastmile_qr_scan", "ios": "https://dc.lft.to/lastmile_qr_scan"}, "fusion_lon": 0.0, "bike_id": "6f67a09dbefca78d919a260fc90781b3", "fusion_lat": 0.0, "is_reserved": 0}, {"name": "0b89e335f308b95a36d9f18c3d3bd818", "lon": -77.04223133333333, "lat": 38.92184133333333, "type": "electric_scooter", "is_disabled": 0, "rental_uris": {"android": "https://dc.lft.to/lastmile_qr_scan", "ios": "https://dc.lft.to/lastmile_qr_scan"}, "fusion_lon": 0.0, "bike_id": "0b89e335f308b95a36d9f18c3d3bd818", "fusion_lat": 0.0, "is_reserved": 0}, {"name": "314bea9f1e335c2820bb59a9dda09453", "lon": -76.984938, "lat": 38.90682, "type": "electric_scooter", "is_disabled": 0, "rental_uris": {"android": "https://dc.lft.to/lastmile_qr_scan", "ios": "https://dc.lft.to/lastmile_qr_scan"}, "fusion_lon": 0.0, "bike_id": "314bea9f1e335c2820bb59a9dda09453", "fusion_lat": 0.0, "is_reserved": 0}, {"name": "cb0e2d2f607a48ad714e0d6b8615ae71", "lon": -77.02714416666667, "lat": 38.927750833333334, "type": "electric_scooter", "is_disabled": 0, "rental_uris": {"android": "https://dc.lft.to/lastmile_qr_scan", "ios": "https://dc.lft.to/lastmile_qr_scan"}, "fusion_lon": 0.0, "bike_id": "cb0e2d2f607a48ad714e0d6b8615ae71", "fusion_lat": 0.0, "is_reserved": 0}, {"name": "8fa84d6eab1ac385aa1ab579a9fbd89d", "lon": -77.04307633333333, "lat": 39.034270166666666, "type": "electric_bike", "is_disabled": 0, "rental_uris": {"android": "https://dc.lft.to/lastmile_qr_scan", "ios": "https://dc.lft.to/lastmile_qr_scan"}, "fusion_lon": 0.0, "bike_id": "8fa84d6eab1ac385aa1ab579a9fbd89d", "fusion_lat": 0.0, "is_reserved": 0}, {"name": "959db1a467d7ef0b75c503ec69047dbc", "lon": -76.9566525, "lat": 38.8846635, "type": "electric_bike", "is_disabled": 0, "rental_uris": {"android": "https://dc.lft.to/lastmile_qr_scan", "ios": "https://dc.lft.to/lastmile_qr_scan"}, "fusion_lon": 0.0, "bike_id": "959db1a467d7ef0b75c503ec69047dbc", "fusion_lat": 0.0, "is_reserved": 0}, {"name": "1005f5fc75e5f16a9d4a551ddadb11ac", "lon": -77.02152466666666, "lat": 38.87914, "type": "electric_scooter", "is_disabled": 0, "rental_uris": {"android": "https://dc.lft.to/lastmile_qr_scan", "ios": "https://dc.lft.to/lastmile_qr_scan"}, "fusion_lon": 0.0, "bike_id": "1005f5fc75e5f16a9d4a551ddadb11ac", "fusion_lat": 0.0, "is_reserved": 0}, {"name": "1084a31567de91b428aac4030081d542", "lon": -77.07225166666667, "lat": 38.93183, "type": "electric_scooter", "is_disabled": 0, "rental_uris": {"android": "https://dc.lft.to/lastmile_qr_scan", "ios": "https://dc.lft.to/lastmile_qr_scan"}, "fusion_lon": 0.0, "bike_id": "1084a31567de91b428aac4030081d542", "fusion_lat": 0.0, "is_reserved": 0}, {"name": "638765b5982fdb26effca5810f1f07aa", "lon": -77.02793966666667, "lat": 38.92967866666667, "type": "electric_scooter", "is_disabled": 0, "rental_uris": {"android": "https://dc.lft.to/lastmile_qr_scan", "ios": "https://dc.lft.to/lastmile_qr_scan"}, "fusion_lon": 0.0, "bike_id": "638765b5982fdb26effca5810f1f07aa", "fusion_lat": 0.0, "is_reserved": 0}, {"name": "b6904918516631865e072624add445ad", "lon": -77.02934733333333, "lat": 38.94279866666667, "type": "electric_scooter", "is_disabled": 0, "rental_uris": {"android": "https://dc.lft.to/lastmile_qr_scan", "ios": "https://dc.lft.to/lastmile_qr_scan"}, "fusion_lon": 0.0, "bike_id": "b6904918516631865e072624add445ad", "fusion_lat": 0.0, "is_reserved": 0}, {"name": "60af41bff38413c43e860bd6f90ff021", "lon": -77.06395783333333, "lat": 38.944068, "type": "electric_scooter", "is_disabled": 0, "rental_uris": {"android": "https://dc.lft.to/lastmile_qr_scan", "ios": "https://dc.lft.to/lastmile_qr_scan"}, "fusion_lon": 0.0, "bike_id": "60af41bff38413c43e860bd6f90ff021", "fusion_lat": 0.0, "is_reserved": 0}, {"name": "d259415a296539dc73d4bc5704dc910e", "lon": -77.01796766666666, "lat": 38.887435833333335, "type": "electric_scooter", "is_disabled": 0, "rental_uris": {"android": "https://dc.lft.to/lastmile_qr_scan", "ios": "https://dc.lft.to/lastmile_qr_scan"}, "fusion_lon": 0.0, "bike_id": "d259415a296539dc73d4bc5704dc910e", "fusion_lat": 0.0, "is_reserved": 0}, {"name": "f5743955408a64977809da3296c05ff9", "lon": -77.05419133333334, "lat": 38.928369, "type": "electric_scooter", "is_disabled": 0, "rental_uris": {"android": "https://dc.lft.to/lastmile_qr_scan", "ios": "https://dc.lft.to/lastmile_qr_scan"}, "fusion_lon": 0.0, "bike_id": "f5743955408a64977809da3296c05ff9", "fusion_lat": 0.0, "is_reserved": 0}, {"name": "a918bc597ee0f5f3237bd9be3b0f44ac", "lon": -77.03803733333334, "lat": 38.932224, "type": "electric_scooter", "is_disabled": 0, "rental_uris": {"android": "https://dc.lft.to/lastmile_qr_scan", "ios": "https://dc.lft.to/lastmile_qr_scan"}, "fusion_lon": 0.0, "bike_id": "a918bc597ee0f5f3237bd9be3b0f44ac", "fusion_lat": 0.0, "is_reserved": 0}, {"name": "f52390ccbbe33e5f0a662e57ce26df71", "lon": -77.01208866666667, "lat": 38.89327083333333, "type": "electric_scooter", "is_disabled": 0, "rental_uris": {"android": "https://dc.lft.to/lastmile_qr_scan", "ios": "https://dc.lft.to/lastmile_qr_scan"}, "fusion_lon": 0.0, "bike_id": "f52390ccbbe33e5f0a662e57ce26df71", "fusion_lat": 0.0, "is_reserved": 0}, {"name": "7897fa664617796f1f74d0cec7ba028c", "lon": -77.0485375, "lat": 38.913253166666664, "type": "electric_scooter", "is_disabled": 0, "rental_uris": {"android": "https://dc.lft.to/lastmile_qr_scan", "ios": "https://dc.lft.to/lastmile_qr_scan"}, "fusion_lon": 0.0, "bike_id": "7897fa664617796f1f74d0cec7ba028c", "fusion_lat": 0.0, "is_reserved": 0}, {"name": "d4f89ac9fc594e5ea512973f85fa853c", "lon": -77.021205, "lat": 38.922661833333336, "type": "electric_scooter", "is_disabled": 0, "rental_uris": {"android": "https://dc.lft.to/lastmile_qr_scan", "ios": "https://dc.lft.to/lastmile_qr_scan"}, "fusion_lon": 0.0, "bike_id": "d4f89ac9fc594e5ea512973f85fa853c", "fusion_lat": 0.0, "is_reserved": 0}, {"name": "b52487985c24332b4a52959bbea8ee7b", "lon": -77.02271633333334, "lat": 38.92460233333333, "type": "electric_scooter", "is_disabled": 0, "rental_uris": {"android": "https://dc.lft.to/lastmile_qr_scan", "ios": "https://dc.lft.to/lastmile_qr_scan"}, "fusion_lon": 0.0, "bike_id": "b52487985c24332b4a52959bbea8ee7b", "fusion_lat": 0.0, "is_reserved": 0}, {"name": "671d7748741466558b4b5e977f987a64", "lon": -77.0270675, "lat": 38.88133, "type": "electric_scooter", "is_disabled": 0, "rental_uris": {"android": "https://dc.lft.to/lastmile_qr_scan", "ios": "https://dc.lft.to/lastmile_qr_scan"}, "fusion_lon": 0.0, "bike_id": "671d7748741466558b4b5e977f987a64", "fusion_lat": 0.0, "is_reserved": 0}, {"name": "af71320393011fcad13323730daf4629", "lon": -77.0122055, "lat": 38.925966833333334, "type": "electric_scooter", "is_disabled": 0, "rental_uris": {"android": "https://dc.lft.to/lastmile_qr_scan", "ios": "https://dc.lft.to/lastmile_qr_scan"}, "fusion_lon": 0.0, "bike_id": "af71320393011fcad13323730daf4629", "fusion_lat": 0.0, "is_reserved": 0}, {"name": "4b2fc7f3847cbd81972a64ab0cebee78", "lon": -77.04521016666666, "lat": 38.916339, "type": "electric_scooter", "is_disabled": 0, "rental_uris": {"android": "https://dc.lft.to/lastmile_qr_scan", "ios": "https://dc.lft.to/lastmile_qr_scan"}, "fusion_lon": 0.0, "bike_id": "4b2fc7f3847cbd81972a64ab0cebee78", "fusion_lat": 0.0, "is_reserved": 0}, {"name": "c2dd9fb6155b072929f7b0ac576836a0", "lon": -77.03205333333334, "lat": 38.89227416666667, "type": "electric_scooter", "is_disabled": 0, "rental_uris": {"android": "https://dc.lft.to/lastmile_qr_scan", "ios": "https://dc.lft.to/lastmile_qr_scan"}, "fusion_lon": 0.0, "bike_id": "c2dd9fb6155b072929f7b0ac576836a0", "fusion_lat": 0.0, "is_reserved": 0}, {"name": "609e1513dfc459e8476163dfe148d8db", "lon": -77.0070945, "lat": 38.8848425, "type": "electric_scooter", "is_disabled": 0, "rental_uris": {"android": "https://dc.lft.to/lastmile_qr_scan", "ios": "https://dc.lft.to/lastmile_qr_scan"}, "fusion_lon": 0.0, "bike_id": "609e1513dfc459e8476163dfe148d8db", "fusion_lat": 0.0, "is_reserved": 0}, {"name": "9293fc43eb1fd416521cb63c1ae58b58", "lon": -77.04268216666667, "lat": 38.9072985, "type": "electric_scooter", "is_disabled": 0, "rental_uris": {"android": "https://dc.lft.to/lastmile_qr_scan", "ios": "https://dc.lft.to/lastmile_qr_scan"}, "fusion_lon": 0.0, "bike_id": "9293fc43eb1fd416521cb63c1ae58b58", "fusion_lat": 0.0, "is_reserved": 0}, {"name": "05f449294f4b8cab512e0c3504b10f2d", "lon": -77.04344116666667, "lat": 38.90324366666667, "type": "electric_scooter", "is_disabled": 0, "rental_uris": {"android": "https://dc.lft.to/lastmile_qr_scan", "ios": "https://dc.lft.to/lastmile_qr_scan"}, "fusion_lon": 0.0, "bike_id": "05f449294f4b8cab512e0c3504b10f2d", "fusion_lat": 0.0, "is_reserved": 0}, {"name": "51d596bbb7f6b3f94da1296afa2bdd42", "lon": -77.0365215, "lat": 38.91195, "type": "electric_scooter", "is_disabled": 0, "rental_uris": {"android": "https://dc.lft.to/lastmile_qr_scan", "ios": "https://dc.lft.to/lastmile_qr_scan"}, "fusion_lon": 0.0, "bike_id": "51d596bbb7f6b3f94da1296afa2bdd42", "fusion_lat": 0.0, "is_reserved": 0}, {"name": "82d2d0d4c700bbf8e3a991d47d7b9ef1", "lon": -76.98276633333333, "lat": 38.86758833333333, "type": "electric_scooter", "is_disabled": 0, "rental_uris": {"android": "https://dc.lft.to/lastmile_qr_scan", "ios": "https://dc.lft.to/lastmile_qr_scan"}, "fusion_lon": 0.0, "bike_id": "82d2d0d4c700bbf8e3a991d47d7b9ef1", "fusion_lat": 0.0, "is_reserved": 0}, {"name": "54f7f1ff62e8bb56c2ab116e1dc815c4", "lon": -77.013757, "lat": 38.9523025, "type": "electric_scooter", "is_disabled": 0, "rental_uris": {"android": "https://dc.lft.to/lastmile_qr_scan", "ios": "https://dc.lft.to/lastmile_qr_scan"}, "fusion_lon": 0.0, "bike_id": "54f7f1ff62e8bb56c2ab116e1dc815c4", "fusion_lat": 0.0, "is_reserved": 0}, {"name": "ff397af05898db87ac91ccef87f5a64c", "lon": -77.013042, "lat": 38.90730116666667, "type": "electric_scooter", "is_disabled": 0, "rental_uris": {"android": "https://dc.lft.to/lastmile_qr_scan", "ios": "https://dc.lft.to/lastmile_qr_scan"}, "fusion_lon": 0.0, "bike_id": "ff397af05898db87ac91ccef87f5a64c", "fusion_lat": 0.0, "is_reserved": 0}, {"name": "b69e2d78ebd72b7f72f1360e859aad3e", "lon": -77.09957083333333, "lat": 38.857822, "type": "electric_bike", "is_disabled": 0, "rental_uris": {"android": "https://dc.lft.to/lastmile_qr_scan", "ios": "https://dc.lft.to/lastmile_qr_scan"}, "fusion_lon": 0.0, "bike_id": "b69e2d78ebd72b7f72f1360e859aad3e", "fusion_lat": 0.0, "is_reserved": 0}, {"name": "df617ffcc5b8d3422ea39e1d00615656", "lon": -76.97236116666667, "lat": 38.9041985, "type": "electric_bike", "is_disabled": 0, "rental_uris": {"android": "https://dc.lft.to/lastmile_qr_scan", "ios": "https://dc.lft.to/lastmile_qr_scan"}, "fusion_lon": 0.0, "bike_id": "df617ffcc5b8d3422ea39e1d00615656", "fusion_lat": 0.0, "is_reserved": 0}, {"name": "80bb1516ae3eb50039afaf1539a61de8", "lon": -77.032463, "lat": 38.904124333333336, "type": "electric_scooter", "is_disabled": 0, "rental_uris": {"android": "https://dc.lft.to/lastmile_qr_scan", "ios": "https://dc.lft.to/lastmile_qr_scan"}, "fusion_lon": 0.0, "bike_id": "80bb1516ae3eb50039afaf1539a61de8", "fusion_lat": 0.0, "is_reserved": 0}, {"name": "95b72042853f1d2cb8677c301a7bc0bd", "lon": -77.02923116666666, "lat": 38.89806266666667, "type": "electric_scooter", "is_disabled": 0, "rental_uris": {"android": "https://dc.lft.to/lastmile_qr_scan", "ios": "https://dc.lft.to/lastmile_qr_scan"}, "fusion_lon": 0.0, "bike_id": "95b72042853f1d2cb8677c301a7bc0bd", "fusion_lat": 0.0, "is_reserved": 0}, {"name": "c1d3c170dc1f78883d27c31ee8c5f25d", "lon": -76.98766583333334, "lat": 38.9002905, "type": "electric_scooter", "is_disabled": 0, "rental_uris": {"android": "https://dc.lft.to/lastmile_qr_scan", "ios": "https://dc.lft.to/lastmile_qr_scan"}, "fusion_lon": 0.0, "bike_id": "c1d3c170dc1f78883d27c31ee8c5f25d", "fusion_lat": 0.0, "is_reserved": 0}, {"name": "b3fe3a71c2a1c550cd7a7377db346799", "lon": -76.99654133333334, "lat": 38.816063166666666, "type": "electric_bike", "is_disabled": 0, "rental_uris": {"android": "https://dc.lft.to/lastmile_qr_scan", "ios": "https://dc.lft.to/lastmile_qr_scan"}, "fusion_lon": 0.0, "bike_id": "b3fe3a71c2a1c550cd7a7377db346799", "fusion_lat": 0.0, "is_reserved": 0}, {"name": "d964ef8c5b53d112ef90cde35c5e8354", "lon": -76.95836316666667, "lat": 38.930469333333335, "type": "electric_bike", "is_disabled": 0, "rental_uris": {"android": "https://dc.lft.to/lastmile_qr_scan", "ios": "https://dc.lft.to/lastmile_qr_scan"}, "fusion_lon": 0.0, "bike_id": "d964ef8c5b53d112ef90cde35c5e8354", "fusion_lat": 0.0, "is_reserved": 0}, {"name": "8dbc78e062079a8380a010bb0a6bccf3", "lon": -77.04495, "lat": 39.0141365, "type": "electric_bike", "is_disabled": 0, "rental_uris": {"android": "https://dc.lft.to/lastmile_qr_scan", "ios": "https://dc.lft.to/lastmile_qr_scan"}, "fusion_lon": 0.0, "bike_id": "8dbc78e062079a8380a010bb0a6bccf3", "fusion_lat": 0.0, "is_reserved": 0}, {"name": "d6ad8e612962a3d87afe7adbf308ba9a", "lon": -77.0451365, "lat": 38.89600866666667, "type": "electric_scooter", "is_disabled": 0, "rental_uris": {"android": "https://dc.lft.to/lastmile_qr_scan", "ios": "https://dc.lft.to/lastmile_qr_scan"}, "fusion_lon": 0.0, "bike_id": "d6ad8e612962a3d87afe7adbf308ba9a", "fusion_lat": 0.0, "is_reserved": 0}, {"name": "5d81864a85828dd31288eb708bca8bf0", "lon": -77.02306583333333, "lat": 38.91772666666667, "type": "electric_scooter", "is_disabled": 0, "rental_uris": {"android": "https://dc.lft.to/lastmile_qr_scan", "ios": "https://dc.lft.to/lastmile_qr_scan"}, "fusion_lon": 0.0, "bike_id": "5d81864a85828dd31288eb708bca8bf0", "fusion_lat": 0.0, "is_reserved": 0}, {"name": "cb9d2b0c896b51ccd88149dcc54604b5", "lon": -77.04376233333333, "lat": 38.892191, "type": "electric_scooter", "is_disabled": 0, "rental_uris": {"android": "https://dc.lft.to/lastmile_qr_scan", "ios": "https://dc.lft.to/lastmile_qr_scan"}, "fusion_lon": 0.0, "bike_id": "cb9d2b0c896b51ccd88149dcc54604b5", "fusion_lat": 0.0, "is_reserved": 0}, {"name": "edf714b3742a87d4049e645c39338e15", "lon": -77.027204, "lat": 38.896550500000004, "type": "electric_scooter", "is_disabled": 0, "rental_uris": {"android": "https://dc.lft.to/lastmile_qr_scan", "ios": "https://dc.lft.to/lastmile_qr_scan"}, "fusion_lon": 0.0, "bike_id": "edf714b3742a87d4049e645c39338e15", "fusion_lat": 0.0, "is_reserved": 0}, {"name": "69469d4ee665b3f94bdb00cb730660dc", "lon": -76.946396, "lat": 38.89857666666666, "type": "electric_scooter", "is_disabled": 0, "rental_uris": {"android": "https://dc.lft.to/lastmile_qr_scan", "ios": "https://dc.lft.to/lastmile_qr_scan"}, "fusion_lon": 0.0, "bike_id": "69469d4ee665b3f94bdb00cb730660dc", "fusion_lat": 0.0, "is_reserved": 0}, {"name": "748616949de53268fab6fd5791e4d14c", "lon": -77.026868, "lat": 38.933734333333334, "type": "electric_scooter", "is_disabled": 0, "rental_uris": {"android": "https://dc.lft.to/lastmile_qr_scan", "ios": "https://dc.lft.to/lastmile_qr_scan"}, "fusion_lon": 0.0, "bike_id": "748616949de53268fab6fd5791e4d14c", "fusion_lat": 0.0, "is_reserved": 0}, {"name": "6f49588f0177b9a048a612ad2f76eeb7", "lon": -76.97167, "lat": 38.86133983333333, "type": "electric_scooter", "is_disabled": 0, "rental_uris": {"android": "https://dc.lft.to/lastmile_qr_scan", "ios": "https://dc.lft.to/lastmile_qr_scan"}, "fusion_lon": 0.0, "bike_id": "6f49588f0177b9a048a612ad2f76eeb7", "fusion_lat": 0.0, "is_reserved": 0}, {"name": "d3ab81b102addd61971133e4ec581a41", "lon": -77.028285, "lat": 38.898679333333334, "type": "electric_scooter", "is_disabled": 0, "rental_uris": {"android": "https://dc.lft.to/lastmile_qr_scan", "ios": "https://dc.lft.to/lastmile_qr_scan"}, "fusion_lon": 0.0, "bike_id": "d3ab81b102addd61971133e4ec581a41", "fusion_lat": 0.0, "is_reserved": 0}, {"name": "16b41b70c10c56ce3237a660e074aadc", "lon": -77.03204633333333, "lat": 38.921450666666665, "type": "electric_scooter", "is_disabled": 0, "rental_uris": {"android": "https://dc.lft.to/lastmile_qr_scan", "ios": "https://dc.lft.to/lastmile_qr_scan"}, "fusion_lon": 0.0, "bike_id": "16b41b70c10c56ce3237a660e074aadc", "fusion_lat": 0.0, "is_reserved": 0}, {"name": "7cb885285738b7c8e85ad5efaaeb7af9", "lon": -77.02220583333333, "lat": 38.9125685, "type": "electric_scooter", "is_disabled": 0, "rental_uris": {"android": "https://dc.lft.to/lastmile_qr_scan", "ios": "https://dc.lft.to/lastmile_qr_scan"}, "fusion_lon": 0.0, "bike_id": "7cb885285738b7c8e85ad5efaaeb7af9", "fusion_lat": 0.0, "is_reserved": 0}, {"name": "949295f47783fed6a89d11918987c873", "lon": -77.12527083333333, "lat": 39.05633683333333, "type": "electric_bike", "is_disabled": 0, "rental_uris": {"android": "https://dc.lft.to/lastmile_qr_scan", "ios": "https://dc.lft.to/lastmile_qr_scan"}, "fusion_lon": 0.0, "bike_id": "949295f47783fed6a89d11918987c873", "fusion_lat": 0.0, "is_reserved": 0}, {"name": "41954e775933f9bc60cd45dd4cffa3f1", "lon": -77.00226716666667, "lat": 38.9250825, "type": "electric_scooter", "is_disabled": 0, "rental_uris": {"android": "https://dc.lft.to/lastmile_qr_scan", "ios": "https://dc.lft.to/lastmile_qr_scan"}, "fusion_lon": 0.0, "bike_id": "41954e775933f9bc60cd45dd4cffa3f1", "fusion_lat": 0.0, "is_reserved": 0}, {"name": "eae49b688842749a82fa35e8e2010cd2", "lon": -77.029807, "lat": 38.9310305, "type": "electric_scooter", "is_disabled": 0, "rental_uris": {"android": "https://dc.lft.to/lastmile_qr_scan", "ios": "https://dc.lft.to/lastmile_qr_scan"}, "fusion_lon": 0.0, "bike_id": "eae49b688842749a82fa35e8e2010cd2", "fusion_lat": 0.0, "is_reserved": 0}, {"name": "83a5a55c0c7f733323f55f40914fa2b6", "lon": -76.97950883333333, "lat": 38.904295166666664, "type": "electric_scooter", "is_disabled": 0, "rental_uris": {"android": "https://dc.lft.to/lastmile_qr_scan", "ios": "https://dc.lft.to/lastmile_qr_scan"}, "fusion_lon": 0.0, "bike_id": "83a5a55c0c7f733323f55f40914fa2b6", "fusion_lat": 0.0, "is_reserved": 0}, {"name": "b429b26f45cbf8f883f43a1ae622d308", "lon": -77.02303416666666, "lat": 38.908667666666666, "type": "electric_scooter", "is_disabled": 0, "rental_uris": {"android": "https://dc.lft.to/lastmile_qr_scan", "ios": "https://dc.lft.to/lastmile_qr_scan"}, "fusion_lon": 0.0, "bike_id": "b429b26f45cbf8f883f43a1ae622d308", "fusion_lat": 0.0, "is_reserved": 0}, {"name": "d37ed42a1563d298bc237a7484cf7e38", "lon": -77.053895, "lat": 38.804532333333334, "type": "electric_bike", "is_disabled": 0, "rental_uris": {"android": "https://dc.lft.to/lastmile_qr_scan", "ios": "https://dc.lft.to/lastmile_qr_scan"}, "fusion_lon": 0.0, "bike_id": "d37ed42a1563d298bc237a7484cf7e38", "fusion_lat": 0.0, "is_reserved": 0}, {"name": "b48ba35038e0ede2a4cae17d2c7498d5", "lon": -77.03441783333334, "lat": 38.902968666666666, "type": "electric_scooter", "is_disabled": 0, "rental_uris": {"android": "https://dc.lft.to/lastmile_qr_scan", "ios": "https://dc.lft.to/lastmile_qr_scan"}, "fusion_lon": 0.0, "bike_id": "b48ba35038e0ede2a4cae17d2c7498d5", "fusion_lat": 0.0, "is_reserved": 0}, {"name": "b225f51e2311c7ed24253887624b2f28", "lon": -77.0394155, "lat": 38.90833966666667, "type": "electric_scooter", "is_disabled": 0, "rental_uris": {"android": "https://dc.lft.to/lastmile_qr_scan", "ios": "https://dc.lft.to/lastmile_qr_scan"}, "fusion_lon": 0.0, "bike_id": "b225f51e2311c7ed24253887624b2f28", "fusion_lat": 0.0, "is_reserved": 0}, {"name": "bfa771745c39867c00cfa8e706f689c0", "lon": -77.0333905, "lat": 38.90969333333334, "type": "electric_scooter", "is_disabled": 0, "rental_uris": {"android": "https://dc.lft.to/lastmile_qr_scan", "ios": "https://dc.lft.to/lastmile_qr_scan"}, "fusion_lon": 0.0, "bike_id": "bfa771745c39867c00cfa8e706f689c0", "fusion_lat": 0.0, "is_reserved": 0}, {"name": "1e1a9fd7a543fddd81eebcd93ec8460e", "lon": -77.03179133333333, "lat": 38.91421666666667, "type": "electric_scooter", "is_disabled": 0, "rental_uris": {"android": "https://dc.lft.to/lastmile_qr_scan", "ios": "https://dc.lft.to/lastmile_qr_scan"}, "fusion_lon": 0.0, "bike_id": "1e1a9fd7a543fddd81eebcd93ec8460e", "fusion_lat": 0.0, "is_reserved": 0}, {"name": "c26c9b8e509755866fd65cbaab65a739", "lon": -77.03156983333334, "lat": 38.895396833333336, "type": "electric_scooter", "is_disabled": 0, "rental_uris": {"android": "https://dc.lft.to/lastmile_qr_scan", "ios": "https://dc.lft.to/lastmile_qr_scan"}, "fusion_lon": 0.0, "bike_id": "c26c9b8e509755866fd65cbaab65a739", "fusion_lat": 0.0, "is_reserved": 0}, {"name": "37ed82ed7fe1b6c29161a3679f121a35", "lon": -77.0147435, "lat": 38.92678166666666, "type": "electric_scooter", "is_disabled": 0, "rental_uris": {"android": "https://dc.lft.to/lastmile_qr_scan", "ios": "https://dc.lft.to/lastmile_qr_scan"}, "fusion_lon": 0.0, "bike_id": "37ed82ed7fe1b6c29161a3679f121a35", "fusion_lat": 0.0, "is_reserved": 0}, {"name": "7c24fd7a320cf3506784f0539c33b72d", "lon": -77.03130766666666, "lat": 38.91044266666667, "type": "electric_scooter", "is_disabled": 0, "rental_uris": {"android": "https://dc.lft.to/lastmile_qr_scan", "ios": "https://dc.lft.to/lastmile_qr_scan"}, "fusion_lon": 0.0, "bike_id": "7c24fd7a320cf3506784f0539c33b72d", "fusion_lat": 0.0, "is_reserved": 0}, {"name": "dcd7af0be251c5cd413736a6fc855fd0", "lon": -77.04167866666667, "lat": 38.89838366666667, "type": "electric_scooter", "is_disabled": 0, "rental_uris": {"android": "https://dc.lft.to/lastmile_qr_scan", "ios": "https://dc.lft.to/lastmile_qr_scan"}, "fusion_lon": 0.0, "bike_id": "dcd7af0be251c5cd413736a6fc855fd0", "fusion_lat": 0.0, "is_reserved": 0}, {"name": "f0995de5ed9f209504bddc68f091e5e5", "lon": -76.90739716666667, "lat": 38.896137333333336, "type": "electric_bike", "is_disabled": 0, "rental_uris": {"android": "https://dc.lft.to/lastmile_qr_scan", "ios": "https://dc.lft.to/lastmile_qr_scan"}, "fusion_lon": 0.0, "bike_id": "f0995de5ed9f209504bddc68f091e5e5", "fusion_lat": 0.0, "is_reserved": 0}, {"name": "7497cdd381b2a1f368d84006d7002ae6", "lon": -76.98544466666667, "lat": 38.8997865, "type": "electric_scooter", "is_disabled": 0, "rental_uris": {"android": "https://dc.lft.to/lastmile_qr_scan", "ios": "https://dc.lft.to/lastmile_qr_scan"}, "fusion_lon": 0.0, "bike_id": "7497cdd381b2a1f368d84006d7002ae6", "fusion_lat": 0.0, "is_reserved": 0}, {"name": "5369bb967f60009a3fa6a7d1d8a9c0ad", "lon": -76.98836166666666, "lat": 38.900045, "type": "electric_scooter", "is_disabled": 0, "rental_uris": {"android": "https://dc.lft.to/lastmile_qr_scan", "ios": "https://dc.lft.to/lastmile_qr_scan"}, "fusion_lon": 0.0, "bike_id": "5369bb967f60009a3fa6a7d1d8a9c0ad", "fusion_lat": 0.0, "is_reserved": 0}, {"name": "e45ff19c0fe5f036a2336499331793f4", "lon": -77.042679, "lat": 38.907299, "type": "electric_scooter", "is_disabled": 0, "rental_uris": {"android": "https://dc.lft.to/lastmile_qr_scan", "ios": "https://dc.lft.to/lastmile_qr_scan"}, "fusion_lon": 0.0, "bike_id": "e45ff19c0fe5f036a2336499331793f4", "fusion_lat": 0.0, "is_reserved": 0}, {"name": "aeb29d7d78f9d15e11730d13016f62bf", "lon": -77.0208485, "lat": 38.930071166666664, "type": "electric_scooter", "is_disabled": 0, "rental_uris": {"android": "https://dc.lft.to/lastmile_qr_scan", "ios": "https://dc.lft.to/lastmile_qr_scan"}, "fusion_lon": 0.0, "bike_id": "aeb29d7d78f9d15e11730d13016f62bf", "fusion_lat": 0.0, "is_reserved": 0}, {"name": "667bee20d375c0b5f0b31e857993a7d4", "lon": -77.04727633333333, "lat": 38.901679666666666, "type": "electric_scooter", "is_disabled": 0, "rental_uris": {"android": "https://dc.lft.to/lastmile_qr_scan", "ios": "https://dc.lft.to/lastmile_qr_scan"}, "fusion_lon": 0.0, "bike_id": "667bee20d375c0b5f0b31e857993a7d4", "fusion_lat": 0.0, "is_reserved": 0}, {"name": "de64ada0ec0eec91df0b316ea141e0ba", "lon": -77.025083, "lat": 38.9181125, "type": "electric_scooter", "is_disabled": 0, "rental_uris": {"android": "https://dc.lft.to/lastmile_qr_scan", "ios": "https://dc.lft.to/lastmile_qr_scan"}, "fusion_lon": 0.0, "bike_id": "de64ada0ec0eec91df0b316ea141e0ba", "fusion_lat": 0.0, "is_reserved": 0}, {"name": "25765d18622088bfeaa9b913bcd9d4cd", "lon": -77.02164883333333, "lat": 38.92497766666666, "type": "electric_scooter", "is_disabled": 0, "rental_uris": {"android": "https://dc.lft.to/lastmile_qr_scan", "ios": "https://dc.lft.to/lastmile_qr_scan"}, "fusion_lon": 0.0, "bike_id": "25765d18622088bfeaa9b913bcd9d4cd", "fusion_lat": 0.0, "is_reserved": 0}, {"name": "05a5d7e61a7225374b4a0c63c3b6b6ed", "lon": -77.03281533333333, "lat": 38.9375255, "type": "electric_scooter", "is_disabled": 0, "rental_uris": {"android": "https://dc.lft.to/lastmile_qr_scan", "ios": "https://dc.lft.to/lastmile_qr_scan"}, "fusion_lon": 0.0, "bike_id": "05a5d7e61a7225374b4a0c63c3b6b6ed", "fusion_lat": 0.0, "is_reserved": 0}, {"name": "099a82dfecc07af88c41110efcbab58a", "lon": -77.02956566666667, "lat": 38.91680233333334, "type": "electric_scooter", "is_disabled": 0, "rental_uris": {"android": "https://dc.lft.to/lastmile_qr_scan", "ios": "https://dc.lft.to/lastmile_qr_scan"}, "fusion_lon": 0.0, "bike_id": "099a82dfecc07af88c41110efcbab58a", "fusion_lat": 0.0, "is_reserved": 0}, {"name": "1ff02af574f12a3a1f28ce88260da148", "lon": -76.93206383333333, "lat": 38.896663833333335, "type": "electric_scooter", "is_disabled": 0, "rental_uris": {"android": "https://dc.lft.to/lastmile_qr_scan", "ios": "https://dc.lft.to/lastmile_qr_scan"}, "fusion_lon": 0.0, "bike_id": "1ff02af574f12a3a1f28ce88260da148", "fusion_lat": 0.0, "is_reserved": 0}, {"name": "5abed57547540480362909c6aaed892b", "lon": -76.996337, "lat": 38.900597, "type": "electric_scooter", "is_disabled": 0, "rental_uris": {"android": "https://dc.lft.to/lastmile_qr_scan", "ios": "https://dc.lft.to/lastmile_qr_scan"}, "fusion_lon": 0.0, "bike_id": "5abed57547540480362909c6aaed892b", "fusion_lat": 0.0, "is_reserved": 0}, {"name": "4cc52a57e69972ad8973d8b332b46bff", "lon": -77.04074316666667, "lat": 38.8961385, "type": "electric_scooter", "is_disabled": 0, "rental_uris": {"android": "https://dc.lft.to/lastmile_qr_scan", "ios": "https://dc.lft.to/lastmile_qr_scan"}, "fusion_lon": 0.0, "bike_id": "4cc52a57e69972ad8973d8b332b46bff", "fusion_lat": 0.0, "is_reserved": 0}, {"name": "0b4fcd11b3ae1fbbeb080643268d19ee", "lon": -77.014192, "lat": 38.928147333333335, "type": "electric_scooter", "is_disabled": 0, "rental_uris": {"android": "https://dc.lft.to/lastmile_qr_scan", "ios": "https://dc.lft.to/lastmile_qr_scan"}, "fusion_lon": 0.0, "bike_id": "0b4fcd11b3ae1fbbeb080643268d19ee", "fusion_lat": 0.0, "is_reserved": 0}, {"name": "e77843afd760261ba94eac79b9c9d881", "lon": -77.01896633333334, "lat": 38.923653, "type": "electric_scooter", "is_disabled": 0, "rental_uris": {"android": "https://dc.lft.to/lastmile_qr_scan", "ios": "https://dc.lft.to/lastmile_qr_scan"}, "fusion_lon": 0.0, "bike_id": "e77843afd760261ba94eac79b9c9d881", "fusion_lat": 0.0, "is_reserved": 0}, {"name": "91d585b1d416556457613da3e1ffa19f", "lon": -77.02739383333333, "lat": 38.92765833333333, "type": "electric_scooter", "is_disabled": 0, "rental_uris": {"android": "https://dc.lft.to/lastmile_qr_scan", "ios": "https://dc.lft.to/lastmile_qr_scan"}, "fusion_lon": 0.0, "bike_id": "91d585b1d416556457613da3e1ffa19f", "fusion_lat": 0.0, "is_reserved": 0}, {"name": "4331b4f0715774106a867e6e587be3c1", "lon": -76.9840585, "lat": 38.8464385, "type": "electric_scooter", "is_disabled": 0, "rental_uris": {"android": "https://dc.lft.to/lastmile_qr_scan", "ios": "https://dc.lft.to/lastmile_qr_scan"}, "fusion_lon": 0.0, "bike_id": "4331b4f0715774106a867e6e587be3c1", "fusion_lat": 0.0, "is_reserved": 0}, {"name": "a26dae7abb19f2df945d3e6ab01c0a7c", "lon": -77.01890383333334, "lat": 38.874688666666664, "type": "electric_scooter", "is_disabled": 0, "rental_uris": {"android": "https://dc.lft.to/lastmile_qr_scan", "ios": "https://dc.lft.to/lastmile_qr_scan"}, "fusion_lon": 0.0, "bike_id": "a26dae7abb19f2df945d3e6ab01c0a7c", "fusion_lat": 0.0, "is_reserved": 0}, {"name": "10a1d79b6de8e257764586d3538077d3", "lon": -77.03932116666667, "lat": 38.90277233333333, "type": "electric_scooter", "is_disabled": 0, "rental_uris": {"android": "https://dc.lft.to/lastmile_qr_scan", "ios": "https://dc.lft.to/lastmile_qr_scan"}, "fusion_lon": 0.0, "bike_id": "10a1d79b6de8e257764586d3538077d3", "fusion_lat": 0.0, "is_reserved": 0}, {"name": "6efbc5441d4803fb297276820b3b1cb2", "lon": -77.04328933333333, "lat": 38.90571166666667, "type": "electric_scooter", "is_disabled": 0, "rental_uris": {"android": "https://dc.lft.to/lastmile_qr_scan", "ios": "https://dc.lft.to/lastmile_qr_scan"}, "fusion_lon": 0.0, "bike_id": "6efbc5441d4803fb297276820b3b1cb2", "fusion_lat": 0.0, "is_reserved": 0}, {"name": "dc767a6da0debf4ac4e249b8df585dfb", "lon": -77.02698083333334, "lat": 38.91799483333333, "type": "electric_scooter", "is_disabled": 0, "rental_uris": {"android": "https://dc.lft.to/lastmile_qr_scan", "ios": "https://dc.lft.to/lastmile_qr_scan"}, "fusion_lon": 0.0, "bike_id": "dc767a6da0debf4ac4e249b8df585dfb", "fusion_lat": 0.0, "is_reserved": 0}, {"name": "03edd267a35da47b5c822f1f7a654e3a", "lon": -77.041965, "lat": 38.892202833333336, "type": "electric_scooter", "is_disabled": 0, "rental_uris": {"android": "https://dc.lft.to/lastmile_qr_scan", "ios": "https://dc.lft.to/lastmile_qr_scan"}, "fusion_lon": 0.0, "bike_id": "03edd267a35da47b5c822f1f7a654e3a", "fusion_lat": 0.0, "is_reserved": 0}, {"name": "f05a039548f93c4ebcb4f6728b84bd70", "lon": -77.01719416666667, "lat": 38.95488016666667, "type": "electric_scooter", "is_disabled": 0, "rental_uris": {"android": "https://dc.lft.to/lastmile_qr_scan", "ios": "https://dc.lft.to/lastmile_qr_scan"}, "fusion_lon": 0.0, "bike_id": "f05a039548f93c4ebcb4f6728b84bd70", "fusion_lat": 0.0, "is_reserved": 0}, {"name": "9983d25a442995114bebc40e63a68d95", "lon": -77.02141916666666, "lat": 38.92515083333333, "type": "electric_scooter", "is_disabled": 0, "rental_uris": {"android": "https://dc.lft.to/lastmile_qr_scan", "ios": "https://dc.lft.to/lastmile_qr_scan"}, "fusion_lon": 0.0, "bike_id": "9983d25a442995114bebc40e63a68d95", "fusion_lat": 0.0, "is_reserved": 0}, {"name": "e041097b3c41adeb199c8c1eb52718e4", "lon": -77.02339816666667, "lat": 38.91939433333334, "type": "electric_scooter", "is_disabled": 0, "rental_uris": {"android": "https://dc.lft.to/lastmile_qr_scan", "ios": "https://dc.lft.to/lastmile_qr_scan"}, "fusion_lon": 0.0, "bike_id": "e041097b3c41adeb199c8c1eb52718e4", "fusion_lat": 0.0, "is_reserved": 0}, {"name": "58b9dc009b68818ee2c769de95addcf2", "lon": -77.04351733333333, "lat": 38.904174833333336, "type": "electric_scooter", "is_disabled": 0, "rental_uris": {"android": "https://dc.lft.to/lastmile_qr_scan", "ios": "https://dc.lft.to/lastmile_qr_scan"}, "fusion_lon": 0.0, "bike_id": "58b9dc009b68818ee2c769de95addcf2", "fusion_lat": 0.0, "is_reserved": 0}, {"name": "a53d847a2c3680fc8191106f1d8055f3", "lon": -77.024131, "lat": 38.91207966666666, "type": "electric_scooter", "is_disabled": 0, "rental_uris": {"android": "https://dc.lft.to/lastmile_qr_scan", "ios": "https://dc.lft.to/lastmile_qr_scan"}, "fusion_lon": 0.0, "bike_id": "a53d847a2c3680fc8191106f1d8055f3", "fusion_lat": 0.0, "is_reserved": 0}, {"name": "d0b082467cea7805a5c938e0a66907f8", "lon": -77.03225433333333, "lat": 38.91036666666667, "type": "electric_scooter", "is_disabled": 0, "rental_uris": {"android": "https://dc.lft.to/lastmile_qr_scan", "ios": "https://dc.lft.to/lastmile_qr_scan"}, "fusion_lon": 0.0, "bike_id": "d0b082467cea7805a5c938e0a66907f8", "fusion_lat": 0.0, "is_reserved": 0}, {"name": "dadfb589cd057d1ada6031b050893b80", "lon": -77.02785916666667, "lat": 38.92949616666667, "type": "electric_scooter", "is_disabled": 0, "rental_uris": {"android": "https://dc.lft.to/lastmile_qr_scan", "ios": "https://dc.lft.to/lastmile_qr_scan"}, "fusion_lon": 0.0, "bike_id": "dadfb589cd057d1ada6031b050893b80", "fusion_lat": 0.0, "is_reserved": 0}, {"name": "fc6806876e3cac808219368a1ffe758a", "lon": -77.0559775, "lat": 38.93695016666667, "type": "electric_scooter", "is_disabled": 0, "rental_uris": {"android": "https://dc.lft.to/lastmile_qr_scan", "ios": "https://dc.lft.to/lastmile_qr_scan"}, "fusion_lon": 0.0, "bike_id": "fc6806876e3cac808219368a1ffe758a", "fusion_lat": 0.0, "is_reserved": 0}, {"name": "b3d544d2a94f28016db8b7103fce184a", "lon": -76.99898716666667, "lat": 38.909484, "type": "electric_bike", "is_disabled": 0, "rental_uris": {"android": "https://dc.lft.to/lastmile_qr_scan", "ios": "https://dc.lft.to/lastmile_qr_scan"}, "fusion_lon": 0.0, "bike_id": "b3d544d2a94f28016db8b7103fce184a", "fusion_lat": 0.0, "is_reserved": 0}, {"name": "1273a927f85c527bb2e912b4dceeb58e", "lon": -77.0175965, "lat": 38.87681833333333, "type": "electric_scooter", "is_disabled": 0, "rental_uris": {"android": "https://dc.lft.to/lastmile_qr_scan", "ios": "https://dc.lft.to/lastmile_qr_scan"}, "fusion_lon": 0.0, "bike_id": "1273a927f85c527bb2e912b4dceeb58e", "fusion_lat": 0.0, "is_reserved": 0}, {"name": "9af4c18c6679a33b06c2b1e0edf33741", "lon": -76.97052583333334, "lat": 38.98457066666667, "type": "electric_bike", "is_disabled": 0, "rental_uris": {"android": "https://dc.lft.to/lastmile_qr_scan", "ios": "https://dc.lft.to/lastmile_qr_scan"}, "fusion_lon": 0.0, "bike_id": "9af4c18c6679a33b06c2b1e0edf33741", "fusion_lat": 0.0, "is_reserved": 0}, {"name": "ec3cce491bd95d64cf8bdaa3a34b5568", "lon": -77.03872333333334, "lat": 38.9225615, "type": "electric_scooter", "is_disabled": 0, "rental_uris": {"android": "https://dc.lft.to/lastmile_qr_scan", "ios": "https://dc.lft.to/lastmile_qr_scan"}, "fusion_lon": 0.0, "bike_id": "ec3cce491bd95d64cf8bdaa3a34b5568", "fusion_lat": 0.0, "is_reserved": 0}, {"name": "26e60189c73eb7d31473b059c9140b6d", "lon": -77.031799, "lat": 38.915613, "type": "electric_scooter", "is_disabled": 0, "rental_uris": {"android": "https://dc.lft.to/lastmile_qr_scan", "ios": "https://dc.lft.to/lastmile_qr_scan"}, "fusion_lon": 0.0, "bike_id": "26e60189c73eb7d31473b059c9140b6d", "fusion_lat": 0.0, "is_reserved": 0}, {"name": "7bfadaf2b296a819bb3182f35787fcd8", "lon": -77.03662166666666, "lat": 38.910046333333334, "type": "electric_scooter", "is_disabled": 0, "rental_uris": {"android": "https://dc.lft.to/lastmile_qr_scan", "ios": "https://dc.lft.to/lastmile_qr_scan"}, "fusion_lon": 0.0, "bike_id": "7bfadaf2b296a819bb3182f35787fcd8", "fusion_lat": 0.0, "is_reserved": 0}, {"name": "1b91c538543b26977c70f9116eb913d3", "lon": -77.00394133333333, "lat": 38.90565633333333, "type": "electric_scooter", "is_disabled": 0, "rental_uris": {"android": "https://dc.lft.to/lastmile_qr_scan", "ios": "https://dc.lft.to/lastmile_qr_scan"}, "fusion_lon": 0.0, "bike_id": "1b91c538543b26977c70f9116eb913d3", "fusion_lat": 0.0, "is_reserved": 0},