{"data": {"bikes": [{"fusion_lat": 0.0, "name": "f5822a6efede325a62fc35292af2b5af", "is_disabled": 0, "rental_uris": {"android": "https://dc.lft.to/lastmile_qr_scan", "ios": "https://dc.lft.to/lastmile_qr_scan"}, "fusion_lon": 0.0, "lat": 38.89889016666667, "bike_id": "f5822a6efede325a62fc35292af2b5af", "type": "electric_scooter", "is_reserved": 0, "lon": -77.01511766666667}, {"fusion_lat": 0.0, "name": "99bcf21472c878cac96736e60356dfc9", "is_disabled": 0, "rental_uris": {"android": "https://dc.lft.to/lastmile_qr_scan", "ios": "https://dc.lft.to/lastmile_qr_scan"}, "fusion_lon": 0.0, "lat": 38.9386855, "bike_id": "99bcf21472c878cac96736e60356dfc9", "type": "electric_scooter", "is_reserved": 0, "lon": -77.02461366666667}, {"fusion_lat": 0.0, "name": "d487132a7faf333295a046bd9df9de19", "is_disabled": 0, "rental_uris": {"android": "https://dc.lft.to/lastmile_qr_scan", "ios": "https://dc.lft.to/lastmile_qr_scan"}, "fusion_lon": 0.0, "lat": 38.89785216666667, "bike_id": "d487132a7faf333295a046bd9df9de19", "type": "electric_scooter", "is_reserved": 0, "lon": -77.012146}, {"fusion_lat": 0.0, "name": "0ae4f963090f78e56d8515cdbe72b83e", "is_disabled": 0, "rental_uris": {"android": "https://dc.lft.to/lastmile_qr_scan", "ios": "https://dc.lft.to/lastmile_qr_scan"}, "fusion_lon": 0.0, "lat": 38.92536833333333, "bike_id": "0ae4f963090f78e56d8515cdbe72b83e", "type": "electric_scooter", "is_reserved": 0, "lon": -77.03830833333333}, {"fusion_lat": 0.0, "name": "00379bba6c4bf8b21e7e6d57c7be067c", "is_disabled": 0, "rental_uris": {"android": "https://dc.lft.to/lastmile_qr_scan", "ios": "https://dc.lft.to/lastmile_qr_scan"}, "fusion_lon": 0.0, "lat": 38.95283416666667, "bike_id": "00379bba6c4bf8b21e7e6d57c7be067c", "type": "electric_scooter", "is_reserved": 0, "lon": -77.06877333333334}, {"fusion_lat": 0.0, "name": "305a38ef56400cf0bba9b46238dd2eb7", "is_disabled": 0, "rental_uris": {"android": "https://dc.lft.to/lastmile_qr_scan", "ios": "https://dc.lft.to/lastmile_qr_scan"}, "fusion_lon": 0.0, "lat": 38.900833166666665, "bike_id": "305a38ef56400cf0bba9b46238dd2eb7", "type": "electric_scooter", "is_reserved": 0, "lon": -76.98335416666667}, {"fusion_lat": 0.0, "name": "ffffd5132386f9968de9f407dd7733f9", "is_disabled": 0, "rental_uris": {"android": "https://dc.lft.to/lastmile_qr_scan", "ios": "https://dc.lft.to/lastmile_qr_scan"}, "fusion_lon": 0.0, "lat": 38.9103885, "bike_id": "ffffd5132386f9968de9f407dd7733f9", "type": "electric_scooter", "is_reserved": 0, "lon": -77.0083565}, {"fusion_lat": 0.0, "name": "59817c23c5a8ec070b679bc6345b53f9", "is_disabled": 0, "rental_uris": {"android": "https://dc.lft.to/lastmile_qr_scan", "ios": "https://dc.lft.to/lastmile_qr_scan"}, "fusion_lon": 0.0, "lat": 38.928928666666664, "bike_id": "59817c23c5a8ec070b679bc6345b53f9", "type": "electric_bike", "is_reserved": 0, "lon": -77.2317955}, {"fusion_lat": 0.0, "name": "d93c214e8d1475e83f5cf60e221bacfe", "is_disabled": 0, "rental_uris": {"android": "https://dc.lft.to/lastmile_qr_scan", "ios": "https://dc.lft.to/lastmile_qr_scan"}, "fusion_lon": 0.0, "lat": 38.91565166666667, "bike_id": "d93c214e8d1475e83f5cf60e221bacfe", "type": "electric_scooter", "is_reserved": 0, "lon": -77.03852616666667}, {"fusion_lat": 0.0, "name": "9b931b995e617fc47abaae6717b81ee5", "is_disabled": 0, "rental_uris": {"android": "https://dc.lft.to/lastmile_qr_scan", "ios": "https://dc.lft.to/lastmile_qr_scan"}, "fusion_lon": 0.0, "lat": 38.9225, "bike_id": "9b931b995e617fc47abaae6717b81ee5", "type": "electric_scooter", "is_reserved": 0, "lon": -77.05085816666667}, {"fusion_lat": 0.0, "name": "f1cdb72975a7b0283acc6c3380daa33d", "is_disabled": 0, "rental_uris": {"android": "https://dc.lft.to/lastmile_qr_scan", "ios": "https://dc.lft.to/lastmile_qr_scan"}, "fusion_lon": 0.0, "lat": 38.92535566666667, "bike_id": "f1cdb72975a7b0283acc6c3380daa33d", "type": "electric_scooter", "is_reserved": 0, "lon": -77.05125833333334}, {"fusion_lat": 0.0, "name": "f66483abea12756ff9b1e15f72b75e20", "is_disabled": 0, "rental_uris": {"android": "https://dc.lft.to/lastmile_qr_scan", "ios": "https://dc.lft.to/lastmile_qr_scan"}, "fusion_lon": 0.0, "lat": 38.9166465, "bike_id": "f66483abea12756ff9b1e15f72b75e20", "type": "electric_scooter", "is_reserved": 0, "lon": -77.0289725}, {"fusion_lat": 0.0, "name": "6b69ba84c62f820b76aaf009555b09c2", "is_disabled": 0, "rental_uris": {"android": "https://dc.lft.to/lastmile_qr_scan", "ios": "https://dc.lft.to/lastmile_qr_scan"}, "fusion_lon": 0.0, "lat": 38.9289925, "bike_id": "6b69ba84c62f820b76aaf009555b09c2", "type": "electric_scooter", "is_reserved": 0, "lon": -77.05456533333333}, {"fusion_lat": 0.0, "name": "0242c4d4c44f571f1947c68694627833", "is_disabled": 0, "rental_uris": {"android": "https://dc.lft.to/lastmile_qr_scan", "ios": "https://dc.lft.to/lastmile_qr_scan"}, "fusion_lon": 0.0, "lat": 38.83233533333333, "bike_id": "0242c4d4c44f571f1947c68694627833", "type": "electric_bike", "is_reserved": 0, "lon": -76.9462335}, {"fusion_lat": 0.0, "name": "751800d72bb08c16313f90a8221b878a", "is_disabled": 0, "rental_uris": {"android": "https://dc.lft.to/lastmile_qr_scan", "ios": "https://dc.lft.to/lastmile_qr_scan"}, "fusion_lon": 0.0, "lat": 38.887544, "bike_id": "751800d72bb08c16313f90a8221b878a", "type": "electric_scooter", "is_reserved": 0, "lon": -77.002602}, {"fusion_lat": 0.0, "name": "195d3c809edcf370cdc94cb67ad180ef", "is_disabled": 0, "rental_uris": {"android": "https://dc.lft.to/lastmile_qr_scan", "ios": "https://dc.lft.to/lastmile_qr_scan"}, "fusion_lon": 0.0, "lat": 38.93186883333333, "bike_id": "195d3c809edcf370cdc94cb67ad180ef", "type": "electric_scooter", "is_reserved": 0, "lon": -77.04300133333334}, {"fusion_lat": 0.0, "name": "ddc89cd6f3dec6327a00eae67c693de9", "is_disabled": 0, "rental_uris": {"android": "https://dc.lft.to/lastmile_qr_scan", "ios": "https://dc.lft.to/lastmile_qr_scan"}, "fusion_lon": 0.0, "lat": 38.876309166666665, "bike_id": "ddc89cd6f3dec6327a00eae67c693de9", "type": "electric_scooter", "is_reserved": 0, "lon": -77.016459}, {"fusion_lat": 0.0, "name": "2d13a4cd1187e6bd7782a07778f445e9", "is_disabled": 0, "rental_uris": {"android": "https://dc.lft.to/lastmile_qr_scan", "ios": "https://dc.lft.to/lastmile_qr_scan"}, "fusion_lon": 0.0, "lat": 38.8413175, "bike_id": "2d13a4cd1187e6bd7782a07778f445e9", "type": "electric_bike", "is_reserved": 0, "lon": -76.947623}, {"fusion_lat": 0.0, "name": "26e5cf9c11e7dcc68e5571db65e68fae", "is_disabled": 0, "rental_uris": {"android": "https://dc.lft.to/lastmile_qr_scan", "ios": "https://dc.lft.to/lastmile_qr_scan"}, "fusion_lon": 0.0, "lat": 38.90548, "bike_id": "26e5cf9c11e7dcc68e5571db65e68fae", "type": "electric_scooter", "is_reserved": 0, "lon": -77.06272883333334}, {"fusion_lat": 0.0, "name": "333f196a43620c10029c15991c500509", "is_disabled": 0, "rental_uris": {"android": "https://dc.lft.to/lastmile_qr_scan", "ios": "https://dc.lft.to/lastmile_qr_scan"}, "fusion_lon": 0.0, "lat": 38.905499666666664, "bike_id": "333f196a43620c10029c15991c500509", "type": "electric_scooter", "is_reserved": 0, "lon": -77.04651516666667}, {"fusion_lat": 0.0, "name": "ac8cfb6356a85bfcc89859c12ccb189e", "is_disabled": 0, "rental_uris": {"android": "https://dc.lft.to/lastmile_qr_scan", "ios": "https://dc.lft.to/lastmile_qr_scan"}, "fusion_lon": 0.0, "lat": 38.8844215, "bike_id": "ac8cfb6356a85bfcc89859c12ccb189e", "type": "electric_scooter", "is_reserved": 0, "lon": -77.02459133333333}, {"fusion_lat": 0.0, "name": "8afe998161665fa5b1e6ef7bd8adfcd5", "is_disabled": 0, "rental_uris": {"android": "https://dc.lft.to/lastmile_qr_scan", "ios": "https://dc.lft.to/lastmile_qr_scan"}, "fusion_lon": 0.0, "lat": 38.88722633333333, "bike_id": "8afe998161665fa5b1e6ef7bd8adfcd5", "type": "electric_scooter", "is_reserved": 0, "lon": -76.98362783333333}, {"fusion_lat": 0.0, "name": "7975df383af2098878e803b2aeb63f66", "is_disabled": 0, "rental_uris": {"android": "https://dc.lft.to/lastmile_qr_scan", "ios": "https://dc.lft.to/lastmile_qr_scan"}, "fusion_lon": 0.0, "lat": 38.9239885, "bike_id": "7975df383af2098878e803b2aeb63f66", "type": "electric_scooter", "is_reserved": 0, "lon": -77.03641566666667}, {"fusion_lat": 0.0, "name": "5317311bb8b662a11e6b6251b47aa0ec", "is_disabled": 0, "rental_uris": {"android": "https://dc.lft.to/lastmile_qr_scan", "ios": "https://dc.lft.to/lastmile_qr_scan"}, "fusion_lon": 0.0, "lat": 38.9215585, "bike_id": "5317311bb8b662a11e6b6251b47aa0ec", "type": "electric_scooter", "is_reserved": 0, "lon": -77.03384183333333}, {"fusion_lat": 0.0, "name": "bf96ee82f362ae5d13128824da47abac", "is_disabled": 0, "rental_uris": {"android": "https://dc.lft.to/lastmile_qr_scan", "ios": "https://dc.lft.to/lastmile_qr_scan"}, "fusion_lon": 0.0, "lat": 38.92853016666667, "bike_id": "bf96ee82f362ae5d13128824da47abac", "type": "electric_scooter", "is_reserved": 0, "lon": -77.02443016666666}, {"fusion_lat": 0.0, "name": "3a9d5bd6e6564d383556533edeb4a0c8", "is_disabled": 0, "rental_uris": {"android": "https://dc.lft.to/lastmile_qr_scan", "ios": "https://dc.lft.to/lastmile_qr_scan"}, "fusion_lon": 0.0, "lat": 38.9265405, "bike_id": "3a9d5bd6e6564d383556533edeb4a0c8", "type": "electric_scooter", "is_reserved": 0, "lon": -77.02423316666666}, {"fusion_lat": 0.0, "name": "39b2df5b6784583b2e9b0abdbaa2e76a", "is_disabled": 0, "rental_uris": {"android": "https://dc.lft.to/lastmile_qr_scan", "ios": "https://dc.lft.to/lastmile_qr_scan"}, "fusion_lon": 0.0, "lat": 38.90712666666667, "bike_id": "39b2df5b6784583b2e9b0abdbaa2e76a", "type": "electric_scooter", "is_reserved": 0, "lon": -77.00087483333333}, {"fusion_lat": 0.0, "name": "6a450022736c99034ecd5ceb20c3ec10", "is_disabled": 0, "rental_uris": {"android": "https://dc.lft.to/lastmile_qr_scan", "ios": "https://dc.lft.to/lastmile_qr_scan"}, "fusion_lon": 0.0, "lat": 38.90069966666667, "bike_id": "6a450022736c99034ecd5ceb20c3ec10", "type": "electric_scooter", "is_reserved": 0, "lon": -77.02637}, {"fusion_lat": 0.0, "name": "d4973437b58019611c23bff6841b6555", "is_disabled": 0, "rental_uris": {"android": "https://dc.lft.to/lastmile_qr_scan", "ios": "https://dc.lft.to/lastmile_qr_scan"}, "fusion_lon": 0.0, "lat": 38.90973, "bike_id": "d4973437b58019611c23bff6841b6555", "type": "electric_scooter", "is_reserved": 0, "lon": -77.009085}, {"fusion_lat": 0.0, "name": "670d436753db4bd9966082c954f623e1", "is_disabled": 0, "rental_uris": {"android": "https://dc.lft.to/lastmile_qr_scan", "ios": "https://dc.lft.to/lastmile_qr_scan"}, "fusion_lon": 0.0, "lat": 38.9274985, "bike_id": "670d436753db4bd9966082c954f623e1", "type": "electric_scooter", "is_reserved": 0, "lon": -77.02539283333333}, {"fusion_lat": 0.0, "name": "fb06b435d5683097c9bed98395abd1d5", "is_disabled": 0, "rental_uris": {"android": "https://dc.lft.to/lastmile_qr_scan", "ios": "https://dc.lft.to/lastmile_qr_scan"}, "fusion_lon": 0.0, "lat": 38.88765433333333, "bike_id": "fb06b435d5683097c9bed98395abd1d5", "type": "electric_scooter", "is_reserved": 0, "lon": -76.977544}, {"fusion_lat": 0.0, "name": "c770f9ab7cadf4dd8fdfffef9b85150b", "is_disabled": 0, "rental_uris": {"android": "https://dc.lft.to/lastmile_qr_scan", "ios": "https://dc.lft.to/lastmile_qr_scan"}, "fusion_lon": 0.0, "lat": 38.892444833333336, "bike_id": "c770f9ab7cadf4dd8fdfffef9b85150b", "type": "electric_scooter", "is_reserved": 0, "lon": -77.03348866666667}, {"fusion_lat": 0.0, "name": "c4620d5c816e78478fd2f38cc2c42ff9", "is_disabled": 0, "rental_uris": {"android": "https://dc.lft.to/lastmile_qr_scan", "ios": "https://dc.lft.to/lastmile_qr_scan"}, "fusion_lon": 0.0, "lat": 38.854602166666666, "bike_id": "c4620d5c816e78478fd2f38cc2c42ff9", "type": "electric_scooter", "is_reserved": 0, "lon": -76.97234966666667}, {"fusion_lat": 0.0, "name": "37ab6f416ba66c1b621356f908580c8e", "is_disabled": 0, "rental_uris": {"android": "https://dc.lft.to/lastmile_qr_scan", "ios": "https://dc.lft.to/lastmile_qr_scan"}, "fusion_lon": 0.0, "lat": 38.936327166666665, "bike_id": "37ab6f416ba66c1b621356f908580c8e", "type": "electric_scooter", "is_reserved": 0, "lon": -77.036761}, {"fusion_lat": 0.0, "name": "ac963cdf07116fc42a902229d33de3f2", "is_disabled": 0, "rental_uris": {"android": "https://dc.lft.to/lastmile_qr_scan", "ios": "https://dc.lft.to/lastmile_qr_scan"}, "fusion_lon": 0.0, "lat": 38.905576833333335, "bike_id": "ac963cdf07116fc42a902229d33de3f2", "type": "electric_scooter", "is_reserved": 0, "lon": -77.03458516666667}, {"fusion_lat": 0.0, "name": "14b58a2ac37b70934e0a16ef0c1fcdb4", "is_disabled": 0, "rental_uris": {"android": "https://dc.lft.to/lastmile_qr_scan", "ios": "https://dc.lft.to/lastmile_qr_scan"}, "fusion_lon": 0.0, "lat": 38.879289, "bike_id": "14b58a2ac37b70934e0a16ef0c1fcdb4", "type": "electric_scooter", "is_reserved": 0, "lon": -77.008148}, {"fusion_lat": 0.0, "name": "65bf7a708957764750616b01e27058fc", "is_disabled": 0, "rental_uris": {"android": "https://dc.lft.to/lastmile_qr_scan", "ios": "https://dc.lft.to/lastmile_qr_scan"}, "fusion_lon": 0.0, "lat": 38.91704283333333, "bike_id": "65bf7a708957764750616b01e27058fc", "type": "electric_scooter", "is_reserved": 0, "lon": -77.0347345}, {"fusion_lat": 0.0, "name": "c77e1f32b4c1c241fe3075b23121dfb7", "is_disabled": 0, "rental_uris": {"android": "https://dc.lft.to/lastmile_qr_scan", "ios": "https://dc.lft.to/lastmile_qr_scan"}, "fusion_lon": 0.0, "lat": 38.927264666666666, "bike_id": "c77e1f32b4c1c241fe3075b23121dfb7", "type": "electric_scooter", "is_reserved": 0, "lon": -77.02305733333333}, {"fusion_lat": 0.0, "name": "f7eab7524ed65af8636677a150147f43", "is_disabled": 0, "rental_uris": {"android": "https://dc.lft.to/lastmile_qr_scan", "ios": "https://dc.lft.to/lastmile_qr_scan"}, "fusion_lon": 0.0, "lat": 38.892316666666666, "bike_id": "f7eab7524ed65af8636677a150147f43", "type": "electric_scooter", "is_reserved": 0, "lon": -77.01713133333334}, {"fusion_lat": 0.0, "name": "2c096254a051640a7606543065a772ba", "is_disabled": 0, "rental_uris": {"android": "https://dc.lft.to/lastmile_qr_scan", "ios": "https://dc.lft.to/lastmile_qr_scan"}, "fusion_lon": 0.0, "lat": 38.913284166666664, "bike_id": "2c096254a051640a7606543065a772ba", "type": "electric_scooter", "is_reserved": 0, "lon": -77.02143466666666}, {"fusion_lat": 0.0, "name": "9ba24cb68bb3c560545a4a512c6521cb", "is_disabled": 0, "rental_uris": {"android": "https://dc.lft.to/lastmile_qr_scan", "ios": "https://dc.lft.to/lastmile_qr_scan"}, "fusion_lon": 0.0, "lat": 38.91121566666666, "bike_id": "9ba24cb68bb3c560545a4a512c6521cb", "type": "electric_scooter", "is_reserved": 0, "lon": -77.02200933333333}, {"fusion_lat": 0.0, "name": "52feb54bfbef044c9a73e9e8ec6c7318", "is_disabled": 0, "rental_uris": {"android": "https://dc.lft.to/lastmile_qr_scan", "ios": "https://dc.lft.to/lastmile_qr_scan"}, "fusion_lon": 0.0, "lat": 38.897318, "bike_id": "52feb54bfbef044c9a73e9e8ec6c7318", "type": "electric_scooter", "is_reserved": 0, "lon": -77.02254483333333}, {"fusion_lat": 0.0, "name": "392aa9fa0dcc5cc511a0d1ff2aaba315", "is_disabled": 0, "rental_uris": {"android": "https://dc.lft.to/lastmile_qr_scan", "ios": "https://dc.lft.to/lastmile_qr_scan"}, "fusion_lon": 0.0, "lat": 38.90525566666667, "bike_id": "392aa9fa0dcc5cc511a0d1ff2aaba315", "type": "electric_scooter", "is_reserved": 0, "lon": -77.06784566666667}, {"fusion_lat": 0.0, "name": "4abaee1b7db76778b970968d77058b3e", "is_disabled": 0, "rental_uris": {"android": "https://dc.lft.to/lastmile_qr_scan", "ios": "https://dc.lft.to/lastmile_qr_scan"}, "fusion_lon": 0.0, "lat": 38.911123833333335, "bike_id": "4abaee1b7db76778b970968d77058b3e", "type": "electric_scooter", "is_reserved": 0, "lon": -76.99766983333333}, {"fusion_lat": 0.0, "name": "951619f8227b7d0b4cbe2dca2066d204", "is_disabled": 0, "rental_uris": {"android": "https://dc.lft.to/lastmile_qr_scan", "ios": "https://dc.lft.to/lastmile_qr_scan"}, "fusion_lon": 0.0, "lat": 38.922876333333335, "bike_id": "951619f8227b7d0b4cbe2dca2066d204", "type": "electric_scooter", "is_reserved": 0, "lon": -77.03662466666667}, {"fusion_lat": 0.0, "name": "abfc978c5ccfd12a04b45b23e43b9b50", "is_disabled": 0, "rental_uris": {"android": "https://dc.lft.to/lastmile_qr_scan", "ios": "https://dc.lft.to/lastmile_qr_scan"}, "fusion_lon": 0.0, "lat": 38.915938, "bike_id": "abfc978c5ccfd12a04b45b23e43b9b50", "type": "electric_scooter", "is_reserved": 0, "lon": -77.01114283333334}, {"fusion_lat": 0.0, "name": "2893bdb18a547d618bdcc2739d926dee", "is_disabled": 0, "rental_uris": {"android": "https://dc.lft.to/lastmile_qr_scan", "ios": "https://dc.lft.to/lastmile_qr_scan"}, "fusion_lon": 0.0, "lat": 38.884919833333335, "bike_id": "2893bdb18a547d618bdcc2739d926dee", "type": "electric_scooter", "is_reserved": 0, "lon": -77.01085666666667}, {"fusion_lat": 0.0, "name": "06a71b98a4f1a7e89a65eb62e6aa510d", "is_disabled": 0, "rental_uris": {"android": "https://dc.lft.to/lastmile_qr_scan", "ios": "https://dc.lft.to/lastmile_qr_scan"}, "fusion_lon": 0.0, "lat": 38.887312333333334, "bike_id": "06a71b98a4f1a7e89a65eb62e6aa510d", "type": "electric_scooter", "is_reserved": 0, "lon": -77.01745833333334}, {"fusion_lat": 0.0, "name": "9d04e44556c99ccfb99cd094bfde22d8", "is_disabled": 0, "rental_uris": {"android": "https://dc.lft.to/lastmile_qr_scan", "ios": "https://dc.lft.to/lastmile_qr_scan"}, "fusion_lon": 0.0, "lat": 38.9213605, "bike_id": "9d04e44556c99ccfb99cd094bfde22d8", "type": "electric_scooter", "is_reserved": 0, "lon": -77.0458015}, {"fusion_lat": 0.0, "name": "66db7085b555272b8bd469a85cbae10a", "is_disabled": 0, "rental_uris": {"android": "https://dc.lft.to/lastmile_qr_scan", "ios": "https://dc.lft.to/lastmile_qr_scan"}, "fusion_lon": 0.0, "lat": 38.888489, "bike_id": "66db7085b555272b8bd469a85cbae10a", "type": "electric_scooter", "is_reserved": 0, "lon": -76.92680316666667}, {"fusion_lat": 0.0, "name": "47464c8b3752617fd2a4dfded4c365a7", "is_disabled": 0, "rental_uris": {"android": "https://dc.lft.to/lastmile_qr_scan", "ios": "https://dc.lft.to/lastmile_qr_scan"}, "fusion_lon": 0.0, "lat": 38.929609666666664, "bike_id": "47464c8b3752617fd2a4dfded4c365a7", "type": "electric_scooter", "is_reserved": 0, "lon": -77.02013033333333}, {"fusion_lat": 0.0, "name": "8b50d5bc1ba6095bd18dbe0528dc4e33", "is_disabled": 0, "rental_uris": {"android": "https://dc.lft.to/lastmile_qr_scan", "ios": "https://dc.lft.to/lastmile_qr_scan"}, "fusion_lon": 0.0, "lat": 38.900278166666666, "bike_id": "8b50d5bc1ba6095bd18dbe0528dc4e33", "type": "electric_scooter", "is_reserved": 0, "lon": -77.00212133333333}, {"fusion_lat": 0.0, "name": "ab0587e6c9c05327bd11567e55d6c4c8", "is_disabled": 0, "rental_uris": {"android": "https://dc.lft.to/lastmile_qr_scan", "ios": "https://dc.lft.to/lastmile_qr_scan"}, "fusion_lon": 0.0, "lat": 38.909507166666664, "bike_id": "ab0587e6c9c05327bd11567e55d6c4c8", "type": "electric_scooter", "is_reserved": 0, "lon": -77.02385483333333}, {"fusion_lat": 0.0, "name": "c24f6be1f8a8de2b935eef3013b4049e", "is_disabled": 0, "rental_uris": {"android": "https://dc.lft.to/lastmile_qr_scan", "ios": "https://dc.lft.to/lastmile_qr_scan"}, "fusion_lon": 0.0, "lat": 38.88984633333333, "bike_id": "c24f6be1f8a8de2b935eef3013b4049e", "type": "electric_scooter", "is_reserved": 0, "lon": -76.9963905}, {"fusion_lat": 0.0, "name": "8592ab9eac940451ba48c46847ffc280", "is_disabled": 0, "rental_uris": {"android": "https://dc.lft.to/lastmile_qr_scan", "ios": "https://dc.lft.to/lastmile_qr_scan"}, "fusion_lon": 0.0, "lat": 38.909358833333336, "bike_id": "8592ab9eac940451ba48c46847ffc280", "type": "electric_scooter", "is_reserved": 0, "lon": -77.02125766666667}, {"fusion_lat": 0.0, "name": "596921bd4c21d3fbf82579786cba35e3", "is_disabled": 0, "rental_uris": {"android": "https://dc.lft.to/lastmile_qr_scan", "ios": "https://dc.lft.to/lastmile_qr_scan"}, "fusion_lon": 0.0, "lat": 38.905549666666666, "bike_id": "596921bd4c21d3fbf82579786cba35e3", "type": "electric_scooter", "is_reserved": 0, "lon": -77.0346075}, {"fusion_lat": 0.0, "name": "b68dc3b268312d0ab38ab24166614b74", "is_disabled": 0, "rental_uris": {"android": "https://dc.lft.to/lastmile_qr_scan", "ios": "https://dc.lft.to/lastmile_qr_scan"}, "fusion_lon": 0.0, "lat": 38.859062, "bike_id": "b68dc3b268312d0ab38ab24166614b74", "type": "electric_bike", "is_reserved": 0, "lon": -77.09544683333333}, {"fusion_lat": 0.0, "name": "b55093468c1db6bac0276b3cd27c0f67", "is_disabled": 0, "rental_uris": {"android": "https://dc.lft.to/lastmile_qr_scan", "ios": "https://dc.lft.to/lastmile_qr_scan"}, "fusion_lon": 0.0, "lat": 38.91736816666667, "bike_id": "b55093468c1db6bac0276b3cd27c0f67", "type": "electric_scooter", "is_reserved": 0, "lon": -77.048384}, {"fusion_lat": 0.0, "name": "5f92c7fb1532a32d655852d6b4126357", "is_disabled": 0, "rental_uris": {"android": "https://dc.lft.to/lastmile_qr_scan", "ios": "https://dc.lft.to/lastmile_qr_scan"}, "fusion_lon": 0.0, "lat": 38.913874666666665, "bike_id": "5f92c7fb1532a32d655852d6b4126357", "type": "electric_scooter", "is_reserved": 0, "lon": -77.03471116666667}, {"fusion_lat": 0.0, "name": "2ff441a4856d3590517e711cea375dd3", "is_disabled": 0, "rental_uris": {"android": "https://dc.lft.to/lastmile_qr_scan", "ios": "https://dc.lft.to/lastmile_qr_scan"}, "fusion_lon": 0.0, "lat": 38.89943516666666, "bike_id": "2ff441a4856d3590517e711cea375dd3", "type": "electric_scooter", "is_reserved": 0, "lon": -77.05360183333333}, {"fusion_lat": 0.0, "name": "f9f65a36d20e730b4375847517520d93", "is_disabled": 0, "rental_uris": {"android": "https://dc.lft.to/lastmile_qr_scan", "ios": "https://dc.lft.to/lastmile_qr_scan"}, "fusion_lon": 0.0, "lat": 38.88989316666667, "bike_id": "f9f65a36d20e730b4375847517520d93", "type": "electric_scooter", "is_reserved": 0, "lon": -76.9873815}, {"fusion_lat": 0.0, "name": "6be84c3a730259a4394d0dc21d6db874", "is_disabled": 0, "rental_uris": {"android": "https://dc.lft.to/lastmile_qr_scan", "ios": "https://dc.lft.to/lastmile_qr_scan"}, "fusion_lon": 0.0, "lat": 38.9204955, "bike_id": "6be84c3a730259a4394d0dc21d6db874", "type": "electric_scooter", "is_reserved": 0, "lon": -77.03390216666666}, {"fusion_lat": 0.0, "name": "ca58496a8087376c4eb6bfb50f3eb2ca", "is_disabled": 0, "rental_uris": {"android": "https://dc.lft.to/lastmile_qr_scan", "ios": "https://dc.lft.to/lastmile_qr_scan"}, "fusion_lon": 0.0, "lat": 38.93946316666667, "bike_id": "ca58496a8087376c4eb6bfb50f3eb2ca", "type": "electric_scooter", "is_reserved": 0, "lon": -77.03324966666666}, {"fusion_lat": 0.0, "name": "d001417de2d2b99424d04d75ddafb11a", "is_disabled": 0, "rental_uris": {"android": "https://dc.lft.to/lastmile_qr_scan", "ios": "https://dc.lft.to/lastmile_qr_scan"}, "fusion_lon": 0.0, "lat": 38.89911016666667, "bike_id": "d001417de2d2b99424d04d75ddafb11a", "type": "electric_scooter", "is_reserved": 0, "lon": -76.94589283333333}, {"fusion_lat": 0.0, "name": "81d3accfbe75863b51eed41852872660", "is_disabled": 0, "rental_uris": {"android": "https://dc.lft.to/lastmile_qr_scan", "ios": "https://dc.lft.to/lastmile_qr_scan"}, "fusion_lon": 0.0, "lat": 38.88732816666667, "bike_id": "81d3accfbe75863b51eed41852872660", "type": "electric_scooter", "is_reserved": 0, "lon": -76.9949455}, {"fusion_lat": 0.0, "name": "0f886e8a7acced8cb44512b5ea6d7858", "is_disabled": 0, "rental_uris": {"android": "https://dc.lft.to/lastmile_qr_scan", "ios": "https://dc.lft.to/lastmile_qr_scan"}, "fusion_lon": 0.0, "lat": 38.87577616666667, "bike_id": "0f886e8a7acced8cb44512b5ea6d7858", "type": "electric_bike", "is_reserved": 0, "lon": -77.23410533333333}, {"fusion_lat": 0.0, "name": "0837062386b0e823982c9573c42ff24c", "is_disabled": 0, "rental_uris": {"android": "https://dc.lft.to/lastmile_qr_scan", "ios": "https://dc.lft.to/lastmile_qr_scan"}, "fusion_lon": 0.0, "lat": 38.8852895, "bike_id": "0837062386b0e823982c9573c42ff24c", "type": "electric_scooter", "is_reserved": 0, "lon": -76.92913683333333}, {"fusion_lat": 0.0, "name": "3ce7a0882a8cbde1b2ba4d7933eb1dfd", "is_disabled": 0, "rental_uris": {"android": "https://dc.lft.to/lastmile_qr_scan", "ios": "https://dc.lft.to/lastmile_qr_scan"}, "fusion_lon": 0.0, "lat": 38.8991055, "bike_id": "3ce7a0882a8cbde1b2ba4d7933eb1dfd", "type": "electric_scooter", "is_reserved": 0, "lon": -76.9334875}, {"fusion_lat": 0.0, "name": "0ca5ee11a911820ef0f4a8c0fe27c84f", "is_disabled": 0, "rental_uris": {"android": "https://dc.lft.to/lastmile_qr_scan", "ios": "https://dc.lft.to/lastmile_qr_scan"}, "fusion_lon": 0.0, "lat": 38.8932445, "bike_id": "0ca5ee11a911820ef0f4a8c0fe27c84f", "type": "electric_scooter", "is_reserved": 0, "lon": -77.03967433333334}, {"fusion_lat": 0.0, "name": "10c91171a27ec8e98c20c688bd197d3b", "is_disabled": 0, "rental_uris": {"android": "https://dc.lft.to/lastmile_qr_scan", "ios": "https://dc.lft.to/lastmile_qr_scan"}, "fusion_lon": 0.0, "lat": 38.89994083333333, "bike_id": "10c91171a27ec8e98c20c688bd197d3b", "type": "electric_scooter", "is_reserved": 0, "lon": -77.016332}, {"fusion_lat": 0.0, "name": "48d05842d9211f25d89a2dfe0d180e3d", "is_disabled": 0, "rental_uris": {"android": "https://dc.lft.to/lastmile_qr_scan", "ios": "https://dc.lft.to/lastmile_qr_scan"}, "fusion_lon": 0.0, "lat": 38.9309285, "bike_id": "48d05842d9211f25d89a2dfe0d180e3d", "type": "electric_scooter", "is_reserved": 0, "lon": -77.02552466666667}, {"fusion_lat": 0.0, "name": "bec86deaf40cdb5a33ca2a6eb0bf7d13", "is_disabled": 0, "rental_uris": {"android": "https://dc.lft.to/lastmile_qr_scan", "ios": "https://dc.lft.to/lastmile_qr_scan"}, "fusion_lon": 0.0, "lat": 38.963155, "bike_id": "bec86deaf40cdb5a33ca2a6eb0bf7d13", "type": "electric_scooter", "is_reserved": 0, "lon": -77.07493116666667}, {"fusion_lat": 0.0, "name": "7d62c512f1a28d1a33305ce14d6a6488", "is_disabled": 0, "rental_uris": {"android": "https://dc.lft.to/lastmile_qr_scan", "ios": "https://dc.lft.to/lastmile_qr_scan"}, "fusion_lon": 0.0, "lat": 38.916217, "bike_id": "7d62c512f1a28d1a33305ce14d6a6488", "type": "electric_scooter", "is_reserved": 0, "lon": -77.0033095}, {"fusion_lat": 0.0, "name": "b5942e8b0acc6ad8f57381fcd8e5572c", "is_disabled": 0, "rental_uris": {"android": "https://dc.lft.to/lastmile_qr_scan", "ios": "https://dc.lft.to/lastmile_qr_scan"}, "fusion_lon": 0.0, "lat": 38.91842666666667, "bike_id": "b5942e8b0acc6ad8f57381fcd8e5572c", "type": "electric_scooter", "is_reserved": 0, "lon": -77.02430733333334}, {"fusion_lat": 0.0, "name": "0bab1b7382d1ba364d06dde9f580e082", "is_disabled": 0, "rental_uris": {"android": "https://dc.lft.to/lastmile_qr_scan", "ios": "https://dc.lft.to/lastmile_qr_scan"}, "fusion_lon": 0.0, "lat": 38.935317833333336, "bike_id": "0bab1b7382d1ba364d06dde9f580e082", "type": "electric_scooter", "is_reserved": 0, "lon": -77.023479}, {"fusion_lat": 0.0, "name": "8c0de23d74646f4b5fa209282b206607", "is_disabled": 0, "rental_uris": {"android": "https://dc.lft.to/lastmile_qr_scan", "ios": "https://dc.lft.to/lastmile_qr_scan"}, "fusion_lon": 0.0, "lat": 38.91994716666667, "bike_id": "8c0de23d74646f4b5fa209282b206607", "type": "electric_scooter", "is_reserved": 0, "lon": -77.03283383333333}, {"fusion_lat": 0.0, "name": "38a6bab8398189148f1013668841029d", "is_disabled": 0, "rental_uris": {"android": "https://dc.lft.to/lastmile_qr_scan", "ios": "https://dc.lft.to/lastmile_qr_scan"}, "fusion_lon": 0.0, "lat": 38.918540166666666, "bike_id": "38a6bab8398189148f1013668841029d", "type": "electric_scooter", "is_reserved": 0, "lon": -77.04585116666667}, {"fusion_lat": 0.0, "name": "eaf81afc444b5d04fb0de520b6254df8", "is_disabled": 0, "rental_uris": {"android": "https://dc.lft.to/lastmile_qr_scan", "ios": "https://dc.lft.to/lastmile_qr_scan"}, "fusion_lon": 0.0, "lat": 38.949771, "bike_id": "eaf81afc444b5d04fb0de520b6254df8", "type": "electric_scooter", "is_reserved": 0, "lon": -77.026993}, {"fusion_lat": 0.0, "name": "fd1a2a5bba6ece06fea5d2a381ffeea0", "is_disabled": 0, "rental_uris": {"android": "https://dc.lft.to/lastmile_qr_scan", "ios": "https://dc.lft.to/lastmile_qr_scan"}, "fusion_lon": 0.0, "lat": 38.90168966666667, "bike_id": "fd1a2a5bba6ece06fea5d2a381ffeea0", "type": "electric_scooter", "is_reserved": 0, "lon": -77.02490333333333}, {"fusion_lat": 0.0, "name": "0d3ce39ed2711a7c4353fcd4400db601", "is_disabled": 0, "rental_uris": {"android": "https://dc.lft.to/lastmile_qr_scan", "ios": "https://dc.lft.to/lastmile_qr_scan"}, "fusion_lon": 0.0, "lat": 38.92057, "bike_id": "0d3ce39ed2711a7c4353fcd4400db601", "type": "electric_scooter", "is_reserved": 0, "lon": -77.02362716666667}, {"fusion_lat": 0.0, "name": "eb598d505f58694f2ec70ff9360d43e8", "is_disabled": 0, "rental_uris": {"android": "https://dc.lft.to/lastmile_qr_scan", "ios": "https://dc.lft.to/lastmile_qr_scan"}, "fusion_lon": 0.0, "lat": 38.898509833333335, "bike_id": "eb598d505f58694f2ec70ff9360d43e8", "type": "electric_scooter", "is_reserved": 0, "lon": -77.02709983333334}, {"fusion_lat": 0.0, "name": "f0e616ce1e51adabd26a6d7cb3e9a150", "is_disabled": 0, "rental_uris": {"android": "https://dc.lft.to/lastmile_qr_scan", "ios": "https://dc.lft.to/lastmile_qr_scan"}, "fusion_lon": 0.0, "lat": 38.9117285, "bike_id": "f0e616ce1e51adabd26a6d7cb3e9a150", "type": "electric_scooter", "is_reserved": 0, "lon": -77.06869816666666}, {"fusion_lat": 0.0, "name": "a96e6d14afd059388d27e920b01f2629", "is_disabled": 0, "rental_uris": {"android": "https://dc.lft.to/lastmile_qr_scan", "ios": "https://dc.lft.to/lastmile_qr_scan"}, "fusion_lon": 0.0, "lat": 38.94227, "bike_id": "a96e6d14afd059388d27e920b01f2629", "type": "electric_scooter", "is_reserved": 0, "lon": -77.01417166666667}, {"fusion_lat": 0.0, "name": "8323efdab67b383f6da4b1ac3134d9e7", "is_disabled": 0, "rental_uris": {"android": "https://dc.lft.to/lastmile_qr_scan", "ios": "https://dc.lft.to/lastmile_qr_scan"}, "fusion_lon": 0.0, "lat": 38.8613655, "bike_id": "8323efdab67b383f6da4b1ac3134d9e7", "type": "electric_bike", "is_reserved": 0, "lon": -76.97168916666666}, {"fusion_lat": 0.0, "name": "9374486243db107c639f6eed2c91e983", "is_disabled": 0, "rental_uris": {"android": "https://dc.lft.to/lastmile_qr_scan", "ios": "https://dc.lft.to/lastmile_qr_scan"}, "fusion_lon": 0.0, "lat": 38.934628333333336, "bike_id": "9374486243db107c639f6eed2c91e983", "type": "electric_scooter", "is_reserved": 0, "lon": -77.02246283333334}, {"fusion_lat": 0.0, "name": "0c67671677f4c9682acfb32fb9fab9c1", "is_disabled": 0, "rental_uris": {"android": "https://dc.lft.to/lastmile_qr_scan", "ios": "https://dc.lft.to/lastmile_qr_scan"}, "fusion_lon": 0.0, "lat": 38.8924915, "bike_id": "0c67671677f4c9682acfb32fb9fab9c1", "type": "electric_scooter", "is_reserved": 0, "lon": -77.0396255}, {"fusion_lat": 0.0, "name": "c722cb26d3909ed13f905b1984921b24", "is_disabled": 0, "rental_uris": {"android": "https://dc.lft.to/lastmile_qr_scan", "ios": "https://dc.lft.to/lastmile_qr_scan"}, "fusion_lon": 0.0, "lat": 38.904528166666665, "bike_id": "c722cb26d3909ed13f905b1984921b24", "type": "electric_scooter", "is_reserved": 0, "lon": -76.98261033333333}, {"fusion_lat": 0.0, "name": "2cd769ad9dff7149a746894f571bf99c", "is_disabled": 0, "rental_uris": {"android": "https://dc.lft.to/lastmile_qr_scan", "ios": "https://dc.lft.to/lastmile_qr_scan"}, "fusion_lon": 0.0, "lat": 38.926984166666664, "bike_id": "2cd769ad9dff7149a746894f571bf99c", "type": "electric_scooter", "is_reserved": 0, "lon": -77.02130683333333}, {"fusion_lat": 0.0, "name": "68af2118a7794b6464a2ff78207970bc", "is_disabled": 0, "rental_uris": {"android": "https://dc.lft.to/lastmile_qr_scan", "ios": "https://dc.lft.to/lastmile_qr_scan"}, "fusion_lon": 0.0, "lat": 38.89309433333333, "bike_id": "68af2118a7794b6464a2ff78207970bc", "type": "electric_scooter", "is_reserved": 0, "lon": -77.05594033333334}, {"fusion_lat": 0.0, "name": "ce06c6fa46de9ba5a4a28044353f0771", "is_disabled": 0, "rental_uris": {"android": "https://dc.lft.to/lastmile_qr_scan", "ios": "https://dc.lft.to/lastmile_qr_scan"}, "fusion_lon": 0.0, "lat": 38.9112405, "bike_id": "ce06c6fa46de9ba5a4a28044353f0771", "type": "electric_scooter", "is_reserved": 0, "lon": -77.022}, {"fusion_lat": 0.0, "name": "322c0290611c6051b9118de86f5d2f3c", "is_disabled": 0, "rental_uris": {"android": "https://dc.lft.to/lastmile_qr_scan", "ios": "https://dc.lft.to/lastmile_qr_scan"}, "fusion_lon": 0.0, "lat": 38.900374166666666, "bike_id": "322c0290611c6051b9118de86f5d2f3c", "type": "electric_scooter", "is_reserved": 0, "lon": -76.98552816666667}, {"fusion_lat": 0.0, "name": "022b19a959ab8e945ff0232b456ad787", "is_disabled": 0, "rental_uris": {"android": "https://dc.lft.to/lastmile_qr_scan", "ios": "https://dc.lft.to/lastmile_qr_scan"}, "fusion_lon": 0.0, "lat": 38.87968466666667, "bike_id": "022b19a959ab8e945ff0232b456ad787", "type": "electric_bike", "is_reserved": 0, "lon": -76.91619466666667}, {"fusion_lat": 0.0, "name": "e4140f73cdbcc262bf04c2f8eaac05e4", "is_disabled": 0, "rental_uris": {"android": "https://dc.lft.to/lastmile_qr_scan", "ios": "https://dc.lft.to/lastmile_qr_scan"}, "fusion_lon": 0.0, "lat": 38.9341615, "bike_id": "e4140f73cdbcc262bf04c2f8eaac05e4", "type": "electric_scooter", "is_reserved": 0, "lon": -77.0428455}, {"fusion_lat": 0.0, "name": "c3d1d05181c109d328c73c3f00e87d0e", "is_disabled": 0, "rental_uris": {"android": "https://dc.lft.to/lastmile_qr_scan", "ios": "https://dc.lft.to/lastmile_qr_scan"}, "fusion_lon": 0.0, "lat": 38.897104666666664, "bike_id": "c3d1d05181c109d328c73c3f00e87d0e", "type": "electric_scooter", "is_reserved": 0, "lon": -77.019933}, {"fusion_lat": 0.0, "name": "7b8be968e8ced80d7f212e81678577e1", "is_disabled": 0, "rental_uris": {"android": "https://dc.lft.to/lastmile_qr_scan", "ios": "https://dc.lft.to/lastmile_qr_scan"}, "fusion_lon": 0.0, "lat": 38.8971405, "bike_id": "7b8be968e8ced80d7f212e81678577e1", "type": "electric_scooter", "is_reserved": 0, "lon": -77.02159833333333}, {"fusion_lat": 0.0, "name": "cb59e3c23094aac151b7b05323554a3b", "is_disabled": 0, "rental_uris": {"android": "https://dc.lft.to/lastmile_qr_scan", "ios": "https://dc.lft.to/lastmile_qr_scan"}, "fusion_lon": 0.0, "lat": 38.924207, "bike_id": "cb59e3c23094aac151b7b05323554a3b", "type": "electric_scooter", "is_reserved": 0, "lon": -77.01958033333334}, {"fusion_lat": 0.0, "name": "899b6fa6c3b0874a2a9a48c1a40a34fd", "is_disabled": 0, "rental_uris": {"android": "https://dc.lft.to/lastmile_qr_scan", "ios": "https://dc.lft.to/lastmile_qr_scan"}, "fusion_lon": 0.0, "lat": 38.913312166666664, "bike_id": "899b6fa6c3b0874a2a9a48c1a40a34fd", "type": "electric_scooter", "is_reserved": 0, "lon": -77.02138183333334}, {"fusion_lat": 0.0, "name": "d40749c61fe0dd719a4e270953cd6ff6", "is_disabled": 0, "rental_uris": {"android": "https://dc.lft.to/lastmile_qr_scan", "ios": "https://dc.lft.to/lastmile_qr_scan"}, "fusion_lon": 0.0, "lat": 38.93876933333333, "bike_id": "d40749c61fe0dd719a4e270953cd6ff6", "type": "electric_scooter", "is_reserved": 0, "lon": -77.02463366666667}, {"fusion_lat": 0.0, "name": "b008abcd178dd527ae6e4ac0a5369228", "is_disabled": 0, "rental_uris": {"android": "https://dc.lft.to/lastmile_qr_scan", "ios": "https://dc.lft.to/lastmile_qr_scan"}, "fusion_lon": 0.0, "lat": 38.915605166666666, "bike_id": "b008abcd178dd527ae6e4ac0a5369228", "type": "electric_scooter", "is_reserved": 0, "lon": -77.03164583333333}, {"fusion_lat": 0.0, "name": "1cb82ed389643b6885445392344e86f7", "is_disabled": 0, "rental_uris": {"android": "https://dc.lft.to/lastmile_qr_scan", "ios": "https://dc.lft.to/lastmile_qr_scan"}, "fusion_lon": 0.0, "lat": 38.933668, "bike_id": "1cb82ed389643b6885445392344e86f7", "type": "electric_scooter", "is_reserved": 0, "lon": -77.02441916666666}, {"fusion_lat": 0.0, "name": "f3cf8436870297ff9ea7d780fef7a1fc", "is_disabled": 0, "rental_uris": {"android": "https://dc.lft.to/lastmile_qr_scan", "ios": "https://dc.lft.to/lastmile_qr_scan"}, "fusion_lon": 0.0, "lat": 38.9620445, "bike_id": "f3cf8436870297ff9ea7d780fef7a1fc", "type": "electric_bike", "is_reserved": 0, "lon": -77.0278405}, {"fusion_lat": 0.0, "name": "e4aa1a52edaab17b94877b1f81ee7645", "is_disabled": 0, "rental_uris": {"android": "https://dc.lft.to/lastmile_qr_scan", "ios": "https://dc.lft.to/lastmile_qr_scan"}, "fusion_lon": 0.0, "lat": 38.96223716666667, "bike_id": "e4aa1a52edaab17b94877b1f81ee7645", "type": "electric_bike", "is_reserved": 0, "lon": -77.02628566666667}, {"fusion_lat": 0.0, "name": "d4c776a27fcc840a0f3a5d3298b218e8", "is_disabled": 0, "rental_uris": {"android": "https://dc.lft.to/lastmile_qr_scan", "ios": "https://dc.lft.to/lastmile_qr_scan"}, "fusion_lon": 0.0, "lat": 38.89728366666667, "bike_id": "d4c776a27fcc840a0f3a5d3298b218e8", "type": "electric_scooter", "is_reserved": 0, "lon": -76.99518016666667}, {"fusion_lat": 0.0, "name": "d85fbd774859284b297da5f10a5fed84", "is_disabled": 0, "rental_uris": {"android": "https://dc.lft.to/lastmile_qr_scan", "ios": "https://dc.lft.to/lastmile_qr_scan"}, "fusion_lon": 0.0, "lat": 38.92073216666667, "bike_id": "d85fbd774859284b297da5f10a5fed84", "type": "electric_scooter", "is_reserved": 0, "lon": -77.023904}, {"fusion_lat": 0.0, "name": "30570bbdfba42d9ae332ca49ac229ead", "is_disabled": 0, "rental_uris": {"android": "https://dc.lft.to/lastmile_qr_scan", "ios": "https://dc.lft.to/lastmile_qr_scan"}, "fusion_lon": 0.0, "lat": 38.925809666666666, "bike_id": "30570bbdfba42d9ae332ca49ac229ead", "type": "electric_scooter", "is_reserved": 0, "lon": -77.02764433333333}, {"fusion_lat": 0.0, "name": "ebcb55f5569051fefa18a17cb30e22ad", "is_disabled": 0, "rental_uris": {"android": "https://dc.lft.to/lastmile_qr_scan", "ios": "https://dc.lft.to/lastmile_qr_scan"}, "fusion_lon": 0.0, "lat": 38.88443933333333, "bike_id": "ebcb55f5569051fefa18a17cb30e22ad", "type": "electric_scooter", "is_reserved": 0, "lon": -76.98591783333333}, {"fusion_lat": 0.0, "name": "2ec556c46b26838901e2bcb71cff9e96", "is_disabled": 0, "rental_uris": {"android": "https://dc.lft.to/lastmile_qr_scan", "ios": "https://dc.lft.to/lastmile_qr_scan"}, "fusion_lon": 0.0, "lat": 38.922579999999996, "bike_id": "2ec556c46b26838901e2bcb71cff9e96", "type": "electric_scooter", "is_reserved": 0, "lon": -77.03523683333333}, {"fusion_lat": 0.0, "name": "3368289d1b159b7a1d45ce5f0af646de", "is_disabled": 0, "rental_uris": {"android": "https://dc.lft.to/lastmile_qr_scan", "ios": "https://dc.lft.to/lastmile_qr_scan"}, "fusion_lon": 0.0, "lat": 38.8987615, "bike_id": "3368289d1b159b7a1d45ce5f0af646de", "type": "electric_scooter", "is_reserved": 0, "lon": -76.93192}, {"fusion_lat": 0.0, "name": "d86179c4da87c7809d1a920a05d635d4", "is_disabled": 0, "rental_uris": {"android": "https://dc.lft.to/lastmile_qr_scan", "ios": "https://dc.lft.to/lastmile_qr_scan"}, "fusion_lon": 0.0, "lat": 38.87815483333333, "bike_id": "d86179c4da87c7809d1a920a05d635d4", "type": "electric_scooter", "is_reserved": 0, "lon": -77.01317633333333}, {"fusion_lat": 0.0, "name": "5d0654505819d9888c62a6b1b3c6a273", "is_disabled": 0, "rental_uris": {"android": "https://dc.lft.to/lastmile_qr_scan", "ios": "https://dc.lft.to/lastmile_qr_scan"}, "fusion_lon": 0.0, "lat": 38.9336015, "bike_id": "5d0654505819d9888c62a6b1b3c6a273", "type": "electric_scooter", "is_reserved": 0, "lon": -77.0243795}, {"fusion_lat": 0.0, "name": "ae109a85593947c4c5b2ace5e0c93cd9", "is_disabled": 0, "rental_uris": {"android": "https://dc.lft.to/lastmile_qr_scan", "ios": "https://dc.lft.to/lastmile_qr_scan"}, "fusion_lon": 0.0, "lat": 38.932908, "bike_id": "ae109a85593947c4c5b2ace5e0c93cd9", "type": "electric_scooter", "is_reserved": 0, "lon": -77.02796583333334}, {"fusion_lat": 0.0, "name": "a8f077f7658a220540698d6e4bd1396a", "is_disabled": 0, "rental_uris": {"android": "https://dc.lft.to/lastmile_qr_scan", "ios": "https://dc.lft.to/lastmile_qr_scan"}, "fusion_lon": 0.0, "lat": 38.8823175, "bike_id": "a8f077f7658a220540698d6e4bd1396a", "type": "electric_scooter", "is_reserved": 0, "lon": -77.02623716666666}, {"fusion_lat": 0.0, "name": "8a7966ea304da9bc5a1cfa8fe56eb618", "is_disabled": 0, "rental_uris": {"android": "https://dc.lft.to/lastmile_qr_scan", "ios": "https://dc.lft.to/lastmile_qr_scan"}, "fusion_lon": 0.0, "lat": 38.91708766666667, "bike_id": "8a7966ea304da9bc5a1cfa8fe56eb618", "type": "electric_scooter", "is_reserved": 0, "lon": -77.03865783333333}, {"fusion_lat": 0.0, "name": "048e38653185888891b090c2ed6ba406", "is_disabled": 0, "rental_uris": {"android": "https://dc.lft.to/lastmile_qr_scan", "ios": "https://dc.lft.to/lastmile_qr_scan"}, "fusion_lon": 0.0, "lat": 38.91429216666667, "bike_id": "048e38653185888891b090c2ed6ba406", "type": "electric_scooter", "is_reserved": 0, "lon": -77.06424666666666}, {"fusion_lat": 0.0, "name": "399e72db07f6b931d607f9a7e9e68a44", "is_disabled": 0, "rental_uris": {"android": "https://dc.lft.to/lastmile_qr_scan", "ios": "https://dc.lft.to/lastmile_qr_scan"}, "fusion_lon": 0.0, "lat": 38.929110666666666, "bike_id": "399e72db07f6b931d607f9a7e9e68a44", "type": "electric_scooter", "is_reserved": 0, "lon": -77.03743783333333}, {"fusion_lat": 0.0, "name": "dd7412b671352bf63a324fcbae7c1655", "is_disabled": 0, "rental_uris": {"android": "https://dc.lft.to/lastmile_qr_scan", "ios": "https://dc.lft.to/lastmile_qr_scan"}, "fusion_lon": 0.0, "lat": 38.920348833333335, "bike_id": "dd7412b671352bf63a324fcbae7c1655", "type": "electric_scooter", "is_reserved": 0, "lon": -77.01766016666667}, {"fusion_lat": 0.0, "name": "47ff5bd129cbf7b25f921410d925fc1f", "is_disabled": 0, "rental_uris": {"android": "https://dc.lft.to/lastmile_qr_scan", "ios": "https://dc.lft.to/lastmile_qr_scan"}, "fusion_lon": 0.0, "lat": 39.03428, "bike_id": "47ff5bd129cbf7b25f921410d925fc1f", "type": "electric_bike", "is_reserved": 0, "lon": -77.04305133333334}, {"fusion_lat": 0.0, "name": "ebfabf49494ec85ea6c2a33c17c51063", "is_disabled": 0, "rental_uris": {"android": "https://dc.lft.to/lastmile_qr_scan", "ios": "https://dc.lft.to/lastmile_qr_scan"}, "fusion_lon": 0.0, "lat": 38.938617, "bike_id": "ebfabf49494ec85ea6c2a33c17c51063", "type": "electric_scooter", "is_reserved": 0, "lon": -77.03209833333334}, {"fusion_lat": 0.0, "name": "3cf0a9d98814b3d86a20d69d27ca60bc", "is_disabled": 0, "rental_uris": {"android": "https://dc.lft.to/lastmile_qr_scan", "ios": "https://dc.lft.to/lastmile_qr_scan"}, "fusion_lon": 0.0, "lat": 38.900423833333335, "bike_id": "3cf0a9d98814b3d86a20d69d27ca60bc", "type": "electric_scooter", "is_reserved": 0, "lon": -77.04476033333333}, {"fusion_lat": 0.0, "name": "af43a38e272673f52d7b648eca784660", "is_disabled": 0, "rental_uris": {"android": "https://dc.lft.to/lastmile_qr_scan", "ios": "https://dc.lft.to/lastmile_qr_scan"}, "fusion_lon": 0.0, "lat": 38.8782645, "bike_id": "af43a38e272673f52d7b648eca784660", "type": "electric_scooter", "is_reserved": 0, "lon": -76.99023733333334}, {"fusion_lat": 0.0, "name": "5a2942b6111dfed5265ed54dc63a5a82", "is_disabled": 0, "rental_uris": {"android": "https://dc.lft.to/lastmile_qr_scan", "ios": "https://dc.lft.to/lastmile_qr_scan"}, "fusion_lon": 0.0, "lat": 38.930166, "bike_id": "5a2942b6111dfed5265ed54dc63a5a82", "type": "electric_scooter", "is_reserved": 0, "lon": -77.02087116666667}, {"fusion_lat": 0.0, "name": "902fa2f246c994c4daa2fd57fc2bc7a9", "is_disabled": 0, "rental_uris": {"android": "https://dc.lft.to/lastmile_qr_scan", "ios": "https://dc.lft.to/lastmile_qr_scan"}, "fusion_lon": 0.0, "lat": 38.900218833333334, "bike_id": "902fa2f246c994c4daa2fd57fc2bc7a9", "type": "electric_scooter", "is_reserved": 0, "lon": -76.99759233333333}, {"fusion_lat": 0.0, "name": "21b384f36e27d63c044d3ee623a932ba", "is_disabled": 0, "rental_uris": {"android": "https://dc.lft.to/lastmile_qr_scan", "ios": "https://dc.lft.to/lastmile_qr_scan"}, "fusion_lon": 0.0, "lat": 38.918002666666666, "bike_id": "21b384f36e27d63c044d3ee623a932ba", "type": "electric_scooter", "is_reserved": 0, "lon": -77.02704216666666}, {"fusion_lat": 0.0, "name": "42e46d5eeb00ddb68af1efc79a8299b3", "is_disabled": 0, "rental_uris": {"android": "https://dc.lft.to/lastmile_qr_scan", "ios": "https://dc.lft.to/lastmile_qr_scan"}, "fusion_lon": 0.0, "lat": 38.92482033333334, "bike_id": "42e46d5eeb00ddb68af1efc79a8299b3", "type": "electric_scooter", "is_reserved": 0, "lon": -77.027166}, {"fusion_lat": 0.0, "name": "4cff0afdadbc6a70861f05ef42965de0", "is_disabled": 0, "rental_uris": {"android": "https://dc.lft.to/lastmile_qr_scan", "ios": "https://dc.lft.to/lastmile_qr_scan"}, "fusion_lon": 0.0, "lat": 38.9097945, "bike_id": "4cff0afdadbc6a70861f05ef42965de0", "type": "electric_scooter", "is_reserved": 0, "lon": -77.04737416666667}, {"fusion_lat": 0.0, "name": "d8b1b9cfe71caedd326a786dbcc07b4f", "is_disabled": 0, "rental_uris": {"android": "https://dc.lft.to/lastmile_qr_scan", "ios": "https://dc.lft.to/lastmile_qr_scan"}, "fusion_lon": 0.0, "lat": 38.853599833333334, "bike_id": "d8b1b9cfe71caedd326a786dbcc07b4f", "type": "electric_bike", "is_reserved": 0, "lon": -77.11483}, {"fusion_lat": 0.0, "name": "5466925b0906a5ae894dc7d55103adca", "is_disabled": 0, "rental_uris": {"android": "https://dc.lft.to/lastmile_qr_scan", "ios": "https://dc.lft.to/lastmile_qr_scan"}, "fusion_lon": 0.0, "lat": 38.900021333333335, "bike_id": "5466925b0906a5ae894dc7d55103adca", "type": "electric_scooter", "is_reserved": 0, "lon": -76.99839683333333}, {"fusion_lat": 0.0, "name": "f5a6aae7bab207aebbdc954d2abf5672", "is_disabled": 0, "rental_uris": {"android": "https://dc.lft.to/lastmile_qr_scan", "ios": "https://dc.lft.to/lastmile_qr_scan"}, "fusion_lon": 0.0, "lat": 38.907345166666666, "bike_id": "f5a6aae7bab207aebbdc954d2abf5672", "type": "electric_scooter", "is_reserved": 0, "lon": -77.02609416666667}, {"fusion_lat": 0.0, "name": "b1221df0a5acac0c4edc76935486451e", "is_disabled": 0, "rental_uris": {"android": "https://dc.lft.to/lastmile_qr_scan", "ios": "https://dc.lft.to/lastmile_qr_scan"}, "fusion_lon": 0.0, "lat": 38.92752383333333, "bike_id": "b1221df0a5acac0c4edc76935486451e", "type": "electric_scooter", "is_reserved": 0, "lon": -77.03290816666667}, {"fusion_lat": 0.0, "name": "a38749aa6474ae75b2d94d9708a9bb33", "is_disabled": 0, "rental_uris": {"android": "https://dc.lft.to/lastmile_qr_scan", "ios": "https://dc.lft.to/lastmile_qr_scan"}, "fusion_lon": 0.0, "lat": 38.94201833333333, "bike_id": "a38749aa6474ae75b2d94d9708a9bb33", "type": "electric_scooter", "is_reserved": 0, "lon": -77.025909}, {"fusion_lat": 0.0, "name": "b63e9682718bb9bbcbee62041963a66b", "is_disabled": 0, "rental_uris": {"android": "https://dc.lft.to/lastmile_qr_scan", "ios": "https://dc.lft.to/lastmile_qr_scan"}, "fusion_lon": 0.0, "lat": 38.956339666666665, "bike_id": "b63e9682718bb9bbcbee62041963a66b", "type": "electric_scooter", "is_reserved": 0, "lon": -77.03306666666667}, {"fusion_lat": 0.0, "name": "fd4b78d4ecc6418076c1454029988431", "is_disabled": 0, "rental_uris": {"android": "https://dc.lft.to/lastmile_qr_scan", "ios": "https://dc.lft.to/lastmile_qr_scan"}, "fusion_lon": 0.0, "lat": 38.863325333333336, "bike_id": "fd4b78d4ecc6418076c1454029988431", "type": "electric_bike", "is_reserved": 0, "lon": -76.98724466666667}, {"fusion_lat": 0.0, "name": "4393a1751bf92af32918d5189e3f14ec", "is_disabled": 0, "rental_uris": {"android": "https://dc.lft.to/lastmile_qr_scan", "ios": "https://dc.lft.to/lastmile_qr_scan"}, "fusion_lon": 0.0, "lat": 38.927675, "bike_id": "4393a1751bf92af32918d5189e3f14ec", "type": "electric_scooter", "is_reserved": 0, "lon": -77.02879}, {"fusion_lat": 0.0, "name": "e03706d28fc53d200166c34752a5948f", "is_disabled": 0, "rental_uris": {"android": "https://dc.lft.to/lastmile_qr_scan", "ios": "https://dc.lft.to/lastmile_qr_scan"}, "fusion_lon": 0.0, "lat": 38.892244833333336, "bike_id": "e03706d28fc53d200166c34752a5948f", "type": "electric_scooter", "is_reserved": 0, "lon": -77.0450505}, {"fusion_lat": 0.0, "name": "b69166841a0839e3b56fad81f6ab3f2d", "is_disabled": 0, "rental_uris": {"android": "https://dc.lft.to/lastmile_qr_scan", "ios": "https://dc.lft.to/lastmile_qr_scan"}, "fusion_lon": 0.0, "lat": 38.896057, "bike_id": "b69166841a0839e3b56fad81f6ab3f2d", "type": "electric_scooter", "is_reserved": 0, "lon": -77.03170266666666}, {"fusion_lat": 0.0, "name": "f499375dde0aeb918a0e7afdbdefcdb7", "is_disabled": 0, "rental_uris": {"android": "https://dc.lft.to/lastmile_qr_scan", "ios": "https://dc.lft.to/lastmile_qr_scan"}, "fusion_lon": 0.0, "lat": 38.897365666666666, "bike_id": "f499375dde0aeb918a0e7afdbdefcdb7", "type": "electric_scooter", "is_reserved": 0, "lon": -77.02726516666667}, {"fusion_lat": 0.0, "name": "055fa9d01af7a79c060e2d4e5820ec82", "is_disabled": 0, "rental_uris": {"android": "https://dc.lft.to/lastmile_qr_scan", "ios": "https://dc.lft.to/lastmile_qr_scan"}, "fusion_lon": 0.0, "lat": 38.84506866666667, "bike_id": "055fa9d01af7a79c060e2d4e5820ec82", "type": "electric_bike", "is_reserved": 0, "lon": -76.99351933333334}, {"fusion_lat": 0.0, "name": "4308fb376a9e5d658d547cf34d95c180", "is_disabled": 0, "rental_uris": {"android": "https://dc.lft.to/lastmile_qr_scan", "ios": "https://dc.lft.to/lastmile_qr_scan"}, "fusion_lon": 0.0, "lat": 38.9022215, "bike_id": "4308fb376a9e5d658d547cf34d95c180", "type": "electric_scooter", "is_reserved": 0, "lon": -77.04417583333333}, {"fusion_lat": 0.0, "name": "ebb13e086bf07362f0771b9f16903883", "is_disabled": 0, "rental_uris": {"android": "https://dc.lft.to/lastmile_qr_scan", "ios": "https://dc.lft.to/lastmile_qr_scan"}, "fusion_lon": 0.0, "lat": 38.93117866666667, "bike_id": "ebb13e086bf07362f0771b9f16903883", "type": "electric_scooter", "is_reserved": 0, "lon": -77.02980883333333}, {"fusion_lat": 0.0, "name": "8736599b1be9ad904f02c9643de0e599", "is_disabled": 0, "rental_uris": {"android": "https://dc.lft.to/lastmile_qr_scan", "ios": "https://dc.lft.to/lastmile_qr_scan"}, "fusion_lon": 0.0, "lat": 38.90015483333333, "bike_id": "8736599b1be9ad904f02c9643de0e599", "type": "electric_scooter", "is_reserved": 0, "lon": -76.99583466666667}, {"fusion_lat": 0.0, "name": "6c234fc332d70abfd66a757d11092d62", "is_disabled": 0, "rental_uris": {"android": "https://dc.lft.to/lastmile_qr_scan", "ios": "https://dc.lft.to/lastmile_qr_scan"}, "fusion_lon": 0.0, "lat": 38.90507933333333, "bike_id": "6c234fc332d70abfd66a757d11092d62", "type": "electric_scooter", "is_reserved": 0, "lon": -77.02941066666666}, {"fusion_lat": 0.0, "name": "5b836993b41a3dcdedbfbe592b03a00d", "is_disabled": 0, "rental_uris": {"android": "https://dc.lft.to/lastmile_qr_scan", "ios": "https://dc.lft.to/lastmile_qr_scan"}, "fusion_lon": 0.0, "lat": 38.960701666666665, "bike_id": "5b836993b41a3dcdedbfbe592b03a00d", "type": "electric_scooter", "is_reserved": 0, "lon": -77.00099116666667}, {"fusion_lat": 0.0, "name": "e9f41a60014df7505119d83cc0bdfea9", "is_disabled": 0, "rental_uris": {"android": "https://dc.lft.to/lastmile_qr_scan", "ios": "https://dc.lft.to/lastmile_qr_scan"}, "fusion_lon": 0.0, "lat": 38.909572, "bike_id": "e9f41a60014df7505119d83cc0bdfea9", "type": "electric_scooter", "is_reserved": 0, "lon": -77.04873166666667}, {"fusion_lat": 0.0, "name": "6df5520beb7345dcea81f49350b8ad8c", "is_disabled": 0, "rental_uris": {"android": "https://dc.lft.to/lastmile_qr_scan", "ios": "https://dc.lft.to/lastmile_qr_scan"}, "fusion_lon": 0.0, "lat": 38.9103475, "bike_id": "6df5520beb7345dcea81f49350b8ad8c", "type": "electric_scooter", "is_reserved": 0, "lon": -77.0128865}, {"fusion_lat": 0.0, "name": "2e37fe396fe0563dddebe3bb85795519", "is_disabled": 0, "rental_uris": {"android": "https://dc.lft.to/lastmile_qr_scan", "ios": "https://dc.lft.to/lastmile_qr_scan"}, "fusion_lon": 0.0, "lat": 38.892200833333334, "bike_id": "2e37fe396fe0563dddebe3bb85795519", "type": "electric_scooter", "is_reserved": 0, "lon": -77.03219}, {"fusion_lat": 0.0, "name": "de239e6a8ef3a98a14067b86bc16b022", "is_disabled": 0, "rental_uris": {"android": "https://dc.lft.to/lastmile_qr_scan", "ios": "https://dc.lft.to/lastmile_qr_scan"}, "fusion_lon": 0.0, "lat": 38.9045105, "bike_id": "de239e6a8ef3a98a14067b86bc16b022", "type": "electric_bike", "is_reserved": 0, "lon": -76.97423966666666}, {"fusion_lat": 0.0, "name": "a18b130f9dbbc66ac8c3155b6dad2979", "is_disabled": 0, "rental_uris": {"android": "https://dc.lft.to/lastmile_qr_scan", "ios": "https://dc.lft.to/lastmile_qr_scan"}, "fusion_lon": 0.0, "lat": 38.855644166666664, "bike_id": "a18b130f9dbbc66ac8c3155b6dad2979", "type": "electric_bike", "is_reserved": 0, "lon": -77.113164}, {"fusion_lat": 0.0, "name": "903ffe73246aa3c2ca8186bdafd7ddb6", "is_disabled": 0, "rental_uris": {"android": "https://dc.lft.to/lastmile_qr_scan", "ios": "https://dc.lft.to/lastmile_qr_scan"}, "fusion_lon": 0.0, "lat": 38.89222, "bike_id": "903ffe73246aa3c2ca8186bdafd7ddb6", "type": "electric_scooter", "is_reserved": 0, "lon": -77.04380066666667}, {"fusion_lat": 0.0, "name": "f6613d62307f81ae66989a52ea4788f0", "is_disabled": 0, "rental_uris": {"android": "https://dc.lft.to/lastmile_qr_scan", "ios": "https://dc.lft.to/lastmile_qr_scan"}, "fusion_lon": 0.0, "lat": 38.897281, "bike_id": "f6613d62307f81ae66989a52ea4788f0", "type": "electric_scooter", "is_reserved": 0, "lon": -76.94702716666667}, {"fusion_lat": 0.0, "name": "2c38d39dc0932100c8eae24f20030c18", "is_disabled": 0, "rental_uris": {"android": "https://dc.lft.to/lastmile_qr_scan", "ios": "https://dc.lft.to/lastmile_qr_scan"}, "fusion_lon": 0.0, "lat": 38.919161833333334, "bike_id": "2c38d39dc0932100c8eae24f20030c18", "type": "electric_scooter", "is_reserved": 0, "lon": -77.03271116666667}, {"fusion_lat": 0.0, "name": "e378718b78011b7fc8e389ca2a84a9bc", "is_disabled": 0, "rental_uris": {"android": "https://dc.lft.to/lastmile_qr_scan", "ios": "https://dc.lft.to/lastmile_qr_scan"}, "fusion_lon": 0.0, "lat": 38.89875333333333, "bike_id": "e378718b78011b7fc8e389ca2a84a9bc", "type": "electric_scooter", "is_reserved": 0, "lon": -77.0203675}, {"fusion_lat": 0.0, "name": "e307e2b47d7bdd2356dfc16d1db8529c", "is_disabled": 0, "rental_uris": {"android": "https://dc.lft.to/lastmile_qr_scan", "ios": "https://dc.lft.to/lastmile_qr_scan"}, "fusion_lon": 0.0, "lat": 38.938571333333336, "bike_id": "e307e2b47d7bdd2356dfc16d1db8529c", "type": "electric_scooter", "is_reserved": 0, "lon": -77.02458666666666}, {"fusion_lat": 0.0, "name": "3e31ebe1484c22fffab8ccce56d97e0a", "is_disabled": 0, "rental_uris": {"android": "https://dc.lft.to/lastmile_qr_scan", "ios": "https://dc.lft.to/lastmile_qr_scan"}, "fusion_lon": 0.0, "lat": 38.91933783333333, "bike_id": "3e31ebe1484c22fffab8ccce56d97e0a", "type": "electric_scooter", "is_reserved": 0, "lon": -77.0450145}, {"fusion_lat": 0.0, "name": "b0bc598d1b9fa158ff556bc82a4bdb00", "is_disabled": 0, "rental_uris": {"android": "https://dc.lft.to/lastmile_qr_scan", "ios": "https://dc.lft.to/lastmile_qr_scan"}, "fusion_lon": 0.0, "lat": 38.87384866666667, "bike_id": "b0bc598d1b9fa158ff556bc82a4bdb00", "type": "electric_scooter", "is_reserved": 0, "lon": -77.00174933333334}, {"fusion_lat": 0.0, "name": "c35366f206c57614c8dfe8fb5c6824f1", "is_disabled": 0, "rental_uris": {"android": "https://dc.lft.to/lastmile_qr_scan", "ios": "https://dc.lft.to/lastmile_qr_scan"}, "fusion_lon": 0.0, "lat": 38.906744833333335, "bike_id": "c35366f206c57614c8dfe8fb5c6824f1", "type": "electric_scooter", "is_reserved": 0, "lon": -77.02716766666667}, {"fusion_lat": 0.0, "name": "9aeb20ba59188274ba2672e69629024b", "is_disabled": 0, "rental_uris": {"android": "https://dc.lft.to/lastmile_qr_scan", "ios": "https://dc.lft.to/lastmile_qr_scan"}, "fusion_lon": 0.0, "lat": 38.928713, "bike_id": "9aeb20ba59188274ba2672e69629024b", "type": "electric_scooter", "is_reserved": 0, "lon": -77.03480483333334}, {"fusion_lat": 0.0, "name": "e84be28b15cca6ad905bcfe7cc4f4b88", "is_disabled": 0, "rental_uris": {"android": "https://dc.lft.to/lastmile_qr_scan", "ios": "https://dc.lft.to/lastmile_qr_scan"}, "fusion_lon": 0.0, "lat": 38.90057933333333, "bike_id": "e84be28b15cca6ad905bcfe7cc4f4b88", "type": "electric_scooter", "is_reserved": 0, "lon": -77.00380516666667}, {"fusion_lat": 0.0, "name": "08983ed494a4ed1a16a4bfee7cf99a45", "is_disabled": 0, "rental_uris": {"android": "https://dc.lft.to/lastmile_qr_scan", "ios": "https://dc.lft.to/lastmile_qr_scan"}, "fusion_lon": 0.0, "lat": 38.909395833333335, "bike_id": "08983ed494a4ed1a16a4bfee7cf99a45", "type": "electric_scooter", "is_reserved": 0, "lon": -77.02187033333334}, {"fusion_lat": 0.0, "name": "d6468a9a3a034ce267a54c50960c56d8", "is_disabled": 0, "rental_uris": {"android": "https://dc.lft.to/lastmile_qr_scan", "ios": "https://dc.lft.to/lastmile_qr_scan"}, "fusion_lon": 0.0, "lat": 38.914688, "bike_id": "d6468a9a3a034ce267a54c50960c56d8", "type": "electric_scooter", "is_reserved": 0, "lon": -77.03899683333333}, {"fusion_lat": 0.0, "name": "afc5aa8d90d0b4d73c7ba9b1a8f9e01d", "is_disabled": 0, "rental_uris": {"android": "https://dc.lft.to/lastmile_qr_scan", "ios": "https://dc.lft.to/lastmile_qr_scan"}, "fusion_lon": 0.0, "lat": 38.915031166666665, "bike_id": "afc5aa8d90d0b4d73c7ba9b1a8f9e01d", "type": "electric_scooter", "is_reserved": 0, "lon": -77.009238}, {"fusion_lat": 0.0, "name": "fd5cda9ce64f1c76f760e02db1b6eda1", "is_disabled": 0, "rental_uris": {"android": "https://dc.lft.to/lastmile_qr_scan", "ios": "https://dc.lft.to/lastmile_qr_scan"}, "fusion_lon": 0.0, "lat": 38.92103266666667, "bike_id": "fd5cda9ce64f1c76f760e02db1b6eda1", "type": "electric_scooter", "is_reserved": 0, "lon": -77.07474616666667}, {"fusion_lat": 0.0, "name": "37774497f0d6c389eee71c269bfc17f8", "is_disabled": 0, "rental_uris": {"android": "https://dc.lft.to/lastmile_qr_scan", "ios": "https://dc.lft.to/lastmile_qr_scan"}, "fusion_lon": 0.0, "lat": 38.907892833333335, "bike_id": "37774497f0d6c389eee71c269bfc17f8", "type": "electric_scooter", "is_reserved": 0, "lon": -77.00971533333333}, {"fusion_lat": 0.0, "name": "1fba08e24b7051e2ca7f18eb78fe76fd", "is_disabled": 0, "rental_uris": {"android": "https://dc.lft.to/lastmile_qr_scan", "ios": "https://dc.lft.to/lastmile_qr_scan"}, "fusion_lon": 0.0, "lat": 38.89898566666667, "bike_id": "1fba08e24b7051e2ca7f18eb78fe76fd", "type": "electric_scooter", "is_reserved": 0, "lon": -77.03311316666667}, {"fusion_lat": 0.0, "name": "ffd603cc01f25307ecdc3510ecc1acf9", "is_disabled": 0, "rental_uris": {"android": "https://dc.lft.to/lastmile_qr_scan", "ios": "https://dc.lft.to/lastmile_qr_scan"}, "fusion_lon": 0.0, "lat": 38.93338966666666, "bike_id": "ffd603cc01f25307ecdc3510ecc1acf9", "type": "electric_scooter", "is_reserved": 0, "lon": -77.036369}, {"fusion_lat": 0.0, "name": "660d52087e00c9ea83c0cfbb9adf4909", "is_disabled": 0, "rental_uris": {"android": "https://dc.lft.to/lastmile_qr_scan", "ios": "https://dc.lft.to/lastmile_qr_scan"}, "fusion_lon": 0.0, "lat": 38.8846935, "bike_id": "660d52087e00c9ea83c0cfbb9adf4909", "type": "electric_scooter", "is_reserved": 0, "lon": -76.9498645}, {"fusion_lat": 0.0, "name": "791fd790ec946979c5b5f5fea170fc4e", "is_disabled": 0, "rental_uris": {"android": "https://dc.lft.to/lastmile_qr_scan", "ios": "https://dc.lft.to/lastmile_qr_scan"}, "fusion_lon": 0.0, "lat": 38.920776000000004, "bike_id": "791fd790ec946979c5b5f5fea170fc4e", "type": "electric_scooter", "is_reserved": 0, "lon": -77.014847}, {"fusion_lat": 0.0, "name": "9ae3d126dfb4da932dfa84f1baa8d589", "is_disabled": 0, "rental_uris": {"android": "https://dc.lft.to/lastmile_qr_scan", "ios": "https://dc.lft.to/lastmile_qr_scan"}, "fusion_lon": 0.0, "lat": 38.946338, "bike_id": "9ae3d126dfb4da932dfa84f1baa8d589", "type": "electric_scooter", "is_reserved": 0, "lon": -77.09544266666667}, {"fusion_lat": 0.0, "name": "6d7d296f857781b79bfa799be02a970f", "is_disabled": 0, "rental_uris": {"android": "https://dc.lft.to/lastmile_qr_scan", "ios": "https://dc.lft.to/lastmile_qr_scan"}, "fusion_lon": 0.0, "lat": 38.901849, "bike_id": "6d7d296f857781b79bfa799be02a970f", "type": "electric_scooter", "is_reserved": 0, "lon": -77.0202765}, {"fusion_lat": 0.0, "name": "321c77dfc68fb853cf241386ea99d660", "is_disabled": 0, "rental_uris": {"android": "https://dc.lft.to/lastmile_qr_scan", "ios": "https://dc.lft.to/lastmile_qr_scan"}, "fusion_lon": 0.0, "lat": 38.961246333333335, "bike_id": "321c77dfc68fb853cf241386ea99d660", "type": "electric_bike", "is_reserved": 0, "lon": -77.03279866666666}, {"fusion_lat": 0.0, "name": "e724c45ab7462af713d3705de2c38a2a", "is_disabled": 0, "rental_uris": {"android": "https://dc.lft.to/lastmile_qr_scan", "ios": "https://dc.lft.to/lastmile_qr_scan"}, "fusion_lon": 0.0, "lat": 38.9613215, "bike_id": "e724c45ab7462af713d3705de2c38a2a", "type": "electric_scooter", "is_reserved": 0, "lon": -77.02789916666667}, {"fusion_lat": 0.0, "name": "737230b84bdeab54ffa388d684909b39", "is_disabled": 0, "rental_uris": {"android": "https://dc.lft.to/lastmile_qr_scan", "ios": "https://dc.lft.to/lastmile_qr_scan"}, "fusion_lon": 0.0, "lat": 38.913341833333334, "bike_id": "737230b84bdeab54ffa388d684909b39", "type": "electric_scooter", "is_reserved": 0, "lon": -77.04277183333333}, {"fusion_lat": 0.0, "name": "5e4f422316bb0911ab05c736da052871", "is_disabled": 0, "rental_uris": {"android": "https://dc.lft.to/lastmile_qr_scan", "ios": "https://dc.lft.to/lastmile_qr_scan"}, "fusion_lon": 0.0, "lat": 38.902639, "bike_id": "5e4f422316bb0911ab05c736da052871", "type": "electric_scooter", "is_reserved": 0, "lon": -77.02950916666667}, {"fusion_lat": 0.0, "name": "581715c9180fe8c76f86ea4dbe098090", "is_disabled": 0, "rental_uris": {"android": "https://dc.lft.to/lastmile_qr_scan", "ios": "https://dc.lft.to/lastmile_qr_scan"}, "fusion_lon": 0.0, "lat": 38.915535, "bike_id": "581715c9180fe8c76f86ea4dbe098090", "type": "electric_scooter", "is_reserved": 0, "lon": -77.03079}, {"fusion_lat": 0.0, "name": "cb5148c0fab80ba483089570fd774c92", "is_disabled": 0, "rental_uris": {"android": "https://dc.lft.to/lastmile_qr_scan", "ios": "https://dc.lft.to/lastmile_qr_scan"}, "fusion_lon": 0.0, "lat": 38.90617666666667, "bike_id": "cb5148c0fab80ba483089570fd774c92", "type": "electric_scooter", "is_reserved": 0, "lon": -77.00704016666667}, {"fusion_lat": 0.0, "name": "ef9e7d944f66afdfb340acd8c517f4c0", "is_disabled": 0, "rental_uris": {"android": "https://dc.lft.to/lastmile_qr_scan", "ios": "https://dc.lft.to/lastmile_qr_scan"}, "fusion_lon": 0.0, "lat": 38.92340983333333, "bike_id": "ef9e7d944f66afdfb340acd8c517f4c0", "type": "electric_scooter", "is_reserved": 0, "lon": -77.00195783333334}, {"fusion_lat": 0.0, "name": "ef8ba7f529570674c0302a3de3b09584", "is_disabled": 0, "rental_uris": {"android": "https://dc.lft.to/lastmile_qr_scan", "ios": "https://dc.lft.to/lastmile_qr_scan"}, "fusion_lon": 0.0, "lat": 38.90564, "bike_id": "ef8ba7f529570674c0302a3de3b09584", "type": "electric_scooter", "is_reserved": 0, "lon": -77.0060655}, {"fusion_lat": 0.0, "name": "788dfa3c16a4fb7d79821fc6cc6d934d", "is_disabled": 0, "rental_uris": {"android": "https://dc.lft.to/lastmile_qr_scan", "ios": "https://dc.lft.to/lastmile_qr_scan"}, "fusion_lon": 0.0, "lat": 38.9391905, "bike_id": "788dfa3c16a4fb7d79821fc6cc6d934d", "type": "electric_scooter", "is_reserved": 0, "lon": -77.02800816666667}, {"fusion_lat": 0.0, "name": "7381d9ad97ba39865721a2e218a9503e", "is_disabled": 0, "rental_uris": {"android": "https://dc.lft.to/lastmile_qr_scan", "ios": "https://dc.lft.to/lastmile_qr_scan"}, "fusion_lon": 0.0, "lat": 38.910298, "bike_id": "7381d9ad97ba39865721a2e218a9503e", "type": "electric_scooter", "is_reserved": 0, "lon": -77.007609}, {"fusion_lat": 0.0, "name": "37e5f122d1be9dce221a4051f3c83647", "is_disabled": 0, "rental_uris": {"android": "https://dc.lft.to/lastmile_qr_scan", "ios": "https://dc.lft.to/lastmile_qr_scan"}, "fusion_lon": 0.0, "lat": 38.884086, "bike_id": "37e5f122d1be9dce221a4051f3c83647", "type": "electric_scooter", "is_reserved": 0, "lon": -77.01976516666667}, {"fusion_lat": 0.0, "name": "b73e13046957b1fdcbe56c9b7d516659", "is_disabled": 0, "rental_uris": {"android": "https://dc.lft.to/lastmile_qr_scan", "ios": "https://dc.lft.to/lastmile_qr_scan"}, "fusion_lon": 0.0, "lat": 38.906678, "bike_id": "b73e13046957b1fdcbe56c9b7d516659", "type": "electric_scooter", "is_reserved": 0, "lon": -77.0222995}, {"fusion_lat": 0.0, "name": "055df8b198eeca4e2b55ddce2b407237", "is_disabled": 0, "rental_uris": {"android": "https://dc.lft.to/lastmile_qr_scan", "ios": "https://dc.lft.to/lastmile_qr_scan"}, "fusion_lon": 0.0, "lat": 38.96143633333333, "bike_id": "055df8b198eeca4e2b55ddce2b407237", "type": "electric_bike", "is_reserved": 0, "lon": -77.03238566666667}, {"fusion_lat": 0.0, "name": "7c865cceff52c9d6859fb95fbb54b19f", "is_disabled": 0, "rental_uris": {"android": "https://dc.lft.to/lastmile_qr_scan", "ios": "https://dc.lft.to/lastmile_qr_scan"}, "fusion_lon": 0.0, "lat": 38.900312, "bike_id": "7c865cceff52c9d6859fb95fbb54b19f", "type": "electric_scooter", "is_reserved": 0, "lon": -76.99135083333333}, {"fusion_lat": 0.0, "name": "0d7211272a09e90a5cafcf387b91f119", "is_disabled": 0, "rental_uris": {"android": "https://dc.lft.to/lastmile_qr_scan", "ios": "https://dc.lft.to/lastmile_qr_scan"}, "fusion_lon": 0.0, "lat": 38.920653333333334, "bike_id": "0d7211272a09e90a5cafcf387b91f119", "type": "electric_scooter", "is_reserved": 0, "lon": -76.998655}, {"fusion_lat": 0.0, "name": "365316f82b0c0d03c8d1fa27436409e1", "is_disabled": 0, "rental_uris": {"android": "https://dc.lft.to/lastmile_qr_scan", "ios": "https://dc.lft.to/lastmile_qr_scan"}, "fusion_lon": 0.0, "lat": 38.90107166666667, "bike_id": "365316f82b0c0d03c8d1fa27436409e1", "type": "electric_scooter", "is_reserved": 0, "lon": -77.0245565}, {"fusion_lat": 0.0, "name": "b0390fcd8cdd4ae6dbc5cd7fa943ba6c", "is_disabled": 0, "rental_uris": {"android": "https://dc.lft.to/lastmile_qr_scan", "ios": "https://dc.lft.to/lastmile_qr_scan"}, "fusion_lon": 0.0, "lat": 38.924794, "bike_id": "b0390fcd8cdd4ae6dbc5cd7fa943ba6c", "type": "electric_scooter", "is_reserved": 0, "lon": -77.02839633333333}, {"fusion_lat": 0.0, "name": "58d0e8dfad118812b941d059d16a124f", "is_disabled": 0, "rental_uris": {"android": "https://dc.lft.to/lastmile_qr_scan", "ios": "https://dc.lft.to/lastmile_qr_scan"}, "fusion_lon": 0.0, "lat": 38.900184833333334, "bike_id": "58d0e8dfad118812b941d059d16a124f", "type": "electric_scooter", "is_reserved": 0, "lon": -76.99761533333333}, {"fusion_lat": 0.0, "name": "8a84aafa3620ca88d467703e51f50989", "is_disabled": 0, "rental_uris": {"android": "https://dc.lft.to/lastmile_qr_scan", "ios": "https://dc.lft.to/lastmile_qr_scan"}, "fusion_lon": 0.0, "lat": 38.90127616666667, "bike_id": "8a84aafa3620ca88d467703e51f50989", "type": "electric_scooter", "is_reserved": 0, "lon": -77.00285566666666}, {"fusion_lat": 0.0, "name": "2795f4784d07d0b0f57523696f16e3db", "is_disabled": 0, "rental_uris": {"android": "https://dc.lft.to/lastmile_qr_scan", "ios": "https://dc.lft.to/lastmile_qr_scan"}, "fusion_lon": 0.0, "lat": 38.91843633333333, "bike_id": "2795f4784d07d0b0f57523696f16e3db", "type": "electric_scooter", "is_reserved": 0, "lon": -76.96535033333333}, {"fusion_lat": 0.0, "name": "1e6dc6628ec82b06ff9580728fb5d9df", "is_disabled": 0, "rental_uris": {"android": "https://dc.lft.to/lastmile_qr_scan", "ios": "https://dc.lft.to/lastmile_qr_scan"}, "fusion_lon": 0.0, "lat": 38.934596, "bike_id": "1e6dc6628ec82b06ff9580728fb5d9df", "type": "electric_scooter", "is_reserved": 0, "lon": -77.02350466666667}, {"fusion_lat": 0.0, "name": "4f0b77c598edde2d10a7d830d1694347", "is_disabled": 0, "rental_uris": {"android": "https://dc.lft.to/lastmile_qr_scan", "ios": "https://dc.lft.to/lastmile_qr_scan"}, "fusion_lon": 0.0, "lat": 38.9135115, "bike_id": "4f0b77c598edde2d10a7d830d1694347", "type": "electric_scooter", "is_reserved": 0, "lon": -77.03334483333333}, {"fusion_lat": 0.0, "name": "99f88f9583f4ab50483be3835593ce6d", "is_disabled": 0, "rental_uris": {"android": "https://dc.lft.to/lastmile_qr_scan", "ios": "https://dc.lft.to/lastmile_qr_scan"}, "fusion_lon": 0.0, "lat": 38.90160183333333, "bike_id": "99f88f9583f4ab50483be3835593ce6d", "type": "electric_scooter", "is_reserved": 0, "lon": -77.02579966666667}, {"fusion_lat": 0.0, "name": "d5e30847158950664b253b905cfea11f", "is_disabled": 0, "rental_uris": {"android": "https://dc.lft.to/lastmile_qr_scan", "ios": "https://dc.lft.to/lastmile_qr_scan"}, "fusion_lon": 0.0, "lat": 38.9847415, "bike_id": "d5e30847158950664b253b905cfea11f", "type": "electric_scooter", "is_reserved": 0, "lon": -77.02640983333333}, {"fusion_lat": 0.0, "name": "47097f007a8ca00c4204d27e1d60e3cf", "is_disabled": 0, "rental_uris": {"android": "https://dc.lft.to/lastmile_qr_scan", "ios": "https://dc.lft.to/lastmile_qr_scan"}, "fusion_lon": 0.0, "lat": 38.921277833333335, "bike_id": "47097f007a8ca00c4204d27e1d60e3cf", "type": "electric_scooter", "is_reserved": 0, "lon": -77.0179095}, {"fusion_lat": 0.0, "name": "4dcae65391d8a092fb7fa74841875330", "is_disabled": 0, "rental_uris": {"android": "https://dc.lft.to/lastmile_qr_scan", "ios": "https://dc.lft.to/lastmile_qr_scan"}, "fusion_lon": 0.0, "lat": 38.916595, "bike_id": "4dcae65391d8a092fb7fa74841875330", "type": "electric_scooter", "is_reserved": 0, "lon": -77.02821}, {"fusion_lat": 0.0, "name": "c25c35c5e9d8c23771f6914a55ab2bf6", "is_disabled": 0, "rental_uris": {"android": "https://dc.lft.to/lastmile_qr_scan", "ios": "https://dc.lft.to/lastmile_qr_scan"}, "fusion_lon": 0.0, "lat": 38.92166916666667, "bike_id": "c25c35c5e9d8c23771f6914a55ab2bf6", "type": "electric_scooter", "is_reserved": 0, "lon": -77.03655633333334}, {"fusion_lat": 0.0, "name": "e566c170dc0f693e45a3661301a18499", "is_disabled": 0, "rental_uris": {"android": "https://dc.lft.to/lastmile_qr_scan", "ios": "https://dc.lft.to/lastmile_qr_scan"}, "fusion_lon": 0.0, "lat": 38.8876155, "bike_id": "e566c170dc0f693e45a3661301a18499", "type": "electric_scooter", "is_reserved": 0, "lon": -76.99474383333333}, {"fusion_lat": 0.0, "name": "fe0aa10347c0a36b6e4c21060d67da80", "is_disabled": 0, "rental_uris": {"android": "https://dc.lft.to/lastmile_qr_scan", "ios": "https://dc.lft.to/lastmile_qr_scan"}, "fusion_lon": 0.0, "lat": 38.92652233333333, "bike_id": "fe0aa10347c0a36b6e4c21060d67da80", "type": "electric_scooter", "is_reserved": 0, "lon": -77.03721283333333}, {"fusion_lat": 0.0, "name": "e8d4357d2f859c5a044cffa6b6327115", "is_disabled": 0, "rental_uris": {"android": "https://dc.lft.to/lastmile_qr_scan", "ios": "https://dc.lft.to/lastmile_qr_scan"}, "fusion_lon": 0.0, "lat": 38.902596333333335, "bike_id": "e8d4357d2f859c5a044cffa6b6327115", "type": "electric_scooter", "is_reserved": 0, "lon": -77.01874566666666}, {"fusion_lat": 0.0, "name": "5c6a750b29ae9048b76a52cdf962ebaf", "is_disabled": 0, "rental_uris": {"android": "https://dc.lft.to/lastmile_qr_scan", "ios": "https://dc.lft.to/lastmile_qr_scan"}, "fusion_lon": 0.0, "lat": 38.84130433333333, "bike_id": "5c6a750b29ae9048b76a52cdf962ebaf", "type": "electric_bike", "is_reserved": 0, "lon": -77.06309}, {"fusion_lat": 0.0, "name": "700aa77a1ab19cbab3f29a8bbf9b195e", "is_disabled": 0, "rental_uris": {"android": "https://dc.lft.to/lastmile_qr_scan", "ios": "https://dc.lft.to/lastmile_qr_scan"}, "fusion_lon": 0.0, "lat": 38.892280166666666, "bike_id": "700aa77a1ab19cbab3f29a8bbf9b195e", "type": "electric_scooter", "is_reserved": 0, "lon": -77.0030975}, {"fusion_lat": 0.0, "name": "1b8f7a570426b308fc64df2726aa24f0", "is_disabled": 0, "rental_uris": {"android": "https://dc.lft.to/lastmile_qr_scan", "ios": "https://dc.lft.to/lastmile_qr_scan"}, "fusion_lon": 0.0, "lat": 38.90563683333333, "bike_id": "1b8f7a570426b308fc64df2726aa24f0", "type": "electric_scooter", "is_reserved": 0, "lon": -77.00603016666666}, {"fusion_lat": 0.0, "name": "e7378d6d618d870949cb0d562eb8804c", "is_disabled": 0, "rental_uris": {"android": "https://dc.lft.to/lastmile_qr_scan", "ios": "https://dc.lft.to/lastmile_qr_scan"}, "fusion_lon": 0.0, "lat": 38.888309666666665, "bike_id": "e7378d6d618d870949cb0d562eb8804c", "type": "electric_scooter", "is_reserved": 0, "lon": -77.048466}, {"fusion_lat": 0.0, "name": "829bc6f4459afd8e67972c6749b04a06", "is_disabled": 0, "rental_uris": {"android": "https://dc.lft.to/lastmile_qr_scan", "ios": "https://dc.lft.to/lastmile_qr_scan"}, "fusion_lon": 0.0, "lat": 38.89482316666667, "bike_id": "829bc6f4459afd8e67972c6749b04a06", "type": "electric_scooter", "is_reserved": 0, "lon": -77.02182866666666}, {"fusion_lat": 0.0, "name": "ba38d7c7da46e895212fc80d97eddfd1", "is_disabled": 0, "rental_uris": {"android": "https://dc.lft.to/lastmile_qr_scan", "ios": "https://dc.lft.to/lastmile_qr_scan"}, "fusion_lon": 0.0, "lat": 38.917076333333334, "bike_id": "ba38d7c7da46e895212fc80d97eddfd1", "type": "electric_scooter", "is_reserved": 0, "lon": -77.03861383333333}, {"fusion_lat": 0.0, "name": "f3b4c959783f9aed4749889bcb191304", "is_disabled": 0, "rental_uris": {"android": "https://dc.lft.to/lastmile_qr_scan", "ios": "https://dc.lft.to/lastmile_qr_scan"}, "fusion_lon": 0.0, "lat": 38.819399, "bike_id": "f3b4c959783f9aed4749889bcb191304", "type": "electric_bike", "is_reserved": 0, "lon": -77.00206233333333}, {"fusion_lat": 0.0, "name": "8cfb7dbbac6e9e1a384291ef80bd01db", "is_disabled": 0, "rental_uris": {"android": "https://dc.lft.to/lastmile_qr_scan", "ios": "https://dc.lft.to/lastmile_qr_scan"}, "fusion_lon": 0.0, "lat": 38.904596833333336, "bike_id": "8cfb7dbbac6e9e1a384291ef80bd01db", "type": "electric_scooter", "is_reserved": 0, "lon": -77.02948916666666}, {"fusion_lat": 0.0, "name": "3879f2b321d73271f8c5071ec9ddf0b0", "is_disabled": 0, "rental_uris": {"android": "https://dc.lft.to/lastmile_qr_scan", "ios": "https://dc.lft.to/lastmile_qr_scan"}, "fusion_lon": 0.0, "lat": 38.909513, "bike_id": "3879f2b321d73271f8c5071ec9ddf0b0", "type": "electric_scooter", "is_reserved": 0, "lon": -76.98540516666667}, {"fusion_lat": 0.0, "name": "6cf2e61b45f755acd34e56af82792c21", "is_disabled": 0, "rental_uris": {"android": "https://dc.lft.to/lastmile_qr_scan", "ios": "https://dc.lft.to/lastmile_qr_scan"}, "fusion_lon": 0.0, "lat": 38.907256833333335, "bike_id": "6cf2e61b45f755acd34e56af82792c21", "type": "electric_scooter", "is_reserved": 0, "lon": -77.02548083333333}, {"fusion_lat": 0.0, "name": "09614ab5ad908b22fd639c998d3acfd7", "is_disabled": 0, "rental_uris": {"android": "https://dc.lft.to/lastmile_qr_scan", "ios": "https://dc.lft.to/lastmile_qr_scan"}, "fusion_lon": 0.0, "lat": 38.931497666666665, "bike_id": "09614ab5ad908b22fd639c998d3acfd7", "type": "electric_scooter", "is_reserved": 0, "lon": -77.03977366666666}, {"fusion_lat": 0.0, "name": "8a9d811573219b75cb696d660008d6bc", "is_disabled": 0, "rental_uris": {"android": "https://dc.lft.to/lastmile_qr_scan", "ios": "https://dc.lft.to/lastmile_qr_scan"}, "fusion_lon": 0.0, "lat": 38.922627, "bike_id": "8a9d811573219b75cb696d660008d6bc", "type": "electric_scooter", "is_reserved": 0, "lon": -77.03669466666666}, {"fusion_lat": 0.0, "name": "00905b2a107396e49ed19065fd040bc5", "is_disabled": 0, "rental_uris": {"android": "https://dc.lft.to/lastmile_qr_scan", "ios": "https://dc.lft.to/lastmile_qr_scan"}, "fusion_lon": 0.0, "lat": 38.92398816666667, "bike_id": "00905b2a107396e49ed19065fd040bc5", "type": "electric_scooter", "is_reserved": 0, "lon": -77.0525595}, {"fusion_lat": 0.0, "name": "3697ea047a7ee55529b65656e66b9280", "is_disabled": 0, "rental_uris": {"android": "https://dc.lft.to/lastmile_qr_scan", "ios": "https://dc.lft.to/lastmile_qr_scan"}, "fusion_lon": 0.0, "lat": 38.91332283333333, "bike_id": "3697ea047a7ee55529b65656e66b9280", "type": "electric_scooter", "is_reserved": 0, "lon": -77.042881}, {"fusion_lat": 0.0, "name": "39fa021d5c1ee0f77b065ef115d787d3", "is_disabled": 0, "rental_uris": {"android": "https://dc.lft.to/lastmile_qr_scan", "ios": "https://dc.lft.to/lastmile_qr_scan"}, "fusion_lon": 0.0, "lat": 38.907793, "bike_id": "39fa021d5c1ee0f77b065ef115d787d3", "type": "electric_scooter", "is_reserved": 0, "lon": -77.01862283333334}, {"fusion_lat": 0.0, "name": "08e90e9c579c48425e57a0c8de29cbae", "is_disabled": 0, "rental_uris": {"android": "https://dc.lft.to/lastmile_qr_scan", "ios": "https://dc.lft.to/lastmile_qr_scan"}, "fusion_lon": 0.0, "lat": 38.923809, "bike_id": "08e90e9c579c48425e57a0c8de29cbae", "type": "electric_scooter", "is_reserved": 0, "lon": -77.03634566666666}, {"fusion_lat": 0.0, "name": "74f09946637a91afa4957d7d4cb35252", "is_disabled": 0, "rental_uris": {"android": "https://dc.lft.to/lastmile_qr_scan", "ios": "https://dc.lft.to/lastmile_qr_scan"}, "fusion_lon": 0.0, "lat": 38.9588185, "bike_id": "74f09946637a91afa4957d7d4cb35252", "type": "electric_scooter", "is_reserved": 0, "lon": -77.01173733333333}, {"fusion_lat": 0.0, "name": "9764d94af13fbf09f7b4544cce92299e", "is_disabled": 0, "rental_uris": {"android": "https://dc.lft.to/lastmile_qr_scan", "ios": "https://dc.lft.to/lastmile_qr_scan"}, "fusion_lon": 0.0, "lat": 38.9170095, "bike_id": "9764d94af13fbf09f7b4544cce92299e", "type": "electric_scooter", "is_reserved": 0, "lon": -77.03042366666666}, {"fusion_lat": 0.0, "name": "84b11214e009b93dfc9117e0c01f80c6", "is_disabled": 0, "rental_uris": {"android": "https://dc.lft.to/lastmile_qr_scan", "ios": "https://dc.lft.to/lastmile_qr_scan"}, "fusion_lon": 0.0, "lat": 38.876582166666665, "bike_id": "84b11214e009b93dfc9117e0c01f80c6", "type": "electric_scooter", "is_reserved": 0, "lon": -77.0091265}, {"fusion_lat": 0.0, "name": "630e409e1a4d7745f934f30d19d7aa56", "is_disabled": 0, "rental_uris": {"android": "https://dc.lft.to/lastmile_qr_scan", "ios": "https://dc.lft.to/lastmile_qr_scan"}, "fusion_lon": 0.0, "lat": 38.88747333333333, "bike_id": "630e409e1a4d7745f934f30d19d7aa56", "type": "electric_scooter", "is_reserved": 0, "lon": -77.0315705}, {"fusion_lat": 0.0, "name": "9af67dc23d944b67a4f4e61a42726053", "is_disabled": 0, "rental_uris": {"android": "https://dc.lft.to/lastmile_qr_scan", "ios": "https://dc.lft.to/lastmile_qr_scan"}, "fusion_lon": 0.0, "lat": 38.9118505, "bike_id": "9af67dc23d944b67a4f4e61a42726053", "type": "electric_scooter", "is_reserved": 0, "lon": -77.038267}, {"fusion_lat": 0.0, "name": "c5fa35806ffe309638476017e0d197ac", "is_disabled": 0, "rental_uris": {"android": "https://dc.lft.to/lastmile_qr_scan", "ios": "https://dc.lft.to/lastmile_qr_scan"}, "fusion_lon": 0.0, "lat": 38.927947333333336, "bike_id": "c5fa35806ffe309638476017e0d197ac", "type": "electric_scooter", "is_reserved": 0, "lon": -77.027185}, {"fusion_lat": 0.0, "name": "c379f0bb14ee37ac4d178ca87c77edd5", "is_disabled": 0, "rental_uris": {"android": "https://dc.lft.to/lastmile_qr_scan", "ios": "https://dc.lft.to/lastmile_qr_scan"}, "fusion_lon": 0.0, "lat": 38.9069755, "bike_id": "c379f0bb14ee37ac4d178ca87c77edd5", "type": "electric_scooter", "is_reserved": 0, "lon": -77.03595766666666}, {"fusion_lat": 0.0, "name": "33e85221a7c6b80a8072987c084b86ff", "is_disabled": 0, "rental_uris": {"android": "https://dc.lft.to/lastmile_qr_scan", "ios": "https://dc.lft.to/lastmile_qr_scan"}, "fusion_lon": 0.0, "lat": 38.90064233333333, "bike_id": "33e85221a7c6b80a8072987c084b86ff", "type": "electric_scooter", "is_reserved": 0, "lon": -76.93388766666666}, {"fusion_lat": 0.0, "name": "eb5c81106e03fc4ab4cf1fe59fe2f588", "is_disabled": 0, "rental_uris": {"android": "https://dc.lft.to/lastmile_qr_scan", "ios": "https://dc.lft.to/lastmile_qr_scan"}, "fusion_lon": 0.0, "lat": 38.9023225, "bike_id": "eb5c81106e03fc4ab4cf1fe59fe2f588", "type": "electric_scooter", "is_reserved": 0, "lon": -77.02210583333333}, {"fusion_lat": 0.0, "name": "c4e6018c98ae706371c92b2578841702", "is_disabled": 0, "rental_uris": {"android": "https://dc.lft.to/lastmile_qr_scan", "ios": "https://dc.lft.to/lastmile_qr_scan"}, "fusion_lon": 0.0, "lat": 38.896074, "bike_id": "c4e6018c98ae706371c92b2578841702", "type": "electric_scooter", "is_reserved": 0, "lon": -77.04978416666667}, {"fusion_lat": 0.0, "name": "dc1568401bd2d9224ffd6646507e22c7", "is_disabled": 0, "rental_uris": {"android": "https://dc.lft.to/lastmile_qr_scan", "ios": "https://dc.lft.to/lastmile_qr_scan"}, "fusion_lon": 0.0, "lat": 38.96205333333333, "bike_id": "dc1568401bd2d9224ffd6646507e22c7", "type": "electric_scooter", "is_reserved": 0, "lon": -77.0222805}, {"fusion_lat": 0.0, "name": "1f7e4da05728be9c0f21ec31068466d1", "is_disabled": 0, "rental_uris": {"android": "https://dc.lft.to/lastmile_qr_scan", "ios": "https://dc.lft.to/lastmile_qr_scan"}, "fusion_lon": 0.0, "lat": 38.909559, "bike_id": "1f7e4da05728be9c0f21ec31068466d1", "type": "electric_scooter", "is_reserved": 0, "lon": -77.02302916666666}, {"fusion_lat": 0.0, "name": "ab2f48dd8960761ba4f8272d9198ce43", "is_disabled": 0, "rental_uris": {"android": "https://dc.lft.to/lastmile_qr_scan", "ios": "https://dc.lft.to/lastmile_qr_scan"}, "fusion_lon": 0.0, "lat": 38.84634166666667, "bike_id": "ab2f48dd8960761ba4f8272d9198ce43", "type": "electric_scooter", "is_reserved": 0, "lon": -76.96922333333333}, {"fusion_lat": 0.0, "name": "4a8f2a95aa869a4f3bddb02cb21e9ce9", "is_disabled": 0, "rental_uris": {"android": "https://dc.lft.to/lastmile_qr_scan", "ios": "https://dc.lft.to/lastmile_qr_scan"}, "fusion_lon": 0.0, "lat": 38.941829166666665, "bike_id": "4a8f2a95aa869a4f3bddb02cb21e9ce9", "type": "electric_scooter", "is_reserved": 0, "lon": -77.02495266666666}, {"fusion_lat": 0.0, "name": "1a92e415705a3e9712ded79ce88237e7", "is_disabled": 0, "rental_uris": {"android": "https://dc.lft.to/lastmile_qr_scan", "ios": "https://dc.lft.to/lastmile_qr_scan"}, "fusion_lon": 0.0, "lat": 38.895661833333335, "bike_id": "1a92e415705a3e9712ded79ce88237e7", "type": "electric_bike", "is_reserved": 0, "lon": -77.12739083333334}, {"fusion_lat": 0.0, "name": "a4ae28619190101fed4f71f4198705e1", "is_disabled": 0, "rental_uris": {"android": "https://dc.lft.to/lastmile_qr_scan", "ios": "https://dc.lft.to/lastmile_qr_scan"}, "fusion_lon": 0.0, "lat": 38.90688866666667, "bike_id": "a4ae28619190101fed4f71f4198705e1", "type": "electric_scooter", "is_reserved": 0, "lon": -77.0154085}, {"fusion_lat": 0.0, "name": "ebf80ae2a9af0e5a9c0b0a248c0e393b", "is_disabled": 0, "rental_uris": {"android": "https://dc.lft.to/lastmile_qr_scan", "ios": "https://dc.lft.to/lastmile_qr_scan"}, "fusion_lon": 0.0, "lat": 38.90076083333334, "bike_id": "ebf80ae2a9af0e5a9c0b0a248c0e393b", "type": "electric_scooter", "is_reserved": 0, "lon": -77.04802016666666}, {"fusion_lat": 0.0, "name": "e58024e73cc700443f450deb49c90257", "is_disabled": 0, "rental_uris": {"android": "https://dc.lft.to/lastmile_qr_scan", "ios": "https://dc.lft.to/lastmile_qr_scan"}, "fusion_lon": 0.0, "lat": 38.90111383333333, "bike_id": "e58024e73cc700443f450deb49c90257", "type": "electric_scooter", "is_reserved": 0, "lon": -77.03369133333334}, {"fusion_lat": 0.0, "name": "f1cad4e9921c332ff1694861cd990e3b", "is_disabled": 0, "rental_uris": {"android": "https://dc.lft.to/lastmile_qr_scan", "ios": "https://dc.lft.to/lastmile_qr_scan"}, "fusion_lon": 0.0, "lat": 38.92210716666666, "bike_id": "f1cad4e9921c332ff1694861cd990e3b", "type": "electric_scooter", "is_reserved": 0, "lon": -77.018248}, {"fusion_lat": 0.0, "name": "06d66afd7bae17bf0ded2df19f2380a3", "is_disabled": 0, "rental_uris": {"android": "https://dc.lft.to/lastmile_qr_scan", "ios": "https://dc.lft.to/lastmile_qr_scan"}, "fusion_lon": 0.0, "lat": 38.9374735, "bike_id": "06d66afd7bae17bf0ded2df19f2380a3", "type": "electric_scooter", "is_reserved": 0, "lon": -77.02527383333333}, {"fusion_lat": 0.0, "name": "cca01a30e597d42746b7eef39dca7a68", "is_disabled": 0, "rental_uris": {"android": "https://dc.lft.to/lastmile_qr_scan", "ios": "https://dc.lft.to/lastmile_qr_scan"}, "fusion_lon": 0.0, "lat": 38.903905, "bike_id": "cca01a30e597d42746b7eef39dca7a68", "type": "electric_scooter", "is_reserved": 0, "lon": -77.0615}, {"fusion_lat": 0.0, "name": "5571d05ad29e8e2ce2a081e6337abfc7", "is_disabled": 0, "rental_uris": {"android": "https://dc.lft.to/lastmile_qr_scan", "ios": "https://dc.lft.to/lastmile_qr_scan"}, "fusion_lon": 0.0, "lat": 38.95334666666667, "bike_id": "5571d05ad29e8e2ce2a081e6337abfc7", "type": "electric_bike", "is_reserved": 0, "lon": -76.98258283333334}, {"fusion_lat": 0.0, "name": "fb7d804521ed30154eb71a2edc63f354", "is_disabled": 0, "rental_uris": {"android": "https://dc.lft.to/lastmile_qr_scan", "ios": "https://dc.lft.to/lastmile_qr_scan"}, "fusion_lon": 0.0, "lat": 38.92615683333333, "bike_id": "fb7d804521ed30154eb71a2edc63f354", "type": "electric_scooter", "is_reserved": 0, "lon": -77.04328233333334}, {"fusion_lat": 0.0, "name": "3e82d9451be3fcbfdb6dd458161832e4", "is_disabled": 0, "rental_uris": {"android": "https://dc.lft.to/lastmile_qr_scan", "ios": "https://dc.lft.to/lastmile_qr_scan"}, "fusion_lon": 0.0, "lat": 38.9072315, "bike_id": "3e82d9451be3fcbfdb6dd458161832e4", "type": "electric_scooter", "is_reserved": 0, "lon": -77.04346433333333}, {"fusion_lat": 0.0, "name": "77d21a3dca62230b74ac53ed56a33e99", "is_disabled": 0, "rental_uris": {"android": "https://dc.lft.to/lastmile_qr_scan", "ios": "https://dc.lft.to/lastmile_qr_scan"}, "fusion_lon": 0.0, "lat": 38.89514, "bike_id": "77d21a3dca62230b74ac53ed56a33e99", "type": "electric_scooter", "is_reserved": 0, "lon": -76.999605}, {"fusion_lat": 0.0, "name": "57868e7de2f5cc33f04270cd672d2e0c", "is_disabled": 0, "rental_uris": {"android": "https://dc.lft.to/lastmile_qr_scan", "ios": "https://dc.lft.to/lastmile_qr_scan"}, "fusion_lon": 0.0, "lat": 38.94201416666667, "bike_id": "57868e7de2f5cc33f04270cd672d2e0c", "type": "electric_scooter", "is_reserved": 0, "lon": -77.02593316666666}, {"fusion_lat": 0.0, "name": "67c2ad111e330e2e38dbf4d15364e20e", "is_disabled": 0, "rental_uris": {"android": "https://dc.lft.to/lastmile_qr_scan", "ios": "https://dc.lft.to/lastmile_qr_scan"}, "fusion_lon": 0.0, "lat": 38.918003666666664, "bike_id": "67c2ad111e330e2e38dbf4d15364e20e", "type": "electric_scooter", "is_reserved": 0, "lon": -77.02714233333333}, {"fusion_lat": 0.0, "name": "71c2220f22a150e3f63ac4bacc5513f3", "is_disabled": 0, "rental_uris": {"android": "https://dc.lft.to/lastmile_qr_scan", "ios": "https://dc.lft.to/lastmile_qr_scan"}, "fusion_lon": 0.0, "lat": 38.90683216666667, "bike_id": "71c2220f22a150e3f63ac4bacc5513f3", "type": "electric_scooter", "is_reserved": 0, "lon": -77.03770616666667}, {"fusion_lat": 0.0, "name": "dd4ec9651f583b40fec5359145213b3c", "is_disabled": 0, "rental_uris": {"android": "https://dc.lft.to/lastmile_qr_scan", "ios": "https://dc.lft.to/lastmile_qr_scan"}, "fusion_lon": 0.0, "lat": 38.839318666666664, "bike_id": "dd4ec9651f583b40fec5359145213b3c", "type": "electric_bike", "is_reserved": 0, "lon": -77.0790565}, {"fusion_lat": 0.0, "name": "f932ab7a9e16030746f771094ef254d1", "is_disabled": 0, "rental_uris": {"android": "https://dc.lft.to/lastmile_qr_scan", "ios": "https://dc.lft.to/lastmile_qr_scan"}, "fusion_lon": 0.0, "lat": 38.91061583333333, "bike_id": "f932ab7a9e16030746f771094ef254d1", "type": "electric_scooter", "is_reserved": 0, "lon": -77.03661366666667}, {"fusion_lat": 0.0, "name": "657ef1e0f6d273967917f5ed6129ca51", "is_disabled": 0, "rental_uris": {"android": "https://dc.lft.to/lastmile_qr_scan", "ios": "https://dc.lft.to/lastmile_qr_scan"}, "fusion_lon": 0.0, "lat": 38.978793833333334, "bike_id": "657ef1e0f6d273967917f5ed6129ca51", "type": "electric_bike", "is_reserved": 0, "lon": -77.06031916666667}, {"fusion_lat": 0.0, "name": "ddff65066bb9e95a3370d31a18c4d770", "is_disabled": 0, "rental_uris": {"android": "https://dc.lft.to/lastmile_qr_scan", "ios": "https://dc.lft.to/lastmile_qr_scan"}, "fusion_lon": 0.0, "lat": 38.92744833333333, "bike_id": "ddff65066bb9e95a3370d31a18c4d770", "type": "electric_scooter", "is_reserved": 0, "lon": -77.03639966666667}, {"fusion_lat": 0.0, "name": "c6b52006feaf47a36cc4b1645022d1b6", "is_disabled": 0, "rental_uris": {"android": "https://dc.lft.to/lastmile_qr_scan", "ios": "https://dc.lft.to/lastmile_qr_scan"}, "fusion_lon": 0.0, "lat": 38.90136866666667, "bike_id": "c6b52006feaf47a36cc4b1645022d1b6", "type": "electric_scooter", "is_reserved": 0, "lon": -76.98648016666667}, {"fusion_lat": 0.0, "name": "e0c2ad808ca948918ac65a002234339f", "is_disabled": 0, "rental_uris": {"android": "https://dc.lft.to/lastmile_qr_scan", "ios": "https://dc.lft.to/lastmile_qr_scan"}, "fusion_lon": 0.0, "lat": 38.87462933333333, "bike_id": "e0c2ad808ca948918ac65a002234339f", "type": "electric_scooter", "is_reserved": 0, "lon": -77.00022366666667}, {"fusion_lat": 0.0, "name": "bd455ad5ac303e0ee74556ed08502677", "is_disabled": 0, "rental_uris": {"android": "https://dc.lft.to/lastmile_qr_scan", "ios": "https://dc.lft.to/lastmile_qr_scan"}, "fusion_lon": 0.0, "lat": 38.9134295, "bike_id": "bd455ad5ac303e0ee74556ed08502677", "type": "electric_scooter", "is_reserved": 0, "lon": -77.00344566666666}, {"fusion_lat": 0.0, "name": "4e9b1fd12eebc9cdc933a16f40b97aa8", "is_disabled": 0, "rental_uris": {"android": "https://dc.lft.to/lastmile_qr_scan", "ios": "https://dc.lft.to/lastmile_qr_scan"}, "fusion_lon": 0.0, "lat": 38.924559, "bike_id": "4e9b1fd12eebc9cdc933a16f40b97aa8", "type": "electric_scooter", "is_reserved": 0, "lon": -77.02411033333334}, {"fusion_lat": 0.0, "name": "dc43c97f93c8534c511f5d30ddc0668f", "is_disabled": 0, "rental_uris": {"android": "https://dc.lft.to/lastmile_qr_scan", "ios": "https://dc.lft.to/lastmile_qr_scan"}, "fusion_lon": 0.0, "lat": 38.90381883333333, "bike_id": "dc43c97f93c8534c511f5d30ddc0668f", "type": "electric_scooter", "is_reserved": 0, "lon": -76.98481016666666}, {"fusion_lat": 0.0, "name": "91f116b5742fc6236d16560d1ac2b355", "is_disabled": 0, "rental_uris": {"android": "https://dc.lft.to/lastmile_qr_scan", "ios": "https://dc.lft.to/lastmile_qr_scan"}, "fusion_lon": 0.0, "lat": 38.911154, "bike_id": "91f116b5742fc6236d16560d1ac2b355", "type": "electric_scooter", "is_reserved": 0, "lon": -77.04217866666667}, {"fusion_lat": 0.0, "name": "9e4bb34e1974a478de740749aae2a45f", "is_disabled": 0, "rental_uris": {"android": "https://dc.lft.to/lastmile_qr_scan", "ios": "https://dc.lft.to/lastmile_qr_scan"}, "fusion_lon": 0.0, "lat": 38.929983, "bike_id": "9e4bb34e1974a478de740749aae2a45f", "type": "electric_scooter", "is_reserved": 0, "lon": -77.03233766666666}, {"fusion_lat": 0.0, "name": "1898d90c90496d1a9f66ebb96c57aff4", "is_disabled": 0, "rental_uris": {"android": "https://dc.lft.to/lastmile_qr_scan", "ios": "https://dc.lft.to/lastmile_qr_scan"}, "fusion_lon": 0.0, "lat": 38.9077035, "bike_id": "1898d90c90496d1a9f66ebb96c57aff4", "type": "electric_scooter", "is_reserved": 0, "lon": -77.03188283333333}, {"fusion_lat": 0.0, "name": "e2f9526fdc35331e46185a4d24aba933", "is_disabled": 0, "rental_uris": {"android": "https://dc.lft.to/lastmile_qr_scan", "ios": "https://dc.lft.to/lastmile_qr_scan"}, "fusion_lon": 0.0, "lat": 38.92579933333333, "bike_id": "e2f9526fdc35331e46185a4d24aba933", "type": "electric_scooter", "is_reserved": 0, "lon": -77.02728483333334}, {"fusion_lat": 0.0, "name": "89f768793924abf6527e5cac3a272e6a", "is_disabled": 0, "rental_uris": {"android": "https://dc.lft.to/lastmile_qr_scan", "ios": "https://dc.lft.to/lastmile_qr_scan"}, "fusion_lon": 0.0, "lat": 38.92062283333333, "bike_id": "89f768793924abf6527e5cac3a272e6a", "type": "electric_scooter", "is_reserved": 0, "lon": -77.027145}, {"fusion_lat": 0.0, "name": "9aac1662a910c21460bc347904b76b20", "is_disabled": 0, "rental_uris": {"android": "https://dc.lft.to/lastmile_qr_scan", "ios": "https://dc.lft.to/lastmile_qr_scan"}, "fusion_lon": 0.0, "lat": 38.901824166666664, "bike_id": "9aac1662a910c21460bc347904b76b20", "type": "electric_scooter", "is_reserved": 0, "lon": -77.058938}, {"fusion_lat": 0.0, "name": "28f171f681b8c3ee883540851e1e3504", "is_disabled": 0, "rental_uris": {"android": "https://dc.lft.to/lastmile_qr_scan", "ios": "https://dc.lft.to/lastmile_qr_scan"}, "fusion_lon": 0.0, "lat": 38.92368333333334, "bike_id": "28f171f681b8c3ee883540851e1e3504", "type": "electric_scooter", "is_reserved": 0, "lon": -77.081457}, {"fusion_lat": 0.0, "name": "8e98760c87fb30044fbde40e54525269", "is_disabled": 0, "rental_uris": {"android": "https://dc.lft.to/lastmile_qr_scan", "ios": "https://dc.lft.to/lastmile_qr_scan"}, "fusion_lon": 0.0, "lat": 38.916681, "bike_id": "8e98760c87fb30044fbde40e54525269", "type": "electric_scooter", "is_reserved": 0, "lon": -77.02283233333333}, {"fusion_lat": 0.0, "name": "555d261576d1e093013cabcfc6415429", "is_disabled": 0, "rental_uris": {"android": "https://dc.lft.to/lastmile_qr_scan", "ios": "https://dc.lft.to/lastmile_qr_scan"}, "fusion_lon": 0.0, "lat": 38.96130133333333, "bike_id": "555d261576d1e093013cabcfc6415429", "type": "electric_scooter", "is_reserved": 0, "lon": -77.0279285}, {"fusion_lat": 0.0, "name": "be631cca0a00dd280ef6104e45339b6a", "is_disabled": 0, "rental_uris": {"android": "https://dc.lft.to/lastmile_qr_scan", "ios": "https://dc.lft.to/lastmile_qr_scan"}, "fusion_lon": 0.0, "lat": 38.911236333333335, "bike_id": "be631cca0a00dd280ef6104e45339b6a", "type": "electric_scooter", "is_reserved": 0, "lon": -77.0219915}, {"fusion_lat": 0.0, "name": "305a051941835cc642a5dfde229e46d8", "is_disabled": 0, "rental_uris": {"android": "https://dc.lft.to/lastmile_qr_scan", "ios": "https://dc.lft.to/lastmile_qr_scan"}, "fusion_lon": 0.0, "lat": 38.900261, "bike_id": "305a051941835cc642a5dfde229e46d8", "type": "electric_scooter", "is_reserved": 0, "lon": -76.9913775}, {"fusion_lat": 0.0, "name": "1efff28ee10c8a2c2367a3fe0edbad00", "is_disabled": 0, "rental_uris": {"android": "https://dc.lft.to/lastmile_qr_scan", "ios": "https://dc.lft.to/lastmile_qr_scan"}, "fusion_lon": 0.0, "lat": 38.92295383333333, "bike_id": "1efff28ee10c8a2c2367a3fe0edbad00", "type": "electric_scooter", "is_reserved": 0, "lon": -76.994335}, {"fusion_lat": 0.0, "name": "e372a74b7280f40a57c9a8bb0696c231", "is_disabled": 0, "rental_uris": {"android": "https://dc.lft.to/lastmile_qr_scan", "ios": "https://dc.lft.to/lastmile_qr_scan"}, "fusion_lon": 0.0, "lat": 38.889639, "bike_id": "e372a74b7280f40a57c9a8bb0696c231", "type": "electric_scooter", "is_reserved": 0, "lon": -77.01505333333333}, {"fusion_lat": 0.0, "name": "f00f4d5246e4520b0a3d89f15c9a1f04", "is_disabled": 0, "rental_uris": {"android": "https://dc.lft.to/lastmile_qr_scan", "ios": "https://dc.lft.to/lastmile_qr_scan"}, "fusion_lon": 0.0, "lat": 38.89004283333333, "bike_id": "f00f4d5246e4520b0a3d89f15c9a1f04", "type": "electric_scooter", "is_reserved": 0, "lon": -76.93739416666666}, {"fusion_lat": 0.0, "name": "379e1cb5693db4ea87abfe718b243807", "is_disabled": 0, "rental_uris": {"android": "https://dc.lft.to/lastmile_qr_scan", "ios": "https://dc.lft.to/lastmile_qr_scan"}, "fusion_lon": 0.0, "lat": 38.91565, "bike_id": "379e1cb5693db4ea87abfe718b243807", "type": "electric_scooter", "is_reserved": 0, "lon": -77.03247683333333}, {"fusion_lat": 0.0, "name": "cdee736623c795722eba993568593710", "is_disabled": 0, "rental_uris": {"android": "https://dc.lft.to/lastmile_qr_scan", "ios": "https://dc.lft.to/lastmile_qr_scan"}, "fusion_lon": 0.0, "lat": 38.87686433333333, "bike_id": "cdee736623c795722eba993568593710", "type": "electric_scooter", "is_reserved": 0, "lon": -77.01758416666667}, {"fusion_lat": 0.0, "name": "f75dcf9238ddf9a90d87529740592f26", "is_disabled": 0, "rental_uris": {"android": "https://dc.lft.to/lastmile_qr_scan", "ios": "https://dc.lft.to/lastmile_qr_scan"}, "fusion_lon": 0.0, "lat": 38.88480783333333, "bike_id": "f75dcf9238ddf9a90d87529740592f26", "type": "electric_scooter", "is_reserved": 0, "lon": -77.02425833333334}, {"fusion_lat": 0.0, "name": "64fcdcf3fd1c21d5dfda409f257e964f", "is_disabled": 0, "rental_uris": {"android": "https://dc.lft.to/lastmile_qr_scan", "ios": "https://dc.lft.to/lastmile_qr_scan"}, "fusion_lon": 0.0, "lat": 38.886107, "bike_id": "64fcdcf3fd1c21d5dfda409f257e964f", "type": "electric_scooter", "is_reserved": 0, "lon": -77.012511}, {"fusion_lat": 0.0, "name": "9c1ed4c64bdcf582421d31f4f4504d31", "is_disabled": 0, "rental_uris": {"android": "https://dc.lft.to/lastmile_qr_scan", "ios": "https://dc.lft.to/lastmile_qr_scan"}, "fusion_lon": 0.0, "lat": 38.93494066666667, "bike_id": "9c1ed4c64bdcf582421d31f4f4504d31", "type": "electric_scooter", "is_reserved": 0, "lon": -77.03614566666667}, {"fusion_lat": 0.0, "name": "ee55ed7c806124101a54135de550c57a", "is_disabled": 0, "rental_uris": {"android": "https://dc.lft.to/lastmile_qr_scan", "ios": "https://dc.lft.to/lastmile_qr_scan"}, "fusion_lon": 0.0, "lat": 38.892329333333336, "bike_id": "ee55ed7c806124101a54135de550c57a", "type": "electric_scooter", "is_reserved": 0, "lon": -77.04655733333334}, {"fusion_lat": 0.0, "name": "bd5e13bdc25cbf3b8b1485aab237b069", "is_disabled": 0, "rental_uris": {"android": "https://dc.lft.to/lastmile_qr_scan", "ios": "https://dc.lft.to/lastmile_qr_scan"}, "fusion_lon": 0.0, "lat": 38.91658116666667, "bike_id": "bd5e13bdc25cbf3b8b1485aab237b069", "type": "electric_scooter", "is_reserved": 0, "lon": -77.0281135}, {"fusion_lat": 0.0, "name": "9f8ee7bb869c47914f51e21388a87be8", "is_disabled": 0, "rental_uris": {"android": "https://dc.lft.to/lastmile_qr_scan", "ios": "https://dc.lft.to/lastmile_qr_scan"}, "fusion_lon": 0.0, "lat": 38.9132665, "bike_id": "9f8ee7bb869c47914f51e21388a87be8", "type": "electric_scooter", "is_reserved": 0, "lon": -77.04535766666666}, {"fusion_lat": 0.0, "name": "652d688fe17b84d6141363c541b7eaef", "is_disabled": 0, "rental_uris": {"android": "https://dc.lft.to/lastmile_qr_scan", "ios": "https://dc.lft.to/lastmile_qr_scan"}, "fusion_lon": 0.0, "lat": 38.913544, "bike_id": "652d688fe17b84d6141363c541b7eaef", "type": "electric_scooter", "is_reserved": 0, "lon": -77.02183616666667}, {"fusion_lat": 0.0, "name": "68a5b73130e7d818623c1c46a208fd32", "is_disabled": 0, "rental_uris": {"android": "https://dc.lft.to/lastmile_qr_scan", "ios": "https://dc.lft.to/lastmile_qr_scan"}, "fusion_lon": 0.0, "lat": 38.90255666666667, "bike_id": "68a5b73130e7d818623c1c46a208fd32", "type": "electric_scooter", "is_reserved": 0, "lon": -77.05341816666666}, {"fusion_lat": 0.0, "name": "b38e807ffc43a16b4ae9788b5704e919", "is_disabled": 0, "rental_uris": {"android": "https://dc.lft.to/lastmile_qr_scan", "ios": "https://dc.lft.to/lastmile_qr_scan"}, "fusion_lon": 0.0, "lat": 38.9286375, "bike_id": "b38e807ffc43a16b4ae9788b5704e919", "type": "electric_scooter", "is_reserved": 0, "lon": -77.01375}, {"fusion_lat": 0.0, "name": "eb9ce3ccbbcd99df83d7d4665b4c335b", "is_disabled": 0, "rental_uris": {"android": "https://dc.lft.to/lastmile_qr_scan", "ios": "https://dc.lft.to/lastmile_qr_scan"}, "fusion_lon": 0.0, "lat": 38.9050995, "bike_id": "eb9ce3ccbbcd99df83d7d4665b4c335b", "type": "electric_scooter", "is_reserved": 0, "lon": -77.0514195}, {"fusion_lat": 0.0, "name": "1fce7da4160715f54905e56eb0d7c864", "is_disabled": 0, "rental_uris": {"android": "https://dc.lft.to/lastmile_qr_scan", "ios": "https://dc.lft.to/lastmile_qr_scan"}, "fusion_lon": 0.0, "lat": 38.9161475, "bike_id": "1fce7da4160715f54905e56eb0d7c864", "type": "electric_scooter", "is_reserved": 0, "lon": -77.03154466666666}, {"fusion_lat": 0.0, "name": "df2f493cc1e349da27ae093f1b08d2ab", "is_disabled": 0, "rental_uris": {"android": "https://dc.lft.to/lastmile_qr_scan", "ios": "https://dc.lft.to/lastmile_qr_scan"}, "fusion_lon": 0.0, "lat": 38.9331825, "bike_id": "df2f493cc1e349da27ae093f1b08d2ab", "type": "electric_scooter", "is_reserved": 0, "lon": -77.02754983333334}, {"fusion_lat": 0.0, "name": "47fc2fefb9abbdd53cce41f7af34c4c9", "is_disabled": 0, "rental_uris": {"android": "https://dc.lft.to/lastmile_qr_scan", "ios": "https://dc.lft.to/lastmile_qr_scan"}, "fusion_lon": 0.0, "lat": 38.90196366666667, "bike_id": "47fc2fefb9abbdd53cce41f7af34c4c9", "type": "electric_scooter", "is_reserved": 0, "lon": -76.97858433333333}, {"fusion_lat": 0.0, "name": "366f77ae03f8d48a4c5e057c5993cd84", "is_disabled": 0, "rental_uris": {"android": "https://dc.lft.to/lastmile_qr_scan", "ios": "https://dc.lft.to/lastmile_qr_scan"}, "fusion_lon": 0.0, "lat": 38.896067333333335, "bike_id": "366f77ae03f8d48a4c5e057c5993cd84", "type": "electric_scooter", "is_reserved": 0, "lon": -77.00919433333334}, {"fusion_lat": 0.0, "name": "557decba92c24cd9f4b2c1b20357ceaa", "is_disabled": 0, "rental_uris": {"android": "https://dc.lft.to/lastmile_qr_scan", "ios": "https://dc.lft.to/lastmile_qr_scan"}, "fusion_lon": 0.0, "lat": 38.886379166666664, "bike_id": "557decba92c24cd9f4b2c1b20357ceaa", "type": "electric_scooter", "is_reserved": 0, "lon": -77.0196015}, {"fusion_lat": 0.0, "name": "4d99f1b82128022b24431a10f281452c", "is_disabled": 0, "rental_uris": {"android": "https://dc.lft.to/lastmile_qr_scan", "ios": "https://dc.lft.to/lastmile_qr_scan"},