{"data": {"bikes": [{"is_disabled": 0, "fusion_lon": 0.0, "fusion_lat": 0.0, "lat": 38.916886166666664, "type": "electric_scooter", "lon": -76.9808455, "bike_id": "3790656456a8269fb55a0cdbba3f73f8", "rental_uris": {"android": "https://dc.lft.to/lastmile_qr_scan", "ios": "https://dc.lft.to/lastmile_qr_scan"}, "name": "3790656456a8269fb55a0cdbba3f73f8", "is_reserved": 0}, {"is_disabled": 0, "fusion_lon": 0.0, "fusion_lat": 0.0, "lat": 38.8429175, "type": "electric_scooter", "lon": -76.99946133333333, "bike_id": "86b8d40cec5d98d58452a32afb6290c6", "rental_uris": {"android": "https://dc.lft.to/lastmile_qr_scan", "ios": "https://dc.lft.to/lastmile_qr_scan"}, "name": "86b8d40cec5d98d58452a32afb6290c6", "is_reserved": 0}, {"is_disabled": 0, "fusion_lon": 0.0, "fusion_lat": 0.0, "lat": 38.908289, "type": "electric_scooter", "lon": -76.99701516666667, "bike_id": "e5ffddb7636dfd732b0191eabd52bc4b", "rental_uris": {"android": "https://dc.lft.to/lastmile_qr_scan", "ios": "https://dc.lft.to/lastmile_qr_scan"}, "name": "e5ffddb7636dfd732b0191eabd52bc4b", "is_reserved": 0}, {"is_disabled": 0, "fusion_lon": 0.0, "fusion_lat": 0.0, "lat": 38.89728433333333, "type": "electric_scooter", "lon": -77.04676583333334, "bike_id": "fc0aa9a34d463ef0591a492ab91f6825", "rental_uris": {"android": "https://dc.lft.to/lastmile_qr_scan", "ios": "https://dc.lft.to/lastmile_qr_scan"}, "name": "fc0aa9a34d463ef0591a492ab91f6825", "is_reserved": 0}, {"is_disabled": 0, "fusion_lon": 0.0, "fusion_lat": 0.0, "lat": 39.029985333333336, "type": "electric_bike", "lon": -77.10654933333333, "bike_id": "f4e070dd591f0806475f697d11f74d27", "rental_uris": {"android": "https://dc.lft.to/lastmile_qr_scan", "ios": "https://dc.lft.to/lastmile_qr_scan"}, "name": "f4e070dd591f0806475f697d11f74d27", "is_reserved": 0}, {"is_disabled": 0, "fusion_lon": 0.0, "fusion_lat": 0.0, "lat": 38.93721583333333, "type": "electric_scooter", "lon": -77.03359, "bike_id": "e9762a01a547261dd90d508a28692367", "rental_uris": {"android": "https://dc.lft.to/lastmile_qr_scan", "ios": "https://dc.lft.to/lastmile_qr_scan"}, "name": "e9762a01a547261dd90d508a28692367", "is_reserved": 0}, {"is_disabled": 0, "fusion_lon": 0.0, "fusion_lat": 0.0, "lat": 38.91184116666667, "type": "electric_scooter", "lon": -77.01877466666667, "bike_id": "ffaf9a7daa787859da59826041910995", "rental_uris": {"android": "https://dc.lft.to/lastmile_qr_scan", "ios": "https://dc.lft.to/lastmile_qr_scan"}, "name": "ffaf9a7daa787859da59826041910995", "is_reserved": 0}, {"is_disabled": 0, "fusion_lon": 0.0, "fusion_lat": 0.0, "lat": 38.920569, "type": "electric_scooter", "lon": -77.02370833333333, "bike_id": "2dcfe5bc9397545d0353e189fc60cba5", "rental_uris": {"android": "https://dc.lft.to/lastmile_qr_scan", "ios": "https://dc.lft.to/lastmile_qr_scan"}, "name": "2dcfe5bc9397545d0353e189fc60cba5", "is_reserved": 0}, {"is_disabled": 0, "fusion_lon": 0.0, "fusion_lat": 0.0, "lat": 38.9402505, "type": "electric_scooter", "lon": -77.02494816666666, "bike_id": "26990d9878afd34fc54719e1e718bf48", "rental_uris": {"android": "https://dc.lft.to/lastmile_qr_scan", "ios": "https://dc.lft.to/lastmile_qr_scan"}, "name": "26990d9878afd34fc54719e1e718bf48", "is_reserved": 0}, {"is_disabled": 0, "fusion_lon": 0.0, "fusion_lat": 0.0, "lat": 38.92876866666667, "type": "electric_scooter", "lon": -77.032444, "bike_id": "1b0162c4cc631a78d87b2b3a8b126005", "rental_uris": {"android": "https://dc.lft.to/lastmile_qr_scan", "ios": "https://dc.lft.to/lastmile_qr_scan"}, "name": "1b0162c4cc631a78d87b2b3a8b126005", "is_reserved": 0}, {"is_disabled": 0, "fusion_lon": 0.0, "fusion_lat": 0.0, "lat": 38.9053025, "type": "electric_scooter", "lon": -77.0509225, "bike_id": "9901c71c432ad0a69e39da89d82385bc", "rental_uris": {"android": "https://dc.lft.to/lastmile_qr_scan", "ios": "https://dc.lft.to/lastmile_qr_scan"}, "name": "9901c71c432ad0a69e39da89d82385bc", "is_reserved": 0}, {"is_disabled": 0, "fusion_lon": 0.0, "fusion_lat": 0.0, "lat": 38.91064166666666, "type": "electric_scooter", "lon": -77.0427285, "bike_id": "3192a8c042487911cdca3e6c8069c87d", "rental_uris": {"android": "https://dc.lft.to/lastmile_qr_scan", "ios": "https://dc.lft.to/lastmile_qr_scan"}, "name": "3192a8c042487911cdca3e6c8069c87d", "is_reserved": 0}, {"is_disabled": 0, "fusion_lon": 0.0, "fusion_lat": 0.0, "lat": 38.89954516666667, "type": "electric_scooter", "lon": -77.05222933333333, "bike_id": "84c686f9804ad39e673c1497e0c3c84e", "rental_uris": {"android": "https://dc.lft.to/lastmile_qr_scan", "ios": "https://dc.lft.to/lastmile_qr_scan"}, "name": "84c686f9804ad39e673c1497e0c3c84e", "is_reserved": 0}, {"is_disabled": 0, "fusion_lon": 0.0, "fusion_lat": 0.0, "lat": 38.98562233333333, "type": "electric_bike", "lon": -76.98830333333333, "bike_id": "0dca6a86ce10f98bc392a78a71655114", "rental_uris": {"android": "https://dc.lft.to/lastmile_qr_scan", "ios": "https://dc.lft.to/lastmile_qr_scan"}, "name": "0dca6a86ce10f98bc392a78a71655114", "is_reserved": 0}, {"is_disabled": 0, "fusion_lon": 0.0, "fusion_lat": 0.0, "lat": 38.92742633333334, "type": "electric_scooter", "lon": -77.01201516666667, "bike_id": "353ea6d4df6c24fbaa2909572114c6b2", "rental_uris": {"android": "https://dc.lft.to/lastmile_qr_scan", "ios": "https://dc.lft.to/lastmile_qr_scan"}, "name": "353ea6d4df6c24fbaa2909572114c6b2", "is_reserved": 0}, {"is_disabled": 0, "fusion_lon": 0.0, "fusion_lat": 0.0, "lat": 38.932533, "type": "electric_scooter", "lon": -77.03279833333333, "bike_id": "d211ec8e44a907fe6808f89280d714a5", "rental_uris": {"android": "https://dc.lft.to/lastmile_qr_scan", "ios": "https://dc.lft.to/lastmile_qr_scan"}, "name": "d211ec8e44a907fe6808f89280d714a5", "is_reserved": 0}, {"is_disabled": 0, "fusion_lon": 0.0, "fusion_lat": 0.0, "lat": 38.900595333333335, "type": "electric_scooter", "lon": -77.0126175, "bike_id": "f692551ace3db6d5e16a813676eeef4f", "rental_uris": {"android": "https://dc.lft.to/lastmile_qr_scan", "ios": "https://dc.lft.to/lastmile_qr_scan"}, "name": "f692551ace3db6d5e16a813676eeef4f", "is_reserved": 0}, {"is_disabled": 0, "fusion_lon": 0.0, "fusion_lat": 0.0, "lat": 38.90864116666667, "type": "electric_scooter", "lon": -77.02686883333334, "bike_id": "f9ae16c68400639d8f3ac492c7805905", "rental_uris": {"android": "https://dc.lft.to/lastmile_qr_scan", "ios": "https://dc.lft.to/lastmile_qr_scan"}, "name": "f9ae16c68400639d8f3ac492c7805905", "is_reserved": 0}, {"is_disabled": 0, "fusion_lon": 0.0, "fusion_lat": 0.0, "lat": 38.91949616666667, "type": "electric_scooter", "lon": -77.000738, "bike_id": "a1816548c5d7f1eccbe2b04c83e709d6", "rental_uris": {"android": "https://dc.lft.to/lastmile_qr_scan", "ios": "https://dc.lft.to/lastmile_qr_scan"}, "name": "a1816548c5d7f1eccbe2b04c83e709d6", "is_reserved": 0}, {"is_disabled": 0, "fusion_lon": 0.0, "fusion_lat": 0.0, "lat": 38.924716333333336, "type": "electric_scooter", "lon": -77.03065716666667, "bike_id": "e6449e61753796f6ba9d06f5d8163726", "rental_uris": {"android": "https://dc.lft.to/lastmile_qr_scan", "ios": "https://dc.lft.to/lastmile_qr_scan"}, "name": "e6449e61753796f6ba9d06f5d8163726", "is_reserved": 0}, {"is_disabled": 0, "fusion_lon": 0.0, "fusion_lat": 0.0, "lat": 38.90534683333333, "type": "electric_scooter", "lon": -77.057036, "bike_id": "fabcb674ccce06df0a1844ffd4e724a9", "rental_uris": {"android": "https://dc.lft.to/lastmile_qr_scan", "ios": "https://dc.lft.to/lastmile_qr_scan"}, "name": "fabcb674ccce06df0a1844ffd4e724a9", "is_reserved": 0}, {"is_disabled": 0, "fusion_lon": 0.0, "fusion_lat": 0.0, "lat": 38.906861166666665, "type": "electric_bike", "lon": -76.95196466666667, "bike_id": "c41a2920a4f30d7d38b2e9a3831fc2b1", "rental_uris": {"android": "https://dc.lft.to/lastmile_qr_scan", "ios": "https://dc.lft.to/lastmile_qr_scan"}, "name": "c41a2920a4f30d7d38b2e9a3831fc2b1", "is_reserved": 0}, {"is_disabled": 0, "fusion_lon": 0.0, "fusion_lat": 0.0, "lat": 38.925792333333334, "type": "electric_scooter", "lon": -77.03219283333334, "bike_id": "c58d2f45d1ef56776706d2f9f6e1bcdc", "rental_uris": {"android": "https://dc.lft.to/lastmile_qr_scan", "ios": "https://dc.lft.to/lastmile_qr_scan"}, "name": "c58d2f45d1ef56776706d2f9f6e1bcdc", "is_reserved": 0}, {"is_disabled": 0, "fusion_lon": 0.0, "fusion_lat": 0.0, "lat": 38.91955083333333, "type": "electric_scooter", "lon": -77.016545, "bike_id": "68c07c8b979ee365516b42ef282c0328", "rental_uris": {"android": "https://dc.lft.to/lastmile_qr_scan", "ios": "https://dc.lft.to/lastmile_qr_scan"}, "name": "68c07c8b979ee365516b42ef282c0328", "is_reserved": 0}, {"is_disabled": 0, "fusion_lon": 0.0, "fusion_lat": 0.0, "lat": 38.937678, "type": "electric_scooter", "lon": -77.0250355, "bike_id": "a9ff318befa366dc76b5b5b5cf77155c", "rental_uris": {"android": "https://dc.lft.to/lastmile_qr_scan", "ios": "https://dc.lft.to/lastmile_qr_scan"}, "name": "a9ff318befa366dc76b5b5b5cf77155c", "is_reserved": 0}, {"is_disabled": 0, "fusion_lon": 0.0, "fusion_lat": 0.0, "lat": 38.957731333333335, "type": "electric_bike", "lon": -76.94099133333333, "bike_id": "506fc44dff43b0b72889997103eae3ae", "rental_uris": {"android": "https://dc.lft.to/lastmile_qr_scan", "ios": "https://dc.lft.to/lastmile_qr_scan"}, "name": "506fc44dff43b0b72889997103eae3ae", "is_reserved": 0}, {"is_disabled": 0, "fusion_lon": 0.0, "fusion_lat": 0.0, "lat": 38.893590333333336, "type": "electric_scooter", "lon": -76.940182, "bike_id": "7d280aa397e82e8a74b6226a8fba9fd0", "rental_uris": {"android": "https://dc.lft.to/lastmile_qr_scan", "ios": "https://dc.lft.to/lastmile_qr_scan"}, "name": "7d280aa397e82e8a74b6226a8fba9fd0", "is_reserved": 0}, {"is_disabled": 0, "fusion_lon": 0.0, "fusion_lat": 0.0, "lat": 38.8747805, "type": "electric_bike", "lon": -76.96519816666667, "bike_id": "5e0254ce83745bf883522e026d3c5098", "rental_uris": {"android": "https://dc.lft.to/lastmile_qr_scan", "ios": "https://dc.lft.to/lastmile_qr_scan"}, "name": "5e0254ce83745bf883522e026d3c5098", "is_reserved": 0}, {"is_disabled": 0, "fusion_lon": 0.0, "fusion_lat": 0.0, "lat": 38.90104783333334, "type": "electric_scooter", "lon": -77.03160916666667, "bike_id": "fc2ffa505c2e5526c6d645384e5c6cf0", "rental_uris": {"android": "https://dc.lft.to/lastmile_qr_scan", "ios": "https://dc.lft.to/lastmile_qr_scan"}, "name": "fc2ffa505c2e5526c6d645384e5c6cf0", "is_reserved": 0}, {"is_disabled": 0, "fusion_lon": 0.0, "fusion_lat": 0.0, "lat": 38.92114683333333, "type": "electric_scooter", "lon": -77.04217, "bike_id": "0145fc0c770c2712a481170b05f7c9c9", "rental_uris": {"android": "https://dc.lft.to/lastmile_qr_scan", "ios": "https://dc.lft.to/lastmile_qr_scan"}, "name": "0145fc0c770c2712a481170b05f7c9c9", "is_reserved": 0}, {"is_disabled": 0, "fusion_lon": 0.0, "fusion_lat": 0.0, "lat": 38.917125666666664, "type": "electric_scooter", "lon": -77.0347535, "bike_id": "6fa00877f556a2372eee82a6a1b90c43", "rental_uris": {"android": "https://dc.lft.to/lastmile_qr_scan", "ios": "https://dc.lft.to/lastmile_qr_scan"}, "name": "6fa00877f556a2372eee82a6a1b90c43", "is_reserved": 0}, {"is_disabled": 0, "fusion_lon": 0.0, "fusion_lat": 0.0, "lat": 38.90755566666667, "type": "electric_scooter", "lon": -77.03199133333334, "bike_id": "9475204a1ccbdac6b9364afe91829b0f", "rental_uris": {"android": "https://dc.lft.to/lastmile_qr_scan", "ios": "https://dc.lft.to/lastmile_qr_scan"}, "name": "9475204a1ccbdac6b9364afe91829b0f", "is_reserved": 0}, {"is_disabled": 0, "fusion_lon": 0.0, "fusion_lat": 0.0, "lat": 38.91734833333334, "type": "electric_scooter", "lon": -76.9917965, "bike_id": "f634e53d03bcfa764f29cab3546964fd", "rental_uris": {"android": "https://dc.lft.to/lastmile_qr_scan", "ios": "https://dc.lft.to/lastmile_qr_scan"}, "name": "f634e53d03bcfa764f29cab3546964fd", "is_reserved": 0}, {"is_disabled": 0, "fusion_lon": 0.0, "fusion_lat": 0.0, "lat": 38.901599833333336, "type": "electric_scooter", "lon": -76.99374083333333, "bike_id": "840d7dacf3a0bfd4f31f88a0ddf6ffe5", "rental_uris": {"android": "https://dc.lft.to/lastmile_qr_scan", "ios": "https://dc.lft.to/lastmile_qr_scan"}, "name": "840d7dacf3a0bfd4f31f88a0ddf6ffe5", "is_reserved": 0}, {"is_disabled": 0, "fusion_lon": 0.0, "fusion_lat": 0.0, "lat": 38.9705525, "type": "electric_bike", "lon": -76.96064283333334, "bike_id": "9fa9de9c4a62fb3c78788ef44fb10a04", "rental_uris": {"android": "https://dc.lft.to/lastmile_qr_scan", "ios": "https://dc.lft.to/lastmile_qr_scan"}, "name": "9fa9de9c4a62fb3c78788ef44fb10a04", "is_reserved": 0}, {"is_disabled": 0, "fusion_lon": 0.0, "fusion_lat": 0.0, "lat": 38.8857095, "type": "electric_scooter", "lon": -77.000721, "bike_id": "f80f874eb02f69c1624647790ad8e74f", "rental_uris": {"android": "https://dc.lft.to/lastmile_qr_scan", "ios": "https://dc.lft.to/lastmile_qr_scan"}, "name": "f80f874eb02f69c1624647790ad8e74f", "is_reserved": 0}, {"is_disabled": 0, "fusion_lon": 0.0, "fusion_lat": 0.0, "lat": 38.94831033333333, "type": "electric_scooter", "lon": -77.02827983333333, "bike_id": "c76e6b173c378e1962a43c5986a98c5b", "rental_uris": {"android": "https://dc.lft.to/lastmile_qr_scan", "ios": "https://dc.lft.to/lastmile_qr_scan"}, "name": "c76e6b173c378e1962a43c5986a98c5b", "is_reserved": 0}, {"is_disabled": 0, "fusion_lon": 0.0, "fusion_lat": 0.0, "lat": 38.9157485, "type": "electric_scooter", "lon": -77.04679633333333, "bike_id": "62563bf5fe0f3faddf71152b70e47f4e", "rental_uris": {"android": "https://dc.lft.to/lastmile_qr_scan", "ios": "https://dc.lft.to/lastmile_qr_scan"}, "name": "62563bf5fe0f3faddf71152b70e47f4e", "is_reserved": 0}, {"is_disabled": 0, "fusion_lon": 0.0, "fusion_lat": 0.0, "lat": 38.917949, "type": "electric_scooter", "lon": -77.0346175, "bike_id": "5255a475a39a77f2c9d61816abed8a94", "rental_uris": {"android": "https://dc.lft.to/lastmile_qr_scan", "ios": "https://dc.lft.to/lastmile_qr_scan"}, "name": "5255a475a39a77f2c9d61816abed8a94", "is_reserved": 0}, {"is_disabled": 0, "fusion_lon": 0.0, "fusion_lat": 0.0, "lat": 38.9480835, "type": "electric_bike", "lon": -76.97211833333333, "bike_id": "2af53f4824934260712573eea969c9a7", "rental_uris": {"android": "https://dc.lft.to/lastmile_qr_scan", "ios": "https://dc.lft.to/lastmile_qr_scan"}, "name": "2af53f4824934260712573eea969c9a7", "is_reserved": 0}, {"is_disabled": 0, "fusion_lon": 0.0, "fusion_lat": 0.0, "lat": 38.915742333333334, "type": "electric_scooter", "lon": -77.020042, "bike_id": "de90a6a5651bff26e57f013c564b62f8", "rental_uris": {"android": "https://dc.lft.to/lastmile_qr_scan", "ios": "https://dc.lft.to/lastmile_qr_scan"}, "name": "de90a6a5651bff26e57f013c564b62f8", "is_reserved": 0}, {"is_disabled": 0, "fusion_lon": 0.0, "fusion_lat": 0.0, "lat": 38.92166616666667, "type": "electric_scooter", "lon": -77.04335833333333, "bike_id": "e9e08615182d338675dd51d2bb53a58d", "rental_uris": {"android": "https://dc.lft.to/lastmile_qr_scan", "ios": "https://dc.lft.to/lastmile_qr_scan"}, "name": "e9e08615182d338675dd51d2bb53a58d", "is_reserved": 0}, {"is_disabled": 0, "fusion_lon": 0.0, "fusion_lat": 0.0, "lat": 38.91201566666667, "type": "electric_scooter", "lon": -76.98483183333333, "bike_id": "156c529631ee589086b4b628aec17c16", "rental_uris": {"android": "https://dc.lft.to/lastmile_qr_scan", "ios": "https://dc.lft.to/lastmile_qr_scan"}, "name": "156c529631ee589086b4b628aec17c16", "is_reserved": 0}, {"is_disabled": 0, "fusion_lon": 0.0, "fusion_lat": 0.0, "lat": 38.89222, "type": "electric_scooter", "lon": -77.02221166666666, "bike_id": "9d3517a5fe0029044b13b53f74f8ea45", "rental_uris": {"android": "https://dc.lft.to/lastmile_qr_scan", "ios": "https://dc.lft.to/lastmile_qr_scan"}, "name": "9d3517a5fe0029044b13b53f74f8ea45", "is_reserved": 0}, {"is_disabled": 0, "fusion_lon": 0.0, "fusion_lat": 0.0, "lat": 38.9086025, "type": "electric_scooter", "lon": -76.99806683333334, "bike_id": "1a196eaf7d2f4c01ae363a483b4d2f5e", "rental_uris": {"android": "https://dc.lft.to/lastmile_qr_scan", "ios": "https://dc.lft.to/lastmile_qr_scan"}, "name": "1a196eaf7d2f4c01ae363a483b4d2f5e", "is_reserved": 0}, {"is_disabled": 0, "fusion_lon": 0.0, "fusion_lat": 0.0, "lat": 38.90727166666667, "type": "electric_scooter", "lon": -77.02368566666667, "bike_id": "ca5da73f2d95ec6765b3d433dfbe4059", "rental_uris": {"android": "https://dc.lft.to/lastmile_qr_scan", "ios": "https://dc.lft.to/lastmile_qr_scan"}, "name": "ca5da73f2d95ec6765b3d433dfbe4059", "is_reserved": 0}, {"is_disabled": 0, "fusion_lon": 0.0, "fusion_lat": 0.0, "lat": 38.911356, "type": "electric_scooter", "lon": -77.02193866666667, "bike_id": "882710a5c669232c914260c4895ff107", "rental_uris": {"android": "https://dc.lft.to/lastmile_qr_scan", "ios": "https://dc.lft.to/lastmile_qr_scan"}, "name": "882710a5c669232c914260c4895ff107", "is_reserved": 0}, {"is_disabled": 0, "fusion_lon": 0.0, "fusion_lat": 0.0, "lat": 38.86355316666667, "type": "electric_scooter", "lon": -76.99068016666666, "bike_id": "66d2a5a93ef3095d5ba61728eac1fb58", "rental_uris": {"android": "https://dc.lft.to/lastmile_qr_scan", "ios": "https://dc.lft.to/lastmile_qr_scan"}, "name": "66d2a5a93ef3095d5ba61728eac1fb58", "is_reserved": 0}, {"is_disabled": 0, "fusion_lon": 0.0, "fusion_lat": 0.0, "lat": 38.99090133333333, "type": "electric_bike", "lon": -76.87495483333333, "bike_id": "8644adfb2dac40ade15ac10f0f92ccc0", "rental_uris": {"android": "https://dc.lft.to/lastmile_qr_scan", "ios": "https://dc.lft.to/lastmile_qr_scan"}, "name": "8644adfb2dac40ade15ac10f0f92ccc0", "is_reserved": 0}, {"is_disabled": 0, "fusion_lon": 0.0, "fusion_lat": 0.0, "lat": 38.87494733333333, "type": "electric_bike", "lon": -77.0490025, "bike_id": "79cbce08bed4ccc3c36c1704322778f8", "rental_uris": {"android": "https://dc.lft.to/lastmile_qr_scan", "ios": "https://dc.lft.to/lastmile_qr_scan"}, "name": "79cbce08bed4ccc3c36c1704322778f8", "is_reserved": 0}, {"is_disabled": 0, "fusion_lon": 0.0, "fusion_lat": 0.0, "lat": 38.904079833333334, "type": "electric_scooter", "lon": -77.0259545, "bike_id": "b20565c54742a05cd6d8747fc6daacd7", "rental_uris": {"android": "https://dc.lft.to/lastmile_qr_scan", "ios": "https://dc.lft.to/lastmile_qr_scan"}, "name": "b20565c54742a05cd6d8747fc6daacd7", "is_reserved": 0}, {"is_disabled": 0, "fusion_lon": 0.0, "fusion_lat": 0.0, "lat": 38.95601683333334, "type": "electric_scooter", "lon": -77.00981633333333, "bike_id": "f65c5ef936b9f9329eb945105a008eab", "rental_uris": {"android": "https://dc.lft.to/lastmile_qr_scan", "ios": "https://dc.lft.to/lastmile_qr_scan"}, "name": "f65c5ef936b9f9329eb945105a008eab", "is_reserved": 0}, {"is_disabled": 0, "fusion_lon": 0.0, "fusion_lat": 0.0, "lat": 38.91837533333333, "type": "electric_scooter", "lon": -77.03519683333333, "bike_id": "563dc79e77d9d670a793e5ae943b08cd", "rental_uris": {"android": "https://dc.lft.to/lastmile_qr_scan", "ios": "https://dc.lft.to/lastmile_qr_scan"}, "name": "563dc79e77d9d670a793e5ae943b08cd", "is_reserved": 0}, {"is_disabled": 0, "fusion_lon": 0.0, "fusion_lat": 0.0, "lat": 38.91222333333333, "type": "electric_scooter", "lon": -77.0320935, "bike_id": "7c2aadf11f887e54d160763710272814", "rental_uris": {"android": "https://dc.lft.to/lastmile_qr_scan", "ios": "https://dc.lft.to/lastmile_qr_scan"}, "name": "7c2aadf11f887e54d160763710272814", "is_reserved": 0}, {"is_disabled": 0, "fusion_lon": 0.0, "fusion_lat": 0.0, "lat": 38.91544666666667, "type": "electric_scooter", "lon": -77.03848416666666, "bike_id": "f944356e77c39150d370c4fa3a81e465", "rental_uris": {"android": "https://dc.lft.to/lastmile_qr_scan", "ios": "https://dc.lft.to/lastmile_qr_scan"}, "name": "f944356e77c39150d370c4fa3a81e465", "is_reserved": 0}, {"is_disabled": 0, "fusion_lon": 0.0, "fusion_lat": 0.0, "lat": 38.945753, "type": "electric_bike", "lon": -76.96029533333333, "bike_id": "d1fc38d63a95aafc96002274b91a03ef", "rental_uris": {"android": "https://dc.lft.to/lastmile_qr_scan", "ios": "https://dc.lft.to/lastmile_qr_scan"}, "name": "d1fc38d63a95aafc96002274b91a03ef", "is_reserved": 0}, {"is_disabled": 0, "fusion_lon": 0.0, "fusion_lat": 0.0, "lat": 38.92605566666667, "type": "electric_scooter", "lon": -77.02158283333333, "bike_id": "564d75fb842ef4521ce25a260e0233a4", "rental_uris": {"android": "https://dc.lft.to/lastmile_qr_scan", "ios": "https://dc.lft.to/lastmile_qr_scan"}, "name": "564d75fb842ef4521ce25a260e0233a4", "is_reserved": 0}, {"is_disabled": 0, "fusion_lon": 0.0, "fusion_lat": 0.0, "lat": 38.902511, "type": "electric_scooter", "lon": -76.94625466666666, "bike_id": "66ede89a817b0831f1eed7f162688ff5", "rental_uris": {"android": "https://dc.lft.to/lastmile_qr_scan", "ios": "https://dc.lft.to/lastmile_qr_scan"}, "name": "66ede89a817b0831f1eed7f162688ff5", "is_reserved": 0}, {"is_disabled": 0, "fusion_lon": 0.0, "fusion_lat": 0.0, "lat": 38.962150333333334, "type": "electric_scooter", "lon": -77.02808183333333, "bike_id": "77f00c8c2b71cb399ff8a3000bf20e6a", "rental_uris": {"android": "https://dc.lft.to/lastmile_qr_scan", "ios": "https://dc.lft.to/lastmile_qr_scan"}, "name": "77f00c8c2b71cb399ff8a3000bf20e6a", "is_reserved": 0}, {"is_disabled": 0, "fusion_lon": 0.0, "fusion_lat": 0.0, "lat": 38.990632, "type": "electric_bike", "lon": -77.100289, "bike_id": "d3f0ad077103c922db7fc24fc958d3b6", "rental_uris": {"android": "https://dc.lft.to/lastmile_qr_scan", "ios": "https://dc.lft.to/lastmile_qr_scan"}, "name": "d3f0ad077103c922db7fc24fc958d3b6", "is_reserved": 0}, {"is_disabled": 0, "fusion_lon": 0.0, "fusion_lat": 0.0, "lat": 38.91130883333334, "type": "electric_scooter", "lon": -77.03752066666667, "bike_id": "e6e504a35180c96c89366fc5767d6cb6", "rental_uris": {"android": "https://dc.lft.to/lastmile_qr_scan", "ios": "https://dc.lft.to/lastmile_qr_scan"}, "name": "e6e504a35180c96c89366fc5767d6cb6", "is_reserved": 0}, {"is_disabled": 0, "fusion_lon": 0.0, "fusion_lat": 0.0, "lat": 38.902489333333335, "type": "electric_scooter", "lon": -77.06258383333333, "bike_id": "b7d5c8cb91d7b633fb99cb496373fdf0", "rental_uris": {"android": "https://dc.lft.to/lastmile_qr_scan", "ios": "https://dc.lft.to/lastmile_qr_scan"}, "name": "b7d5c8cb91d7b633fb99cb496373fdf0", "is_reserved": 0}, {"is_disabled": 0, "fusion_lon": 0.0, "fusion_lat": 0.0, "lat": 38.9285025, "type": "electric_scooter", "lon": -77.0140965, "bike_id": "434dd22424b2edcc7355b16e717926cd", "rental_uris": {"android": "https://dc.lft.to/lastmile_qr_scan", "ios": "https://dc.lft.to/lastmile_qr_scan"}, "name": "434dd22424b2edcc7355b16e717926cd", "is_reserved": 0}, {"is_disabled": 0, "fusion_lon": 0.0, "fusion_lat": 0.0, "lat": 38.918317, "type": "electric_scooter", "lon": -77.03208183333334, "bike_id": "c4c7a6f9751a443bb3309ae1b67da9a4", "rental_uris": {"android": "https://dc.lft.to/lastmile_qr_scan", "ios": "https://dc.lft.to/lastmile_qr_scan"}, "name": "c4c7a6f9751a443bb3309ae1b67da9a4", "is_reserved": 0}, {"is_disabled": 0, "fusion_lon": 0.0, "fusion_lat": 0.0, "lat": 38.92593166666666, "type": "electric_scooter", "lon": -77.02564016666666, "bike_id": "6412e28543b2a2233290ef36797988ed", "rental_uris": {"android": "https://dc.lft.to/lastmile_qr_scan", "ios": "https://dc.lft.to/lastmile_qr_scan"}, "name": "6412e28543b2a2233290ef36797988ed", "is_reserved": 0}, {"is_disabled": 0, "fusion_lon": 0.0, "fusion_lat": 0.0, "lat": 38.87659, "type": "electric_scooter", "lon": -77.017387, "bike_id": "aeac2821b41bf365d0ad5d8308e74006", "rental_uris": {"android": "https://dc.lft.to/lastmile_qr_scan", "ios": "https://dc.lft.to/lastmile_qr_scan"}, "name": "aeac2821b41bf365d0ad5d8308e74006", "is_reserved": 0}, {"is_disabled": 0, "fusion_lon": 0.0, "fusion_lat": 0.0, "lat": 38.912333333333336, "type": "electric_scooter", "lon": -77.0487675, "bike_id": "230ad3feed5ef8ab3260a67f9a6a0163", "rental_uris": {"android": "https://dc.lft.to/lastmile_qr_scan", "ios": "https://dc.lft.to/lastmile_qr_scan"}, "name": "230ad3feed5ef8ab3260a67f9a6a0163", "is_reserved": 0}, {"is_disabled": 0, "fusion_lon": 0.0, "fusion_lat": 0.0, "lat": 38.93497, "type": "electric_scooter", "lon": -77.02722833333333, "bike_id": "b5b94d562953b98c615c43188ede60bf", "rental_uris": {"android": "https://dc.lft.to/lastmile_qr_scan", "ios": "https://dc.lft.to/lastmile_qr_scan"}, "name": "b5b94d562953b98c615c43188ede60bf", "is_reserved": 0}, {"is_disabled": 0, "fusion_lon": 0.0, "fusion_lat": 0.0, "lat": 38.900687833333336, "type": "electric_scooter", "lon": -77.048919, "bike_id": "10e68bea280aa898142ee774f2fe34e3", "rental_uris": {"android": "https://dc.lft.to/lastmile_qr_scan", "ios": "https://dc.lft.to/lastmile_qr_scan"}, "name": "10e68bea280aa898142ee774f2fe34e3", "is_reserved": 0}, {"is_disabled": 0, "fusion_lon": 0.0, "fusion_lat": 0.0, "lat": 38.928096833333335, "type": "electric_scooter", "lon": -77.05420783333334, "bike_id": "62856f9bd14fe269ef70e0b7e60efbdb", "rental_uris": {"android": "https://dc.lft.to/lastmile_qr_scan", "ios": "https://dc.lft.to/lastmile_qr_scan"}, "name": "62856f9bd14fe269ef70e0b7e60efbdb", "is_reserved": 0}, {"is_disabled": 0, "fusion_lon": 0.0, "fusion_lat": 0.0, "lat": 38.91591833333333, "type": "electric_scooter", "lon": -77.023522, "bike_id": "1251b7c109761e21261304eb52aedb83", "rental_uris": {"android": "https://dc.lft.to/lastmile_qr_scan", "ios": "https://dc.lft.to/lastmile_qr_scan"}, "name": "1251b7c109761e21261304eb52aedb83", "is_reserved": 0}, {"is_disabled": 0, "fusion_lon": 0.0, "fusion_lat": 0.0, "lat": 38.885812, "type": "electric_scooter", "lon": -77.01228983333333, "bike_id": "38127daeb8beee81c489d261eb4514c8", "rental_uris": {"android": "https://dc.lft.to/lastmile_qr_scan", "ios": "https://dc.lft.to/lastmile_qr_scan"}, "name": "38127daeb8beee81c489d261eb4514c8", "is_reserved": 0}, {"is_disabled": 0, "fusion_lon": 0.0, "fusion_lat": 0.0, "lat": 38.920595666666664, "type": "electric_scooter", "lon": -76.99886566666666, "bike_id": "e6ee8980c944b28bcc5dad7715c2f701", "rental_uris": {"android": "https://dc.lft.to/lastmile_qr_scan", "ios": "https://dc.lft.to/lastmile_qr_scan"}, "name": "e6ee8980c944b28bcc5dad7715c2f701", "is_reserved": 0}, {"is_disabled": 0, "fusion_lon": 0.0, "fusion_lat": 0.0, "lat": 38.932487, "type": "electric_scooter", "lon": -77.02973933333334, "bike_id": "719c305bfdad508df5ccf3ce2e8b547e", "rental_uris": {"android": "https://dc.lft.to/lastmile_qr_scan", "ios": "https://dc.lft.to/lastmile_qr_scan"}, "name": "719c305bfdad508df5ccf3ce2e8b547e", "is_reserved": 0}, {"is_disabled": 0, "fusion_lon": 0.0, "fusion_lat": 0.0, "lat": 38.895249166666666, "type": "electric_scooter", "lon": -76.94893016666667, "bike_id": "dab75ec919ba171a5b33f497c7ebd4c5", "rental_uris": {"android": "https://dc.lft.to/lastmile_qr_scan", "ios": "https://dc.lft.to/lastmile_qr_scan"}, "name": "dab75ec919ba171a5b33f497c7ebd4c5", "is_reserved": 0}, {"is_disabled": 0, "fusion_lon": 0.0, "fusion_lat": 0.0, "lat": 38.91561083333333, "type": "electric_scooter", "lon": -77.04108183333334, "bike_id": "c9860a3639aaa39f379e7eedd4e37b09", "rental_uris": {"android": "https://dc.lft.to/lastmile_qr_scan", "ios": "https://dc.lft.to/lastmile_qr_scan"}, "name": "c9860a3639aaa39f379e7eedd4e37b09", "is_reserved": 0}, {"is_disabled": 0, "fusion_lon": 0.0, "fusion_lat": 0.0, "lat": 38.91582483333333, "type": "electric_scooter", "lon": -77.01999583333334, "bike_id": "ccafed3fd31c10be93bdd6c4b70408a1", "rental_uris": {"android": "https://dc.lft.to/lastmile_qr_scan", "ios": "https://dc.lft.to/lastmile_qr_scan"}, "name": "ccafed3fd31c10be93bdd6c4b70408a1", "is_reserved": 0}, {"is_disabled": 0, "fusion_lon": 0.0, "fusion_lat": 0.0, "lat": 38.90332766666667, "type": "electric_bike", "lon": -76.975336, "bike_id": "5b35bc245a151eb5365f03edc6860978", "rental_uris": {"android": "https://dc.lft.to/lastmile_qr_scan", "ios": "https://dc.lft.to/lastmile_qr_scan"}, "name": "5b35bc245a151eb5365f03edc6860978", "is_reserved": 0}, {"is_disabled": 0, "fusion_lon": 0.0, "fusion_lat": 0.0, "lat": 38.988249833333334, "type": "electric_bike", "lon": -76.98752616666667, "bike_id": "7993fb02dd0dd0674e9b6201ff59431c", "rental_uris": {"android": "https://dc.lft.to/lastmile_qr_scan", "ios": "https://dc.lft.to/lastmile_qr_scan"}, "name": "7993fb02dd0dd0674e9b6201ff59431c", "is_reserved": 0}, {"is_disabled": 0, "fusion_lon": 0.0, "fusion_lat": 0.0, "lat": 38.862489833333335, "type": "electric_scooter", "lon": -76.99531333333333, "bike_id": "46062b572979cf96f2961cb0d392be8a", "rental_uris": {"android": "https://dc.lft.to/lastmile_qr_scan", "ios": "https://dc.lft.to/lastmile_qr_scan"}, "name": "46062b572979cf96f2961cb0d392be8a", "is_reserved": 0}, {"is_disabled": 0, "fusion_lon": 0.0, "fusion_lat": 0.0, "lat": 38.906382, "type": "electric_scooter", "lon": -77.02936233333334, "bike_id": "4feaf336d8277b601b6046c6c7c04633", "rental_uris": {"android": "https://dc.lft.to/lastmile_qr_scan", "ios": "https://dc.lft.to/lastmile_qr_scan"}, "name": "4feaf336d8277b601b6046c6c7c04633", "is_reserved": 0}, {"is_disabled": 0, "fusion_lon": 0.0, "fusion_lat": 0.0, "lat": 38.885099833333335, "type": "electric_scooter", "lon": -76.99853483333334, "bike_id": "4f4e42a26a722ca15e098bdc2f4aa7ea", "rental_uris": {"android": "https://dc.lft.to/lastmile_qr_scan", "ios": "https://dc.lft.to/lastmile_qr_scan"}, "name": "4f4e42a26a722ca15e098bdc2f4aa7ea", "is_reserved": 0}, {"is_disabled": 0, "fusion_lon": 0.0, "fusion_lat": 0.0, "lat": 38.905822, "type": "electric_scooter", "lon": -77.0238205, "bike_id": "90cb9439190ef878d6a5016ff6714efe", "rental_uris": {"android": "https://dc.lft.to/lastmile_qr_scan", "ios": "https://dc.lft.to/lastmile_qr_scan"}, "name": "90cb9439190ef878d6a5016ff6714efe", "is_reserved": 0}, {"is_disabled": 0, "fusion_lon": 0.0, "fusion_lat": 0.0, "lat": 38.9003285, "type": "electric_scooter", "lon": -77.01189316666667, "bike_id": "fde9cafe29d4c8c15be1e124913d07a2", "rental_uris": {"android": "https://dc.lft.to/lastmile_qr_scan", "ios": "https://dc.lft.to/lastmile_qr_scan"}, "name": "fde9cafe29d4c8c15be1e124913d07a2", "is_reserved": 0}, {"is_disabled": 0, "fusion_lon": 0.0, "fusion_lat": 0.0, "lat": 38.880162166666665, "type": "electric_scooter", "lon": -76.93114166666666, "bike_id": "398476100d8a5a71e045b71ab2349a75", "rental_uris": {"android": "https://dc.lft.to/lastmile_qr_scan", "ios": "https://dc.lft.to/lastmile_qr_scan"}, "name": "398476100d8a5a71e045b71ab2349a75", "is_reserved": 0}, {"is_disabled": 0, "fusion_lon": 0.0, "fusion_lat": 0.0, "lat": 38.915398833333334, "type": "electric_scooter", "lon": -77.03208666666667, "bike_id": "1add115d8ff0841e6174e7cf12f9c5d8", "rental_uris": {"android": "https://dc.lft.to/lastmile_qr_scan", "ios": "https://dc.lft.to/lastmile_qr_scan"}, "name": "1add115d8ff0841e6174e7cf12f9c5d8", "is_reserved": 0}, {"is_disabled": 0, "fusion_lon": 0.0, "fusion_lat": 0.0, "lat": 38.92031733333334, "type": "electric_scooter", "lon": -77.025851, "bike_id": "f8009e304e78104fc68e4a52c92498ad", "rental_uris": {"android": "https://dc.lft.to/lastmile_qr_scan", "ios": "https://dc.lft.to/lastmile_qr_scan"}, "name": "f8009e304e78104fc68e4a52c92498ad", "is_reserved": 0}, {"is_disabled": 0, "fusion_lon": 0.0, "fusion_lat": 0.0, "lat": 38.895317166666665, "type": "electric_scooter", "lon": -77.02834233333333, "bike_id": "7a5e8e27acd364ec38f5ae9847eb5ec1", "rental_uris": {"android": "https://dc.lft.to/lastmile_qr_scan", "ios": "https://dc.lft.to/lastmile_qr_scan"}, "name": "7a5e8e27acd364ec38f5ae9847eb5ec1", "is_reserved": 0}, {"is_disabled": 0, "fusion_lon": 0.0, "fusion_lat": 0.0, "lat": 38.85332666666667, "type": "electric_scooter", "lon": -76.96607533333334, "bike_id": "8f370943bdd10e68a69c8d6de80cc493", "rental_uris": {"android": "https://dc.lft.to/lastmile_qr_scan", "ios": "https://dc.lft.to/lastmile_qr_scan"}, "name": "8f370943bdd10e68a69c8d6de80cc493", "is_reserved": 0}, {"is_disabled": 0, "fusion_lon": 0.0, "fusion_lat": 0.0, "lat": 38.89834316666666, "type": "electric_scooter", "lon": -77.02970066666667, "bike_id": "4a0692dcc3e9d2632cd86414bab6811d", "rental_uris": {"android": "https://dc.lft.to/lastmile_qr_scan", "ios": "https://dc.lft.to/lastmile_qr_scan"}, "name": "4a0692dcc3e9d2632cd86414bab6811d", "is_reserved": 0}, {"is_disabled": 0, "fusion_lon": 0.0, "fusion_lat": 0.0, "lat": 38.888548, "type": "electric_bike", "lon": -76.97701816666667, "bike_id": "12e87138ba8b4583eb7dbbf05446146c", "rental_uris": {"android": "https://dc.lft.to/lastmile_qr_scan", "ios": "https://dc.lft.to/lastmile_qr_scan"}, "name": "12e87138ba8b4583eb7dbbf05446146c", "is_reserved": 0}, {"is_disabled": 0, "fusion_lon": 0.0, "fusion_lat": 0.0, "lat": 38.88745133333333, "type": "electric_scooter", "lon": -77.014327, "bike_id": "7ff8f9b7de8ecadac189ab0fe089ce4f", "rental_uris": {"android": "https://dc.lft.to/lastmile_qr_scan", "ios": "https://dc.lft.to/lastmile_qr_scan"}, "name": "7ff8f9b7de8ecadac189ab0fe089ce4f", "is_reserved": 0}, {"is_disabled": 0, "fusion_lon": 0.0, "fusion_lat": 0.0, "lat": 38.91527166666667, "type": "electric_scooter", "lon": -77.0219265, "bike_id": "c6feb74771409c086e555b9cabdb8a81", "rental_uris": {"android": "https://dc.lft.to/lastmile_qr_scan", "ios": "https://dc.lft.to/lastmile_qr_scan"}, "name": "c6feb74771409c086e555b9cabdb8a81", "is_reserved": 0}, {"is_disabled": 0, "fusion_lon": 0.0, "fusion_lat": 0.0, "lat": 38.86671316666666, "type": "electric_scooter", "lon": -76.98881983333334, "bike_id": "f9e45f9e73a4bd99fc35009a56dddd2e", "rental_uris": {"android": "https://dc.lft.to/lastmile_qr_scan", "ios": "https://dc.lft.to/lastmile_qr_scan"}, "name": "f9e45f9e73a4bd99fc35009a56dddd2e", "is_reserved": 0}, {"is_disabled": 0, "fusion_lon": 0.0, "fusion_lat": 0.0, "lat": 38.91759416666667, "type": "electric_scooter", "lon": -77.03193666666667, "bike_id": "251b9525dc2e21076df06cb430a586ad", "rental_uris": {"android": "https://dc.lft.to/lastmile_qr_scan", "ios": "https://dc.lft.to/lastmile_qr_scan"}, "name": "251b9525dc2e21076df06cb430a586ad", "is_reserved": 0}, {"is_disabled": 0, "fusion_lon": 0.0, "fusion_lat": 0.0, "lat": 38.91037633333333, "type": "electric_scooter", "lon": -77.0380305, "bike_id": "8ca384e0d5d1caf4123a821a523a20e9", "rental_uris": {"android": "https://dc.lft.to/lastmile_qr_scan", "ios": "https://dc.lft.to/lastmile_qr_scan"}, "name": "8ca384e0d5d1caf4123a821a523a20e9", "is_reserved": 0}, {"is_disabled": 0, "fusion_lon": 0.0, "fusion_lat": 0.0, "lat": 38.9283815, "type": "electric_scooter", "lon": -77.05542016666666, "bike_id": "571b1afa07b655faf1ed7fdd46001019", "rental_uris": {"android": "https://dc.lft.to/lastmile_qr_scan", "ios": "https://dc.lft.to/lastmile_qr_scan"}, "name": "571b1afa07b655faf1ed7fdd46001019", "is_reserved": 0}, {"is_disabled": 0, "fusion_lon": 0.0, "fusion_lat": 0.0, "lat": 38.86809016666667, "type": "electric_scooter", "lon": -77.01173033333333, "bike_id": "e38557cd646aafdf2e031554e65b48b7", "rental_uris": {"android": "https://dc.lft.to/lastmile_qr_scan", "ios": "https://dc.lft.to/lastmile_qr_scan"}, "name": "e38557cd646aafdf2e031554e65b48b7", "is_reserved": 0}, {"is_disabled": 0, "fusion_lon": 0.0, "fusion_lat": 0.0, "lat": 38.893901666666665, "type": "electric_scooter", "lon": -76.94996733333333, "bike_id": "7b53ad9d98a081f4f811597edf118e8d", "rental_uris": {"android": "https://dc.lft.to/lastmile_qr_scan", "ios": "https://dc.lft.to/lastmile_qr_scan"}, "name": "7b53ad9d98a081f4f811597edf118e8d", "is_reserved": 0}, {"is_disabled": 0, "fusion_lon": 0.0, "fusion_lat": 0.0, "lat": 39.054572, "type": "electric_bike", "lon": -77.14334016666666, "bike_id": "c31b4c9e459bb8cb2571fd1337577229", "rental_uris": {"android": "https://dc.lft.to/lastmile_qr_scan", "ios": "https://dc.lft.to/lastmile_qr_scan"}, "name": "c31b4c9e459bb8cb2571fd1337577229", "is_reserved": 0}, {"is_disabled": 0, "fusion_lon": 0.0, "fusion_lat": 0.0, "lat": 38.8984665, "type": "electric_scooter", "lon": -77.02175883333334, "bike_id": "77d0d4c0019b694a7ef3698818ce42c6", "rental_uris": {"android": "https://dc.lft.to/lastmile_qr_scan", "ios": "https://dc.lft.to/lastmile_qr_scan"}, "name": "77d0d4c0019b694a7ef3698818ce42c6", "is_reserved": 0}, {"is_disabled": 0, "fusion_lon": 0.0, "fusion_lat": 0.0, "lat": 38.94593733333333, "type": "electric_bike", "lon": -77.34408983333333, "bike_id": "7210275b34ca4a331666bf7aff9c301e", "rental_uris": {"android": "https://dc.lft.to/lastmile_qr_scan", "ios": "https://dc.lft.to/lastmile_qr_scan"}, "name": "7210275b34ca4a331666bf7aff9c301e", "is_reserved": 0}, {"is_disabled": 0, "fusion_lon": 0.0, "fusion_lat": 0.0, "lat": 38.89738833333333, "type": "electric_scooter", "lon": -77.04723083333333, "bike_id": "d6e7d5146ca5e13ac21a2aaca9bd54a0", "rental_uris": {"android": "https://dc.lft.to/lastmile_qr_scan", "ios": "https://dc.lft.to/lastmile_qr_scan"}, "name": "d6e7d5146ca5e13ac21a2aaca9bd54a0", "is_reserved": 0}, {"is_disabled": 0, "fusion_lon": 0.0, "fusion_lat": 0.0, "lat": 38.9265955, "type": "electric_bike", "lon": -76.997528, "bike_id": "09f7fe079ac3671a3fb2b211f1f77c31", "rental_uris": {"android": "https://dc.lft.to/lastmile_qr_scan", "ios": "https://dc.lft.to/lastmile_qr_scan"}, "name": "09f7fe079ac3671a3fb2b211f1f77c31", "is_reserved": 0}, {"is_disabled": 0, "fusion_lon": 0.0, "fusion_lat": 0.0, "lat": 38.776210666666664, "type": "electric_bike", "lon": -77.083541, "bike_id": "6abdf8b9a366d1c7f9fdad4f6d523850", "rental_uris": {"android": "https://dc.lft.to/lastmile_qr_scan", "ios": "https://dc.lft.to/lastmile_qr_scan"}, "name": "6abdf8b9a366d1c7f9fdad4f6d523850", "is_reserved": 0}, {"is_disabled": 0, "fusion_lon": 0.0, "fusion_lat": 0.0, "lat": 38.889641833333336, "type": "electric_scooter", "lon": -76.99150383333334, "bike_id": "f42cacb08baf98faabebda1744997c2b", "rental_uris": {"android": "https://dc.lft.to/lastmile_qr_scan", "ios": "https://dc.lft.to/lastmile_qr_scan"}, "name": "f42cacb08baf98faabebda1744997c2b", "is_reserved": 0}, {"is_disabled": 0, "fusion_lon": 0.0, "fusion_lat": 0.0, "lat": 38.91541383333333, "type": "electric_scooter", "lon": -77.032147, "bike_id": "a53095439218cdaf312262976ead4736", "rental_uris": {"android": "https://dc.lft.to/lastmile_qr_scan", "ios": "https://dc.lft.to/lastmile_qr_scan"}, "name": "a53095439218cdaf312262976ead4736", "is_reserved": 0}, {"is_disabled": 0, "fusion_lon": 0.0, "fusion_lat": 0.0, "lat": 38.917071, "type": "electric_scooter", "lon": -77.02626183333334, "bike_id": "e2b240c3f408aaadbd3cc856136102d7", "rental_uris": {"android": "https://dc.lft.to/lastmile_qr_scan", "ios": "https://dc.lft.to/lastmile_qr_scan"}, "name": "e2b240c3f408aaadbd3cc856136102d7", "is_reserved": 0}, {"is_disabled": 0, "fusion_lon": 0.0, "fusion_lat": 0.0, "lat": 38.906996, "type": "electric_scooter", "lon": -77.06303733333333, "bike_id": "4e122000f42947d023f7027188f5a68f", "rental_uris": {"android": "https://dc.lft.to/lastmile_qr_scan", "ios": "https://dc.lft.to/lastmile_qr_scan"}, "name": "4e122000f42947d023f7027188f5a68f", "is_reserved": 0}, {"is_disabled": 0, "fusion_lon": 0.0, "fusion_lat": 0.0, "lat": 38.92873933333333, "type": "electric_scooter", "lon": -77.02734166666667, "bike_id": "b6c887c583cd5837961f88dd69851eae", "rental_uris": {"android": "https://dc.lft.to/lastmile_qr_scan", "ios": "https://dc.lft.to/lastmile_qr_scan"}, "name": "b6c887c583cd5837961f88dd69851eae", "is_reserved": 0}, {"is_disabled": 0, "fusion_lon": 0.0, "fusion_lat": 0.0, "lat": 38.91778983333333, "type": "electric_scooter", "lon": -77.03199166666667, "bike_id": "d51228f6eece04aa136ec3f33a061d2b", "rental_uris": {"android": "https://dc.lft.to/lastmile_qr_scan", "ios": "https://dc.lft.to/lastmile_qr_scan"}, "name": "d51228f6eece04aa136ec3f33a061d2b", "is_reserved": 0}, {"is_disabled": 0, "fusion_lon": 0.0, "fusion_lat": 0.0, "lat": 38.9158, "type": "electric_scooter", "lon": -77.04684516666667, "bike_id": "2d06581ea35547d794ca8dd554e7d90a", "rental_uris": {"android": "https://dc.lft.to/lastmile_qr_scan", "ios": "https://dc.lft.to/lastmile_qr_scan"}, "name": "2d06581ea35547d794ca8dd554e7d90a", "is_reserved": 0}, {"is_disabled": 0, "fusion_lon": 0.0, "fusion_lat": 0.0, "lat": 38.91546683333333, "type": "electric_scooter", "lon": -77.03848466666666, "bike_id": "435a93e2a398fd2ac56c060c7782ac91", "rental_uris": {"android": "https://dc.lft.to/lastmile_qr_scan", "ios": "https://dc.lft.to/lastmile_qr_scan"}, "name": "435a93e2a398fd2ac56c060c7782ac91", "is_reserved": 0}, {"is_disabled": 0, "fusion_lon": 0.0, "fusion_lat": 0.0, "lat": 38.9192245, "type": "electric_scooter", "lon": -77.034215, "bike_id": "7efc740dae9310aaac52239ad9b52990", "rental_uris": {"android": "https://dc.lft.to/lastmile_qr_scan", "ios": "https://dc.lft.to/lastmile_qr_scan"}, "name": "7efc740dae9310aaac52239ad9b52990", "is_reserved": 0}, {"is_disabled": 0, "fusion_lon": 0.0, "fusion_lat": 0.0, "lat": 38.92439616666667, "type": "electric_bike", "lon": -76.9075805, "bike_id": "c42e4c48e483ef771e3cedfcbcbe97a1", "rental_uris": {"android": "https://dc.lft.to/lastmile_qr_scan", "ios": "https://dc.lft.to/lastmile_qr_scan"}, "name": "c42e4c48e483ef771e3cedfcbcbe97a1", "is_reserved": 0}, {"is_disabled": 0, "fusion_lon": 0.0, "fusion_lat": 0.0, "lat": 38.919652166666665, "type": "electric_scooter", "lon": -77.041611, "bike_id": "0ac489f834fada043ab37bc3c8f21035", "rental_uris": {"android": "https://dc.lft.to/lastmile_qr_scan", "ios": "https://dc.lft.to/lastmile_qr_scan"}, "name": "0ac489f834fada043ab37bc3c8f21035", "is_reserved": 0}, {"is_disabled": 0, "fusion_lon": 0.0, "fusion_lat": 0.0, "lat": 38.9143905, "type": "electric_scooter", "lon": -77.00893733333334, "bike_id": "29e808e3797eff9987faece5ec461e05", "rental_uris": {"android": "https://dc.lft.to/lastmile_qr_scan", "ios": "https://dc.lft.to/lastmile_qr_scan"}, "name": "29e808e3797eff9987faece5ec461e05", "is_reserved": 0}, {"is_disabled": 0, "fusion_lon": 0.0, "fusion_lat": 0.0, "lat": 38.956131666666664, "type": "electric_scooter", "lon": -77.02760633333334, "bike_id": "dd11b22fbd790f6bbdc5b5ed4f3715ca", "rental_uris": {"android": "https://dc.lft.to/lastmile_qr_scan", "ios": "https://dc.lft.to/lastmile_qr_scan"}, "name": "dd11b22fbd790f6bbdc5b5ed4f3715ca", "is_reserved": 0}, {"is_disabled": 0, "fusion_lon": 0.0, "fusion_lat": 0.0, "lat": 38.89841633333333, "type": "electric_scooter", "lon": -77.02179716666667, "bike_id": "4c0323c7abea113425179c21ce33a8be", "rental_uris": {"android": "https://dc.lft.to/lastmile_qr_scan", "ios": "https://dc.lft.to/lastmile_qr_scan"}, "name": "4c0323c7abea113425179c21ce33a8be", "is_reserved": 0}, {"is_disabled": 0, "fusion_lon": 0.0, "fusion_lat": 0.0, "lat": 38.901072666666664, "type": "electric_scooter", "lon": -77.05981966666667, "bike_id": "f6d078f6e2130bb0a3332955d04756c7", "rental_uris": {"android": "https://dc.lft.to/lastmile_qr_scan", "ios": "https://dc.lft.to/lastmile_qr_scan"}, "name": "f6d078f6e2130bb0a3332955d04756c7", "is_reserved": 0}, {"is_disabled": 0, "fusion_lon": 0.0, "fusion_lat": 0.0, "lat": 38.91120683333333, "type": "electric_scooter", "lon": -77.03298166666667, "bike_id": "a18f9607aa136aea9ceee61fa670af0b", "rental_uris": {"android": "https://dc.lft.to/lastmile_qr_scan", "ios": "https://dc.lft.to/lastmile_qr_scan"}, "name": "a18f9607aa136aea9ceee61fa670af0b", "is_reserved": 0}, {"is_disabled": 0, "fusion_lon": 0.0, "fusion_lat": 0.0, "lat": 38.879043, "type": "electric_scooter", "lon": -77.02196266666667, "bike_id": "06c11e0e0edfdbf09f2e110e7ef660d8", "rental_uris": {"android": "https://dc.lft.to/lastmile_qr_scan", "ios": "https://dc.lft.to/lastmile_qr_scan"}, "name": "06c11e0e0edfdbf09f2e110e7ef660d8", "is_reserved": 0}, {"is_disabled": 0, "fusion_lon": 0.0, "fusion_lat": 0.0, "lat": 38.89527183333333, "type": "electric_scooter", "lon": -76.94895883333334, "bike_id": "d6276f65d73cf387de6c5f4802274bbb", "rental_uris": {"android": "https://dc.lft.to/lastmile_qr_scan", "ios": "https://dc.lft.to/lastmile_qr_scan"}, "name": "d6276f65d73cf387de6c5f4802274bbb", "is_reserved": 0}, {"is_disabled": 0, "fusion_lon": 0.0, "fusion_lat": 0.0, "lat": 38.90022733333333, "type": "electric_scooter", "lon": -76.9964065, "bike_id": "5246a6fceb7125ff9d9ffb27013de514", "rental_uris": {"android": "https://dc.lft.to/lastmile_qr_scan", "ios": "https://dc.lft.to/lastmile_qr_scan"}, "name": "5246a6fceb7125ff9d9ffb27013de514", "is_reserved": 0}, {"is_disabled": 0, "fusion_lon": 0.0, "fusion_lat": 0.0, "lat": 38.9174015, "type": "electric_scooter", "lon": -77.04175866666667, "bike_id": "ad5975f3baab2c59e04454115324282b", "rental_uris": {"android": "https://dc.lft.to/lastmile_qr_scan", "ios": "https://dc.lft.to/lastmile_qr_scan"}, "name": "ad5975f3baab2c59e04454115324282b", "is_reserved": 0}, {"is_disabled": 0, "fusion_lon": 0.0, "fusion_lat": 0.0, "lat": 38.8832995, "type": "electric_scooter", "lon": -77.0163785, "bike_id": "c1b88edd92bb07ea0038c1cbbac8b884", "rental_uris": {"android": "https://dc.lft.to/lastmile_qr_scan", "ios": "https://dc.lft.to/lastmile_qr_scan"}, "name": "c1b88edd92bb07ea0038c1cbbac8b884", "is_reserved": 0}, {"is_disabled": 0, "fusion_lon": 0.0, "fusion_lat": 0.0, "lat": 38.943011166666665, "type": "electric_scooter", "lon": -77.0276365, "bike_id": "c8331ce9c25438da1aff9a177d078ef0", "rental_uris": {"android": "https://dc.lft.to/lastmile_qr_scan", "ios": "https://dc.lft.to/lastmile_qr_scan"}, "name": "c8331ce9c25438da1aff9a177d078ef0", "is_reserved": 0}, {"is_disabled": 0, "fusion_lon": 0.0, "fusion_lat": 0.0, "lat": 38.9047725, "type": "electric_scooter", "lon": -77.05143516666666, "bike_id": "86d117f5a1d90abbb331ec8b2b4fc989", "rental_uris": {"android": "https://dc.lft.to/lastmile_qr_scan", "ios": "https://dc.lft.to/lastmile_qr_scan"}, "name": "86d117f5a1d90abbb331ec8b2b4fc989", "is_reserved": 0}, {"is_disabled": 0, "fusion_lon": 0.0, "fusion_lat": 0.0, "lat": 38.91937333333333, "type": "electric_bike", "lon": -76.975053, "bike_id": "4c0eb7de738344f8cfc311bebb474d3b", "rental_uris": {"android": "https://dc.lft.to/lastmile_qr_scan", "ios": "https://dc.lft.to/lastmile_qr_scan"}, "name": "4c0eb7de738344f8cfc311bebb474d3b", "is_reserved": 0}, {"is_disabled": 0, "fusion_lon": 0.0, "fusion_lat": 0.0, "lat": 38.99670883333334, "type": "electric_bike", "lon": -76.99144066666666, "bike_id": "be9f4e60ccf72985e73ed69ac893ea46", "rental_uris": {"android": "https://dc.lft.to/lastmile_qr_scan", "ios": "https://dc.lft.to/lastmile_qr_scan"}, "name": "be9f4e60ccf72985e73ed69ac893ea46", "is_reserved": 0}, {"is_disabled": 0, "fusion_lon": 0.0, "fusion_lat": 0.0, "lat": 38.90203983333333, "type": "electric_scooter", "lon": -77.047785, "bike_id": "eef5ee98a90fda38a196103d2d06e18f", "rental_uris": {"android": "https://dc.lft.to/lastmile_qr_scan", "ios": "https://dc.lft.to/lastmile_qr_scan"}, "name": "eef5ee98a90fda38a196103d2d06e18f", "is_reserved": 0}, {"is_disabled": 0, "fusion_lon": 0.0, "fusion_lat": 0.0, "lat": 38.917168, "type": "electric_scooter", "lon": -77.029019, "bike_id": "3d6c038eed467b928f35671292402dc9", "rental_uris": {"android": "https://dc.lft.to/lastmile_qr_scan", "ios": "https://dc.lft.to/lastmile_qr_scan"}, "name": "3d6c038eed467b928f35671292402dc9", "is_reserved": 0}, {"is_disabled": 0, "fusion_lon": 0.0, "fusion_lat": 0.0, "lat": 38.91677133333334, "type": "electric_scooter", "lon": -77.0157785, "bike_id": "1bbf664ea5522f86987da9221dbd7518", "rental_uris": {"android": "https://dc.lft.to/lastmile_qr_scan", "ios": "https://dc.lft.to/lastmile_qr_scan"}, "name": "1bbf664ea5522f86987da9221dbd7518", "is_reserved": 0}, {"is_disabled": 0, "fusion_lon": 0.0, "fusion_lat": 0.0, "lat": 38.9125425, "type": "electric_scooter", "lon": -77.0222715, "bike_id": "b2f3a0cc582dfe4ff1edd7bee08fca03", "rental_uris": {"android": "https://dc.lft.to/lastmile_qr_scan", "ios": "https://dc.lft.to/lastmile_qr_scan"}, "name": "b2f3a0cc582dfe4ff1edd7bee08fca03", "is_reserved": 0}, {"is_disabled": 0, "fusion_lon": 0.0, "fusion_lat": 0.0, "lat": 38.905838333333335, "type": "electric_scooter", "lon": -77.02398833333334, "bike_id": "1ba7542f94aa3017f350bc02b3680ff2", "rental_uris": {"android": "https://dc.lft.to/lastmile_qr_scan", "ios": "https://dc.lft.to/lastmile_qr_scan"}, "name": "1ba7542f94aa3017f350bc02b3680ff2", "is_reserved": 0}, {"is_disabled": 0, "fusion_lon": 0.0, "fusion_lat": 0.0, "lat": 38.87574033333333, "type": "electric_scooter", "lon": -77.02077633333333, "bike_id": "1c66c6c2e8f8265fa020028286c51f98", "rental_uris": {"android": "https://dc.lft.to/lastmile_qr_scan", "ios": "https://dc.lft.to/lastmile_qr_scan"}, "name": "1c66c6c2e8f8265fa020028286c51f98", "is_reserved": 0}, {"is_disabled": 0, "fusion_lon": 0.0, "fusion_lat": 0.0, "lat": 38.903563166666665, "type": "electric_scooter", "lon": -77.01117866666667, "bike_id": "9b390dac5c7a0d73bc48c185ce1d458f", "rental_uris": {"android": "https://dc.lft.to/lastmile_qr_scan", "ios": "https://dc.lft.to/lastmile_qr_scan"}, "name": "9b390dac5c7a0d73bc48c185ce1d458f", "is_reserved": 0}, {"is_disabled": 0, "fusion_lon": 0.0, "fusion_lat": 0.0, "lat": 38.8985255, "type": "electric_scooter", "lon": -77.021768, "bike_id": "aee00862cf9feb2a441a2f0b36ebc271", "rental_uris": {"android": "https://dc.lft.to/lastmile_qr_scan", "ios": "https://dc.lft.to/lastmile_qr_scan"}, "name": "aee00862cf9feb2a441a2f0b36ebc271", "is_reserved": 0}, {"is_disabled": 0, "fusion_lon": 0.0, "fusion_lat": 0.0, "lat": 38.9095465, "type": "electric_scooter", "lon": -77.02714533333334, "bike_id": "d33cf231893ba2cdb2d5fdb9f1dec333", "rental_uris": {"android": "https://dc.lft.to/lastmile_qr_scan", "ios": "https://dc.lft.to/lastmile_qr_scan"}, "name": "d33cf231893ba2cdb2d5fdb9f1dec333", "is_reserved": 0}, {"is_disabled": 0, "fusion_lon": 0.0, "fusion_lat": 0.0, "lat": 38.905364166666665, "type": "electric_scooter", "lon": -77.04871683333333, "bike_id": "2ad9063c1377c24d25bebcc2b5cebce8", "rental_uris": {"android": "https://dc.lft.to/lastmile_qr_scan", "ios": "https://dc.lft.to/lastmile_qr_scan"}, "name": "2ad9063c1377c24d25bebcc2b5cebce8", "is_reserved": 0}, {"is_disabled": 0, "fusion_lon": 0.0, "fusion_lat": 0.0, "lat": 38.914219, "type": "electric_scooter", "lon": -77.03905033333334, "bike_id": "21ad242db46b953b68557654029a5108", "rental_uris": {"android": "https://dc.lft.to/lastmile_qr_scan", "ios": "https://dc.lft.to/lastmile_qr_scan"}, "name": "21ad242db46b953b68557654029a5108", "is_reserved": 0}, {"is_disabled": 0, "fusion_lon": 0.0, "fusion_lat": 0.0, "lat": 38.914788333333334, "type": "electric_scooter", "lon": -77.0346555, "bike_id": "3caf097dc740bc6d242674e1cb4be717", "rental_uris": {"android": "https://dc.lft.to/lastmile_qr_scan", "ios": "https://dc.lft.to/lastmile_qr_scan"}, "name": "3caf097dc740bc6d242674e1cb4be717", "is_reserved": 0}, {"is_disabled": 0, "fusion_lon": 0.0, "fusion_lat": 0.0, "lat": 39.08846916666667, "type": "electric_bike", "lon": -77.17804116666667, "bike_id": "e6209af4b49c465a100b169cbb18bbd2", "rental_uris": {"android": "https://dc.lft.to/lastmile_qr_scan", "ios": "https://dc.lft.to/lastmile_qr_scan"}, "name": "e6209af4b49c465a100b169cbb18bbd2", "is_reserved": 0}, {"is_disabled": 0, "fusion_lon": 0.0, "fusion_lat": 0.0, "lat": 38.87905033333333, "type": "electric_scooter", "lon": -77.02200416666666, "bike_id": "9844f2139a38bc4646ddfa4d48d05e65", "rental_uris": {"android": "https://dc.lft.to/lastmile_qr_scan", "ios": "https://dc.lft.to/lastmile_qr_scan"}, "name": "9844f2139a38bc4646ddfa4d48d05e65", "is_reserved": 0}, {"is_disabled": 0, "fusion_lon": 0.0, "fusion_lat": 0.0, "lat": 38.884235333333336, "type": "electric_scooter", "lon": -76.954118, "bike_id": "a8a340c406368d0d2f686a6a61e4e362", "rental_uris": {"android": "https://dc.lft.to/lastmile_qr_scan", "ios": "https://dc.lft.to/lastmile_qr_scan"}, "name": "a8a340c406368d0d2f686a6a61e4e362", "is_reserved": 0}, {"is_disabled": 0, "fusion_lon": 0.0, "fusion_lat": 0.0, "lat": 38.86670183333333, "type": "electric_scooter", "lon": -76.988814, "bike_id": "afd7f6a859c0ae4d222a2509e3b8f84f", "rental_uris": {"android": "https://dc.lft.to/lastmile_qr_scan", "ios": "https://dc.lft.to/lastmile_qr_scan"}, "name": "afd7f6a859c0ae4d222a2509e3b8f84f", "is_reserved": 0}, {"is_disabled": 0, "fusion_lon": 0.0, "fusion_lat": 0.0, "lat": 38.91799566666667, "type": "electric_scooter", "lon": -77.0346165, "bike_id": "429a6225a135a90fccd389c380d32c43", "rental_uris": {"android": "https://dc.lft.to/lastmile_qr_scan", "ios": "https://dc.lft.to/lastmile_qr_scan"}, "name": "429a6225a135a90fccd389c380d32c43", "is_reserved": 0}, {"is_disabled": 0, "fusion_lon": 0.0, "fusion_lat": 0.0, "lat": 38.8920495, "type": "electric_scooter", "lon": -76.98809533333333, "bike_id": "3ec8a0d03f0f29f89f214cd98b622c4e", "rental_uris": {"android": "https://dc.lft.to/lastmile_qr_scan", "ios": "https://dc.lft.to/lastmile_qr_scan"}, "name": "3ec8a0d03f0f29f89f214cd98b622c4e", "is_reserved": 0}, {"is_disabled": 0, "fusion_lon": 0.0, "fusion_lat": 0.0, "lat": 38.913331, "type": "electric_scooter", "lon": -77.0326365, "bike_id": "53f599da1d0baa695de4be829a71f5aa", "rental_uris": {"android": "https://dc.lft.to/lastmile_qr_scan", "ios": "https://dc.lft.to/lastmile_qr_scan"}, "name": "53f599da1d0baa695de4be829a71f5aa", "is_reserved": 0}, {"is_disabled": 0, "fusion_lon": 0.0, "fusion_lat": 0.0, "lat": 38.898261, "type": "electric_scooter", "lon": -77.03355233333333, "bike_id": "8f7ccac969e6c22ffd24961d751cbe6d", "rental_uris": {"android": "https://dc.lft.to/lastmile_qr_scan", "ios": "https://dc.lft.to/lastmile_qr_scan"}, "name": "8f7ccac969e6c22ffd24961d751cbe6d", "is_reserved": 0}, {"is_disabled": 0, "fusion_lon": 0.0, "fusion_lat": 0.0, "lat": 38.93193216666667, "type": "electric_scooter", "lon": -77.02836466666666, "bike_id": "ea75dab244ebeb309bc7e233d4584c35", "rental_uris": {"android": "https://dc.lft.to/lastmile_qr_scan", "ios": "https://dc.lft.to/lastmile_qr_scan"}, "name": "ea75dab244ebeb309bc7e233d4584c35", "is_reserved": 0}, {"is_disabled": 0, "fusion_lon": 0.0, "fusion_lat": 0.0, "lat": 38.865083166666665, "type": "electric_scooter", "lon": -76.99007933333333, "bike_id": "fe267537f84e098bbfc69d18ea81addc", "rental_uris": {"android": "https://dc.lft.to/lastmile_qr_scan", "ios": "https://dc.lft.to/lastmile_qr_scan"}, "name": "fe267537f84e098bbfc69d18ea81addc", "is_reserved": 0}, {"is_disabled": 0, "fusion_lon": 0.0, "fusion_lat": 0.0, "lat": 38.892341, "type": "electric_scooter", "lon": -77.03176283333333, "bike_id": "43f7a5785d7e88e6f8b3485633f96b45", "rental_uris": {"android": "https://dc.lft.to/lastmile_qr_scan", "ios": "https://dc.lft.to/lastmile_qr_scan"}, "name": "43f7a5785d7e88e6f8b3485633f96b45", "is_reserved": 0}, {"is_disabled": 0, "fusion_lon": 0.0, "fusion_lat": 0.0, "lat": 38.9054595, "type": "electric_scooter", "lon": -77.02955316666667, "bike_id": "c062a0861902d83df3c6862f582d3c31", "rental_uris": {"android": "https://dc.lft.to/lastmile_qr_scan", "ios": "https://dc.lft.to/lastmile_qr_scan"}, "name": "c062a0861902d83df3c6862f582d3c31", "is_reserved": 0}, {"is_disabled": 0, "fusion_lon": 0.0, "fusion_lat": 0.0, "lat": 38.91861683333333, "type": "electric_bike", "lon": -76.96091333333334, "bike_id": "8b912c2a4e48f88742afedf100f9c00c", "rental_uris": {"android": "https://dc.lft.to/lastmile_qr_scan", "ios": "https://dc.lft.to/lastmile_qr_scan"}, "name": "8b912c2a4e48f88742afedf100f9c00c", "is_reserved": 0}, {"is_disabled": 0, "fusion_lon": 0.0, "fusion_lat": 0.0, "lat": 38.950583, "type": "electric_bike", "lon": -76.96737, "bike_id": "6f43f9ce29d6f6023619f31bbfa1030e", "rental_uris": {"android": "https://dc.lft.to/lastmile_qr_scan", "ios": "https://dc.lft.to/lastmile_qr_scan"}, "name": "6f43f9ce29d6f6023619f31bbfa1030e", "is_reserved": 0}, {"is_disabled": 0, "fusion_lon": 0.0, "fusion_lat": 0.0, "lat": 38.86670566666667, "type": "electric_scooter", "lon": -76.98883133333334, "bike_id": "0721d4fde1dad99af77279f1c3198c45", "rental_uris": {"android": "https://dc.lft.to/lastmile_qr_scan", "ios": "https://dc.lft.to/lastmile_qr_scan"}, "name": "0721d4fde1dad99af77279f1c3198c45", "is_reserved": 0}, {"is_disabled": 0, "fusion_lon": 0.0, "fusion_lat": 0.0, "lat": 38.879475, "type": "electric_scooter", "lon": -77.00835033333334, "bike_id": "7441b9fdfedd5033f2e66a4451ef1f3c", "rental_uris": {"android": "https://dc.lft.to/lastmile_qr_scan", "ios": "https://dc.lft.to/lastmile_qr_scan"}, "name": "7441b9fdfedd5033f2e66a4451ef1f3c", "is_reserved": 0}, {"is_disabled": 0, "fusion_lon": 0.0, "fusion_lat": 0.0, "lat": 38.882563, "type": "electric_scooter", "lon": -77.00349133333333, "bike_id": "25fb8da199b72f4a52a97104601db4f9", "rental_uris": {"android": "https://dc.lft.to/lastmile_qr_scan", "ios": "https://dc.lft.to/lastmile_qr_scan"}, "name": "25fb8da199b72f4a52a97104601db4f9", "is_reserved": 0}, {"is_disabled": 0, "fusion_lon": 0.0, "fusion_lat": 0.0, "lat": 38.9631125, "type": "electric_bike", "lon": -77.0576155, "bike_id": "0e392bc5a398a7edeb868bb96b24e9e5", "rental_uris": {"android": "https://dc.lft.to/lastmile_qr_scan", "ios": "https://dc.lft.to/lastmile_qr_scan"}, "name": "0e392bc5a398a7edeb868bb96b24e9e5", "is_reserved": 0}, {"is_disabled": 0, "fusion_lon": 0.0, "fusion_lat": 0.0, "lat": 38.86847383333333, "type": "electric_bike", "lon": -77.097324, "bike_id": "87ed92889be9ce06ccb37b9776696624", "rental_uris": {"android": "https://dc.lft.to/lastmile_qr_scan", "ios": "https://dc.lft.to/lastmile_qr_scan"}, "name": "87ed92889be9ce06ccb37b9776696624", "is_reserved": 0}, {"is_disabled": 0, "fusion_lon": 0.0, "fusion_lat": 0.0, "lat": 38.902981833333335, "type": "electric_scooter", "lon": -77.03063016666667, "bike_id": "054f99fbcef3aea9bd8b8d7dd7c5cdc7", "rental_uris": {"android": "https://dc.lft.to/lastmile_qr_scan", "ios": "https://dc.lft.to/lastmile_qr_scan"}, "name": "054f99fbcef3aea9bd8b8d7dd7c5cdc7", "is_reserved": 0}, {"is_disabled": 0, "fusion_lon": 0.0, "fusion_lat": 0.0, "lat": 38.8792255, "type": "electric_scooter", "lon": -77.00051333333333, "bike_id": "f8fe508408963606cd4adf3b883d92d6", "rental_uris": {"android": "https://dc.lft.to/lastmile_qr_scan", "ios": "https://dc.lft.to/lastmile_qr_scan"}, "name": "f8fe508408963606cd4adf3b883d92d6", "is_reserved": 0}, {"is_disabled": 0, "fusion_lon": 0.0, "fusion_lat": 0.0, "lat": 38.92245, "type": "electric_scooter", "lon": -77.03078833333333, "bike_id": "b1ddfb5b832524d917447f81bae2a3e6", "rental_uris": {"android": "https://dc.lft.to/lastmile_qr_scan", "ios": "https://dc.lft.to/lastmile_qr_scan"}, "name": "b1ddfb5b832524d917447f81bae2a3e6", "is_reserved": 0}, {"is_disabled": 0, "fusion_lon": 0.0, "fusion_lat": 0.0, "lat": 38.90490833333333, "type": "electric_scooter", "lon": -77.02946766666666, "bike_id": "7b546120a02b3b23e7f49f77eecb86db", "rental_uris": {"android": "https://dc.lft.to/lastmile_qr_scan", "ios": "https://dc.lft.to/lastmile_qr_scan"}, "name": "7b546120a02b3b23e7f49f77eecb86db", "is_reserved": 0}, {"is_disabled": 0, "fusion_lon": 0.0, "fusion_lat": 0.0, "lat": 38.945471166666664, "type": "electric_scooter", "lon": -77.04246083333334, "bike_id": "18e14aeea3cbdfbfe63b95f6056e27a2", "rental_uris": {"android": "https://dc.lft.to/lastmile_qr_scan", "ios": "https://dc.lft.to/lastmile_qr_scan"}, "name": "18e14aeea3cbdfbfe63b95f6056e27a2", "is_reserved": 0}, {"is_disabled": 0, "fusion_lon": 0.0, "fusion_lat": 0.0, "lat": 39.0173635, "type": "electric_bike", "lon": -77.06383516666666, "bike_id": "a699d593a6abd9041894bb518f8e76a2", "rental_uris": {"android": "https://dc.lft.to/lastmile_qr_scan", "ios": "https://dc.lft.to/lastmile_qr_scan"}, "name": "a699d593a6abd9041894bb518f8e76a2", "is_reserved": 0}, {"is_disabled": 0, "fusion_lon": 0.0, "fusion_lat": 0.0, "lat": 38.91191116666667, "type": "electric_scooter", "lon": -77.03141683333334, "bike_id": "ea6b48248e58275a16f7f247ed323d84", "rental_uris": {"android": "https://dc.lft.to/lastmile_qr_scan", "ios": "https://dc.lft.to/lastmile_qr_scan"}, "name": "ea6b48248e58275a16f7f247ed323d84", "is_reserved": 0}, {"is_disabled": 0, "fusion_lon": 0.0, "fusion_lat": 0.0, "lat": 38.87384516666667, "type": "electric_scooter", "lon": -77.0019445, "bike_id": "94a6dac96e0c06fb3cc7e15c2b2a3ca3", "rental_uris": {"android": "https://dc.lft.to/lastmile_qr_scan", "ios": "https://dc.lft.to/lastmile_qr_scan"}, "name": "94a6dac96e0c06fb3cc7e15c2b2a3ca3", "is_reserved": 0}, {"is_disabled": 0, "fusion_lon": 0.0, "fusion_lat": 0.0, "lat": 38.83351783333333, "type": "electric_bike", "lon": -76.96562233333333, "bike_id": "7d50d9c14ebbbfea94290ff57fa6f44e", "rental_uris": {"android": "https://dc.lft.to/lastmile_qr_scan", "ios": "https://dc.lft.to/lastmile_qr_scan"}, "name": "7d50d9c14ebbbfea94290ff57fa6f44e", "is_reserved": 0}, {"is_disabled": 0, "fusion_lon": 0.0, "fusion_lat": 0.0, "lat": 38.892253833333335, "type": "electric_scooter", "lon": -77.04664016666666, "bike_id": "958fa9801e5cc1cad54ff75624ffa6cf", "rental_uris": {"android": "https://dc.lft.to/lastmile_qr_scan", "ios": "https://dc.lft.to/lastmile_qr_scan"}, "name": "958fa9801e5cc1cad54ff75624ffa6cf", "is_reserved": 0}, {"is_disabled": 0, "fusion_lon": 0.0, "fusion_lat": 0.0, "lat": 38.931365, "type": "electric_scooter", "lon": -77.02801516666666, "bike_id": "1a6d255502b2a6a71b2968a9997d196e", "rental_uris": {"android": "https://dc.lft.to/lastmile_qr_scan", "ios": "https://dc.lft.to/lastmile_qr_scan"}, "name": "1a6d255502b2a6a71b2968a9997d196e", "is_reserved": 0}, {"is_disabled": 0, "fusion_lon": 0.0, "fusion_lat": 0.0, "lat": 38.858064, "type": "electric_scooter", "lon": -76.98657816666666, "bike_id": "771353d8f0dad6500ad634d640499ffb", "rental_uris": {"android": "https://dc.lft.to/lastmile_qr_scan", "ios": "https://dc.lft.to/lastmile_qr_scan"}, "name": "771353d8f0dad6500ad634d640499ffb", "is_reserved": 0}, {"is_disabled": 0, "fusion_lon": 0.0, "fusion_lat": 0.0, "lat": 38.913053, "type": "electric_bike", "lon": -77.02168283333333, "bike_id": "c9b2b7c90f6e6130da6d21d780d44b90", "rental_uris": {"android": "https://dc.lft.to/lastmile_qr_scan", "ios": "https://dc.lft.to/lastmile_qr_scan"}, "name": "c9b2b7c90f6e6130da6d21d780d44b90", "is_reserved": 0}, {"is_disabled": 0, "fusion_lon": 0.0, "fusion_lat": 0.0, "lat": 38.967587, "type": "electric_bike", "lon": -77.09161583333334, "bike_id": "00e79c80a4c69cc2bd61663195339954", "rental_uris": {"android": "https://dc.lft.to/lastmile_qr_scan", "ios": "https://dc.lft.to/lastmile_qr_scan"}, "name": "00e79c80a4c69cc2bd61663195339954", "is_reserved": 0}, {"is_disabled": 0, "fusion_lon": 0.0, "fusion_lat": 0.0, "lat": 38.91256883333333, "type": "electric_scooter", "lon": -77.04789133333334, "bike_id": "2a3ff0f26012272fa7941d378f9455b6", "rental_uris": {"android": "https://dc.lft.to/lastmile_qr_scan", "ios": "https://dc.lft.to/lastmile_qr_scan"}, "name": "2a3ff0f26012272fa7941d378f9455b6", "is_reserved": 0}, {"is_disabled": 0, "fusion_lon": 0.0, "fusion_lat": 0.0, "lat": 38.92827883333333, "type": "electric_scooter", "lon": -77.02255666666667, "bike_id": "2c34a444a36c81ae85b9057121358a56", "rental_uris": {"android": "https://dc.lft.to/lastmile_qr_scan", "ios": "https://dc.lft.to/lastmile_qr_scan"}, "name": "2c34a444a36c81ae85b9057121358a56", "is_reserved": 0}, {"is_disabled": 0, "fusion_lon": 0.0, "fusion_lat": 0.0, "lat": 38.912646, "type": "electric_scooter", "lon": -77.01693933333334, "bike_id": "4e6ef9cb31cf4ce64adf3d22e231ea8c", "rental_uris": {"android": "https://dc.lft.to/lastmile_qr_scan", "ios": "https://dc.lft.to/lastmile_qr_scan"}, "name": "4e6ef9cb31cf4ce64adf3d22e231ea8c", "is_reserved": 0}, {"is_disabled": 0, "fusion_lon": 0.0, "fusion_lat": 0.0, "lat": 38.90116616666667, "type": "electric_scooter", "lon": -77.012042, "bike_id": "0f5e686d550759cf99500174e93d4f92", "rental_uris": {"android": "https://dc.lft.to/lastmile_qr_scan", "ios": "https://dc.lft.to/lastmile_qr_scan"}, "name": "0f5e686d550759cf99500174e93d4f92", "is_reserved": 0}, {"is_disabled": 0, "fusion_lon": 0.0, "fusion_lat": 0.0, "lat": 38.895270833333335, "type": "electric_scooter", "lon": -77.02940316666667, "bike_id": "e0ec4d6d53348d6483fcd72d54cc158b", "rental_uris": {"android": "https://dc.lft.to/lastmile_qr_scan", "ios": "https://dc.lft.to/lastmile_qr_scan"}, "name": "e0ec4d6d53348d6483fcd72d54cc158b", "is_reserved": 0}, {"is_disabled": 0, "fusion_lon": 0.0, "fusion_lat": 0.0, "lat": 38.9989865, "type": "electric_bike", "lon": -77.02877633333334, "bike_id": "13e2aa0291cdfa6d24dce8163a947abb", "rental_uris": {"android": "https://dc.lft.to/lastmile_qr_scan", "ios": "https://dc.lft.to/lastmile_qr_scan"}, "name": "13e2aa0291cdfa6d24dce8163a947abb", "is_reserved": 0}, {"is_disabled": 0, "fusion_lon": 0.0, "fusion_lat": 0.0, "lat": 38.9072245, "type": "electric_scooter", "lon": -77.04673416666667, "bike_id": "3ecac2c425a06089dc3e9b45d35ef106", "rental_uris": {"android": "https://dc.lft.to/lastmile_qr_scan", "ios": "https://dc.lft.to/lastmile_qr_scan"}, "name": "3ecac2c425a06089dc3e9b45d35ef106", "is_reserved": 0}, {"is_disabled": 0, "fusion_lon": 0.0, "fusion_lat": 0.0, "lat": 38.888901, "type": "electric_scooter", "lon": -77.01551016666667, "bike_id": "1519c961d967fa7cd10967e00c4bd03b", "rental_uris": {"android": "https://dc.lft.to/lastmile_qr_scan", "ios": "https://dc.lft.to/lastmile_qr_scan"}, "name": "1519c961d967fa7cd10967e00c4bd03b", "is_reserved": 0}, {"is_disabled": 0, "fusion_lon": 0.0, "fusion_lat": 0.0, "lat": 38.91707683333333, "type": "electric_scooter", "lon": -77.0401915, "bike_id": "1b3d8eb2e5b81b5d3ee1b8b3e49f585c", "rental_uris": {"android": "https://dc.lft.to/lastmile_qr_scan", "ios": "https://dc.lft.to/lastmile_qr_scan"}, "name": "1b3d8eb2e5b81b5d3ee1b8b3e49f585c", "is_reserved": 0}, {"is_disabled": 0, "fusion_lon": 0.0, "fusion_lat": 0.0, "lat": 38.94624666666667, "type": "electric_bike", "lon": -76.93414633333333, "bike_id": "b932692ed38eeb8e368fd49149b044e2", "rental_uris": {"android": "https://dc.lft.to/lastmile_qr_scan", "ios": "https://dc.lft.to/lastmile_qr_scan"}, "name": "b932692ed38eeb8e368fd49149b044e2", "is_reserved": 0}, {"is_disabled": 0, "fusion_lon": 0.0, "fusion_lat": 0.0, "lat": 38.923095833333335, "type": "electric_scooter", "lon": -77.04041183333334, "bike_id": "efbfc73178a0df4fe61cd05a1e5b2ff6", "rental_uris": {"android": "https://dc.lft.to/lastmile_qr_scan", "ios": "https://dc.lft.to/lastmile_qr_scan"}, "name": "efbfc73178a0df4fe61cd05a1e5b2ff6", "is_reserved": 0}, {"is_disabled": 0, "fusion_lon": 0.0, "fusion_lat": 0.0, "lat": 38.931023833333334, "type": "electric_scooter", "lon": -77.02476216666666, "bike_id": "95c34b5b2e6f4af64d53e533e958df20", "rental_uris": {"android": "https://dc.lft.to/lastmile_qr_scan", "ios": "https://dc.lft.to/lastmile_qr_scan"}, "name": "95c34b5b2e6f4af64d53e533e958df20", "is_reserved": 0}, {"is_disabled": 0, "fusion_lon": 0.0, "fusion_lat": 0.0, "lat": 38.876325666666666, "type": "electric_scooter", "lon": -77.0126295, "bike_id": "39b5111b5ec1e85c971f9e6a6b569ba6", "rental_uris": {"android": "https://dc.lft.to/lastmile_qr_scan", "ios": "https://dc.lft.to/lastmile_qr_scan"}, "name": "39b5111b5ec1e85c971f9e6a6b569ba6", "is_reserved": 0}, {"is_disabled": 0, "fusion_lon": 0.0, "fusion_lat": 0.0, "lat": 38.932391833333334, "type": "electric_scooter", "lon": -77.03413333333333, "bike_id": "f51a040390da1e0c729eb693f546f7d3", "rental_uris": {"android": "https://dc.lft.to/lastmile_qr_scan", "ios": "https://dc.lft.to/lastmile_qr_scan"}, "name": "f51a040390da1e0c729eb693f546f7d3", "is_reserved": 0}, {"is_disabled": 0, "fusion_lon": 0.0, "fusion_lat": 0.0, "lat": 38.931503666666664, "type": "electric_scooter", "lon": -77.04366433333334, "bike_id": "29e7cca891c4e1951cf3d85197f3b761", "rental_uris": {"android": "https://dc.lft.to/lastmile_qr_scan", "ios": "https://dc.lft.to/lastmile_qr_scan"}, "name": "29e7cca891c4e1951cf3d85197f3b761", "is_reserved": 0}, {"is_disabled": 0, "fusion_lon": 0.0, "fusion_lat": 0.0, "lat": 38.91883033333333, "type": "electric_scooter", "lon": -77.04176566666666, "bike_id": "db39c550ebcd3e1e43f517b9cf805013", "rental_uris": {"android": "https://dc.lft.to/lastmile_qr_scan", "ios": "https://dc.lft.to/lastmile_qr_scan"}, "name": "db39c550ebcd3e1e43f517b9cf805013", "is_reserved": 0}, {"is_disabled": 0, "fusion_lon": 0.0, "fusion_lat": 0.0, "lat": 38.91269916666667, "type": "electric_scooter", "lon": -77.02230783333333, "bike_id": "9b08eab5dbdcdbb98e9bc49c5061b237", "rental_uris": {"android": "https://dc.lft.to/lastmile_qr_scan", "ios": "https://dc.lft.to/lastmile_qr_scan"}, "name": "9b08eab5dbdcdbb98e9bc49c5061b237", "is_reserved": 0}, {"is_disabled": 0, "fusion_lon": 0.0, "fusion_lat": 0.0, "lat": 38.918153333333336, "type": "electric_scooter", "lon": -77.024789, "bike_id": "cbed528133d8cadc78a65948884f4d84", "rental_uris": {"android": "https://dc.lft.to/lastmile_qr_scan", "ios": "https://dc.lft.to/lastmile_qr_scan"}, "name": "cbed528133d8cadc78a65948884f4d84", "is_reserved": 0}, {"is_disabled": 0, "fusion_lon": 0.0, "fusion_lat": 0.0, "lat": 38.90302533333333, "type": "electric_scooter", "lon": -77.02366333333333, "bike_id": "ff091d7c9e9f1d003fe91575fb9fc7f1", "rental_uris": {"android": "https://dc.lft.to/lastmile_qr_scan", "ios": "https://dc.lft.to/lastmile_qr_scan"}, "name": "ff091d7c9e9f1d003fe91575fb9fc7f1", "is_reserved": 0}, {"is_disabled": 0, "fusion_lon": 0.0, "fusion_lat": 0.0, "lat": 38.9083715, "type": "electric_scooter", "lon": -77.034499, "bike_id": "5e4dce8a72343f98bd34f024275f4c88", "rental_uris": {"android": "https://dc.lft.to/lastmile_qr_scan", "ios": "https://dc.lft.to/lastmile_qr_scan"}, "name": "5e4dce8a72343f98bd34f024275f4c88", "is_reserved": 0}, {"is_disabled": 0, "fusion_lon": 0.0, "fusion_lat": 0.0, "lat": 38.896210333333336, "type": "electric_scooter", "lon": -77.01089333333333, "bike_id": "dbe142f7bee68c4e4ff2bbba7668bf47", "rental_uris": {"android": "https://dc.lft.to/lastmile_qr_scan", "ios": "https://dc.lft.to/lastmile_qr_scan"}, "name": "dbe142f7bee68c4e4ff2bbba7668bf47", "is_reserved": 0}, {"is_disabled": 0, "fusion_lon": 0.0, "fusion_lat": 0.0, "lat": 38.8579205, "type": "electric_bike", "lon": -77.099652, "bike_id": "817ab7c5da2f0a8da1fad5e1155fa507", "rental_uris": {"android": "https://dc.lft.to/lastmile_qr_scan", "ios": "https://dc.lft.to/lastmile_qr_scan"}, "name": "817ab7c5da2f0a8da1fad5e1155fa507", "is_reserved": 0}, {"is_disabled": 0, "fusion_lon": 0.0, "fusion_lat": 0.0, "lat": 38.901111, "type": "electric_scooter", "lon": -77.0416075, "bike_id": "40e572d9aea011206f40f678a0c80548", "rental_uris": {"android": "https://dc.lft.to/lastmile_qr_scan", "ios": "https://dc.lft.to/lastmile_qr_scan"}, "name": "40e572d9aea011206f40f678a0c80548", "is_reserved": 0}, {"is_disabled": 0, "fusion_lon": 0.0, "fusion_lat": 0.0, "lat": 38.93494716666667, "type": "electric_scooter", "lon": -77.0241665, "bike_id": "edeaba0d980deaf482c31daf90c4ef75", "rental_uris": {"android": "https://dc.lft.to/lastmile_qr_scan", "ios": "https://dc.lft.to/lastmile_qr_scan"}, "name": "edeaba0d980deaf482c31daf90c4ef75", "is_reserved": 0}, {"is_disabled": 0, "fusion_lon": 0.0, "fusion_lat": 0.0, "lat": 38.913255, "type": "electric_scooter", "lon": -77.032428, "bike_id": "0bb748385c59f4654936d5cb2f10bdac", "rental_uris": {"android": "https://dc.lft.to/lastmile_qr_scan", "ios": "https://dc.lft.to/lastmile_qr_scan"}, "name": "0bb748385c59f4654936d5cb2f10bdac", "is_reserved": 0}, {"is_disabled": 0, "fusion_lon": 0.0, "fusion_lat": 0.0, "lat": 38.891927833333334, "type": "electric_scooter", "lon": -76.988377, "bike_id": "c33413e0300a4f2ddff45e10b5193f19", "rental_uris": {"android": "https://dc.lft.to/lastmile_qr_scan", "ios": "https://dc.lft.to/lastmile_qr_scan"}, "name": "c33413e0300a4f2ddff45e10b5193f19", "is_reserved": 0}, {"is_disabled": 0, "fusion_lon": 0.0, "fusion_lat": 0.0, "lat": 38.9019935, "type": "electric_scooter", "lon": -77.061198, "bike_id": "ab63a41b944f6ca6afbbc506f985a298", "rental_uris": {"android": "https://dc.lft.to/lastmile_qr_scan", "ios": "https://dc.lft.to/lastmile_qr_scan"}, "name": "ab63a41b944f6ca6afbbc506f985a298", "is_reserved": 0}, {"is_disabled": 0, "fusion_lon": 0.0, "fusion_lat": 0.0, "lat": 38.92651216666667, "type": "electric_scooter", "lon": -77.03716083333333, "bike_id": "b5b7f9349b6990764f6bff8e3565bb19", "rental_uris": {"android": "https://dc.lft.to/lastmile_qr_scan", "ios": "https://dc.lft.to/lastmile_qr_scan"}, "name": "b5b7f9349b6990764f6bff8e3565bb19", "is_reserved": 0}, {"is_disabled": 0, "fusion_lon": 0.0, "fusion_lat": 0.0, "lat": 38.908604833333335, "type": "electric_scooter", "lon": -77.04474866666666, "bike_id": "3d5b59c9262344cc055027663ad39cfa", "rental_uris": {"android": "https://dc.lft.to/lastmile_qr_scan", "ios": "https://dc.lft.to/lastmile_qr_scan"}, "name": "3d5b59c9262344cc055027663ad39cfa", "is_reserved": 0}, {"is_disabled": 0, "fusion_lon": 0.0, "fusion_lat": 0.0, "lat": 38.9308065, "type": "electric_scooter", "lon": -77.0279355, "bike_id": "508491c5ac64d0bc6be7646dba0907bc", "rental_uris": {"android": "https://dc.lft.to/lastmile_qr_scan", "ios": "https://dc.lft.to/lastmile_qr_scan"}, "name": "508491c5ac64d0bc6be7646dba0907bc", "is_reserved": 0}, {"is_disabled": 0, "fusion_lon": 0.0, "fusion_lat": 0.0, "lat": 38.91810516666666, "type": "electric_scooter", "lon": -77.02695033333333, "bike_id": "3721160220007bc49e5ec04b330f5247", "rental_uris": {"android": "https://dc.lft.to/lastmile_qr_scan", "ios": "https://dc.lft.to/lastmile_qr_scan"}, "name": "3721160220007bc49e5ec04b330f5247", "is_reserved": 0}, {"is_disabled": 0, "fusion_lon": 0.0, "fusion_lat": 0.0, "lat": 38.85848, "type": "electric_bike", "lon": -76.99290566666667, "bike_id": "87d7a08597042298abcc3ba3da5ddc4c", "rental_uris": {"android": "https://dc.lft.to/lastmile_qr_scan", "ios": "https://dc.lft.to/lastmile_qr_scan"}, "name": "87d7a08597042298abcc3ba3da5ddc4c", "is_reserved": 0}, {"is_disabled": 0, "fusion_lon": 0.0, "fusion_lat": 0.0, "lat": 38.895371833333336, "type": "electric_scooter", "lon": -77.01533283333333, "bike_id": "bc31fccd0467e1394d31c6fe3a22a167", "rental_uris": {"android": "https://dc.lft.to/lastmile_qr_scan", "ios": "https://dc.lft.to/lastmile_qr_scan"}, "name": "bc31fccd0467e1394d31c6fe3a22a167", "is_reserved": 0}, {"is_disabled": 0, "fusion_lon": 0.0, "fusion_lat": 0.0, "lat": 38.900252, "type": "electric_scooter", "lon": -76.9964135, "bike_id": "16b70966b40cd34b515c93266797cf4e", "rental_uris": {"android": "https://dc.lft.to/lastmile_qr_scan", "ios": "https://dc.lft.to/lastmile_qr_scan"}, "name": "16b70966b40cd34b515c93266797cf4e", "is_reserved": 0}, {"is_disabled": 0, "fusion_lon": 0.0, "fusion_lat": 0.0, "lat": 38.92109583333333, "type": "electric_scooter", "lon": -77.0422455, "bike_id": "7f0286c646301785e44dd9c22a8f4d49", "rental_uris": {"android": "https://dc.lft.to/lastmile_qr_scan", "ios": "https://dc.lft.to/lastmile_qr_scan"}, "name": "7f0286c646301785e44dd9c22a8f4d49", "is_reserved": 0}, {"is_disabled": 0, "fusion_lon": 0.0, "fusion_lat": 0.0, "lat": 38.88319333333333, "type": "electric_scooter", "lon": -76.94944066666666, "bike_id": "aea9369e0204445e7f4439dc3ff0a059", "rental_uris": {"android": "https://dc.lft.to/lastmile_qr_scan", "ios": "https://dc.lft.to/lastmile_qr_scan"}, "name": "aea9369e0204445e7f4439dc3ff0a059", "is_reserved": 0}, {"is_disabled": 0, "fusion_lon": 0.0, "fusion_lat": 0.0, "lat": 38.85284333333333, "type": "electric_bike", "lon": -76.981548, "bike_id": "36a481385e5dec86179e1963440e19ab", "rental_uris": {"android": "https://dc.lft.to/lastmile_qr_scan", "ios": "https://dc.lft.to/lastmile_qr_scan"}, "name": "36a481385e5dec86179e1963440e19ab", "is_reserved": 0}, {"is_disabled": 0, "fusion_lon": 0.0, "fusion_lat": 0.0, "lat": 38.88418333333333, "type": "electric_scooter", "lon": -77.0248375, "bike_id": "ec18a337da78e83267fd0002928fc7cc", "rental_uris": {"android": "https://dc.lft.to/lastmile_qr_scan", "ios": "https://dc.lft.to/lastmile_qr_scan"}, "name": "ec18a337da78e83267fd0002928fc7cc", "is_reserved": 0}, {"is_disabled": 0, "fusion_lon": 0.0, "fusion_lat": 0.0, "lat": 38.898264, "type": "electric_scooter", "lon": -77.00216, "bike_id": "ea59d394f92caa1cca0db13b6c58735d", "rental_uris": {"android": "https://dc.lft.to/lastmile_qr_scan", "ios": "https://dc.lft.to/lastmile_qr_scan"}, "name": "ea59d394f92caa1cca0db13b6c58735d", "is_reserved": 0}, {"is_disabled": 0, "fusion_lon": 0.0, "fusion_lat": 0.0, "lat": 38.912693166666664, "type": "electric_scooter", "lon": -77.022247, "bike_id": "0d502b795779fea60d069e9379b1af63", "rental_uris": {"android": "https://dc.lft.to/lastmile_qr_scan", "ios": "https://dc.lft.to/lastmile_qr_scan"}, "name": "0d502b795779fea60d069e9379b1af63", "is_reserved": 0}, {"is_disabled": 0, "fusion_lon": 0.0, "fusion_lat": 0.0, "lat": 38.9656425, "type": "electric_bike", "lon": -77.023037, "bike_id": "19ac6d63896407257b8395704d8ddfbd", "rental_uris": {"android": "https://dc.lft.to/lastmile_qr_scan", "ios": "https://dc.lft.to/lastmile_qr_scan"}, "name": "19ac6d63896407257b8395704d8ddfbd", "is_reserved": 0}, {"is_disabled": 0, "fusion_lon": 0.0, "fusion_lat": 0.0, "lat": 38.902456666666666, "type": "electric_scooter", "lon": -77.03098666666666, "bike_id": "b4377d0e46436c3c45048ad509e35deb", "rental_uris": {"android": "https://dc.lft.to/lastmile_qr_scan", "ios": "https://dc.lft.to/lastmile_qr_scan"}, "name": "b4377d0e46436c3c45048ad509e35deb", "is_reserved": 0}, {"is_disabled": 0, "fusion_lon": 0.0, "fusion_lat": 0.0, "lat": 38.917140833333335, "type": "electric_scooter", "lon": -77.02616683333333, "bike_id": "e9950f76a9645fdaf79c022610581a5c", "rental_uris": {"android": "https://dc.lft.to/lastmile_qr_scan", "ios": "https://dc.lft.to/lastmile_qr_scan"}, "name": "e9950f76a9645fdaf79c022610581a5c", "is_reserved": 0}, {"is_disabled": 0, "fusion_lon": 0.0, "fusion_lat": 0.0, "lat": 38.918150833333335, "type": "electric_scooter", "lon": -77.03184333333333, "bike_id": "c7b8ad54d4243ee7462cb7737a7ee0b5", "rental_uris": {"android": "https://dc.lft.to/lastmile_qr_scan", "ios": "https://dc.lft.to/lastmile_qr_scan"}, "name": "c7b8ad54d4243ee7462cb7737a7ee0b5", "is_reserved": 0}, {"is_disabled": 0, "fusion_lon": 0.0, "fusion_lat": 0.0, "lat": 38.905749, "type": "electric_scooter", "lon": -77.02398183333334, "bike_id": "5040bfa116fc9edb6519547f82ba1eb0", "rental_uris": {"android": "https://dc.lft.to/lastmile_qr_scan", "ios": "https://dc.lft.to/lastmile_qr_scan"}, "name": "5040bfa116fc9edb6519547f82ba1eb0", "is_reserved": 0}, {"is_disabled": 0, "fusion_lon": 0.0, "fusion_lat": 0.0, "lat": 38.93712266666667, "type": "electric_scooter", "lon": -77.03267333333334, "bike_id": "d2e8af49e6528df941838ab32581a0ad", "rental_uris": {"android": "https://dc.lft.to/lastmile_qr_scan", "ios": "https://dc.lft.to/lastmile_qr_scan"}, "name": "d2e8af49e6528df941838ab32581a0ad", "is_reserved": 0}, {"is_disabled": 0, "fusion_lon": 0.0, "fusion_lat": 0.0, "lat": 38.86709833333333, "type": "electric_scooter", "lon": -76.98736283333334, "bike_id": "edd7e8a1f97826aa701cf6f44113abd7", "rental_uris": {"android": "https://dc.lft.to/lastmile_qr_scan", "ios": "https://dc.lft.to/lastmile_qr_scan"}, "name": "edd7e8a1f97826aa701cf6f44113abd7", "is_reserved": 0}, {"is_disabled": 0, "fusion_lon": 0.0, "fusion_lat": 0.0, "lat": 38.916848, "type": "electric_scooter", "lon": -77.04144133333334, "bike_id": "2d19d90922cb9816fb9bbdcbfda42a1c", "rental_uris": {"android": "https://dc.lft.to/lastmile_qr_scan", "ios": "https://dc.lft.to/lastmile_qr_scan"}, "name": "2d19d90922cb9816fb9bbdcbfda42a1c", "is_reserved": 0}, {"is_disabled": 0, "fusion_lon": 0.0, "fusion_lat": 0.0, "lat": 38.898710666666666, "type": "electric_scooter", "lon": -77.041503, "bike_id": "f5936fd5fe481892a946db10d047f4b5", "rental_uris": {"android": "https://dc.lft.to/lastmile_qr_scan", "ios": "https://dc.lft.to/lastmile_qr_scan"}, "name": "f5936fd5fe481892a946db10d047f4b5", "is_reserved": 0}, {"is_disabled": 0, "fusion_lon": 0.0, "fusion_lat": 0.0, "lat": 38.93926066666667, "type": "electric_scooter", "lon": -77.02468766666667, "bike_id": "7b405daff1b9808a5e8e669902533d77", "rental_uris": {"android": "https://dc.lft.to/lastmile_qr_scan", "ios": "https://dc.lft.to/lastmile_qr_scan"}, "name": "7b405daff1b9808a5e8e669902533d77", "is_reserved": 0}, {"is_disabled": 0, "fusion_lon": 0.0, "fusion_lat": 0.0, "lat": 39.0037935, "type": "electric_bike", "lon": -77.01299566666667, "bike_id": "717aee85e57bd5ae6a830eaa5108ec47", "rental_uris": {"android": "https://dc.lft.to/lastmile_qr_scan", "ios": "https://dc.lft.to/lastmile_qr_scan"}, "name": "717aee85e57bd5ae6a830eaa5108ec47", "is_reserved": 0}, {"is_disabled": 0, "fusion_lon": 0.0, "fusion_lat": 0.0, "lat": 38.901428833333334, "type": "electric_scooter", "lon": -77.01505166666666, "bike_id": "dd00b7b402c8eb836fcf9a00b653c83e", "rental_uris": {"android": "https://dc.lft.to/lastmile_qr_scan", "ios": "https://dc.lft.to/lastmile_qr_scan"}, "name": "dd00b7b402c8eb836fcf9a00b653c83e", "is_reserved": 0}, {"is_disabled": 0, "fusion_lon": 0.0, "fusion_lat": 0.0, "lat": 38.924564, "type": "electric_scooter", "lon": -76.99902983333334, "bike_id": "dc5f412a0b6c64d09770497e26d66475", "rental_uris": {"android": "https://dc.lft.to/lastmile_qr_scan", "ios": "https://dc.lft.to/lastmile_qr_scan"}, "name": "dc5f412a0b6c64d09770497e26d66475", "is_reserved": 0}, {"is_disabled": 0, "fusion_lon": 0.0, "fusion_lat": 0.0, "lat": 38.939261, "type": "electric_scooter", "lon": -77.07466766666667, "bike_id": "15e3a3510632d9879fc1923c4a03c373", "rental_uris": {"android": "https://dc.lft.to/lastmile_qr_scan", "ios": "https://dc.lft.to/lastmile_qr_scan"}, "name": "15e3a3510632d9879fc1923c4a03c373", "is_reserved": 0}, {"is_disabled": 0, "fusion_lon": 0.0, "fusion_lat": 0.0, "lat": 38.917040166666666, "type": "electric_scooter", "lon": -77.02740883333334, "bike_id": "5a80a078f660c28b306263bf66558972", "rental_uris": {"android": "https://dc.lft.to/lastmile_qr_scan", "ios": "https://dc.lft.to/lastmile_qr_scan"}, "name": "5a80a078f660c28b306263bf66558972", "is_reserved": 0}, {"is_disabled": 0, "fusion_lon": 0.0, "fusion_lat": 0.0, "lat": 38.902852833333334, "type": "electric_scooter", "lon": -77.03916066666666, "bike_id": "7701388ad98199572a7176043c7973f1", "rental_uris": {"android": "https://dc.lft.to/lastmile_qr_scan", "ios": "https://dc.lft.to/lastmile_qr_scan"}, "name": "7701388ad98199572a7176043c7973f1", "is_reserved": 0}, {"is_disabled": 0, "fusion_lon": 0.0, "fusion_lat": 0.0, "lat": 38.92241816666667, "type": "electric_scooter", "lon": -77.03663416666667, "bike_id": "c823820c355ae4dcda282291e4927888", "rental_uris": {"android": "https://dc.lft.to/lastmile_qr_scan", "ios": "https://dc.lft.to/lastmile_qr_scan"}, "name": "c823820c355ae4dcda282291e4927888", "is_reserved": 0}, {"is_disabled": 0, "fusion_lon": 0.0, "fusion_lat": 0.0, "lat": 38.943089, "type": "electric_scooter", "lon": -77.06163366666667, "bike_id": "7bfc17c7f363191efa5bfbd1eddfd34e", "rental_uris": {"android": "https://dc.lft.to/lastmile_qr_scan", "ios": "https://dc.lft.to/lastmile_qr_scan"}, "name": "7bfc17c7f363191efa5bfbd1eddfd34e", "is_reserved": 0}, {"is_disabled": 0, "fusion_lon": 0.0, "fusion_lat": 0.0, "lat": 38.92631516666667, "type": "electric_scooter", "lon": -77.03511183333333, "bike_id": "63c7e89fad64382a7b80ff808984488b", "rental_uris": {"android": "https://dc.lft.to/lastmile_qr_scan", "ios": "https://dc.lft.to/lastmile_qr_scan"}, "name": "63c7e89fad64382a7b80ff808984488b", "is_reserved": 0}, {"is_disabled": 0, "fusion_lon": 0.0, "fusion_lat": 0.0, "lat": 38.890140833333334, "type": "electric_scooter", "lon": -76.9384125, "bike_id": "7c1e0468cc11bcf2463eb8e829c9a0e6", "rental_uris": {"android": "https://dc.lft.to/lastmile_qr_scan", "ios": "https://dc.lft.to/lastmile_qr_scan"}, "name": "7c1e0468cc11bcf2463eb8e829c9a0e6", "is_reserved": 0}, {"is_disabled": 0, "fusion_lon": 0.0, "fusion_lat": 0.0, "lat": 38.930883, "type": "electric_scooter", "lon": -77.036254, "bike_id": "e701a7bab5825580e40c8804bb7a98ca", "rental_uris": {"android": "https://dc.lft.to/lastmile_qr_scan", "ios": "https://dc.lft.to/lastmile_qr_scan"}, "name": "e701a7bab5825580e40c8804bb7a98ca", "is_reserved": 0}, {"is_disabled": 0, "fusion_lon": 0.0, "fusion_lat": 0.0, "lat": 38.930555, "type": "electric_scooter", "lon": -77.02971116666667, "bike_id": "0d415663cc088851e90ee9e94c3ca141", "rental_uris": {"android": "https://dc.lft.to/lastmile_qr_scan", "ios": "https://dc.lft.to/lastmile_qr_scan"}, "name": "0d415663cc088851e90ee9e94c3ca141", "is_reserved": 0}, {"is_disabled": 0, "fusion_lon": 0.0, "fusion_lat": 0.0, "lat": 38.90031116666667, "type": "electric_scooter", "lon": -76.996298, "bike_id": "ef87cec21bd58abe2dd97c9036d5f9cb", "rental_uris": {"android": "https://dc.lft.to/lastmile_qr_scan", "ios": "https://dc.lft.to/lastmile_qr_scan"}, "name": "ef87cec21bd58abe2dd97c9036d5f9cb", "is_reserved": 0}, {"is_disabled": 0, "fusion_lon": 0.0, "fusion_lat": 0.0, "lat": 38.898529833333335, "type": "electric_scooter", "lon": -77.029293, "bike_id": "ea8deaa6755f3f1021290873f55cb9d6", "rental_uris": {"android": "https://dc.lft.to/lastmile_qr_scan", "ios": "https://dc.lft.to/lastmile_qr_scan"}, "name": "ea8deaa6755f3f1021290873f55cb9d6", "is_reserved": 0}, {"is_disabled": 0, "fusion_lon": 0.0, "fusion_lat": 0.0, "lat": 39.02495833333333, "type": "electric_bike", "lon": -77.12566533333333, "bike_id": "7968b525e21ba5ade2387d0346d79a0d", "rental_uris": {"android": "https://dc.lft.to/lastmile_qr_scan", "ios": "https://dc.lft.to/lastmile_qr_scan"}, "name": "7968b525e21ba5ade2387d0346d79a0d", "is_reserved": 0}, {"is_disabled": 0, "fusion_lon": 0.0, "fusion_lat": 0.0, "lat": 38.918329, "type": "electric_scooter", "lon": -77.03186933333333, "bike_id": "da91d9c9cd0f99a92056efe3ab388bb3", "rental_uris": {"android": "https://dc.lft.to/lastmile_qr_scan", "ios": "https://dc.lft.to/lastmile_qr_scan"}, "name": "da91d9c9cd0f99a92056efe3ab388bb3", "is_reserved": 0}, {"is_disabled": 0, "fusion_lon": 0.0, "fusion_lat": 0.0, "lat": 38.923679, "type": "electric_scooter", "lon": -77.03077716666667, "bike_id": "3f2f593cef96d467084907463039522c", "rental_uris": {"android": "https://dc.lft.to/lastmile_qr_scan", "ios": "https://dc.lft.to/lastmile_qr_scan"}, "name": "3f2f593cef96d467084907463039522c", "is_reserved": 0}, {"is_disabled": 0, "fusion_lon": 0.0, "fusion_lat": 0.0, "lat": 38.912697666666666, "type": "electric_scooter", "lon": -77.02227933333333, "bike_id": "d08ceb7d86184324d9a04601b14d6b94", "rental_uris": {"android": "https://dc.lft.to/lastmile_qr_scan", "ios": "https://dc.lft.to/lastmile_qr_scan"}, "name": "d08ceb7d86184324d9a04601b14d6b94", "is_reserved": 0}, {"is_disabled": 0, "fusion_lon": 0.0, "fusion_lat": 0.0, "lat": 38.907801666666664, "type": "electric_scooter", "lon": -77.04091616666666, "bike_id": "be15852d573a1fce512772782c58efe5", "rental_uris": {"android": "https://dc.lft.to/lastmile_qr_scan", "ios": "https://dc.lft.to/lastmile_qr_scan"}, "name": "be15852d573a1fce512772782c58efe5", "is_reserved": 0}, {"is_disabled": 0, "fusion_lon": 0.0, "fusion_lat": 0.0, "lat": 38.9073205, "type": "electric_scooter", "lon": -77.0236845, "bike_id": "1a8384fab9d324211a830c0a1777bd85", "rental_uris": {"android": "https://dc.lft.to/lastmile_qr_scan", "ios": "https://dc.lft.to/lastmile_qr_scan"}, "name": "1a8384fab9d324211a830c0a1777bd85", "is_reserved": 0}, {"is_disabled": 0, "fusion_lon": 0.0, "fusion_lat": 0.0, "lat": 38.876310833333335, "type": "electric_scooter", "lon": -76.965304, "bike_id": "1e0b8a0ed1a9e8394d14791c77d8b126", "rental_uris": {"android": "https://dc.lft.to/lastmile_qr_scan", "ios": "https://dc.lft.to/lastmile_qr_scan"}, "name": "1e0b8a0ed1a9e8394d14791c77d8b126", "is_reserved": 0}, {"is_disabled": 0, "fusion_lon": 0.0, "fusion_lat": 0.0, "lat": 38.89827533333333, "type": "electric_scooter", "lon": -77.02964983333334, "bike_id": "6d62cf972dad5fc7dbde9efa5410227d", "rental_uris": {"android": "https://dc.lft.to/lastmile_qr_scan", "ios": "https://dc.lft.to/lastmile_qr_scan"}, "name": "6d62cf972dad5fc7dbde9efa5410227d", "is_reserved": 0}, {"is_disabled": 0, "fusion_lon": 0.0, "fusion_lat": 0.0, "lat": 38.922058, "type": "electric_bike", "lon": -77.03658533333333, "bike_id": "bf1d18e2516819ef4478091c9532a51c", "rental_uris": {"android": "https://dc.lft.to/lastmile_qr_scan", "ios": "https://dc.lft.to/lastmile_qr_scan"}, "name": "bf1d18e2516819ef4478091c9532a51c", "is_reserved": 0}, {"is_disabled": 0, "fusion_lon": 0.0, "fusion_lat": 0.0, "lat": 38.95088333333333, "type": "electric_bike", "lon": -76.96561116666666, "bike_id": "03283289f732afdcabdde2f6fc7d10bb", "rental_uris": {"android": "https://dc.lft.to/lastmile_qr_scan", "ios": "https://dc.lft.to/lastmile_qr_scan"}, "name": "03283289f732afdcabdde2f6fc7d10bb", "is_reserved": 0}, {"is_disabled": 0, "fusion_lon": 0.0, "fusion_lat": 0.0, "lat": 38.890465666666664, "type": "electric_scooter", "lon": -76.93761, "bike_id": "c8ce0d0fc90a811f9858c594bddd818d", "rental_uris": {"android": "https://dc.lft.to/lastmile_qr_scan", "ios": "https://dc.lft.to/lastmile_qr_scan"}, "name": "c8ce0d0fc90a811f9858c594bddd818d", "is_reserved": 0}, {"is_disabled": 0, "fusion_lon": 0.0, "fusion_lat": 0.0, "lat": 38.90777633333333, "type": "electric_scooter", "lon": -77.04508783333333, "bike_id": "0f2c40650b87cd4dfeac11861d71319a", "rental_uris": {"android": "https://dc.lft.to/lastmile_qr_scan", "ios": "https://dc.lft.to/lastmile_qr_scan"}, "name": "0f2c40650b87cd4dfeac11861d71319a", "is_reserved": 0}, {"is_disabled": 0, "fusion_lon": 0.0, "fusion_lat": 0.0, "lat": 38.94189033333333, "type": "electric_scooter", "lon": -77.04255666666667, "bike_id": "5ba7c6dac6805d076514a19048adb559", "rental_uris": {"android": "https://dc.lft.to/lastmile_qr_scan", "ios": "https://dc.lft.to/lastmile_qr_scan"}, "name": "5ba7c6dac6805d076514a19048adb559", "is_reserved": 0}, {"is_disabled": 0, "fusion_lon": 0.0, "fusion_lat": 0.0, "lat": 38.960555166666666, "type": "electric_scooter", "lon": -77.085761, "bike_id": "898ef39c3878d07f841164726f87f3b9", "rental_uris": {"android": "https://dc.lft.to/lastmile_qr_scan", "ios": "https://dc.lft.to/lastmile_qr_scan"}, "name": "898ef39c3878d07f841164726f87f3b9", "is_reserved": 0}, {"is_disabled": 0, "fusion_lon": 0.0, "fusion_lat": 0.0, "lat": 38.9312745, "type": "electric_scooter", "lon": -77.02198916666667, "bike_id": "366a4df8589d0ca710172b10f28e04e2", "rental_uris": {"android": "https://dc.lft.to/lastmile_qr_scan", "ios": "https://dc.lft.to/lastmile_qr_scan"}, "name": "366a4df8589d0ca710172b10f28e04e2", "is_reserved": 0}, {"is_disabled": 0, "fusion_lon": 0.0, "fusion_lat": 0.0, "lat": 38.90264583333333, "type": "electric_scooter", "lon": -77.04400433333333, "bike_id": "96bf68984dd7f564d179702fc194a7d1", "rental_uris": {"android": "https://dc.lft.to/lastmile_qr_scan", "ios": "https://dc.lft.to/lastmile_qr_scan"}, "name": "96bf68984dd7f564d179702fc194a7d1", "is_reserved": 0}, {"is_disabled": 0, "fusion_lon": 0.0, "fusion_lat": 0.0, "lat": 38.893297833333335, "type": "electric_scooter", "lon": -77.0213185, "bike_id": "8b6a9d91df0be8f4f4362bf220e9cd8e", "rental_uris": {"android": "https://dc.lft.to/lastmile_qr_scan", "ios": "https://dc.lft.to/lastmile_qr_scan"}, "name": "8b6a9d91df0be8f4f4362bf220e9cd8e", "is_reserved": 0}, {"is_disabled": 0, "fusion_lon": 0.0, "fusion_lat": 0.0, "lat": 38.90599183333333, "type": "electric_scooter", "lon": -77.01620616666666, "bike_id": "79a9e59f741a7951c156eb1df85c2dae", "rental_uris": {"android": "https://dc.lft.to/lastmile_qr_scan", "ios": "https://dc.lft.to/lastmile_qr_scan"}, "name": "79a9e59f741a7951c156eb1df85c2dae", "is_reserved": 0}, {"is_disabled": 0, "fusion_lon": 0.0, "fusion_lat": 0.0, "lat": 38.935424166666664, "type": "electric_scooter", "lon": -77.0341905, "bike_id": "d6ce9790ac161c455f8ffb45d06fad8e", "rental_uris": {"android": "https://dc.lft.to/lastmile_qr_scan", "ios": "https://dc.lft.to/lastmile_qr_scan"}, "name": "d6ce9790ac161c455f8ffb45d06fad8e", "is_reserved": 0}, {"is_disabled": 0, "fusion_lon": 0.0, "fusion_lat": 0.0, "lat": 38.923169666666666, "type": "electric_scooter", "lon": -77.03935283333334, "bike_id": "4b734df425e49db232023e6301c825dd", "rental_uris": {"android": "https://dc.lft.to/lastmile_qr_scan", "ios": "https://dc.lft.to/lastmile_qr_scan"}, "name": "4b734df425e49db232023e6301c825dd", "is_reserved": 0}, {"is_disabled": 0, "fusion_lon": 0.0, "fusion_lat": 0.0, "lat": 39.022982, "type": "electric_bike", "lon": -77.02103033333333, "bike_id": "0381b128fbcb5eb4100149b619ce5892", "rental_uris": {"android": "https://dc.lft.to/lastmile_qr_scan", "ios": "https://dc.lft.to/lastmile_qr_scan"}, "name": "0381b128fbcb5eb4100149b619ce5892", "is_reserved": 0}, {"is_disabled": 0, "fusion_lon": 0.0, "fusion_lat": 0.0, "lat": 38.897696, "type": "electric_scooter", "lon": -77.0513115, "bike_id": "ff93c0740492e0690f0716c4a3e65a01", "rental_uris": {"android": "https://dc.lft.to/lastmile_qr_scan", "ios": "https://dc.lft.to/lastmile_qr_scan"}, "name": "ff93c0740492e0690f0716c4a3e65a01", "is_reserved": 0}, {"is_disabled": 0, "fusion_lon": 0.0, "fusion_lat": 0.0, "lat": 38.89847833333334, "type": "electric_scooter", "lon": -76.94494783333333, "bike_id": "c39c8e352a227f5d2967bcf7c8c45b02", "rental_uris": {"android": "https://dc.lft.to/lastmile_qr_scan", "ios": "https://dc.lft.to/lastmile_qr_scan"}, "name": "c39c8e352a227f5d2967bcf7c8c45b02", "is_reserved": 0}, {"is_disabled": 0, "fusion_lon": 0.0, "fusion_lat": 0.0, "lat": 38.89876016666667, "type": "electric_scooter", "lon": -76.9318625, "bike_id": "2c16a7d87da54e97670cb4a35c6d5713", "rental_uris": {"android": "https://dc.lft.to/lastmile_qr_scan", "ios": "https://dc.lft.to/lastmile_qr_scan"}, "name": "2c16a7d87da54e97670cb4a35c6d5713", "is_reserved": 0}, {"is_disabled": 0, "fusion_lon": 0.0, "fusion_lat": 0.0, "lat": 38.9105165, "type": "electric_scooter", "lon": -77.0405995, "bike_id": "20394ebda58df693f2d650299fd2d4c7", "rental_uris": {"android": "https://dc.lft.to/lastmile_qr_scan", "ios": "https://dc.lft.to/lastmile_qr_scan"}, "name": "20394ebda58df693f2d650299fd2d4c7", "is_reserved": 0}, {"is_disabled": 0, "fusion_lon": 0.0, "fusion_lat": 0.0, "lat": 38.8193285, "type": "electric_bike", "lon": -77.00230766666667, "bike_id": "1577a5528204b6586e0645fbb61b2679", "rental_uris": {"android": "https://dc.lft.to/lastmile_qr_scan", "ios": "https://dc.lft.to/lastmile_qr_scan"}, "name": "1577a5528204b6586e0645fbb61b2679", "is_reserved": 0}, {"is_disabled": 0, "fusion_lon": 0.0, "fusion_lat": 0.0, "lat": 38.926249, "type": "electric_scooter", "lon": -77.05703733333333, "bike_id": "45cc72815484bea701f2b020727ec1d8", "rental_uris": {"android": "https://dc.lft.to/lastmile_qr_scan", "ios": "https://dc.lft.to/lastmile_qr_scan"}, "name": "45cc72815484bea701f2b020727ec1d8", "is_reserved": 0}, {"is_disabled": 0, "fusion_lon": 0.0, "fusion_lat": 0.0, "lat": 38.9050485, "type": "electric_scooter", "lon": -76.9885295, "bike_id": "bc4c4da45c9ceb28e19801ef24648a36", "rental_uris": {"android": "https://dc.lft.to/lastmile_qr_scan", "ios": "https://dc.lft.to/lastmile_qr_scan"}, "name": "bc4c4da45c9ceb28e19801ef24648a36", "is_reserved": 0}, {"is_disabled": 0, "fusion_lon": 0.0, "fusion_lat": 0.0, "lat": 38.887317333333336, "type": "electric_scooter", "lon": -77.02832333333333, "bike_id": "f9f2acb3f47e0c5c9c3275e346199b63", "rental_uris": {"android": "https://dc.lft.to/lastmile_qr_scan", "ios": "https://dc.lft.to/lastmile_qr_scan"}, "name": "f9f2acb3f47e0c5c9c3275e346199b63", "is_reserved": 0}, {"is_disabled": 0, "fusion_lon": 0.0, "fusion_lat": 0.0, "lat": 38.911222, "type": "electric_scooter", "lon": -77.038378, "bike_id": "f6d98b674d88f31b7902a06ae20947da", "rental_uris": {"android": "https://dc.lft.to/lastmile_qr_scan", "ios": "https://dc.lft.to/lastmile_qr_scan"}, "name": "f6d98b674d88f31b7902a06ae20947da", "is_reserved": 0}, {"is_disabled": 0, "fusion_lon": 0.0, "fusion_lat": 0.0, "lat": 38.88767933333333, "type": "electric_scooter", "lon": -76.95673766666667, "bike_id": "07157229e929e7e11027832fc5ae3b4c", "rental_uris": {"android": "https://dc.lft.to/lastmile_qr_scan", "ios": "https://dc.lft.to/lastmile_qr_scan"}, "name": "07157229e929e7e11027832fc5ae3b4c", "is_reserved": 0}, {"is_disabled": 0, "fusion_lon": 0.0, "fusion_lat": 0.0, "lat": 38.95285416666667, "type": "electric_scooter", "lon": -77.0684755, "bike_id": "12bf336601eaec315d07c60e1763ae02", "rental_uris": {"android": "https://dc.lft.to/lastmile_qr_scan", "ios": "https://dc.lft.to/lastmile_qr_scan"}, "name": "12bf336601eaec315d07c60e1763ae02", "is_reserved": 0}, {"is_disabled": 0, "fusion_lon": 0.0, "fusion_lat": 0.0, "lat": 38.904185, "type": "electric_scooter", "lon": -76.98515183333333, "bike_id": "0369baaa94bdb10ffc4eb2d34e3f3871", "rental_uris": {"android": "https://dc.lft.to/lastmile_qr_scan", "ios": "https://dc.lft.to/lastmile_qr_scan"}, "name": "0369baaa94bdb10ffc4eb2d34e3f3871", "is_reserved": 0}, {"is_disabled": 0, "fusion_lon": 0.0, "fusion_lat": 0.0, "lat": 38.900257833333335, "type": "electric_scooter", "lon": -76.99838733333333, "bike_id": "e990c9fe1678872c5f0db40d5ea11d31", "rental_uris": {"android": "https://dc.lft.to/lastmile_qr_scan", "ios": "https://dc.lft.to/lastmile_qr_scan"}, "name": "e990c9fe1678872c5f0db40d5ea11d31", "is_reserved": 0}, {"is_disabled": 0, "fusion_lon": 0.0, "fusion_lat": 0.0, "lat": 38.959576166666665, "type": "electric_bike", "lon": -76.981563, "bike_id": "029d11474ffe281d91d59f2d05b80dca", "rental_uris": {"android": "https://dc.lft.to/lastmile_qr_scan", "ios": "https://dc.lft.to/lastmile_qr_scan"}, "name": "029d11474ffe281d91d59f2d05b80dca", "is_reserved": 0}, {"is_disabled": 0, "fusion_lon": 0.0, "fusion_lat": 0.0, "lat": 38.9097305, "type": "electric_scooter", "lon": -77.0384435, "bike_id": "c06f3aecc4861c471eedf888fe5f7166", "rental_uris": {"android": "https://dc.lft.to/lastmile_qr_scan", "ios": "https://dc.lft.to/lastmile_qr_scan"}, "name": "c06f3aecc4861c471eedf888fe5f7166", "is_reserved": 0}, {"is_disabled": 0, "fusion_lon": 0.0, "fusion_lat": 0.0, "lat": 38.915768166666666, "type": "electric_scooter", "lon": -77.04679616666667, "bike_id": "ee1ea322fb1632361f7528212e31b9de", "rental_uris": {"android": "https://dc.lft.to/lastmile_qr_scan", "ios": "https://dc.lft.to/lastmile_qr_scan"}, "name": "ee1ea322fb1632361f7528212e31b9de", "is_reserved": 0}, {"is_disabled": 0, "fusion_lon": 0.0, "fusion_lat": 0.0, "lat": 38.897528, "type": "electric_scooter", "lon": -77.04803783333334, "bike_id": "b25a26bc7e573a7c919334406f18386d", "rental_uris": {"android": "https://dc.lft.to/lastmile_qr_scan", "ios": "https://dc.lft.to/lastmile_qr_scan"}, "name": "b25a26bc7e573a7c919334406f18386d", "is_reserved": 0}, {"is_disabled": 0, "fusion_lon": 0.0, "fusion_lat": 0.0, "lat": 38.950009333333334, "type": "electric_bike", "lon": -77.353107, "bike_id": "1d0ac5eff0d2eda37d37652852c34a5b", "rental_uris": {"android": "https://dc.lft.to/lastmile_qr_scan", "ios": "https://dc.lft.to/lastmile_qr_scan"}, "name": "1d0ac5eff0d2eda37d37652852c34a5b", "is_reserved": 0}, {"is_disabled": 0, "fusion_lon": 0.0, "fusion_lat": 0.0, "lat": 38.917735, "type": "electric_scooter", "lon": -77.03203316666666, "bike_id": "8f67fdf5a6b4b5d7cd21c35ea2938411", "rental_uris": {"android": "https://dc.lft.to/lastmile_qr_scan", "ios": "https://dc.lft.to/lastmile_qr_scan"}, "name": "8f67fdf5a6b4b5d7cd21c35ea2938411", "is_reserved": 0}, {"is_disabled": 0, "fusion_lon": 0.0, "fusion_lat": 0.0, "lat": 38.905666833333335, "type": "electric_scooter", "lon": -77.00708, "bike_id": "4fbd4f5f7c80a6942aca2a8093ff181b", "rental_uris": {"android": "https://dc.lft.to/lastmile_qr_scan", "ios": "https://dc.lft.to/lastmile_qr_scan"}, "name": "4fbd4f5f7c80a6942aca2a8093ff181b", "is_reserved": 0}, {"is_disabled": 0, "fusion_lon": 0.0, "fusion_lat": 0.0, "lat": 38.92820833333333, "type": "electric_scooter", "lon": -77.036399, "bike_id": "a31fb837cf414ce2f6e475259cf02814", "rental_uris": {"android": "https://dc.lft.to/lastmile_qr_scan", "ios": "https://dc.lft.to/lastmile_qr_scan"}, "name": "a31fb837cf414ce2f6e475259cf02814", "is_reserved": 0}, {"is_disabled": 0, "fusion_lon": 0.0, "fusion_lat": 0.0, "lat": 38.919950666666665, "type": "electric_scooter", "lon": -77.032854, "bike_id": "03ef9a52b8ea27d575bf2a850e3d42a5", "rental_uris": {"android": "https://dc.lft.to/lastmile_qr_scan", "ios": "https://dc.lft.to/lastmile_qr_scan"}, "name": "03ef9a52b8ea27d575bf2a850e3d42a5", "is_reserved": 0}, {"is_disabled": 0, "fusion_lon": 0.0, "fusion_lat": 0.0, "lat": 38.932914833333335, "type": "electric_scooter", "lon": -77.02448783333334, "bike_id": "f33f12aa37dc1d1b642432360d061ddb", "rental_uris": {"android": "https://dc.lft.to/lastmile_qr_scan", "ios": "https://dc.lft.to/lastmile_qr_scan"},