{"data": {"bikes": [{"fusion_lat": 0.0, "lon": -77.03955466666666, "is_reserved": 0, "bike_id": "e3d806a608eb291205be1d68d534abed", "fusion_lon": 0.0, "rental_uris": {"android": "https://dc.lft.to/lastmile_qr_scan", "ios": "https://dc.lft.to/lastmile_qr_scan"}, "name": "e3d806a608eb291205be1d68d534abed", "type": "electric_scooter", "lat": 38.89243716666667, "is_disabled": 0}, {"fusion_lat": 0.0, "lon": -77.03214383333334, "is_reserved": 0, "bike_id": "70ed5a160ef74455ebfc3e7b9fdff861", "fusion_lon": 0.0, "rental_uris": {"android": "https://dc.lft.to/lastmile_qr_scan", "ios": "https://dc.lft.to/lastmile_qr_scan"}, "name": "70ed5a160ef74455ebfc3e7b9fdff861", "type": "electric_scooter", "lat": 38.89660966666667, "is_disabled": 0}, {"fusion_lat": 0.0, "lon": -76.9936765, "is_reserved": 0, "bike_id": "0c9a13281127edd9d2446b16f5f206cf", "fusion_lon": 0.0, "rental_uris": {"android": "https://dc.lft.to/lastmile_qr_scan", "ios": "https://dc.lft.to/lastmile_qr_scan"}, "name": "0c9a13281127edd9d2446b16f5f206cf", "type": "electric_scooter", "lat": 38.883089, "is_disabled": 0}, {"fusion_lat": 0.0, "lon": -76.995947, "is_reserved": 0, "bike_id": "3c517e46406f23e549c78385cdbe2e3f", "fusion_lon": 0.0, "rental_uris": {"android": "https://dc.lft.to/lastmile_qr_scan", "ios": "https://dc.lft.to/lastmile_qr_scan"}, "name": "3c517e46406f23e549c78385cdbe2e3f", "type": "electric_scooter", "lat": 38.892256333333336, "is_disabled": 0}, {"fusion_lat": 0.0, "lon": -77.03253916666667, "is_reserved": 0, "bike_id": "7f6509cae31857e20a6fe14590f00a94", "fusion_lon": 0.0, "rental_uris": {"android": "https://dc.lft.to/lastmile_qr_scan", "ios": "https://dc.lft.to/lastmile_qr_scan"}, "name": "7f6509cae31857e20a6fe14590f00a94", "type": "electric_scooter", "lat": 38.92849283333334, "is_disabled": 0}, {"fusion_lat": 0.0, "lon": -77.0237065, "is_reserved": 0, "bike_id": "11bf69ed16cd836718950a929b29f93e", "fusion_lon": 0.0, "rental_uris": {"android": "https://dc.lft.to/lastmile_qr_scan", "ios": "https://dc.lft.to/lastmile_qr_scan"}, "name": "11bf69ed16cd836718950a929b29f93e", "type": "electric_bike", "lat": 38.947567666666664, "is_disabled": 0}, {"fusion_lat": 0.0, "lon": -77.00553316666667, "is_reserved": 0, "bike_id": "3473184a14a58ded5a339f0c93d5b5ef", "fusion_lon": 0.0, "rental_uris": {"android": "https://dc.lft.to/lastmile_qr_scan", "ios": "https://dc.lft.to/lastmile_qr_scan"}, "name": "3473184a14a58ded5a339f0c93d5b5ef", "type": "electric_scooter", "lat": 38.900368666666665, "is_disabled": 0}, {"fusion_lat": 0.0, "lon": -77.01209433333334, "is_reserved": 0, "bike_id": "508be2a00a8bca9117bc0449bae73285", "fusion_lon": 0.0, "rental_uris": {"android": "https://dc.lft.to/lastmile_qr_scan", "ios": "https://dc.lft.to/lastmile_qr_scan"}, "name": "508be2a00a8bca9117bc0449bae73285", "type": "electric_scooter", "lat": 38.915944833333334, "is_disabled": 0}, {"fusion_lat": 0.0, "lon": -77.0256735, "is_reserved": 0, "bike_id": "5ed67f4a4039f672c86df1fb410492cd", "fusion_lon": 0.0, "rental_uris": {"android": "https://dc.lft.to/lastmile_qr_scan", "ios": "https://dc.lft.to/lastmile_qr_scan"}, "name": "5ed67f4a4039f672c86df1fb410492cd", "type": "electric_scooter", "lat": 38.8808245, "is_disabled": 0}, {"fusion_lat": 0.0, "lon": -76.93348983333334, "is_reserved": 0, "bike_id": "2502ae6125093df0b368c4d49a2193db", "fusion_lon": 0.0, "rental_uris": {"android": "https://dc.lft.to/lastmile_qr_scan", "ios": "https://dc.lft.to/lastmile_qr_scan"}, "name": "2502ae6125093df0b368c4d49a2193db", "type": "electric_scooter", "lat": 38.899051, "is_disabled": 0}, {"fusion_lat": 0.0, "lon": -77.02764916666666, "is_reserved": 0, "bike_id": "b7ba8fa873025fb8f56ca18488975c7a", "fusion_lon": 0.0, "rental_uris": {"android": "https://dc.lft.to/lastmile_qr_scan", "ios": "https://dc.lft.to/lastmile_qr_scan"}, "name": "b7ba8fa873025fb8f56ca18488975c7a", "type": "electric_scooter", "lat": 38.9542645, "is_disabled": 0}, {"fusion_lat": 0.0, "lon": -77.01994383333333, "is_reserved": 0, "bike_id": "f7c27e527741c98f11430d56e4f4d327", "fusion_lon": 0.0, "rental_uris": {"android": "https://dc.lft.to/lastmile_qr_scan", "ios": "https://dc.lft.to/lastmile_qr_scan"}, "name": "f7c27e527741c98f11430d56e4f4d327", "type": "electric_scooter", "lat": 38.96627083333333, "is_disabled": 0}, {"fusion_lat": 0.0, "lon": -76.9790935, "is_reserved": 0, "bike_id": "00db63ac00666ac7d70199986f6d41cb", "fusion_lon": 0.0, "rental_uris": {"android": "https://dc.lft.to/lastmile_qr_scan", "ios": "https://dc.lft.to/lastmile_qr_scan"}, "name": "00db63ac00666ac7d70199986f6d41cb", "type": "electric_scooter", "lat": 38.863504, "is_disabled": 0}, {"fusion_lat": 0.0, "lon": -77.03881783333334, "is_reserved": 0, "bike_id": "21043cc60ea6df1cccee98586d7b7bb6", "fusion_lon": 0.0, "rental_uris": {"android": "https://dc.lft.to/lastmile_qr_scan", "ios": "https://dc.lft.to/lastmile_qr_scan"}, "name": "21043cc60ea6df1cccee98586d7b7bb6", "type": "electric_scooter", "lat": 38.931204666666666, "is_disabled": 0}, {"fusion_lat": 0.0, "lon": -77.0401655, "is_reserved": 0, "bike_id": "375bb83bb346810cf2783006e9e05cfd", "fusion_lon": 0.0, "rental_uris": {"android": "https://dc.lft.to/lastmile_qr_scan", "ios": "https://dc.lft.to/lastmile_qr_scan"}, "name": "375bb83bb346810cf2783006e9e05cfd", "type": "electric_scooter", "lat": 38.9223925, "is_disabled": 0}, {"fusion_lat": 0.0, "lon": -76.99330383333333, "is_reserved": 0, "bike_id": "a5ea085358f9fb145a80c1720d257bde", "fusion_lon": 0.0, "rental_uris": {"android": "https://dc.lft.to/lastmile_qr_scan", "ios": "https://dc.lft.to/lastmile_qr_scan"}, "name": "a5ea085358f9fb145a80c1720d257bde", "type": "electric_bike", "lat": 38.893614166666666, "is_disabled": 0}, {"fusion_lat": 0.0, "lon": -77.02436766666666, "is_reserved": 0, "bike_id": "dc5a66764bc283282296134ce17eb395", "fusion_lon": 0.0, "rental_uris": {"android": "https://dc.lft.to/lastmile_qr_scan", "ios": "https://dc.lft.to/lastmile_qr_scan"}, "name": "dc5a66764bc283282296134ce17eb395", "type": "electric_scooter", "lat": 38.92728016666667, "is_disabled": 0}, {"fusion_lat": 0.0, "lon": -77.02315033333333, "is_reserved": 0, "bike_id": "25f6f00f2c4fea859c59dd768622ea2c", "fusion_lon": 0.0, "rental_uris": {"android": "https://dc.lft.to/lastmile_qr_scan", "ios": "https://dc.lft.to/lastmile_qr_scan"}, "name": "25f6f00f2c4fea859c59dd768622ea2c", "type": "electric_scooter", "lat": 38.908567, "is_disabled": 0}, {"fusion_lat": 0.0, "lon": -76.98716583333334, "is_reserved": 0, "bike_id": "ac884e07f6015aedec926ac65b43f368", "fusion_lon": 0.0, "rental_uris": {"android": "https://dc.lft.to/lastmile_qr_scan", "ios": "https://dc.lft.to/lastmile_qr_scan"}, "name": "ac884e07f6015aedec926ac65b43f368", "type": "electric_scooter", "lat": 38.86623733333333, "is_disabled": 0}, {"fusion_lat": 0.0, "lon": -77.07436366666667, "is_reserved": 0, "bike_id": "cf19528fbd7a62a4038e0fdb066a8f78", "fusion_lon": 0.0, "rental_uris": {"android": "https://dc.lft.to/lastmile_qr_scan", "ios": "https://dc.lft.to/lastmile_qr_scan"}, "name": "cf19528fbd7a62a4038e0fdb066a8f78", "type": "electric_bike", "lat": 38.99944333333333, "is_disabled": 0}, {"fusion_lat": 0.0, "lon": -77.03388666666666, "is_reserved": 0, "bike_id": "3403f7b5eb620ac7e7dcdf011b16e2e3", "fusion_lon": 0.0, "rental_uris": {"android": "https://dc.lft.to/lastmile_qr_scan", "ios": "https://dc.lft.to/lastmile_qr_scan"}, "name": "3403f7b5eb620ac7e7dcdf011b16e2e3", "type": "electric_scooter", "lat": 38.92537, "is_disabled": 0}, {"fusion_lat": 0.0, "lon": -77.01083616666666, "is_reserved": 0, "bike_id": "ae6190393ecfe6552fe0ca6b9bc5bd45", "fusion_lon": 0.0, "rental_uris": {"android": "https://dc.lft.to/lastmile_qr_scan", "ios": "https://dc.lft.to/lastmile_qr_scan"}, "name": "ae6190393ecfe6552fe0ca6b9bc5bd45", "type": "electric_scooter", "lat": 38.9078315, "is_disabled": 0}, {"fusion_lat": 0.0, "lon": -77.00063966666667, "is_reserved": 0, "bike_id": "e91b51a7df08079f032d229473d71cf7", "fusion_lon": 0.0, "rental_uris": {"android": "https://dc.lft.to/lastmile_qr_scan", "ios": "https://dc.lft.to/lastmile_qr_scan"}, "name": "e91b51a7df08079f032d229473d71cf7", "type": "electric_scooter", "lat": 38.89841, "is_disabled": 0}, {"fusion_lat": 0.0, "lon": -77.02789966666667, "is_reserved": 0, "bike_id": "89e30ff051e9a3e1bb27a0116cef13cf", "fusion_lon": 0.0, "rental_uris": {"android": "https://dc.lft.to/lastmile_qr_scan", "ios": "https://dc.lft.to/lastmile_qr_scan"}, "name": "89e30ff051e9a3e1bb27a0116cef13cf", "type": "electric_scooter", "lat": 38.930791666666664, "is_disabled": 0}, {"fusion_lat": 0.0, "lon": -77.03182316666667, "is_reserved": 0, "bike_id": "2a09c46f0a912ca09994aa2d0c51afcb", "fusion_lon": 0.0, "rental_uris": {"android": "https://dc.lft.to/lastmile_qr_scan", "ios": "https://dc.lft.to/lastmile_qr_scan"}, "name": "2a09c46f0a912ca09994aa2d0c51afcb", "type": "electric_scooter", "lat": 38.91301083333333, "is_disabled": 0}, {"fusion_lat": 0.0, "lon": -77.03284716666667, "is_reserved": 0, "bike_id": "f63dc58f398f7618dfc640dee2ae5072", "fusion_lon": 0.0, "rental_uris": {"android": "https://dc.lft.to/lastmile_qr_scan", "ios": "https://dc.lft.to/lastmile_qr_scan"}, "name": "f63dc58f398f7618dfc640dee2ae5072", "type": "electric_scooter", "lat": 38.898482333333334, "is_disabled": 0}, {"fusion_lat": 0.0, "lon": -77.0221225, "is_reserved": 0, "bike_id": "99e36ee06f564f6c6d175df44cae7fc9", "fusion_lon": 0.0, "rental_uris": {"android": "https://dc.lft.to/lastmile_qr_scan", "ios": "https://dc.lft.to/lastmile_qr_scan"}, "name": "99e36ee06f564f6c6d175df44cae7fc9", "type": "electric_scooter", "lat": 38.902036, "is_disabled": 0}, {"fusion_lat": 0.0, "lon": -77.020922, "is_reserved": 0, "bike_id": "f488ae3a3639ee3309c47f54fc3139c4", "fusion_lon": 0.0, "rental_uris": {"android": "https://dc.lft.to/lastmile_qr_scan", "ios": "https://dc.lft.to/lastmile_qr_scan"}, "name": "f488ae3a3639ee3309c47f54fc3139c4", "type": "electric_bike", "lat": 38.876677, "is_disabled": 0}, {"fusion_lat": 0.0, "lon": -77.03334333333333, "is_reserved": 0, "bike_id": "8538e8ec7f66521d0051ce06794e3c73", "fusion_lon": 0.0, "rental_uris": {"android": "https://dc.lft.to/lastmile_qr_scan", "ios": "https://dc.lft.to/lastmile_qr_scan"}, "name": "8538e8ec7f66521d0051ce06794e3c73", "type": "electric_scooter", "lat": 38.9171275, "is_disabled": 0}, {"fusion_lat": 0.0, "lon": -77.0106615, "is_reserved": 0, "bike_id": "674fa612559053e8c56d6ea212fdf577", "fusion_lon": 0.0, "rental_uris": {"android": "https://dc.lft.to/lastmile_qr_scan", "ios": "https://dc.lft.to/lastmile_qr_scan"}, "name": "674fa612559053e8c56d6ea212fdf577", "type": "electric_scooter", "lat": 38.912657833333334, "is_disabled": 0}, {"fusion_lat": 0.0, "lon": -77.0077945, "is_reserved": 0, "bike_id": "0afe20d19bae176a5d0843b8f39b0673", "fusion_lon": 0.0, "rental_uris": {"android": "https://dc.lft.to/lastmile_qr_scan", "ios": "https://dc.lft.to/lastmile_qr_scan"}, "name": "0afe20d19bae176a5d0843b8f39b0673", "type": "electric_bike", "lat": 38.98386766666667, "is_disabled": 0}, {"fusion_lat": 0.0, "lon": -77.02876466666666, "is_reserved": 0, "bike_id": "3a712d4837900a9171531ad5fceef3a0", "fusion_lon": 0.0, "rental_uris": {"android": "https://dc.lft.to/lastmile_qr_scan", "ios": "https://dc.lft.to/lastmile_qr_scan"}, "name": "3a712d4837900a9171531ad5fceef3a0", "type": "electric_scooter", "lat": 38.92820366666667, "is_disabled": 0}, {"fusion_lat": 0.0, "lon": -77.03812783333333, "is_reserved": 0, "bike_id": "f87a87a3ece3ef0d9884837c09434793", "fusion_lon": 0.0, "rental_uris": {"android": "https://dc.lft.to/lastmile_qr_scan", "ios": "https://dc.lft.to/lastmile_qr_scan"}, "name": "f87a87a3ece3ef0d9884837c09434793", "type": "electric_scooter", "lat": 38.915661666666665, "is_disabled": 0}, {"fusion_lat": 0.0, "lon": -77.026964, "is_reserved": 0, "bike_id": "e27bfbc81a654d89fc510852780592db", "fusion_lon": 0.0, "rental_uris": {"android": "https://dc.lft.to/lastmile_qr_scan", "ios": "https://dc.lft.to/lastmile_qr_scan"}, "name": "e27bfbc81a654d89fc510852780592db", "type": "electric_scooter", "lat": 38.92660583333333, "is_disabled": 0}, {"fusion_lat": 0.0, "lon": -77.00923116666667, "is_reserved": 0, "bike_id": "bfe16fd6c6720d92406eacfb2403f15b", "fusion_lon": 0.0, "rental_uris": {"android": "https://dc.lft.to/lastmile_qr_scan", "ios": "https://dc.lft.to/lastmile_qr_scan"}, "name": "bfe16fd6c6720d92406eacfb2403f15b", "type": "electric_scooter", "lat": 38.896121666666666, "is_disabled": 0}, {"fusion_lat": 0.0, "lon": -77.00189733333333, "is_reserved": 0, "bike_id": "dc41f676651fe0c0887e68ca5f0516c8", "fusion_lon": 0.0, "rental_uris": {"android": "https://dc.lft.to/lastmile_qr_scan", "ios": "https://dc.lft.to/lastmile_qr_scan"}, "name": "dc41f676651fe0c0887e68ca5f0516c8", "type": "electric_scooter", "lat": 38.903815333333334, "is_disabled": 0}, {"fusion_lat": 0.0, "lon": -77.04417033333333, "is_reserved": 0, "bike_id": "f5b1ef4c26e553360c5faa7dbd60070e", "fusion_lon": 0.0, "rental_uris": {"android": "https://dc.lft.to/lastmile_qr_scan", "ios": "https://dc.lft.to/lastmile_qr_scan"}, "name": "f5b1ef4c26e553360c5faa7dbd60070e", "type": "electric_scooter", "lat": 38.913656833333334, "is_disabled": 0}, {"fusion_lat": 0.0, "lon": -77.01998166666667, "is_reserved": 0, "bike_id": "8801e807ca767a72f1731ef6b3b69f1c", "fusion_lon": 0.0, "rental_uris": {"android": "https://dc.lft.to/lastmile_qr_scan", "ios": "https://dc.lft.to/lastmile_qr_scan"}, "name": "8801e807ca767a72f1731ef6b3b69f1c", "type": "electric_scooter", "lat": 38.91363466666667, "is_disabled": 0}, {"fusion_lat": 0.0, "lon": -77.02935266666667, "is_reserved": 0, "bike_id": "d0d90d18172098f448c70ced85a79238", "fusion_lon": 0.0, "rental_uris": {"android": "https://dc.lft.to/lastmile_qr_scan", "ios": "https://dc.lft.to/lastmile_qr_scan"}, "name": "d0d90d18172098f448c70ced85a79238", "type": "electric_scooter", "lat": 38.93251166666667, "is_disabled": 0}, {"fusion_lat": 0.0, "lon": -77.07280783333333, "is_reserved": 0, "bike_id": "fbadd392630ff16c6774094d26291f12", "fusion_lon": 0.0, "rental_uris": {"android": "https://dc.lft.to/lastmile_qr_scan", "ios": "https://dc.lft.to/lastmile_qr_scan"}, "name": "fbadd392630ff16c6774094d26291f12", "type": "electric_scooter", "lat": 38.934882333333334, "is_disabled": 0}, {"fusion_lat": 0.0, "lon": -77.0230805, "is_reserved": 0, "bike_id": "2848d7e48d257a9057f3c18f4965e34a", "fusion_lon": 0.0, "rental_uris": {"android": "https://dc.lft.to/lastmile_qr_scan", "ios": "https://dc.lft.to/lastmile_qr_scan"}, "name": "2848d7e48d257a9057f3c18f4965e34a", "type": "electric_scooter", "lat": 38.917844, "is_disabled": 0}, {"fusion_lat": 0.0, "lon": -77.01814816666666, "is_reserved": 0, "bike_id": "a8a784c1a353ddd20682b412083d2939", "fusion_lon": 0.0, "rental_uris": {"android": "https://dc.lft.to/lastmile_qr_scan", "ios": "https://dc.lft.to/lastmile_qr_scan"}, "name": "a8a784c1a353ddd20682b412083d2939", "type": "electric_scooter", "lat": 38.92365816666667, "is_disabled": 0}, {"fusion_lat": 0.0, "lon": -77.07234733333334, "is_reserved": 0, "bike_id": "c139347d63cc1855a6dadc5d618225fc", "fusion_lon": 0.0, "rental_uris": {"android": "https://dc.lft.to/lastmile_qr_scan", "ios": "https://dc.lft.to/lastmile_qr_scan"}, "name": "c139347d63cc1855a6dadc5d618225fc", "type": "electric_scooter", "lat": 38.9596195, "is_disabled": 0}, {"fusion_lat": 0.0, "lon": -77.03789366666666, "is_reserved": 0, "bike_id": "30a08003cee564eba79018686ed53124", "fusion_lon": 0.0, "rental_uris": {"android": "https://dc.lft.to/lastmile_qr_scan", "ios": "https://dc.lft.to/lastmile_qr_scan"}, "name": "30a08003cee564eba79018686ed53124", "type": "electric_scooter", "lat": 38.92506433333333, "is_disabled": 0}, {"fusion_lat": 0.0, "lon": -77.0238765, "is_reserved": 0, "bike_id": "9145f7ef06a15e41f3dd0c8cd8e5e7d1", "fusion_lon": 0.0, "rental_uris": {"android": "https://dc.lft.to/lastmile_qr_scan", "ios": "https://dc.lft.to/lastmile_qr_scan"}, "name": "9145f7ef06a15e41f3dd0c8cd8e5e7d1", "type": "electric_scooter", "lat": 38.92896566666667, "is_disabled": 0}, {"fusion_lat": 0.0, "lon": -77.0060225, "is_reserved": 0, "bike_id": "dfefe78d4f3fafe1618e893a68b4a550", "fusion_lon": 0.0, "rental_uris": {"android": "https://dc.lft.to/lastmile_qr_scan", "ios": "https://dc.lft.to/lastmile_qr_scan"}, "name": "dfefe78d4f3fafe1618e893a68b4a550", "type": "electric_scooter", "lat": 38.87548, "is_disabled": 0}, {"fusion_lat": 0.0, "lon": -77.05113166666666, "is_reserved": 0, "bike_id": "8f9d0f35a2999ff200c2c8be47a1f297", "fusion_lon": 0.0, "rental_uris": {"android": "https://dc.lft.to/lastmile_qr_scan", "ios": "https://dc.lft.to/lastmile_qr_scan"}, "name": "8f9d0f35a2999ff200c2c8be47a1f297", "type": "electric_scooter", "lat": 38.897706, "is_disabled": 0}, {"fusion_lat": 0.0, "lon": -77.0455105, "is_reserved": 0, "bike_id": "d0adc0a8b74625cc5f01efd95c535142", "fusion_lon": 0.0, "rental_uris": {"android": "https://dc.lft.to/lastmile_qr_scan", "ios": "https://dc.lft.to/lastmile_qr_scan"}, "name": "d0adc0a8b74625cc5f01efd95c535142", "type": "electric_scooter", "lat": 38.9096285, "is_disabled": 0}, {"fusion_lat": 0.0, "lon": -77.038577, "is_reserved": 0, "bike_id": "d6e2163923d4aa2a48eecfd167284016", "fusion_lon": 0.0, "rental_uris": {"android": "https://dc.lft.to/lastmile_qr_scan", "ios": "https://dc.lft.to/lastmile_qr_scan"}, "name": "d6e2163923d4aa2a48eecfd167284016", "type": "electric_scooter", "lat": 38.90665466666667, "is_disabled": 0}, {"fusion_lat": 0.0, "lon": -76.98464583333333, "is_reserved": 0, "bike_id": "1314bd83786728f57e0bc2a649857212", "fusion_lon": 0.0, "rental_uris": {"android": "https://dc.lft.to/lastmile_qr_scan", "ios": "https://dc.lft.to/lastmile_qr_scan"}, "name": "1314bd83786728f57e0bc2a649857212", "type": "electric_scooter", "lat": 38.900192, "is_disabled": 0}, {"fusion_lat": 0.0, "lon": -77.00071133333333, "is_reserved": 0, "bike_id": "20e2471148862b25c500850f50f64d17", "fusion_lon": 0.0, "rental_uris": {"android": "https://dc.lft.to/lastmile_qr_scan", "ios": "https://dc.lft.to/lastmile_qr_scan"}, "name": "20e2471148862b25c500850f50f64d17", "type": "electric_scooter", "lat": 38.900497666666666, "is_disabled": 0}, {"fusion_lat": 0.0, "lon": -77.01257783333334, "is_reserved": 0, "bike_id": "48bdd34cefc0b0442756724b67ec9786", "fusion_lon": 0.0, "rental_uris": {"android": "https://dc.lft.to/lastmile_qr_scan", "ios": "https://dc.lft.to/lastmile_qr_scan"}, "name": "48bdd34cefc0b0442756724b67ec9786", "type": "electric_scooter", "lat": 38.90851166666667, "is_disabled": 0}, {"fusion_lat": 0.0, "lon": -77.03172666666667, "is_reserved": 0, "bike_id": "c67a65b1cd989588caa8bbc9f00c46df", "fusion_lon": 0.0, "rental_uris": {"android": "https://dc.lft.to/lastmile_qr_scan", "ios": "https://dc.lft.to/lastmile_qr_scan"}, "name": "c67a65b1cd989588caa8bbc9f00c46df", "type": "electric_scooter", "lat": 38.91549933333334, "is_disabled": 0}, {"fusion_lat": 0.0, "lon": -77.04375416666667, "is_reserved": 0, "bike_id": "569a8b10c4a5b18b66f4e1729665a37b", "fusion_lon": 0.0, "rental_uris": {"android": "https://dc.lft.to/lastmile_qr_scan", "ios": "https://dc.lft.to/lastmile_qr_scan"}, "name": "569a8b10c4a5b18b66f4e1729665a37b", "type": "electric_scooter", "lat": 38.922322666666666, "is_disabled": 0}, {"fusion_lat": 0.0, "lon": -77.02812816666666, "is_reserved": 0, "bike_id": "21435493063ae3a4b7ad05705047061e", "fusion_lon": 0.0, "rental_uris": {"android": "https://dc.lft.to/lastmile_qr_scan", "ios": "https://dc.lft.to/lastmile_qr_scan"}, "name": "21435493063ae3a4b7ad05705047061e", "type": "electric_scooter", "lat": 38.93083683333333, "is_disabled": 0}, {"fusion_lat": 0.0, "lon": -77.03767266666667, "is_reserved": 0, "bike_id": "6f7244e17cc0477f7f94089ce6f47f81", "fusion_lon": 0.0, "rental_uris": {"android": "https://dc.lft.to/lastmile_qr_scan", "ios": "https://dc.lft.to/lastmile_qr_scan"}, "name": "6f7244e17cc0477f7f94089ce6f47f81", "type": "electric_scooter", "lat": 38.916932833333334, "is_disabled": 0}, {"fusion_lat": 0.0, "lon": -76.98745, "is_reserved": 0, "bike_id": "5648141129d7d93258d3f56c58338dfb", "fusion_lon": 0.0, "rental_uris": {"android": "https://dc.lft.to/lastmile_qr_scan", "ios": "https://dc.lft.to/lastmile_qr_scan"}, "name": "5648141129d7d93258d3f56c58338dfb", "type": "electric_scooter", "lat": 38.88611816666667, "is_disabled": 0}, {"fusion_lat": 0.0, "lon": -77.04859166666667, "is_reserved": 0, "bike_id": "de923a71c2fa60f78f263e08235bf517", "fusion_lon": 0.0, "rental_uris": {"android": "https://dc.lft.to/lastmile_qr_scan", "ios": "https://dc.lft.to/lastmile_qr_scan"}, "name": "de923a71c2fa60f78f263e08235bf517", "type": "electric_scooter", "lat": 38.919624, "is_disabled": 0}, {"fusion_lat": 0.0, "lon": -77.02799866666666, "is_reserved": 0, "bike_id": "ef4eebba95ec6c754ad4443cff3bd14e", "fusion_lon": 0.0, "rental_uris": {"android": "https://dc.lft.to/lastmile_qr_scan", "ios": "https://dc.lft.to/lastmile_qr_scan"}, "name": "ef4eebba95ec6c754ad4443cff3bd14e", "type": "electric_scooter", "lat": 38.892319, "is_disabled": 0}, {"fusion_lat": 0.0, "lon": -77.03779883333333, "is_reserved": 0, "bike_id": "f18038e2e2cdbaa2862087ef10c9ef43", "fusion_lon": 0.0, "rental_uris": {"android": "https://dc.lft.to/lastmile_qr_scan", "ios": "https://dc.lft.to/lastmile_qr_scan"}, "name": "f18038e2e2cdbaa2862087ef10c9ef43", "type": "electric_scooter", "lat": 38.91696966666667, "is_disabled": 0}, {"fusion_lat": 0.0, "lon": -77.02004066666667, "is_reserved": 0, "bike_id": "a0c5d3c49a676d41c37f6167b751e917", "fusion_lon": 0.0, "rental_uris": {"android": "https://dc.lft.to/lastmile_qr_scan", "ios": "https://dc.lft.to/lastmile_qr_scan"}, "name": "a0c5d3c49a676d41c37f6167b751e917", "type": "electric_scooter", "lat": 38.87599, "is_disabled": 0}, {"fusion_lat": 0.0, "lon": -77.01490566666666, "is_reserved": 0, "bike_id": "e0a6b6fcbe412a2ba5c3e0bb1b4ab218", "fusion_lon": 0.0, "rental_uris": {"android": "https://dc.lft.to/lastmile_qr_scan", "ios": "https://dc.lft.to/lastmile_qr_scan"}, "name": "e0a6b6fcbe412a2ba5c3e0bb1b4ab218", "type": "electric_scooter", "lat": 38.9176715, "is_disabled": 0}, {"fusion_lat": 0.0, "lon": -76.98884816666667, "is_reserved": 0, "bike_id": "08ba2b81055ea9c11f33fbf1216871eb", "fusion_lon": 0.0, "rental_uris": {"android": "https://dc.lft.to/lastmile_qr_scan", "ios": "https://dc.lft.to/lastmile_qr_scan"}, "name": "08ba2b81055ea9c11f33fbf1216871eb", "type": "electric_scooter", "lat": 38.866562333333334, "is_disabled": 0}, {"fusion_lat": 0.0, "lon": -77.02531216666667, "is_reserved": 0, "bike_id": "affff407e119484bf56127f724d36514", "fusion_lon": 0.0, "rental_uris": {"android": "https://dc.lft.to/lastmile_qr_scan", "ios": "https://dc.lft.to/lastmile_qr_scan"}, "name": "affff407e119484bf56127f724d36514", "type": "electric_scooter", "lat": 38.94259383333333, "is_disabled": 0}, {"fusion_lat": 0.0, "lon": -76.88404083333333, "is_reserved": 0, "bike_id": "adf2b158dc6cf9475a437cddd7ff762f", "fusion_lon": 0.0, "rental_uris": {"android": "https://dc.lft.to/lastmile_qr_scan", "ios": "https://dc.lft.to/lastmile_qr_scan"}, "name": "adf2b158dc6cf9475a437cddd7ff762f", "type": "electric_bike", "lat": 38.93168133333333, "is_disabled": 0}, {"fusion_lat": 0.0, "lon": -77.02396, "is_reserved": 0, "bike_id": "6c95f4bcd0709a7772a46fc4672aa429", "fusion_lon": 0.0, "rental_uris": {"android": "https://dc.lft.to/lastmile_qr_scan", "ios": "https://dc.lft.to/lastmile_qr_scan"}, "name": "6c95f4bcd0709a7772a46fc4672aa429", "type": "electric_scooter", "lat": 38.93105166666667, "is_disabled": 0}, {"fusion_lat": 0.0, "lon": -77.0181215, "is_reserved": 0, "bike_id": "2a8ac497a0cb2658da69c54f5adbf144", "fusion_lon": 0.0, "rental_uris": {"android": "https://dc.lft.to/lastmile_qr_scan", "ios": "https://dc.lft.to/lastmile_qr_scan"}, "name": "2a8ac497a0cb2658da69c54f5adbf144", "type": "electric_scooter", "lat": 38.964834, "is_disabled": 0}, {"fusion_lat": 0.0, "lon": -77.00727366666666, "is_reserved": 0, "bike_id": "d6915120669816b7bbbee3122baeed0d", "fusion_lon": 0.0, "rental_uris": {"android": "https://dc.lft.to/lastmile_qr_scan", "ios": "https://dc.lft.to/lastmile_qr_scan"}, "name": "d6915120669816b7bbbee3122baeed0d", "type": "electric_scooter", "lat": 38.87648766666667, "is_disabled": 0}, {"fusion_lat": 0.0, "lon": -77.007944, "is_reserved": 0, "bike_id": "c90d44b76b21db657976e18f4ef9eaa9", "fusion_lon": 0.0, "rental_uris": {"android": "https://dc.lft.to/lastmile_qr_scan", "ios": "https://dc.lft.to/lastmile_qr_scan"}, "name": "c90d44b76b21db657976e18f4ef9eaa9", "type": "electric_bike", "lat": 38.949216166666666, "is_disabled": 0}, {"fusion_lat": 0.0, "lon": -76.9882645, "is_reserved": 0, "bike_id": "48592411ce603d485263a004695b3564", "fusion_lon": 0.0, "rental_uris": {"android": "https://dc.lft.to/lastmile_qr_scan", "ios": "https://dc.lft.to/lastmile_qr_scan"}, "name": "48592411ce603d485263a004695b3564", "type": "electric_scooter", "lat": 38.89074983333333, "is_disabled": 0}, {"fusion_lat": 0.0, "lon": -77.04647483333333, "is_reserved": 0, "bike_id": "f9162b915513b6863e22e1994a34fc96", "fusion_lon": 0.0, "rental_uris": {"android": "https://dc.lft.to/lastmile_qr_scan", "ios": "https://dc.lft.to/lastmile_qr_scan"}, "name": "f9162b915513b6863e22e1994a34fc96", "type": "electric_bike", "lat": 39.054974, "is_disabled": 0}, {"fusion_lat": 0.0, "lon": -77.03840766666667, "is_reserved": 0, "bike_id": "a6e5cc29f68d8de55aa44b9c1119650b", "fusion_lon": 0.0, "rental_uris": {"android": "https://dc.lft.to/lastmile_qr_scan", "ios": "https://dc.lft.to/lastmile_qr_scan"}, "name": "a6e5cc29f68d8de55aa44b9c1119650b", "type": "electric_scooter", "lat": 38.912432333333335, "is_disabled": 0}, {"fusion_lat": 0.0, "lon": -76.96839333333334, "is_reserved": 0, "bike_id": "717aa2b4735208c6d82cae3251766eb4", "fusion_lon": 0.0, "rental_uris": {"android": "https://dc.lft.to/lastmile_qr_scan", "ios": "https://dc.lft.to/lastmile_qr_scan"}, "name": "717aa2b4735208c6d82cae3251766eb4", "type": "electric_bike", "lat": 38.943224, "is_disabled": 0}, {"fusion_lat": 0.0, "lon": -77.02720716666667, "is_reserved": 0, "bike_id": "353ccf07e1a58cf1f89136c418b769a0", "fusion_lon": 0.0, "rental_uris": {"android": "https://dc.lft.to/lastmile_qr_scan", "ios": "https://dc.lft.to/lastmile_qr_scan"}, "name": "353ccf07e1a58cf1f89136c418b769a0", "type": "electric_scooter", "lat": 38.911172666666666, "is_disabled": 0}, {"fusion_lat": 0.0, "lon": -77.02180683333333, "is_reserved": 0, "bike_id": "7e2cf933c327103e4d384cb1582cc400", "fusion_lon": 0.0, "rental_uris": {"android": "https://dc.lft.to/lastmile_qr_scan", "ios": "https://dc.lft.to/lastmile_qr_scan"}, "name": "7e2cf933c327103e4d384cb1582cc400", "type": "electric_scooter", "lat": 38.909550333333335, "is_disabled": 0}, {"fusion_lat": 0.0, "lon": -77.01682883333334, "is_reserved": 0, "bike_id": "dd9205121bc83cd9c7a755acdbeb829a", "fusion_lon": 0.0, "rental_uris": {"android": "https://dc.lft.to/lastmile_qr_scan", "ios": "https://dc.lft.to/lastmile_qr_scan"}, "name": "dd9205121bc83cd9c7a755acdbeb829a", "type": "electric_scooter", "lat": 38.872192, "is_disabled": 0}, {"fusion_lat": 0.0, "lon": -76.95653233333333, "is_reserved": 0, "bike_id": "575e0770e1b4153c58a81104aa0a95ca", "fusion_lon": 0.0, "rental_uris": {"android": "https://dc.lft.to/lastmile_qr_scan", "ios": "https://dc.lft.to/lastmile_qr_scan"}, "name": "575e0770e1b4153c58a81104aa0a95ca", "type": "electric_scooter", "lat": 38.89608533333333, "is_disabled": 0}, {"fusion_lat": 0.0, "lon": -77.04659016666666, "is_reserved": 0, "bike_id": "2df9894e6cc97a99c89e4a62f7e36978", "fusion_lon": 0.0, "rental_uris": {"android": "https://dc.lft.to/lastmile_qr_scan", "ios": "https://dc.lft.to/lastmile_qr_scan"}, "name": "2df9894e6cc97a99c89e4a62f7e36978", "type": "electric_scooter", "lat": 38.903827, "is_disabled": 0}, {"fusion_lat": 0.0, "lon": -77.0308415, "is_reserved": 0, "bike_id": "e29650a7b149c9cf6b0dc7ec8581f08c", "fusion_lon": 0.0, "rental_uris": {"android": "https://dc.lft.to/lastmile_qr_scan", "ios": "https://dc.lft.to/lastmile_qr_scan"}, "name": "e29650a7b149c9cf6b0dc7ec8581f08c", "type": "electric_scooter", "lat": 38.8995055, "is_disabled": 0}, {"fusion_lat": 0.0, "lon": -76.91970116666667, "is_reserved": 0, "bike_id": "70e4afbffa077d2d371e36efa8cf961a", "fusion_lon": 0.0, "rental_uris": {"android": "https://dc.lft.to/lastmile_qr_scan", "ios": "https://dc.lft.to/lastmile_qr_scan"}, "name": "70e4afbffa077d2d371e36efa8cf961a", "type": "electric_scooter", "lat": 38.900275666666666, "is_disabled": 0}, {"fusion_lat": 0.0, "lon": -77.0465515, "is_reserved": 0, "bike_id": "a4c3396c858d303abc0b49a7aef47423", "fusion_lon": 0.0, "rental_uris": {"android": "https://dc.lft.to/lastmile_qr_scan", "ios": "https://dc.lft.to/lastmile_qr_scan"}, "name": "a4c3396c858d303abc0b49a7aef47423", "type": "electric_scooter", "lat": 38.9097245, "is_disabled": 0}, {"fusion_lat": 0.0, "lon": -76.98392966666667, "is_reserved": 0, "bike_id": "e94af54e50495e0418a4df77e9054f7d", "fusion_lon": 0.0, "rental_uris": {"android": "https://dc.lft.to/lastmile_qr_scan", "ios": "https://dc.lft.to/lastmile_qr_scan"}, "name": "e94af54e50495e0418a4df77e9054f7d", "type": "electric_scooter", "lat": 38.866929999999996, "is_disabled": 0}, {"fusion_lat": 0.0, "lon": -77.03905833333333, "is_reserved": 0, "bike_id": "45c58b1445245ad6a40d60640c81de7e", "fusion_lon": 0.0, "rental_uris": {"android": "https://dc.lft.to/lastmile_qr_scan", "ios": "https://dc.lft.to/lastmile_qr_scan"}, "name": "45c58b1445245ad6a40d60640c81de7e", "type": "electric_scooter", "lat": 38.9242135, "is_disabled": 0}, {"fusion_lat": 0.0, "lon": -77.00623883333333, "is_reserved": 0, "bike_id": "4a87711db5ecc3597cc16ad2a5cc9a2c", "fusion_lon": 0.0, "rental_uris": {"android": "https://dc.lft.to/lastmile_qr_scan", "ios": "https://dc.lft.to/lastmile_qr_scan"}, "name": "4a87711db5ecc3597cc16ad2a5cc9a2c", "type": "electric_scooter", "lat": 38.83265433333333, "is_disabled": 0}, {"fusion_lat": 0.0, "lon": -77.034741, "is_reserved": 0, "bike_id": "ce0466cfa301a2bc0202b23efac4734c", "fusion_lon": 0.0, "rental_uris": {"android": "https://dc.lft.to/lastmile_qr_scan", "ios": "https://dc.lft.to/lastmile_qr_scan"}, "name": "ce0466cfa301a2bc0202b23efac4734c", "type": "electric_scooter", "lat": 38.906547833333335, "is_disabled": 0}, {"fusion_lat": 0.0, "lon": -77.04553266666667, "is_reserved": 0, "bike_id": "cc0e28fc7541e58719a00c4bfbf678c7", "fusion_lon": 0.0, "rental_uris": {"android": "https://dc.lft.to/lastmile_qr_scan", "ios": "https://dc.lft.to/lastmile_qr_scan"}, "name": "cc0e28fc7541e58719a00c4bfbf678c7", "type": "electric_scooter", "lat": 38.924215333333336, "is_disabled": 0}, {"fusion_lat": 0.0, "lon": -76.92919499999999, "is_reserved": 0, "bike_id": "02ddcb2dfe99e6366ce6d19241908c93", "fusion_lon": 0.0, "rental_uris": {"android": "https://dc.lft.to/lastmile_qr_scan", "ios": "https://dc.lft.to/lastmile_qr_scan"}, "name": "02ddcb2dfe99e6366ce6d19241908c93", "type": "electric_scooter", "lat": 38.892926, "is_disabled": 0}, {"fusion_lat": 0.0, "lon": -77.075836, "is_reserved": 0, "bike_id": "9d47019f5aea77db8b6d8801c10ebe5b", "fusion_lon": 0.0, "rental_uris": {"android": "https://dc.lft.to/lastmile_qr_scan", "ios": "https://dc.lft.to/lastmile_qr_scan"}, "name": "9d47019f5aea77db8b6d8801c10ebe5b", "type": "electric_scooter", "lat": 38.91266916666667, "is_disabled": 0}, {"fusion_lat": 0.0, "lon": -77.04489916666667, "is_reserved": 0, "bike_id": "3da696549d8f422c89570ca1c4b4602d", "fusion_lon": 0.0, "rental_uris": {"android": "https://dc.lft.to/lastmile_qr_scan", "ios": "https://dc.lft.to/lastmile_qr_scan"}, "name": "3da696549d8f422c89570ca1c4b4602d", "type": "electric_scooter", "lat": 38.90375983333333, "is_disabled": 0}, {"fusion_lat": 0.0, "lon": -77.03721583333333, "is_reserved": 0, "bike_id": "548c72acf36aaa3ab5e0c4af6db62ce8", "fusion_lon": 0.0, "rental_uris": {"android": "https://dc.lft.to/lastmile_qr_scan", "ios": "https://dc.lft.to/lastmile_qr_scan"}, "name": "548c72acf36aaa3ab5e0c4af6db62ce8", "type": "electric_scooter", "lat": 38.903694, "is_disabled": 0}, {"fusion_lat": 0.0, "lon": -77.0029185, "is_reserved": 0, "bike_id": "64979c1f478cf1f755495495370570f2", "fusion_lon": 0.0, "rental_uris": {"android": "https://dc.lft.to/lastmile_qr_scan", "ios": "https://dc.lft.to/lastmile_qr_scan"}, "name": "64979c1f478cf1f755495495370570f2", "type": "electric_scooter", "lat": 38.8949425, "is_disabled": 0}, {"fusion_lat": 0.0, "lon": -77.0426495, "is_reserved": 0, "bike_id": "31863784b72884c257bb5e9c99a07b18", "fusion_lon": 0.0, "rental_uris": {"android": "https://dc.lft.to/lastmile_qr_scan", "ios": "https://dc.lft.to/lastmile_qr_scan"}, "name": "31863784b72884c257bb5e9c99a07b18", "type": "electric_scooter", "lat": 38.91339, "is_disabled": 0}, {"fusion_lat": 0.0, "lon": -77.02454766666666, "is_reserved": 0, "bike_id": "0d020d7bd5572c8dcb8d7d7dbbbfaf48", "fusion_lon": 0.0, "rental_uris": {"android": "https://dc.lft.to/lastmile_qr_scan", "ios": "https://dc.lft.to/lastmile_qr_scan"}, "name": "0d020d7bd5572c8dcb8d7d7dbbbfaf48", "type": "electric_scooter", "lat": 38.89742916666667, "is_disabled": 0}, {"fusion_lat": 0.0, "lon": -77.034768, "is_reserved": 0, "bike_id": "41ff1585cb30cb8eda1b85788f84913b", "fusion_lon": 0.0, "rental_uris": {"android": "https://dc.lft.to/lastmile_qr_scan", "ios": "https://dc.lft.to/lastmile_qr_scan"}, "name": "41ff1585cb30cb8eda1b85788f84913b", "type": "electric_scooter", "lat": 38.92540366666667, "is_disabled": 0}, {"fusion_lat": 0.0, "lon": -77.044671, "is_reserved": 0, "bike_id": "f0a9650612d9f358353bbbcdb162c97e", "fusion_lon": 0.0, "rental_uris": {"android": "https://dc.lft.to/lastmile_qr_scan", "ios": "https://dc.lft.to/lastmile_qr_scan"}, "name": "f0a9650612d9f358353bbbcdb162c97e", "type": "electric_scooter", "lat": 38.918826333333335, "is_disabled": 0}, {"fusion_lat": 0.0, "lon": -77.03222716666667, "is_reserved": 0, "bike_id": "58b012ee41190a0d23f3f1f47c6b4ee1", "fusion_lon": 0.0, "rental_uris": {"android": "https://dc.lft.to/lastmile_qr_scan", "ios": "https://dc.lft.to/lastmile_qr_scan"}, "name": "58b012ee41190a0d23f3f1f47c6b4ee1", "type": "electric_scooter", "lat": 38.892208833333335, "is_disabled": 0}, {"fusion_lat": 0.0, "lon": -76.932706, "is_reserved": 0, "bike_id": "8672eef3411a50d656dd3411a6e94ad6", "fusion_lon": 0.0, "rental_uris": {"android": "https://dc.lft.to/lastmile_qr_scan", "ios": "https://dc.lft.to/lastmile_qr_scan"}, "name": "8672eef3411a50d656dd3411a6e94ad6", "type": "electric_scooter", "lat": 38.89891983333333, "is_disabled": 0}, {"fusion_lat": 0.0, "lon": -77.0226635, "is_reserved": 0, "bike_id": "fc972102689bfcae305a9a90a9c00f97", "fusion_lon": 0.0, "rental_uris": {"android": "https://dc.lft.to/lastmile_qr_scan", "ios": "https://dc.lft.to/lastmile_qr_scan"}, "name": "fc972102689bfcae305a9a90a9c00f97", "type": "electric_scooter", "lat": 38.91650583333333, "is_disabled": 0}, {"fusion_lat": 0.0, "lon": -77.00614416666667, "is_reserved": 0, "bike_id": "cccd856260e43ca9c8e2e86c33375de8", "fusion_lon": 0.0, "rental_uris": {"android": "https://dc.lft.to/lastmile_qr_scan", "ios": "https://dc.lft.to/lastmile_qr_scan"}, "name": "cccd856260e43ca9c8e2e86c33375de8", "type": "electric_scooter", "lat": 38.908524166666666, "is_disabled": 0}, {"fusion_lat": 0.0, "lon": -76.99820033333333, "is_reserved": 0, "bike_id": "039159da9a9106283a0ea2186e130893", "fusion_lon": 0.0, "rental_uris": {"android": "https://dc.lft.to/lastmile_qr_scan", "ios": "https://dc.lft.to/lastmile_qr_scan"}, "name": "039159da9a9106283a0ea2186e130893", "type": "electric_scooter", "lat": 38.88551833333333, "is_disabled": 0}, {"fusion_lat": 0.0, "lon": -77.00051316666666, "is_reserved": 0, "bike_id": "9d0afc108b644625366bca88ce136950", "fusion_lon": 0.0, "rental_uris": {"android": "https://dc.lft.to/lastmile_qr_scan", "ios": "https://dc.lft.to/lastmile_qr_scan"}, "name": "9d0afc108b644625366bca88ce136950", "type": "electric_scooter", "lat": 38.90801866666666, "is_disabled": 0}, {"fusion_lat": 0.0, "lon": -77.02741816666666, "is_reserved": 0, "bike_id": "d48d93da1f3ca250b9760004866e2215", "fusion_lon": 0.0, "rental_uris": {"android": "https://dc.lft.to/lastmile_qr_scan", "ios": "https://dc.lft.to/lastmile_qr_scan"}, "name": "d48d93da1f3ca250b9760004866e2215", "type": "electric_scooter", "lat": 38.923822, "is_disabled": 0}, {"fusion_lat": 0.0, "lon": -77.00927416666667, "is_reserved": 0, "bike_id": "3fa5b13c8e3f278a9c5645e74b807e6c", "fusion_lon": 0.0, "rental_uris": {"android": "https://dc.lft.to/lastmile_qr_scan", "ios": "https://dc.lft.to/lastmile_qr_scan"}, "name": "3fa5b13c8e3f278a9c5645e74b807e6c", "type": "electric_scooter", "lat": 38.89621266666666, "is_disabled": 0}, {"fusion_lat": 0.0, "lon": -77.01695466666666, "is_reserved": 0, "bike_id": "91fd607deedc69a570c7c782657155a9", "fusion_lon": 0.0, "rental_uris": {"android": "https://dc.lft.to/lastmile_qr_scan", "ios": "https://dc.lft.to/lastmile_qr_scan"}, "name": "91fd607deedc69a570c7c782657155a9", "type": "electric_scooter", "lat": 38.974987, "is_disabled": 0}, {"fusion_lat": 0.0, "lon": -76.9876855, "is_reserved": 0, "bike_id": "aab70d783df3b90d677598e72bd4f608", "fusion_lon": 0.0, "rental_uris": {"android": "https://dc.lft.to/lastmile_qr_scan", "ios": "https://dc.lft.to/lastmile_qr_scan"}, "name": "aab70d783df3b90d677598e72bd4f608", "type": "electric_scooter", "lat": 38.900258666666666, "is_disabled": 0}, {"fusion_lat": 0.0, "lon": -76.99572766666667, "is_reserved": 0, "bike_id": "3e76720d27e83e56f23ceb3bdb12a227", "fusion_lon": 0.0, "rental_uris": {"android": "https://dc.lft.to/lastmile_qr_scan", "ios": "https://dc.lft.to/lastmile_qr_scan"}, "name": "3e76720d27e83e56f23ceb3bdb12a227", "type": "electric_scooter", "lat": 38.88430816666666, "is_disabled": 0}, {"fusion_lat": 0.0, "lon": -77.07608266666666, "is_reserved": 0, "bike_id": "835116cac3fa515deb70ee85cfbdff01", "fusion_lon": 0.0, "rental_uris": {"android": "https://dc.lft.to/lastmile_qr_scan", "ios": "https://dc.lft.to/lastmile_qr_scan"}, "name": "835116cac3fa515deb70ee85cfbdff01", "type": "electric_scooter", "lat": 38.92059966666667, "is_disabled": 0}, {"fusion_lat": 0.0, "lon": -76.99706283333333, "is_reserved": 0, "bike_id": "0ca168cc3c91fabcccd3e0cb3a91948c", "fusion_lon": 0.0, "rental_uris": {"android": "https://dc.lft.to/lastmile_qr_scan", "ios": "https://dc.lft.to/lastmile_qr_scan"}, "name": "0ca168cc3c91fabcccd3e0cb3a91948c", "type": "electric_scooter", "lat": 38.844296666666665, "is_disabled": 0}, {"fusion_lat": 0.0, "lon": -77.03129816666667, "is_reserved": 0, "bike_id": "2f6c28af54a787d65af689427f06e157", "fusion_lon": 0.0, "rental_uris": {"android": "https://dc.lft.to/lastmile_qr_scan", "ios": "https://dc.lft.to/lastmile_qr_scan"}, "name": "2f6c28af54a787d65af689427f06e157", "type": "electric_scooter", "lat": 38.923771333333335, "is_disabled": 0}, {"fusion_lat": 0.0, "lon": -77.02185816666666, "is_reserved": 0, "bike_id": "9d4d90320549899fe5c56e3c79a34e5f", "fusion_lon": 0.0, "rental_uris": {"android": "https://dc.lft.to/lastmile_qr_scan", "ios": "https://dc.lft.to/lastmile_qr_scan"}, "name": "9d4d90320549899fe5c56e3c79a34e5f", "type": "electric_scooter", "lat": 38.92059183333333, "is_disabled": 0}, {"fusion_lat": 0.0, "lon": -77.04821933333334, "is_reserved": 0, "bike_id": "b1947a9b0f85031ec1dc94e1bce175e3", "fusion_lon": 0.0, "rental_uris": {"android": "https://dc.lft.to/lastmile_qr_scan", "ios": "https://dc.lft.to/lastmile_qr_scan"}, "name": "b1947a9b0f85031ec1dc94e1bce175e3", "type": "electric_scooter", "lat": 38.91045283333333, "is_disabled": 0}, {"fusion_lat": 0.0, "lon": -77.02050433333334, "is_reserved": 0, "bike_id": "f2adf285263e44b9dacf72abf8c87d27", "fusion_lon": 0.0, "rental_uris": {"android": "https://dc.lft.to/lastmile_qr_scan", "ios": "https://dc.lft.to/lastmile_qr_scan"}, "name": "f2adf285263e44b9dacf72abf8c87d27", "type": "electric_bike", "lat": 38.957564166666664, "is_disabled": 0}, {"fusion_lat": 0.0, "lon": -77.0033815, "is_reserved": 0, "bike_id": "b4ae0c3f959c25148e729ec803c48bac", "fusion_lon": 0.0, "rental_uris": {"android": "https://dc.lft.to/lastmile_qr_scan", "ios": "https://dc.lft.to/lastmile_qr_scan"}, "name": "b4ae0c3f959c25148e729ec803c48bac", "type": "electric_scooter", "lat": 38.88991716666666, "is_disabled": 0}, {"fusion_lat": 0.0, "lon": -77.00199933333333, "is_reserved": 0, "bike_id": "e6e1b93331146f8630394835078aae38", "fusion_lon": 0.0, "rental_uris": {"android": "https://dc.lft.to/lastmile_qr_scan", "ios": "https://dc.lft.to/lastmile_qr_scan"}, "name": "e6e1b93331146f8630394835078aae38", "type": "electric_scooter", "lat": 38.900528333333334, "is_disabled": 0}, {"fusion_lat": 0.0, "lon": -77.00325566666666, "is_reserved": 0, "bike_id": "991b70d2243e9528b06460b5c397a435", "fusion_lon": 0.0, "rental_uris": {"android": "https://dc.lft.to/lastmile_qr_scan", "ios": "https://dc.lft.to/lastmile_qr_scan"}, "name": "991b70d2243e9528b06460b5c397a435", "type": "electric_scooter", "lat": 38.90265933333333, "is_disabled": 0}, {"fusion_lat": 0.0, "lon": -77.019717, "is_reserved": 0, "bike_id": "18a3ae5d67d31d4c8a697fe08d818c39", "fusion_lon": 0.0, "rental_uris": {"android": "https://dc.lft.to/lastmile_qr_scan", "ios": "https://dc.lft.to/lastmile_qr_scan"}, "name": "18a3ae5d67d31d4c8a697fe08d818c39", "type": "electric_scooter", "lat": 38.895566, "is_disabled": 0}, {"fusion_lat": 0.0, "lon": -77.02199566666667, "is_reserved": 0, "bike_id": "169c98e020ef35517fa348cd274771d0", "fusion_lon": 0.0, "rental_uris": {"android": "https://dc.lft.to/lastmile_qr_scan", "ios": "https://dc.lft.to/lastmile_qr_scan"}, "name": "169c98e020ef35517fa348cd274771d0", "type": "electric_scooter", "lat": 38.920446166666665, "is_disabled": 0}, {"fusion_lat": 0.0, "lon": -77.006054, "is_reserved": 0, "bike_id": "57edefad6db3bbcdc8a002ff58578b4c", "fusion_lon": 0.0, "rental_uris": {"android": "https://dc.lft.to/lastmile_qr_scan", "ios": "https://dc.lft.to/lastmile_qr_scan"}, "name": "57edefad6db3bbcdc8a002ff58578b4c", "type": "electric_scooter", "lat": 38.87550566666667, "is_disabled": 0}, {"fusion_lat": 0.0, "lon": -77.032617, "is_reserved": 0, "bike_id": "f4c65dd7df6cbb976559b48015f7289b", "fusion_lon": 0.0, "rental_uris": {"android": "https://dc.lft.to/lastmile_qr_scan", "ios": "https://dc.lft.to/lastmile_qr_scan"}, "name": "f4c65dd7df6cbb976559b48015f7289b", "type": "electric_scooter", "lat": 38.9025655, "is_disabled": 0}, {"fusion_lat": 0.0, "lon": -76.9903325, "is_reserved": 0, "bike_id": "87d28d178a681f2bc67f8d3acf0729be", "fusion_lon": 0.0, "rental_uris": {"android": "https://dc.lft.to/lastmile_qr_scan", "ios": "https://dc.lft.to/lastmile_qr_scan"}, "name": "87d28d178a681f2bc67f8d3acf0729be", "type": "electric_scooter", "lat": 38.898508666666665, "is_disabled": 0}, {"fusion_lat": 0.0, "lon": -76.98091616666666, "is_reserved": 0, "bike_id": "49602535c43eeea368ef102316f73b9e", "fusion_lon": 0.0, "rental_uris": {"android": "https://dc.lft.to/lastmile_qr_scan", "ios": "https://dc.lft.to/lastmile_qr_scan"}, "name": "49602535c43eeea368ef102316f73b9e", "type": "electric_bike", "lat": 38.9535505, "is_disabled": 0}, {"fusion_lat": 0.0, "lon": -77.06969983333333, "is_reserved": 0, "bike_id": "653d080c0ab674bf143fe5e3f45bd004", "fusion_lon": 0.0, "rental_uris": {"android": "https://dc.lft.to/lastmile_qr_scan", "ios": "https://dc.lft.to/lastmile_qr_scan"}, "name": "653d080c0ab674bf143fe5e3f45bd004", "type": "electric_scooter", "lat": 38.952608, "is_disabled": 0}, {"fusion_lat": 0.0, "lon": -76.90706633333333, "is_reserved": 0, "bike_id": "bb4e5c6621336f42eb58689e5a70fdce", "fusion_lon": 0.0, "rental_uris": {"android": "https://dc.lft.to/lastmile_qr_scan", "ios": "https://dc.lft.to/lastmile_qr_scan"}, "name": "bb4e5c6621336f42eb58689e5a70fdce", "type": "electric_bike", "lat": 38.8959805, "is_disabled": 0}, {"fusion_lat": 0.0, "lon": -76.9892155, "is_reserved": 0, "bike_id": "677f82af8442fae086a9344b7c03b264", "fusion_lon": 0.0, "rental_uris": {"android": "https://dc.lft.to/lastmile_qr_scan", "ios": "https://dc.lft.to/lastmile_qr_scan"}, "name": "677f82af8442fae086a9344b7c03b264", "type": "electric_scooter", "lat": 38.8580965, "is_disabled": 0}, {"fusion_lat": 0.0, "lon": -77.02207366666667, "is_reserved": 0, "bike_id": "092cbfd2da9aa0141931a28696a7c261", "fusion_lon": 0.0, "rental_uris": {"android": "https://dc.lft.to/lastmile_qr_scan", "ios": "https://dc.lft.to/lastmile_qr_scan"}, "name": "092cbfd2da9aa0141931a28696a7c261", "type": "electric_scooter", "lat": 38.92047983333333, "is_disabled": 0}, {"fusion_lat": 0.0, "lon": -77.013892, "is_reserved": 0, "bike_id": "111632788b3bcda4efb1bf15e9387be1", "fusion_lon": 0.0, "rental_uris": {"android": "https://dc.lft.to/lastmile_qr_scan", "ios": "https://dc.lft.to/lastmile_qr_scan"}, "name": "111632788b3bcda4efb1bf15e9387be1", "type": "electric_scooter", "lat": 38.87575866666667, "is_disabled": 0}, {"fusion_lat": 0.0, "lon": -77.00341283333333, "is_reserved": 0, "bike_id": "7cc751ffd323c0b00699afad224fd72a", "fusion_lon": 0.0, "rental_uris": {"android": "https://dc.lft.to/lastmile_qr_scan", "ios": "https://dc.lft.to/lastmile_qr_scan"}, "name": "7cc751ffd323c0b00699afad224fd72a", "type": "electric_scooter", "lat": 38.91614216666667, "is_disabled": 0}, {"fusion_lat": 0.0, "lon": -77.01984383333334, "is_reserved": 0, "bike_id": "4c493049a6c3c845b058b104d976eb22", "fusion_lon": 0.0, "rental_uris": {"android": "https://dc.lft.to/lastmile_qr_scan", "ios": "https://dc.lft.to/lastmile_qr_scan"}, "name": "4c493049a6c3c845b058b104d976eb22", "type": "electric_bike", "lat": 38.9227175, "is_disabled": 0}, {"fusion_lat": 0.0, "lon": -77.00207116666667, "is_reserved": 0, "bike_id": "d8517b60e280b9e573ed72ffd3bec251", "fusion_lon": 0.0, "rental_uris": {"android": "https://dc.lft.to/lastmile_qr_scan", "ios": "https://dc.lft.to/lastmile_qr_scan"}, "name": "d8517b60e280b9e573ed72ffd3bec251", "type": "electric_scooter", "lat": 38.90038716666667, "is_disabled": 0}, {"fusion_lat": 0.0, "lon": -77.02184466666667, "is_reserved": 0, "bike_id": "2352088bc0b10cd0839d699f2b466e8b", "fusion_lon": 0.0, "rental_uris": {"android": "https://dc.lft.to/lastmile_qr_scan", "ios": "https://dc.lft.to/lastmile_qr_scan"}, "name": "2352088bc0b10cd0839d699f2b466e8b", "type": "electric_scooter", "lat": 38.90956516666667, "is_disabled": 0}, {"fusion_lat": 0.0, "lon": -77.03657966666667, "is_reserved": 0, "bike_id": "9d09f2a1a088cc7c3de0ab6ee74ea45f", "fusion_lon": 0.0, "rental_uris": {"android": "https://dc.lft.to/lastmile_qr_scan", "ios": "https://dc.lft.to/lastmile_qr_scan"}, "name": "9d09f2a1a088cc7c3de0ab6ee74ea45f", "type": "electric_scooter", "lat": 38.93158716666667, "is_disabled": 0}, {"fusion_lat": 0.0, "lon": -77.0224085, "is_reserved": 0, "bike_id": "a3fd2280035dbdf5ef22307fe4c77e64", "fusion_lon": 0.0, "rental_uris": {"android": "https://dc.lft.to/lastmile_qr_scan", "ios": "https://dc.lft.to/lastmile_qr_scan"}, "name": "a3fd2280035dbdf5ef22307fe4c77e64", "type": "electric_scooter", "lat": 38.926103166666664, "is_disabled": 0}, {"fusion_lat": 0.0, "lon": -77.04406033333333, "is_reserved": 0, "bike_id": "cbd117e5fa30a467b46a3fe9e7b1838a", "fusion_lon": 0.0, "rental_uris": {"android": "https://dc.lft.to/lastmile_qr_scan", "ios": "https://dc.lft.to/lastmile_qr_scan"}, "name": "cbd117e5fa30a467b46a3fe9e7b1838a", "type": "electric_scooter", "lat": 38.924471833333335, "is_disabled": 0}, {"fusion_lat": 0.0, "lon": -76.93370016666667, "is_reserved": 0, "bike_id": "d24d7df90e8c8e8efcb1ae3c58418c95", "fusion_lon": 0.0, "rental_uris": {"android": "https://dc.lft.to/lastmile_qr_scan", "ios": "https://dc.lft.to/lastmile_qr_scan"}, "name": "d24d7df90e8c8e8efcb1ae3c58418c95", "type": "electric_scooter", "lat": 38.899167166666665, "is_disabled": 0}, {"fusion_lat": 0.0, "lon": -77.01669416666667, "is_reserved": 0, "bike_id": "76d476ebc4419fc005045f26948b7883", "fusion_lon": 0.0, "rental_uris": {"android": "https://dc.lft.to/lastmile_qr_scan", "ios": "https://dc.lft.to/lastmile_qr_scan"}, "name": "76d476ebc4419fc005045f26948b7883", "type": "electric_scooter", "lat": 38.88123483333333, "is_disabled": 0}, {"fusion_lat": 0.0, "lon": -77.0221215, "is_reserved": 0, "bike_id": "ae2ae6dab994a02edaceb551bfe1ba77", "fusion_lon": 0.0, "rental_uris": {"android": "https://dc.lft.to/lastmile_qr_scan", "ios": "https://dc.lft.to/lastmile_qr_scan"}, "name": "ae2ae6dab994a02edaceb551bfe1ba77", "type": "electric_scooter", "lat": 38.89994133333333, "is_disabled": 0}, {"fusion_lat": 0.0, "lon": -77.02903366666666, "is_reserved": 0, "bike_id": "ef4492869b868dac903908ed0647ce0c", "fusion_lon": 0.0, "rental_uris": {"android": "https://dc.lft.to/lastmile_qr_scan", "ios": "https://dc.lft.to/lastmile_qr_scan"}, "name": "ef4492869b868dac903908ed0647ce0c", "type": "electric_scooter", "lat": 38.940392, "is_disabled": 0}, {"fusion_lat": 0.0, "lon": -76.95717383333333, "is_reserved": 0, "bike_id": "94334bc394e8fa854b5b59ad22330395", "fusion_lon": 0.0, "rental_uris": {"android": "https://dc.lft.to/lastmile_qr_scan", "ios": "https://dc.lft.to/lastmile_qr_scan"}, "name": "94334bc394e8fa854b5b59ad22330395", "type": "electric_scooter", "lat": 38.8888135, "is_disabled": 0}, {"fusion_lat": 0.0, "lon": -76.98071733333333, "is_reserved": 0, "bike_id": "cc3b876032c1495feeb629f49dcf49e9", "fusion_lon": 0.0, "rental_uris": {"android": "https://dc.lft.to/lastmile_qr_scan", "ios": "https://dc.lft.to/lastmile_qr_scan"}, "name": "cc3b876032c1495feeb629f49dcf49e9", "type": "electric_scooter", "lat": 38.90171216666667, "is_disabled": 0}, {"fusion_lat": 0.0, "lon": -77.0241465, "is_reserved": 0, "bike_id": "440713521f428b8f71847e326e5745d2", "fusion_lon": 0.0, "rental_uris": {"android": "https://dc.lft.to/lastmile_qr_scan", "ios": "https://dc.lft.to/lastmile_qr_scan"}, "name": "440713521f428b8f71847e326e5745d2", "type": "electric_scooter", "lat": 38.934204666666666, "is_disabled": 0}, {"fusion_lat": 0.0, "lon": -77.03802516666667, "is_reserved": 0, "bike_id": "022a6b05d27c7c2894cd8518f7efcd63", "fusion_lon": 0.0, "rental_uris": {"android": "https://dc.lft.to/lastmile_qr_scan", "ios": "https://dc.lft.to/lastmile_qr_scan"}, "name": "022a6b05d27c7c2894cd8518f7efcd63", "type": "electric_scooter", "lat": 38.91037016666667, "is_disabled": 0}, {"fusion_lat": 0.0, "lon": -77.025221, "is_reserved": 0, "bike_id": "ed55718457d43b3a3180350818eac669", "fusion_lon": 0.0, "rental_uris": {"android": "https://dc.lft.to/lastmile_qr_scan", "ios": "https://dc.lft.to/lastmile_qr_scan"}, "name": "ed55718457d43b3a3180350818eac669", "type": "electric_scooter", "lat": 38.919293333333336, "is_disabled": 0}, {"fusion_lat": 0.0, "lon": -77.05754433333334, "is_reserved": 0, "bike_id": "e2297b3ba7a1059ef3fb8b37ad3f5173", "fusion_lon": 0.0, "rental_uris": {"android": "https://dc.lft.to/lastmile_qr_scan", "ios": "https://dc.lft.to/lastmile_qr_scan"}, "name": "e2297b3ba7a1059ef3fb8b37ad3f5173", "type": "electric_scooter", "lat": 38.92462533333333, "is_disabled": 0}, {"fusion_lat": 0.0, "lon": -77.01176866666667, "is_reserved": 0, "bike_id": "7a53b11e0f740346ae57c7d17c93a62b", "fusion_lon": 0.0, "rental_uris": {"android": "https://dc.lft.to/lastmile_qr_scan", "ios": "https://dc.lft.to/lastmile_qr_scan"}, "name": "7a53b11e0f740346ae57c7d17c93a62b", "type": "electric_scooter", "lat": 38.900113166666664, "is_disabled": 0}, {"fusion_lat": 0.0, "lon": -77.10095666666666, "is_reserved": 0, "bike_id": "f012ef92423678fb3b9c4720df2e7312", "fusion_lon": 0.0, "rental_uris": {"android": "https://dc.lft.to/lastmile_qr_scan", "ios": "https://dc.lft.to/lastmile_qr_scan"}, "name": "f012ef92423678fb3b9c4720df2e7312", "type": "electric_bike", "lat": 38.9595835, "is_disabled": 0}, {"fusion_lat": 0.0, "lon": -77.010932, "is_reserved": 0, "bike_id": "414d1a008d13429454a410fbf8d8f07f", "fusion_lon": 0.0, "rental_uris": {"android": "https://dc.lft.to/lastmile_qr_scan", "ios": "https://dc.lft.to/lastmile_qr_scan"}, "name": "414d1a008d13429454a410fbf8d8f07f", "type": "electric_bike", "lat": 38.8729595, "is_disabled": 0}, {"fusion_lat": 0.0, "lon": -77.03301533333334, "is_reserved": 0, "bike_id": "e88986f346b71b26502052b8f90f5899", "fusion_lon": 0.0, "rental_uris": {"android": "https://dc.lft.to/lastmile_qr_scan", "ios": "https://dc.lft.to/lastmile_qr_scan"}, "name": "e88986f346b71b26502052b8f90f5899", "type": "electric_bike", "lat": 38.92348916666667, "is_disabled": 0}, {"fusion_lat": 0.0, "lon": -76.99407, "is_reserved": 0, "bike_id": "227aa9471158b18311b0017d55b0cd57", "fusion_lon": 0.0, "rental_uris": {"android": "https://dc.lft.to/lastmile_qr_scan", "ios": "https://dc.lft.to/lastmile_qr_scan"}, "name": "227aa9471158b18311b0017d55b0cd57", "type": "electric_bike", "lat": 38.831368833333336, "is_disabled": 0}, {"fusion_lat": 0.0, "lon": -76.9801875, "is_reserved": 0, "bike_id": "2eda7c1941c5eace9d9fd52895f2c8a9", "fusion_lon": 0.0, "rental_uris": {"android": "https://dc.lft.to/lastmile_qr_scan", "ios": "https://dc.lft.to/lastmile_qr_scan"}, "name": "2eda7c1941c5eace9d9fd52895f2c8a9", "type": "electric_scooter", "lat": 38.88863333333333, "is_disabled": 0}, {"fusion_lat": 0.0, "lon": -77.04186366666667, "is_reserved": 0, "bike_id": "fc77c73b6d5bb09dca4c9651ea414815", "fusion_lon": 0.0, "rental_uris": {"android": "https://dc.lft.to/lastmile_qr_scan", "ios": "https://dc.lft.to/lastmile_qr_scan"}, "name": "fc77c73b6d5bb09dca4c9651ea414815", "type": "electric_scooter", "lat": 38.912665, "is_disabled": 0}, {"fusion_lat": 0.0, "lon": -77.04425666666667, "is_reserved": 0, "bike_id": "9f7036053bdc69594d4d5187070283d3", "fusion_lon": 0.0, "rental_uris": {"android": "https://dc.lft.to/lastmile_qr_scan", "ios": "https://dc.lft.to/lastmile_qr_scan"}, "name": "9f7036053bdc69594d4d5187070283d3", "type": "electric_scooter", "lat": 38.92121733333333, "is_disabled": 0}, {"fusion_lat": 0.0, "lon": -77.013717, "is_reserved": 0, "bike_id": "0f52bfe8c16a822c207fb51b936604a0", "fusion_lon": 0.0, "rental_uris": {"android": "https://dc.lft.to/lastmile_qr_scan", "ios": "https://dc.lft.to/lastmile_qr_scan"}, "name": "0f52bfe8c16a822c207fb51b936604a0", "type": "electric_scooter", "lat": 38.89218916666667, "is_disabled": 0}, {"fusion_lat": 0.0, "lon": -77.02083283333333, "is_reserved": 0, "bike_id": "ca191f15325075155780c1aa8b1f7c41", "fusion_lon": 0.0, "rental_uris": {"android": "https://dc.lft.to/lastmile_qr_scan", "ios": "https://dc.lft.to/lastmile_qr_scan"}, "name": "ca191f15325075155780c1aa8b1f7c41", "type": "electric_scooter", "lat": 38.93012866666667, "is_disabled": 0}, {"fusion_lat": 0.0, "lon": -77.01291916666666, "is_reserved": 0, "bike_id": "dd56ebb02896b93d52ba6e11fb54f12f", "fusion_lon": 0.0, "rental_uris": {"android": "https://dc.lft.to/lastmile_qr_scan", "ios": "https://dc.lft.to/lastmile_qr_scan"}, "name": "dd56ebb02896b93d52ba6e11fb54f12f", "type": "electric_scooter", "lat": 38.894715833333336, "is_disabled": 0}, {"fusion_lat": 0.0, "lon": -77.0243785, "is_reserved": 0, "bike_id": "f01a46e8b76b63207e214339190985bd", "fusion_lon": 0.0, "rental_uris": {"android": "https://dc.lft.to/lastmile_qr_scan", "ios": "https://dc.lft.to/lastmile_qr_scan"}, "name": "f01a46e8b76b63207e214339190985bd", "type": "electric_scooter", "lat": 38.916930666666666, "is_disabled": 0}, {"fusion_lat": 0.0, "lon": -77.00892166666667, "is_reserved": 0, "bike_id": "4b22ec04904050f9895aab602f4e648a", "fusion_lon": 0.0, "rental_uris": {"android": "https://dc.lft.to/lastmile_qr_scan", "ios": "https://dc.lft.to/lastmile_qr_scan"}, "name": "4b22ec04904050f9895aab602f4e648a", "type": "electric_scooter", "lat": 38.96818416666667, "is_disabled": 0}, {"fusion_lat": 0.0, "lon": -76.98880366666667, "is_reserved": 0, "bike_id": "520bfe19b97face6b2833c77edda8be6", "fusion_lon": 0.0, "rental_uris": {"android": "https://dc.lft.to/lastmile_qr_scan", "ios": "https://dc.lft.to/lastmile_qr_scan"}, "name": "520bfe19b97face6b2833c77edda8be6", "type": "electric_scooter", "lat": 38.86653733333333, "is_disabled": 0}, {"fusion_lat": 0.0, "lon": -77.01965166666666, "is_reserved": 0, "bike_id": "42a391606a1d6b9310262d5d01d1f077", "fusion_lon": 0.0, "rental_uris": {"android": "https://dc.lft.to/lastmile_qr_scan", "ios": "https://dc.lft.to/lastmile_qr_scan"}, "name": "42a391606a1d6b9310262d5d01d1f077", "type": "electric_scooter", "lat": 38.956558, "is_disabled": 0}, {"fusion_lat": 0.0, "lon": -77.1157465, "is_reserved": 0, "bike_id": "9dd89820a7cf4bf5e29d478cb0b0dd5f", "fusion_lon": 0.0, "rental_uris": {"android": "https://dc.lft.to/lastmile_qr_scan", "ios": "https://dc.lft.to/lastmile_qr_scan"}, "name": "9dd89820a7cf4bf5e29d478cb0b0dd5f", "type": "electric_bike", "lat": 38.993452, "is_disabled": 0}, {"fusion_lat": 0.0, "lon": -77.045181, "is_reserved": 0, "bike_id": "407f4fe2b8f14dfbc74cdd647b856238", "fusion_lon": 0.0, "rental_uris": {"android": "https://dc.lft.to/lastmile_qr_scan", "ios": "https://dc.lft.to/lastmile_qr_scan"}, "name": "407f4fe2b8f14dfbc74cdd647b856238", "type": "electric_scooter", "lat": 38.92319416666667, "is_disabled": 0}, {"fusion_lat": 0.0, "lon": -77.03841433333334, "is_reserved": 0, "bike_id": "3f96c1bc640b4d507facf32251418008", "fusion_lon": 0.0, "rental_uris": {"android": "https://dc.lft.to/lastmile_qr_scan", "ios": "https://dc.lft.to/lastmile_qr_scan"}, "name": "3f96c1bc640b4d507facf32251418008", "type": "electric_scooter", "lat": 38.913464833333336, "is_disabled": 0}, {"fusion_lat": 0.0, "lon": -77.04478466666667, "is_reserved": 0, "bike_id": "d063a2e87ed23b151c1ec9da15474fe4", "fusion_lon": 0.0, "rental_uris": {"android": "https://dc.lft.to/lastmile_qr_scan", "ios": "https://dc.lft.to/lastmile_qr_scan"}, "name": "d063a2e87ed23b151c1ec9da15474fe4", "type": "electric_scooter", "lat": 38.905135, "is_disabled": 0}, {"fusion_lat": 0.0, "lon": -77.03432933333333, "is_reserved": 0, "bike_id": "6b90a66564c3c7fb5ba5fffef3a0a502", "fusion_lon": 0.0, "rental_uris": {"android": "https://dc.lft.to/lastmile_qr_scan", "ios": "https://dc.lft.to/lastmile_qr_scan"}, "name": "6b90a66564c3c7fb5ba5fffef3a0a502", "type": "electric_scooter", "lat": 38.919377, "is_disabled": 0}, {"fusion_lat": 0.0, "lon": -77.03485333333333, "is_reserved": 0, "bike_id": "65fcdca5a86150dfd2ce5d86a0dacd2b", "fusion_lon": 0.0, "rental_uris": {"android": "https://dc.lft.to/lastmile_qr_scan", "ios": "https://dc.lft.to/lastmile_qr_scan"}, "name": "65fcdca5a86150dfd2ce5d86a0dacd2b", "type": "electric_scooter", "lat": 38.921530833333335, "is_disabled": 0}, {"fusion_lat": 0.0, "lon": -76.97327666666666, "is_reserved": 0, "bike_id": "72b763b10e6e2ffa1f4cdda293dba3ff", "fusion_lon": 0.0, "rental_uris": {"android": "https://dc.lft.to/lastmile_qr_scan", "ios": "https://dc.lft.to/lastmile_qr_scan"}, "name": "72b763b10e6e2ffa1f4cdda293dba3ff", "type": "electric_scooter", "lat": 38.91773833333333, "is_disabled": 0}, {"fusion_lat": 0.0, "lon": -77.04308816666666, "is_reserved": 0, "bike_id": "8993d92ff375ba4f8d656efc9f3c2030", "fusion_lon": 0.0, "rental_uris": {"android": "https://dc.lft.to/lastmile_qr_scan", "ios": "https://dc.lft.to/lastmile_qr_scan"}, "name": "8993d92ff375ba4f8d656efc9f3c2030", "type": "electric_scooter", "lat": 38.923334, "is_disabled": 0}, {"fusion_lat": 0.0, "lon": -76.99229866666667, "is_reserved": 0, "bike_id": "a159f137d70fce88ab6a41ed252d5cc6", "fusion_lon": 0.0, "rental_uris": {"android": "https://dc.lft.to/lastmile_qr_scan", "ios": "https://dc.lft.to/lastmile_qr_scan"}, "name": "a159f137d70fce88ab6a41ed252d5cc6", "type": "electric_bike", "lat": 38.938620666666665, "is_disabled": 0}, {"fusion_lat": 0.0, "lon": -77.02571916666666, "is_reserved": 0, "bike_id": "3deb5104d17835f1a904511a6f672554", "fusion_lon": 0.0, "rental_uris": {"android": "https://dc.lft.to/lastmile_qr_scan", "ios": "https://dc.lft.to/lastmile_qr_scan"}, "name": "3deb5104d17835f1a904511a6f672554", "type": "electric_scooter", "lat": 38.9141375, "is_disabled": 0}, {"fusion_lat": 0.0, "lon": -77.08587366666667, "is_reserved": 0, "bike_id": "0f1cc2e0de4f567d1ebd1e58d1dc4820", "fusion_lon": 0.0, "rental_uris": {"android": "https://dc.lft.to/lastmile_qr_scan", "ios": "https://dc.lft.to/lastmile_qr_scan"}, "name": "0f1cc2e0de4f567d1ebd1e58d1dc4820", "type": "electric_bike", "lat": 38.844395, "is_disabled": 0}, {"fusion_lat": 0.0, "lon": -77.006772, "is_reserved": 0, "bike_id": "d63caabe27ec422684ae97b027cc3011", "fusion_lon": 0.0, "rental_uris": {"android": "https://dc.lft.to/lastmile_qr_scan", "ios": "https://dc.lft.to/lastmile_qr_scan"}, "name": "d63caabe27ec422684ae97b027cc3011", "type": "electric_scooter", "lat": 38.900155166666664, "is_disabled": 0}, {"fusion_lat": 0.0, "lon": -77.014387, "is_reserved": 0, "bike_id": "c846af68592c5b778f1d59f8997deb9e", "fusion_lon": 0.0, "rental_uris": {"android": "https://dc.lft.to/lastmile_qr_scan", "ios": "https://dc.lft.to/lastmile_qr_scan"}, "name": "c846af68592c5b778f1d59f8997deb9e", "type": "electric_bike", "lat": 38.876768166666665, "is_disabled": 0}, {"fusion_lat": 0.0, "lon": -76.97239633333334, "is_reserved": 0, "bike_id": "c2ccafc1dc24d1ba515f4b7796216236", "fusion_lon": 0.0, "rental_uris": {"android": "https://dc.lft.to/lastmile_qr_scan", "ios": "https://dc.lft.to/lastmile_qr_scan"}, "name": "c2ccafc1dc24d1ba515f4b7796216236", "type": "electric_bike", "lat": 38.94902616666667, "is_disabled": 0}, {"fusion_lat": 0.0, "lon": -77.023035, "is_reserved": 0, "bike_id": "6105200f8070886982d77e4e452ad7a1", "fusion_lon": 0.0, "rental_uris": {"android": "https://dc.lft.to/lastmile_qr_scan", "ios": "https://dc.lft.to/lastmile_qr_scan"}, "name": "6105200f8070886982d77e4e452ad7a1", "type": "electric_scooter", "lat": 38.886290833333334, "is_disabled": 0}, {"fusion_lat": 0.0, "lon": -77.05741266666666, "is_reserved": 0, "bike_id": "5ddced3a58758cc2314415110ec8fd74", "fusion_lon": 0.0, "rental_uris": {"android": "https://dc.lft.to/lastmile_qr_scan", "ios": "https://dc.lft.to/lastmile_qr_scan"}, "name": "5ddced3a58758cc2314415110ec8fd74", "type": "electric_scooter", "lat": 38.9339155, "is_disabled": 0}, {"fusion_lat": 0.0, "lon": -76.97908333333334, "is_reserved": 0, "bike_id": "0c0f6dc6a4b128037ded790f35c3949a", "fusion_lon": 0.0, "rental_uris": {"android": "https://dc.lft.to/lastmile_qr_scan", "ios": "https://dc.lft.to/lastmile_qr_scan"}, "name": "0c0f6dc6a4b128037ded790f35c3949a", "type": "electric_bike", "lat": 38.87258816666667, "is_disabled": 0}, {"fusion_lat": 0.0, "lon": -76.98663783333333, "is_reserved": 0, "bike_id": "b124bfb96289ee21f30e10a7806d5051", "fusion_lon": 0.0, "rental_uris": {"android": "https://dc.lft.to/lastmile_qr_scan", "ios": "https://dc.lft.to/lastmile_qr_scan"}, "name": "b124bfb96289ee21f30e10a7806d5051", "type": "electric_scooter", "lat": 38.89823416666667, "is_disabled": 0}, {"fusion_lat": 0.0, "lon": -76.9872585, "is_reserved": 0, "bike_id": "9841653906cca54295f23cd70fe94020", "fusion_lon": 0.0, "rental_uris": {"android": "https://dc.lft.to/lastmile_qr_scan", "ios": "https://dc.lft.to/lastmile_qr_scan"}, "name": "9841653906cca54295f23cd70fe94020", "type": "electric_scooter", "lat": 38.867117, "is_disabled": 0}, {"fusion_lat": 0.0, "lon": -77.03955666666667, "is_reserved": 0, "bike_id": "13eb2ba558cc3d9877e2fef5f2fa207e", "fusion_lon": 0.0, "rental_uris": {"android": "https://dc.lft.to/lastmile_qr_scan", "ios": "https://dc.lft.to/lastmile_qr_scan"}, "name": "13eb2ba558cc3d9877e2fef5f2fa207e", "type": "electric_scooter", "lat": 38.916268333333335, "is_disabled": 0}, {"fusion_lat": 0.0, "lon": -76.98872183333333, "is_reserved": 0, "bike_id": "b94155dedab45d77e9029528813dd9b5", "fusion_lon": 0.0, "rental_uris": {"android": "https://dc.lft.to/lastmile_qr_scan", "ios": "https://dc.lft.to/lastmile_qr_scan"}, "name": "b94155dedab45d77e9029528813dd9b5", "type": "electric_bike", "lat": 38.9549465, "is_disabled": 0}, {"fusion_lat": 0.0, "lon": -76.93751516666667, "is_reserved": 0, "bike_id": "952c41e93e5074f1ee1e5c2727304cd1", "fusion_lon": 0.0, "rental_uris": {"android": "https://dc.lft.to/lastmile_qr_scan", "ios": "https://dc.lft.to/lastmile_qr_scan"}, "name": "952c41e93e5074f1ee1e5c2727304cd1", "type": "electric_scooter", "lat": 38.89050566666667, "is_disabled": 0}, {"fusion_lat": 0.0, "lon": -76.993342, "is_reserved": 0, "bike_id": "af784f24aa729272680e7518285f7252", "fusion_lon": 0.0, "rental_uris": {"android": "https://dc.lft.to/lastmile_qr_scan", "ios": "https://dc.lft.to/lastmile_qr_scan"}, "name": "af784f24aa729272680e7518285f7252", "type": "electric_scooter", "lat": 38.8714345, "is_disabled": 0}, {"fusion_lat": 0.0, "lon": -77.05499933333333, "is_reserved": 0, "bike_id": "dc0e9d8b889197919040aa507ca60ea0", "fusion_lon": 0.0, "rental_uris": {"android": "https://dc.lft.to/lastmile_qr_scan", "ios": "https://dc.lft.to/lastmile_qr_scan"}, "name": "dc0e9d8b889197919040aa507ca60ea0", "type": "electric_scooter", "lat": 38.89991633333333, "is_disabled": 0}, {"fusion_lat": 0.0, "lon": -77.018494, "is_reserved": 0, "bike_id": "33a76a430bd7f8883650ae0a109d231d", "fusion_lon": 0.0, "rental_uris": {"android": "https://dc.lft.to/lastmile_qr_scan", "ios": "https://dc.lft.to/lastmile_qr_scan"}, "name": "33a76a430bd7f8883650ae0a109d231d", "type": "electric_scooter", "lat": 38.973658, "is_disabled": 0}, {"fusion_lat": 0.0, "lon": -76.9984135, "is_reserved": 0, "bike_id": "dac366588b12cb3af3d60d34703a7ea8", "fusion_lon": 0.0, "rental_uris": {"android": "https://dc.lft.to/lastmile_qr_scan", "ios": "https://dc.lft.to/lastmile_qr_scan"}, "name": "dac366588b12cb3af3d60d34703a7ea8", "type": "electric_scooter", "lat": 38.90021016666667, "is_disabled": 0}, {"fusion_lat": 0.0, "lon": -77.02652633333334, "is_reserved": 0, "bike_id": "62f7dc013766ae432ed543843fc9f0a8", "fusion_lon": 0.0, "rental_uris": {"android": "https://dc.lft.to/lastmile_qr_scan", "ios": "https://dc.lft.to/lastmile_qr_scan"}, "name": "62f7dc013766ae432ed543843fc9f0a8", "type": "electric_scooter", "lat": 38.89222, "is_disabled": 0}, {"fusion_lat": 0.0, "lon": -77.02819716666667, "is_reserved": 0, "bike_id": "ee7bb4e5708d19c309daf8b2116e5bef", "fusion_lon": 0.0, "rental_uris": {"android": "https://dc.lft.to/lastmile_qr_scan", "ios": "https://dc.lft.to/lastmile_qr_scan"}, "name": "ee7bb4e5708d19c309daf8b2116e5bef", "type": "electric_bike", "lat": 38.96502066666667, "is_disabled": 0}, {"fusion_lat": 0.0, "lon": -76.96054366666667, "is_reserved": 0, "bike_id": "95294c4b771937edbf22dd8a2717d509", "fusion_lon": 0.0, "rental_uris": {"android": "https://dc.lft.to/lastmile_qr_scan", "ios": "https://dc.lft.to/lastmile_qr_scan"}, "name": "95294c4b771937edbf22dd8a2717d509", "type": "electric_bike", "lat": 38.88407333333333, "is_disabled": 0}, {"fusion_lat": 0.0, "lon": -77.03313316666667, "is_reserved": 0, "bike_id": "4285537f4582f68050e9fe88cac4d8be", "fusion_lon": 0.0, "rental_uris": {"android": "https://dc.lft.to/lastmile_qr_scan", "ios": "https://dc.lft.to/lastmile_qr_scan"}, "name": "4285537f4582f68050e9fe88cac4d8be", "type": "electric_scooter", "lat": 38.93036383333333, "is_disabled": 0}, {"fusion_lat": 0.0, "lon": -77.0397695, "is_reserved": 0, "bike_id": "65d7aca8fd8f5afc22dd2be92ce5867e", "fusion_lon": 0.0, "rental_uris": {"android": "https://dc.lft.to/lastmile_qr_scan", "ios": "https://dc.lft.to/lastmile_qr_scan"}, "name": "65d7aca8fd8f5afc22dd2be92ce5867e", "type": "electric_scooter", "lat": 38.920260166666665, "is_disabled": 0}, {"fusion_lat": 0.0, "lon": -77.04196766666666, "is_reserved": 0, "bike_id": "39553b12d469dec177d0f6e33172dd5b", "fusion_lon": 0.0, "rental_uris": {"android": "https://dc.lft.to/lastmile_qr_scan", "ios": "https://dc.lft.to/lastmile_qr_scan"}, "name": "39553b12d469dec177d0f6e33172dd5b", "type": "electric_scooter", "lat": 38.91708883333333, "is_disabled": 0}, {"fusion_lat": 0.0, "lon": -76.9514275, "is_reserved": 0, "bike_id": "3afe7bcab5a86fa215cb00638d8bbdf6", "fusion_lon": 0.0, "rental_uris": {"android": "https://dc.lft.to/lastmile_qr_scan", "ios": "https://dc.lft.to/lastmile_qr_scan"}, "name": "3afe7bcab5a86fa215cb00638d8bbdf6", "type": "electric_scooter", "lat": 38.89038866666667, "is_disabled": 0}, {"fusion_lat": 0.0, "lon": -77.0293835, "is_reserved": 0, "bike_id": "b144377c7d0282d86ef1a510c4ffdd0c", "fusion_lon": 0.0, "rental_uris": {"android": "https://dc.lft.to/lastmile_qr_scan", "ios": "https://dc.lft.to/lastmile_qr_scan"}, "name": "b144377c7d0282d86ef1a510c4ffdd0c", "type": "electric_scooter", "lat": 38.9398035, "is_disabled": 0}, {"fusion_lat": 0.0, "lon": -76.98611283333334, "is_reserved": 0, "bike_id": "7e3c8c8f81da128274713ce48cc1bee1", "fusion_lon": 0.0, "rental_uris": {"android": "https://dc.lft.to/lastmile_qr_scan", "ios": "https://dc.lft.to/lastmile_qr_scan"}, "name": "7e3c8c8f81da128274713ce48cc1bee1", "type": "electric_scooter", "lat": 38.93825183333333, "is_disabled": 0}, {"fusion_lat": 0.0, "lon": -77.02680766666667, "is_reserved": 0, "bike_id": "6e53e1acfd51201c147168e5117ba828", "fusion_lon": 0.0, "rental_uris": {"android": "https://dc.lft.to/lastmile_qr_scan", "ios": "https://dc.lft.to/lastmile_qr_scan"}, "name": "6e53e1acfd51201c147168e5117ba828", "type": "electric_scooter", "lat": 38.90110966666667, "is_disabled": 0}, {"fusion_lat": 0.0, "lon": -77.0176165, "is_reserved": 0, "bike_id": "f3229f64813e16f901a3ea5e8943b508", "fusion_lon": 0.0, "rental_uris": {"android": "https://dc.lft.to/lastmile_qr_scan", "ios": "https://dc.lft.to/lastmile_qr_scan"}, "name": "f3229f64813e16f901a3ea5e8943b508", "type": "electric_scooter", "lat": 38.88336066666667, "is_disabled": 0}, {"fusion_lat": 0.0, "lon": -77.02628333333334, "is_reserved": 0, "bike_id": "474d67ceab3d3aed1ee2da830aae77d1", "fusion_lon": 0.0, "rental_uris": {"android": "https://dc.lft.to/lastmile_qr_scan", "ios": "https://dc.lft.to/lastmile_qr_scan"}, "name": "474d67ceab3d3aed1ee2da830aae77d1", "type": "electric_bike", "lat": 38.96224083333333, "is_disabled": 0}, {"fusion_lat": 0.0, "lon": -77.02362816666667, "is_reserved": 0, "bike_id": "704c6defdf41b3358d6a169ae2054821", "fusion_lon": 0.0, "rental_uris": {"android": "https://dc.lft.to/lastmile_qr_scan", "ios": "https://dc.lft.to/lastmile_qr_scan"}, "name": "704c6defdf41b3358d6a169ae2054821", "type": "electric_scooter", "lat": 38.8921775, "is_disabled": 0}, {"fusion_lat": 0.0, "lon": -77.36096883333333, "is_reserved": 0, "bike_id": "871a5b4add65a450cba69f7953f7a6ac", "fusion_lon": 0.0, "rental_uris": {"android": "https://dc.lft.to/lastmile_qr_scan", "ios": "https://dc.lft.to/lastmile_qr_scan"}, "name": "871a5b4add65a450cba69f7953f7a6ac", "type": "electric_bike", "lat": 38.939543666666665, "is_disabled": 0}, {"fusion_lat": 0.0, "lon": -76.8836845, "is_reserved": 0, "bike_id": "073629ef7a30582ddba6333599f8b69f", "fusion_lon": 0.0, "rental_uris": {"android": "https://dc.lft.to/lastmile_qr_scan", "ios": "https://dc.lft.to/lastmile_qr_scan"}, "name": "073629ef7a30582ddba6333599f8b69f", "type": "electric_bike", "lat": 38.99832133333334, "is_disabled": 0}, {"fusion_lat": 0.0, "lon": -76.97708833333333, "is_reserved": 0, "bike_id": "dc9bcdb2259f32e373d69a1be3f08a46", "fusion_lon": 0.0, "rental_uris": {"android": "https://dc.lft.to/lastmile_qr_scan", "ios": "https://dc.lft.to/lastmile_qr_scan"}, "name": "dc9bcdb2259f32e373d69a1be3f08a46", "type": "electric_bike", "lat": 38.9491615, "is_disabled": 0}, {"fusion_lat": 0.0, "lon": -77.0380835, "is_reserved": 0, "bike_id": "922ce6f344aeece2623b185670879e02", "fusion_lon": 0.0, "rental_uris": {"android": "https://dc.lft.to/lastmile_qr_scan", "ios": "https://dc.lft.to/lastmile_qr_scan"}, "name": "922ce6f344aeece2623b185670879e02", "type": "electric_scooter", "lat": 38.914147166666666, "is_disabled": 0}, {"fusion_lat": 0.0, "lon": -77.032554, "is_reserved": 0, "bike_id": "bb7a7b29ca70edb8b3566768566e6ef8", "fusion_lon": 0.0, "rental_uris": {"android": "https://dc.lft.to/lastmile_qr_scan", "ios": "https://dc.lft.to/lastmile_qr_scan"}, "name": "bb7a7b29ca70edb8b3566768566e6ef8", "type": "electric_scooter", "lat": 38.923630833333334, "is_disabled": 0}, {"fusion_lat": 0.0, "lon": -77.02515183333334, "is_reserved": 0, "bike_id": "168e3a92489fbb0d7fd9ab6caba3af5d", "fusion_lon": 0.0, "rental_uris": {"android": "https://dc.lft.to/lastmile_qr_scan", "ios": "https://dc.lft.to/lastmile_qr_scan"}, "name": "168e3a92489fbb0d7fd9ab6caba3af5d", "type": "electric_scooter", "lat": 38.93095366666667, "is_disabled": 0}, {"fusion_lat": 0.0, "lon": -77.00403216666666, "is_reserved": 0, "bike_id": "ae0d7be2b21ea573e6deba66df38b9fb", "fusion_lon": 0.0, "rental_uris": {"android": "https://dc.lft.to/lastmile_qr_scan", "ios": "https://dc.lft.to/lastmile_qr_scan"}, "name": "ae0d7be2b21ea573e6deba66df38b9fb", "type": "electric_scooter", "lat": 38.92133883333333, "is_disabled": 0}, {"fusion_lat": 0.0, "lon": -77.01625983333334, "is_reserved": 0, "bike_id": "d7510fe761823d9dbb7207a528518661", "fusion_lon": 0.0, "rental_uris": {"android": "https://dc.lft.to/lastmile_qr_scan", "ios": "https://dc.lft.to/lastmile_qr_scan"}, "name": "d7510fe761823d9dbb7207a528518661", "type": "electric_scooter", "lat": 38.903357, "is_disabled": 0}, {"fusion_lat": 0.0, "lon": -77.02791483333333, "is_reserved": 0, "bike_id": "0f7904f2314783e1364cc8e08f1525b3", "fusion_lon": 0.0, "rental_uris": {"android": "https://dc.lft.to/lastmile_qr_scan", "ios": "https://dc.lft.to/lastmile_qr_scan"}, "name": "0f7904f2314783e1364cc8e08f1525b3", "type": "electric_scooter", "lat": 38.93086533333334, "is_disabled": 0}, {"fusion_lat": 0.0, "lon": -77.009703, "is_reserved": 0, "bike_id": "d985bc63a3eee781ca2708fb336b2a05", "fusion_lon": 0.0, "rental_uris": {"android": "https://dc.lft.to/lastmile_qr_scan", "ios": "https://dc.lft.to/lastmile_qr_scan"}, "name": "d985bc63a3eee781ca2708fb336b2a05", "type": "electric_scooter", "lat": 38.9141445, "is_disabled": 0}, {"fusion_lat": 0.0, "lon": -77.0272795, "is_reserved": 0, "bike_id": "89dcb8b149467598e40847d6d7fc3954", "fusion_lon": 0.0, "rental_uris": {"android": "https://dc.lft.to/lastmile_qr_scan", "ios": "https://dc.lft.to/lastmile_qr_scan"}, "name": "89dcb8b149467598e40847d6d7fc3954", "type": "electric_scooter", "lat": 38.90674833333333, "is_disabled": 0}, {"fusion_lat": 0.0, "lon": -77.0707405, "is_reserved": 0, "bike_id": "e6c57676449048d6ffbd0d44116e0942", "fusion_lon": 0.0, "rental_uris": {"android": "https://dc.lft.to/lastmile_qr_scan", "ios": "https://dc.lft.to/lastmile_qr_scan"}, "name": "e6c57676449048d6ffbd0d44116e0942", "type": "electric_scooter", "lat": 38.931692, "is_disabled": 0}, {"fusion_lat": 0.0, "lon": -77.02573833333334, "is_reserved": 0, "bike_id": "d2a7c77e1543bc9cd4a25e1fc2128e72", "fusion_lon": 0.0, "rental_uris": {"android": "https://dc.lft.to/lastmile_qr_scan", "ios": "https://dc.lft.to/lastmile_qr_scan"}, "name": "d2a7c77e1543bc9cd4a25e1fc2128e72", "type": "electric_scooter", "lat": 38.880749, "is_disabled": 0}, {"fusion_lat": 0.0, "lon": -76.93753733333334, "is_reserved": 0, "bike_id": "32d7d72ba1ede0003058e76f34b1a99b", "fusion_lon": 0.0, "rental_uris": {"android": "https://dc.lft.to/lastmile_qr_scan", "ios": "https://dc.lft.to/lastmile_qr_scan"}, "name": "32d7d72ba1ede0003058e76f34b1a99b", "type": "electric_scooter", "lat": 38.89043916666667, "is_disabled": 0}, {"fusion_lat": 0.0, "lon": -77.02735716666666, "is_reserved": 0, "bike_id": "e2a3ed65ca5837b41f35b8704f41dbfb", "fusion_lon": 0.0, "rental_uris": {"android": "https://dc.lft.to/lastmile_qr_scan", "ios": "https://dc.lft.to/lastmile_qr_scan"}, "name": "e2a3ed65ca5837b41f35b8704f41dbfb", "type": "electric_scooter", "lat": 38.92860066666667, "is_disabled": 0}, {"fusion_lat": 0.0, "lon": -77.0269355, "is_reserved": 0, "bike_id": "aef77d95aef8962c0def0c1d5493e62e", "fusion_lon": 0.0, "rental_uris": {"android": "https://dc.lft.to/lastmile_qr_scan", "ios": "https://dc.lft.to/lastmile_qr_scan"}, "name": "aef77d95aef8962c0def0c1d5493e62e", "type": "electric_scooter", "lat": 38.92365933333333, "is_disabled": 0}, {"fusion_lat": 0.0, "lon": -77.04833483333333, "is_reserved": 0, "bike_id": "0397e302342d65386037429392b91ed5", "fusion_lon": 0.0, "rental_uris": {"android": "https://dc.lft.to/lastmile_qr_scan", "ios": "https://dc.lft.to/lastmile_qr_scan"}, "name": "0397e302342d65386037429392b91ed5", "type": "electric_scooter", "lat": 38.904856833333334, "is_disabled": 0}, {"fusion_lat": 0.0, "lon": -77.02599933333333, "is_reserved": 0, "bike_id": "7de3dd8890f543609d74961722293f1d", "fusion_lon": 0.0, "rental_uris": {"android": "https://dc.lft.to/lastmile_qr_scan", "ios": "https://dc.lft.to/lastmile_qr_scan"}, "name": "7de3dd8890f543609d74961722293f1d", "type": "electric_scooter", "lat": 38.925849166666666, "is_disabled": 0}, {"fusion_lat": 0.0, "lon": -77.02308116666667, "is_reserved": 0, "bike_id": "c05351f6ccc382ea2cd722aca468695a", "fusion_lon": 0.0, "rental_uris": {"android": "https://dc.lft.to/lastmile_qr_scan", "ios": "https://dc.lft.to/lastmile_qr_scan"}, "name": "c05351f6ccc382ea2cd722aca468695a", "type": "electric_scooter", "lat": 38.917756, "is_disabled": 0}, {"fusion_lat": 0.0, "lon": -77.03384766666667, "is_reserved": 0, "bike_id": "f2a3ecb8e38b7f1f19b64931268b9f8f", "fusion_lon": 0.0, "rental_uris": {"android": "https://dc.lft.to/lastmile_qr_scan", "ios": "https://dc.lft.to/lastmile_qr_scan"}, "name": "f2a3ecb8e38b7f1f19b64931268b9f8f", "type": "electric_scooter", "lat": 38.92359016666666, "is_disabled": 0}, {"fusion_lat": 0.0, "lon": -77.03681116666667, "is_reserved": 0, "bike_id": "3356305a1f7220befa2d366dba84a4b1", "fusion_lon": 0.0, "rental_uris": {"android": "https://dc.lft.to/lastmile_qr_scan", "ios": "https://dc.lft.to/lastmile_qr_scan"}, "name": "3356305a1f7220befa2d366dba84a4b1", "type": "electric_scooter", "lat": 38.910418666666665, "is_disabled": 0}, {"fusion_lat": 0.0, "lon": -77.03199116666667, "is_reserved": 0, "bike_id": "d7a43fc35644df9c81fae932f3581274", "fusion_lon": 0.0, "rental_uris": {"android": "https://dc.lft.to/lastmile_qr_scan", "ios": "https://dc.lft.to/lastmile_qr_scan"}, "name": "d7a43fc35644df9c81fae932f3581274", "type": "electric_scooter", "lat": 38.908340333333335, "is_disabled": 0}, {"fusion_lat": 0.0, "lon": -77.02156966666666, "is_reserved": 0, "bike_id": "9628cf97c7e7cc6623e6fa8b9fae31e4", "fusion_lon": 0.0, "rental_uris": {"android": "https://dc.lft.to/lastmile_qr_scan", "ios": "https://dc.lft.to/lastmile_qr_scan"}, "name": "9628cf97c7e7cc6623e6fa8b9fae31e4", "type": "electric_scooter", "lat": 38.929025833333334, "is_disabled": 0}, {"fusion_lat": 0.0, "lon": -76.99646416666667, "is_reserved": 0, "bike_id": "92b4496e81d47aaea73327bc21446334", "fusion_lon": 0.0, "rental_uris": {"android": "https://dc.lft.to/lastmile_qr_scan", "ios": "https://dc.lft.to/lastmile_qr_scan"}, "name": "92b4496e81d47aaea73327bc21446334", "type": "electric_bike", "lat": 38.988253, "is_disabled": 0}, {"fusion_lat": 0.0, "lon": -77.03468533333333, "is_reserved": 0, "bike_id": "71476806e6aedb77a629a45b78b708f7", "fusion_lon": 0.0, "rental_uris": {"android": "https://dc.lft.to/lastmile_qr_scan", "ios": "https://dc.lft.to/lastmile_qr_scan"}, "name": "71476806e6aedb77a629a45b78b708f7", "type": "electric_scooter", "lat": 38.918774166666665, "is_disabled": 0}, {"fusion_lat": 0.0, "lon": -77.06742316666667, "is_reserved": 0, "bike_id": "f5689ef5206d17cf0486e20cca229dbb", "fusion_lon": 0.0, "rental_uris": {"android": "https://dc.lft.to/lastmile_qr_scan", "ios": "https://dc.lft.to/lastmile_qr_scan"}, "name": "f5689ef5206d17cf0486e20cca229dbb", "type": "electric_scooter", "lat": 38.90685333333333, "is_disabled": 0}, {"fusion_lat": 0.0, "lon": -77.017786, "is_reserved": 0, "bike_id": "c670040b0c6e3dff840c99357c36ed2e", "fusion_lon": 0.0, "rental_uris": {"android": "https://dc.lft.to/lastmile_qr_scan", "ios": "https://dc.lft.to/lastmile_qr_scan"}, "name": "c670040b0c6e3dff840c99357c36ed2e", "type": "electric_scooter", "lat": 38.88717, "is_disabled": 0}, {"fusion_lat": 0.0, "lon": -77.02718, "is_reserved": 0, "bike_id": "cafd7e7d17161c347606730557c9e7c4", "fusion_lon": 0.0, "rental_uris": {"android": "https://dc.lft.to/lastmile_qr_scan", "ios": "https://dc.lft.to/lastmile_qr_scan"}, "name": "cafd7e7d17161c347606730557c9e7c4", "type": "electric_scooter", "lat": 38.92464716666667, "is_disabled": 0}, {"fusion_lat": 0.0, "lon": -77.02208766666666, "is_reserved": 0, "bike_id": "22eb3f32f896a74b6ce24c50a8fdd60d", "fusion_lon": 0.0, "rental_uris": {"android": "https://dc.lft.to/lastmile_qr_scan", "ios": "https://dc.lft.to/lastmile_qr_scan"}, "name": "22eb3f32f896a74b6ce24c50a8fdd60d", "type": "electric_scooter", "lat": 38.93001533333333, "is_disabled": 0}, {"fusion_lat": 0.0, "lon": -77.02374233333333, "is_reserved": 0, "bike_id": "42d4e82d2d9a0827d40a5c4260ae7e9a", "fusion_lon": 0.0, "rental_uris": {"android": "https://dc.lft.to/lastmile_qr_scan", "ios": "https://dc.lft.to/lastmile_qr_scan"}, "name": "42d4e82d2d9a0827d40a5c4260ae7e9a", "type": "electric_scooter", "lat": 38.89397016666667, "is_disabled": 0}, {"fusion_lat": 0.0, "lon": -77.02103083333333, "is_reserved": 0, "bike_id": "b6633b08de25d481a0dcf10ac85c6644", "fusion_lon": 0.0, "rental_uris": {"android": "https://dc.lft.to/lastmile_qr_scan", "ios": "https://dc.lft.to/lastmile_qr_scan"}, "name": "b6633b08de25d481a0dcf10ac85c6644", "type": "electric_scooter", "lat": 38.932687, "is_disabled": 0}, {"fusion_lat": 0.0, "lon": -77.044095, "is_reserved": 0, "bike_id": "27e86b42dd95fa4760a64594e13d8279", "fusion_lon": 0.0, "rental_uris": {"android": "https://dc.lft.to/lastmile_qr_scan", "ios": "https://dc.lft.to/lastmile_qr_scan"}, "name": "27e86b42dd95fa4760a64594e13d8279", "type": "electric_scooter", "lat": 38.896391, "is_disabled": 0}, {"fusion_lat": 0.0, "lon": -77.03912483333333, "is_reserved": 0, "bike_id": "46432a70f38107db71d72aa7edeccc8f", "fusion_lon": 0.0, "rental_uris": {"android": "https://dc.lft.to/lastmile_qr_scan", "ios": "https://dc.lft.to/lastmile_qr_scan"}, "name": "46432a70f38107db71d72aa7edeccc8f", "type": "electric_scooter", "lat": 38.92313016666667, "is_disabled": 0}, {"fusion_lat": 0.0, "lon": -77.01111583333333, "is_reserved": 0, "bike_id": "c32fcdc2b0408a82d04d00e245c30093", "fusion_lon": 0.0, "rental_uris": {"android": "https://dc.lft.to/lastmile_qr_scan", "ios": "https://dc.lft.to/lastmile_qr_scan"}, "name": "c32fcdc2b0408a82d04d00e245c30093", "type": "electric_scooter", "lat": 38.903541833333335, "is_disabled": 0}, {"fusion_lat": 0.0, "lon": -77.04651466666667, "is_reserved": 0, "bike_id": "135f2951b65d4b4eddfa17727ebd5d57", "fusion_lon": 0.0, "rental_uris": {"android": "https://dc.lft.to/lastmile_qr_scan", "ios": "https://dc.lft.to/lastmile_qr_scan"}, "name": "135f2951b65d4b4eddfa17727ebd5d57", "type": "electric_scooter", "lat": 38.9000395, "is_disabled": 0}, {"fusion_lat": 0.0, "lon": -77.00503066666667, "is_reserved": 0, "bike_id": "498f3bb6c36493e536f6e0966d2bc35f", "fusion_lon": 0.0, "rental_uris": {"android": "https://dc.lft.to/lastmile_qr_scan", "ios": "https://dc.lft.to/lastmile_qr_scan"}, "name": "498f3bb6c36493e536f6e0966d2bc35f", "type": "electric_scooter", "lat": 38.9168785, "is_disabled": 0}, {"fusion_lat": 0.0, "lon": -77.022477, "is_reserved": 0, "bike_id": "623a16bd4f75445540904df72c5c0f42", "fusion_lon": 0.0, "rental_uris": {"android": "https://dc.lft.to/lastmile_qr_scan", "ios": "https://dc.lft.to/lastmile_qr_scan"}, "name": "623a16bd4f75445540904df72c5c0f42", "type": "electric_scooter", "lat": 38.91641516666667, "is_disabled": 0}, {"fusion_lat": 0.0, "lon": -77.06464983333333, "is_reserved": 0, "bike_id": "9afaf44cfb71484ad05f5cf8f14c18bd", "fusion_lon": 0.0, "rental_uris": {"android": "https://dc.lft.to/lastmile_qr_scan", "ios": "https://dc.lft.to/lastmile_qr_scan"}, "name": "9afaf44cfb71484ad05f5cf8f14c18bd", "type": "electric_scooter", "lat": 38.927472333333334, "is_disabled": 0}, {"fusion_lat": 0.0, "lon": -77.01864883333333, "is_reserved": 0, "bike_id": "1e6d1d809ad93f428a1555878f6b1d1a", "fusion_lon": 0.0, "rental_uris": {"android": "https://dc.lft.to/lastmile_qr_scan", "ios": "https://dc.lft.to/lastmile_qr_scan"}, "name": "1e6d1d809ad93f428a1555878f6b1d1a", "type": "electric_scooter", "lat": 38.97364983333333, "is_disabled": 0}, {"fusion_lat": 0.0, "lon": -77.11173233333334, "is_reserved": 0, "bike_id": "a13b7ac3da6071096f66e3c0a5db1591", "fusion_lon": 0.0, "rental_uris": {"android": "https://dc.lft.to/lastmile_qr_scan", "ios": "https://dc.lft.to/lastmile_qr_scan"}, "name": "a13b7ac3da6071096f66e3c0a5db1591", "type": "electric_bike", "lat": 38.855092166666665, "is_disabled": 0}, {"fusion_lat": 0.0, "lon": -76.97314533333333, "is_reserved": 0, "bike_id": "18cd0ce5c488c54049006bbaf4414143", "fusion_lon": 0.0, "rental_uris": {"android": "https://dc.lft.to/lastmile_qr_scan", "ios": "https://dc.lft.to/lastmile_qr_scan"}, "name": "18cd0ce5c488c54049006bbaf4414143", "type": "electric_scooter", "lat": 38.865657, "is_disabled": 0}, {"fusion_lat": 0.0, "lon": -77.03781216666667, "is_reserved": 0, "bike_id": "f746017933b14daea9c9acbeacf3e036", "fusion_lon": 0.0, "rental_uris": {"android": "https://dc.lft.to/lastmile_qr_scan", "ios": "https://dc.lft.to/lastmile_qr_scan"}, "name": "f746017933b14daea9c9acbeacf3e036", "type": "electric_scooter", "lat": 38.916945, "is_disabled": 0}, {"fusion_lat": 0.0, "lon": -77.03960316666667, "is_reserved": 0, "bike_id": "b1b16cdc9abbebec39113b9e60dcc437", "fusion_lon": 0.0, "rental_uris": {"android": "https://dc.lft.to/lastmile_qr_scan", "ios": "https://dc.lft.to/lastmile_qr_scan"}, "name": "b1b16cdc9abbebec39113b9e60dcc437", "type": "electric_scooter", "lat": 38.892512833333335, "is_disabled": 0}, {"fusion_lat": 0.0, "lon": -76.98225866666667, "is_reserved": 0, "bike_id": "94145e3272983b3059830a603a844c99", "fusion_lon": 0.0, "rental_uris": {"android": "https://dc.lft.to/lastmile_qr_scan", "ios": "https://dc.lft.to/lastmile_qr_scan"}, "name": "94145e3272983b3059830a603a844c99", "type": "electric_scooter", "lat": 38.8864485, "is_disabled": 0}, {"fusion_lat": 0.0, "lon": -76.9839755, "is_reserved": 0, "bike_id": "b62e37e2975c802ea83d20d6b6a9413f", "fusion_lon": 0.0, "rental_uris": {"android": "https://dc.lft.to/lastmile_qr_scan", "ios": "https://dc.lft.to/lastmile_qr_scan"}, "name": "b62e37e2975c802ea83d20d6b6a9413f", "type": "electric_scooter", "lat": 38.9150055, "is_disabled": 0}, {"fusion_lat": 0.0, "lon": -77.04356033333333, "is_reserved": 0, "bike_id": "e328586024b1100674b44a70ce33bcfc", "fusion_lon": 0.0, "rental_uris": {"android": "https://dc.lft.to/lastmile_qr_scan", "ios": "https://dc.lft.to/lastmile_qr_scan"}, "name": "e328586024b1100674b44a70ce33bcfc", "type": "electric_scooter", "lat": 38.9206465, "is_disabled": 0}, {"fusion_lat": 0.0, "lon": -77.18739716666667, "is_reserved": 0, "bike_id": "dd0b66360f1fc767a76f6f96dc92ceca", "fusion_lon": 0.0, "rental_uris": {"android": "https://dc.lft.to/lastmile_qr_scan", "ios": "https://dc.lft.to/lastmile_qr_scan"}, "name": "dd0b66360f1fc767a76f6f96dc92ceca", "type": "electric_bike", "lat": 38.89356083333333, "is_disabled": 0}, {"fusion_lat": 0.0, "lon": -77.00658833333334, "is_reserved": 0, "bike_id": "b90906aae86301cd7edabde74e839447", "fusion_lon": 0.0, "rental_uris": {"android": "https://dc.lft.to/lastmile_qr_scan", "ios": "https://dc.lft.to/lastmile_qr_scan"}, "name": "b90906aae86301cd7edabde74e839447", "type": "electric_scooter", "lat": 38.944618166666665, "is_disabled": 0}, {"fusion_lat": 0.0, "lon": -77.02672183333334, "is_reserved": 0, "bike_id": "c78f58172e96e54f9f388f4a0cecf643", "fusion_lon": 0.0, "rental_uris": {"android": "https://dc.lft.to/lastmile_qr_scan", "ios": "https://dc.lft.to/lastmile_qr_scan"}, "name": "c78f58172e96e54f9f388f4a0cecf643", "type": "electric_scooter", "lat": 38.90111866666667, "is_disabled": 0}, {"fusion_lat": 0.0, "lon": -77.03489, "is_reserved": 0, "bike_id": "441df3e72acdcf00d56b3b4eaf28b812", "fusion_lon": 0.0, "rental_uris": {"android": "https://dc.lft.to/lastmile_qr_scan", "ios": "https://dc.lft.to/lastmile_qr_scan"}, "name": "441df3e72acdcf00d56b3b4eaf28b812", "type": "electric_scooter", "lat": 38.9248135, "is_disabled": 0}, {"fusion_lat": 0.0, "lon": -77.01200716666666, "is_reserved": 0, "bike_id": "46c34fd12ea007a0282a90a70a95d0ad", "fusion_lon": 0.0, "rental_uris": {"android": "https://dc.lft.to/lastmile_qr_scan", "ios": "https://dc.lft.to/lastmile_qr_scan"}, "name": "46c34fd12ea007a0282a90a70a95d0ad", "type": "electric_scooter", "lat": 38.870942666666664, "is_disabled": 0}, {"fusion_lat": 0.0, "lon": -77.0629115, "is_reserved": 0, "bike_id": "28fbb3c35107ef0ffc0d22192f3b956f", "fusion_lon": 0.0, "rental_uris": {"android": "https://dc.lft.to/lastmile_qr_scan", "ios": "https://dc.lft.to/lastmile_qr_scan"}, "name": "28fbb3c35107ef0ffc0d22192f3b956f", "type": "electric_scooter", "lat": 38.90436866666667, "is_disabled": 0}, {"fusion_lat": 0.0, "lon": -77.0387075, "is_reserved": 0, "bike_id": "bc94a1ddbb92ee800482ca39cc27a992", "fusion_lon": 0.0, "rental_uris": {"android": "https://dc.lft.to/lastmile_qr_scan", "ios": "https://dc.lft.to/lastmile_qr_scan"}, "name": "bc94a1ddbb92ee800482ca39cc27a992", "type": "electric_scooter", "lat": 38.92154383333333, "is_disabled": 0}, {"fusion_lat": 0.0, "lon": -76.991461, "is_reserved": 0, "bike_id": "1cb943cb0327cde070561524eeef869e", "fusion_lon": 0.0, "rental_uris": {"android": "https://dc.lft.to/lastmile_qr_scan", "ios": "https://dc.lft.to/lastmile_qr_scan"}, "name": "1cb943cb0327cde070561524eeef869e", "type": "electric_scooter", "lat": 38.88596366666667, "is_disabled": 0}, {"fusion_lat": 0.0, "lon": -77.0316175, "is_reserved": 0, "bike_id": "ab00dba14a07a9720bd4f251c4aae0d5", "fusion_lon": 0.0, "rental_uris": {"android": "https://dc.lft.to/lastmile_qr_scan", "ios": "https://dc.lft.to/lastmile_qr_scan"}, "name": "ab00dba14a07a9720bd4f251c4aae0d5", "type": "electric_scooter", "lat": 38.919158833333334, "is_disabled": 0}, {"fusion_lat": 0.0, "lon": -77.03720566666667, "is_reserved": 0, "bike_id": "a630688a8f96ec1ebfd3e0aea629715a", "fusion_lon": 0.0, "rental_uris": {"android": "https://dc.lft.to/lastmile_qr_scan", "ios": "https://dc.lft.to/lastmile_qr_scan"}, "name": "a630688a8f96ec1ebfd3e0aea629715a", "type": "electric_scooter", "lat": 38.916935, "is_disabled": 0}, {"fusion_lat": 0.0, "lon": -77.046874, "is_reserved": 0, "bike_id": "93638cdac9145233503d6fda2fa0c558", "fusion_lon": 0.0, "rental_uris": {"android": "https://dc.lft.to/lastmile_qr_scan", "ios": "https://dc.lft.to/lastmile_qr_scan"}, "name": "93638cdac9145233503d6fda2fa0c558", "type": "electric_bike", "lat": 39.0239525, "is_disabled": 0}, {"fusion_lat": 0.0, "lon": -77.0417385, "is_reserved": 0, "bike_id": "65b759a14d18a89f35bde95949577311", "fusion_lon": 0.0, "rental_uris": {"android": "https://dc.lft.to/lastmile_qr_scan", "ios": "https://dc.lft.to/lastmile_qr_scan"}, "name": "65b759a14d18a89f35bde95949577311", "type": "electric_scooter", "lat": 38.91993633333333, "is_disabled": 0}, {"fusion_lat": 0.0, "lon": -77.05895183333334, "is_reserved": 0, "bike_id": "04fc8d4213f4e3abb9f80b257ad5b0a0", "fusion_lon": 0.0, "rental_uris": {"android": "https://dc.lft.to/lastmile_qr_scan", "ios": "https://dc.lft.to/lastmile_qr_scan"}, "name": "04fc8d4213f4e3abb9f80b257ad5b0a0", "type": "electric_scooter", "lat": 38.943066, "is_disabled": 0}, {"fusion_lat": 0.0, "lon": -76.96789116666666, "is_reserved": 0, "bike_id": "0d80fd84357f4189cb0416a3ea6258f9", "fusion_lon": 0.0, "rental_uris": {"android": "https://dc.lft.to/lastmile_qr_scan", "ios": "https://dc.lft.to/lastmile_qr_scan"}, "name": "0d80fd84357f4189cb0416a3ea6258f9", "type": "electric_scooter", "lat": 38.873362, "is_disabled": 0}, {"fusion_lat": 0.0, "lon": -77.01288483333333, "is_reserved": 0, "bike_id": "58d345eeae69ee98bd9b784205e5727b", "fusion_lon": 0.0, "rental_uris": {"android": "https://dc.lft.to/lastmile_qr_scan", "ios": "https://dc.lft.to/lastmile_qr_scan"}, "name": "58d345eeae69ee98bd9b784205e5727b", "type": "electric_bike", "lat": 38.910365, "is_disabled": 0}, {"fusion_lat": 0.0, "lon": -76.9981575, "is_reserved": 0, "bike_id": "1f4a61f8804651821fd0c3f0144a0367", "fusion_lon": 0.0, "rental_uris": {"android": "https://dc.lft.to/lastmile_qr_scan", "ios": "https://dc.lft.to/lastmile_qr_scan"}, "name": "1f4a61f8804651821fd0c3f0144a0367", "type": "electric_scooter", "lat": 38.90722133333333, "is_disabled": 0}, {"fusion_lat": 0.0, "lon": -76.98578933333333, "is_reserved": 0, "bike_id": "ae32b96c363895e9834c074375995d55", "fusion_lon": 0.0, "rental_uris": {"android": "https://dc.lft.to/lastmile_qr_scan", "ios": "https://dc.lft.to/lastmile_qr_scan"}, "name": "ae32b96c363895e9834c074375995d55", "type": "electric_bike", "lat": 38.89957916666667, "is_disabled": 0}, {"fusion_lat": 0.0, "lon": -77.02979616666667, "is_reserved": 0, "bike_id": "178675e73cc80907760dbe6a47628aeb", "fusion_lon": 0.0, "rental_uris": {"android": "https://dc.lft.to/lastmile_qr_scan", "ios": "https://dc.lft.to/lastmile_qr_scan"}, "name": "178675e73cc80907760dbe6a47628aeb", "type": "electric_scooter", "lat": 38.914157333333335, "is_disabled": 0}, {"fusion_lat": 0.0, "lon": -77.00045766666666, "is_reserved": 0, "bike_id": "3a76e9f04f77adb8bffbb9c1b7e82f09", "fusion_lon": 0.0, "rental_uris": {"android": "https://dc.lft.to/lastmile_qr_scan", "ios": "https://dc.lft.to/lastmile_qr_scan"}, "name": "3a76e9f04f77adb8bffbb9c1b7e82f09", "type": "electric_scooter", "lat": 38.9246565, "is_disabled": 0}, {"fusion_lat": 0.0, "lon": -77.00729133333333, "is_reserved": 0, "bike_id": "c9a0accc6b36a109271f464f15954ce9", "fusion_lon": 0.0, "rental_uris": {"android": "https://dc.lft.to/lastmile_qr_scan", "ios": "https://dc.lft.to/lastmile_qr_scan"}, "name": "c9a0accc6b36a109271f464f15954ce9", "type": "electric_scooter", "lat": 38.88493916666667, "is_disabled": 0}, {"fusion_lat": 0.0, "lon": -77.0511115, "is_reserved": 0, "bike_id": "0effbe584a8f0a2727787059acd2a249", "fusion_lon": 0.0, "rental_uris": {"android": "https://dc.lft.to/lastmile_qr_scan", "ios": "https://dc.lft.to/lastmile_qr_scan"}, "name": "0effbe584a8f0a2727787059acd2a249", "type": "electric_bike", "lat": 39.036706833333334, "is_disabled": 0}, {"fusion_lat": 0.0, "lon": -77.0292055, "is_reserved": 0, "bike_id": "efa510c7125354e7a663d1aac44a1073", "fusion_lon": 0.0, "rental_uris": {"android": "https://dc.lft.to/lastmile_qr_scan", "ios": "https://dc.lft.to/lastmile_qr_scan"}, "name": "efa510c7125354e7a663d1aac44a1073", "type": "electric_scooter", "lat": 38.93874866666667, "is_disabled": 0}, {"fusion_lat": 0.0, "lon": -77.02843, "is_reserved": 0, "bike_id": "b3a08189405079d20d3840350e153663", "fusion_lon": 0.0, "rental_uris": {"android": "https://dc.lft.to/lastmile_qr_scan", "ios": "https://dc.lft.to/lastmile_qr_scan"}, "name": "b3a08189405079d20d3840350e153663", "type": "electric_scooter", "lat": 38.887496166666665, "is_disabled": 0}, {"fusion_lat": 0.0, "lon": -77.04427566666666, "is_reserved": 0, "bike_id": "37d9cb77bd33cdfba9e35bba6f6f334b", "fusion_lon": 0.0, "rental_uris": {"android": "https://dc.lft.to/lastmile_qr_scan", "ios": "https://dc.lft.to/lastmile_qr_scan"}, "name": "37d9cb77bd33cdfba9e35bba6f6f334b", "type": "electric_scooter", "lat": 38.92128916666667, "is_disabled": 0}, {"fusion_lat": 0.0, "lon": -77.02861433333334, "is_reserved": 0, "bike_id": "37256b5de389296848f35d24c70e6fe8", "fusion_lon": 0.0, "rental_uris": {"android": "https://dc.lft.to/lastmile_qr_scan", "ios": "https://dc.lft.to/lastmile_qr_scan"}, "name": "37256b5de389296848f35d24c70e6fe8", "type": "electric_scooter", "lat": 38.91168283333333, "is_disabled": 0}, {"fusion_lat": 0.0, "lon": -77.05427716666667, "is_reserved": 0, "bike_id": "64c7e658b8377786864e392c27801bc1", "fusion_lon": 0.0, "rental_uris": {"android": "https://dc.lft.to/lastmile_qr_scan", "ios": "https://dc.lft.to/lastmile_qr_scan"}, "name": "64c7e658b8377786864e392c27801bc1", "type": "electric_scooter", "lat": 38.9235055, "is_disabled": 0}, {"fusion_lat": 0.0, "lon": -77.042462, "is_reserved": 0, "bike_id": "5632eaf335fc43727d0818263823a1e9", "fusion_lon": 0.0, "rental_uris": {"android": "https://dc.lft.to/lastmile_qr_scan", "ios": "https://dc.lft.to/lastmile_qr_scan"}, "name": "5632eaf335fc43727d0818263823a1e9", "type": "electric_scooter", "lat": 38.906479833333336, "is_disabled": 0}, {"fusion_lat": 0.0, "lon": -77.02891233333334, "is_reserved": 0, "bike_id": "4e88f888be97f05619e144b6f735a440", "fusion_lon": 0.0, "rental_uris": {"android": "https://dc.lft.to/lastmile_qr_scan", "ios": "https://dc.lft.to/lastmile_qr_scan"}, "name": "4e88f888be97f05619e144b6f735a440", "type": "electric_scooter", "lat": 38.90327416666667, "is_disabled": 0}, {"fusion_lat": 0.0, "lon": -77.046595, "is_reserved": 0, "bike_id": "761948ead443d11a9f9316d976d1d49e", "fusion_lon": 0.0, "rental_uris": {"android": "https://dc.lft.to/lastmile_qr_scan", "ios": "https://dc.lft.to/lastmile_qr_scan"}, "name": "761948ead443d11a9f9316d976d1d49e", "type": "electric_scooter", "lat": 38.913419, "is_disabled": 0}, {"fusion_lat": 0.0, "lon": -77.01983766666666, "is_reserved": 0, "bike_id": "c44e79827dcb98d29ba257de62b820b6", "fusion_lon": 0.0, "rental_uris": {"android": "https://dc.lft.to/lastmile_qr_scan", "ios": "https://dc.lft.to/lastmile_qr_scan"}, "name": "c44e79827dcb98d29ba257de62b820b6", "type": "electric_scooter", "lat": 38.91434133333333, "is_disabled": 0}, {"fusion_lat": 0.0, "lon": -77.027475, "is_reserved": 0, "bike_id": "d5e392ddf0d94b22fd4a026563f3cd2c", "fusion_lon": 0.0, "rental_uris": {"android": "https://dc.lft.to/lastmile_qr_scan", "ios": "https://dc.lft.to/lastmile_qr_scan"}, "name": "d5e392ddf0d94b22fd4a026563f3cd2c", "type": "electric_scooter", "lat": 38.92409333333333, "is_disabled": 0}, {"fusion_lat": 0.0, "lon": -77.0100835, "is_reserved": 0, "bike_id": "bb16f8466df7481ddf7cdf0506377e98", "fusion_lon": 0.0, "rental_uris": {"android": "https://dc.lft.to/lastmile_qr_scan", "ios": "https://dc.lft.to/lastmile_qr_scan"}, "name": "bb16f8466df7481ddf7cdf0506377e98", "type": "electric_bike", "lat": 38.87966866666667, "is_disabled": 0}, {"fusion_lat": 0.0, "lon": -77.0349205, "is_reserved": 0, "bike_id": "bff1c140f77c96b1709d503b0e12a087", "fusion_lon": 0.0, "rental_uris": {"android": "https://dc.lft.to/lastmile_qr_scan", "ios": "https://dc.lft.to/lastmile_qr_scan"}, "name": "bff1c140f77c96b1709d503b0e12a087", "type": "electric_scooter", "lat": 38.932624, "is_disabled": 0}, {"fusion_lat": 0.0, "lon": -77.03057033333333, "is_reserved": 0, "bike_id": "837ea676b378f88ed182d328fb6529e1", "fusion_lon": 0.0, "rental_uris": {"android": "https://dc.lft.to/lastmile_qr_scan", "ios": "https://dc.lft.to/lastmile_qr_scan"}, "name": "837ea676b378f88ed182d328fb6529e1", "type": "electric_scooter", "lat": 38.9237455, "is_disabled": 0}, {"fusion_lat": 0.0, "lon": -77.00741266666667, "is_reserved": 0, "bike_id": "2240477e1cfaeba2943ce63309bf94d6", "fusion_lon": 0.0, "rental_uris": {"android": "https://dc.lft.to/lastmile_qr_scan", "ios": "https://dc.lft.to/lastmile_qr_scan"}, "name": "2240477e1cfaeba2943ce63309bf94d6", "type": "electric_scooter", "lat": 38.9036595, "is_disabled": 0}, {"fusion_lat": 0.0, "lon": -77.0190415, "is_reserved": 0, "bike_id": "e8847773a06acc46adecd126227e148b", "fusion_lon": 0.0, "rental_uris": {"android": "https://dc.lft.to/lastmile_qr_scan", "ios": "https://dc.lft.to/lastmile_qr_scan"}, "name": "e8847773a06acc46adecd126227e148b", "type": "electric_scooter", "lat": 38.94125183333333, "is_disabled": 0}, {"fusion_lat": 0.0, "lon": -77.02088783333333, "is_reserved": 0, "bike_id": "81af8622d9a69ff66ccab92383654381", "fusion_lon": 0.0, "rental_uris": {"android": "https://dc.lft.to/lastmile_qr_scan", "ios": "https://dc.lft.to/lastmile_qr_scan"}, "name": "81af8622d9a69ff66ccab92383654381", "type": "electric_scooter", "lat": 38.91416916666667, "is_disabled": 0}, {"fusion_lat": 0.0, "lon": -77.04072183333334, "is_reserved": 0, "bike_id": "55034ca656f651ed99468f2d14ea50d9", "fusion_lon": 0.0, "rental_uris": {"android": "https://dc.lft.to/lastmile_qr_scan", "ios": "https://dc.lft.to/lastmile_qr_scan"}, "name": "55034ca656f651ed99468f2d14ea50d9", "type": "electric_scooter", "lat": 38.9171205, "is_disabled": 0}, {"fusion_lat": 0.0, "lon": -77.02693216666667, "is_reserved": 0, "bike_id": "875bb2e78e0dffba98840d5146f2b4f4", "fusion_lon": 0.0, "rental_uris": {"android": "https://dc.lft.to/lastmile_qr_scan", "ios": "https://dc.lft.to/lastmile_qr_scan"}, "name": "875bb2e78e0dffba98840d5146f2b4f4", "type": "electric_scooter", "lat": 38.91133416666667, "is_disabled": 0},