{"data": {"bikes": [{"rental_uris": {"android": "https://dc.lft.to/lastmile_qr_scan", "ios": "https://dc.lft.to/lastmile_qr_scan"}, "is_reserved": 0, "is_disabled": 0, "name": "f40756fb5ffd189a0ce50c66bfa26e6b", "bike_id": "f40756fb5ffd189a0ce50c66bfa26e6b", "fusion_lat": 0.0, "lon": -76.99850283333333, "type": "electric_scooter", "fusion_lon": 0.0, "lat": 38.89188816666667}, {"rental_uris": {"android": "https://dc.lft.to/lastmile_qr_scan", "ios": "https://dc.lft.to/lastmile_qr_scan"}, "is_reserved": 0, "is_disabled": 0, "name": "1ea2346cdd2e8f2ece2633cab0ee1831", "bike_id": "1ea2346cdd2e8f2ece2633cab0ee1831", "fusion_lat": 0.0, "lon": -77.02470533333333, "type": "electric_scooter", "fusion_lon": 0.0, "lat": 38.93856683333333}, {"rental_uris": {"android": "https://dc.lft.to/lastmile_qr_scan", "ios": "https://dc.lft.to/lastmile_qr_scan"}, "is_reserved": 0, "is_disabled": 0, "name": "ff2ec6be9f28129f6b7ad1cfaaa54e24", "bike_id": "ff2ec6be9f28129f6b7ad1cfaaa54e24", "fusion_lat": 0.0, "lon": -77.024679, "type": "electric_scooter", "fusion_lon": 0.0, "lat": 38.938556166666665}, {"rental_uris": {"android": "https://dc.lft.to/lastmile_qr_scan", "ios": "https://dc.lft.to/lastmile_qr_scan"}, "is_reserved": 0, "is_disabled": 0, "name": "305b39cd3540cb6726145bd7e1735094", "bike_id": "305b39cd3540cb6726145bd7e1735094", "fusion_lat": 0.0, "lon": -77.02969083333333, "type": "electric_scooter", "fusion_lon": 0.0, "lat": 38.93255216666667}, {"rental_uris": {"android": "https://dc.lft.to/lastmile_qr_scan", "ios": "https://dc.lft.to/lastmile_qr_scan"}, "is_reserved": 0, "is_disabled": 0, "name": "afaba60fdad795970ff719ff9833847d", "bike_id": "afaba60fdad795970ff719ff9833847d", "fusion_lat": 0.0, "lon": -77.05268566666666, "type": "electric_bike", "fusion_lon": 0.0, "lat": 38.94089816666666}, {"rental_uris": {"android": "https://dc.lft.to/lastmile_qr_scan", "ios": "https://dc.lft.to/lastmile_qr_scan"}, "is_reserved": 0, "is_disabled": 0, "name": "06c08d4ab9525a0442928b4210e151a7", "bike_id": "06c08d4ab9525a0442928b4210e151a7", "fusion_lat": 0.0, "lon": -77.0326535, "type": "electric_scooter", "fusion_lon": 0.0, "lat": 38.9352395}, {"rental_uris": {"android": "https://dc.lft.to/lastmile_qr_scan", "ios": "https://dc.lft.to/lastmile_qr_scan"}, "is_reserved": 0, "is_disabled": 0, "name": "581411d94614cdc6ed9f013f168285da", "bike_id": "581411d94614cdc6ed9f013f168285da", "fusion_lat": 0.0, "lon": -77.0115465, "type": "electric_scooter", "fusion_lon": 0.0, "lat": 38.91701583333333}, {"rental_uris": {"android": "https://dc.lft.to/lastmile_qr_scan", "ios": "https://dc.lft.to/lastmile_qr_scan"}, "is_reserved": 0, "is_disabled": 0, "name": "b1ffc40ef3f168ac0695c32f697afaa3", "bike_id": "b1ffc40ef3f168ac0695c32f697afaa3", "fusion_lat": 0.0, "lon": -77.03777716666667, "type": "electric_bike", "fusion_lon": 0.0, "lat": 38.996958}, {"rental_uris": {"android": "https://dc.lft.to/lastmile_qr_scan", "ios": "https://dc.lft.to/lastmile_qr_scan"}, "is_reserved": 0, "is_disabled": 0, "name": "3c076be69c44bd475621f41ecc61a8fa", "bike_id": "3c076be69c44bd475621f41ecc61a8fa", "fusion_lat": 0.0, "lon": -77.00718766666667, "type": "electric_bike", "fusion_lon": 0.0, "lat": 38.9950935}, {"rental_uris": {"android": "https://dc.lft.to/lastmile_qr_scan", "ios": "https://dc.lft.to/lastmile_qr_scan"}, "is_reserved": 0, "is_disabled": 0, "name": "93190fa64742846b7ae9e92658993fe0", "bike_id": "93190fa64742846b7ae9e92658993fe0", "fusion_lat": 0.0, "lon": -77.02800583333334, "type": "electric_scooter", "fusion_lon": 0.0, "lat": 38.916723833333336}, {"rental_uris": {"android": "https://dc.lft.to/lastmile_qr_scan", "ios": "https://dc.lft.to/lastmile_qr_scan"}, "is_reserved": 0, "is_disabled": 0, "name": "8cf55915632fb76961b145336e58acfe", "bike_id": "8cf55915632fb76961b145336e58acfe", "fusion_lat": 0.0, "lon": -77.05209266666667, "type": "electric_scooter", "fusion_lon": 0.0, "lat": 38.924871833333334}, {"rental_uris": {"android": "https://dc.lft.to/lastmile_qr_scan", "ios": "https://dc.lft.to/lastmile_qr_scan"}, "is_reserved": 0, "is_disabled": 0, "name": "f4fd3d2e9c43f466726a18baa850f906", "bike_id": "f4fd3d2e9c43f466726a18baa850f906", "fusion_lat": 0.0, "lon": -77.02904633333333, "type": "electric_scooter", "fusion_lon": 0.0, "lat": 38.93291633333333}, {"rental_uris": {"android": "https://dc.lft.to/lastmile_qr_scan", "ios": "https://dc.lft.to/lastmile_qr_scan"}, "is_reserved": 0, "is_disabled": 0, "name": "bd341759b45201d39d428058241b8afb", "bike_id": "bd341759b45201d39d428058241b8afb", "fusion_lat": 0.0, "lon": -76.99516833333334, "type": "electric_scooter", "fusion_lon": 0.0, "lat": 38.90255583333333}, {"rental_uris": {"android": "https://dc.lft.to/lastmile_qr_scan", "ios": "https://dc.lft.to/lastmile_qr_scan"}, "is_reserved": 0, "is_disabled": 0, "name": "cb17c1ce01306fd151e90aaa8492d1d7", "bike_id": "cb17c1ce01306fd151e90aaa8492d1d7", "fusion_lat": 0.0, "lon": -77.03457233333333, "type": "electric_scooter", "fusion_lon": 0.0, "lat": 38.91794566666667}, {"rental_uris": {"android": "https://dc.lft.to/lastmile_qr_scan", "ios": "https://dc.lft.to/lastmile_qr_scan"}, "is_reserved": 0, "is_disabled": 0, "name": "07137ba9edd2f731202e30683d5e4793", "bike_id": "07137ba9edd2f731202e30683d5e4793", "fusion_lat": 0.0, "lon": -77.013364, "type": "electric_scooter", "fusion_lon": 0.0, "lat": 38.881225}, {"rental_uris": {"android": "https://dc.lft.to/lastmile_qr_scan", "ios": "https://dc.lft.to/lastmile_qr_scan"}, "is_reserved": 0, "is_disabled": 0, "name": "71b921bd31cecd12eda2b84e777108a5", "bike_id": "71b921bd31cecd12eda2b84e777108a5", "fusion_lat": 0.0, "lon": -77.03036133333333, "type": "electric_scooter", "fusion_lon": 0.0, "lat": 38.90981683333333}, {"rental_uris": {"android": "https://dc.lft.to/lastmile_qr_scan", "ios": "https://dc.lft.to/lastmile_qr_scan"}, "is_reserved": 0, "is_disabled": 0, "name": "9e2af52345a3d0c3118424da6dbae04a", "bike_id": "9e2af52345a3d0c3118424da6dbae04a", "fusion_lat": 0.0, "lon": -77.03007833333334, "type": "electric_scooter", "fusion_lon": 0.0, "lat": 38.8953505}, {"rental_uris": {"android": "https://dc.lft.to/lastmile_qr_scan", "ios": "https://dc.lft.to/lastmile_qr_scan"}, "is_reserved": 0, "is_disabled": 0, "name": "752d1f5d46aec9e77ff686cc08dc6615", "bike_id": "752d1f5d46aec9e77ff686cc08dc6615", "fusion_lat": 0.0, "lon": -77.02149266666666, "type": "electric_scooter", "fusion_lon": 0.0, "lat": 38.894025666666664}, {"rental_uris": {"android": "https://dc.lft.to/lastmile_qr_scan", "ios": "https://dc.lft.to/lastmile_qr_scan"}, "is_reserved": 0, "is_disabled": 0, "name": "95b5519aa0ccfa007d2b6332fd460b57", "bike_id": "95b5519aa0ccfa007d2b6332fd460b57", "fusion_lat": 0.0, "lon": -77.02258516666667, "type": "electric_scooter", "fusion_lon": 0.0, "lat": 38.893673166666666}, {"rental_uris": {"android": "https://dc.lft.to/lastmile_qr_scan", "ios": "https://dc.lft.to/lastmile_qr_scan"}, "is_reserved": 0, "is_disabled": 0, "name": "417626eb3ef04bc3b9534002e84c0aa3", "bike_id": "417626eb3ef04bc3b9534002e84c0aa3", "fusion_lat": 0.0, "lon": -77.02601083333333, "type": "electric_scooter", "fusion_lon": 0.0, "lat": 38.92589266666667}, {"rental_uris": {"android": "https://dc.lft.to/lastmile_qr_scan", "ios": "https://dc.lft.to/lastmile_qr_scan"}, "is_reserved": 0, "is_disabled": 0, "name": "e2748c68209cade04594c34264e61d8a", "bike_id": "e2748c68209cade04594c34264e61d8a", "fusion_lat": 0.0, "lon": -77.0399815, "type": "electric_scooter", "fusion_lon": 0.0, "lat": 38.917564}, {"rental_uris": {"android": "https://dc.lft.to/lastmile_qr_scan", "ios": "https://dc.lft.to/lastmile_qr_scan"}, "is_reserved": 0, "is_disabled": 0, "name": "98364ac8d3ec88ada7be069588ae184d", "bike_id": "98364ac8d3ec88ada7be069588ae184d", "fusion_lat": 0.0, "lon": -77.021055, "type": "electric_scooter", "fusion_lon": 0.0, "lat": 38.90560683333333}, {"rental_uris": {"android": "https://dc.lft.to/lastmile_qr_scan", "ios": "https://dc.lft.to/lastmile_qr_scan"}, "is_reserved": 0, "is_disabled": 0, "name": "c45037035750b177e541ed76b03a61b1", "bike_id": "c45037035750b177e541ed76b03a61b1", "fusion_lat": 0.0, "lon": -77.083221, "type": "electric_bike", "fusion_lon": 0.0, "lat": 38.93347116666666}, {"rental_uris": {"android": "https://dc.lft.to/lastmile_qr_scan", "ios": "https://dc.lft.to/lastmile_qr_scan"}, "is_reserved": 0, "is_disabled": 0, "name": "bcf9fa73849beb463825d3c42d401a78", "bike_id": "bcf9fa73849beb463825d3c42d401a78", "fusion_lat": 0.0, "lon": -76.9858175, "type": "electric_scooter", "fusion_lon": 0.0, "lat": 38.90038716666667}, {"rental_uris": {"android": "https://dc.lft.to/lastmile_qr_scan", "ios": "https://dc.lft.to/lastmile_qr_scan"}, "is_reserved": 0, "is_disabled": 0, "name": "3c34f919ee423744e3a25731999078ad", "bike_id": "3c34f919ee423744e3a25731999078ad", "fusion_lat": 0.0, "lon": -77.03445266666667, "type": "electric_scooter", "fusion_lon": 0.0, "lat": 38.9094505}, {"rental_uris": {"android": "https://dc.lft.to/lastmile_qr_scan", "ios": "https://dc.lft.to/lastmile_qr_scan"}, "is_reserved": 0, "is_disabled": 0, "name": "6f6897e2af8f8a75cd3d0479b2dda836", "bike_id": "6f6897e2af8f8a75cd3d0479b2dda836", "fusion_lat": 0.0, "lon": -77.02489783333333, "type": "electric_scooter", "fusion_lon": 0.0, "lat": 38.9206565}, {"rental_uris": {"android": "https://dc.lft.to/lastmile_qr_scan", "ios": "https://dc.lft.to/lastmile_qr_scan"}, "is_reserved": 0, "is_disabled": 0, "name": "c38fb48dc26af2d7571f18672e77cd96", "bike_id": "c38fb48dc26af2d7571f18672e77cd96", "fusion_lat": 0.0, "lon": -77.05597216666666, "type": "electric_scooter", "fusion_lon": 0.0, "lat": 38.89426616666667}, {"rental_uris": {"android": "https://dc.lft.to/lastmile_qr_scan", "ios": "https://dc.lft.to/lastmile_qr_scan"}, "is_reserved": 0, "is_disabled": 0, "name": "63ef2fc8e00cf4763dd6181c3e748eb8", "bike_id": "63ef2fc8e00cf4763dd6181c3e748eb8", "fusion_lat": 0.0, "lon": -77.02122783333333, "type": "electric_bike", "fusion_lon": 0.0, "lat": 38.9357645}, {"rental_uris": {"android": "https://dc.lft.to/lastmile_qr_scan", "ios": "https://dc.lft.to/lastmile_qr_scan"}, "is_reserved": 0, "is_disabled": 0, "name": "fe156464a49770cb8ee336c3aac4ad8c", "bike_id": "fe156464a49770cb8ee336c3aac4ad8c", "fusion_lat": 0.0, "lon": -77.05043583333334, "type": "electric_scooter", "fusion_lon": 0.0, "lat": 38.923642}, {"rental_uris": {"android": "https://dc.lft.to/lastmile_qr_scan", "ios": "https://dc.lft.to/lastmile_qr_scan"}, "is_reserved": 0, "is_disabled": 0, "name": "6ccb7d1f2e51a58f4950a60db600acab", "bike_id": "6ccb7d1f2e51a58f4950a60db600acab", "fusion_lat": 0.0, "lon": -77.02228966666667, "type": "electric_scooter", "fusion_lon": 0.0, "lat": 38.91264366666667}, {"rental_uris": {"android": "https://dc.lft.to/lastmile_qr_scan", "ios": "https://dc.lft.to/lastmile_qr_scan"}, "is_reserved": 0, "is_disabled": 0, "name": "dd2c5f80ebbbc81ec824f1c402d7e845", "bike_id": "dd2c5f80ebbbc81ec824f1c402d7e845", "fusion_lat": 0.0, "lon": -77.03077083333334, "type": "electric_scooter", "fusion_lon": 0.0, "lat": 38.898444}, {"rental_uris": {"android": "https://dc.lft.to/lastmile_qr_scan", "ios": "https://dc.lft.to/lastmile_qr_scan"}, "is_reserved": 0, "is_disabled": 0, "name": "2766b3d6983cfefac601157e39d0d14b", "bike_id": "2766b3d6983cfefac601157e39d0d14b", "fusion_lat": 0.0, "lon": -77.00197683333333, "type": "electric_scooter", "fusion_lon": 0.0, "lat": 38.90241266666666}, {"rental_uris": {"android": "https://dc.lft.to/lastmile_qr_scan", "ios": "https://dc.lft.to/lastmile_qr_scan"}, "is_reserved": 0, "is_disabled": 0, "name": "72b9739fcc7ea6058de0e584d0b34c4b", "bike_id": "72b9739fcc7ea6058de0e584d0b34c4b", "fusion_lat": 0.0, "lon": -77.02412133333333, "type": "electric_scooter", "fusion_lon": 0.0, "lat": 38.9336805}, {"rental_uris": {"android": "https://dc.lft.to/lastmile_qr_scan", "ios": "https://dc.lft.to/lastmile_qr_scan"}, "is_reserved": 0, "is_disabled": 0, "name": "2a6867f12dc5ac2fa58ece0a0308e8ed", "bike_id": "2a6867f12dc5ac2fa58ece0a0308e8ed", "fusion_lat": 0.0, "lon": -77.03204066666666, "type": "electric_scooter", "fusion_lon": 0.0, "lat": 38.90733133333333}, {"rental_uris": {"android": "https://dc.lft.to/lastmile_qr_scan", "ios": "https://dc.lft.to/lastmile_qr_scan"}, "is_reserved": 0, "is_disabled": 0, "name": "b6e8052c1d728342c29c8b82f316ff59", "bike_id": "b6e8052c1d728342c29c8b82f316ff59", "fusion_lat": 0.0, "lon": -77.0481585, "type": "electric_scooter", "fusion_lon": 0.0, "lat": 38.9004725}, {"rental_uris": {"android": "https://dc.lft.to/lastmile_qr_scan", "ios": "https://dc.lft.to/lastmile_qr_scan"}, "is_reserved": 0, "is_disabled": 0, "name": "0674738d7464e9073e9ca2439fb77312", "bike_id": "0674738d7464e9073e9ca2439fb77312", "fusion_lat": 0.0, "lon": -76.97969416666666, "type": "electric_bike", "fusion_lon": 0.0, "lat": 38.920475333333336}, {"rental_uris": {"android": "https://dc.lft.to/lastmile_qr_scan", "ios": "https://dc.lft.to/lastmile_qr_scan"}, "is_reserved": 0, "is_disabled": 0, "name": "5f7c57e65d72270ae44b29b2bec21ea6", "bike_id": "5f7c57e65d72270ae44b29b2bec21ea6", "fusion_lat": 0.0, "lon": -77.034372, "type": "electric_scooter", "fusion_lon": 0.0, "lat": 38.90639683333333}, {"rental_uris": {"android": "https://dc.lft.to/lastmile_qr_scan", "ios": "https://dc.lft.to/lastmile_qr_scan"}, "is_reserved": 0, "is_disabled": 0, "name": "a5cdbe2768093f7d28ff2139407bbbca", "bike_id": "a5cdbe2768093f7d28ff2139407bbbca", "fusion_lat": 0.0, "lon": -77.028755, "type": "electric_scooter", "fusion_lon": 0.0, "lat": 38.931603833333334}, {"rental_uris": {"android": "https://dc.lft.to/lastmile_qr_scan", "ios": "https://dc.lft.to/lastmile_qr_scan"}, "is_reserved": 0, "is_disabled": 0, "name": "0364807c0f6d7dfdebbbf6f48703accd", "bike_id": "0364807c0f6d7dfdebbbf6f48703accd", "fusion_lat": 0.0, "lon": -77.018076, "type": "electric_scooter", "fusion_lon": 0.0, "lat": 38.92146483333333}, {"rental_uris": {"android": "https://dc.lft.to/lastmile_qr_scan", "ios": "https://dc.lft.to/lastmile_qr_scan"}, "is_reserved": 0, "is_disabled": 0, "name": "741b8ddfc576f50a09d2bd039aaf2498", "bike_id": "741b8ddfc576f50a09d2bd039aaf2498", "fusion_lat": 0.0, "lon": -77.02782783333333, "type": "electric_scooter", "fusion_lon": 0.0, "lat": 38.92765333333333}, {"rental_uris": {"android": "https://dc.lft.to/lastmile_qr_scan", "ios": "https://dc.lft.to/lastmile_qr_scan"}, "is_reserved": 0, "is_disabled": 0, "name": "ac225982da6c1a7895aa73ed3a3c5991", "bike_id": "ac225982da6c1a7895aa73ed3a3c5991", "fusion_lat": 0.0, "lon": -77.04006033333333, "type": "electric_scooter", "fusion_lon": 0.0, "lat": 38.9099985}, {"rental_uris": {"android": "https://dc.lft.to/lastmile_qr_scan", "ios": "https://dc.lft.to/lastmile_qr_scan"}, "is_reserved": 0, "is_disabled": 0, "name": "b2f6cd8a29567347518810fa5bce593b", "bike_id": "b2f6cd8a29567347518810fa5bce593b", "fusion_lat": 0.0, "lon": -77.02317, "type": "electric_scooter", "fusion_lon": 0.0, "lat": 38.957362333333336}, {"rental_uris": {"android": "https://dc.lft.to/lastmile_qr_scan", "ios": "https://dc.lft.to/lastmile_qr_scan"}, "is_reserved": 0, "is_disabled": 0, "name": "4d9c892ac2f4da5ea2a0ad2155cdf2dc", "bike_id": "4d9c892ac2f4da5ea2a0ad2155cdf2dc", "fusion_lat": 0.0, "lon": -77.0459125, "type": "electric_scooter", "fusion_lon": 0.0, "lat": 38.91373033333333}, {"rental_uris": {"android": "https://dc.lft.to/lastmile_qr_scan", "ios": "https://dc.lft.to/lastmile_qr_scan"}, "is_reserved": 0, "is_disabled": 0, "name": "4c5fd4229e0a5c2f9cfcfde741ece0c5", "bike_id": "4c5fd4229e0a5c2f9cfcfde741ece0c5", "fusion_lat": 0.0, "lon": -77.0398785, "type": "electric_scooter", "fusion_lon": 0.0, "lat": 38.93396516666667}, {"rental_uris": {"android": "https://dc.lft.to/lastmile_qr_scan", "ios": "https://dc.lft.to/lastmile_qr_scan"}, "is_reserved": 0, "is_disabled": 0, "name": "907dd140a0bbb2f98e6f595991ffe965", "bike_id": "907dd140a0bbb2f98e6f595991ffe965", "fusion_lat": 0.0, "lon": -76.98059433333333, "type": "electric_bike", "fusion_lon": 0.0, "lat": 38.972521}, {"rental_uris": {"android": "https://dc.lft.to/lastmile_qr_scan", "ios": "https://dc.lft.to/lastmile_qr_scan"}, "is_reserved": 0, "is_disabled": 0, "name": "ca9637900a9767204dfd3eddb646f8ab", "bike_id": "ca9637900a9767204dfd3eddb646f8ab", "fusion_lat": 0.0, "lon": -77.002132, "type": "electric_scooter", "fusion_lon": 0.0, "lat": 38.900249}, {"rental_uris": {"android": "https://dc.lft.to/lastmile_qr_scan", "ios": "https://dc.lft.to/lastmile_qr_scan"}, "is_reserved": 0, "is_disabled": 0, "name": "0b3a69113c54c3938b7232147f29c404", "bike_id": "0b3a69113c54c3938b7232147f29c404", "fusion_lat": 0.0, "lon": -77.032952, "type": "electric_scooter", "fusion_lon": 0.0, "lat": 38.92746916666667}, {"rental_uris": {"android": "https://dc.lft.to/lastmile_qr_scan", "ios": "https://dc.lft.to/lastmile_qr_scan"}, "is_reserved": 0, "is_disabled": 0, "name": "4468c29135463706e9796d93127e776c", "bike_id": "4468c29135463706e9796d93127e776c", "fusion_lat": 0.0, "lon": -77.02095116666666, "type": "electric_scooter", "fusion_lon": 0.0, "lat": 38.885037}, {"rental_uris": {"android": "https://dc.lft.to/lastmile_qr_scan", "ios": "https://dc.lft.to/lastmile_qr_scan"}, "is_reserved": 0, "is_disabled": 0, "name": "d7f50949a8eea7b58e477a73ecd6a16e", "bike_id": "d7f50949a8eea7b58e477a73ecd6a16e", "fusion_lat": 0.0, "lon": -77.04339166666666, "type": "electric_scooter", "fusion_lon": 0.0, "lat": 38.923223666666665}, {"rental_uris": {"android": "https://dc.lft.to/lastmile_qr_scan", "ios": "https://dc.lft.to/lastmile_qr_scan"}, "is_reserved": 0, "is_disabled": 0, "name": "7f260e8e5ad971151b8dd1ff2f056c25", "bike_id": "7f260e8e5ad971151b8dd1ff2f056c25", "fusion_lat": 0.0, "lon": -77.04064866666667, "type": "electric_scooter", "fusion_lon": 0.0, "lat": 38.9095725}, {"rental_uris": {"android": "https://dc.lft.to/lastmile_qr_scan", "ios": "https://dc.lft.to/lastmile_qr_scan"}, "is_reserved": 0, "is_disabled": 0, "name": "79aeab281b2f1ccc8f15c1005dff6125", "bike_id": "79aeab281b2f1ccc8f15c1005dff6125", "fusion_lat": 0.0, "lon": -77.02966533333333, "type": "electric_scooter", "fusion_lon": 0.0, "lat": 38.90487516666666}, {"rental_uris": {"android": "https://dc.lft.to/lastmile_qr_scan", "ios": "https://dc.lft.to/lastmile_qr_scan"}, "is_reserved": 0, "is_disabled": 0, "name": "264e7d58aaef131ca45995feb0709160", "bike_id": "264e7d58aaef131ca45995feb0709160", "fusion_lat": 0.0, "lon": -76.9833605, "type": "electric_scooter", "fusion_lon": 0.0, "lat": 38.89546716666667}, {"rental_uris": {"android": "https://dc.lft.to/lastmile_qr_scan", "ios": "https://dc.lft.to/lastmile_qr_scan"}, "is_reserved": 0, "is_disabled": 0, "name": "4a38985205ea2918dcc860da9d0483ee", "bike_id": "4a38985205ea2918dcc860da9d0483ee", "fusion_lat": 0.0, "lon": -77.0502525, "type": "electric_scooter", "fusion_lon": 0.0, "lat": 38.9040755}, {"rental_uris": {"android": "https://dc.lft.to/lastmile_qr_scan", "ios": "https://dc.lft.to/lastmile_qr_scan"}, "is_reserved": 0, "is_disabled": 0, "name": "3fe5941728fd9e181ba133faaf545dd7", "bike_id": "3fe5941728fd9e181ba133faaf545dd7", "fusion_lat": 0.0, "lon": -77.0215365, "type": "electric_scooter", "fusion_lon": 0.0, "lat": 38.924599666666666}, {"rental_uris": {"android": "https://dc.lft.to/lastmile_qr_scan", "ios": "https://dc.lft.to/lastmile_qr_scan"}, "is_reserved": 0, "is_disabled": 0, "name": "3d15fffda6a326356a0f3cb3a21cf066", "bike_id": "3d15fffda6a326356a0f3cb3a21cf066", "fusion_lat": 0.0, "lon": -77.01574633333334, "type": "electric_scooter", "fusion_lon": 0.0, "lat": 38.9168605}, {"rental_uris": {"android": "https://dc.lft.to/lastmile_qr_scan", "ios": "https://dc.lft.to/lastmile_qr_scan"}, "is_reserved": 0, "is_disabled": 0, "name": "81ecc6266f07b3f7833f0c3bf79c9e18", "bike_id": "81ecc6266f07b3f7833f0c3bf79c9e18", "fusion_lat": 0.0, "lon": -77.00886166666666, "type": "electric_bike", "fusion_lon": 0.0, "lat": 38.92151066666667}, {"rental_uris": {"android": "https://dc.lft.to/lastmile_qr_scan", "ios": "https://dc.lft.to/lastmile_qr_scan"}, "is_reserved": 0, "is_disabled": 0, "name": "3d4a1185aed4c64d192649e1629652ed", "bike_id": "3d4a1185aed4c64d192649e1629652ed", "fusion_lat": 0.0, "lon": -77.00740833333333, "type": "electric_scooter", "fusion_lon": 0.0, "lat": 38.8711125}, {"rental_uris": {"android": "https://dc.lft.to/lastmile_qr_scan", "ios": "https://dc.lft.to/lastmile_qr_scan"}, "is_reserved": 0, "is_disabled": 0, "name": "60b48604e2a350a10816929ee07ec243", "bike_id": "60b48604e2a350a10816929ee07ec243", "fusion_lat": 0.0, "lon": -77.028027, "type": "electric_scooter", "fusion_lon": 0.0, "lat": 38.90764516666667}, {"rental_uris": {"android": "https://dc.lft.to/lastmile_qr_scan", "ios": "https://dc.lft.to/lastmile_qr_scan"}, "is_reserved": 0, "is_disabled": 0, "name": "9397f1940aabff7e22aba97f49021399", "bike_id": "9397f1940aabff7e22aba97f49021399", "fusion_lat": 0.0, "lon": -77.03186583333333, "type": "electric_scooter", "fusion_lon": 0.0, "lat": 38.916070500000004}, {"rental_uris": {"android": "https://dc.lft.to/lastmile_qr_scan", "ios": "https://dc.lft.to/lastmile_qr_scan"}, "is_reserved": 0, "is_disabled": 0, "name": "83eee3cc5f678676e3abef17237c5f88", "bike_id": "83eee3cc5f678676e3abef17237c5f88", "fusion_lat": 0.0, "lon": -77.06715083333333, "type": "electric_scooter", "fusion_lon": 0.0, "lat": 38.950066166666666}, {"rental_uris": {"android": "https://dc.lft.to/lastmile_qr_scan", "ios": "https://dc.lft.to/lastmile_qr_scan"}, "is_reserved": 0, "is_disabled": 0, "name": "789dc4476e0acc5c8abe518c2a5e7aa1", "bike_id": "789dc4476e0acc5c8abe518c2a5e7aa1", "fusion_lat": 0.0, "lon": -77.114137, "type": "electric_bike", "fusion_lon": 0.0, "lat": 38.873172833333335}, {"rental_uris": {"android": "https://dc.lft.to/lastmile_qr_scan", "ios": "https://dc.lft.to/lastmile_qr_scan"}, "is_reserved": 0, "is_disabled": 0, "name": "cfd3b16e17852bf0d11b772257ae6e09", "bike_id": "cfd3b16e17852bf0d11b772257ae6e09", "fusion_lat": 0.0, "lon": -76.99876666666667, "type": "electric_scooter", "fusion_lon": 0.0, "lat": 38.9075425}, {"rental_uris": {"android": "https://dc.lft.to/lastmile_qr_scan", "ios": "https://dc.lft.to/lastmile_qr_scan"}, "is_reserved": 0, "is_disabled": 0, "name": "5cb20cd22880206a90037431d881850d", "bike_id": "5cb20cd22880206a90037431d881850d", "fusion_lat": 0.0, "lon": -77.044987, "type": "electric_scooter", "fusion_lon": 0.0, "lat": 38.89225966666667}, {"rental_uris": {"android": "https://dc.lft.to/lastmile_qr_scan", "ios": "https://dc.lft.to/lastmile_qr_scan"}, "is_reserved": 0, "is_disabled": 0, "name": "df7c2f42041e96093207f9eae9b15e7a", "bike_id": "df7c2f42041e96093207f9eae9b15e7a", "fusion_lat": 0.0, "lon": -77.03481666666667, "type": "electric_scooter", "fusion_lon": 0.0, "lat": 38.915628833333336}, {"rental_uris": {"android": "https://dc.lft.to/lastmile_qr_scan", "ios": "https://dc.lft.to/lastmile_qr_scan"}, "is_reserved": 0, "is_disabled": 0, "name": "c810d03c20edeea222c4c1a47ac47058", "bike_id": "c810d03c20edeea222c4c1a47ac47058", "fusion_lat": 0.0, "lon": -77.03232616666666, "type": "electric_scooter", "fusion_lon": 0.0, "lat": 38.91807433333334}, {"rental_uris": {"android": "https://dc.lft.to/lastmile_qr_scan", "ios": "https://dc.lft.to/lastmile_qr_scan"}, "is_reserved": 0, "is_disabled": 0, "name": "745a3648b9cab05254a351f29efbd7d6", "bike_id": "745a3648b9cab05254a351f29efbd7d6", "fusion_lat": 0.0, "lon": -77.03793733333333, "type": "electric_scooter", "fusion_lon": 0.0, "lat": 38.93317}, {"rental_uris": {"android": "https://dc.lft.to/lastmile_qr_scan", "ios": "https://dc.lft.to/lastmile_qr_scan"}, "is_reserved": 0, "is_disabled": 0, "name": "dc042e78d5e7c6f1e76b500226312d8e", "bike_id": "dc042e78d5e7c6f1e76b500226312d8e", "fusion_lat": 0.0, "lon": -77.03301833333333, "type": "electric_scooter", "fusion_lon": 0.0, "lat": 38.92645233333333}, {"rental_uris": {"android": "https://dc.lft.to/lastmile_qr_scan", "ios": "https://dc.lft.to/lastmile_qr_scan"}, "is_reserved": 0, "is_disabled": 0, "name": "e409f6579caecf17a33526c537ca1b21", "bike_id": "e409f6579caecf17a33526c537ca1b21", "fusion_lat": 0.0, "lon": -77.031844, "type": "electric_scooter", "fusion_lon": 0.0, "lat": 38.91651233333333}, {"rental_uris": {"android": "https://dc.lft.to/lastmile_qr_scan", "ios": "https://dc.lft.to/lastmile_qr_scan"}, "is_reserved": 0, "is_disabled": 0, "name": "2c52ac624318b307b713875b3d3dfee7", "bike_id": "2c52ac624318b307b713875b3d3dfee7", "fusion_lat": 0.0, "lon": -77.071526, "type": "electric_scooter", "fusion_lon": 0.0, "lat": 38.905954333333334}, {"rental_uris": {"android": "https://dc.lft.to/lastmile_qr_scan", "ios": "https://dc.lft.to/lastmile_qr_scan"}, "is_reserved": 0, "is_disabled": 0, "name": "49dd049c6e3027dd568c5244f5bb04c7", "bike_id": "49dd049c6e3027dd568c5244f5bb04c7", "fusion_lat": 0.0, "lon": -76.94661416666666, "type": "electric_scooter", "fusion_lon": 0.0, "lat": 38.89867016666667}, {"rental_uris": {"android": "https://dc.lft.to/lastmile_qr_scan", "ios": "https://dc.lft.to/lastmile_qr_scan"}, "is_reserved": 0, "is_disabled": 0, "name": "04c6a3c6f4712cde0427e6945d3bda1f", "bike_id": "04c6a3c6f4712cde0427e6945d3bda1f", "fusion_lat": 0.0, "lon": -77.02196716666667, "type": "electric_scooter", "fusion_lon": 0.0, "lat": 38.911264833333334}, {"rental_uris": {"android": "https://dc.lft.to/lastmile_qr_scan", "ios": "https://dc.lft.to/lastmile_qr_scan"}, "is_reserved": 0, "is_disabled": 0, "name": "e53e9277fc85930f2f268b24716fd1c1", "bike_id": "e53e9277fc85930f2f268b24716fd1c1", "fusion_lat": 0.0, "lon": -77.03071783333333, "type": "electric_scooter", "fusion_lon": 0.0, "lat": 38.9224855}, {"rental_uris": {"android": "https://dc.lft.to/lastmile_qr_scan", "ios": "https://dc.lft.to/lastmile_qr_scan"}, "is_reserved": 0, "is_disabled": 0, "name": "651a456ed4efbceca51849874f226f3f", "bike_id": "651a456ed4efbceca51849874f226f3f", "fusion_lat": 0.0, "lon": -77.05004766666667, "type": "electric_scooter", "fusion_lon": 0.0, "lat": 38.89230083333333}, {"rental_uris": {"android": "https://dc.lft.to/lastmile_qr_scan", "ios": "https://dc.lft.to/lastmile_qr_scan"}, "is_reserved": 0, "is_disabled": 0, "name": "ea5cff0b538b7213c3a16911b23a7147", "bike_id": "ea5cff0b538b7213c3a16911b23a7147", "fusion_lat": 0.0, "lon": -77.05271583333334, "type": "electric_scooter", "fusion_lon": 0.0, "lat": 38.9016295}, {"rental_uris": {"android": "https://dc.lft.to/lastmile_qr_scan", "ios": "https://dc.lft.to/lastmile_qr_scan"}, "is_reserved": 0, "is_disabled": 0, "name": "0974cb65b52f4ea50bd39e286df137e4", "bike_id": "0974cb65b52f4ea50bd39e286df137e4", "fusion_lat": 0.0, "lon": -77.02640366666667, "type": "electric_scooter", "fusion_lon": 0.0, "lat": 38.923808333333334}, {"rental_uris": {"android": "https://dc.lft.to/lastmile_qr_scan", "ios": "https://dc.lft.to/lastmile_qr_scan"}, "is_reserved": 0, "is_disabled": 0, "name": "946a00835e3d481418d7e25b7ab1a109", "bike_id": "946a00835e3d481418d7e25b7ab1a109", "fusion_lat": 0.0, "lon": -76.99108833333334, "type": "electric_scooter", "fusion_lon": 0.0, "lat": 38.909009833333336}, {"rental_uris": {"android": "https://dc.lft.to/lastmile_qr_scan", "ios": "https://dc.lft.to/lastmile_qr_scan"}, "is_reserved": 0, "is_disabled": 0, "name": "4042385d31bef8f8ec93138d2e9396e1", "bike_id": "4042385d31bef8f8ec93138d2e9396e1", "fusion_lat": 0.0, "lon": -77.04491183333333, "type": "electric_scooter", "fusion_lon": 0.0, "lat": 38.91192266666667}, {"rental_uris": {"android": "https://dc.lft.to/lastmile_qr_scan", "ios": "https://dc.lft.to/lastmile_qr_scan"}, "is_reserved": 0, "is_disabled": 0, "name": "d384b00422fa39c0470a1a354deb1f2a", "bike_id": "d384b00422fa39c0470a1a354deb1f2a", "fusion_lat": 0.0, "lon": -77.04635016666667, "type": "electric_scooter", "fusion_lon": 0.0, "lat": 38.90455566666667}, {"rental_uris": {"android": "https://dc.lft.to/lastmile_qr_scan", "ios": "https://dc.lft.to/lastmile_qr_scan"}, "is_reserved": 0, "is_disabled": 0, "name": "ab2df9b85fee2609fa5904ceb34ecfd7", "bike_id": "ab2df9b85fee2609fa5904ceb34ecfd7", "fusion_lat": 0.0, "lon": -77.03085616666667, "type": "electric_scooter", "fusion_lon": 0.0, "lat": 38.89988183333333}, {"rental_uris": {"android": "https://dc.lft.to/lastmile_qr_scan", "ios": "https://dc.lft.to/lastmile_qr_scan"}, "is_reserved": 0, "is_disabled": 0, "name": "c6d20687a1286783110f96d3ba07ca46", "bike_id": "c6d20687a1286783110f96d3ba07ca46", "fusion_lat": 0.0, "lon": -77.01884716666666, "type": "electric_scooter", "fusion_lon": 0.0, "lat": 38.9148445}, {"rental_uris": {"android": "https://dc.lft.to/lastmile_qr_scan", "ios": "https://dc.lft.to/lastmile_qr_scan"}, "is_reserved": 0, "is_disabled": 0, "name": "de52693070f47583379564b39be599d1", "bike_id": "de52693070f47583379564b39be599d1", "fusion_lat": 0.0, "lon": -77.02717816666667, "type": "electric_scooter", "fusion_lon": 0.0, "lat": 38.949543166666665}, {"rental_uris": {"android": "https://dc.lft.to/lastmile_qr_scan", "ios": "https://dc.lft.to/lastmile_qr_scan"}, "is_reserved": 0, "is_disabled": 0, "name": "4afc97c0e5d8a14b3a7fe1ce2f9c1c27", "bike_id": "4afc97c0e5d8a14b3a7fe1ce2f9c1c27", "fusion_lat": 0.0, "lon": -77.03845016666666, "type": "electric_scooter", "fusion_lon": 0.0, "lat": 38.9099445}, {"rental_uris": {"android": "https://dc.lft.to/lastmile_qr_scan", "ios": "https://dc.lft.to/lastmile_qr_scan"}, "is_reserved": 0, "is_disabled": 0, "name": "1092179f7d144625fa1703e1f0e4dbfa", "bike_id": "1092179f7d144625fa1703e1f0e4dbfa", "fusion_lat": 0.0, "lon": -77.042312, "type": "electric_scooter", "fusion_lon": 0.0, "lat": 38.92150133333333}, {"rental_uris": {"android": "https://dc.lft.to/lastmile_qr_scan", "ios": "https://dc.lft.to/lastmile_qr_scan"}, "is_reserved": 0, "is_disabled": 0, "name": "ee8a887718e438f98b43d46f87c9d0a1", "bike_id": "ee8a887718e438f98b43d46f87c9d0a1", "fusion_lat": 0.0, "lon": -76.94713016666667, "type": "electric_scooter", "fusion_lon": 0.0, "lat": 38.890811166666666}, {"rental_uris": {"android": "https://dc.lft.to/lastmile_qr_scan", "ios": "https://dc.lft.to/lastmile_qr_scan"}, "is_reserved": 0, "is_disabled": 0, "name": "e3841df23a980e82f31dd28db951642c", "bike_id": "e3841df23a980e82f31dd28db951642c", "fusion_lat": 0.0, "lon": -77.0196945, "type": "electric_scooter", "fusion_lon": 0.0, "lat": 38.91300016666667}, {"rental_uris": {"android": "https://dc.lft.to/lastmile_qr_scan", "ios": "https://dc.lft.to/lastmile_qr_scan"}, "is_reserved": 0, "is_disabled": 0, "name": "16bd5b4cfb1450d514e2af833cbedf65", "bike_id": "16bd5b4cfb1450d514e2af833cbedf65", "fusion_lat": 0.0, "lon": -77.04514116666667, "type": "electric_scooter", "fusion_lon": 0.0, "lat": 38.912847666666664}, {"rental_uris": {"android": "https://dc.lft.to/lastmile_qr_scan", "ios": "https://dc.lft.to/lastmile_qr_scan"}, "is_reserved": 0, "is_disabled": 0, "name": "325c8c00e89ba9f09e77358f12683f03", "bike_id": "325c8c00e89ba9f09e77358f12683f03", "fusion_lat": 0.0, "lon": -77.08963266666666, "type": "electric_bike", "fusion_lon": 0.0, "lat": 38.84111466666667}, {"rental_uris": {"android": "https://dc.lft.to/lastmile_qr_scan", "ios": "https://dc.lft.to/lastmile_qr_scan"}, "is_reserved": 0, "is_disabled": 0, "name": "5ac5c3c780f711a18d30137f60235ae5", "bike_id": "5ac5c3c780f711a18d30137f60235ae5", "fusion_lat": 0.0, "lon": -76.95738366666667, "type": "electric_bike", "fusion_lon": 0.0, "lat": 38.888570333333334}, {"rental_uris": {"android": "https://dc.lft.to/lastmile_qr_scan", "ios": "https://dc.lft.to/lastmile_qr_scan"}, "is_reserved": 0, "is_disabled": 0, "name": "f20757d8f5c233386a59953be21c77d6", "bike_id": "f20757d8f5c233386a59953be21c77d6", "fusion_lat": 0.0, "lon": -77.02801766666667, "type": "electric_scooter", "fusion_lon": 0.0, "lat": 38.91100316666667}, {"rental_uris": {"android": "https://dc.lft.to/lastmile_qr_scan", "ios": "https://dc.lft.to/lastmile_qr_scan"}, "is_reserved": 0, "is_disabled": 0, "name": "87a2b975b8539e28f40bc760ef34a2f6", "bike_id": "87a2b975b8539e28f40bc760ef34a2f6", "fusion_lat": 0.0, "lon": -76.98352766666666, "type": "electric_scooter", "fusion_lon": 0.0, "lat": 38.887336833333336}, {"rental_uris": {"android": "https://dc.lft.to/lastmile_qr_scan", "ios": "https://dc.lft.to/lastmile_qr_scan"}, "is_reserved": 0, "is_disabled": 0, "name": "40d31724721d3a60081e61144c126f53", "bike_id": "40d31724721d3a60081e61144c126f53", "fusion_lat": 0.0, "lon": -77.04612583333333, "type": "electric_scooter", "fusion_lon": 0.0, "lat": 38.922272666666665}, {"rental_uris": {"android": "https://dc.lft.to/lastmile_qr_scan", "ios": "https://dc.lft.to/lastmile_qr_scan"}, "is_reserved": 0, "is_disabled": 0, "name": "220441e893b50c9f4b0224d566be5964", "bike_id": "220441e893b50c9f4b0224d566be5964", "fusion_lat": 0.0, "lon": -77.0294615, "type": "electric_scooter", "fusion_lon": 0.0, "lat": 38.906575}, {"rental_uris": {"android": "https://dc.lft.to/lastmile_qr_scan", "ios": "https://dc.lft.to/lastmile_qr_scan"}, "is_reserved": 0, "is_disabled": 0, "name": "8d5cb36ab2412ba6ded4b8a7b3809283", "bike_id": "8d5cb36ab2412ba6ded4b8a7b3809283", "fusion_lat": 0.0, "lon": -77.00200583333333, "type": "electric_bike", "fusion_lon": 0.0, "lat": 38.91122083333333}, {"rental_uris": {"android": "https://dc.lft.to/lastmile_qr_scan", "ios": "https://dc.lft.to/lastmile_qr_scan"}, "is_reserved": 0, "is_disabled": 0, "name": "5d61bc8a8d33a683ff379e278326ea8b", "bike_id": "5d61bc8a8d33a683ff379e278326ea8b", "fusion_lat": 0.0, "lon": -77.05119766666667, "type": "electric_scooter", "fusion_lon": 0.0, "lat": 38.923452166666664}, {"rental_uris": {"android": "https://dc.lft.to/lastmile_qr_scan", "ios": "https://dc.lft.to/lastmile_qr_scan"}, "is_reserved": 0, "is_disabled": 0, "name": "25acf34b17fc4600ba7698e4bc3f7049", "bike_id": "25acf34b17fc4600ba7698e4bc3f7049", "fusion_lat": 0.0, "lon": -76.99836433333333, "type": "electric_bike", "fusion_lon": 0.0, "lat": 38.88390233333333}, {"rental_uris": {"android": "https://dc.lft.to/lastmile_qr_scan", "ios": "https://dc.lft.to/lastmile_qr_scan"}, "is_reserved": 0, "is_disabled": 0, "name": "87b65282d67a81799c1d457d4a91e317", "bike_id": "87b65282d67a81799c1d457d4a91e317", "fusion_lat": 0.0, "lon": -77.04462683333334, "type": "electric_scooter", "fusion_lon": 0.0, "lat": 38.90247516666667}, {"rental_uris": {"android": "https://dc.lft.to/lastmile_qr_scan", "ios": "https://dc.lft.to/lastmile_qr_scan"}, "is_reserved": 0, "is_disabled": 0, "name": "819dc5069b2128e440d7aecc8487964f", "bike_id": "819dc5069b2128e440d7aecc8487964f", "fusion_lat": 0.0, "lon": -77.00900083333333, "type": "electric_scooter", "fusion_lon": 0.0, "lat": 38.90039866666667}, {"rental_uris": {"android": "https://dc.lft.to/lastmile_qr_scan", "ios": "https://dc.lft.to/lastmile_qr_scan"}, "is_reserved": 0, "is_disabled": 0, "name": "94bed6c316abde6dc873110abc7b5ad3", "bike_id": "94bed6c316abde6dc873110abc7b5ad3", "fusion_lat": 0.0, "lon": -77.05361783333333, "type": "electric_bike", "fusion_lon": 0.0, "lat": 38.820392166666664}, {"rental_uris": {"android": "https://dc.lft.to/lastmile_qr_scan", "ios": "https://dc.lft.to/lastmile_qr_scan"}, "is_reserved": 0, "is_disabled": 0, "name": "2e8dd29ac20df915c95d4bd9a5bdc469", "bike_id": "2e8dd29ac20df915c95d4bd9a5bdc469", "fusion_lat": 0.0, "lon": -76.9986935, "type": "electric_scooter", "fusion_lon": 0.0, "lat": 38.900295666666665}, {"rental_uris": {"android": "https://dc.lft.to/lastmile_qr_scan", "ios": "https://dc.lft.to/lastmile_qr_scan"}, "is_reserved": 0, "is_disabled": 0, "name": "5aa70bfde3287fa2025c23e1bb3fcc4b", "bike_id": "5aa70bfde3287fa2025c23e1bb3fcc4b", "fusion_lat": 0.0, "lon": -76.93756266666666, "type": "electric_scooter", "fusion_lon": 0.0, "lat": 38.87861183333333}, {"rental_uris": {"android": "https://dc.lft.to/lastmile_qr_scan", "ios": "https://dc.lft.to/lastmile_qr_scan"}, "is_reserved": 0, "is_disabled": 0, "name": "62453f9f8d030efdca75eb148a8ef2b9", "bike_id": "62453f9f8d030efdca75eb148a8ef2b9", "fusion_lat": 0.0, "lon": -77.0288745, "type": "electric_bike", "fusion_lon": 0.0, "lat": 38.9212045}, {"rental_uris": {"android": "https://dc.lft.to/lastmile_qr_scan", "ios": "https://dc.lft.to/lastmile_qr_scan"}, "is_reserved": 0, "is_disabled": 0, "name": "a00e4ce20b7945beef973310b438eb88", "bike_id": "a00e4ce20b7945beef973310b438eb88", "fusion_lat": 0.0, "lon": -76.99338416666667, "type": "electric_scooter", "fusion_lon": 0.0, "lat": 38.881237}, {"rental_uris": {"android": "https://dc.lft.to/lastmile_qr_scan", "ios": "https://dc.lft.to/lastmile_qr_scan"}, "is_reserved": 0, "is_disabled": 0, "name": "2f8c093a6ecd8247bb632c7fe128031d", "bike_id": "2f8c093a6ecd8247bb632c7fe128031d", "fusion_lat": 0.0, "lon": -77.02791583333334, "type": "electric_scooter", "fusion_lon": 0.0, "lat": 38.954077}, {"rental_uris": {"android": "https://dc.lft.to/lastmile_qr_scan", "ios": "https://dc.lft.to/lastmile_qr_scan"}, "is_reserved": 0, "is_disabled": 0, "name": "1a57d69ba13ff4618d7c9c62678e563b", "bike_id": "1a57d69ba13ff4618d7c9c62678e563b", "fusion_lat": 0.0, "lon": -77.0289135, "type": "electric_scooter", "fusion_lon": 0.0, "lat": 38.914019}, {"rental_uris": {"android": "https://dc.lft.to/lastmile_qr_scan", "ios": "https://dc.lft.to/lastmile_qr_scan"}, "is_reserved": 0, "is_disabled": 0, "name": "4da9abc9ade063945ba7a0a96ace020c", "bike_id": "4da9abc9ade063945ba7a0a96ace020c", "fusion_lat": 0.0, "lon": -77.00762416666667, "type": "electric_bike", "fusion_lon": 0.0, "lat": 38.99781983333333}, {"rental_uris": {"android": "https://dc.lft.to/lastmile_qr_scan", "ios": "https://dc.lft.to/lastmile_qr_scan"}, "is_reserved": 0, "is_disabled": 0, "name": "f9315a83641897a9fed73e3979525883", "bike_id": "f9315a83641897a9fed73e3979525883", "fusion_lat": 0.0, "lon": -76.9454925, "type": "electric_bike", "fusion_lon": 0.0, "lat": 38.982887166666664}, {"rental_uris": {"android": "https://dc.lft.to/lastmile_qr_scan", "ios": "https://dc.lft.to/lastmile_qr_scan"}, "is_reserved": 0, "is_disabled": 0, "name": "2ab9dce00bcf21a3392ad60ae2a766a9", "bike_id": "2ab9dce00bcf21a3392ad60ae2a766a9", "fusion_lat": 0.0, "lon": -77.02850783333334, "type": "electric_scooter", "fusion_lon": 0.0, "lat": 38.93308866666667}, {"rental_uris": {"android": "https://dc.lft.to/lastmile_qr_scan", "ios": "https://dc.lft.to/lastmile_qr_scan"}, "is_reserved": 0, "is_disabled": 0, "name": "0e50db3fba107a92af6297d8e94464c2", "bike_id": "0e50db3fba107a92af6297d8e94464c2", "fusion_lat": 0.0, "lon": -76.952446, "type": "electric_bike", "fusion_lon": 0.0, "lat": 38.884621}, {"rental_uris": {"android": "https://dc.lft.to/lastmile_qr_scan", "ios": "https://dc.lft.to/lastmile_qr_scan"}, "is_reserved": 0, "is_disabled": 0, "name": "827561be06e3fb68f24c2303c079a7ef", "bike_id": "827561be06e3fb68f24c2303c079a7ef", "fusion_lat": 0.0, "lon": -77.03053483333333, "type": "electric_scooter", "fusion_lon": 0.0, "lat": 38.900144}, {"rental_uris": {"android": "https://dc.lft.to/lastmile_qr_scan", "ios": "https://dc.lft.to/lastmile_qr_scan"}, "is_reserved": 0, "is_disabled": 0, "name": "a52e611b2aef94f45b7929a8324bc5ac", "bike_id": "a52e611b2aef94f45b7929a8324bc5ac", "fusion_lat": 0.0, "lon": -77.0370575, "type": "electric_scooter", "fusion_lon": 0.0, "lat": 38.9263615}, {"rental_uris": {"android": "https://dc.lft.to/lastmile_qr_scan", "ios": "https://dc.lft.to/lastmile_qr_scan"}, "is_reserved": 0, "is_disabled": 0, "name": "c59b75b0e890f77841ee25699fe1ce22", "bike_id": "c59b75b0e890f77841ee25699fe1ce22", "fusion_lat": 0.0, "lon": -77.0355395, "type": "electric_scooter", "fusion_lon": 0.0, "lat": 38.92488816666667}, {"rental_uris": {"android": "https://dc.lft.to/lastmile_qr_scan", "ios": "https://dc.lft.to/lastmile_qr_scan"}, "is_reserved": 0, "is_disabled": 0, "name": "cb6c2814d07cdd9d1f24872e985b3226", "bike_id": "cb6c2814d07cdd9d1f24872e985b3226", "fusion_lat": 0.0, "lon": -77.04742983333334, "type": "electric_scooter", "fusion_lon": 0.0, "lat": 38.9126425}, {"rental_uris": {"android": "https://dc.lft.to/lastmile_qr_scan", "ios": "https://dc.lft.to/lastmile_qr_scan"}, "is_reserved": 0, "is_disabled": 0, "name": "bf4da8b947cd1aabec02d085ff50d312", "bike_id": "bf4da8b947cd1aabec02d085ff50d312", "fusion_lat": 0.0, "lon": -76.94182266666667, "type": "electric_scooter", "fusion_lon": 0.0, "lat": 38.89755916666667}, {"rental_uris": {"android": "https://dc.lft.to/lastmile_qr_scan", "ios": "https://dc.lft.to/lastmile_qr_scan"}, "is_reserved": 0, "is_disabled": 0, "name": "9315286a1fc202571ce956930c95e528", "bike_id": "9315286a1fc202571ce956930c95e528", "fusion_lat": 0.0, "lon": -77.02065466666667, "type": "electric_bike", "fusion_lon": 0.0, "lat": 38.96439216666667}, {"rental_uris": {"android": "https://dc.lft.to/lastmile_qr_scan", "ios": "https://dc.lft.to/lastmile_qr_scan"}, "is_reserved": 0, "is_disabled": 0, "name": "99a0826c6dab440db1a4382f1614d8eb", "bike_id": "99a0826c6dab440db1a4382f1614d8eb", "fusion_lat": 0.0, "lon": -76.97816883333333, "type": "electric_scooter", "fusion_lon": 0.0, "lat": 38.893964}, {"rental_uris": {"android": "https://dc.lft.to/lastmile_qr_scan", "ios": "https://dc.lft.to/lastmile_qr_scan"}, "is_reserved": 0, "is_disabled": 0, "name": "66a2907d1ea4849a2bf323ead271c194", "bike_id": "66a2907d1ea4849a2bf323ead271c194", "fusion_lat": 0.0, "lon": -77.0487175, "type": "electric_scooter", "fusion_lon": 0.0, "lat": 38.89794883333333}, {"rental_uris": {"android": "https://dc.lft.to/lastmile_qr_scan", "ios": "https://dc.lft.to/lastmile_qr_scan"}, "is_reserved": 0, "is_disabled": 0, "name": "6e57cba05dc2e0fa961d27b2169cc133", "bike_id": "6e57cba05dc2e0fa961d27b2169cc133", "fusion_lat": 0.0, "lon": -77.00118866666666, "type": "electric_scooter", "fusion_lon": 0.0, "lat": 38.87610083333333}, {"rental_uris": {"android": "https://dc.lft.to/lastmile_qr_scan", "ios": "https://dc.lft.to/lastmile_qr_scan"}, "is_reserved": 0, "is_disabled": 0, "name": "fe6ca6004be85856e322e758ccd04062", "bike_id": "fe6ca6004be85856e322e758ccd04062", "fusion_lat": 0.0, "lon": -77.03393883333334, "type": "electric_scooter", "fusion_lon": 0.0, "lat": 38.91920233333333}, {"rental_uris": {"android": "https://dc.lft.to/lastmile_qr_scan", "ios": "https://dc.lft.to/lastmile_qr_scan"}, "is_reserved": 0, "is_disabled": 0, "name": "89e4a005762876e7da6aefaace726e2f", "bike_id": "89e4a005762876e7da6aefaace726e2f", "fusion_lat": 0.0, "lon": -77.04754816666667, "type": "electric_bike", "fusion_lon": 0.0, "lat": 38.91994283333333}, {"rental_uris": {"android": "https://dc.lft.to/lastmile_qr_scan", "ios": "https://dc.lft.to/lastmile_qr_scan"}, "is_reserved": 0, "is_disabled": 0, "name": "df3ccc0196ddf68ec853abe3d660cfc0", "bike_id": "df3ccc0196ddf68ec853abe3d660cfc0", "fusion_lat": 0.0, "lon": -77.07662616666667, "type": "electric_bike", "fusion_lon": 0.0, "lat": 38.80977083333333}, {"rental_uris": {"android": "https://dc.lft.to/lastmile_qr_scan", "ios": "https://dc.lft.to/lastmile_qr_scan"}, "is_reserved": 0, "is_disabled": 0, "name": "73bbac4bac5a30295de742ec6c428688", "bike_id": "73bbac4bac5a30295de742ec6c428688", "fusion_lat": 0.0, "lon": -77.0229595, "type": "electric_scooter", "fusion_lon": 0.0, "lat": 38.924155}, {"rental_uris": {"android": "https://dc.lft.to/lastmile_qr_scan", "ios": "https://dc.lft.to/lastmile_qr_scan"}, "is_reserved": 0, "is_disabled": 0, "name": "23e6eb0e572611c78edb45dba5d12f96", "bike_id": "23e6eb0e572611c78edb45dba5d12f96", "fusion_lat": 0.0, "lon": -77.00048566666666, "type": "electric_scooter", "fusion_lon": 0.0, "lat": 38.878774166666666}, {"rental_uris": {"android": "https://dc.lft.to/lastmile_qr_scan", "ios": "https://dc.lft.to/lastmile_qr_scan"}, "is_reserved": 0, "is_disabled": 0, "name": "99c66a6c170d3da01b2416b589807d82", "bike_id": "99c66a6c170d3da01b2416b589807d82", "fusion_lat": 0.0, "lon": -77.0337255, "type": "electric_scooter", "fusion_lon": 0.0, "lat": 38.90141466666667}, {"rental_uris": {"android": "https://dc.lft.to/lastmile_qr_scan", "ios": "https://dc.lft.to/lastmile_qr_scan"}, "is_reserved": 0, "is_disabled": 0, "name": "71ef6b1c14901c277e2d6b7b779a5e6c", "bike_id": "71ef6b1c14901c277e2d6b7b779a5e6c", "fusion_lat": 0.0, "lon": -77.02699433333333, "type": "electric_scooter", "fusion_lon": 0.0, "lat": 38.912664166666666}, {"rental_uris": {"android": "https://dc.lft.to/lastmile_qr_scan", "ios": "https://dc.lft.to/lastmile_qr_scan"}, "is_reserved": 0, "is_disabled": 0, "name": "52c474fd310cf99e779c697c34e2780b", "bike_id": "52c474fd310cf99e779c697c34e2780b", "fusion_lat": 0.0, "lon": -77.06823416666667, "type": "electric_bike", "fusion_lon": 0.0, "lat": 38.9510635}, {"rental_uris": {"android": "https://dc.lft.to/lastmile_qr_scan", "ios": "https://dc.lft.to/lastmile_qr_scan"}, "is_reserved": 0, "is_disabled": 0, "name": "89715a798c920b6954b29606e39507d6", "bike_id": "89715a798c920b6954b29606e39507d6", "fusion_lat": 0.0, "lon": -77.02176766666666, "type": "electric_scooter", "fusion_lon": 0.0, "lat": 38.9249225}, {"rental_uris": {"android": "https://dc.lft.to/lastmile_qr_scan", "ios": "https://dc.lft.to/lastmile_qr_scan"}, "is_reserved": 0, "is_disabled": 0, "name": "955abc36410481cf8b5cb95279d2ba23", "bike_id": "955abc36410481cf8b5cb95279d2ba23", "fusion_lat": 0.0, "lon": -77.02976566666666, "type": "electric_scooter", "fusion_lon": 0.0, "lat": 38.897484166666665}, {"rental_uris": {"android": "https://dc.lft.to/lastmile_qr_scan", "ios": "https://dc.lft.to/lastmile_qr_scan"}, "is_reserved": 0, "is_disabled": 0, "name": "59c94b4041c23bf41f00892669401885", "bike_id": "59c94b4041c23bf41f00892669401885", "fusion_lat": 0.0, "lon": -77.01660016666666, "type": "electric_scooter", "fusion_lon": 0.0, "lat": 38.88113583333333}, {"rental_uris": {"android": "https://dc.lft.to/lastmile_qr_scan", "ios": "https://dc.lft.to/lastmile_qr_scan"}, "is_reserved": 0, "is_disabled": 0, "name": "69d89e3edf50c98dc37e10880465d387", "bike_id": "69d89e3edf50c98dc37e10880465d387", "fusion_lat": 0.0, "lon": -77.0226795, "type": "electric_scooter", "fusion_lon": 0.0, "lat": 38.89973966666667}, {"rental_uris": {"android": "https://dc.lft.to/lastmile_qr_scan", "ios": "https://dc.lft.to/lastmile_qr_scan"}, "is_reserved": 0, "is_disabled": 0, "name": "57b3e46fd34f57f060e2b4429b8bce21", "bike_id": "57b3e46fd34f57f060e2b4429b8bce21", "fusion_lat": 0.0, "lon": -77.03444316666666, "type": "electric_scooter", "fusion_lon": 0.0, "lat": 38.91805183333334}, {"rental_uris": {"android": "https://dc.lft.to/lastmile_qr_scan", "ios": "https://dc.lft.to/lastmile_qr_scan"}, "is_reserved": 0, "is_disabled": 0, "name": "87b6fee544a551e80795024abff01714", "bike_id": "87b6fee544a551e80795024abff01714", "fusion_lat": 0.0, "lon": -76.96087716666666, "type": "electric_scooter", "fusion_lon": 0.0, "lat": 38.91859566666667}, {"rental_uris": {"android": "https://dc.lft.to/lastmile_qr_scan", "ios": "https://dc.lft.to/lastmile_qr_scan"}, "is_reserved": 0, "is_disabled": 0, "name": "cc82d9e17a94311b8b3acfa93215fd29", "bike_id": "cc82d9e17a94311b8b3acfa93215fd29", "fusion_lat": 0.0, "lon": -77.02280066666667, "type": "electric_scooter", "fusion_lon": 0.0, "lat": 38.9177635}, {"rental_uris": {"android": "https://dc.lft.to/lastmile_qr_scan", "ios": "https://dc.lft.to/lastmile_qr_scan"}, "is_reserved": 0, "is_disabled": 0, "name": "e342f5ba97e1954fb96451c0bf885220", "bike_id": "e342f5ba97e1954fb96451c0bf885220", "fusion_lat": 0.0, "lon": -77.04403733333334, "type": "electric_scooter", "fusion_lon": 0.0, "lat": 38.89591466666667}, {"rental_uris": {"android": "https://dc.lft.to/lastmile_qr_scan", "ios": "https://dc.lft.to/lastmile_qr_scan"}, "is_reserved": 0, "is_disabled": 0, "name": "2e28a269577baf050061ee78d6b49210", "bike_id": "2e28a269577baf050061ee78d6b49210", "fusion_lat": 0.0, "lon": -77.0945545, "type": "electric_bike", "fusion_lon": 0.0, "lat": 38.80755633333333}, {"rental_uris": {"android": "https://dc.lft.to/lastmile_qr_scan", "ios": "https://dc.lft.to/lastmile_qr_scan"}, "is_reserved": 0, "is_disabled": 0, "name": "b810ed23a32a06f7809a468827ed637f", "bike_id": "b810ed23a32a06f7809a468827ed637f", "fusion_lat": 0.0, "lon": -77.04862216666666, "type": "electric_scooter", "fusion_lon": 0.0, "lat": 38.91975983333333}, {"rental_uris": {"android": "https://dc.lft.to/lastmile_qr_scan", "ios": "https://dc.lft.to/lastmile_qr_scan"}, "is_reserved": 0, "is_disabled": 0, "name": "46b862e26e9e2c719b715d892502e2f7", "bike_id": "46b862e26e9e2c719b715d892502e2f7", "fusion_lat": 0.0, "lon": -77.021498, "type": "electric_scooter", "fusion_lon": 0.0, "lat": 38.927457833333335}, {"rental_uris": {"android": "https://dc.lft.to/lastmile_qr_scan", "ios": "https://dc.lft.to/lastmile_qr_scan"}, "is_reserved": 0, "is_disabled": 0, "name": "a3a66de88e706e8824968a67bbb31c12", "bike_id": "a3a66de88e706e8824968a67bbb31c12", "fusion_lat": 0.0, "lon": -77.07628633333333, "type": "electric_scooter", "fusion_lon": 0.0, "lat": 38.92522233333333}, {"rental_uris": {"android": "https://dc.lft.to/lastmile_qr_scan", "ios": "https://dc.lft.to/lastmile_qr_scan"}, "is_reserved": 0, "is_disabled": 0, "name": "c8e1ec6622f237947067d89babe0fb7b", "bike_id": "c8e1ec6622f237947067d89babe0fb7b", "fusion_lat": 0.0, "lon": -76.92920933333333, "type": "electric_scooter", "fusion_lon": 0.0, "lat": 38.8920835}, {"rental_uris": {"android": "https://dc.lft.to/lastmile_qr_scan", "ios": "https://dc.lft.to/lastmile_qr_scan"}, "is_reserved": 0, "is_disabled": 0, "name": "c95579e9e440674d6bbc36da7523356e", "bike_id": "c95579e9e440674d6bbc36da7523356e", "fusion_lat": 0.0, "lon": -77.051357, "type": "electric_scooter", "fusion_lon": 0.0, "lat": 38.90615583333334}, {"rental_uris": {"android": "https://dc.lft.to/lastmile_qr_scan", "ios": "https://dc.lft.to/lastmile_qr_scan"}, "is_reserved": 0, "is_disabled": 0, "name": "b07f9697838e5f37e00b2b62c03d5a00", "bike_id": "b07f9697838e5f37e00b2b62c03d5a00", "fusion_lat": 0.0, "lon": -77.00890533333333, "type": "electric_scooter", "fusion_lon": 0.0, "lat": 38.90971916666667}, {"rental_uris": {"android": "https://dc.lft.to/lastmile_qr_scan", "ios": "https://dc.lft.to/lastmile_qr_scan"}, "is_reserved": 0, "is_disabled": 0, "name": "b8d854772a0119e79a48e797d32e32f0", "bike_id": "b8d854772a0119e79a48e797d32e32f0", "fusion_lat": 0.0, "lon": -77.0629555, "type": "electric_scooter", "fusion_lon": 0.0, "lat": 38.9039815}, {"rental_uris": {"android": "https://dc.lft.to/lastmile_qr_scan", "ios": "https://dc.lft.to/lastmile_qr_scan"}, "is_reserved": 0, "is_disabled": 0, "name": "5a192b88796a32c36a315ad091db303b", "bike_id": "5a192b88796a32c36a315ad091db303b", "fusion_lat": 0.0, "lon": -77.044585, "type": "electric_scooter", "fusion_lon": 0.0, "lat": 38.92475233333333}, {"rental_uris": {"android": "https://dc.lft.to/lastmile_qr_scan", "ios": "https://dc.lft.to/lastmile_qr_scan"}, "is_reserved": 0, "is_disabled": 0, "name": "393f06e242143aeb00d94e5beb2ab7cc", "bike_id": "393f06e242143aeb00d94e5beb2ab7cc", "fusion_lat": 0.0, "lon": -77.021973, "type": "electric_scooter", "fusion_lon": 0.0, "lat": 38.91127633333333}, {"rental_uris": {"android": "https://dc.lft.to/lastmile_qr_scan", "ios": "https://dc.lft.to/lastmile_qr_scan"}, "is_reserved": 0, "is_disabled": 0, "name": "8dcc2721e8dff5cfd5aeafb5f5c82cfe", "bike_id": "8dcc2721e8dff5cfd5aeafb5f5c82cfe", "fusion_lat": 0.0, "lon": -77.02593716666667, "type": "electric_scooter", "fusion_lon": 0.0, "lat": 38.92090866666667}, {"rental_uris": {"android": "https://dc.lft.to/lastmile_qr_scan", "ios": "https://dc.lft.to/lastmile_qr_scan"}, "is_reserved": 0, "is_disabled": 0, "name": "0a6b9a8b4a1c9ed8cd7aa25bdbdd456c", "bike_id": "0a6b9a8b4a1c9ed8cd7aa25bdbdd456c", "fusion_lat": 0.0, "lon": -77.042675, "type": "electric_scooter", "fusion_lon": 0.0, "lat": 38.9223275}, {"rental_uris": {"android": "https://dc.lft.to/lastmile_qr_scan", "ios": "https://dc.lft.to/lastmile_qr_scan"}, "is_reserved": 0, "is_disabled": 0, "name": "4c1b6a862e7ebe8cd243c9796695efc1", "bike_id": "4c1b6a862e7ebe8cd243c9796695efc1", "fusion_lat": 0.0, "lon": -77.01538333333333, "type": "electric_scooter", "fusion_lon": 0.0, "lat": 38.891698}, {"rental_uris": {"android": "https://dc.lft.to/lastmile_qr_scan", "ios": "https://dc.lft.to/lastmile_qr_scan"}, "is_reserved": 0, "is_disabled": 0, "name": "6f084d2b4b316515128baf064c2ba44b", "bike_id": "6f084d2b4b316515128baf064c2ba44b", "fusion_lat": 0.0, "lon": -77.02799366666666, "type": "electric_scooter", "fusion_lon": 0.0, "lat": 38.917540833333334}, {"rental_uris": {"android": "https://dc.lft.to/lastmile_qr_scan", "ios": "https://dc.lft.to/lastmile_qr_scan"}, "is_reserved": 0, "is_disabled": 0, "name": "5278b634482590a453d22c7e342e4647", "bike_id": "5278b634482590a453d22c7e342e4647", "fusion_lat": 0.0, "lon": -77.029717, "type": "electric_scooter", "fusion_lon": 0.0, "lat": 38.94294133333333}, {"rental_uris": {"android": "https://dc.lft.to/lastmile_qr_scan", "ios": "https://dc.lft.to/lastmile_qr_scan"}, "is_reserved": 0, "is_disabled": 0, "name": "70e025140b7a0637e245c55a7b96af1b", "bike_id": "70e025140b7a0637e245c55a7b96af1b", "fusion_lat": 0.0, "lon": -77.02017116666667, "type": "electric_scooter", "fusion_lon": 0.0, "lat": 38.915646}, {"rental_uris": {"android": "https://dc.lft.to/lastmile_qr_scan", "ios": "https://dc.lft.to/lastmile_qr_scan"}, "is_reserved": 0, "is_disabled": 0, "name": "0f9ecd6051ce3ee2915e024a6aae807e", "bike_id": "0f9ecd6051ce3ee2915e024a6aae807e", "fusion_lat": 0.0, "lon": -77.0120355, "type": "electric_bike", "fusion_lon": 0.0, "lat": 38.9507135}, {"rental_uris": {"android": "https://dc.lft.to/lastmile_qr_scan", "ios": "https://dc.lft.to/lastmile_qr_scan"}, "is_reserved": 0, "is_disabled": 0, "name": "2782e0a32cb80797b9fe50e3405fbe2a", "bike_id": "2782e0a32cb80797b9fe50e3405fbe2a", "fusion_lat": 0.0, "lon": -77.010831, "type": "electric_scooter", "fusion_lon": 0.0, "lat": 38.89545066666667}, {"rental_uris": {"android": "https://dc.lft.to/lastmile_qr_scan", "ios": "https://dc.lft.to/lastmile_qr_scan"}, "is_reserved": 0, "is_disabled": 0, "name": "1711855608158421f2ea28ba4000b0e1", "bike_id": "1711855608158421f2ea28ba4000b0e1", "fusion_lat": 0.0, "lon": -77.01851033333334, "type": "electric_scooter", "fusion_lon": 0.0, "lat": 38.920100166666664}, {"rental_uris": {"android": "https://dc.lft.to/lastmile_qr_scan", "ios": "https://dc.lft.to/lastmile_qr_scan"}, "is_reserved": 0, "is_disabled": 0, "name": "35a9ce605b2dc9f1ecd906fbd3ff448e", "bike_id": "35a9ce605b2dc9f1ecd906fbd3ff448e", "fusion_lat": 0.0, "lon": -77.023751, "type": "electric_scooter", "fusion_lon": 0.0, "lat": 38.892093333333335}, {"rental_uris": {"android": "https://dc.lft.to/lastmile_qr_scan", "ios": "https://dc.lft.to/lastmile_qr_scan"}, "is_reserved": 0, "is_disabled": 0, "name": "370033e535a0851cee1f4d24521114cd", "bike_id": "370033e535a0851cee1f4d24521114cd", "fusion_lat": 0.0, "lon": -77.03549033333333, "type": "electric_scooter", "fusion_lon": 0.0, "lat": 38.92430933333333}, {"rental_uris": {"android": "https://dc.lft.to/lastmile_qr_scan", "ios": "https://dc.lft.to/lastmile_qr_scan"}, "is_reserved": 0, "is_disabled": 0, "name": "f89ce55e81c2e7b30aa9e7747d41de5a", "bike_id": "f89ce55e81c2e7b30aa9e7747d41de5a", "fusion_lat": 0.0, "lon": -77.02127883333333, "type": "electric_scooter", "fusion_lon": 0.0, "lat": 38.923579833333335}, {"rental_uris": {"android": "https://dc.lft.to/lastmile_qr_scan", "ios": "https://dc.lft.to/lastmile_qr_scan"}, "is_reserved": 0, "is_disabled": 0, "name": "0ea2e45823d34ab24570f4323e1e9ec6", "bike_id": "0ea2e45823d34ab24570f4323e1e9ec6", "fusion_lat": 0.0, "lon": -77.03935316666667, "type": "electric_scooter", "fusion_lon": 0.0, "lat": 38.902604333333336}, {"rental_uris": {"android": "https://dc.lft.to/lastmile_qr_scan", "ios": "https://dc.lft.to/lastmile_qr_scan"}, "is_reserved": 0, "is_disabled": 0, "name": "ba62740a8b0ace193a356a215ecd37fa", "bike_id": "ba62740a8b0ace193a356a215ecd37fa", "fusion_lat": 0.0, "lon": -77.02494816666666, "type": "electric_scooter", "fusion_lon": 0.0, "lat": 38.919468}, {"rental_uris": {"android": "https://dc.lft.to/lastmile_qr_scan", "ios": "https://dc.lft.to/lastmile_qr_scan"}, "is_reserved": 0, "is_disabled": 0, "name": "8b077ca5fd62143895b1fd571424d0b1", "bike_id": "8b077ca5fd62143895b1fd571424d0b1", "fusion_lat": 0.0, "lon": -76.9555865, "type": "electric_bike", "fusion_lon": 0.0, "lat": 38.98503316666667}, {"rental_uris": {"android": "https://dc.lft.to/lastmile_qr_scan", "ios": "https://dc.lft.to/lastmile_qr_scan"}, "is_reserved": 0, "is_disabled": 0, "name": "cfa64d4c4fdaf1599f18788dea74928e", "bike_id": "cfa64d4c4fdaf1599f18788dea74928e", "fusion_lat": 0.0, "lon": -77.01977666666667, "type": "electric_scooter", "fusion_lon": 0.0, "lat": 38.88717666666667}, {"rental_uris": {"android": "https://dc.lft.to/lastmile_qr_scan", "ios": "https://dc.lft.to/lastmile_qr_scan"}, "is_reserved": 0, "is_disabled": 0, "name": "218a4c643c38f81473097dde664c9232", "bike_id": "218a4c643c38f81473097dde664c9232", "fusion_lat": 0.0, "lon": -77.03170666666666, "type": "electric_scooter", "fusion_lon": 0.0, "lat": 38.90200566666667}, {"rental_uris": {"android": "https://dc.lft.to/lastmile_qr_scan", "ios": "https://dc.lft.to/lastmile_qr_scan"}, "is_reserved": 0, "is_disabled": 0, "name": "b642be8aad73b002d0b1cdd1a4f97b15", "bike_id": "b642be8aad73b002d0b1cdd1a4f97b15", "fusion_lat": 0.0, "lon": -77.01481633333333, "type": "electric_scooter", "fusion_lon": 0.0, "lat": 38.91412733333333}, {"rental_uris": {"android": "https://dc.lft.to/lastmile_qr_scan", "ios": "https://dc.lft.to/lastmile_qr_scan"}, "is_reserved": 0, "is_disabled": 0, "name": "9742f757c7e9e76658dcfbbfa01bc291", "bike_id": "9742f757c7e9e76658dcfbbfa01bc291", "fusion_lat": 0.0, "lon": -77.03652983333333, "type": "electric_scooter", "fusion_lon": 0.0, "lat": 38.936001}, {"rental_uris": {"android": "https://dc.lft.to/lastmile_qr_scan", "ios": "https://dc.lft.to/lastmile_qr_scan"}, "is_reserved": 0, "is_disabled": 0, "name": "dcc4b1350cb28c038a46fb36b32e5918", "bike_id": "dcc4b1350cb28c038a46fb36b32e5918", "fusion_lat": 0.0, "lon": -76.948687, "type": "electric_scooter", "fusion_lon": 0.0, "lat": 38.89499983333333}, {"rental_uris": {"android": "https://dc.lft.to/lastmile_qr_scan", "ios": "https://dc.lft.to/lastmile_qr_scan"}, "is_reserved": 0, "is_disabled": 0, "name": "690fbd6159426cee33cb3812b3f6f0db", "bike_id": "690fbd6159426cee33cb3812b3f6f0db", "fusion_lat": 0.0, "lon": -77.0062465, "type": "electric_scooter", "fusion_lon": 0.0, "lat": 38.87172433333333}, {"rental_uris": {"android": "https://dc.lft.to/lastmile_qr_scan", "ios": "https://dc.lft.to/lastmile_qr_scan"}, "is_reserved": 0, "is_disabled": 0, "name": "68aab5f1e5921873c2c1f3a53004452e", "bike_id": "68aab5f1e5921873c2c1f3a53004452e", "fusion_lat": 0.0, "lon": -77.0572745, "type": "electric_scooter", "fusion_lon": 0.0, "lat": 38.93367116666667}, {"rental_uris": {"android": "https://dc.lft.to/lastmile_qr_scan", "ios": "https://dc.lft.to/lastmile_qr_scan"}, "is_reserved": 0, "is_disabled": 0, "name": "adccf1c4beb23ffb0524723361ba09c1", "bike_id": "adccf1c4beb23ffb0524723361ba09c1", "fusion_lat": 0.0, "lon": -77.026726, "type": "electric_scooter", "fusion_lon": 0.0, "lat": 38.907218666666665}, {"rental_uris": {"android": "https://dc.lft.to/lastmile_qr_scan", "ios": "https://dc.lft.to/lastmile_qr_scan"}, "is_reserved": 0, "is_disabled": 0, "name": "4eb0655e5afefd92dac1abc6e191fabc", "bike_id": "4eb0655e5afefd92dac1abc6e191fabc", "fusion_lat": 0.0, "lon": -77.04858333333334, "type": "electric_scooter", "fusion_lon": 0.0, "lat": 38.900097333333335}, {"rental_uris": {"android": "https://dc.lft.to/lastmile_qr_scan", "ios": "https://dc.lft.to/lastmile_qr_scan"}, "is_reserved": 0, "is_disabled": 0, "name": "ab5a807c3943c6f39c470d42d9e21bc3", "bike_id": "ab5a807c3943c6f39c470d42d9e21bc3", "fusion_lat": 0.0, "lon": -77.0279635, "type": "electric_scooter", "fusion_lon": 0.0, "lat": 38.939234}, {"rental_uris": {"android": "https://dc.lft.to/lastmile_qr_scan", "ios": "https://dc.lft.to/lastmile_qr_scan"}, "is_reserved": 0, "is_disabled": 0, "name": "874c9ef21ec2c94176cfb3b8c6add923", "bike_id": "874c9ef21ec2c94176cfb3b8c6add923", "fusion_lat": 0.0, "lon": -77.013392, "type": "electric_scooter", "fusion_lon": 0.0, "lat": 38.91409216666667}, {"rental_uris": {"android": "https://dc.lft.to/lastmile_qr_scan", "ios": "https://dc.lft.to/lastmile_qr_scan"}, "is_reserved": 0, "is_disabled": 0, "name": "a92a626a51de7d6551b7d0a2e97c1c80", "bike_id": "a92a626a51de7d6551b7d0a2e97c1c80", "fusion_lat": 0.0, "lon": -77.03630066666666, "type": "electric_scooter", "fusion_lon": 0.0, "lat": 38.9368085}, {"rental_uris": {"android": "https://dc.lft.to/lastmile_qr_scan", "ios": "https://dc.lft.to/lastmile_qr_scan"}, "is_reserved": 0, "is_disabled": 0, "name": "e8b43b350e9e0bbbe3530ff118e5857a", "bike_id": "e8b43b350e9e0bbbe3530ff118e5857a", "fusion_lat": 0.0, "lon": -77.03462633333334, "type": "electric_scooter", "fusion_lon": 0.0, "lat": 38.91665616666667}, {"rental_uris": {"android": "https://dc.lft.to/lastmile_qr_scan", "ios": "https://dc.lft.to/lastmile_qr_scan"}, "is_reserved": 0, "is_disabled": 0, "name": "e1ce07730565bd5eac4502951b002cc1", "bike_id": "e1ce07730565bd5eac4502951b002cc1", "fusion_lat": 0.0, "lon": -77.02032383333334, "type": "electric_bike", "fusion_lon": 0.0, "lat": 38.9656075}, {"rental_uris": {"android": "https://dc.lft.to/lastmile_qr_scan", "ios": "https://dc.lft.to/lastmile_qr_scan"}, "is_reserved": 0, "is_disabled": 0, "name": "a72b5209acdeb601b9d5dd652318791d", "bike_id": "a72b5209acdeb601b9d5dd652318791d", "fusion_lat": 0.0, "lon": -77.014394, "type": "electric_scooter", "fusion_lon": 0.0, "lat": 38.919549}, {"rental_uris": {"android": "https://dc.lft.to/lastmile_qr_scan", "ios": "https://dc.lft.to/lastmile_qr_scan"}, "is_reserved": 0, "is_disabled": 0, "name": "a51dc65296000d7aa2e3fb7d47f454ad", "bike_id": "a51dc65296000d7aa2e3fb7d47f454ad", "fusion_lat": 0.0, "lon": -77.006275, "type": "electric_scooter", "fusion_lon": 0.0, "lat": 38.871953833333336}, {"rental_uris": {"android": "https://dc.lft.to/lastmile_qr_scan", "ios": "https://dc.lft.to/lastmile_qr_scan"}, "is_reserved": 0, "is_disabled": 0, "name": "3c64e8a059ef9770638441ec7650c594", "bike_id": "3c64e8a059ef9770638441ec7650c594", "fusion_lat": 0.0, "lon": -76.99676366666667, "type": "electric_bike", "fusion_lon": 0.0, "lat": 38.838225333333334}, {"rental_uris": {"android": "https://dc.lft.to/lastmile_qr_scan", "ios": "https://dc.lft.to/lastmile_qr_scan"}, "is_reserved": 0, "is_disabled": 0, "name": "af7db14da54808a0e2534a5269cd8ce6", "bike_id": "af7db14da54808a0e2534a5269cd8ce6", "fusion_lat": 0.0, "lon": -77.03076233333333, "type": "electric_bike", "fusion_lon": 0.0, "lat": 38.9223655}, {"rental_uris": {"android": "https://dc.lft.to/lastmile_qr_scan", "ios": "https://dc.lft.to/lastmile_qr_scan"}, "is_reserved": 0, "is_disabled": 0, "name": "49aba406927ef73eb99cb29401e02607", "bike_id": "49aba406927ef73eb99cb29401e02607", "fusion_lat": 0.0, "lon": -77.03335366666667, "type": "electric_scooter", "fusion_lon": 0.0, "lat": 38.897376333333334}, {"rental_uris": {"android": "https://dc.lft.to/lastmile_qr_scan", "ios": "https://dc.lft.to/lastmile_qr_scan"}, "is_reserved": 0, "is_disabled": 0, "name": "641f9387330489cd6ddc2e91e7f27009", "bike_id": "641f9387330489cd6ddc2e91e7f27009", "fusion_lat": 0.0, "lon": -76.97900233333333, "type": "electric_bike", "fusion_lon": 0.0, "lat": 38.9269865}, {"rental_uris": {"android": "https://dc.lft.to/lastmile_qr_scan", "ios": "https://dc.lft.to/lastmile_qr_scan"}, "is_reserved": 0, "is_disabled": 0, "name": "b0eb3d4b79df35a95904d7ec6a999dd0", "bike_id": "b0eb3d4b79df35a95904d7ec6a999dd0", "fusion_lat": 0.0, "lon": -77.02091466666667, "type": "electric_scooter", "fusion_lon": 0.0, "lat": 38.907316}, {"rental_uris": {"android": "https://dc.lft.to/lastmile_qr_scan", "ios": "https://dc.lft.to/lastmile_qr_scan"}, "is_reserved": 0, "is_disabled": 0, "name": "556d4a32b9f22d126cc5c879635255bb", "bike_id": "556d4a32b9f22d126cc5c879635255bb", "fusion_lat": 0.0, "lon": -77.01338333333334, "type": "electric_scooter", "fusion_lon": 0.0, "lat": 38.88139}, {"rental_uris": {"android": "https://dc.lft.to/lastmile_qr_scan", "ios": "https://dc.lft.to/lastmile_qr_scan"}, "is_reserved": 0, "is_disabled": 0, "name": "f50fc6906d6156d171d64e6c5bba5f48", "bike_id": "f50fc6906d6156d171d64e6c5bba5f48", "fusion_lat": 0.0, "lon": -77.053342, "type": "electric_scooter", "fusion_lon": 0.0, "lat": 38.923338333333334}, {"rental_uris": {"android": "https://dc.lft.to/lastmile_qr_scan", "ios": "https://dc.lft.to/lastmile_qr_scan"}, "is_reserved": 0, "is_disabled": 0, "name": "7d7409d2e81a7896eef7fe78932d15de", "bike_id": "7d7409d2e81a7896eef7fe78932d15de", "fusion_lat": 0.0, "lon": -77.01630266666666, "type": "electric_scooter", "fusion_lon": 0.0, "lat": 38.91698383333333}, {"rental_uris": {"android": "https://dc.lft.to/lastmile_qr_scan", "ios": "https://dc.lft.to/lastmile_qr_scan"}, "is_reserved": 0, "is_disabled": 0, "name": "d932d9c1c7934e6ac37059b96f37ede7", "bike_id": "d932d9c1c7934e6ac37059b96f37ede7", "fusion_lat": 0.0, "lon": -76.93599666666667, "type": "electric_scooter", "fusion_lon": 0.0, "lat": 38.90946983333333}, {"rental_uris": {"android": "https://dc.lft.to/lastmile_qr_scan", "ios": "https://dc.lft.to/lastmile_qr_scan"}, "is_reserved": 0, "is_disabled": 0, "name": "7bf80fd96ec821a22b7ad833eeefea10", "bike_id": "7bf80fd96ec821a22b7ad833eeefea10", "fusion_lat": 0.0, "lon": -77.00609516666667, "type": "electric_scooter", "fusion_lon": 0.0, "lat": 38.9058785}, {"rental_uris": {"android": "https://dc.lft.to/lastmile_qr_scan", "ios": "https://dc.lft.to/lastmile_qr_scan"}, "is_reserved": 0, "is_disabled": 0, "name": "301dc2c9211ff29c92aaaf81e6bd52f5", "bike_id": "301dc2c9211ff29c92aaaf81e6bd52f5", "fusion_lat": 0.0, "lon": -76.9515805, "type": "electric_bike", "fusion_lon": 0.0, "lat": 39.084385833333336}, {"rental_uris": {"android": "https://dc.lft.to/lastmile_qr_scan", "ios": "https://dc.lft.to/lastmile_qr_scan"}, "is_reserved": 0, "is_disabled": 0, "name": "9f4297c6690d1c3ee84d0a57300c9674", "bike_id": "9f4297c6690d1c3ee84d0a57300c9674", "fusion_lat": 0.0, "lon": -77.0222745, "type": "electric_scooter", "fusion_lon": 0.0, "lat": 38.912552166666664}, {"rental_uris": {"android": "https://dc.lft.to/lastmile_qr_scan", "ios": "https://dc.lft.to/lastmile_qr_scan"}, "is_reserved": 0, "is_disabled": 0, "name": "91bec0171dc596850f7e033fa6945061", "bike_id": "91bec0171dc596850f7e033fa6945061", "fusion_lat": 0.0, "lon": -77.05005416666667, "type": "electric_scooter", "fusion_lon": 0.0, "lat": 38.892309833333336}, {"rental_uris": {"android": "https://dc.lft.to/lastmile_qr_scan", "ios": "https://dc.lft.to/lastmile_qr_scan"}, "is_reserved": 0, "is_disabled": 0, "name": "e4c5319a8b1c32ac25be9b65c8167c2f", "bike_id": "e4c5319a8b1c32ac25be9b65c8167c2f", "fusion_lat": 0.0, "lon": -77.02795216666667, "type": "electric_scooter", "fusion_lon": 0.0, "lat": 38.930824666666666}, {"rental_uris": {"android": "https://dc.lft.to/lastmile_qr_scan", "ios": "https://dc.lft.to/lastmile_qr_scan"}, "is_reserved": 0, "is_disabled": 0, "name": "85b29ec410d1bf95637596cad168d94d", "bike_id": "85b29ec410d1bf95637596cad168d94d", "fusion_lat": 0.0, "lon": -77.01210883333333, "type": "electric_scooter", "fusion_lon": 0.0, "lat": 38.918235333333335}, {"rental_uris": {"android": "https://dc.lft.to/lastmile_qr_scan", "ios": "https://dc.lft.to/lastmile_qr_scan"}, "is_reserved": 0, "is_disabled": 0, "name": "f0f9fad519810f8206322c604968cdb7", "bike_id": "f0f9fad519810f8206322c604968cdb7", "fusion_lat": 0.0, "lon": -77.036458, "type": "electric_scooter", "fusion_lon": 0.0, "lat": 38.90290916666667}, {"rental_uris": {"android": "https://dc.lft.to/lastmile_qr_scan", "ios": "https://dc.lft.to/lastmile_qr_scan"}, "is_reserved": 0, "is_disabled": 0, "name": "77a43122617dfda570b6086a7024d708", "bike_id": "77a43122617dfda570b6086a7024d708", "fusion_lat": 0.0, "lon": -77.03242966666667, "type": "electric_scooter", "fusion_lon": 0.0, "lat": 38.9170945}, {"rental_uris": {"android": "https://dc.lft.to/lastmile_qr_scan", "ios": "https://dc.lft.to/lastmile_qr_scan"}, "is_reserved": 0, "is_disabled": 0, "name": "fe858f462363e96522e5f93fbcbe9fba", "bike_id": "fe858f462363e96522e5f93fbcbe9fba", "fusion_lat": 0.0, "lon": -77.00156483333333, "type": "electric_scooter", "fusion_lon": 0.0, "lat": 38.821323166666666}, {"rental_uris": {"android": "https://dc.lft.to/lastmile_qr_scan", "ios": "https://dc.lft.to/lastmile_qr_scan"}, "is_reserved": 0, "is_disabled": 0, "name": "f169622551067531ea482142a4c3d5e0", "bike_id": "f169622551067531ea482142a4c3d5e0", "fusion_lat": 0.0, "lon": -77.00301633333333, "type": "electric_scooter", "fusion_lon": 0.0, "lat": 38.892097666666665}, {"rental_uris": {"android": "https://dc.lft.to/lastmile_qr_scan", "ios": "https://dc.lft.to/lastmile_qr_scan"}, "is_reserved": 0, "is_disabled": 0, "name": "dd63c0a10373bb433bb101bee3af33bb", "bike_id": "dd63c0a10373bb433bb101bee3af33bb", "fusion_lat": 0.0, "lon": -77.03055866666666, "type": "electric_scooter", "fusion_lon": 0.0, "lat": 38.898237333333334}, {"rental_uris": {"android": "https://dc.lft.to/lastmile_qr_scan", "ios": "https://dc.lft.to/lastmile_qr_scan"}, "is_reserved": 0, "is_disabled": 0, "name": "5acf45cb8aaa89fa5a00afdabeb82dd9", "bike_id": "5acf45cb8aaa89fa5a00afdabeb82dd9", "fusion_lat": 0.0, "lon": -76.99823466666666, "type": "electric_scooter", "fusion_lon": 0.0, "lat": 38.907126}, {"rental_uris": {"android": "https://dc.lft.to/lastmile_qr_scan", "ios": "https://dc.lft.to/lastmile_qr_scan"}, "is_reserved": 0, "is_disabled": 0, "name": "8f4c0eded108e67f1a58278e53637b50", "bike_id": "8f4c0eded108e67f1a58278e53637b50", "fusion_lat": 0.0, "lon": -77.06431233333333, "type": "electric_scooter", "fusion_lon": 0.0, "lat": 38.93561483333333}, {"rental_uris": {"android": "https://dc.lft.to/lastmile_qr_scan", "ios": "https://dc.lft.to/lastmile_qr_scan"}, "is_reserved": 0, "is_disabled": 0, "name": "08faca48eab6ad1d5ca5adc96252a005", "bike_id": "08faca48eab6ad1d5ca5adc96252a005", "fusion_lat": 0.0, "lon": -77.0511735, "type": "electric_scooter", "fusion_lon": 0.0, "lat": 38.92342933333333}, {"rental_uris": {"android": "https://dc.lft.to/lastmile_qr_scan", "ios": "https://dc.lft.to/lastmile_qr_scan"}, "is_reserved": 0, "is_disabled": 0, "name": "f903d783fdbea7f386ac61286e4dce90", "bike_id": "f903d783fdbea7f386ac61286e4dce90", "fusion_lat": 0.0, "lon": -77.03312333333334, "type": "electric_scooter", "fusion_lon": 0.0, "lat": 38.921652333333334}, {"rental_uris": {"android": "https://dc.lft.to/lastmile_qr_scan", "ios": "https://dc.lft.to/lastmile_qr_scan"}, "is_reserved": 0, "is_disabled": 0, "name": "122b881493ff2cff2b58a41c5c6d6745", "bike_id": "122b881493ff2cff2b58a41c5c6d6745", "fusion_lat": 0.0, "lon": -76.99097866666666, "type": "electric_bike", "fusion_lon": 0.0, "lat": 38.804796333333336}, {"rental_uris": {"android": "https://dc.lft.to/lastmile_qr_scan", "ios": "https://dc.lft.to/lastmile_qr_scan"}, "is_reserved": 0, "is_disabled": 0, "name": "2a68d61b99e05279777c89820d372770", "bike_id": "2a68d61b99e05279777c89820d372770", "fusion_lat": 0.0, "lon": -77.00400916666666, "type": "electric_bike", "fusion_lon": 0.0, "lat": 38.98546066666667}, {"rental_uris": {"android": "https://dc.lft.to/lastmile_qr_scan", "ios": "https://dc.lft.to/lastmile_qr_scan"}, "is_reserved": 0, "is_disabled": 0, "name": "0ba869d7fef59a14bc23ecf9f3246a5d", "bike_id": "0ba869d7fef59a14bc23ecf9f3246a5d", "fusion_lat": 0.0, "lon": -77.033735, "type": "electric_scooter", "fusion_lon": 0.0, "lat": 38.92152883333333}, {"rental_uris": {"android": "https://dc.lft.to/lastmile_qr_scan", "ios": "https://dc.lft.to/lastmile_qr_scan"}, "is_reserved": 0, "is_disabled": 0, "name": "a1ac113a0c3e3ca14f37453e28501718", "bike_id": "a1ac113a0c3e3ca14f37453e28501718", "fusion_lat": 0.0, "lon": -77.01093516666667, "type": "electric_scooter", "fusion_lon": 0.0, "lat": 38.89534333333334}, {"rental_uris": {"android": "https://dc.lft.to/lastmile_qr_scan", "ios": "https://dc.lft.to/lastmile_qr_scan"}, "is_reserved": 0, "is_disabled": 0, "name": "fb163e6fe405a4f2cf71838108030f2a", "bike_id": "fb163e6fe405a4f2cf71838108030f2a", "fusion_lat": 0.0, "lon": -77.045292, "type": "electric_scooter", "fusion_lon": 0.0, "lat": 38.89956183333334}, {"rental_uris": {"android": "https://dc.lft.to/lastmile_qr_scan", "ios": "https://dc.lft.to/lastmile_qr_scan"}, "is_reserved": 0, "is_disabled": 0, "name": "7123bb87e1a15d4dbe93f09064eeb991", "bike_id": "7123bb87e1a15d4dbe93f09064eeb991", "fusion_lat": 0.0, "lon": -76.9321135, "type": "electric_scooter", "fusion_lon": 0.0, "lat": 38.89669816666667}, {"rental_uris": {"android": "https://dc.lft.to/lastmile_qr_scan", "ios": "https://dc.lft.to/lastmile_qr_scan"}, "is_reserved": 0, "is_disabled": 0, "name": "fb3cf40fcd1a6727150fa0ffe0808e33", "bike_id": "fb3cf40fcd1a6727150fa0ffe0808e33", "fusion_lat": 0.0, "lon": -77.02780433333334, "type": "electric_scooter", "fusion_lon": 0.0, "lat": 38.9621615}, {"rental_uris": {"android": "https://dc.lft.to/lastmile_qr_scan", "ios": "https://dc.lft.to/lastmile_qr_scan"}, "is_reserved": 0, "is_disabled": 0, "name": "bc35b7eb53c359f1ea00358d1e85c569", "bike_id": "bc35b7eb53c359f1ea00358d1e85c569", "fusion_lat": 0.0, "lon": -76.98623766666667, "type": "electric_scooter", "fusion_lon": 0.0, "lat": 38.88047533333334}, {"rental_uris": {"android": "https://dc.lft.to/lastmile_qr_scan", "ios": "https://dc.lft.to/lastmile_qr_scan"}, "is_reserved": 0, "is_disabled": 0, "name": "7d2abe948818bfe3f0e483e9b612d914", "bike_id": "7d2abe948818bfe3f0e483e9b612d914", "fusion_lat": 0.0, "lon": -77.08018133333333, "type": "electric_bike", "fusion_lon": 0.0, "lat": 38.95774516666667}, {"rental_uris": {"android": "https://dc.lft.to/lastmile_qr_scan", "ios": "https://dc.lft.to/lastmile_qr_scan"}, "is_reserved": 0, "is_disabled": 0, "name": "d4590bd6c3540b9d5bade2190ea03c93", "bike_id": "d4590bd6c3540b9d5bade2190ea03c93", "fusion_lat": 0.0, "lon": -77.09811066666667, "type": "electric_bike", "fusion_lon": 0.0, "lat": 38.850323333333336}, {"rental_uris": {"android": "https://dc.lft.to/lastmile_qr_scan", "ios": "https://dc.lft.to/lastmile_qr_scan"}, "is_reserved": 0, "is_disabled": 0, "name": "285f785be4d808ccb94dc59feea37b97", "bike_id": "285f785be4d808ccb94dc59feea37b97", "fusion_lat": 0.0, "lon": -77.0434505, "type": "electric_scooter", "fusion_lon": 0.0, "lat": 38.911016000000004}, {"rental_uris": {"android": "https://dc.lft.to/lastmile_qr_scan", "ios": "https://dc.lft.to/lastmile_qr_scan"}, "is_reserved": 0, "is_disabled": 0, "name": "d4c4aaa3ab893511053540942bbdb25c", "bike_id": "d4c4aaa3ab893511053540942bbdb25c", "fusion_lat": 0.0, "lon": -77.01152766666667, "type": "electric_scooter", "fusion_lon": 0.0, "lat": 38.89656166666666}, {"rental_uris": {"android": "https://dc.lft.to/lastmile_qr_scan", "ios": "https://dc.lft.to/lastmile_qr_scan"}, "is_reserved": 0, "is_disabled": 0, "name": "9a9d87a3b6c392838c602c09ed0ca748", "bike_id": "9a9d87a3b6c392838c602c09ed0ca748", "fusion_lat": 0.0, "lon": -77.02716383333333, "type": "electric_scooter", "fusion_lon": 0.0, "lat": 38.922303666666664}, {"rental_uris": {"android": "https://dc.lft.to/lastmile_qr_scan", "ios": "https://dc.lft.to/lastmile_qr_scan"}, "is_reserved": 0, "is_disabled": 0, "name": "262787f6bf1572c863ea8973c84732df", "bike_id": "262787f6bf1572c863ea8973c84732df", "fusion_lat": 0.0, "lon": -77.02380683333334, "type": "electric_scooter", "fusion_lon": 0.0, "lat": 38.89196533333333}, {"rental_uris": {"android": "https://dc.lft.to/lastmile_qr_scan", "ios": "https://dc.lft.to/lastmile_qr_scan"}, "is_reserved": 0, "is_disabled": 0, "name": "99a00f4d54fbf708da282cd8ed47628b", "bike_id": "99a00f4d54fbf708da282cd8ed47628b", "fusion_lat": 0.0, "lon": -76.9457585, "type": "electric_scooter", "fusion_lon": 0.0, "lat": 38.89924716666667}, {"rental_uris": {"android": "https://dc.lft.to/lastmile_qr_scan", "ios": "https://dc.lft.to/lastmile_qr_scan"}, "is_reserved": 0, "is_disabled": 0, "name": "58a442c00754cf68b7dd76f0907cd8c1", "bike_id": "58a442c00754cf68b7dd76f0907cd8c1", "fusion_lat": 0.0, "lon": -77.127374, "type": "electric_bike", "fusion_lon": 0.0, "lat": 38.895653}, {"rental_uris": {"android": "https://dc.lft.to/lastmile_qr_scan", "ios": "https://dc.lft.to/lastmile_qr_scan"}, "is_reserved": 0, "is_disabled": 0, "name": "1617b4c557c7c57b06619beb73e44e59", "bike_id": "1617b4c557c7c57b06619beb73e44e59", "fusion_lat": 0.0, "lon": -77.00443966666667, "type": "electric_scooter", "fusion_lon": 0.0, "lat": 38.91154}, {"rental_uris": {"android": "https://dc.lft.to/lastmile_qr_scan", "ios": "https://dc.lft.to/lastmile_qr_scan"}, "is_reserved": 0, "is_disabled": 0, "name": "1fe56e45370be421148f69370a7ad067", "bike_id": "1fe56e45370be421148f69370a7ad067", "fusion_lat": 0.0, "lon": -77.038768, "type": "electric_bike", "fusion_lon": 0.0, "lat": 39.026196}, {"rental_uris": {"android": "https://dc.lft.to/lastmile_qr_scan", "ios": "https://dc.lft.to/lastmile_qr_scan"}, "is_reserved": 0, "is_disabled": 0, "name": "f57a9fe5c8581d909eff3fbbb5fc1d10", "bike_id": "f57a9fe5c8581d909eff3fbbb5fc1d10", "fusion_lat": 0.0, "lon": -77.045684, "type": "electric_scooter", "fusion_lon": 0.0, "lat": 38.9070675}, {"rental_uris": {"android": "https://dc.lft.to/lastmile_qr_scan", "ios": "https://dc.lft.to/lastmile_qr_scan"}, "is_reserved": 0, "is_disabled": 0, "name": "730d9e9743f6557322947459dc6ae735", "bike_id": "730d9e9743f6557322947459dc6ae735", "fusion_lat": 0.0, "lon": -76.97911733333333, "type": "electric_bike", "fusion_lon": 0.0, "lat": 38.958506166666666}, {"rental_uris": {"android": "https://dc.lft.to/lastmile_qr_scan", "ios": "https://dc.lft.to/lastmile_qr_scan"}, "is_reserved": 0, "is_disabled": 0, "name": "d5e01cab8cb34239c9a91d6e9f7e45eb", "bike_id": "d5e01cab8cb34239c9a91d6e9f7e45eb", "fusion_lat": 0.0, "lon": -77.06171383333333, "type": "electric_scooter", "fusion_lon": 0.0, "lat": 38.94129133333333}, {"rental_uris": {"android": "https://dc.lft.to/lastmile_qr_scan", "ios": "https://dc.lft.to/lastmile_qr_scan"}, "is_reserved": 0, "is_disabled": 0, "name": "7cf14733781e53d6b944a74a6d527649", "bike_id": "7cf14733781e53d6b944a74a6d527649", "fusion_lat": 0.0, "lon": -77.04092666666666, "type": "electric_scooter", "fusion_lon": 0.0, "lat": 38.910622833333335}, {"rental_uris": {"android": "https://dc.lft.to/lastmile_qr_scan", "ios": "https://dc.lft.to/lastmile_qr_scan"}, "is_reserved": 0, "is_disabled": 0, "name": "7e3e912692ab31db438377b2683aeed1", "bike_id": "7e3e912692ab31db438377b2683aeed1", "fusion_lat": 0.0, "lon": -77.06577883333334, "type": "electric_scooter", "fusion_lon": 0.0, "lat": 38.90406866666667}, {"rental_uris": {"android": "https://dc.lft.to/lastmile_qr_scan", "ios": "https://dc.lft.to/lastmile_qr_scan"}, "is_reserved": 0, "is_disabled": 0, "name": "e168e7609e457cbd358b261127f7ce9c", "bike_id": "e168e7609e457cbd358b261127f7ce9c", "fusion_lat": 0.0, "lon": -77.04464516666667, "type": "electric_scooter", "fusion_lon": 0.0, "lat": 38.903231166666664}, {"rental_uris": {"android": "https://dc.lft.to/lastmile_qr_scan", "ios": "https://dc.lft.to/lastmile_qr_scan"}, "is_reserved": 0, "is_disabled": 0, "name": "bd01c50d109384ef275de0141e777a62", "bike_id": "bd01c50d109384ef275de0141e777a62", "fusion_lat": 0.0, "lon": -77.0534, "type": "electric_scooter", "fusion_lon": 0.0, "lat": 38.904321}, {"rental_uris": {"android": "https://dc.lft.to/lastmile_qr_scan", "ios": "https://dc.lft.to/lastmile_qr_scan"}, "is_reserved": 0, "is_disabled": 0, "name": "e90a5ee9a568c1578b1e7956f5655283", "bike_id": "e90a5ee9a568c1578b1e7956f5655283", "fusion_lat": 0.0, "lon": -77.010708, "type": "electric_scooter", "fusion_lon": 0.0, "lat": 38.918187833333334}, {"rental_uris": {"android": "https://dc.lft.to/lastmile_qr_scan", "ios": "https://dc.lft.to/lastmile_qr_scan"}, "is_reserved": 0, "is_disabled": 0, "name": "f344417045f2c37f2629f54660e5aadb", "bike_id": "f344417045f2c37f2629f54660e5aadb", "fusion_lat": 0.0, "lon": -77.03864983333334, "type": "electric_scooter", "fusion_lon": 0.0, "lat": 38.9171745}, {"rental_uris": {"android": "https://dc.lft.to/lastmile_qr_scan", "ios": "https://dc.lft.to/lastmile_qr_scan"}, "is_reserved": 0, "is_disabled": 0, "name": "25bc6dd814fff16aaf12c112ce204602", "bike_id": "25bc6dd814fff16aaf12c112ce204602", "fusion_lat": 0.0, "lon": -77.04928366666667, "type": "electric_scooter", "fusion_lon": 0.0, "lat": 38.895486}, {"rental_uris": {"android": "https://dc.lft.to/lastmile_qr_scan", "ios": "https://dc.lft.to/lastmile_qr_scan"}, "is_reserved": 0, "is_disabled": 0, "name": "eaa5948559d2ff725dbf9e022d7897b3", "bike_id": "eaa5948559d2ff725dbf9e022d7897b3", "fusion_lat": 0.0, "lon": -76.99839883333334, "type": "electric_bike", "fusion_lon": 0.0, "lat": 38.89999483333333}, {"rental_uris": {"android": "https://dc.lft.to/lastmile_qr_scan", "ios": "https://dc.lft.to/lastmile_qr_scan"}, "is_reserved": 0, "is_disabled": 0, "name": "9e044da56a6c62a42df3845e01c6f0a8", "bike_id": "9e044da56a6c62a42df3845e01c6f0a8", "fusion_lat": 0.0, "lon": -77.0127575, "type": "electric_scooter", "fusion_lon": 0.0, "lat": 38.90953566666666}, {"rental_uris": {"android": "https://dc.lft.to/lastmile_qr_scan", "ios": "https://dc.lft.to/lastmile_qr_scan"}, "is_reserved": 0, "is_disabled": 0, "name": "95fce60f7df894be4d69b5f46e2587c3", "bike_id": "95fce60f7df894be4d69b5f46e2587c3", "fusion_lat": 0.0, "lon": -76.98337433333333, "type": "electric_scooter", "fusion_lon": 0.0, "lat": 38.90098666666667}, {"rental_uris": {"android": "https://dc.lft.to/lastmile_qr_scan", "ios": "https://dc.lft.to/lastmile_qr_scan"}, "is_reserved": 0, "is_disabled": 0, "name": "386cc67fec141d1617be735765a13768", "bike_id": "386cc67fec141d1617be735765a13768", "fusion_lat": 0.0, "lon": -77.031829, "type": "electric_scooter", "fusion_lon": 0.0, "lat": 38.916374166666664}, {"rental_uris": {"android": "https://dc.lft.to/lastmile_qr_scan", "ios": "https://dc.lft.to/lastmile_qr_scan"}, "is_reserved": 0, "is_disabled": 0, "name": "56437b9da0ec097754bcdd19d6c4a501", "bike_id": "56437b9da0ec097754bcdd19d6c4a501", "fusion_lat": 0.0, "lon": -77.0018365, "type": "electric_scooter", "fusion_lon": 0.0, "lat": 38.90285433333333}, {"rental_uris": {"android": "https://dc.lft.to/lastmile_qr_scan", "ios": "https://dc.lft.to/lastmile_qr_scan"}, "is_reserved": 0, "is_disabled": 0, "name": "a5a0f79e350e82c3540eb8f99880a973", "bike_id": "a5a0f79e350e82c3540eb8f99880a973", "fusion_lat": 0.0, "lon": -77.024889, "type": "electric_scooter", "fusion_lon": 0.0, "lat": 38.92050416666667}, {"rental_uris": {"android": "https://dc.lft.to/lastmile_qr_scan", "ios": "https://dc.lft.to/lastmile_qr_scan"}, "is_reserved": 0, "is_disabled": 0, "name": "65367ebc3bf0c09f535e02ed9b237045", "bike_id": "65367ebc3bf0c09f535e02ed9b237045", "fusion_lat": 0.0, "lon": -77.0262825, "type": "electric_bike", "fusion_lon": 0.0, "lat": 38.96223116666667}, {"rental_uris": {"android": "https://dc.lft.to/lastmile_qr_scan", "ios": "https://dc.lft.to/lastmile_qr_scan"}, "is_reserved": 0, "is_disabled": 0, "name": "973955f7e78e02a8460588ea2cf1bdcb", "bike_id": "973955f7e78e02a8460588ea2cf1bdcb", "fusion_lat": 0.0, "lon": -77.0151465, "type": "electric_scooter", "fusion_lon": 0.0, "lat": 38.8722045}, {"rental_uris": {"android": "https://dc.lft.to/lastmile_qr_scan", "ios": "https://dc.lft.to/lastmile_qr_scan"}, "is_reserved": 0, "is_disabled": 0, "name": "20aed2324a0214bdeb6d8f73fc084f65", "bike_id": "20aed2324a0214bdeb6d8f73fc084f65", "fusion_lat": 0.0, "lon": -77.03222833333334, "type": "electric_scooter", "fusion_lon": 0.0, "lat": 38.917981833333336}, {"rental_uris": {"android": "https://dc.lft.to/lastmile_qr_scan", "ios": "https://dc.lft.to/lastmile_qr_scan"}, "is_reserved": 0, "is_disabled": 0, "name": "fa7ac241478641e865b6a7a6926e144e", "bike_id": "fa7ac241478641e865b6a7a6926e144e", "fusion_lat": 0.0, "lon": -77.035148, "type": "electric_scooter", "fusion_lon": 0.0, "lat": 38.93597166666667}, {"rental_uris": {"android": "https://dc.lft.to/lastmile_qr_scan", "ios": "https://dc.lft.to/lastmile_qr_scan"}, "is_reserved": 0, "is_disabled": 0, "name": "e1df0dce1563388baabec1cd59213761", "bike_id": "e1df0dce1563388baabec1cd59213761", "fusion_lat": 0.0, "lon": -77.04736883333334, "type": "electric_scooter", "fusion_lon": 0.0, "lat": 38.90054766666667}, {"rental_uris": {"android": "https://dc.lft.to/lastmile_qr_scan", "ios": "https://dc.lft.to/lastmile_qr_scan"}, "is_reserved": 0, "is_disabled": 0, "name": "7aa90fc989dc573c9de5641864c3f96e", "bike_id": "7aa90fc989dc573c9de5641864c3f96e", "fusion_lat": 0.0, "lon": -77.04113883333333, "type": "electric_scooter", "fusion_lon": 0.0, "lat": 38.91191166666667}, {"rental_uris": {"android": "https://dc.lft.to/lastmile_qr_scan", "ios": "https://dc.lft.to/lastmile_qr_scan"}, "is_reserved": 0, "is_disabled": 0, "name": "e90d08888e2473f2531e3a5efc64fbcd", "bike_id": "e90d08888e2473f2531e3a5efc64fbcd", "fusion_lat": 0.0, "lon": -77.02789, "type": "electric_scooter", "fusion_lon": 0.0, "lat": 38.91805866666667}, {"rental_uris": {"android": "https://dc.lft.to/lastmile_qr_scan", "ios": "https://dc.lft.to/lastmile_qr_scan"}, "is_reserved": 0, "is_disabled": 0, "name": "dca3bb27eac469c4e031c4833b416a46", "bike_id": "dca3bb27eac469c4e031c4833b416a46", "fusion_lat": 0.0, "lon": -77.031918, "type": "electric_scooter", "fusion_lon": 0.0, "lat": 38.9160495}, {"rental_uris": {"android": "https://dc.lft.to/lastmile_qr_scan", "ios": "https://dc.lft.to/lastmile_qr_scan"}, "is_reserved": 0, "is_disabled": 0, "name": "7ee32c75f75c7d85421405c7e8eb3afd", "bike_id": "7ee32c75f75c7d85421405c7e8eb3afd", "fusion_lat": 0.0, "lon": -77.07201266666667, "type": "electric_scooter", "fusion_lon": 0.0, "lat": 38.9075925}, {"rental_uris": {"android": "https://dc.lft.to/lastmile_qr_scan", "ios": "https://dc.lft.to/lastmile_qr_scan"}, "is_reserved": 0, "is_disabled": 0, "name": "882151fcffc3c7c380dd3975a19a1445", "bike_id": "882151fcffc3c7c380dd3975a19a1445", "fusion_lat": 0.0, "lon": -77.02108733333333, "type": "electric_scooter", "fusion_lon": 0.0, "lat": 38.9060455}, {"rental_uris": {"android": "https://dc.lft.to/lastmile_qr_scan", "ios": "https://dc.lft.to/lastmile_qr_scan"}, "is_reserved": 0, "is_disabled": 0, "name": "0380ec12de9755469e2ab7f3818d4847", "bike_id": "0380ec12de9755469e2ab7f3818d4847", "fusion_lat": 0.0, "lon": -77.043431, "type": "electric_scooter", "fusion_lon": 0.0, "lat": 38.9084825}, {"rental_uris": {"android": "https://dc.lft.to/lastmile_qr_scan", "ios": "https://dc.lft.to/lastmile_qr_scan"}, "is_reserved": 0, "is_disabled": 0, "name": "981dd2b7c9fb04dd729a70cfa14bc4a3", "bike_id": "981dd2b7c9fb04dd729a70cfa14bc4a3", "fusion_lat": 0.0, "lon": -77.02783216666667, "type": "electric_scooter", "fusion_lon": 0.0, "lat": 38.962164666666666}, {"rental_uris": {"android": "https://dc.lft.to/lastmile_qr_scan", "ios": "https://dc.lft.to/lastmile_qr_scan"}, "is_reserved": 0, "is_disabled": 0, "name": "a9a38bbe58b3b1ad491939ebf77ce70b", "bike_id": "a9a38bbe58b3b1ad491939ebf77ce70b", "fusion_lat": 0.0, "lon": -77.0204475, "type": "electric_scooter", "fusion_lon": 0.0, "lat": 38.921752}, {"rental_uris": {"android": "https://dc.lft.to/lastmile_qr_scan", "ios": "https://dc.lft.to/lastmile_qr_scan"}, "is_reserved": 0, "is_disabled": 0, "name": "b8e98dfe69935d73b3bd85d1f7f1eba1", "bike_id": "b8e98dfe69935d73b3bd85d1f7f1eba1", "fusion_lat": 0.0, "lon": -77.0325315, "type": "electric_bike", "fusion_lon": 0.0, "lat": 38.93515266666667}, {"rental_uris": {"android": "https://dc.lft.to/lastmile_qr_scan", "ios": "https://dc.lft.to/lastmile_qr_scan"}, "is_reserved": 0, "is_disabled": 0, "name": "bcac4375584b65f96af936afb4031131", "bike_id": "bcac4375584b65f96af936afb4031131", "fusion_lat": 0.0, "lon": -77.0318365, "type": "electric_scooter", "fusion_lon": 0.0, "lat": 38.90406933333333}, {"rental_uris": {"android": "https://dc.lft.to/lastmile_qr_scan", "ios": "https://dc.lft.to/lastmile_qr_scan"}, "is_reserved": 0, "is_disabled": 0, "name": "77fb9551ab927b4880d026b212708924", "bike_id": "77fb9551ab927b4880d026b212708924", "fusion_lat": 0.0, "lon": -77.02697116666667, "type": "electric_scooter", "fusion_lon": 0.0, "lat": 38.949791833333336}, {"rental_uris": {"android": "https://dc.lft.to/lastmile_qr_scan", "ios": "https://dc.lft.to/lastmile_qr_scan"}, "is_reserved": 0, "is_disabled": 0, "name": "352c1a76514a79aff1022ad504c71ac1", "bike_id": "352c1a76514a79aff1022ad504c71ac1", "fusion_lat": 0.0, "lon": -77.0214965, "type": "electric_scooter", "fusion_lon": 0.0, "lat": 38.88742033333333}, {"rental_uris": {"android": "https://dc.lft.to/lastmile_qr_scan", "ios": "https://dc.lft.to/lastmile_qr_scan"}, "is_reserved": 0, "is_disabled": 0, "name": "2bd43ae5a34f3301316de5b7afe26caa", "bike_id": "2bd43ae5a34f3301316de5b7afe26caa", "fusion_lat": 0.0, "lon": -77.04390833333333, "type": "electric_scooter", "fusion_lon": 0.0, "lat": 38.901340166666664}, {"rental_uris": {"android": "https://dc.lft.to/lastmile_qr_scan", "ios": "https://dc.lft.to/lastmile_qr_scan"}, "is_reserved": 0, "is_disabled": 0, "name": "b00bfade213d1775ecf5ec065992dcd1", "bike_id": "b00bfade213d1775ecf5ec065992dcd1", "fusion_lat": 0.0, "lon": -76.98372866666666, "type": "electric_scooter", "fusion_lon": 0.0, "lat": 38.89265566666667}, {"rental_uris": {"android": "https://dc.lft.to/lastmile_qr_scan", "ios": "https://dc.lft.to/lastmile_qr_scan"}, "is_reserved": 0, "is_disabled": 0, "name": "39188ded2b44cff3152ebe04c4de22c2", "bike_id": "39188ded2b44cff3152ebe04c4de22c2", "fusion_lat": 0.0, "lon": -76.99694633333333, "type": "electric_scooter", "fusion_lon": 0.0, "lat": 38.88436083333333}, {"rental_uris": {"android": "https://dc.lft.to/lastmile_qr_scan", "ios": "https://dc.lft.to/lastmile_qr_scan"}, "is_reserved": 0, "is_disabled": 0, "name": "d3438f658d5ac0a65e3e6dc794f8e173", "bike_id": "d3438f658d5ac0a65e3e6dc794f8e173", "fusion_lat": 0.0, "lon": -77.06301383333333, "type": "electric_scooter", "fusion_lon": 0.0, "lat": 38.913412666666666}, {"rental_uris": {"android": "https://dc.lft.to/lastmile_qr_scan", "ios": "https://dc.lft.to/lastmile_qr_scan"}, "is_reserved": 0, "is_disabled": 0, "name": "fc20b73367293bea9e1bf208182f3b96", "bike_id": "fc20b73367293bea9e1bf208182f3b96", "fusion_lat": 0.0, "lon": -77.04677116666667, "type": "electric_scooter", "fusion_lon": 0.0, "lat": 38.91577783333334}, {"rental_uris": {"android": "https://dc.lft.to/lastmile_qr_scan", "ios": "https://dc.lft.to/lastmile_qr_scan"}, "is_reserved": 0, "is_disabled": 0, "name": "7129e782828b15b5cfa41e9197cae7b1", "bike_id": "7129e782828b15b5cfa41e9197cae7b1", "fusion_lat": 0.0, "lon": -77.0233185, "type": "electric_scooter", "fusion_lon": 0.0, "lat": 38.930518166666666}, {"rental_uris": {"android": "https://dc.lft.to/lastmile_qr_scan", "ios": "https://dc.lft.to/lastmile_qr_scan"}, "is_reserved": 0, "is_disabled": 0, "name": "7f2070462eeabcb14aefb30a42b59c7b", "bike_id": "7f2070462eeabcb14aefb30a42b59c7b", "fusion_lat": 0.0, "lon": -76.99826866666666, "type": "electric_scooter", "fusion_lon": 0.0, "lat": 38.900713}, {"rental_uris": {"android": "https://dc.lft.to/lastmile_qr_scan", "ios": "https://dc.lft.to/lastmile_qr_scan"}, "is_reserved": 0, "is_disabled": 0, "name": "999ff04c439fe73dd897fab996bb7f70", "bike_id": "999ff04c439fe73dd897fab996bb7f70", "fusion_lat": 0.0, "lon": -77.06366383333334, "type": "electric_scooter", "fusion_lon": 0.0, "lat": 38.920214333333334}, {"rental_uris": {"android": "https://dc.lft.to/lastmile_qr_scan", "ios": "https://dc.lft.to/lastmile_qr_scan"}, "is_reserved": 0, "is_disabled": 0, "name": "31f4ceb665bc1a2ca7964b855fcf78a3", "bike_id": "31f4ceb665bc1a2ca7964b855fcf78a3", "fusion_lat": 0.0, "lon": -76.998397, "type": "electric_scooter", "fusion_lon": 0.0, "lat": 38.900588}, {"rental_uris": {"android": "https://dc.lft.to/lastmile_qr_scan", "ios": "https://dc.lft.to/lastmile_qr_scan"}, "is_reserved": 0, "is_disabled": 0, "name": "94a742db442690cabc47a8e3d69375fe", "bike_id": "94a742db442690cabc47a8e3d69375fe", "fusion_lat": 0.0, "lon": -77.0421065, "type": "electric_scooter", "fusion_lon": 0.0, "lat": 38.90927}, {"rental_uris": {"android": "https://dc.lft.to/lastmile_qr_scan", "ios": "https://dc.lft.to/lastmile_qr_scan"}, "is_reserved": 0, "is_disabled": 0, "name": "c948e5f4a43751f7fb2ac7fd6028fafe", "bike_id": "c948e5f4a43751f7fb2ac7fd6028fafe", "fusion_lat": 0.0, "lon": -77.0234885, "type": "electric_scooter", "fusion_lon": 0.0, "lat": 38.9419725}, {"rental_uris": {"android": "https://dc.lft.to/lastmile_qr_scan", "ios": "https://dc.lft.to/lastmile_qr_scan"}, "is_reserved": 0, "is_disabled": 0, "name": "484312db67f7ac20e45f3f053414e54d", "bike_id": "484312db67f7ac20e45f3f053414e54d", "fusion_lat": 0.0, "lon": -77.03967766666666, "type": "electric_scooter", "fusion_lon": 0.0, "lat": 38.901283666666664}, {"rental_uris": {"android": "https://dc.lft.to/lastmile_qr_scan", "ios": "https://dc.lft.to/lastmile_qr_scan"}, "is_reserved": 0, "is_disabled": 0, "name": "cc515e2259dccd5c2c00ce46715a6117", "bike_id": "cc515e2259dccd5c2c00ce46715a6117", "fusion_lat": 0.0, "lon": -77.02355633333333, "type": "electric_scooter", "fusion_lon": 0.0, "lat": 38.9354005}, {"rental_uris": {"android": "https://dc.lft.to/lastmile_qr_scan", "ios": "https://dc.lft.to/lastmile_qr_scan"}, "is_reserved": 0, "is_disabled": 0, "name": "132d5f4f57dfe0d02029ff4b617bdfdc", "bike_id": "132d5f4f57dfe0d02029ff4b617bdfdc", "fusion_lat": 0.0, "lon": -77.00584983333333, "type": "electric_scooter", "fusion_lon": 0.0, "lat": 38.905784}, {"rental_uris": {"android": "https://dc.lft.to/lastmile_qr_scan", "ios": "https://dc.lft.to/lastmile_qr_scan"}, "is_reserved": 0, "is_disabled": 0, "name": "fb66e61db4ae1e6bcdd39a46329fad29", "bike_id": "fb66e61db4ae1e6bcdd39a46329fad29", "fusion_lat": 0.0, "lon": -77.04337683333334, "type": "electric_scooter", "fusion_lon": 0.0, "lat": 38.9109525}, {"rental_uris": {"android": "https://dc.lft.to/lastmile_qr_scan", "ios": "https://dc.lft.to/lastmile_qr_scan"}, "is_reserved": 0, "is_disabled": 0, "name": "bea4e6c91fc99261d826abdde69db61f", "bike_id": "bea4e6c91fc99261d826abdde69db61f", "fusion_lat": 0.0, "lon": -77.04632183333334, "type": "electric_scooter", "fusion_lon": 0.0, "lat": 38.909703666666665}, {"rental_uris": {"android": "https://dc.lft.to/lastmile_qr_scan", "ios": "https://dc.lft.to/lastmile_qr_scan"}, "is_reserved": 0, "is_disabled": 0, "name": "e2db550045460aec12c1317ab10a31a2", "bike_id": "e2db550045460aec12c1317ab10a31a2", "fusion_lat": 0.0, "lon": -77.01886966666666, "type": "electric_scooter", "fusion_lon": 0.0, "lat": 38.897468}, {"rental_uris": {"android": "https://dc.lft.to/lastmile_qr_scan", "ios": "https://dc.lft.to/lastmile_qr_scan"}, "is_reserved": 0, "is_disabled": 0, "name": "c9742b8805f35e864ccafe524b103ae5", "bike_id": "c9742b8805f35e864ccafe524b103ae5", "fusion_lat": 0.0, "lon": -77.04074783333333, "type": "electric_scooter", "fusion_lon": 0.0, "lat": 38.9142035}, {"rental_uris": {"android": "https://dc.lft.to/lastmile_qr_scan", "ios": "https://dc.lft.to/lastmile_qr_scan"}, "is_reserved": 0, "is_disabled": 0, "name": "8fd77c22abdeb763eb07a6fd9016de7c", "bike_id": "8fd77c22abdeb763eb07a6fd9016de7c", "fusion_lat": 0.0, "lon": -77.02367566666666, "type": "electric_scooter", "fusion_lon": 0.0, "lat": 38.892159666666664}, {"rental_uris": {"android": "https://dc.lft.to/lastmile_qr_scan", "ios": "https://dc.lft.to/lastmile_qr_scan"}, "is_reserved": 0, "is_disabled": 0, "name": "62dfdb896da6daeb611c664048690f33", "bike_id": "62dfdb896da6daeb611c664048690f33", "fusion_lat": 0.0, "lon": -77.02133783333333, "type": "electric_scooter", "fusion_lon": 0.0, "lat": 38.924148333333335}, {"rental_uris": {"android": "https://dc.lft.to/lastmile_qr_scan", "ios": "https://dc.lft.to/lastmile_qr_scan"}, "is_reserved": 0, "is_disabled": 0, "name": "2ded8f41db8a1318996f8cd98845e359", "bike_id": "2ded8f41db8a1318996f8cd98845e359", "fusion_lat": 0.0, "lon": -77.02732183333333, "type": "electric_scooter", "fusion_lon": 0.0, "lat": 38.952036}, {"rental_uris": {"android": "https://dc.lft.to/lastmile_qr_scan", "ios": "https://dc.lft.to/lastmile_qr_scan"}, "is_reserved": 0, "is_disabled": 0, "name": "3a994b1a37941699d64185c0c8c003bf", "bike_id": "3a994b1a37941699d64185c0c8c003bf", "fusion_lat": 0.0, "lon": -77.0308405, "type": "electric_scooter", "fusion_lon": 0.0, "lat": 38.92376266666667}, {"rental_uris": {"android": "https://dc.lft.to/lastmile_qr_scan", "ios": "https://dc.lft.to/lastmile_qr_scan"}, "is_reserved": 0, "is_disabled": 0, "name": "095790fcc38dce9a7bced6e599d0c0ad", "bike_id": "095790fcc38dce9a7bced6e599d0c0ad", "fusion_lat": 0.0, "lon": -77.02795966666666, "type": "electric_scooter", "fusion_lon": 0.0, "lat": 38.91055816666667}, {"rental_uris": {"android": "https://dc.lft.to/lastmile_qr_scan", "ios": "https://dc.lft.to/lastmile_qr_scan"}, "is_reserved": 0, "is_disabled": 0, "name": "ca77f3a5d102fd400c4872b7111e2d60", "bike_id": "ca77f3a5d102fd400c4872b7111e2d60", "fusion_lat": 0.0, "lon": -77.0157265, "type": "electric_bike", "fusion_lon": 0.0, "lat": 38.87303966666666}, {"rental_uris": {"android": "https://dc.lft.to/lastmile_qr_scan", "ios": "https://dc.lft.to/lastmile_qr_scan"}, "is_reserved": 0, "is_disabled": 0, "name": "6332abe27d35c60a76bedfda3e1fb46c", "bike_id": "6332abe27d35c60a76bedfda3e1fb46c", "fusion_lat": 0.0, "lon": -77.09015166666667, "type": "electric_bike", "fusion_lon": 0.0, "lat": 38.92655033333333}, {"rental_uris": {"android": "https://dc.lft.to/lastmile_qr_scan", "ios": "https://dc.lft.to/lastmile_qr_scan"}, "is_reserved": 0, "is_disabled": 0, "name": "0d2f0ff7078c743045b2da85d3f1aa00", "bike_id": "0d2f0ff7078c743045b2da85d3f1aa00", "fusion_lat": 0.0, "lon": -76.94177316666666, "type": "electric_scooter", "fusion_lon": 0.0, "lat": 38.892633333333336}, {"rental_uris": {"android": "https://dc.lft.to/lastmile_qr_scan", "ios": "https://dc.lft.to/lastmile_qr_scan"}, "is_reserved": 0, "is_disabled": 0, "name": "e7b76c0be5438353ef1f14352b962c7e", "bike_id": "e7b76c0be5438353ef1f14352b962c7e", "fusion_lat": 0.0, "lon": -77.03894183333334, "type": "electric_scooter", "fusion_lon": 0.0, "lat": 38.922011166666664}, {"rental_uris": {"android": "https://dc.lft.to/lastmile_qr_scan", "ios": "https://dc.lft.to/lastmile_qr_scan"}, "is_reserved": 0, "is_disabled": 0, "name": "237608891ab6f14a0e431f70f9640c62", "bike_id": "237608891ab6f14a0e431f70f9640c62", "fusion_lat": 0.0, "lon": -77.00265433333334, "type": "electric_scooter", "fusion_lon": 0.0, "lat": 38.90601383333333}, {"rental_uris": {"android": "https://dc.lft.to/lastmile_qr_scan", "ios": "https://dc.lft.to/lastmile_qr_scan"}, "is_reserved": 0, "is_disabled": 0, "name": "c939f1cfb2fdb0940aa877239d8679f1", "bike_id": "c939f1cfb2fdb0940aa877239d8679f1", "fusion_lat": 0.0, "lon": -77.02472816666666, "type": "electric_scooter", "fusion_lon": 0.0, "lat": 38.93857166666667}, {"rental_uris": {"android": "https://dc.lft.to/lastmile_qr_scan", "ios": "https://dc.lft.to/lastmile_qr_scan"}, "is_reserved": 0, "is_disabled": 0, "name": "331ae77f57805ae84bee8cd55dfcab46", "bike_id": "331ae77f57805ae84bee8cd55dfcab46", "fusion_lat": 0.0, "lon": -77.01864783333333, "type": "electric_scooter", "fusion_lon": 0.0, "lat": 38.929172333333334}, {"rental_uris": {"android": "https://dc.lft.to/lastmile_qr_scan", "ios": "https://dc.lft.to/lastmile_qr_scan"}, "is_reserved": 0, "is_disabled": 0, "name": "3b2dd6b4a987f4559c61e7797032db70", "bike_id": "3b2dd6b4a987f4559c61e7797032db70", "fusion_lat": 0.0, "lon": -77.02169833333333, "type": "electric_scooter", "fusion_lon": 0.0, "lat": 38.9005425}, {"rental_uris": {"android": "https://dc.lft.to/lastmile_qr_scan", "ios": "https://dc.lft.to/lastmile_qr_scan"}, "is_reserved": 0, "is_disabled": 0, "name": "eb58ba42102646ac31ca7650436ebf38", "bike_id": "eb58ba42102646ac31ca7650436ebf38", "fusion_lat": 0.0, "lon": -77.12730016666667, "type": "electric_bike", "fusion_lon": 0.0, "lat": 38.895616}, {"rental_uris": {"android": "https://dc.lft.to/lastmile_qr_scan", "ios": "https://dc.lft.to/lastmile_qr_scan"}, "is_reserved": 0, "is_disabled": 0, "name": "d608f4f6cf55dc673e43efed0bd29584", "bike_id": "d608f4f6cf55dc673e43efed0bd29584", "fusion_lat": 0.0, "lon": -77.0328225, "type": "electric_scooter", "fusion_lon": 0.0, "lat": 38.898808833333334}, {"rental_uris": {"android": "https://dc.lft.to/lastmile_qr_scan", "ios": "https://dc.lft.to/lastmile_qr_scan"},