{"data": {"bikes": [{"lon": -77.02389866666667, "fusion_lon": 0.0, "bike_id": "b66be0039b7209498c72650d89a2f3ac", "type": "electric_scooter", "name": "b66be0039b7209498c72650d89a2f3ac", "rental_uris": {"android": "https://dc.lft.to/lastmile_qr_scan", "ios": "https://dc.lft.to/lastmile_qr_scan"}, "is_disabled": 0, "fusion_lat": 0.0, "lat": 38.9069795, "is_reserved": 0}, {"lon": -77.011356, "fusion_lon": 0.0, "bike_id": "e6ca58224115211253db269665484d41", "type": "electric_scooter", "name": "e6ca58224115211253db269665484d41", "rental_uris": {"android": "https://dc.lft.to/lastmile_qr_scan", "ios": "https://dc.lft.to/lastmile_qr_scan"}, "is_disabled": 0, "fusion_lat": 0.0, "lat": 38.90000366666666, "is_reserved": 0}, {"lon": -77.01456766666666, "fusion_lon": 0.0, "bike_id": "fc6a53a88c68d83a6f68b9920050e4ed", "type": "electric_scooter", "name": "fc6a53a88c68d83a6f68b9920050e4ed", "rental_uris": {"android": "https://dc.lft.to/lastmile_qr_scan", "ios": "https://dc.lft.to/lastmile_qr_scan"}, "is_disabled": 0, "fusion_lat": 0.0, "lat": 38.915883666666666, "is_reserved": 0}, {"lon": -77.059107, "fusion_lon": 0.0, "bike_id": "aacd1a1b0e5c7389833221b8d632e0e5", "type": "electric_scooter", "name": "aacd1a1b0e5c7389833221b8d632e0e5", "rental_uris": {"android": "https://dc.lft.to/lastmile_qr_scan", "ios": "https://dc.lft.to/lastmile_qr_scan"}, "is_disabled": 0, "fusion_lat": 0.0, "lat": 38.90271833333333, "is_reserved": 0}, {"lon": -77.03834666666667, "fusion_lon": 0.0, "bike_id": "b012cf03f1033266e6cc9fdd802a81c4", "type": "electric_scooter", "name": "b012cf03f1033266e6cc9fdd802a81c4", "rental_uris": {"android": "https://dc.lft.to/lastmile_qr_scan", "ios": "https://dc.lft.to/lastmile_qr_scan"}, "is_disabled": 0, "fusion_lat": 0.0, "lat": 38.941893, "is_reserved": 0}, {"lon": -77.02838433333334, "fusion_lon": 0.0, "bike_id": "d74237aad2db9f925c072943ddc8246f", "type": "electric_scooter", "name": "d74237aad2db9f925c072943ddc8246f", "rental_uris": {"android": "https://dc.lft.to/lastmile_qr_scan", "ios": "https://dc.lft.to/lastmile_qr_scan"}, "is_disabled": 0, "fusion_lat": 0.0, "lat": 38.893601833333335, "is_reserved": 0}, {"lon": -77.00200733333334, "fusion_lon": 0.0, "bike_id": "510cb1c4d4edf970e6e950b4684e9e93", "type": "electric_scooter", "name": "510cb1c4d4edf970e6e950b4684e9e93", "rental_uris": {"android": "https://dc.lft.to/lastmile_qr_scan", "ios": "https://dc.lft.to/lastmile_qr_scan"}, "is_disabled": 0, "fusion_lat": 0.0, "lat": 38.90242583333333, "is_reserved": 0}, {"lon": -77.0371025, "fusion_lon": 0.0, "bike_id": "fb1b56cb215229b02240f2a492808b7b", "type": "electric_scooter", "name": "fb1b56cb215229b02240f2a492808b7b", "rental_uris": {"android": "https://dc.lft.to/lastmile_qr_scan", "ios": "https://dc.lft.to/lastmile_qr_scan"}, "is_disabled": 0, "fusion_lat": 0.0, "lat": 38.928272666666665, "is_reserved": 0}, {"lon": -77.062688, "fusion_lon": 0.0, "bike_id": "4f4320c4232931e44131ba7673445643", "type": "electric_scooter", "name": "4f4320c4232931e44131ba7673445643", "rental_uris": {"android": "https://dc.lft.to/lastmile_qr_scan", "ios": "https://dc.lft.to/lastmile_qr_scan"}, "is_disabled": 0, "fusion_lat": 0.0, "lat": 38.90567766666667, "is_reserved": 0}, {"lon": -77.02223566666666, "fusion_lon": 0.0, "bike_id": "c844a36a0d4c46de3ff7f4f394f08231", "type": "electric_scooter", "name": "c844a36a0d4c46de3ff7f4f394f08231", "rental_uris": {"android": "https://dc.lft.to/lastmile_qr_scan", "ios": "https://dc.lft.to/lastmile_qr_scan"}, "is_disabled": 0, "fusion_lat": 0.0, "lat": 38.892178333333334, "is_reserved": 0}, {"lon": -77.00566683333334, "fusion_lon": 0.0, "bike_id": "3a68d76bd0e7833e9172293703605c11", "type": "electric_scooter", "name": "3a68d76bd0e7833e9172293703605c11", "rental_uris": {"android": "https://dc.lft.to/lastmile_qr_scan", "ios": "https://dc.lft.to/lastmile_qr_scan"}, "is_disabled": 0, "fusion_lat": 0.0, "lat": 38.87621883333333, "is_reserved": 0}, {"lon": -77.041946, "fusion_lon": 0.0, "bike_id": "48abc7ab53f5171a90d5d9053d461b3d", "type": "electric_scooter", "name": "48abc7ab53f5171a90d5d9053d461b3d", "rental_uris": {"android": "https://dc.lft.to/lastmile_qr_scan", "ios": "https://dc.lft.to/lastmile_qr_scan"}, "is_disabled": 0, "fusion_lat": 0.0, "lat": 38.92058333333333, "is_reserved": 0}, {"lon": -77.02977616666666, "fusion_lon": 0.0, "bike_id": "292eb95e4d000eab1b4cf068670ee505", "type": "electric_scooter", "name": "292eb95e4d000eab1b4cf068670ee505", "rental_uris": {"android": "https://dc.lft.to/lastmile_qr_scan", "ios": "https://dc.lft.to/lastmile_qr_scan"}, "is_disabled": 0, "fusion_lat": 0.0, "lat": 38.8903825, "is_reserved": 0}, {"lon": -77.04487533333334, "fusion_lon": 0.0, "bike_id": "00f0c987c9d073bf6a16d70bd6881ec8", "type": "electric_scooter", "name": "00f0c987c9d073bf6a16d70bd6881ec8", "rental_uris": {"android": "https://dc.lft.to/lastmile_qr_scan", "ios": "https://dc.lft.to/lastmile_qr_scan"}, "is_disabled": 0, "fusion_lat": 0.0, "lat": 38.90018533333333, "is_reserved": 0}, {"lon": -76.99004916666667, "fusion_lon": 0.0, "bike_id": "2f8f6c4f191875ebff6c5e7f890173bf", "type": "electric_scooter", "name": "2f8f6c4f191875ebff6c5e7f890173bf", "rental_uris": {"android": "https://dc.lft.to/lastmile_qr_scan", "ios": "https://dc.lft.to/lastmile_qr_scan"}, "is_disabled": 0, "fusion_lat": 0.0, "lat": 38.865053, "is_reserved": 0}, {"lon": -77.01211016666667, "fusion_lon": 0.0, "bike_id": "244d1640eec55484eceb8fe41b67c99e", "type": "electric_scooter", "name": "244d1640eec55484eceb8fe41b67c99e", "rental_uris": {"android": "https://dc.lft.to/lastmile_qr_scan", "ios": "https://dc.lft.to/lastmile_qr_scan"}, "is_disabled": 0, "fusion_lat": 0.0, "lat": 38.921375833333336, "is_reserved": 0}, {"lon": -77.02816516666667, "fusion_lon": 0.0, "bike_id": "13a90c2f7056b3e93171f066d99fc2b5", "type": "electric_scooter", "name": "13a90c2f7056b3e93171f066d99fc2b5", "rental_uris": {"android": "https://dc.lft.to/lastmile_qr_scan", "ios": "https://dc.lft.to/lastmile_qr_scan"}, "is_disabled": 0, "fusion_lat": 0.0, "lat": 38.89824633333333, "is_reserved": 0}, {"lon": -77.0261195, "fusion_lon": 0.0, "bike_id": "a2199a8aa84ea191a9844176659df538", "type": "electric_scooter", "name": "a2199a8aa84ea191a9844176659df538", "rental_uris": {"android": "https://dc.lft.to/lastmile_qr_scan", "ios": "https://dc.lft.to/lastmile_qr_scan"}, "is_disabled": 0, "fusion_lat": 0.0, "lat": 38.91411083333333, "is_reserved": 0}, {"lon": -77.03639, "fusion_lon": 0.0, "bike_id": "db4374cd61749b8d1e626acd35357a1a", "type": "electric_scooter", "name": "db4374cd61749b8d1e626acd35357a1a", "rental_uris": {"android": "https://dc.lft.to/lastmile_qr_scan", "ios": "https://dc.lft.to/lastmile_qr_scan"}, "is_disabled": 0, "fusion_lat": 0.0, "lat": 38.930552666666664, "is_reserved": 0}, {"lon": -77.022091, "fusion_lon": 0.0, "bike_id": "92df057e0ba2d63d9fed30fd802eb5cf", "type": "electric_scooter", "name": "92df057e0ba2d63d9fed30fd802eb5cf", "rental_uris": {"android": "https://dc.lft.to/lastmile_qr_scan", "ios": "https://dc.lft.to/lastmile_qr_scan"}, "is_disabled": 0, "fusion_lat": 0.0, "lat": 38.916877666666664, "is_reserved": 0}, {"lon": -77.0210715, "fusion_lon": 0.0, "bike_id": "a961a374796398d588bcae1daee76093", "type": "electric_scooter", "name": "a961a374796398d588bcae1daee76093", "rental_uris": {"android": "https://dc.lft.to/lastmile_qr_scan", "ios": "https://dc.lft.to/lastmile_qr_scan"}, "is_disabled": 0, "fusion_lat": 0.0, "lat": 38.9220695, "is_reserved": 0}, {"lon": -77.01110566666667, "fusion_lon": 0.0, "bike_id": "9b08fb48e61072feea122992190b2030", "type": "electric_scooter", "name": "9b08fb48e61072feea122992190b2030", "rental_uris": {"android": "https://dc.lft.to/lastmile_qr_scan", "ios": "https://dc.lft.to/lastmile_qr_scan"}, "is_disabled": 0, "fusion_lat": 0.0, "lat": 38.900108, "is_reserved": 0}, {"lon": -77.026799, "fusion_lon": 0.0, "bike_id": "fef1f627ff9bd2f46ecdce24cc08e886", "type": "electric_scooter", "name": "fef1f627ff9bd2f46ecdce24cc08e886", "rental_uris": {"android": "https://dc.lft.to/lastmile_qr_scan", "ios": "https://dc.lft.to/lastmile_qr_scan"}, "is_disabled": 0, "fusion_lat": 0.0, "lat": 38.95506783333333, "is_reserved": 0}, {"lon": -77.2292885, "fusion_lon": 0.0, "bike_id": "2876888db99734f0581aa69a2d76d2ee", "type": "electric_bike", "name": "2876888db99734f0581aa69a2d76d2ee", "rental_uris": {"android": "https://dc.lft.to/lastmile_qr_scan", "ios": "https://dc.lft.to/lastmile_qr_scan"}, "is_disabled": 0, "fusion_lat": 0.0, "lat": 38.931892500000004, "is_reserved": 0}, {"lon": -76.97857983333333, "fusion_lon": 0.0, "bike_id": "c2526392e4a5acef5c7b4d027c5149ed", "type": "electric_scooter", "name": "c2526392e4a5acef5c7b4d027c5149ed", "rental_uris": {"android": "https://dc.lft.to/lastmile_qr_scan", "ios": "https://dc.lft.to/lastmile_qr_scan"}, "is_disabled": 0, "fusion_lat": 0.0, "lat": 38.86744983333333, "is_reserved": 0}, {"lon": -77.0011155, "fusion_lon": 0.0, "bike_id": "07175d84865b043bf45c3480a5eeda2e", "type": "electric_scooter", "name": "07175d84865b043bf45c3480a5eeda2e", "rental_uris": {"android": "https://dc.lft.to/lastmile_qr_scan", "ios": "https://dc.lft.to/lastmile_qr_scan"}, "is_disabled": 0, "fusion_lat": 0.0, "lat": 38.8737065, "is_reserved": 0}, {"lon": -77.04108283333333, "fusion_lon": 0.0, "bike_id": "e1add53c131775bd5996c45ffc5ef7a3", "type": "electric_scooter", "name": "e1add53c131775bd5996c45ffc5ef7a3", "rental_uris": {"android": "https://dc.lft.to/lastmile_qr_scan", "ios": "https://dc.lft.to/lastmile_qr_scan"}, "is_disabled": 0, "fusion_lat": 0.0, "lat": 38.916920833333336, "is_reserved": 0}, {"lon": -77.01222266666667, "fusion_lon": 0.0, "bike_id": "f47a19a2de13350a53407c6f2e6a8914", "type": "electric_scooter", "name": "f47a19a2de13350a53407c6f2e6a8914", "rental_uris": {"android": "https://dc.lft.to/lastmile_qr_scan", "ios": "https://dc.lft.to/lastmile_qr_scan"}, "is_disabled": 0, "fusion_lat": 0.0, "lat": 38.92401183333333, "is_reserved": 0}, {"lon": -77.039601, "fusion_lon": 0.0, "bike_id": "a927e3f702d47016c88741edccb68d8f", "type": "electric_scooter", "name": "a927e3f702d47016c88741edccb68d8f", "rental_uris": {"android": "https://dc.lft.to/lastmile_qr_scan", "ios": "https://dc.lft.to/lastmile_qr_scan"}, "is_disabled": 0, "fusion_lat": 0.0, "lat": 38.902680333333336, "is_reserved": 0}, {"lon": -77.0351665, "fusion_lon": 0.0, "bike_id": "09195677dcf716dd03dc83e4a6c6074e", "type": "electric_scooter", "name": "09195677dcf716dd03dc83e4a6c6074e", "rental_uris": {"android": "https://dc.lft.to/lastmile_qr_scan", "ios": "https://dc.lft.to/lastmile_qr_scan"}, "is_disabled": 0, "fusion_lat": 0.0, "lat": 38.922177833333336, "is_reserved": 0}, {"lon": -76.9908315, "fusion_lon": 0.0, "bike_id": "3e30091d8749206b71512c9b4fadbd22", "type": "electric_bike", "name": "3e30091d8749206b71512c9b4fadbd22", "rental_uris": {"android": "https://dc.lft.to/lastmile_qr_scan", "ios": "https://dc.lft.to/lastmile_qr_scan"}, "is_disabled": 0, "fusion_lat": 0.0, "lat": 38.89810883333333, "is_reserved": 0}, {"lon": -77.0255025, "fusion_lon": 0.0, "bike_id": "968d1e4cb7ad3070e6596a405f0de006", "type": "electric_bike", "name": "968d1e4cb7ad3070e6596a405f0de006", "rental_uris": {"android": "https://dc.lft.to/lastmile_qr_scan", "ios": "https://dc.lft.to/lastmile_qr_scan"}, "is_disabled": 0, "fusion_lat": 0.0, "lat": 38.997101666666666, "is_reserved": 0}, {"lon": -77.04877666666667, "fusion_lon": 0.0, "bike_id": "4317d10014e3cbc33da87967e96c0e12", "type": "electric_scooter", "name": "4317d10014e3cbc33da87967e96c0e12", "rental_uris": {"android": "https://dc.lft.to/lastmile_qr_scan", "ios": "https://dc.lft.to/lastmile_qr_scan"}, "is_disabled": 0, "fusion_lat": 0.0, "lat": 38.908188833333334, "is_reserved": 0}, {"lon": -77.07887433333333, "fusion_lon": 0.0, "bike_id": "291ab0076f4a22aeebb8a8c39b47289b", "type": "electric_bike", "name": "291ab0076f4a22aeebb8a8c39b47289b", "rental_uris": {"android": "https://dc.lft.to/lastmile_qr_scan", "ios": "https://dc.lft.to/lastmile_qr_scan"}, "is_disabled": 0, "fusion_lat": 0.0, "lat": 38.84252333333333, "is_reserved": 0}, {"lon": -76.99133733333333, "fusion_lon": 0.0, "bike_id": "8526e55f36fe0a8d3049da69f6131d61", "type": "electric_scooter", "name": "8526e55f36fe0a8d3049da69f6131d61", "rental_uris": {"android": "https://dc.lft.to/lastmile_qr_scan", "ios": "https://dc.lft.to/lastmile_qr_scan"}, "is_disabled": 0, "fusion_lat": 0.0, "lat": 38.90311333333333, "is_reserved": 0}, {"lon": -77.0326965, "fusion_lon": 0.0, "bike_id": "0aa0094dbd1367f75445ec76c1a4b3c2", "type": "electric_scooter", "name": "0aa0094dbd1367f75445ec76c1a4b3c2", "rental_uris": {"android": "https://dc.lft.to/lastmile_qr_scan", "ios": "https://dc.lft.to/lastmile_qr_scan"}, "is_disabled": 0, "fusion_lat": 0.0, "lat": 38.928074333333335, "is_reserved": 0}, {"lon": -77.03568016666667, "fusion_lon": 0.0, "bike_id": "1a37842c74c133c1bfd1894c1952bf12", "type": "electric_scooter", "name": "1a37842c74c133c1bfd1894c1952bf12", "rental_uris": {"android": "https://dc.lft.to/lastmile_qr_scan", "ios": "https://dc.lft.to/lastmile_qr_scan"}, "is_disabled": 0, "fusion_lat": 0.0, "lat": 38.926943, "is_reserved": 0}, {"lon": -76.977536, "fusion_lon": 0.0, "bike_id": "6978dff8d23dbe373a08b69734f3aeb4", "type": "electric_scooter", "name": "6978dff8d23dbe373a08b69734f3aeb4", "rental_uris": {"android": "https://dc.lft.to/lastmile_qr_scan", "ios": "https://dc.lft.to/lastmile_qr_scan"}, "is_disabled": 0, "fusion_lat": 0.0, "lat": 38.928687333333336, "is_reserved": 0}, {"lon": -77.03877616666666, "fusion_lon": 0.0, "bike_id": "ec0664da4bf4020ac6f82cb64f59a171", "type": "electric_scooter", "name": "ec0664da4bf4020ac6f82cb64f59a171", "rental_uris": {"android": "https://dc.lft.to/lastmile_qr_scan", "ios": "https://dc.lft.to/lastmile_qr_scan"}, "is_disabled": 0, "fusion_lat": 0.0, "lat": 38.91705566666667, "is_reserved": 0}, {"lon": -77.04529383333333, "fusion_lon": 0.0, "bike_id": "176e03c1c5c5f84e1091005bd983a6d2", "type": "electric_scooter", "name": "176e03c1c5c5f84e1091005bd983a6d2", "rental_uris": {"android": "https://dc.lft.to/lastmile_qr_scan", "ios": "https://dc.lft.to/lastmile_qr_scan"}, "is_disabled": 0, "fusion_lat": 0.0, "lat": 38.894742, "is_reserved": 0}, {"lon": -77.05154366666666, "fusion_lon": 0.0, "bike_id": "bb549e83bbc39c84317af0f45457efb5", "type": "electric_scooter", "name": "bb549e83bbc39c84317af0f45457efb5", "rental_uris": {"android": "https://dc.lft.to/lastmile_qr_scan", "ios": "https://dc.lft.to/lastmile_qr_scan"}, "is_disabled": 0, "fusion_lat": 0.0, "lat": 38.923853333333334, "is_reserved": 0}, {"lon": -77.00386633333333, "fusion_lon": 0.0, "bike_id": "7656f506f3cb4637685363f2b20d9890", "type": "electric_scooter", "name": "7656f506f3cb4637685363f2b20d9890", "rental_uris": {"android": "https://dc.lft.to/lastmile_qr_scan", "ios": "https://dc.lft.to/lastmile_qr_scan"}, "is_disabled": 0, "fusion_lat": 0.0, "lat": 38.848516333333336, "is_reserved": 0}, {"lon": -77.031492, "fusion_lon": 0.0, "bike_id": "87b180d5007bfed9b5bab42955ebdc97", "type": "electric_scooter", "name": "87b180d5007bfed9b5bab42955ebdc97", "rental_uris": {"android": "https://dc.lft.to/lastmile_qr_scan", "ios": "https://dc.lft.to/lastmile_qr_scan"}, "is_disabled": 0, "fusion_lat": 0.0, "lat": 38.91262783333333, "is_reserved": 0}, {"lon": -77.03837833333333, "fusion_lon": 0.0, "bike_id": "2694d5652820c08fd7e24f0c347be871", "type": "electric_scooter", "name": "2694d5652820c08fd7e24f0c347be871", "rental_uris": {"android": "https://dc.lft.to/lastmile_qr_scan", "ios": "https://dc.lft.to/lastmile_qr_scan"}, "is_disabled": 0, "fusion_lat": 0.0, "lat": 38.9032935, "is_reserved": 0}, {"lon": -77.02285683333334, "fusion_lon": 0.0, "bike_id": "501adb0c30de47c7b0dffe36e37dadc4", "type": "electric_scooter", "name": "501adb0c30de47c7b0dffe36e37dadc4", "rental_uris": {"android": "https://dc.lft.to/lastmile_qr_scan", "ios": "https://dc.lft.to/lastmile_qr_scan"}, "is_disabled": 0, "fusion_lat": 0.0, "lat": 38.916804, "is_reserved": 0}, {"lon": -77.0324945, "fusion_lon": 0.0, "bike_id": "2a00fc9a154a7d6ef5181e7d39a30e62", "type": "electric_scooter", "name": "2a00fc9a154a7d6ef5181e7d39a30e62", "rental_uris": {"android": "https://dc.lft.to/lastmile_qr_scan", "ios": "https://dc.lft.to/lastmile_qr_scan"}, "is_disabled": 0, "fusion_lat": 0.0, "lat": 38.897438, "is_reserved": 0}, {"lon": -77.035351, "fusion_lon": 0.0, "bike_id": "9d0a88e3ce7bc4c6396de480c89a297d", "type": "electric_scooter", "name": "9d0a88e3ce7bc4c6396de480c89a297d", "rental_uris": {"android": "https://dc.lft.to/lastmile_qr_scan", "ios": "https://dc.lft.to/lastmile_qr_scan"}, "is_disabled": 0, "fusion_lat": 0.0, "lat": 38.92315133333334, "is_reserved": 0}, {"lon": -77.0341295, "fusion_lon": 0.0, "bike_id": "e6da2e93e483d5dbd53cdd6b0edb3c60", "type": "electric_scooter", "name": "e6da2e93e483d5dbd53cdd6b0edb3c60", "rental_uris": {"android": "https://dc.lft.to/lastmile_qr_scan", "ios": "https://dc.lft.to/lastmile_qr_scan"}, "is_disabled": 0, "fusion_lat": 0.0, "lat": 38.923159166666665, "is_reserved": 0}, {"lon": -77.008287, "fusion_lon": 0.0, "bike_id": "4c6d495ddd150963927d1454d2c58e59", "type": "electric_scooter", "name": "4c6d495ddd150963927d1454d2c58e59", "rental_uris": {"android": "https://dc.lft.to/lastmile_qr_scan", "ios": "https://dc.lft.to/lastmile_qr_scan"}, "is_disabled": 0, "fusion_lat": 0.0, "lat": 38.83165183333333, "is_reserved": 0}, {"lon": -76.96016766666666, "fusion_lon": 0.0, "bike_id": "e54e5c9f908847f387bc23b471a4fd83", "type": "electric_scooter", "name": "e54e5c9f908847f387bc23b471a4fd83", "rental_uris": {"android": "https://dc.lft.to/lastmile_qr_scan", "ios": "https://dc.lft.to/lastmile_qr_scan"}, "is_disabled": 0, "fusion_lat": 0.0, "lat": 38.8693205, "is_reserved": 0}, {"lon": -76.98350083333334, "fusion_lon": 0.0, "bike_id": "069e83f0455adc125a163dba41326dee", "type": "electric_bike", "name": "069e83f0455adc125a163dba41326dee", "rental_uris": {"android": "https://dc.lft.to/lastmile_qr_scan", "ios": "https://dc.lft.to/lastmile_qr_scan"}, "is_disabled": 0, "fusion_lat": 0.0, "lat": 38.862610833333335, "is_reserved": 0}, {"lon": -77.03429516666667, "fusion_lon": 0.0, "bike_id": "49cf01ad03fe152658d8095821e47bf8", "type": "electric_scooter", "name": "49cf01ad03fe152658d8095821e47bf8", "rental_uris": {"android": "https://dc.lft.to/lastmile_qr_scan", "ios": "https://dc.lft.to/lastmile_qr_scan"}, "is_disabled": 0, "fusion_lat": 0.0, "lat": 38.927378166666664, "is_reserved": 0}, {"lon": -77.02204483333334, "fusion_lon": 0.0, "bike_id": "a08136cca1073677ef2c7e02c69a9344", "type": "electric_scooter", "name": "a08136cca1073677ef2c7e02c69a9344", "rental_uris": {"android": "https://dc.lft.to/lastmile_qr_scan", "ios": "https://dc.lft.to/lastmile_qr_scan"}, "is_disabled": 0, "fusion_lat": 0.0, "lat": 38.908265666666665, "is_reserved": 0}, {"lon": -77.034424, "fusion_lon": 0.0, "bike_id": "7ba2bb9498f40e2cb99fc57f3398e958", "type": "electric_scooter", "name": "7ba2bb9498f40e2cb99fc57f3398e958", "rental_uris": {"android": "https://dc.lft.to/lastmile_qr_scan", "ios": "https://dc.lft.to/lastmile_qr_scan"}, "is_disabled": 0, "fusion_lat": 0.0, "lat": 38.917983, "is_reserved": 0}, {"lon": -77.027138, "fusion_lon": 0.0, "bike_id": "436ea47a24ea26fd05438cda13d37da6", "type": "electric_scooter", "name": "436ea47a24ea26fd05438cda13d37da6", "rental_uris": {"android": "https://dc.lft.to/lastmile_qr_scan", "ios": "https://dc.lft.to/lastmile_qr_scan"}, "is_disabled": 0, "fusion_lat": 0.0, "lat": 38.91717466666667, "is_reserved": 0}, {"lon": -76.90422, "fusion_lon": 0.0, "bike_id": "f4a20e614d866efbd60dcd858d3a4623", "type": "electric_bike", "name": "f4a20e614d866efbd60dcd858d3a4623", "rental_uris": {"android": "https://dc.lft.to/lastmile_qr_scan", "ios": "https://dc.lft.to/lastmile_qr_scan"}, "is_disabled": 0, "fusion_lat": 0.0, "lat": 38.94053316666667, "is_reserved": 0}, {"lon": -77.03643333333333, "fusion_lon": 0.0, "bike_id": "31b0d02fff637f8a4d36e85b863f005b", "type": "electric_scooter", "name": "31b0d02fff637f8a4d36e85b863f005b", "rental_uris": {"android": "https://dc.lft.to/lastmile_qr_scan", "ios": "https://dc.lft.to/lastmile_qr_scan"}, "is_disabled": 0, "fusion_lat": 0.0, "lat": 38.91744716666667, "is_reserved": 0}, {"lon": -77.04541883333333, "fusion_lon": 0.0, "bike_id": "e5aa512cbec005c658334b3be95668b4", "type": "electric_scooter", "name": "e5aa512cbec005c658334b3be95668b4", "rental_uris": {"android": "https://dc.lft.to/lastmile_qr_scan", "ios": "https://dc.lft.to/lastmile_qr_scan"}, "is_disabled": 0, "fusion_lat": 0.0, "lat": 38.9315545, "is_reserved": 0}, {"lon": -77.01142466666667, "fusion_lon": 0.0, "bike_id": "33290ddd9403735829ae0b4c2547816d", "type": "electric_scooter", "name": "33290ddd9403735829ae0b4c2547816d", "rental_uris": {"android": "https://dc.lft.to/lastmile_qr_scan", "ios": "https://dc.lft.to/lastmile_qr_scan"}, "is_disabled": 0, "fusion_lat": 0.0, "lat": 38.900177166666666, "is_reserved": 0}, {"lon": -76.95588583333333, "fusion_lon": 0.0, "bike_id": "d83a088a2adc1c6a5a237d555a589484", "type": "electric_scooter", "name": "d83a088a2adc1c6a5a237d555a589484", "rental_uris": {"android": "https://dc.lft.to/lastmile_qr_scan", "ios": "https://dc.lft.to/lastmile_qr_scan"}, "is_disabled": 0, "fusion_lat": 0.0, "lat": 38.88760933333333, "is_reserved": 0}, {"lon": -77.07063766666667, "fusion_lon": 0.0, "bike_id": "3b81e45b14d53021997d42e4341c9e2c", "type": "electric_scooter", "name": "3b81e45b14d53021997d42e4341c9e2c", "rental_uris": {"android": "https://dc.lft.to/lastmile_qr_scan", "ios": "https://dc.lft.to/lastmile_qr_scan"}, "is_disabled": 0, "fusion_lat": 0.0, "lat": 38.89642583333333, "is_reserved": 0}, {"lon": -77.02463616666667, "fusion_lon": 0.0, "bike_id": "b7468ba12ed304b47b7c24f37ba12167", "type": "electric_scooter", "name": "b7468ba12ed304b47b7c24f37ba12167", "rental_uris": {"android": "https://dc.lft.to/lastmile_qr_scan", "ios": "https://dc.lft.to/lastmile_qr_scan"}, "is_disabled": 0, "fusion_lat": 0.0, "lat": 38.931047666666664, "is_reserved": 0}, {"lon": -77.0216985, "fusion_lon": 0.0, "bike_id": "886858cb3f2cfa299cc0a3f39018db1e", "type": "electric_scooter", "name": "886858cb3f2cfa299cc0a3f39018db1e", "rental_uris": {"android": "https://dc.lft.to/lastmile_qr_scan", "ios": "https://dc.lft.to/lastmile_qr_scan"}, "is_disabled": 0, "fusion_lat": 0.0, "lat": 38.9429025, "is_reserved": 0}, {"lon": -77.00580183333334, "fusion_lon": 0.0, "bike_id": "0e207589876b908c4da8a08186b16b4c", "type": "electric_scooter", "name": "0e207589876b908c4da8a08186b16b4c", "rental_uris": {"android": "https://dc.lft.to/lastmile_qr_scan", "ios": "https://dc.lft.to/lastmile_qr_scan"}, "is_disabled": 0, "fusion_lat": 0.0, "lat": 38.875716, "is_reserved": 0}, {"lon": -77.02736683333333, "fusion_lon": 0.0, "bike_id": "3e9fad7e8d7f119acd7b501484997024", "type": "electric_scooter", "name": "3e9fad7e8d7f119acd7b501484997024", "rental_uris": {"android": "https://dc.lft.to/lastmile_qr_scan", "ios": "https://dc.lft.to/lastmile_qr_scan"}, "is_disabled": 0, "fusion_lat": 0.0, "lat": 38.89736766666667, "is_reserved": 0}, {"lon": -77.02563566666667, "fusion_lon": 0.0, "bike_id": "deb3045e5e5b7b930e0cee05d54e453d", "type": "electric_scooter", "name": "deb3045e5e5b7b930e0cee05d54e453d", "rental_uris": {"android": "https://dc.lft.to/lastmile_qr_scan", "ios": "https://dc.lft.to/lastmile_qr_scan"}, "is_disabled": 0, "fusion_lat": 0.0, "lat": 38.90339566666667, "is_reserved": 0}, {"lon": -77.038574, "fusion_lon": 0.0, "bike_id": "ea9e5063a3f96c0d0f7e4f72df4d7f85", "type": "electric_scooter", "name": "ea9e5063a3f96c0d0f7e4f72df4d7f85", "rental_uris": {"android": "https://dc.lft.to/lastmile_qr_scan", "ios": "https://dc.lft.to/lastmile_qr_scan"}, "is_disabled": 0, "fusion_lat": 0.0, "lat": 38.91713283333333, "is_reserved": 0}, {"lon": -77.02542866666667, "fusion_lon": 0.0, "bike_id": "d962e0993667216b7a516bc034628d43", "type": "electric_bike", "name": "d962e0993667216b7a516bc034628d43", "rental_uris": {"android": "https://dc.lft.to/lastmile_qr_scan", "ios": "https://dc.lft.to/lastmile_qr_scan"}, "is_disabled": 0, "fusion_lat": 0.0, "lat": 38.99710483333333, "is_reserved": 0}, {"lon": -77.01324016666666, "fusion_lon": 0.0, "bike_id": "e44f63ee5ab911f577002aa8ef5d572e", "type": "electric_scooter", "name": "e44f63ee5ab911f577002aa8ef5d572e", "rental_uris": {"android": "https://dc.lft.to/lastmile_qr_scan", "ios": "https://dc.lft.to/lastmile_qr_scan"}, "is_disabled": 0, "fusion_lat": 0.0, "lat": 38.90604716666667, "is_reserved": 0}, {"lon": -76.98716266666666, "fusion_lon": 0.0, "bike_id": "9bb3a4e706e99b59bd171a8e95b5e5d3", "type": "electric_scooter", "name": "9bb3a4e706e99b59bd171a8e95b5e5d3", "rental_uris": {"android": "https://dc.lft.to/lastmile_qr_scan", "ios": "https://dc.lft.to/lastmile_qr_scan"}, "is_disabled": 0, "fusion_lat": 0.0, "lat": 38.86621983333333, "is_reserved": 0}, {"lon": -77.01134616666667, "fusion_lon": 0.0, "bike_id": "c064fbadf72c1d32ac748811dc4d081d", "type": "electric_scooter", "name": "c064fbadf72c1d32ac748811dc4d081d", "rental_uris": {"android": "https://dc.lft.to/lastmile_qr_scan", "ios": "https://dc.lft.to/lastmile_qr_scan"}, "is_disabled": 0, "fusion_lat": 0.0, "lat": 38.91165766666667, "is_reserved": 0}, {"lon": -77.03194966666666, "fusion_lon": 0.0, "bike_id": "03114207ef6ffaafc1c5991a5a614cc6", "type": "electric_scooter", "name": "03114207ef6ffaafc1c5991a5a614cc6", "rental_uris": {"android": "https://dc.lft.to/lastmile_qr_scan", "ios": "https://dc.lft.to/lastmile_qr_scan"}, "is_disabled": 0, "fusion_lat": 0.0, "lat": 38.91569116666667, "is_reserved": 0}, {"lon": -77.023082, "fusion_lon": 0.0, "bike_id": "168bc1e2b348a401f70bd2de698a5974", "type": "electric_scooter", "name": "168bc1e2b348a401f70bd2de698a5974", "rental_uris": {"android": "https://dc.lft.to/lastmile_qr_scan", "ios": "https://dc.lft.to/lastmile_qr_scan"}, "is_disabled": 0, "fusion_lat": 0.0, "lat": 38.92725883333333, "is_reserved": 0}, {"lon": -77.02891316666667, "fusion_lon": 0.0, "bike_id": "cd3c7f368e7df972d1604e190f23ecdf", "type": "electric_scooter", "name": "cd3c7f368e7df972d1604e190f23ecdf", "rental_uris": {"android": "https://dc.lft.to/lastmile_qr_scan", "ios": "https://dc.lft.to/lastmile_qr_scan"}, "is_disabled": 0, "fusion_lat": 0.0, "lat": 38.9044645, "is_reserved": 0}, {"lon": -77.0414515, "fusion_lon": 0.0, "bike_id": "29ac53eaa3b9c098bf0f084b709edd77", "type": "electric_scooter", "name": "29ac53eaa3b9c098bf0f084b709edd77", "rental_uris": {"android": "https://dc.lft.to/lastmile_qr_scan", "ios": "https://dc.lft.to/lastmile_qr_scan"}, "is_disabled": 0, "fusion_lat": 0.0, "lat": 38.9229325, "is_reserved": 0}, {"lon": -77.03568783333333, "fusion_lon": 0.0, "bike_id": "42d31e14e332517c5a3efa8313fbf0ed", "type": "electric_scooter", "name": "42d31e14e332517c5a3efa8313fbf0ed", "rental_uris": {"android": "https://dc.lft.to/lastmile_qr_scan", "ios": "https://dc.lft.to/lastmile_qr_scan"}, "is_disabled": 0, "fusion_lat": 0.0, "lat": 38.90380433333333, "is_reserved": 0}, {"lon": -77.0209615, "fusion_lon": 0.0, "bike_id": "16deb5f4bd35455e55501ff0da1361b0", "type": "electric_scooter", "name": "16deb5f4bd35455e55501ff0da1361b0", "rental_uris": {"android": "https://dc.lft.to/lastmile_qr_scan", "ios": "https://dc.lft.to/lastmile_qr_scan"}, "is_disabled": 0, "fusion_lat": 0.0, "lat": 38.88181683333333, "is_reserved": 0}, {"lon": -77.0198905, "fusion_lon": 0.0, "bike_id": "998e677a101e1a41041a82d81b26a30e", "type": "electric_bike", "name": "998e677a101e1a41041a82d81b26a30e", "rental_uris": {"android": "https://dc.lft.to/lastmile_qr_scan", "ios": "https://dc.lft.to/lastmile_qr_scan"}, "is_disabled": 0, "fusion_lat": 0.0, "lat": 38.91052366666667, "is_reserved": 0}, {"lon": -76.94640233333334, "fusion_lon": 0.0, "bike_id": "30080b04453e73596907118c0599875a", "type": "electric_scooter", "name": "30080b04453e73596907118c0599875a", "rental_uris": {"android": "https://dc.lft.to/lastmile_qr_scan", "ios": "https://dc.lft.to/lastmile_qr_scan"}, "is_disabled": 0, "fusion_lat": 0.0, "lat": 38.89861366666667, "is_reserved": 0}, {"lon": -77.00377433333334, "fusion_lon": 0.0, "bike_id": "1169d230c62989939cf8930741214d46", "type": "electric_scooter", "name": "1169d230c62989939cf8930741214d46", "rental_uris": {"android": "https://dc.lft.to/lastmile_qr_scan", "ios": "https://dc.lft.to/lastmile_qr_scan"}, "is_disabled": 0, "fusion_lat": 0.0, "lat": 38.90881316666667, "is_reserved": 0}, {"lon": -77.00193083333333, "fusion_lon": 0.0, "bike_id": "a0b964c668291e79be0f326502f36eb0", "type": "electric_scooter", "name": "a0b964c668291e79be0f326502f36eb0", "rental_uris": {"android": "https://dc.lft.to/lastmile_qr_scan", "ios": "https://dc.lft.to/lastmile_qr_scan"}, "is_disabled": 0, "fusion_lat": 0.0, "lat": 38.87830733333333, "is_reserved": 0}, {"lon": -77.0385645, "fusion_lon": 0.0, "bike_id": "6bf7b5b646080781a24a65db6260739a", "type": "electric_scooter", "name": "6bf7b5b646080781a24a65db6260739a", "rental_uris": {"android": "https://dc.lft.to/lastmile_qr_scan", "ios": "https://dc.lft.to/lastmile_qr_scan"}, "is_disabled": 0, "fusion_lat": 0.0, "lat": 38.903016, "is_reserved": 0}, {"lon": -76.98604366666666, "fusion_lon": 0.0, "bike_id": "f188c46f1ae635aa676b2c4043a29513", "type": "electric_scooter", "name": "f188c46f1ae635aa676b2c4043a29513", "rental_uris": {"android": "https://dc.lft.to/lastmile_qr_scan", "ios": "https://dc.lft.to/lastmile_qr_scan"}, "is_disabled": 0, "fusion_lat": 0.0, "lat": 38.900082, "is_reserved": 0}, {"lon": -76.96529383333333, "fusion_lon": 0.0, "bike_id": "223014dd041e71dbb840e1db8796d527", "type": "electric_scooter", "name": "223014dd041e71dbb840e1db8796d527", "rental_uris": {"android": "https://dc.lft.to/lastmile_qr_scan", "ios": "https://dc.lft.to/lastmile_qr_scan"}, "is_disabled": 0, "fusion_lat": 0.0, "lat": 38.87626, "is_reserved": 0}, {"lon": -77.03169366666667, "fusion_lon": 0.0, "bike_id": "e7ad8ed42d25fe56ddff80e4f901addd", "type": "electric_scooter", "name": "e7ad8ed42d25fe56ddff80e4f901addd", "rental_uris": {"android": "https://dc.lft.to/lastmile_qr_scan", "ios": "https://dc.lft.to/lastmile_qr_scan"}, "is_disabled": 0, "fusion_lat": 0.0, "lat": 38.9180805, "is_reserved": 0}, {"lon": -77.00496716666666, "fusion_lon": 0.0, "bike_id": "0a9ee09a649a9fc62640228136b5dcb1", "type": "electric_scooter", "name": "0a9ee09a649a9fc62640228136b5dcb1", "rental_uris": {"android": "https://dc.lft.to/lastmile_qr_scan", "ios": "https://dc.lft.to/lastmile_qr_scan"}, "is_disabled": 0, "fusion_lat": 0.0, "lat": 38.874607, "is_reserved": 0}, {"lon": -77.02291, "fusion_lon": 0.0, "bike_id": "a650363a8cf28d6631f6dfa1f4bd435c", "type": "electric_scooter", "name": "a650363a8cf28d6631f6dfa1f4bd435c", "rental_uris": {"android": "https://dc.lft.to/lastmile_qr_scan", "ios": "https://dc.lft.to/lastmile_qr_scan"}, "is_disabled": 0, "fusion_lat": 0.0, "lat": 38.895133, "is_reserved": 0}, {"lon": -77.0806975, "fusion_lon": 0.0, "bike_id": "ff230a1b82a80afe0cba0d43dbcec252", "type": "electric_bike", "name": "ff230a1b82a80afe0cba0d43dbcec252", "rental_uris": {"android": "https://dc.lft.to/lastmile_qr_scan", "ios": "https://dc.lft.to/lastmile_qr_scan"}, "is_disabled": 0, "fusion_lat": 0.0, "lat": 39.052518166666665, "is_reserved": 0}, {"lon": -77.01765633333333, "fusion_lon": 0.0, "bike_id": "05d6e9c9dca8088530885ba53dfd47fd", "type": "electric_scooter", "name": "05d6e9c9dca8088530885ba53dfd47fd", "rental_uris": {"android": "https://dc.lft.to/lastmile_qr_scan", "ios": "https://dc.lft.to/lastmile_qr_scan"}, "is_disabled": 0, "fusion_lat": 0.0, "lat": 38.900852666666665, "is_reserved": 0}, {"lon": -77.02411066666667, "fusion_lon": 0.0, "bike_id": "64b059d37e7775b7f9baf60533948df6", "type": "electric_scooter", "name": "64b059d37e7775b7f9baf60533948df6", "rental_uris": {"android": "https://dc.lft.to/lastmile_qr_scan", "ios": "https://dc.lft.to/lastmile_qr_scan"}, "is_disabled": 0, "fusion_lat": 0.0, "lat": 38.913963333333335, "is_reserved": 0}, {"lon": -77.04508583333333, "fusion_lon": 0.0, "bike_id": "f3ae1caa4bcd31fbe75ad134c97253d4", "type": "electric_scooter", "name": "f3ae1caa4bcd31fbe75ad134c97253d4", "rental_uris": {"android": "https://dc.lft.to/lastmile_qr_scan", "ios": "https://dc.lft.to/lastmile_qr_scan"}, "is_disabled": 0, "fusion_lat": 0.0, "lat": 38.91499916666667, "is_reserved": 0}, {"lon": -77.00589433333333, "fusion_lon": 0.0, "bike_id": "431059e45c906f51d0573ffab95895a1", "type": "electric_scooter", "name": "431059e45c906f51d0573ffab95895a1", "rental_uris": {"android": "https://dc.lft.to/lastmile_qr_scan", "ios": "https://dc.lft.to/lastmile_qr_scan"}, "is_disabled": 0, "fusion_lat": 0.0, "lat": 38.9063025, "is_reserved": 0}, {"lon": -77.033816, "fusion_lon": 0.0, "bike_id": "eccd00fb1282661731a9f58e366c094a", "type": "electric_scooter", "name": "eccd00fb1282661731a9f58e366c094a", "rental_uris": {"android": "https://dc.lft.to/lastmile_qr_scan", "ios": "https://dc.lft.to/lastmile_qr_scan"}, "is_disabled": 0, "fusion_lat": 0.0, "lat": 38.925392333333335, "is_reserved": 0}, {"lon": -77.000652, "fusion_lon": 0.0, "bike_id": "0f76bca26a015ca54ce9cb5a60b3d84c", "type": "electric_bike", "name": "0f76bca26a015ca54ce9cb5a60b3d84c", "rental_uris": {"android": "https://dc.lft.to/lastmile_qr_scan", "ios": "https://dc.lft.to/lastmile_qr_scan"}, "is_disabled": 0, "fusion_lat": 0.0, "lat": 38.9190015, "is_reserved": 0}, {"lon": -77.03278933333333, "fusion_lon": 0.0, "bike_id": "2f68ab272b59b30fbe2f126695f9ab85", "type": "electric_scooter", "name": "2f68ab272b59b30fbe2f126695f9ab85", "rental_uris": {"android": "https://dc.lft.to/lastmile_qr_scan", "ios": "https://dc.lft.to/lastmile_qr_scan"}, "is_disabled": 0, "fusion_lat": 0.0, "lat": 38.92910633333334, "is_reserved": 0}, {"lon": -77.086499, "fusion_lon": 0.0, "bike_id": "90bd0ad51240a9b457321d00d6f735af", "type": "electric_scooter", "name": "90bd0ad51240a9b457321d00d6f735af", "rental_uris": {"android": "https://dc.lft.to/lastmile_qr_scan", "ios": "https://dc.lft.to/lastmile_qr_scan"}, "is_disabled": 0, "fusion_lat": 0.0, "lat": 38.93476966666667, "is_reserved": 0}, {"lon": -77.038554, "fusion_lon": 0.0, "bike_id": "60ef7d5eaed5257029021e9668043775", "type": "electric_scooter", "name": "60ef7d5eaed5257029021e9668043775", "rental_uris": {"android": "https://dc.lft.to/lastmile_qr_scan", "ios": "https://dc.lft.to/lastmile_qr_scan"}, "is_disabled": 0, "fusion_lat": 0.0, "lat": 38.902766666666665, "is_reserved": 0}, {"lon": -77.04693783333333, "fusion_lon": 0.0, "bike_id": "1962b124b77389dd1579385387b61f37", "type": "electric_scooter", "name": "1962b124b77389dd1579385387b61f37", "rental_uris": {"android": "https://dc.lft.to/lastmile_qr_scan", "ios": "https://dc.lft.to/lastmile_qr_scan"}, "is_disabled": 0, "fusion_lat": 0.0, "lat": 38.8973555, "is_reserved": 0}, {"lon": -77.020569, "fusion_lon": 0.0, "bike_id": "59077fc487e47e9ba6a2116024fe225c", "type": "electric_scooter", "name": "59077fc487e47e9ba6a2116024fe225c", "rental_uris": {"android": "https://dc.lft.to/lastmile_qr_scan", "ios": "https://dc.lft.to/lastmile_qr_scan"}, "is_disabled": 0, "fusion_lat": 0.0, "lat": 38.933361, "is_reserved": 0}, {"lon": -77.0060505, "fusion_lon": 0.0, "bike_id": "b061fe2909cd609e2e26999fc13bdb77", "type": "electric_scooter", "name": "b061fe2909cd609e2e26999fc13bdb77", "rental_uris": {"android": "https://dc.lft.to/lastmile_qr_scan", "ios": "https://dc.lft.to/lastmile_qr_scan"}, "is_disabled": 0, "fusion_lat": 0.0, "lat": 38.8756735, "is_reserved": 0}, {"lon": -76.9702885, "fusion_lon": 0.0, "bike_id": "83b0977e48c6ccaef8cd82ecba4431d5", "type": "electric_scooter", "name": "83b0977e48c6ccaef8cd82ecba4431d5", "rental_uris": {"android": "https://dc.lft.to/lastmile_qr_scan", "ios": "https://dc.lft.to/lastmile_qr_scan"}, "is_disabled": 0, "fusion_lat": 0.0, "lat": 38.873544, "is_reserved": 0}, {"lon": -77.02208933333333, "fusion_lon": 0.0, "bike_id": "4a68a87c4276806940e702426ba000b4", "type": "electric_scooter", "name": "4a68a87c4276806940e702426ba000b4", "rental_uris": {"android": "https://dc.lft.to/lastmile_qr_scan", "ios": "https://dc.lft.to/lastmile_qr_scan"}, "is_disabled": 0, "fusion_lat": 0.0, "lat": 38.924679166666664, "is_reserved": 0}, {"lon": -77.04423583333333, "fusion_lon": 0.0, "bike_id": "b089142fa91208fcc07f66e71d6de8ad", "type": "electric_scooter", "name": "b089142fa91208fcc07f66e71d6de8ad", "rental_uris": {"android": "https://dc.lft.to/lastmile_qr_scan", "ios": "https://dc.lft.to/lastmile_qr_scan"}, "is_disabled": 0, "fusion_lat": 0.0, "lat": 38.89400083333334, "is_reserved": 0}, {"lon": -77.013888, "fusion_lon": 0.0, "bike_id": "d032307d756b38fc19e74a16a0011f7e", "type": "electric_scooter", "name": "d032307d756b38fc19e74a16a0011f7e", "rental_uris": {"android": "https://dc.lft.to/lastmile_qr_scan", "ios": "https://dc.lft.to/lastmile_qr_scan"}, "is_disabled": 0, "fusion_lat": 0.0, "lat": 38.89215633333333, "is_reserved": 0}, {"lon": -76.98563716666666, "fusion_lon": 0.0, "bike_id": "fb81293728f9909a7f019b94f2771336", "type": "electric_scooter", "name": "fb81293728f9909a7f019b94f2771336", "rental_uris": {"android": "https://dc.lft.to/lastmile_qr_scan", "ios": "https://dc.lft.to/lastmile_qr_scan"}, "is_disabled": 0, "fusion_lat": 0.0, "lat": 38.89996566666667, "is_reserved": 0}, {"lon": -76.97997966666667, "fusion_lon": 0.0, "bike_id": "73a5cc8de9298cc997c04361c38f23b4", "type": "electric_scooter", "name": "73a5cc8de9298cc997c04361c38f23b4", "rental_uris": {"android": "https://dc.lft.to/lastmile_qr_scan", "ios": "https://dc.lft.to/lastmile_qr_scan"}, "is_disabled": 0, "fusion_lat": 0.0, "lat": 38.90677566666667, "is_reserved": 0}, {"lon": -77.02938366666666, "fusion_lon": 0.0, "bike_id": "bba13e357c3dd334744de869301bb50c", "type": "electric_scooter", "name": "bba13e357c3dd334744de869301bb50c", "rental_uris": {"android": "https://dc.lft.to/lastmile_qr_scan", "ios": "https://dc.lft.to/lastmile_qr_scan"}, "is_disabled": 0, "fusion_lat": 0.0, "lat": 38.920618833333336, "is_reserved": 0}, {"lon": -77.001157, "fusion_lon": 0.0, "bike_id": "5c0f5004ec644113c9ea7c87e0d0b3d4", "type": "electric_scooter", "name": "5c0f5004ec644113c9ea7c87e0d0b3d4", "rental_uris": {"android": "https://dc.lft.to/lastmile_qr_scan", "ios": "https://dc.lft.to/lastmile_qr_scan"}, "is_disabled": 0, "fusion_lat": 0.0, "lat": 38.87370833333333, "is_reserved": 0}, {"lon": -77.001374, "fusion_lon": 0.0, "bike_id": "22a0491c34af8f8c4e254a169c43bfcb", "type": "electric_scooter", "name": "22a0491c34af8f8c4e254a169c43bfcb", "rental_uris": {"android": "https://dc.lft.to/lastmile_qr_scan", "ios": "https://dc.lft.to/lastmile_qr_scan"}, "is_disabled": 0, "fusion_lat": 0.0, "lat": 38.90509483333334, "is_reserved": 0}, {"lon": -76.9562755, "fusion_lon": 0.0, "bike_id": "0d81d9558c134fc4c5d27d0c6722ab1c", "type": "electric_bike", "name": "0d81d9558c134fc4c5d27d0c6722ab1c", "rental_uris": {"android": "https://dc.lft.to/lastmile_qr_scan", "ios": "https://dc.lft.to/lastmile_qr_scan"}, "is_disabled": 0, "fusion_lat": 0.0, "lat": 38.8852335, "is_reserved": 0}, {"lon": -77.00210133333333, "fusion_lon": 0.0, "bike_id": "457201d28c9df688a2f7e5e6ff7c4133", "type": "electric_scooter", "name": "457201d28c9df688a2f7e5e6ff7c4133", "rental_uris": {"android": "https://dc.lft.to/lastmile_qr_scan", "ios": "https://dc.lft.to/lastmile_qr_scan"}, "is_disabled": 0, "fusion_lat": 0.0, "lat": 38.91457533333333, "is_reserved": 0}, {"lon": -77.061018, "fusion_lon": 0.0, "bike_id": "491ccb7f67c25ccd303e2ab8e13c5332", "type": "electric_scooter", "name": "491ccb7f67c25ccd303e2ab8e13c5332", "rental_uris": {"android": "https://dc.lft.to/lastmile_qr_scan", "ios": "https://dc.lft.to/lastmile_qr_scan"}, "is_disabled": 0, "fusion_lat": 0.0, "lat": 38.90527633333333, "is_reserved": 0}, {"lon": -77.02365716666667, "fusion_lon": 0.0, "bike_id": "1c44b0510a17648b51552b30b9bde200", "type": "electric_scooter", "name": "1c44b0510a17648b51552b30b9bde200", "rental_uris": {"android": "https://dc.lft.to/lastmile_qr_scan", "ios": "https://dc.lft.to/lastmile_qr_scan"}, "is_disabled": 0, "fusion_lat": 0.0, "lat": 38.929059, "is_reserved": 0}, {"lon": -77.016455, "fusion_lon": 0.0, "bike_id": "9a8b598e18dc8d9e90b56d0eee84017b", "type": "electric_scooter", "name": "9a8b598e18dc8d9e90b56d0eee84017b", "rental_uris": {"android": "https://dc.lft.to/lastmile_qr_scan", "ios": "https://dc.lft.to/lastmile_qr_scan"}, "is_disabled": 0, "fusion_lat": 0.0, "lat": 38.881304166666666, "is_reserved": 0}, {"lon": -77.04328283333334, "fusion_lon": 0.0, "bike_id": "b15bff8b4965834e0a1f557aa6fd264a", "type": "electric_scooter", "name": "b15bff8b4965834e0a1f557aa6fd264a", "rental_uris": {"android": "https://dc.lft.to/lastmile_qr_scan", "ios": "https://dc.lft.to/lastmile_qr_scan"}, "is_disabled": 0, "fusion_lat": 0.0, "lat": 38.900370833333334, "is_reserved": 0}, {"lon": -77.05424766666667, "fusion_lon": 0.0, "bike_id": "14338c3ed01c9e938da658b4dccd99a2", "type": "electric_scooter", "name": "14338c3ed01c9e938da658b4dccd99a2", "rental_uris": {"android": "https://dc.lft.to/lastmile_qr_scan", "ios": "https://dc.lft.to/lastmile_qr_scan"}, "is_disabled": 0, "fusion_lat": 0.0, "lat": 38.928500166666666, "is_reserved": 0}, {"lon": -77.003414, "fusion_lon": 0.0, "bike_id": "34f89e1598777db8e0c66be34393e7d8", "type": "electric_scooter", "name": "34f89e1598777db8e0c66be34393e7d8", "rental_uris": {"android": "https://dc.lft.to/lastmile_qr_scan", "ios": "https://dc.lft.to/lastmile_qr_scan"}, "is_disabled": 0, "fusion_lat": 0.0, "lat": 38.89516583333333, "is_reserved": 0}, {"lon": -77.04160583333334, "fusion_lon": 0.0, "bike_id": "2dd743c075ed30fb0fd094be8797e69c", "type": "electric_scooter", "name": "2dd743c075ed30fb0fd094be8797e69c", "rental_uris": {"android": "https://dc.lft.to/lastmile_qr_scan", "ios": "https://dc.lft.to/lastmile_qr_scan"}, "is_disabled": 0, "fusion_lat": 0.0, "lat": 38.901481, "is_reserved": 0}, {"lon": -77.031818, "fusion_lon": 0.0, "bike_id": "1044e90a073df0c339f9d41fcfb7e416", "type": "electric_scooter", "name": "1044e90a073df0c339f9d41fcfb7e416", "rental_uris": {"android": "https://dc.lft.to/lastmile_qr_scan", "ios": "https://dc.lft.to/lastmile_qr_scan"}, "is_disabled": 0, "fusion_lat": 0.0, "lat": 38.913220833333334, "is_reserved": 0}, {"lon": -77.00892616666667, "fusion_lon": 0.0, "bike_id": "01e5fdd68fa097418cb982b5e77a632c", "type": "electric_scooter", "name": "01e5fdd68fa097418cb982b5e77a632c", "rental_uris": {"android": "https://dc.lft.to/lastmile_qr_scan", "ios": "https://dc.lft.to/lastmile_qr_scan"}, "is_disabled": 0, "fusion_lat": 0.0, "lat": 38.884991166666666, "is_reserved": 0}, {"lon": -77.02625516666667, "fusion_lon": 0.0, "bike_id": "639dd07c75eff497e6a5f68a4f662ca4", "type": "electric_scooter", "name": "639dd07c75eff497e6a5f68a4f662ca4", "rental_uris": {"android": "https://dc.lft.to/lastmile_qr_scan", "ios": "https://dc.lft.to/lastmile_qr_scan"}, "is_disabled": 0, "fusion_lat": 0.0, "lat": 38.898513333333334, "is_reserved": 0}, {"lon": -77.0300675, "fusion_lon": 0.0, "bike_id": "9bd7dd1c83ce61dadc833d411e20bb25", "type": "electric_scooter", "name": "9bd7dd1c83ce61dadc833d411e20bb25", "rental_uris": {"android": "https://dc.lft.to/lastmile_qr_scan", "ios": "https://dc.lft.to/lastmile_qr_scan"}, "is_disabled": 0, "fusion_lat": 0.0, "lat": 38.902690166666666, "is_reserved": 0}, {"lon": -77.05585983333333, "fusion_lon": 0.0, "bike_id": "233c79cb2fcd09f3cc63bf1b4eefd81c", "type": "electric_scooter", "name": "233c79cb2fcd09f3cc63bf1b4eefd81c", "rental_uris": {"android": "https://dc.lft.to/lastmile_qr_scan", "ios": "https://dc.lft.to/lastmile_qr_scan"}, "is_disabled": 0, "fusion_lat": 0.0, "lat": 38.93430516666667, "is_reserved": 0}, {"lon": -77.051366, "fusion_lon": 0.0, "bike_id": "941ba35ac14143005866a486ce83b50b", "type": "electric_scooter", "name": "941ba35ac14143005866a486ce83b50b", "rental_uris": {"android": "https://dc.lft.to/lastmile_qr_scan", "ios": "https://dc.lft.to/lastmile_qr_scan"}, "is_disabled": 0, "fusion_lat": 0.0, "lat": 38.89676566666667, "is_reserved": 0}, {"lon": -77.03444983333333, "fusion_lon": 0.0, "bike_id": "f00604de48d566d9fc964d5e11eeeae5", "type": "electric_scooter", "name": "f00604de48d566d9fc964d5e11eeeae5", "rental_uris": {"android": "https://dc.lft.to/lastmile_qr_scan", "ios": "https://dc.lft.to/lastmile_qr_scan"}, "is_disabled": 0, "fusion_lat": 0.0, "lat": 38.90942916666667, "is_reserved": 0}, {"lon": -77.0422225, "fusion_lon": 0.0, "bike_id": "9d20da40e3845f8dae5449cc4cf6e38b", "type": "electric_scooter", "name": "9d20da40e3845f8dae5449cc4cf6e38b", "rental_uris": {"android": "https://dc.lft.to/lastmile_qr_scan", "ios": "https://dc.lft.to/lastmile_qr_scan"}, "is_disabled": 0, "fusion_lat": 0.0, "lat": 38.92630066666667, "is_reserved": 0}, {"lon": -77.02788283333334, "fusion_lon": 0.0, "bike_id": "61da196493335d9284751d2ccf123181", "type": "electric_scooter", "name": "61da196493335d9284751d2ccf123181", "rental_uris": {"android": "https://dc.lft.to/lastmile_qr_scan", "ios": "https://dc.lft.to/lastmile_qr_scan"}, "is_disabled": 0, "fusion_lat": 0.0, "lat": 38.9171035, "is_reserved": 0}, {"lon": -77.02904866666667, "fusion_lon": 0.0, "bike_id": "0ce2efe8bd8fc6eae331340d7a66349f", "type": "electric_scooter", "name": "0ce2efe8bd8fc6eae331340d7a66349f", "rental_uris": {"android": "https://dc.lft.to/lastmile_qr_scan", "ios": "https://dc.lft.to/lastmile_qr_scan"}, "is_disabled": 0, "fusion_lat": 0.0, "lat": 38.95626133333333, "is_reserved": 0}, {"lon": -77.00572516666666, "fusion_lon": 0.0, "bike_id": "e1a1b86ca53be3b3cac65fdbb8c01974", "type": "electric_scooter", "name": "e1a1b86ca53be3b3cac65fdbb8c01974", "rental_uris": {"android": "https://dc.lft.to/lastmile_qr_scan", "ios": "https://dc.lft.to/lastmile_qr_scan"}, "is_disabled": 0, "fusion_lat": 0.0, "lat": 38.876204, "is_reserved": 0}, {"lon": -76.98211033333334, "fusion_lon": 0.0, "bike_id": "ce7a69cc20d86b350248865b6a218572", "type": "electric_scooter", "name": "ce7a69cc20d86b350248865b6a218572", "rental_uris": {"android": "https://dc.lft.to/lastmile_qr_scan", "ios": "https://dc.lft.to/lastmile_qr_scan"}, "is_disabled": 0, "fusion_lat": 0.0, "lat": 38.901975, "is_reserved": 0}, {"lon": -76.99216316666667, "fusion_lon": 0.0, "bike_id": "6fece7cb1e6b6fc8caa93628d3b94ae9", "type": "electric_bike", "name": "6fece7cb1e6b6fc8caa93628d3b94ae9", "rental_uris": {"android": "https://dc.lft.to/lastmile_qr_scan", "ios": "https://dc.lft.to/lastmile_qr_scan"}, "is_disabled": 0, "fusion_lat": 0.0, "lat": 38.940183, "is_reserved": 0}, {"lon": -76.96528633333334, "fusion_lon": 0.0, "bike_id": "a3b77363ef0ded89355539a7351c5b9e", "type": "electric_scooter", "name": "a3b77363ef0ded89355539a7351c5b9e", "rental_uris": {"android": "https://dc.lft.to/lastmile_qr_scan", "ios": "https://dc.lft.to/lastmile_qr_scan"}, "is_disabled": 0, "fusion_lat": 0.0, "lat": 38.8762465, "is_reserved": 0}, {"lon": -77.04429283333333, "fusion_lon": 0.0, "bike_id": "9702bd8a8ec40202e846989fb1e2b47b", "type": "electric_scooter", "name": "9702bd8a8ec40202e846989fb1e2b47b", "rental_uris": {"android": "https://dc.lft.to/lastmile_qr_scan", "ios": "https://dc.lft.to/lastmile_qr_scan"}, "is_disabled": 0, "fusion_lat": 0.0, "lat": 38.92123683333333, "is_reserved": 0}, {"lon": -77.0227235, "fusion_lon": 0.0, "bike_id": "86993979807b3aee4e0402aa4bcfcdc4", "type": "electric_scooter", "name": "86993979807b3aee4e0402aa4bcfcdc4", "rental_uris": {"android": "https://dc.lft.to/lastmile_qr_scan", "ios": "https://dc.lft.to/lastmile_qr_scan"}, "is_disabled": 0, "fusion_lat": 0.0, "lat": 38.92723266666667, "is_reserved": 0}, {"lon": -77.02210866666667, "fusion_lon": 0.0, "bike_id": "37810e87eb344d8426d59d4f8ef8594e", "type": "electric_scooter", "name": "37810e87eb344d8426d59d4f8ef8594e", "rental_uris": {"android": "https://dc.lft.to/lastmile_qr_scan", "ios": "https://dc.lft.to/lastmile_qr_scan"}, "is_disabled": 0, "fusion_lat": 0.0, "lat": 38.895293333333335, "is_reserved": 0}, {"lon": -77.02481683333333, "fusion_lon": 0.0, "bike_id": "ef253f54ff5c29e3d2664b1a82abdee1", "type": "electric_scooter", "name": "ef253f54ff5c29e3d2664b1a82abdee1", "rental_uris": {"android": "https://dc.lft.to/lastmile_qr_scan", "ios": "https://dc.lft.to/lastmile_qr_scan"}, "is_disabled": 0, "fusion_lat": 0.0, "lat": 38.9190055, "is_reserved": 0}, {"lon": -77.0081505, "fusion_lon": 0.0, "bike_id": "e5c3670ba225d4b7209999fd97c9bd37", "type": "electric_scooter", "name": "e5c3670ba225d4b7209999fd97c9bd37", "rental_uris": {"android": "https://dc.lft.to/lastmile_qr_scan", "ios": "https://dc.lft.to/lastmile_qr_scan"}, "is_disabled": 0, "fusion_lat": 0.0, "lat": 38.876703166666665, "is_reserved": 0}, {"lon": -77.01208933333334, "fusion_lon": 0.0, "bike_id": "a51c91367175e7bb60ba92ed47e1c659", "type": "electric_scooter", "name": "a51c91367175e7bb60ba92ed47e1c659", "rental_uris": {"android": "https://dc.lft.to/lastmile_qr_scan", "ios": "https://dc.lft.to/lastmile_qr_scan"}, "is_disabled": 0, "fusion_lat": 0.0, "lat": 38.87471083333333, "is_reserved": 0}, {"lon": -77.02156316666667, "fusion_lon": 0.0, "bike_id": "f71550948314661fc9cf1bfd39d767c7", "type": "electric_scooter", "name": "f71550948314661fc9cf1bfd39d767c7", "rental_uris": {"android": "https://dc.lft.to/lastmile_qr_scan", "ios": "https://dc.lft.to/lastmile_qr_scan"}, "is_disabled": 0, "fusion_lat": 0.0, "lat": 38.9259875, "is_reserved": 0}, {"lon": -77.03316316666667, "fusion_lon": 0.0, "bike_id": "82d7d704d072fc898c01d154763a8ce1", "type": "electric_scooter", "name": "82d7d704d072fc898c01d154763a8ce1", "rental_uris": {"android": "https://dc.lft.to/lastmile_qr_scan", "ios": "https://dc.lft.to/lastmile_qr_scan"}, "is_disabled": 0, "fusion_lat": 0.0, "lat": 38.91110716666667, "is_reserved": 0}, {"lon": -77.0375035, "fusion_lon": 0.0, "bike_id": "50648e626a874f9fac9aa4f14a43060a", "type": "electric_scooter", "name": "50648e626a874f9fac9aa4f14a43060a", "rental_uris": {"android": "https://dc.lft.to/lastmile_qr_scan", "ios": "https://dc.lft.to/lastmile_qr_scan"}, "is_disabled": 0, "fusion_lat": 0.0, "lat": 38.928825333333336, "is_reserved": 0}, {"lon": -77.0633265, "fusion_lon": 0.0, "bike_id": "4efb04d553b6a0bc134e28335ca346d7", "type": "electric_scooter", "name": "4efb04d553b6a0bc134e28335ca346d7", "rental_uris": {"android": "https://dc.lft.to/lastmile_qr_scan", "ios": "https://dc.lft.to/lastmile_qr_scan"}, "is_disabled": 0, "fusion_lat": 0.0, "lat": 38.92103016666667, "is_reserved": 0}, {"lon": -77.04273266666667, "fusion_lon": 0.0, "bike_id": "9200b3d7d0713c51765970664e8a3f5d", "type": "electric_scooter", "name": "9200b3d7d0713c51765970664e8a3f5d", "rental_uris": {"android": "https://dc.lft.to/lastmile_qr_scan", "ios": "https://dc.lft.to/lastmile_qr_scan"}, "is_disabled": 0, "fusion_lat": 0.0, "lat": 38.925451, "is_reserved": 0}, {"lon": -77.02801983333333, "fusion_lon": 0.0, "bike_id": "9f812ceb8e6ce895752a29df901bfd96", "type": "electric_scooter", "name": "9f812ceb8e6ce895752a29df901bfd96", "rental_uris": {"android": "https://dc.lft.to/lastmile_qr_scan", "ios": "https://dc.lft.to/lastmile_qr_scan"}, "is_disabled": 0, "fusion_lat": 0.0, "lat": 38.89999516666666, "is_reserved": 0}, {"lon": -77.04240733333333, "fusion_lon": 0.0, "bike_id": "22ff220559e53756ed68265ee32cc504", "type": "electric_scooter", "name": "22ff220559e53756ed68265ee32cc504", "rental_uris": {"android": "https://dc.lft.to/lastmile_qr_scan", "ios": "https://dc.lft.to/lastmile_qr_scan"}, "is_disabled": 0, "fusion_lat": 0.0, "lat": 38.9217665, "is_reserved": 0}, {"lon": -77.05230733333333, "fusion_lon": 0.0, "bike_id": "36ee46785d2e2a3b8d7f5abfe6989909", "type": "electric_scooter", "name": "36ee46785d2e2a3b8d7f5abfe6989909", "rental_uris": {"android": "https://dc.lft.to/lastmile_qr_scan", "ios": "https://dc.lft.to/lastmile_qr_scan"}, "is_disabled": 0, "fusion_lat": 0.0, "lat": 38.92511366666667, "is_reserved": 0}, {"lon": -77.033404, "fusion_lon": 0.0, "bike_id": "bc2420bc6b7a18ffe31c72c963f4124e", "type": "electric_scooter", "name": "bc2420bc6b7a18ffe31c72c963f4124e", "rental_uris": {"android": "https://dc.lft.to/lastmile_qr_scan", "ios": "https://dc.lft.to/lastmile_qr_scan"}, "is_disabled": 0, "fusion_lat": 0.0, "lat": 38.9378165, "is_reserved": 0}, {"lon": -77.032193, "fusion_lon": 0.0, "bike_id": "6a43177b00a790f9e7c0c704820227d1", "type": "electric_scooter", "name": "6a43177b00a790f9e7c0c704820227d1", "rental_uris": {"android": "https://dc.lft.to/lastmile_qr_scan", "ios": "https://dc.lft.to/lastmile_qr_scan"}, "is_disabled": 0, "fusion_lat": 0.0, "lat": 38.90731366666667, "is_reserved": 0}, {"lon": -77.03290516666667, "fusion_lon": 0.0, "bike_id": "c69d0ef3ffb24fe802d0053f96794b56", "type": "electric_scooter", "name": "c69d0ef3ffb24fe802d0053f96794b56", "rental_uris": {"android": "https://dc.lft.to/lastmile_qr_scan", "ios": "https://dc.lft.to/lastmile_qr_scan"}, "is_disabled": 0, "fusion_lat": 0.0, "lat": 38.9351125, "is_reserved": 0}, {"lon": -77.054087, "fusion_lon": 0.0, "bike_id": "6885616bd7b1dd07fc31b8be6a175bf8", "type": "electric_scooter", "name": "6885616bd7b1dd07fc31b8be6a175bf8", "rental_uris": {"android": "https://dc.lft.to/lastmile_qr_scan", "ios": "https://dc.lft.to/lastmile_qr_scan"}, "is_disabled": 0, "fusion_lat": 0.0, "lat": 38.90121883333333, "is_reserved": 0}, {"lon": -77.0195595, "fusion_lon": 0.0, "bike_id": "b0fc45689e8dbe95cfb56bb464dd1f38", "type": "electric_scooter", "name": "b0fc45689e8dbe95cfb56bb464dd1f38", "rental_uris": {"android": "https://dc.lft.to/lastmile_qr_scan", "ios": "https://dc.lft.to/lastmile_qr_scan"}, "is_disabled": 0, "fusion_lat": 0.0, "lat": 38.9232185, "is_reserved": 0}, {"lon": -77.0377565, "fusion_lon": 0.0, "bike_id": "86db406c397c54da3a0512c00090d8fe", "type": "electric_scooter", "name": "86db406c397c54da3a0512c00090d8fe", "rental_uris": {"android": "https://dc.lft.to/lastmile_qr_scan", "ios": "https://dc.lft.to/lastmile_qr_scan"}, "is_disabled": 0, "fusion_lat": 0.0, "lat": 38.90773516666667, "is_reserved": 0}, {"lon": -77.00581366666667, "fusion_lon": 0.0, "bike_id": "77fe735f789d70198256e392ae734bf2", "type": "electric_scooter", "name": "77fe735f789d70198256e392ae734bf2", "rental_uris": {"android": "https://dc.lft.to/lastmile_qr_scan", "ios": "https://dc.lft.to/lastmile_qr_scan"}, "is_disabled": 0, "fusion_lat": 0.0, "lat": 38.875698, "is_reserved": 0}, {"lon": -76.98576833333334, "fusion_lon": 0.0, "bike_id": "2e11031efc06d7001b27d9cc9d0defe5", "type": "electric_scooter", "name": "2e11031efc06d7001b27d9cc9d0defe5", "rental_uris": {"android": "https://dc.lft.to/lastmile_qr_scan", "ios": "https://dc.lft.to/lastmile_qr_scan"}, "is_disabled": 0, "fusion_lat": 0.0, "lat": 38.859512, "is_reserved": 0}, {"lon": -76.96915383333334, "fusion_lon": 0.0, "bike_id": "5438af028abca51486e24d74f5b65dec", "type": "electric_bike", "name": "5438af028abca51486e24d74f5b65dec", "rental_uris": {"android": "https://dc.lft.to/lastmile_qr_scan", "ios": "https://dc.lft.to/lastmile_qr_scan"}, "is_disabled": 0, "fusion_lat": 0.0, "lat": 38.84611616666667, "is_reserved": 0}, {"lon": -77.03095866666666, "fusion_lon": 0.0, "bike_id": "28fc04ce90d7c905b395280181fe0c6c", "type": "electric_scooter", "name": "28fc04ce90d7c905b395280181fe0c6c", "rental_uris": {"android": "https://dc.lft.to/lastmile_qr_scan", "ios": "https://dc.lft.to/lastmile_qr_scan"}, "is_disabled": 0, "fusion_lat": 0.0, "lat": 38.919256833333336, "is_reserved": 0}, {"lon": -77.02719266666666, "fusion_lon": 0.0, "bike_id": "988e16660809551bcebce2e760fbd74e", "type": "electric_scooter", "name": "988e16660809551bcebce2e760fbd74e", "rental_uris": {"android": "https://dc.lft.to/lastmile_qr_scan", "ios": "https://dc.lft.to/lastmile_qr_scan"}, "is_disabled": 0, "fusion_lat": 0.0, "lat": 38.92787933333334, "is_reserved": 0}, {"lon": -76.93338883333334, "fusion_lon": 0.0, "bike_id": "3a9434ff5deb1d6bedadd91c51ccd46a", "type": "electric_scooter", "name": "3a9434ff5deb1d6bedadd91c51ccd46a", "rental_uris": {"android": "https://dc.lft.to/lastmile_qr_scan", "ios": "https://dc.lft.to/lastmile_qr_scan"}, "is_disabled": 0, "fusion_lat": 0.0, "lat": 38.90867383333333, "is_reserved": 0}, {"lon": -77.02311133333333, "fusion_lon": 0.0, "bike_id": "de84e627c3987ef756b2dd86f38468f0", "type": "electric_scooter", "name": "de84e627c3987ef756b2dd86f38468f0", "rental_uris": {"android": "https://dc.lft.to/lastmile_qr_scan", "ios": "https://dc.lft.to/lastmile_qr_scan"}, "is_disabled": 0, "fusion_lat": 0.0, "lat": 38.902144666666665, "is_reserved": 0}, {"lon": -76.99173683333333, "fusion_lon": 0.0, "bike_id": "f5c2acbb886ccdc80333792613abe992", "type": "electric_scooter", "name": "f5c2acbb886ccdc80333792613abe992", "rental_uris": {"android": "https://dc.lft.to/lastmile_qr_scan", "ios": "https://dc.lft.to/lastmile_qr_scan"}, "is_disabled": 0, "fusion_lat": 0.0, "lat": 38.900141, "is_reserved": 0}, {"lon": -77.03316366666667, "fusion_lon": 0.0, "bike_id": "6dd9b4bc8a31eab1e8d1efcdb2d841ad", "type": "electric_scooter", "name": "6dd9b4bc8a31eab1e8d1efcdb2d841ad", "rental_uris": {"android": "https://dc.lft.to/lastmile_qr_scan", "ios": "https://dc.lft.to/lastmile_qr_scan"}, "is_disabled": 0, "fusion_lat": 0.0, "lat": 38.89848883333333, "is_reserved": 0}, {"lon": -77.03312816666667, "fusion_lon": 0.0, "bike_id": "e7288b6e66b3bcdeffa65f8d49e11cc2", "type": "electric_scooter", "name": "e7288b6e66b3bcdeffa65f8d49e11cc2", "rental_uris": {"android": "https://dc.lft.to/lastmile_qr_scan", "ios": "https://dc.lft.to/lastmile_qr_scan"}, "is_disabled": 0, "fusion_lat": 0.0, "lat": 38.910447833333336, "is_reserved": 0}, {"lon": -77.0327525, "fusion_lon": 0.0, "bike_id": "facdae2d1f2ab8f2b2e9162ffcc51499", "type": "electric_scooter", "name": "facdae2d1f2ab8f2b2e9162ffcc51499", "rental_uris": {"android": "https://dc.lft.to/lastmile_qr_scan", "ios": "https://dc.lft.to/lastmile_qr_scan"}, "is_disabled": 0, "fusion_lat": 0.0, "lat": 38.919929833333335, "is_reserved": 0}, {"lon": -77.03121566666667, "fusion_lon": 0.0, "bike_id": "931fc878b7e6d910e3a07462fba7d015", "type": "electric_scooter", "name": "931fc878b7e6d910e3a07462fba7d015", "rental_uris": {"android": "https://dc.lft.to/lastmile_qr_scan", "ios": "https://dc.lft.to/lastmile_qr_scan"}, "is_disabled": 0, "fusion_lat": 0.0, "lat": 38.904677, "is_reserved": 0}, {"lon": -77.01625516666667, "fusion_lon": 0.0, "bike_id": "0d8072538525551771daa23d22d04ece", "type": "electric_scooter", "name": "0d8072538525551771daa23d22d04ece", "rental_uris": {"android": "https://dc.lft.to/lastmile_qr_scan", "ios": "https://dc.lft.to/lastmile_qr_scan"}, "is_disabled": 0, "fusion_lat": 0.0, "lat": 38.9033245, "is_reserved": 0}, {"lon": -77.00488383333334, "fusion_lon": 0.0, "bike_id": "d9cb2abe785103675f4bc8068b6511d7", "type": "electric_scooter", "name": "d9cb2abe785103675f4bc8068b6511d7", "rental_uris": {"android": "https://dc.lft.to/lastmile_qr_scan", "ios": "https://dc.lft.to/lastmile_qr_scan"}, "is_disabled": 0, "fusion_lat": 0.0, "lat": 38.87466333333333, "is_reserved": 0}, {"lon": -77.023565, "fusion_lon": 0.0, "bike_id": "ff0b0ef1301ae5cf31b8c64491f585fa", "type": "electric_scooter", "name": "ff0b0ef1301ae5cf31b8c64491f585fa", "rental_uris": {"android": "https://dc.lft.to/lastmile_qr_scan", "ios": "https://dc.lft.to/lastmile_qr_scan"}, "is_disabled": 0, "fusion_lat": 0.0, "lat": 38.935316, "is_reserved": 0}, {"lon": -77.031859, "fusion_lon": 0.0, "bike_id": "b8712cd5952738ec9f3a37a8d312f10c", "type": "electric_scooter", "name": "b8712cd5952738ec9f3a37a8d312f10c", "rental_uris": {"android": "https://dc.lft.to/lastmile_qr_scan", "ios": "https://dc.lft.to/lastmile_qr_scan"}, "is_disabled": 0, "fusion_lat": 0.0, "lat": 38.91738216666667, "is_reserved": 0}, {"lon": -77.0848945, "fusion_lon": 0.0, "bike_id": "f407ca46f8b8e91d3a6cf789e551493b", "type": "electric_scooter", "name": "f407ca46f8b8e91d3a6cf789e551493b", "rental_uris": {"android": "https://dc.lft.to/lastmile_qr_scan", "ios": "https://dc.lft.to/lastmile_qr_scan"}, "is_disabled": 0, "fusion_lat": 0.0, "lat": 38.93903233333333, "is_reserved": 0}, {"lon": -77.03858616666666, "fusion_lon": 0.0, "bike_id": "a36944cc80290f81d6e9e23f9bdc3798", "type": "electric_scooter", "name": "a36944cc80290f81d6e9e23f9bdc3798", "rental_uris": {"android": "https://dc.lft.to/lastmile_qr_scan", "ios": "https://dc.lft.to/lastmile_qr_scan"}, "is_disabled": 0, "fusion_lat": 0.0, "lat": 38.917697, "is_reserved": 0}, {"lon": -77.03538683333333, "fusion_lon": 0.0, "bike_id": "6f82920a7672a4f2f08d651a070fd1c2", "type": "electric_scooter", "name": "6f82920a7672a4f2f08d651a070fd1c2", "rental_uris": {"android": "https://dc.lft.to/lastmile_qr_scan", "ios": "https://dc.lft.to/lastmile_qr_scan"}, "is_disabled": 0, "fusion_lat": 0.0, "lat": 38.9037655, "is_reserved": 0}, {"lon": -76.98543766666667, "fusion_lon": 0.0, "bike_id": "8cc5ec70f2653f098681e2a05dab750e", "type": "electric_scooter", "name": "8cc5ec70f2653f098681e2a05dab750e", "rental_uris": {"android": "https://dc.lft.to/lastmile_qr_scan", "ios": "https://dc.lft.to/lastmile_qr_scan"}, "is_disabled": 0, "fusion_lat": 0.0, "lat": 38.866820833333335, "is_reserved": 0}, {"lon": -77.008165, "fusion_lon": 0.0, "bike_id": "89663b449d2d1c032ad891aae652f26f", "type": "electric_scooter", "name": "89663b449d2d1c032ad891aae652f26f", "rental_uris": {"android": "https://dc.lft.to/lastmile_qr_scan", "ios": "https://dc.lft.to/lastmile_qr_scan"}, "is_disabled": 0, "fusion_lat": 0.0, "lat": 38.8765415, "is_reserved": 0}, {"lon": -77.00229633333333, "fusion_lon": 0.0, "bike_id": "b8eba4b908beacfdafb5cd2439f24be9", "type": "electric_scooter", "name": "b8eba4b908beacfdafb5cd2439f24be9", "rental_uris": {"android": "https://dc.lft.to/lastmile_qr_scan", "ios": "https://dc.lft.to/lastmile_qr_scan"}, "is_disabled": 0, "fusion_lat": 0.0, "lat": 38.8850945, "is_reserved": 0}, {"lon": -77.02209483333333, "fusion_lon": 0.0, "bike_id": "72b316c77b1ce3b53b92aa2ee151e0dd", "type": "electric_scooter", "name": "72b316c77b1ce3b53b92aa2ee151e0dd", "rental_uris": {"android": "https://dc.lft.to/lastmile_qr_scan", "ios": "https://dc.lft.to/lastmile_qr_scan"}, "is_disabled": 0, "fusion_lat": 0.0, "lat": 38.927866, "is_reserved": 0}, {"lon": -77.00946283333333, "fusion_lon": 0.0, "bike_id": "4d181be0a1768d808c10271d16bb70c6", "type": "electric_scooter", "name": "4d181be0a1768d808c10271d16bb70c6", "rental_uris": {"android": "https://dc.lft.to/lastmile_qr_scan", "ios": "https://dc.lft.to/lastmile_qr_scan"}, "is_disabled": 0, "fusion_lat": 0.0, "lat": 38.8973125, "is_reserved": 0}, {"lon": -76.93075966666666, "fusion_lon": 0.0, "bike_id": "6d24aaa7b2ff90b884c2ea3293290168", "type": "electric_scooter", "name": "6d24aaa7b2ff90b884c2ea3293290168", "rental_uris": {"android": "https://dc.lft.to/lastmile_qr_scan", "ios": "https://dc.lft.to/lastmile_qr_scan"}, "is_disabled": 0, "fusion_lat": 0.0, "lat": 38.901619833333335, "is_reserved": 0}, {"lon": -77.010822, "fusion_lon": 0.0, "bike_id": "3f88ca8e457381e5c2d1a0330dcce3ad", "type": "electric_bike", "name": "3f88ca8e457381e5c2d1a0330dcce3ad", "rental_uris": {"android": "https://dc.lft.to/lastmile_qr_scan", "ios": "https://dc.lft.to/lastmile_qr_scan"}, "is_disabled": 0, "fusion_lat": 0.0, "lat": 38.873051833333335, "is_reserved": 0}, {"lon": -77.05681066666666, "fusion_lon": 0.0, "bike_id": "358a10c0c693611993828da162c0a013", "type": "electric_scooter", "name": "358a10c0c693611993828da162c0a013", "rental_uris": {"android": "https://dc.lft.to/lastmile_qr_scan", "ios": "https://dc.lft.to/lastmile_qr_scan"}, "is_disabled": 0, "fusion_lat": 0.0, "lat": 38.951564833333336, "is_reserved": 0}, {"lon": -77.0121545, "fusion_lon": 0.0, "bike_id": "1ecf42b7bdc34b83aa630d1a05d8d204", "type": "electric_scooter", "name": "1ecf42b7bdc34b83aa630d1a05d8d204", "rental_uris": {"android": "https://dc.lft.to/lastmile_qr_scan", "ios": "https://dc.lft.to/lastmile_qr_scan"}, "is_disabled": 0, "fusion_lat": 0.0, "lat": 38.900360666666664, "is_reserved": 0}, {"lon": -77.07958483333333, "fusion_lon": 0.0, "bike_id": "83bc7a8e224c2d65551d0fbb45a45155", "type": "electric_scooter", "name": "83bc7a8e224c2d65551d0fbb45a45155", "rental_uris": {"android": "https://dc.lft.to/lastmile_qr_scan", "ios": "https://dc.lft.to/lastmile_qr_scan"}, "is_disabled": 0, "fusion_lat": 0.0, "lat": 38.94563, "is_reserved": 0}, {"lon": -77.03897216666667, "fusion_lon": 0.0, "bike_id": "1a91aaddadace193a1dd7772c827d139", "type": "electric_scooter", "name": "1a91aaddadace193a1dd7772c827d139", "rental_uris": {"android": "https://dc.lft.to/lastmile_qr_scan", "ios": "https://dc.lft.to/lastmile_qr_scan"}, "is_disabled": 0, "fusion_lat": 0.0, "lat": 38.9037415, "is_reserved": 0}, {"lon": -77.0271305, "fusion_lon": 0.0, "bike_id": "49d1043668c6ad4e65768501548f525f", "type": "electric_scooter", "name": "49d1043668c6ad4e65768501548f525f", "rental_uris": {"android": "https://dc.lft.to/lastmile_qr_scan", "ios": "https://dc.lft.to/lastmile_qr_scan"}, "is_disabled": 0, "fusion_lat": 0.0, "lat": 38.9078465, "is_reserved": 0}, {"lon": -77.02180883333334, "fusion_lon": 0.0, "bike_id": "54692faa683fbea4727a0e27c1f2e8fe", "type": "electric_scooter", "name": "54692faa683fbea4727a0e27c1f2e8fe", "rental_uris": {"android": "https://dc.lft.to/lastmile_qr_scan", "ios": "https://dc.lft.to/lastmile_qr_scan"}, "is_disabled": 0, "fusion_lat": 0.0, "lat": 38.919845, "is_reserved": 0}, {"lon": -77.05148083333333, "fusion_lon": 0.0, "bike_id": "686759990bc6bf443d3a097089bb84fa", "type": "electric_scooter", "name": "686759990bc6bf443d3a097089bb84fa", "rental_uris": {"android": "https://dc.lft.to/lastmile_qr_scan", "ios": "https://dc.lft.to/lastmile_qr_scan"}, "is_disabled": 0, "fusion_lat": 0.0, "lat": 38.906434833333336, "is_reserved": 0}, {"lon": -77.0533615, "fusion_lon": 0.0, "bike_id": "b6cfbc8ac1200d98caa0b90649a91f32", "type": "electric_scooter", "name": "b6cfbc8ac1200d98caa0b90649a91f32", "rental_uris": {"android": "https://dc.lft.to/lastmile_qr_scan", "ios": "https://dc.lft.to/lastmile_qr_scan"}, "is_disabled": 0, "fusion_lat": 0.0, "lat": 38.900012833333335, "is_reserved": 0}, {"lon": -77.02588816666666, "fusion_lon": 0.0, "bike_id": "f0d4b0d97b34d91ed67d1d32e62af2f9", "type": "electric_scooter", "name": "f0d4b0d97b34d91ed67d1d32e62af2f9", "rental_uris": {"android": "https://dc.lft.to/lastmile_qr_scan", "ios": "https://dc.lft.to/lastmile_qr_scan"}, "is_disabled": 0, "fusion_lat": 0.0, "lat": 38.942001166666664, "is_reserved": 0}, {"lon": -77.00132816666667, "fusion_lon": 0.0, "bike_id": "aee053532a813ca49a5bfc017953825c", "type": "electric_scooter", "name": "aee053532a813ca49a5bfc017953825c", "rental_uris": {"android": "https://dc.lft.to/lastmile_qr_scan", "ios": "https://dc.lft.to/lastmile_qr_scan"}, "is_disabled": 0, "fusion_lat": 0.0, "lat": 38.8749445, "is_reserved": 0}, {"lon": -77.00424283333334, "fusion_lon": 0.0, "bike_id": "6f13eb4c13ca1d92c159b9bb04f5385d", "type": "electric_scooter", "name": "6f13eb4c13ca1d92c159b9bb04f5385d", "rental_uris": {"android": "https://dc.lft.to/lastmile_qr_scan", "ios": "https://dc.lft.to/lastmile_qr_scan"}, "is_disabled": 0, "fusion_lat": 0.0, "lat": 38.91240883333333, "is_reserved": 0}, {"lon": -77.0556315, "fusion_lon": 0.0, "bike_id": "49603f6f126396df9bd59f4343502dad", "type": "electric_bike", "name": "49603f6f126396df9bd59f4343502dad", "rental_uris": {"android": "https://dc.lft.to/lastmile_qr_scan", "ios": "https://dc.lft.to/lastmile_qr_scan"}, "is_disabled": 0, "fusion_lat": 0.0, "lat": 38.80392916666667, "is_reserved": 0}, {"lon": -76.94943083333334, "fusion_lon": 0.0, "bike_id": "b63f5f64d5cb4ff4c3ea7b63fbf08959", "type": "electric_scooter", "name": "b63f5f64d5cb4ff4c3ea7b63fbf08959", "rental_uris": {"android": "https://dc.lft.to/lastmile_qr_scan", "ios": "https://dc.lft.to/lastmile_qr_scan"}, "is_disabled": 0, "fusion_lat": 0.0, "lat": 38.89355916666667, "is_reserved": 0}, {"lon": -77.0320105, "fusion_lon": 0.0, "bike_id": "85065217791e94666281971ac7ca246e", "type": "electric_scooter", "name": "85065217791e94666281971ac7ca246e", "rental_uris": {"android": "https://dc.lft.to/lastmile_qr_scan", "ios": "https://dc.lft.to/lastmile_qr_scan"}, "is_disabled": 0, "fusion_lat": 0.0, "lat": 38.909838, "is_reserved": 0}, {"lon": -77.0193765, "fusion_lon": 0.0, "bike_id": "2026c44d118f0d63ca9e4bfaaf3abe7d", "type": "electric_scooter", "name": "2026c44d118f0d63ca9e4bfaaf3abe7d", "rental_uris": {"android": "https://dc.lft.to/lastmile_qr_scan", "ios": "https://dc.lft.to/lastmile_qr_scan"}, "is_disabled": 0, "fusion_lat": 0.0, "lat": 38.9237665, "is_reserved": 0}, {"lon": -77.00339166666667, "fusion_lon": 0.0, "bike_id": "69e93b074343f6e7108afe5f2247f76b", "type": "electric_scooter", "name": "69e93b074343f6e7108afe5f2247f76b", "rental_uris": {"android": "https://dc.lft.to/lastmile_qr_scan", "ios": "https://dc.lft.to/lastmile_qr_scan"}, "is_disabled": 0, "fusion_lat": 0.0, "lat": 38.89521383333334, "is_reserved": 0}, {"lon": -77.0230085, "fusion_lon": 0.0, "bike_id": "e9ed3489cc2026b3267c56775ad5bdc6", "type": "electric_scooter", "name": "e9ed3489cc2026b3267c56775ad5bdc6", "rental_uris": {"android": "https://dc.lft.to/lastmile_qr_scan", "ios": "https://dc.lft.to/lastmile_qr_scan"}, "is_disabled": 0, "fusion_lat": 0.0, "lat": 38.89515633333333, "is_reserved": 0}, {"lon": -77.0197435, "fusion_lon": 0.0, "bike_id": "61d392dfc29875de7c316908d29c78e0", "type": "electric_scooter", "name": "61d392dfc29875de7c316908d29c78e0", "rental_uris": {"android": "https://dc.lft.to/lastmile_qr_scan", "ios": "https://dc.lft.to/lastmile_qr_scan"}, "is_disabled": 0, "fusion_lat": 0.0, "lat": 38.9154105, "is_reserved": 0}, {"lon": -77.02222116666667, "fusion_lon": 0.0, "bike_id": "da0050e698179eca8b6bd49373d560c9", "type": "electric_scooter", "name": "da0050e698179eca8b6bd49373d560c9", "rental_uris": {"android": "https://dc.lft.to/lastmile_qr_scan", "ios": "https://dc.lft.to/lastmile_qr_scan"}, "is_disabled": 0, "fusion_lat": 0.0, "lat": 38.912687, "is_reserved": 0}, {"lon": -77.12938383333334, "fusion_lon": 0.0, "bike_id": "3de3f120488d0f5fa5d70689db3767d3", "type": "electric_bike", "name": "3de3f120488d0f5fa5d70689db3767d3", "rental_uris": {"android": "https://dc.lft.to/lastmile_qr_scan", "ios": "https://dc.lft.to/lastmile_qr_scan"}, "is_disabled": 0, "fusion_lat": 0.0, "lat": 38.865151833333336, "is_reserved": 0}, {"lon": -77.0076505, "fusion_lon": 0.0, "bike_id": "fc4865895acb43e40aff9f4e06c2530f", "type": "electric_scooter", "name": "fc4865895acb43e40aff9f4e06c2530f", "rental_uris": {"android": "https://dc.lft.to/lastmile_qr_scan", "ios": "https://dc.lft.to/lastmile_qr_scan"}, "is_disabled": 0, "fusion_lat": 0.0, "lat": 38.9492, "is_reserved": 0}, {"lon": -77.02638433333334, "fusion_lon": 0.0, "bike_id": "57cc3e51d1ada1bc3452c6c16da0afb7", "type": "electric_scooter", "name": "57cc3e51d1ada1bc3452c6c16da0afb7", "rental_uris": {"android": "https://dc.lft.to/lastmile_qr_scan", "ios": "https://dc.lft.to/lastmile_qr_scan"}, "is_disabled": 0, "fusion_lat": 0.0, "lat": 38.91059933333333, "is_reserved": 0}, {"lon": -77.03665033333333, "fusion_lon": 0.0, "bike_id": "0b6409c153ab91aef7c5ac66d9031eb2", "type": "electric_scooter", "name": "0b6409c153ab91aef7c5ac66d9031eb2", "rental_uris": {"android": "https://dc.lft.to/lastmile_qr_scan", "ios": "https://dc.lft.to/lastmile_qr_scan"}, "is_disabled": 0, "fusion_lat": 0.0, "lat": 38.92376933333333, "is_reserved": 0}, {"lon": -77.0228475, "fusion_lon": 0.0, "bike_id": "abe9cee2aca16d8589be483533824494", "type": "electric_scooter", "name": "abe9cee2aca16d8589be483533824494", "rental_uris": {"android": "https://dc.lft.to/lastmile_qr_scan", "ios": "https://dc.lft.to/lastmile_qr_scan"}, "is_disabled": 0, "fusion_lat": 0.0, "lat": 38.908718, "is_reserved": 0}, {"lon": -77.0217645, "fusion_lon": 0.0, "bike_id": "4f138cf06aa24357bf40247e020ed75b", "type": "electric_scooter", "name": "4f138cf06aa24357bf40247e020ed75b", "rental_uris": {"android": "https://dc.lft.to/lastmile_qr_scan", "ios": "https://dc.lft.to/lastmile_qr_scan"}, "is_disabled": 0, "fusion_lat": 0.0, "lat": 38.919743833333335, "is_reserved": 0}, {"lon": -77.0075965, "fusion_lon": 0.0, "bike_id": "8260af0617bf10111039df23e44322a1", "type": "electric_scooter", "name": "8260af0617bf10111039df23e44322a1", "rental_uris": {"android": "https://dc.lft.to/lastmile_qr_scan", "ios": "https://dc.lft.to/lastmile_qr_scan"}, "is_disabled": 0, "fusion_lat": 0.0, "lat": 38.910266166666666, "is_reserved": 0}, {"lon": -77.02794466666667, "fusion_lon": 0.0, "bike_id": "a21a46397f510e4b23aab074a033af59", "type": "electric_scooter", "name": "a21a46397f510e4b23aab074a033af59", "rental_uris": {"android": "https://dc.lft.to/lastmile_qr_scan", "ios": "https://dc.lft.to/lastmile_qr_scan"}, "is_disabled": 0, "fusion_lat": 0.0, "lat": 38.960422666666666, "is_reserved": 0}, {"lon": -77.03444566666667, "fusion_lon": 0.0, "bike_id": "3df74eee6f445f9374e05318bcf0b922", "type": "electric_scooter", "name": "3df74eee6f445f9374e05318bcf0b922", "rental_uris": {"android": "https://dc.lft.to/lastmile_qr_scan", "ios": "https://dc.lft.to/lastmile_qr_scan"}, "is_disabled": 0, "fusion_lat": 0.0, "lat": 38.91011533333333, "is_reserved": 0}, {"lon": -77.0054135, "fusion_lon": 0.0, "bike_id": "eb10ab085280752abf0e98b444337ff6", "type": "electric_scooter", "name": "eb10ab085280752abf0e98b444337ff6", "rental_uris": {"android": "https://dc.lft.to/lastmile_qr_scan", "ios": "https://dc.lft.to/lastmile_qr_scan"}, "is_disabled": 0, "fusion_lat": 0.0, "lat": 38.87710533333333, "is_reserved": 0}, {"lon": -77.02280716666667, "fusion_lon": 0.0, "bike_id": "2964007b867545828a3bebbc945c4dae", "type": "electric_scooter", "name": "2964007b867545828a3bebbc945c4dae", "rental_uris": {"android": "https://dc.lft.to/lastmile_qr_scan", "ios": "https://dc.lft.to/lastmile_qr_scan"}, "is_disabled": 0, "fusion_lat": 0.0, "lat": 38.90938516666667, "is_reserved": 0}, {"lon": -77.04333866666667, "fusion_lon": 0.0, "bike_id": "5bbd846c1f0c0f14d833738efc128371", "type": "electric_scooter", "name": "5bbd846c1f0c0f14d833738efc128371", "rental_uris": {"android": "https://dc.lft.to/lastmile_qr_scan", "ios": "https://dc.lft.to/lastmile_qr_scan"}, "is_disabled": 0, "fusion_lat": 0.0, "lat": 38.91103916666667, "is_reserved": 0}, {"lon": -77.03098216666666, "fusion_lon": 0.0, "bike_id": "21680268a4ed27f448da86d287ca2fc1", "type": "electric_scooter", "name": "21680268a4ed27f448da86d287ca2fc1", "rental_uris": {"android": "https://dc.lft.to/lastmile_qr_scan", "ios": "https://dc.lft.to/lastmile_qr_scan"}, "is_disabled": 0, "fusion_lat": 0.0, "lat": 38.910553, "is_reserved": 0}, {"lon": -77.07764666666667, "fusion_lon": 0.0, "bike_id": "69b1e7221a482837bc72b13689f9e5ea", "type": "electric_scooter", "name": "69b1e7221a482837bc72b13689f9e5ea", "rental_uris": {"android": "https://dc.lft.to/lastmile_qr_scan", "ios": "https://dc.lft.to/lastmile_qr_scan"}, "is_disabled": 0, "fusion_lat": 0.0, "lat": 38.91162333333333, "is_reserved": 0}, {"lon": -76.97612383333333, "fusion_lon": 0.0, "bike_id": "e8657a56381fecad71ebcb6418517406", "type": "electric_scooter", "name": "e8657a56381fecad71ebcb6418517406", "rental_uris": {"android": "https://dc.lft.to/lastmile_qr_scan", "ios": "https://dc.lft.to/lastmile_qr_scan"}, "is_disabled": 0, "fusion_lat": 0.0, "lat": 38.94017983333333, "is_reserved": 0}, {"lon": -76.94861966666667, "fusion_lon": 0.0, "bike_id": "3ede4522557f57c7b18c91499c97eb34", "type": "electric_scooter", "name": "3ede4522557f57c7b18c91499c97eb34", "rental_uris": {"android": "https://dc.lft.to/lastmile_qr_scan", "ios": "https://dc.lft.to/lastmile_qr_scan"}, "is_disabled": 0, "fusion_lat": 0.0, "lat": 38.894771, "is_reserved": 0}, {"lon": -77.0218225, "fusion_lon": 0.0, "bike_id": "a4d1e7095196c62901f9433691991abb", "type": "electric_scooter", "name": "a4d1e7095196c62901f9433691991abb", "rental_uris": {"android": "https://dc.lft.to/lastmile_qr_scan", "ios": "https://dc.lft.to/lastmile_qr_scan"}, "is_disabled": 0, "fusion_lat": 0.0, "lat": 38.9097125, "is_reserved": 0}, {"lon": -77.03523216666666, "fusion_lon": 0.0, "bike_id": "3b19e58a5a543e1b3529afcae4609968", "type": "electric_scooter", "name": "3b19e58a5a543e1b3529afcae4609968", "rental_uris": {"android": "https://dc.lft.to/lastmile_qr_scan", "ios": "https://dc.lft.to/lastmile_qr_scan"}, "is_disabled": 0, "fusion_lat": 0.0, "lat": 38.9026755, "is_reserved": 0}, {"lon": -77.04669716666666, "fusion_lon": 0.0, "bike_id": "2bfb1b86432b9536ea8b2137f9f2fcaf", "type": "electric_scooter", "name": "2bfb1b86432b9536ea8b2137f9f2fcaf", "rental_uris": {"android": "https://dc.lft.to/lastmile_qr_scan", "ios": "https://dc.lft.to/lastmile_qr_scan"}, "is_disabled": 0, "fusion_lat": 0.0, "lat": 38.9031285, "is_reserved": 0}, {"lon": -77.07466666666667, "fusion_lon": 0.0, "bike_id": "e387c5255ae4c0800f5a4fa922fc4d7b", "type": "electric_scooter", "name": "e387c5255ae4c0800f5a4fa922fc4d7b", "rental_uris": {"android": "https://dc.lft.to/lastmile_qr_scan", "ios": "https://dc.lft.to/lastmile_qr_scan"}, "is_disabled": 0, "fusion_lat": 0.0, "lat": 38.912530833333335, "is_reserved": 0}, {"lon": -77.04378866666667, "fusion_lon": 0.0, "bike_id": "4ce135ff587416ff23369fb3d37012f7", "type": "electric_scooter", "name": "4ce135ff587416ff23369fb3d37012f7", "rental_uris": {"android": "https://dc.lft.to/lastmile_qr_scan", "ios": "https://dc.lft.to/lastmile_qr_scan"}, "is_disabled": 0, "fusion_lat": 0.0, "lat": 38.92228016666667, "is_reserved": 0}, {"lon": -77.048549, "fusion_lon": 0.0, "bike_id": "1d58eb12b63f0e4973b4f158910dbe83", "type": "electric_scooter", "name": "1d58eb12b63f0e4973b4f158910dbe83", "rental_uris": {"android": "https://dc.lft.to/lastmile_qr_scan", "ios": "https://dc.lft.to/lastmile_qr_scan"}, "is_disabled": 0, "fusion_lat": 0.0, "lat": 38.915194166666666, "is_reserved": 0}, {"lon": -77.04160516666667, "fusion_lon": 0.0, "bike_id": "1f8be19b99dc036cd1ecd7292f6eb58c", "type": "electric_scooter", "name": "1f8be19b99dc036cd1ecd7292f6eb58c", "rental_uris": {"android": "https://dc.lft.to/lastmile_qr_scan", "ios": "https://dc.lft.to/lastmile_qr_scan"}, "is_disabled": 0, "fusion_lat": 0.0, "lat": 38.9174835, "is_reserved": 0}, {"lon": -77.025404, "fusion_lon": 0.0, "bike_id": "4f0c9209f27fcfd8c4c4f65992282868", "type": "electric_scooter", "name": "4f0c9209f27fcfd8c4c4f65992282868", "rental_uris": {"android": "https://dc.lft.to/lastmile_qr_scan", "ios": "https://dc.lft.to/lastmile_qr_scan"}, "is_disabled": 0, "fusion_lat": 0.0, "lat": 38.92081183333333, "is_reserved": 0}, {"lon": -77.02276366666666, "fusion_lon": 0.0, "bike_id": "8ec5020fb7cb8d658103b20f84c16fdf", "type": "electric_scooter", "name": "8ec5020fb7cb8d658103b20f84c16fdf", "rental_uris": {"android": "https://dc.lft.to/lastmile_qr_scan", "ios": "https://dc.lft.to/lastmile_qr_scan"}, "is_disabled": 0, "fusion_lat": 0.0, "lat": 38.9165295, "is_reserved": 0}, {"lon": -77.02641066666666, "fusion_lon": 0.0, "bike_id": "55e0004a2dbd32c0302f272a6155077b", "type": "electric_scooter", "name": "55e0004a2dbd32c0302f272a6155077b", "rental_uris": {"android": "https://dc.lft.to/lastmile_qr_scan", "ios": "https://dc.lft.to/lastmile_qr_scan"}, "is_disabled": 0, "fusion_lat": 0.0, "lat": 38.93649716666667, "is_reserved": 0}, {"lon": -77.00340066666666, "fusion_lon": 0.0, "bike_id": "c06aae5ddf14718fe0702d98dc4f2d27", "type": "electric_scooter", "name": "c06aae5ddf14718fe0702d98dc4f2d27", "rental_uris": {"android": "https://dc.lft.to/lastmile_qr_scan", "ios": "https://dc.lft.to/lastmile_qr_scan"}, "is_disabled": 0, "fusion_lat": 0.0, "lat": 38.89508683333333, "is_reserved": 0}, {"lon": -77.02583483333333, "fusion_lon": 0.0, "bike_id": "c50c4a98915d3ffaaabdb7d787ca8850", "type": "electric_scooter", "name": "c50c4a98915d3ffaaabdb7d787ca8850", "rental_uris": {"android": "https://dc.lft.to/lastmile_qr_scan", "ios": "https://dc.lft.to/lastmile_qr_scan"}, "is_disabled": 0, "fusion_lat": 0.0, "lat": 38.9241295, "is_reserved": 0}, {"lon": -77.024796, "fusion_lon": 0.0, "bike_id": "8949c9ba626f7d73255a264bddb00238", "type": "electric_scooter", "name": "8949c9ba626f7d73255a264bddb00238", "rental_uris": {"android": "https://dc.lft.to/lastmile_qr_scan", "ios": "https://dc.lft.to/lastmile_qr_scan"}, "is_disabled": 0, "fusion_lat": 0.0, "lat": 38.938768833333334, "is_reserved": 0}, {"lon": -77.05486483333334, "fusion_lon": 0.0, "bike_id": "0d6885fdb0ffe21ea13e48ce47294591", "type": "electric_bike", "name": "0d6885fdb0ffe21ea13e48ce47294591", "rental_uris": {"android": "https://dc.lft.to/lastmile_qr_scan", "ios": "https://dc.lft.to/lastmile_qr_scan"}, "is_disabled": 0, "fusion_lat": 0.0, "lat": 38.800192333333335, "is_reserved": 0}, {"lon": -77.0264525, "fusion_lon": 0.0, "bike_id": "8afd6970587f31a7837885695063950a", "type": "electric_scooter", "name": "8afd6970587f31a7837885695063950a", "rental_uris": {"android": "https://dc.lft.to/lastmile_qr_scan", "ios": "https://dc.lft.to/lastmile_qr_scan"}, "is_disabled": 0, "fusion_lat": 0.0, "lat": 38.896010833333335, "is_reserved": 0}, {"lon": -77.0325015, "fusion_lon": 0.0, "bike_id": "7d898b69be1c0dd9a3c11021e43157d7", "type": "electric_scooter", "name": "7d898b69be1c0dd9a3c11021e43157d7", "rental_uris": {"android": "https://dc.lft.to/lastmile_qr_scan", "ios": "https://dc.lft.to/lastmile_qr_scan"}, "is_disabled": 0, "fusion_lat": 0.0, "lat": 38.9294005, "is_reserved": 0}, {"lon": -77.03527833333334, "fusion_lon": 0.0, "bike_id": "43422d7093293e972571c8efce672048", "type": "electric_scooter", "name": "43422d7093293e972571c8efce672048", "rental_uris": {"android": "https://dc.lft.to/lastmile_qr_scan", "ios": "https://dc.lft.to/lastmile_qr_scan"}, "is_disabled": 0, "fusion_lat": 0.0, "lat": 38.92316316666667, "is_reserved": 0}, {"lon": -77.02285233333333, "fusion_lon": 0.0, "bike_id": "ea969e4a6019c1352c5eed70d95de60c", "type": "electric_scooter", "name": "ea969e4a6019c1352c5eed70d95de60c", "rental_uris": {"android": "https://dc.lft.to/lastmile_qr_scan", "ios": "https://dc.lft.to/lastmile_qr_scan"}, "is_disabled": 0, "fusion_lat": 0.0, "lat": 38.9269595, "is_reserved": 0}, {"lon": -76.957542, "fusion_lon": 0.0, "bike_id": "d0f4ca9b9820d39485764e84dede5489", "type": "electric_scooter", "name": "d0f4ca9b9820d39485764e84dede5489", "rental_uris": {"android": "https://dc.lft.to/lastmile_qr_scan", "ios": "https://dc.lft.to/lastmile_qr_scan"}, "is_disabled": 0, "fusion_lat": 0.0, "lat": 38.884269833333335, "is_reserved": 0}, {"lon": -76.99794366666667, "fusion_lon": 0.0, "bike_id": "189a0d01f0b51760482101f0feb7956f", "type": "electric_bike", "name": "189a0d01f0b51760482101f0feb7956f", "rental_uris": {"android": "https://dc.lft.to/lastmile_qr_scan", "ios": "https://dc.lft.to/lastmile_qr_scan"}, "is_disabled": 0, "fusion_lat": 0.0, "lat": 38.9508675, "is_reserved": 0}, {"lon": -77.03217616666667, "fusion_lon": 0.0, "bike_id": "0fe35bbd9b48baf776e2010fa78b6be1", "type": "electric_scooter", "name": "0fe35bbd9b48baf776e2010fa78b6be1", "rental_uris": {"android": "https://dc.lft.to/lastmile_qr_scan", "ios": "https://dc.lft.to/lastmile_qr_scan"}, "is_disabled": 0, "fusion_lat": 0.0, "lat": 38.95786616666667, "is_reserved": 0}, {"lon": -77.02714583333334, "fusion_lon": 0.0, "bike_id": "d268fea16e947fa793f9c43b03800578", "type": "electric_scooter", "name": "d268fea16e947fa793f9c43b03800578", "rental_uris": {"android": "https://dc.lft.to/lastmile_qr_scan", "ios": "https://dc.lft.to/lastmile_qr_scan"}, "is_disabled": 0, "fusion_lat": 0.0, "lat": 38.924579666666666, "is_reserved": 0}, {"lon": -77.0171505, "fusion_lon": 0.0, "bike_id": "613770d97cabb343e3beffbd81571a9f", "type": "electric_scooter", "name": "613770d97cabb343e3beffbd81571a9f", "rental_uris": {"android": "https://dc.lft.to/lastmile_qr_scan", "ios": "https://dc.lft.to/lastmile_qr_scan"}, "is_disabled": 0, "fusion_lat": 0.0, "lat": 38.917413, "is_reserved": 0}, {"lon": -77.04553983333334, "fusion_lon": 0.0, "bike_id": "e870850a45ecfc0083a8a2fe681c0026", "type": "electric_scooter", "name": "e870850a45ecfc0083a8a2fe681c0026", "rental_uris": {"android": "https://dc.lft.to/lastmile_qr_scan", "ios": "https://dc.lft.to/lastmile_qr_scan"}, "is_disabled": 0, "fusion_lat": 0.0, "lat": 38.919400833333334, "is_reserved": 0}, {"lon": -77.0324295, "fusion_lon": 0.0, "bike_id": "ca33bf434194f117ab923ce16745d036", "type": "electric_scooter", "name": "ca33bf434194f117ab923ce16745d036", "rental_uris": {"android": "https://dc.lft.to/lastmile_qr_scan", "ios": "https://dc.lft.to/lastmile_qr_scan"}, "is_disabled": 0, "fusion_lat": 0.0, "lat": 38.9054535, "is_reserved": 0}, {"lon": -77.01625783333333, "fusion_lon": 0.0, "bike_id": "319fc875370037b1f1cef4ce47eafefa", "type": "electric_scooter", "name": "319fc875370037b1f1cef4ce47eafefa", "rental_uris": {"android": "https://dc.lft.to/lastmile_qr_scan", "ios": "https://dc.lft.to/lastmile_qr_scan"}, "is_disabled": 0, "fusion_lat": 0.0, "lat": 38.89914666666667, "is_reserved": 0}, {"lon": -77.00076366666667, "fusion_lon": 0.0, "bike_id": "44762bd3e021f79657275508c294f9a7", "type": "electric_scooter", "name": "44762bd3e021f79657275508c294f9a7", "rental_uris": {"android": "https://dc.lft.to/lastmile_qr_scan", "ios": "https://dc.lft.to/lastmile_qr_scan"}, "is_disabled": 0, "fusion_lat": 0.0, "lat": 38.87385616666667, "is_reserved": 0}, {"lon": -76.94630016666666, "fusion_lon": 0.0, "bike_id": "299d7ad72e372e740594aa876601e1b7", "type": "electric_scooter", "name": "299d7ad72e372e740594aa876601e1b7", "rental_uris": {"android": "https://dc.lft.to/lastmile_qr_scan", "ios": "https://dc.lft.to/lastmile_qr_scan"}, "is_disabled": 0, "fusion_lat": 0.0, "lat": 38.89865966666667, "is_reserved": 0}, {"lon": -77.064765, "fusion_lon": 0.0, "bike_id": "166caa07399911d15367a6e9ab6c8227", "type": "electric_bike", "name": "166caa07399911d15367a6e9ab6c8227", "rental_uris": {"android": "https://dc.lft.to/lastmile_qr_scan", "ios": "https://dc.lft.to/lastmile_qr_scan"}, "is_disabled": 0, "fusion_lat": 0.0, "lat": 38.97377266666667, "is_reserved": 0}, {"lon": -77.02879733333333, "fusion_lon": 0.0, "bike_id": "0c56895f60d30db4023e4fa2cd7497a1", "type": "electric_scooter", "name": "0c56895f60d30db4023e4fa2cd7497a1", "rental_uris": {"android": "https://dc.lft.to/lastmile_qr_scan", "ios": "https://dc.lft.to/lastmile_qr_scan"}, "is_disabled": 0, "fusion_lat": 0.0, "lat": 38.91713883333333, "is_reserved": 0}, {"lon": -77.02812516666667, "fusion_lon": 0.0, "bike_id": "b672d74be766145b28e675534e6af068", "type": "electric_scooter", "name": "b672d74be766145b28e675534e6af068", "rental_uris": {"android": "https://dc.lft.to/lastmile_qr_scan", "ios": "https://dc.lft.to/lastmile_qr_scan"}, "is_disabled": 0, "fusion_lat": 0.0, "lat": 38.901001, "is_reserved": 0}, {"lon": -77.02387783333333, "fusion_lon": 0.0, "bike_id": "b7f37149ade9385bbee6c97090fa2737", "type": "electric_scooter", "name": "b7f37149ade9385bbee6c97090fa2737", "rental_uris": {"android": "https://dc.lft.to/lastmile_qr_scan", "ios": "https://dc.lft.to/lastmile_qr_scan"}, "is_disabled": 0, "fusion_lat": 0.0, "lat": 38.9127285, "is_reserved": 0}, {"lon": -76.998213, "fusion_lon": 0.0, "bike_id": "2d28125644fb52094cbf04532c0bd19a", "type": "electric_scooter", "name": "2d28125644fb52094cbf04532c0bd19a", "rental_uris": {"android": "https://dc.lft.to/lastmile_qr_scan", "ios": "https://dc.lft.to/lastmile_qr_scan"}, "is_disabled": 0, "fusion_lat": 0.0, "lat": 38.88532166666667, "is_reserved": 0}, {"lon": -76.99506, "fusion_lon": 0.0, "bike_id": "66154d52577b29aa35b5abbb961b9977", "type": "electric_scooter", "name": "66154d52577b29aa35b5abbb961b9977", "rental_uris": {"android": "https://dc.lft.to/lastmile_qr_scan", "ios": "https://dc.lft.to/lastmile_qr_scan"}, "is_disabled": 0, "fusion_lat": 0.0, "lat": 38.86248033333333, "is_reserved": 0}, {"lon": -77.06325, "fusion_lon": 0.0, "bike_id": "5969fe8533e9af49daa81ebcc7dc5684", "type": "electric_bike", "name": "5969fe8533e9af49daa81ebcc7dc5684", "rental_uris": {"android": "https://dc.lft.to/lastmile_qr_scan", "ios": "https://dc.lft.to/lastmile_qr_scan"}, "is_disabled": 0, "fusion_lat": 0.0, "lat": 38.905995, "is_reserved": 0}, {"lon": -77.0248825, "fusion_lon": 0.0, "bike_id": "3648669a143456ca8ea828ecbca58843", "type": "electric_scooter", "name": "3648669a143456ca8ea828ecbca58843", "rental_uris": {"android": "https://dc.lft.to/lastmile_qr_scan", "ios": "https://dc.lft.to/lastmile_qr_scan"}, "is_disabled": 0, "fusion_lat": 0.0, "lat": 38.8843805, "is_reserved": 0}, {"lon": -76.986763, "fusion_lon": 0.0, "bike_id": "2b83eabc052b118ea1773059d0f1ed90", "type": "electric_bike", "name": "2b83eabc052b118ea1773059d0f1ed90", "rental_uris": {"android": "https://dc.lft.to/lastmile_qr_scan", "ios": "https://dc.lft.to/lastmile_qr_scan"}, "is_disabled": 0, "fusion_lat": 0.0, "lat": 38.90016283333333, "is_reserved": 0}, {"lon": -77.024625, "fusion_lon": 0.0, "bike_id": "07b5acfd3978cfef8f69b222eee1d847", "type": "electric_scooter", "name": "07b5acfd3978cfef8f69b222eee1d847", "rental_uris": {"android": "https://dc.lft.to/lastmile_qr_scan", "ios": "https://dc.lft.to/lastmile_qr_scan"}, "is_disabled": 0, "fusion_lat": 0.0, "lat": 38.89733833333333, "is_reserved": 0}, {"lon": -77.03205916666667, "fusion_lon": 0.0, "bike_id": "a0958b731846e6b7007b41d313eeb179", "type": "electric_scooter", "name": "a0958b731846e6b7007b41d313eeb179", "rental_uris": {"android": "https://dc.lft.to/lastmile_qr_scan", "ios": "https://dc.lft.to/lastmile_qr_scan"}, "is_disabled": 0, "fusion_lat": 0.0, "lat": 38.92138966666667, "is_reserved": 0}, {"lon": -77.05506683333333, "fusion_lon": 0.0, "bike_id": "d0ec8796a3fe2b962b1182d29af63d9f", "type": "electric_scooter", "name": "d0ec8796a3fe2b962b1182d29af63d9f", "rental_uris": {"android": "https://dc.lft.to/lastmile_qr_scan", "ios": "https://dc.lft.to/lastmile_qr_scan"}, "is_disabled": 0, "fusion_lat": 0.0, "lat": 38.92837866666667, "is_reserved": 0}, {"lon": -77.02532533333333, "fusion_lon": 0.0, "bike_id": "f6bdc4be160b49067c2d3dfa3ce4132b", "type": "electric_scooter", "name": "f6bdc4be160b49067c2d3dfa3ce4132b", "rental_uris": {"android": "https://dc.lft.to/lastmile_qr_scan", "ios": "https://dc.lft.to/lastmile_qr_scan"}, "is_disabled": 0, "fusion_lat": 0.0, "lat": 38.94622016666667, "is_reserved": 0}, {"lon": -76.9822425, "fusion_lon": 0.0, "bike_id": "10607e7e442c90127b53344bd49dfb61", "type": "electric_bike", "name": "10607e7e442c90127b53344bd49dfb61", "rental_uris": {"android": "https://dc.lft.to/lastmile_qr_scan", "ios": "https://dc.lft.to/lastmile_qr_scan"}, "is_disabled": 0, "fusion_lat": 0.0, "lat": 38.985088833333336, "is_reserved": 0}, {"lon": -76.967138, "fusion_lon": 0.0, "bike_id": "dc9d4995b88ce677a3fa6731ee7b5767", "type": "electric_scooter", "name": "dc9d4995b88ce677a3fa6731ee7b5767", "rental_uris": {"android": "https://dc.lft.to/lastmile_qr_scan", "ios": "https://dc.lft.to/lastmile_qr_scan"}, "is_disabled": 0, "fusion_lat": 0.0, "lat": 38.8603055, "is_reserved": 0}, {"lon": -77.02510833333334, "fusion_lon": 0.0, "bike_id": "1e00295ba4526e00604d999d95d14d24", "type": "electric_scooter", "name": "1e00295ba4526e00604d999d95d14d24", "rental_uris": {"android": "https://dc.lft.to/lastmile_qr_scan", "ios": "https://dc.lft.to/lastmile_qr_scan"}, "is_disabled": 0, "fusion_lat": 0.0, "lat": 38.92090266666666, "is_reserved": 0}, {"lon": -77.01669933333334, "fusion_lon": 0.0, "bike_id": "5ad9ea6af438e82672ca444c8a15d2cf", "type": "electric_scooter", "name": "5ad9ea6af438e82672ca444c8a15d2cf", "rental_uris": {"android": "https://dc.lft.to/lastmile_qr_scan", "ios": "https://dc.lft.to/lastmile_qr_scan"}, "is_disabled": 0, "fusion_lat": 0.0, "lat": 38.90040366666667, "is_reserved": 0}, {"lon": -77.01779866666666, "fusion_lon": 0.0, "bike_id": "fb858d548d313a9253f1da1b90e727fc", "type": "electric_scooter", "name": "fb858d548d313a9253f1da1b90e727fc", "rental_uris": {"android": "https://dc.lft.to/lastmile_qr_scan", "ios": "https://dc.lft.to/lastmile_qr_scan"}, "is_disabled": 0, "fusion_lat": 0.0, "lat": 38.8770585, "is_reserved": 0}, {"lon": -77.02305183333333, "fusion_lon": 0.0, "bike_id": "ac0a4b918079392e60b2435b426b41bd", "type": "electric_scooter", "name": "ac0a4b918079392e60b2435b426b41bd", "rental_uris": {"android": "https://dc.lft.to/lastmile_qr_scan", "ios": "https://dc.lft.to/lastmile_qr_scan"}, "is_disabled": 0, "fusion_lat": 0.0, "lat": 38.91792, "is_reserved": 0}, {"lon": -77.01221766666667, "fusion_lon": 0.0, "bike_id": "ebdb8cf0af72da2569242f9923344fd7", "type": "electric_scooter", "name": "ebdb8cf0af72da2569242f9923344fd7", "rental_uris": {"android": "https://dc.lft.to/lastmile_qr_scan", "ios": "https://dc.lft.to/lastmile_qr_scan"}, "is_disabled": 0, "fusion_lat": 0.0, "lat": 38.900280333333335, "is_reserved": 0}, {"lon": -77.09722966666666, "fusion_lon": 0.0, "bike_id": "74ed3ee68ebe9475f71b58083539aefb", "type": "electric_scooter", "name": "74ed3ee68ebe9475f71b58083539aefb", "rental_uris": {"android": "https://dc.lft.to/lastmile_qr_scan", "ios": "https://dc.lft.to/lastmile_qr_scan"}, "is_disabled": 0, "fusion_lat": 0.0, "lat": 38.95092366666667, "is_reserved": 0}, {"lon": -77.00032333333333, "fusion_lon": 0.0, "bike_id": "0d2751acfd15d31b66c034fba32cd50c", "type": "electric_scooter", "name": "0d2751acfd15d31b66c034fba32cd50c", "rental_uris": {"android": "https://dc.lft.to/lastmile_qr_scan", "ios": "https://dc.lft.to/lastmile_qr_scan"}, "is_disabled": 0, "fusion_lat": 0.0, "lat": 38.873915333333336, "is_reserved": 0}, {"lon": -77.03352233333334, "fusion_lon": 0.0, "bike_id": "edfc69157aa7b888fa58943c0e360f06", "type": "electric_scooter", "name": "edfc69157aa7b888fa58943c0e360f06", "rental_uris": {"android": "https://dc.lft.to/lastmile_qr_scan", "ios": "https://dc.lft.to/lastmile_qr_scan"}, "is_disabled": 0, "fusion_lat": 0.0, "lat": 38.902883, "is_reserved": 0}, {"lon": -77.02486583333334, "fusion_lon": 0.0, "bike_id": "a5aa48cea0142d6a070f8ffacbd19b76", "type": "electric_scooter", "name": "a5aa48cea0142d6a070f8ffacbd19b76", "rental_uris": {"android": "https://dc.lft.to/lastmile_qr_scan", "ios": "https://dc.lft.to/lastmile_qr_scan"}, "is_disabled": 0, "fusion_lat": 0.0, "lat": 38.941841333333336, "is_reserved": 0}, {"lon": -77.04669483333333, "fusion_lon": 0.0, "bike_id": "8a29a17b168fe473b79cdf891cfe9ba6", "type": "electric_scooter", "name": "8a29a17b168fe473b79cdf891cfe9ba6", "rental_uris": {"android": "https://dc.lft.to/lastmile_qr_scan", "ios": "https://dc.lft.to/lastmile_qr_scan"}, "is_disabled": 0, "fusion_lat": 0.0, "lat": 38.913378, "is_reserved": 0}, {"lon": -77.01972333333333, "fusion_lon": 0.0, "bike_id": "87a0d5966b9b038d210a872743950987", "type": "electric_scooter", "name": "87a0d5966b9b038d210a872743950987", "rental_uris": {"android": "https://dc.lft.to/lastmile_qr_scan", "ios": "https://dc.lft.to/lastmile_qr_scan"}, "is_disabled": 0, "fusion_lat": 0.0, "lat": 38.9564825, "is_reserved": 0}, {"lon": -77.0706455, "fusion_lon": 0.0, "bike_id": "096417cd9597c7b42d598407195904be", "type": "electric_scooter", "name": "096417cd9597c7b42d598407195904be", "rental_uris": {"android": "https://dc.lft.to/lastmile_qr_scan", "ios": "https://dc.lft.to/lastmile_qr_scan"}, "is_disabled": 0, "fusion_lat": 0.0, "lat": 38.919386833333334, "is_reserved": 0}, {"lon": -76.99408516666666, "fusion_lon": 0.0, "bike_id": "72a7927e3bea01eff2b4d85c81d85071", "type": "electric_bike", "name": "72a7927e3bea01eff2b4d85c81d85071", "rental_uris": {"android": "https://dc.lft.to/lastmile_qr_scan", "ios": "https://dc.lft.to/lastmile_qr_scan"}, "is_disabled": 0, "fusion_lat": 0.0, "lat": 38.921751, "is_reserved": 0}, {"lon": -77.040114, "fusion_lon": 0.0, "bike_id": "9008d823ca1b47658108df984558eb73", "type": "electric_scooter", "name": "9008d823ca1b47658108df984558eb73", "rental_uris": {"android": "https://dc.lft.to/lastmile_qr_scan", "ios": "https://dc.lft.to/lastmile_qr_scan"}, "is_disabled": 0, "fusion_lat": 0.0, "lat": 38.90348316666667, "is_reserved": 0}, {"lon": -76.99509016666667, "fusion_lon": 0.0, "bike_id": "ff734ce9e32a3543b97619cde509b296", "type": "electric_scooter", "name": "ff734ce9e32a3543b97619cde509b296", "rental_uris": {"android": "https://dc.lft.to/lastmile_qr_scan", "ios": "https://dc.lft.to/lastmile_qr_scan"}, "is_disabled": 0, "fusion_lat": 0.0, "lat": 38.88361066666667, "is_reserved": 0}, {"lon": -77.04603116666667, "fusion_lon": 0.0, "bike_id": "005f47e123e2ec6768ab2d95e988a9db", "type": "electric_scooter", "name": "005f47e123e2ec6768ab2d95e988a9db", "rental_uris": {"android": "https://dc.lft.to/lastmile_qr_scan", "ios": "https://dc.lft.to/lastmile_qr_scan"}, "is_disabled": 0, "fusion_lat": 0.0, "lat": 38.915115, "is_reserved": 0}, {"lon": -77.01948166666666, "fusion_lon": 0.0, "bike_id": "f75aef9d7a2211adca85586cb8ec4c6d", "type": "electric_scooter", "name": "f75aef9d7a2211adca85586cb8ec4c6d", "rental_uris": {"android": "https://dc.lft.to/lastmile_qr_scan", "ios": "https://dc.lft.to/lastmile_qr_scan"}, "is_disabled": 0, "fusion_lat": 0.0, "lat": 38.924213, "is_reserved": 0}, {"lon": -77.0234695, "fusion_lon": 0.0, "bike_id": "eaf850b9b6a6a2cb384f43a4f29c3b6d", "type": "electric_scooter", "name": "eaf850b9b6a6a2cb384f43a4f29c3b6d", "rental_uris": {"android": "https://dc.lft.to/lastmile_qr_scan", "ios": "https://dc.lft.to/lastmile_qr_scan"}, "is_disabled": 0, "fusion_lat": 0.0, "lat": 38.9298245, "is_reserved": 0}, {"lon": -77.03539566666667, "fusion_lon": 0.0, "bike_id": "b4c47241d73f39ccbb4d127c4d127b1f", "type": "electric_scooter", "name": "b4c47241d73f39ccbb4d127c4d127b1f", "rental_uris": {"android": "https://dc.lft.to/lastmile_qr_scan", "ios": "https://dc.lft.to/lastmile_qr_scan"}, "is_disabled": 0, "fusion_lat": 0.0, "lat": 38.925348, "is_reserved": 0}, {"lon": -77.04145533333333, "fusion_lon": 0.0, "bike_id": "f18da75e0a8ac43472f42e9bcf631deb", "type": "electric_scooter", "name": "f18da75e0a8ac43472f42e9bcf631deb", "rental_uris": {"android": "https://dc.lft.to/lastmile_qr_scan", "ios": "https://dc.lft.to/lastmile_qr_scan"}, "is_disabled": 0, "fusion_lat": 0.0, "lat": 38.916796, "is_reserved": 0}, {"lon": -77.0362915, "fusion_lon": 0.0, "bike_id": "365825ac69003c1263ed64e6206a2e46", "type": "electric_scooter", "name": "365825ac69003c1263ed64e6206a2e46", "rental_uris": {"android": "https://dc.lft.to/lastmile_qr_scan", "ios": "https://dc.lft.to/lastmile_qr_scan"}, "is_disabled": 0, "fusion_lat": 0.0, "lat": 38.965504333333335, "is_reserved": 0}, {"lon": -77.03522116666667, "fusion_lon": 0.0, "bike_id": "07b66a9b3380dfbe162db0c22512b030", "type": "electric_scooter", "name": "07b66a9b3380dfbe162db0c22512b030", "rental_uris": {"android": "https://dc.lft.to/lastmile_qr_scan", "ios": "https://dc.lft.to/lastmile_qr_scan"}, "is_disabled": 0, "fusion_lat": 0.0, "lat": 38.923362166666664, "is_reserved": 0}, {"lon": -76.981888, "fusion_lon": 0.0, "bike_id": "44e0509ebd99f2e8b3328bba4cef9507", "type": "electric_scooter", "name": "44e0509ebd99f2e8b3328bba4cef9507", "rental_uris": {"android": "https://dc.lft.to/lastmile_qr_scan", "ios": "https://dc.lft.to/lastmile_qr_scan"}, "is_disabled": 0, "fusion_lat": 0.0, "lat": 38.862022333333336, "is_reserved": 0}, {"lon": -77.0200635, "fusion_lon": 0.0, "bike_id": "941f2689fe7f245e26e452d00df4891b", "type": "electric_scooter", "name": "941f2689fe7f245e26e452d00df4891b", "rental_uris": {"android": "https://dc.lft.to/lastmile_qr_scan", "ios": "https://dc.lft.to/lastmile_qr_scan"}, "is_disabled": 0, "fusion_lat": 0.0, "lat": 38.91404166666667, "is_reserved": 0}, {"lon": -77.0346685, "fusion_lon": 0.0, "bike_id": "fc8bd66a52324e4ed096754f5c520fac", "type": "electric_scooter", "name": "fc8bd66a52324e4ed096754f5c520fac", "rental_uris": {"android": "https://dc.lft.to/lastmile_qr_scan", "ios": "https://dc.lft.to/lastmile_qr_scan"}, "is_disabled": 0, "fusion_lat": 0.0, "lat": 38.91705683333333, "is_reserved": 0}, {"lon": -77.02820566666666, "fusion_lon": 0.0, "bike_id": "6780bc55d5f08518c6752be9e8222a8e", "type": "electric_scooter", "name": "6780bc55d5f08518c6752be9e8222a8e", "rental_uris": {"android": "https://dc.lft.to/lastmile_qr_scan", "ios": "https://dc.lft.to/lastmile_qr_scan"}, "is_disabled": 0, "fusion_lat": 0.0, "lat": 38.93063816666667, "is_reserved": 0}, {"lon": -77.02487433333333, "fusion_lon": 0.0, "bike_id": "79e8d8b7140246bfba3eb5c2e99811fe", "type": "electric_scooter", "name": "79e8d8b7140246bfba3eb5c2e99811fe", "rental_uris": {"android": "https://dc.lft.to/lastmile_qr_scan", "ios": "https://dc.lft.to/lastmile_qr_scan"},