{"data": {"bikes": [{"lat": 38.91921966666666, "fusion_lat": 0.0, "type": "electric_scooter", "bike_id": "04ef1b66f4d429b19c7ff1c971622915", "is_reserved": 0, "rental_uris": {"ios": "https://dc.lft.to/lastmile_qr_scan", "android": "https://dc.lft.to/lastmile_qr_scan"}, "is_disabled": 0, "lon": -77.04250616666667, "name": "04ef1b66f4d429b19c7ff1c971622915", "fusion_lon": 0.0}, {"lat": 38.92105633333333, "fusion_lat": 0.0, "type": "electric_scooter", "bike_id": "ab6b275e7332c023e12fd4eac6d7edea", "is_reserved": 0, "rental_uris": {"ios": "https://dc.lft.to/lastmile_qr_scan", "android": "https://dc.lft.to/lastmile_qr_scan"}, "is_disabled": 0, "lon": -77.03045733333333, "name": "ab6b275e7332c023e12fd4eac6d7edea", "fusion_lon": 0.0}, {"lat": 38.866850666666664, "fusion_lat": 0.0, "type": "electric_scooter", "bike_id": "3c7311c475d15c7c68de4d3afe3ee980", "is_reserved": 0, "rental_uris": {"ios": "https://dc.lft.to/lastmile_qr_scan", "android": "https://dc.lft.to/lastmile_qr_scan"}, "is_disabled": 0, "lon": -76.98562866666667, "name": "3c7311c475d15c7c68de4d3afe3ee980", "fusion_lon": 0.0}, {"lat": 38.90469566666667, "fusion_lat": 0.0, "type": "electric_scooter", "bike_id": "0fae1c7e276f29bdd57baae004813794", "is_reserved": 0, "rental_uris": {"ios": "https://dc.lft.to/lastmile_qr_scan", "android": "https://dc.lft.to/lastmile_qr_scan"}, "is_disabled": 0, "lon": -77.05346116666666, "name": "0fae1c7e276f29bdd57baae004813794", "fusion_lon": 0.0}, {"lat": 38.912652, "fusion_lat": 0.0, "type": "electric_scooter", "bike_id": "e9a90f477a7624f0a35fba4f5dda6155", "is_reserved": 0, "rental_uris": {"ios": "https://dc.lft.to/lastmile_qr_scan", "android": "https://dc.lft.to/lastmile_qr_scan"}, "is_disabled": 0, "lon": -77.02517766666666, "name": "e9a90f477a7624f0a35fba4f5dda6155", "fusion_lon": 0.0}, {"lat": 38.931869666666664, "fusion_lat": 0.0, "type": "electric_scooter", "bike_id": "838bbf30ab00cbb637ef08f94c7b5ce2", "is_reserved": 0, "rental_uris": {"ios": "https://dc.lft.to/lastmile_qr_scan", "android": "https://dc.lft.to/lastmile_qr_scan"}, "is_disabled": 0, "lon": -77.03879516666667, "name": "838bbf30ab00cbb637ef08f94c7b5ce2", "fusion_lon": 0.0}, {"lat": 38.90279983333333, "fusion_lat": 0.0, "type": "electric_scooter", "bike_id": "f672bd0b114beb2f89b5429c67101a8a", "is_reserved": 0, "rental_uris": {"ios": "https://dc.lft.to/lastmile_qr_scan", "android": "https://dc.lft.to/lastmile_qr_scan"}, "is_disabled": 0, "lon": -77.03932033333334, "name": "f672bd0b114beb2f89b5429c67101a8a", "fusion_lon": 0.0}, {"lat": 38.86376166666667, "fusion_lat": 0.0, "type": "electric_scooter", "bike_id": "3c7a29daa29b74c3c683fcda4bfc9a3c", "is_reserved": 0, "rental_uris": {"ios": "https://dc.lft.to/lastmile_qr_scan", "android": "https://dc.lft.to/lastmile_qr_scan"}, "is_disabled": 0, "lon": -76.99062916666666, "name": "3c7a29daa29b74c3c683fcda4bfc9a3c", "fusion_lon": 0.0}, {"lat": 38.88374066666667, "fusion_lat": 0.0, "type": "electric_scooter", "bike_id": "fc5abd64fb552cf748b7e114a070a6bb", "is_reserved": 0, "rental_uris": {"ios": "https://dc.lft.to/lastmile_qr_scan", "android": "https://dc.lft.to/lastmile_qr_scan"}, "is_disabled": 0, "lon": -76.99520683333333, "name": "fc5abd64fb552cf748b7e114a070a6bb", "fusion_lon": 0.0}, {"lat": 38.91316333333333, "fusion_lat": 0.0, "type": "electric_bike", "bike_id": "ab1096a50c69663c8710f5d8e26ab76f", "is_reserved": 0, "rental_uris": {"ios": "https://dc.lft.to/lastmile_qr_scan", "android": "https://dc.lft.to/lastmile_qr_scan"}, "is_disabled": 0, "lon": -77.223126, "name": "ab1096a50c69663c8710f5d8e26ab76f", "fusion_lon": 0.0}, {"lat": 38.89200183333333, "fusion_lat": 0.0, "type": "electric_scooter", "bike_id": "bce33c730387bc4e70f60424fbe0ade5", "is_reserved": 0, "rental_uris": {"ios": "https://dc.lft.to/lastmile_qr_scan", "android": "https://dc.lft.to/lastmile_qr_scan"}, "is_disabled": 0, "lon": -77.00297516666667, "name": "bce33c730387bc4e70f60424fbe0ade5", "fusion_lon": 0.0}, {"lat": 38.903082833333336, "fusion_lat": 0.0, "type": "electric_scooter", "bike_id": "60c6aab85d216e2b6f203f9f1ef75849", "is_reserved": 0, "rental_uris": {"ios": "https://dc.lft.to/lastmile_qr_scan", "android": "https://dc.lft.to/lastmile_qr_scan"}, "is_disabled": 0, "lon": -76.99078116666666, "name": "60c6aab85d216e2b6f203f9f1ef75849", "fusion_lon": 0.0}, {"lat": 38.906708, "fusion_lat": 0.0, "type": "electric_scooter", "bike_id": "38f53a0c44868336c940e4759b749673", "is_reserved": 0, "rental_uris": {"ios": "https://dc.lft.to/lastmile_qr_scan", "android": "https://dc.lft.to/lastmile_qr_scan"}, "is_disabled": 0, "lon": -77.07186116666666, "name": "38f53a0c44868336c940e4759b749673", "fusion_lon": 0.0}, {"lat": 38.951805666666665, "fusion_lat": 0.0, "type": "electric_scooter", "bike_id": "e243930b3be7e9300764d0da8ec985aa", "is_reserved": 0, "rental_uris": {"ios": "https://dc.lft.to/lastmile_qr_scan", "android": "https://dc.lft.to/lastmile_qr_scan"}, "is_disabled": 0, "lon": -77.02729333333333, "name": "e243930b3be7e9300764d0da8ec985aa", "fusion_lon": 0.0}, {"lat": 38.9003785, "fusion_lat": 0.0, "type": "electric_scooter", "bike_id": "621a336532a58b026589d55de5660cf3", "is_reserved": 0, "rental_uris": {"ios": "https://dc.lft.to/lastmile_qr_scan", "android": "https://dc.lft.to/lastmile_qr_scan"}, "is_disabled": 0, "lon": -77.03533683333333, "name": "621a336532a58b026589d55de5660cf3", "fusion_lon": 0.0}, {"lat": 38.92605866666667, "fusion_lat": 0.0, "type": "electric_scooter", "bike_id": "e92b8b4ad3e8316bb8d311ed0b751adc", "is_reserved": 0, "rental_uris": {"ios": "https://dc.lft.to/lastmile_qr_scan", "android": "https://dc.lft.to/lastmile_qr_scan"}, "is_disabled": 0, "lon": -77.0663285, "name": "e92b8b4ad3e8316bb8d311ed0b751adc", "fusion_lon": 0.0}, {"lat": 38.90381566666667, "fusion_lat": 0.0, "type": "electric_scooter", "bike_id": "4ff94696d75d0d9d901c8a69b1a1d5be", "is_reserved": 0, "rental_uris": {"ios": "https://dc.lft.to/lastmile_qr_scan", "android": "https://dc.lft.to/lastmile_qr_scan"}, "is_disabled": 0, "lon": -77.0403785, "name": "4ff94696d75d0d9d901c8a69b1a1d5be", "fusion_lon": 0.0}, {"lat": 38.91191216666667, "fusion_lat": 0.0, "type": "electric_scooter", "bike_id": "b3cc7165d018e5a48cdb7b14797e8833", "is_reserved": 0, "rental_uris": {"ios": "https://dc.lft.to/lastmile_qr_scan", "android": "https://dc.lft.to/lastmile_qr_scan"}, "is_disabled": 0, "lon": -77.01782116666666, "name": "b3cc7165d018e5a48cdb7b14797e8833", "fusion_lon": 0.0}, {"lat": 38.90168966666667, "fusion_lat": 0.0, "type": "electric_scooter", "bike_id": "c0d2f13f98d69c506687beb186a2b869", "is_reserved": 0, "rental_uris": {"ios": "https://dc.lft.to/lastmile_qr_scan", "android": "https://dc.lft.to/lastmile_qr_scan"}, "is_disabled": 0, "lon": -77.02461616666666, "name": "c0d2f13f98d69c506687beb186a2b869", "fusion_lon": 0.0}, {"lat": 38.90021933333333, "fusion_lat": 0.0, "type": "electric_scooter", "bike_id": "b886a37696260eaa807e232cb994b094", "is_reserved": 0, "rental_uris": {"ios": "https://dc.lft.to/lastmile_qr_scan", "android": "https://dc.lft.to/lastmile_qr_scan"}, "is_disabled": 0, "lon": -76.98046533333333, "name": "b886a37696260eaa807e232cb994b094", "fusion_lon": 0.0}, {"lat": 38.957583666666665, "fusion_lat": 0.0, "type": "electric_scooter", "bike_id": "38d422df46165a56dd4f51e0ad54446e", "is_reserved": 0, "rental_uris": {"ios": "https://dc.lft.to/lastmile_qr_scan", "android": "https://dc.lft.to/lastmile_qr_scan"}, "is_disabled": 0, "lon": -77.02100433333334, "name": "38d422df46165a56dd4f51e0ad54446e", "fusion_lon": 0.0}, {"lat": 38.922732833333335, "fusion_lat": 0.0, "type": "electric_bike", "bike_id": "4623f2cd7a981c58c0cb1b5f3e0dc608", "is_reserved": 0, "rental_uris": {"ios": "https://dc.lft.to/lastmile_qr_scan", "android": "https://dc.lft.to/lastmile_qr_scan"}, "is_disabled": 0, "lon": -77.02242816666667, "name": "4623f2cd7a981c58c0cb1b5f3e0dc608", "fusion_lon": 0.0}, {"lat": 38.8345325, "fusion_lat": 0.0, "type": "electric_scooter", "bike_id": "f59a7bc45a298048cb4704a139682cdc", "is_reserved": 0, "rental_uris": {"ios": "https://dc.lft.to/lastmile_qr_scan", "android": "https://dc.lft.to/lastmile_qr_scan"}, "is_disabled": 0, "lon": -76.990829, "name": "f59a7bc45a298048cb4704a139682cdc", "fusion_lon": 0.0}, {"lat": 38.900239666666664, "fusion_lat": 0.0, "type": "electric_scooter", "bike_id": "1aa019cc80bdf9cae3a1fd954fb43909", "is_reserved": 0, "rental_uris": {"ios": "https://dc.lft.to/lastmile_qr_scan", "android": "https://dc.lft.to/lastmile_qr_scan"}, "is_disabled": 0, "lon": -77.01771516666666, "name": "1aa019cc80bdf9cae3a1fd954fb43909", "fusion_lon": 0.0}, {"lat": 38.90438433333333, "fusion_lat": 0.0, "type": "electric_scooter", "bike_id": "1911d1459e1b70605d9733dc99bbf0cd", "is_reserved": 0, "rental_uris": {"ios": "https://dc.lft.to/lastmile_qr_scan", "android": "https://dc.lft.to/lastmile_qr_scan"}, "is_disabled": 0, "lon": -76.98489066666667, "name": "1911d1459e1b70605d9733dc99bbf0cd", "fusion_lon": 0.0}, {"lat": 38.922124833333335, "fusion_lat": 0.0, "type": "electric_scooter", "bike_id": "6b60df4fbdfa2ba75594cd394f52739e", "is_reserved": 0, "rental_uris": {"ios": "https://dc.lft.to/lastmile_qr_scan", "android": "https://dc.lft.to/lastmile_qr_scan"}, "is_disabled": 0, "lon": -76.9873655, "name": "6b60df4fbdfa2ba75594cd394f52739e", "fusion_lon": 0.0}, {"lat": 38.8922155, "fusion_lat": 0.0, "type": "electric_scooter", "bike_id": "ae51a810701066d2d7e9418e9d21f088", "is_reserved": 0, "rental_uris": {"ios": "https://dc.lft.to/lastmile_qr_scan", "android": "https://dc.lft.to/lastmile_qr_scan"}, "is_disabled": 0, "lon": -77.0486235, "name": "ae51a810701066d2d7e9418e9d21f088", "fusion_lon": 0.0}, {"lat": 38.909879, "fusion_lat": 0.0, "type": "electric_scooter", "bike_id": "e36464a34b3a1254bad8223813b45a14", "is_reserved": 0, "rental_uris": {"ios": "https://dc.lft.to/lastmile_qr_scan", "android": "https://dc.lft.to/lastmile_qr_scan"}, "is_disabled": 0, "lon": -77.038357, "name": "e36464a34b3a1254bad8223813b45a14", "fusion_lon": 0.0}, {"lat": 38.92256966666667, "fusion_lat": 0.0, "type": "electric_scooter", "bike_id": "67c6b0acf9dad1a967e806afa84b1d6c", "is_reserved": 0, "rental_uris": {"ios": "https://dc.lft.to/lastmile_qr_scan", "android": "https://dc.lft.to/lastmile_qr_scan"}, "is_disabled": 0, "lon": -77.02422416666667, "name": "67c6b0acf9dad1a967e806afa84b1d6c", "fusion_lon": 0.0}, {"lat": 38.894695666666664, "fusion_lat": 0.0, "type": "electric_scooter", "bike_id": "89497c0d3dc93a0eca99f3f8a9d5eea6", "is_reserved": 0, "rental_uris": {"ios": "https://dc.lft.to/lastmile_qr_scan", "android": "https://dc.lft.to/lastmile_qr_scan"}, "is_disabled": 0, "lon": -77.02256633333333, "name": "89497c0d3dc93a0eca99f3f8a9d5eea6", "fusion_lon": 0.0}, {"lat": 38.87010133333333, "fusion_lat": 0.0, "type": "electric_scooter", "bike_id": "09aa6162a4a1451af210f9914582b3b2", "is_reserved": 0, "rental_uris": {"ios": "https://dc.lft.to/lastmile_qr_scan", "android": "https://dc.lft.to/lastmile_qr_scan"}, "is_disabled": 0, "lon": -76.980859, "name": "09aa6162a4a1451af210f9914582b3b2", "fusion_lon": 0.0}, {"lat": 38.90724316666667, "fusion_lat": 0.0, "type": "electric_scooter", "bike_id": "4bd5933cc48de92036fd9affdc5805a0", "is_reserved": 0, "rental_uris": {"ios": "https://dc.lft.to/lastmile_qr_scan", "android": "https://dc.lft.to/lastmile_qr_scan"}, "is_disabled": 0, "lon": -77.01464516666667, "name": "4bd5933cc48de92036fd9affdc5805a0", "fusion_lon": 0.0}, {"lat": 38.87659016666667, "fusion_lat": 0.0, "type": "electric_scooter", "bike_id": "3f9004b7ed5436afc6cf7fe2df281159", "is_reserved": 0, "rental_uris": {"ios": "https://dc.lft.to/lastmile_qr_scan", "android": "https://dc.lft.to/lastmile_qr_scan"}, "is_disabled": 0, "lon": -77.00315216666667, "name": "3f9004b7ed5436afc6cf7fe2df281159", "fusion_lon": 0.0}, {"lat": 38.90830883333334, "fusion_lat": 0.0, "type": "electric_scooter", "bike_id": "6c161c4f4c35655c5385373bf908fa5e", "is_reserved": 0, "rental_uris": {"ios": "https://dc.lft.to/lastmile_qr_scan", "android": "https://dc.lft.to/lastmile_qr_scan"}, "is_disabled": 0, "lon": -77.0432765, "name": "6c161c4f4c35655c5385373bf908fa5e", "fusion_lon": 0.0}, {"lat": 38.88132133333333, "fusion_lat": 0.0, "type": "electric_scooter", "bike_id": "83e7ef5c54be06f8d05252230f791a3e", "is_reserved": 0, "rental_uris": {"ios": "https://dc.lft.to/lastmile_qr_scan", "android": "https://dc.lft.to/lastmile_qr_scan"}, "is_disabled": 0, "lon": -77.013356, "name": "83e7ef5c54be06f8d05252230f791a3e", "fusion_lon": 0.0}, {"lat": 38.87468916666667, "fusion_lat": 0.0, "type": "electric_scooter", "bike_id": "7d29b814301492bbc2add038a0541338", "is_reserved": 0, "rental_uris": {"ios": "https://dc.lft.to/lastmile_qr_scan", "android": "https://dc.lft.to/lastmile_qr_scan"}, "is_disabled": 0, "lon": -77.00090383333334, "name": "7d29b814301492bbc2add038a0541338", "fusion_lon": 0.0}, {"lat": 38.91413633333333, "fusion_lat": 0.0, "type": "electric_scooter", "bike_id": "3ff329cfc40e7fe8f7e8eca49acb90da", "is_reserved": 0, "rental_uris": {"ios": "https://dc.lft.to/lastmile_qr_scan", "android": "https://dc.lft.to/lastmile_qr_scan"}, "is_disabled": 0, "lon": -77.02228783333334, "name": "3ff329cfc40e7fe8f7e8eca49acb90da", "fusion_lon": 0.0}, {"lat": 38.913187666666666, "fusion_lat": 0.0, "type": "electric_scooter", "bike_id": "dc6998884a66cb9f6cbcfe5dfac9c6e6", "is_reserved": 0, "rental_uris": {"ios": "https://dc.lft.to/lastmile_qr_scan", "android": "https://dc.lft.to/lastmile_qr_scan"}, "is_disabled": 0, "lon": -76.984997, "name": "dc6998884a66cb9f6cbcfe5dfac9c6e6", "fusion_lon": 0.0}, {"lat": 38.918377666666665, "fusion_lat": 0.0, "type": "electric_scooter", "bike_id": "54cfb7315d141848b7b608290d8b249a", "is_reserved": 0, "rental_uris": {"ios": "https://dc.lft.to/lastmile_qr_scan", "android": "https://dc.lft.to/lastmile_qr_scan"}, "is_disabled": 0, "lon": -77.0452655, "name": "54cfb7315d141848b7b608290d8b249a", "fusion_lon": 0.0}, {"lat": 38.92883916666667, "fusion_lat": 0.0, "type": "electric_scooter", "bike_id": "aaf2655734b83ca5c159fa3a55bc50c8", "is_reserved": 0, "rental_uris": {"ios": "https://dc.lft.to/lastmile_qr_scan", "android": "https://dc.lft.to/lastmile_qr_scan"}, "is_disabled": 0, "lon": -77.03730466666667, "name": "aaf2655734b83ca5c159fa3a55bc50c8", "fusion_lon": 0.0}, {"lat": 38.88739283333334, "fusion_lat": 0.0, "type": "electric_scooter", "bike_id": "2b02edb2674172418b21314a472df679", "is_reserved": 0, "rental_uris": {"ios": "https://dc.lft.to/lastmile_qr_scan", "android": "https://dc.lft.to/lastmile_qr_scan"}, "is_disabled": 0, "lon": -77.01534933333333, "name": "2b02edb2674172418b21314a472df679", "fusion_lon": 0.0}, {"lat": 38.91564433333333, "fusion_lat": 0.0, "type": "electric_scooter", "bike_id": "39dda46964e81325a4d16da6fcd6aecf", "is_reserved": 0, "rental_uris": {"ios": "https://dc.lft.to/lastmile_qr_scan", "android": "https://dc.lft.to/lastmile_qr_scan"}, "is_disabled": 0, "lon": -77.03170783333333, "name": "39dda46964e81325a4d16da6fcd6aecf", "fusion_lon": 0.0}, {"lat": 38.9245625, "fusion_lat": 0.0, "type": "electric_bike", "bike_id": "8111956dd93baec2ebfa4a1f1b818d20", "is_reserved": 0, "rental_uris": {"ios": "https://dc.lft.to/lastmile_qr_scan", "android": "https://dc.lft.to/lastmile_qr_scan"}, "is_disabled": 0, "lon": -77.225732, "name": "8111956dd93baec2ebfa4a1f1b818d20", "fusion_lon": 0.0}, {"lat": 38.90079216666667, "fusion_lat": 0.0, "type": "electric_scooter", "bike_id": "abfa4b4f5206311841203aea1298be8b", "is_reserved": 0, "rental_uris": {"ios": "https://dc.lft.to/lastmile_qr_scan", "android": "https://dc.lft.to/lastmile_qr_scan"}, "is_disabled": 0, "lon": -77.03080933333334, "name": "abfa4b4f5206311841203aea1298be8b", "fusion_lon": 0.0}, {"lat": 38.957312, "fusion_lat": 0.0, "type": "electric_scooter", "bike_id": "caee0ee81f23422f26f06fe6b8d4807e", "is_reserved": 0, "rental_uris": {"ios": "https://dc.lft.to/lastmile_qr_scan", "android": "https://dc.lft.to/lastmile_qr_scan"}, "is_disabled": 0, "lon": -77.0240365, "name": "caee0ee81f23422f26f06fe6b8d4807e", "fusion_lon": 0.0}, {"lat": 38.91646083333333, "fusion_lat": 0.0, "type": "electric_scooter", "bike_id": "7d8b9a17e7c9710a000b2d635633f14d", "is_reserved": 0, "rental_uris": {"ios": "https://dc.lft.to/lastmile_qr_scan", "android": "https://dc.lft.to/lastmile_qr_scan"}, "is_disabled": 0, "lon": -77.02243433333334, "name": "7d8b9a17e7c9710a000b2d635633f14d", "fusion_lon": 0.0}, {"lat": 38.95152, "fusion_lat": 0.0, "type": "electric_scooter", "bike_id": "663512bd8b560df04c102cb0a2d3360e", "is_reserved": 0, "rental_uris": {"ios": "https://dc.lft.to/lastmile_qr_scan", "android": "https://dc.lft.to/lastmile_qr_scan"}, "is_disabled": 0, "lon": -77.01869383333333, "name": "663512bd8b560df04c102cb0a2d3360e", "fusion_lon": 0.0}, {"lat": 38.91707516666666, "fusion_lat": 0.0, "type": "electric_scooter", "bike_id": "ed60df319250f57c6d00ee16a95148f0", "is_reserved": 0, "rental_uris": {"ios": "https://dc.lft.to/lastmile_qr_scan", "android": "https://dc.lft.to/lastmile_qr_scan"}, "is_disabled": 0, "lon": -77.0958015, "name": "ed60df319250f57c6d00ee16a95148f0", "fusion_lon": 0.0}, {"lat": 38.89839333333333, "fusion_lat": 0.0, "type": "electric_scooter", "bike_id": "fcfa1dea8f50ce463fbf3c11385b2656", "is_reserved": 0, "rental_uris": {"ios": "https://dc.lft.to/lastmile_qr_scan", "android": "https://dc.lft.to/lastmile_qr_scan"}, "is_disabled": 0, "lon": -77.02598266666666, "name": "fcfa1dea8f50ce463fbf3c11385b2656", "fusion_lon": 0.0}, {"lat": 38.91785483333334, "fusion_lat": 0.0, "type": "electric_scooter", "bike_id": "62d29f381a2c8fd074fb076ff5c6c0b5", "is_reserved": 0, "rental_uris": {"ios": "https://dc.lft.to/lastmile_qr_scan", "android": "https://dc.lft.to/lastmile_qr_scan"}, "is_disabled": 0, "lon": -77.0421535, "name": "62d29f381a2c8fd074fb076ff5c6c0b5", "fusion_lon": 0.0}, {"lat": 38.904127333333335, "fusion_lat": 0.0, "type": "electric_scooter", "bike_id": "afee8e22487a68511a7906c2c51ad5f2", "is_reserved": 0, "rental_uris": {"ios": "https://dc.lft.to/lastmile_qr_scan", "android": "https://dc.lft.to/lastmile_qr_scan"}, "is_disabled": 0, "lon": -77.04988566666667, "name": "afee8e22487a68511a7906c2c51ad5f2", "fusion_lon": 0.0}, {"lat": 38.904093833333334, "fusion_lat": 0.0, "type": "electric_scooter", "bike_id": "4c9034d97bea8b4dda069481a42d3a58", "is_reserved": 0, "rental_uris": {"ios": "https://dc.lft.to/lastmile_qr_scan", "android": "https://dc.lft.to/lastmile_qr_scan"}, "is_disabled": 0, "lon": -76.97331816666667, "name": "4c9034d97bea8b4dda069481a42d3a58", "fusion_lon": 0.0}, {"lat": 38.900771166666665, "fusion_lat": 0.0, "type": "electric_scooter", "bike_id": "14d0e47c31d323a39271a1258393812a", "is_reserved": 0, "rental_uris": {"ios": "https://dc.lft.to/lastmile_qr_scan", "android": "https://dc.lft.to/lastmile_qr_scan"}, "is_disabled": 0, "lon": -77.049881, "name": "14d0e47c31d323a39271a1258393812a", "fusion_lon": 0.0}, {"lat": 38.90663716666667, "fusion_lat": 0.0, "type": "electric_scooter", "bike_id": "670bc9d6cc4f53eb120560410f94cd8a", "is_reserved": 0, "rental_uris": {"ios": "https://dc.lft.to/lastmile_qr_scan", "android": "https://dc.lft.to/lastmile_qr_scan"}, "is_disabled": 0, "lon": -77.038656, "name": "670bc9d6cc4f53eb120560410f94cd8a", "fusion_lon": 0.0}, {"lat": 38.892209333333334, "fusion_lat": 0.0, "type": "electric_scooter", "bike_id": "96f0730c559780c9a372133744575763", "is_reserved": 0, "rental_uris": {"ios": "https://dc.lft.to/lastmile_qr_scan", "android": "https://dc.lft.to/lastmile_qr_scan"}, "is_disabled": 0, "lon": -77.04864883333333, "name": "96f0730c559780c9a372133744575763", "fusion_lon": 0.0}, {"lat": 38.9189135, "fusion_lat": 0.0, "type": "electric_scooter", "bike_id": "ee945a04c6bc97d7d4684fafa273270c", "is_reserved": 0, "rental_uris": {"ios": "https://dc.lft.to/lastmile_qr_scan", "android": "https://dc.lft.to/lastmile_qr_scan"}, "is_disabled": 0, "lon": -77.02304233333334, "name": "ee945a04c6bc97d7d4684fafa273270c", "fusion_lon": 0.0}, {"lat": 38.913026333333335, "fusion_lat": 0.0, "type": "electric_scooter", "bike_id": "4d27f781e3d6c7bfcc8dc6b6aa021a1d", "is_reserved": 0, "rental_uris": {"ios": "https://dc.lft.to/lastmile_qr_scan", "android": "https://dc.lft.to/lastmile_qr_scan"}, "is_disabled": 0, "lon": -77.06673383333333, "name": "4d27f781e3d6c7bfcc8dc6b6aa021a1d", "fusion_lon": 0.0}, {"lat": 38.921719833333334, "fusion_lat": 0.0, "type": "electric_scooter", "bike_id": "6b8d32c6a0d521f1d0836d122b1fb94a", "is_reserved": 0, "rental_uris": {"ios": "https://dc.lft.to/lastmile_qr_scan", "android": "https://dc.lft.to/lastmile_qr_scan"}, "is_disabled": 0, "lon": -77.01914833333333, "name": "6b8d32c6a0d521f1d0836d122b1fb94a", "fusion_lon": 0.0}, {"lat": 38.900613, "fusion_lat": 0.0, "type": "electric_scooter", "bike_id": "c912b1fa02279a41ff95d7bc8f38618b", "is_reserved": 0, "rental_uris": {"ios": "https://dc.lft.to/lastmile_qr_scan", "android": "https://dc.lft.to/lastmile_qr_scan"}, "is_disabled": 0, "lon": -76.98708816666667, "name": "c912b1fa02279a41ff95d7bc8f38618b", "fusion_lon": 0.0}, {"lat": 38.9025065, "fusion_lat": 0.0, "type": "electric_scooter", "bike_id": "0250e0b9f7d86d5ee6311d0ec5ae8f4c", "is_reserved": 0, "rental_uris": {"ios": "https://dc.lft.to/lastmile_qr_scan", "android": "https://dc.lft.to/lastmile_qr_scan"}, "is_disabled": 0, "lon": -77.04339016666667, "name": "0250e0b9f7d86d5ee6311d0ec5ae8f4c", "fusion_lon": 0.0}, {"lat": 38.88209233333333, "fusion_lat": 0.0, "type": "electric_bike", "bike_id": "9cc404ad2e41de29c6efc4e6e8907bc2", "is_reserved": 0, "rental_uris": {"ios": "https://dc.lft.to/lastmile_qr_scan", "android": "https://dc.lft.to/lastmile_qr_scan"}, "is_disabled": 0, "lon": -77.117368, "name": "9cc404ad2e41de29c6efc4e6e8907bc2", "fusion_lon": 0.0}, {"lat": 38.922335, "fusion_lat": 0.0, "type": "electric_scooter", "bike_id": "9ec3d0777c8920b223b6f52a5e7c92b6", "is_reserved": 0, "rental_uris": {"ios": "https://dc.lft.to/lastmile_qr_scan", "android": "https://dc.lft.to/lastmile_qr_scan"}, "is_disabled": 0, "lon": -77.0335315, "name": "9ec3d0777c8920b223b6f52a5e7c92b6", "fusion_lon": 0.0}, {"lat": 38.86695733333333, "fusion_lat": 0.0, "type": "electric_scooter", "bike_id": "a5b7801142fbd29b6053ee1a2c1dcf4a", "is_reserved": 0, "rental_uris": {"ios": "https://dc.lft.to/lastmile_qr_scan", "android": "https://dc.lft.to/lastmile_qr_scan"}, "is_disabled": 0, "lon": -76.98578116666667, "name": "a5b7801142fbd29b6053ee1a2c1dcf4a", "fusion_lon": 0.0}, {"lat": 38.926195666666665, "fusion_lat": 0.0, "type": "electric_scooter", "bike_id": "29613866e2c83b49ca03a54dfd030f03", "is_reserved": 0, "rental_uris": {"ios": "https://dc.lft.to/lastmile_qr_scan", "android": "https://dc.lft.to/lastmile_qr_scan"}, "is_disabled": 0, "lon": -77.04320283333334, "name": "29613866e2c83b49ca03a54dfd030f03", "fusion_lon": 0.0}, {"lat": 38.99534366666666, "fusion_lat": 0.0, "type": "electric_bike", "bike_id": "1f0be9c2d5cdc2566b22a4ee9c13003a", "is_reserved": 0, "rental_uris": {"ios": "https://dc.lft.to/lastmile_qr_scan", "android": "https://dc.lft.to/lastmile_qr_scan"}, "is_disabled": 0, "lon": -77.06945733333333, "name": "1f0be9c2d5cdc2566b22a4ee9c13003a", "fusion_lon": 0.0}, {"lat": 38.895039833333335, "fusion_lat": 0.0, "type": "electric_scooter", "bike_id": "cd397be9dcf0cc9c284a0045612761e8", "is_reserved": 0, "rental_uris": {"ios": "https://dc.lft.to/lastmile_qr_scan", "android": "https://dc.lft.to/lastmile_qr_scan"}, "is_disabled": 0, "lon": -76.93476516666666, "name": "cd397be9dcf0cc9c284a0045612761e8", "fusion_lon": 0.0}, {"lat": 38.911079666666666, "fusion_lat": 0.0, "type": "electric_scooter", "bike_id": "8c1fe0e070f7434fcf5c2b33448c3d72", "is_reserved": 0, "rental_uris": {"ios": "https://dc.lft.to/lastmile_qr_scan", "android": "https://dc.lft.to/lastmile_qr_scan"}, "is_disabled": 0, "lon": -77.03824666666667, "name": "8c1fe0e070f7434fcf5c2b33448c3d72", "fusion_lon": 0.0}, {"lat": 38.919058166666666, "fusion_lat": 0.0, "type": "electric_bike", "bike_id": "635157f4a9e377e1887cb927d5779dbb", "is_reserved": 0, "rental_uris": {"ios": "https://dc.lft.to/lastmile_qr_scan", "android": "https://dc.lft.to/lastmile_qr_scan"}, "is_disabled": 0, "lon": -77.02005633333333, "name": "635157f4a9e377e1887cb927d5779dbb", "fusion_lon": 0.0}, {"lat": 38.905701, "fusion_lat": 0.0, "type": "electric_scooter", "bike_id": "d4610b791d7e51fb9d9f562ffe9613f4", "is_reserved": 0, "rental_uris": {"ios": "https://dc.lft.to/lastmile_qr_scan", "android": "https://dc.lft.to/lastmile_qr_scan"}, "is_disabled": 0, "lon": -77.03430766666666, "name": "d4610b791d7e51fb9d9f562ffe9613f4", "fusion_lon": 0.0}, {"lat": 38.90583266666667, "fusion_lat": 0.0, "type": "electric_scooter", "bike_id": "29050972e69e5df34aa22ba09d8eed51", "is_reserved": 0, "rental_uris": {"ios": "https://dc.lft.to/lastmile_qr_scan", "android": "https://dc.lft.to/lastmile_qr_scan"}, "is_disabled": 0, "lon": -77.070183, "name": "29050972e69e5df34aa22ba09d8eed51", "fusion_lon": 0.0}, {"lat": 39.05790183333333, "fusion_lat": 0.0, "type": "electric_bike", "bike_id": "67a652e2dc5b4ebc70d20e8fc9b67cf1", "is_reserved": 0, "rental_uris": {"ios": "https://dc.lft.to/lastmile_qr_scan", "android": "https://dc.lft.to/lastmile_qr_scan"}, "is_disabled": 0, "lon": -77.15022233333333, "name": "67a652e2dc5b4ebc70d20e8fc9b67cf1", "fusion_lon": 0.0}, {"lat": 38.846189833333334, "fusion_lat": 0.0, "type": "electric_scooter", "bike_id": "2dfdbf47f14b86ab429d9e4c91bb9b98", "is_reserved": 0, "rental_uris": {"ios": "https://dc.lft.to/lastmile_qr_scan", "android": "https://dc.lft.to/lastmile_qr_scan"}, "is_disabled": 0, "lon": -76.98140533333333, "name": "2dfdbf47f14b86ab429d9e4c91bb9b98", "fusion_lon": 0.0}, {"lat": 38.92672833333334, "fusion_lat": 0.0, "type": "electric_scooter", "bike_id": "e086666b810b2d7aff9dcaff8a823296", "is_reserved": 0, "rental_uris": {"ios": "https://dc.lft.to/lastmile_qr_scan", "android": "https://dc.lft.to/lastmile_qr_scan"}, "is_disabled": 0, "lon": -77.01511766666667, "name": "e086666b810b2d7aff9dcaff8a823296", "fusion_lon": 0.0}, {"lat": 38.85685566666667, "fusion_lat": 0.0, "type": "electric_scooter", "bike_id": "5f068d33ba313f4741935bec930c81eb", "is_reserved": 0, "rental_uris": {"ios": "https://dc.lft.to/lastmile_qr_scan", "android": "https://dc.lft.to/lastmile_qr_scan"}, "is_disabled": 0, "lon": -76.98977566666667, "name": "5f068d33ba313f4741935bec930c81eb", "fusion_lon": 0.0}, {"lat": 38.930083833333335, "fusion_lat": 0.0, "type": "electric_scooter", "bike_id": "856863e780b848dfd8ea4036cb53297b", "is_reserved": 0, "rental_uris": {"ios": "https://dc.lft.to/lastmile_qr_scan", "android": "https://dc.lft.to/lastmile_qr_scan"}, "is_disabled": 0, "lon": -77.01433066666667, "name": "856863e780b848dfd8ea4036cb53297b", "fusion_lon": 0.0}, {"lat": 38.900596166666666, "fusion_lat": 0.0, "type": "electric_scooter", "bike_id": "fd7aa8710a79cf7c42423b5ba7cb1221", "is_reserved": 0, "rental_uris": {"ios": "https://dc.lft.to/lastmile_qr_scan", "android": "https://dc.lft.to/lastmile_qr_scan"}, "is_disabled": 0, "lon": -76.93474033333334, "name": "fd7aa8710a79cf7c42423b5ba7cb1221", "fusion_lon": 0.0}, {"lat": 38.87470716666667, "fusion_lat": 0.0, "type": "electric_scooter", "bike_id": "b5b8626b2ef12cbe1ad1e339f02e4458", "is_reserved": 0, "rental_uris": {"ios": "https://dc.lft.to/lastmile_qr_scan", "android": "https://dc.lft.to/lastmile_qr_scan"}, "is_disabled": 0, "lon": -77.005571, "name": "b5b8626b2ef12cbe1ad1e339f02e4458", "fusion_lon": 0.0}, {"lat": 38.881151333333335, "fusion_lat": 0.0, "type": "electric_scooter", "bike_id": "49b0de95e1881c4ab483341c3d605c01", "is_reserved": 0, "rental_uris": {"ios": "https://dc.lft.to/lastmile_qr_scan", "android": "https://dc.lft.to/lastmile_qr_scan"}, "is_disabled": 0, "lon": -77.0164765, "name": "49b0de95e1881c4ab483341c3d605c01", "fusion_lon": 0.0}, {"lat": 38.916968833333335, "fusion_lat": 0.0, "type": "electric_scooter", "bike_id": "c41a8277290dfafc8a8ff037bbb14307", "is_reserved": 0, "rental_uris": {"ios": "https://dc.lft.to/lastmile_qr_scan", "android": "https://dc.lft.to/lastmile_qr_scan"}, "is_disabled": 0, "lon": -77.03779033333333, "name": "c41a8277290dfafc8a8ff037bbb14307", "fusion_lon": 0.0}, {"lat": 38.90747116666667, "fusion_lat": 0.0, "type": "electric_scooter", "bike_id": "a8d200292c948d62beafd05d1a131d3e", "is_reserved": 0, "rental_uris": {"ios": "https://dc.lft.to/lastmile_qr_scan", "android": "https://dc.lft.to/lastmile_qr_scan"}, "is_disabled": 0, "lon": -77.03184333333333, "name": "a8d200292c948d62beafd05d1a131d3e", "fusion_lon": 0.0}, {"lat": 38.9241835, "fusion_lat": 0.0, "type": "electric_scooter", "bike_id": "2b3ebfc32c741fee0d5bf7a198191502", "is_reserved": 0, "rental_uris": {"ios": "https://dc.lft.to/lastmile_qr_scan", "android": "https://dc.lft.to/lastmile_qr_scan"}, "is_disabled": 0, "lon": -77.05059616666666, "name": "2b3ebfc32c741fee0d5bf7a198191502", "fusion_lon": 0.0}, {"lat": 38.93194583333333, "fusion_lat": 0.0, "type": "electric_scooter", "bike_id": "9d61601a41ae70e5f50a719b032bcdc4", "is_reserved": 0, "rental_uris": {"ios": "https://dc.lft.to/lastmile_qr_scan", "android": "https://dc.lft.to/lastmile_qr_scan"}, "is_disabled": 0, "lon": -77.0453255, "name": "9d61601a41ae70e5f50a719b032bcdc4", "fusion_lon": 0.0}, {"lat": 38.897256666666664, "fusion_lat": 0.0, "type": "electric_scooter", "bike_id": "b9b54f65462a00794e40b94b62b3f620", "is_reserved": 0, "rental_uris": {"ios": "https://dc.lft.to/lastmile_qr_scan", "android": "https://dc.lft.to/lastmile_qr_scan"}, "is_disabled": 0, "lon": -76.9982505, "name": "b9b54f65462a00794e40b94b62b3f620", "fusion_lon": 0.0}, {"lat": 38.91415383333333, "fusion_lat": 0.0, "type": "electric_scooter", "bike_id": "193dfa877aa2f7497705886eef5cbdf8", "is_reserved": 0, "rental_uris": {"ios": "https://dc.lft.to/lastmile_qr_scan", "android": "https://dc.lft.to/lastmile_qr_scan"}, "is_disabled": 0, "lon": -77.04921066666667, "name": "193dfa877aa2f7497705886eef5cbdf8", "fusion_lon": 0.0}, {"lat": 38.907027166666666, "fusion_lat": 0.0, "type": "electric_scooter", "bike_id": "508c4e1ae2b1134a74e19fb1bc9c505a", "is_reserved": 0, "rental_uris": {"ios": "https://dc.lft.to/lastmile_qr_scan", "android": "https://dc.lft.to/lastmile_qr_scan"}, "is_disabled": 0, "lon": -77.02944783333334, "name": "508c4e1ae2b1134a74e19fb1bc9c505a", "fusion_lon": 0.0}, {"lat": 38.874784, "fusion_lat": 0.0, "type": "electric_bike", "bike_id": "a0bd20fde52c03f62471c2d26d52df6d", "is_reserved": 0, "rental_uris": {"ios": "https://dc.lft.to/lastmile_qr_scan", "android": "https://dc.lft.to/lastmile_qr_scan"}, "is_disabled": 0, "lon": -76.96528033333334, "name": "a0bd20fde52c03f62471c2d26d52df6d", "fusion_lon": 0.0}, {"lat": 38.9286935, "fusion_lat": 0.0, "type": "electric_scooter", "bike_id": "00f371e17ac8e5bece95bd9a842530e5", "is_reserved": 0, "rental_uris": {"ios": "https://dc.lft.to/lastmile_qr_scan", "android": "https://dc.lft.to/lastmile_qr_scan"}, "is_disabled": 0, "lon": -77.03409433333333, "name": "00f371e17ac8e5bece95bd9a842530e5", "fusion_lon": 0.0}, {"lat": 38.901666, "fusion_lat": 0.0, "type": "electric_scooter", "bike_id": "bf1680194f3b45f99f1efebbc8de76af", "is_reserved": 0, "rental_uris": {"ios": "https://dc.lft.to/lastmile_qr_scan", "android": "https://dc.lft.to/lastmile_qr_scan"}, "is_disabled": 0, "lon": -76.9302265, "name": "bf1680194f3b45f99f1efebbc8de76af", "fusion_lon": 0.0}, {"lat": 38.897298666666664, "fusion_lat": 0.0, "type": "electric_scooter", "bike_id": "5e57db1a26377a3cc8023485de04f888", "is_reserved": 0, "rental_uris": {"ios": "https://dc.lft.to/lastmile_qr_scan", "android": "https://dc.lft.to/lastmile_qr_scan"}, "is_disabled": 0, "lon": -77.003716, "name": "5e57db1a26377a3cc8023485de04f888", "fusion_lon": 0.0}, {"lat": 38.907721333333335, "fusion_lat": 0.0, "type": "electric_scooter", "bike_id": "22f9b1a2713aa3f08541e5100a605e42", "is_reserved": 0, "rental_uris": {"ios": "https://dc.lft.to/lastmile_qr_scan", "android": "https://dc.lft.to/lastmile_qr_scan"}, "is_disabled": 0, "lon": -77.0121265, "name": "22f9b1a2713aa3f08541e5100a605e42", "fusion_lon": 0.0}, {"lat": 38.908698666666666, "fusion_lat": 0.0, "type": "electric_scooter", "bike_id": "c26641d6cd87d829829e0432d668bc03", "is_reserved": 0, "rental_uris": {"ios": "https://dc.lft.to/lastmile_qr_scan", "android": "https://dc.lft.to/lastmile_qr_scan"}, "is_disabled": 0, "lon": -77.07536733333333, "name": "c26641d6cd87d829829e0432d668bc03", "fusion_lon": 0.0}, {"lat": 38.898929833333334, "fusion_lat": 0.0, "type": "electric_scooter", "bike_id": "bd43de3be9dbf1ebc47fdeb59511fc3c", "is_reserved": 0, "rental_uris": {"ios": "https://dc.lft.to/lastmile_qr_scan", "android": "https://dc.lft.to/lastmile_qr_scan"}, "is_disabled": 0, "lon": -77.03950516666667, "name": "bd43de3be9dbf1ebc47fdeb59511fc3c", "fusion_lon": 0.0}, {"lat": 38.898997666666666, "fusion_lat": 0.0, "type": "electric_scooter", "bike_id": "eb4ce36e5edbaf7a542fbc2c67fa92a6", "is_reserved": 0, "rental_uris": {"ios": "https://dc.lft.to/lastmile_qr_scan", "android": "https://dc.lft.to/lastmile_qr_scan"}, "is_disabled": 0, "lon": -76.98373816666667, "name": "eb4ce36e5edbaf7a542fbc2c67fa92a6", "fusion_lon": 0.0}, {"lat": 38.903924, "fusion_lat": 0.0, "type": "electric_scooter", "bike_id": "62c274987d9d3b81a37ff8c91ce4f926", "is_reserved": 0, "rental_uris": {"ios": "https://dc.lft.to/lastmile_qr_scan", "android": "https://dc.lft.to/lastmile_qr_scan"}, "is_disabled": 0, "lon": -77.0332885, "name": "62c274987d9d3b81a37ff8c91ce4f926", "fusion_lon": 0.0}, {"lat": 38.92695333333333, "fusion_lat": 0.0, "type": "electric_scooter", "bike_id": "e7e70de66690b53a115f098db2872964", "is_reserved": 0, "rental_uris": {"ios": "https://dc.lft.to/lastmile_qr_scan", "android": "https://dc.lft.to/lastmile_qr_scan"}, "is_disabled": 0, "lon": -77.02132566666667, "name": "e7e70de66690b53a115f098db2872964", "fusion_lon": 0.0}, {"lat": 38.82939983333333, "fusion_lat": 0.0, "type": "electric_bike", "bike_id": "5aab0a7125bc69d352cc797c2d314710", "is_reserved": 0, "rental_uris": {"ios": "https://dc.lft.to/lastmile_qr_scan", "android": "https://dc.lft.to/lastmile_qr_scan"}, "is_disabled": 0, "lon": -77.1235215, "name": "5aab0a7125bc69d352cc797c2d314710", "fusion_lon": 0.0}, {"lat": 38.900259166666665, "fusion_lat": 0.0, "type": "electric_scooter", "bike_id": "99e9857a9fa7f1c2e641cf7a67c15de4", "is_reserved": 0, "rental_uris": {"ios": "https://dc.lft.to/lastmile_qr_scan", "android": "https://dc.lft.to/lastmile_qr_scan"}, "is_disabled": 0, "lon": -76.9986175, "name": "99e9857a9fa7f1c2e641cf7a67c15de4", "fusion_lon": 0.0}, {"lat": 38.859195166666666, "fusion_lat": 0.0, "type": "electric_scooter", "bike_id": "6bc6b68727d69e2198b86b410e50ec63", "is_reserved": 0, "rental_uris": {"ios": "https://dc.lft.to/lastmile_qr_scan", "android": "https://dc.lft.to/lastmile_qr_scan"}, "is_disabled": 0, "lon": -76.9897975, "name": "6bc6b68727d69e2198b86b410e50ec63", "fusion_lon": 0.0}, {"lat": 38.90585933333333, "fusion_lat": 0.0, "type": "electric_scooter", "bike_id": "fa837834856611f284f5aad22f345ef7", "is_reserved": 0, "rental_uris": {"ios": "https://dc.lft.to/lastmile_qr_scan", "android": "https://dc.lft.to/lastmile_qr_scan"}, "is_disabled": 0, "lon": -77.05135516666667, "name": "fa837834856611f284f5aad22f345ef7", "fusion_lon": 0.0}, {"lat": 38.921471833333335, "fusion_lat": 0.0, "type": "electric_scooter", "bike_id": "624cebd41fb4ed6dd466e3cf1971e27d", "is_reserved": 0, "rental_uris": {"ios": "https://dc.lft.to/lastmile_qr_scan", "android": "https://dc.lft.to/lastmile_qr_scan"}, "is_disabled": 0, "lon": -77.01814733333333, "name": "624cebd41fb4ed6dd466e3cf1971e27d", "fusion_lon": 0.0}, {"lat": 38.920457666666664, "fusion_lat": 0.0, "type": "electric_scooter", "bike_id": "c0009de60ac998d67a11506c6cb29427", "is_reserved": 0, "rental_uris": {"ios": "https://dc.lft.to/lastmile_qr_scan", "android": "https://dc.lft.to/lastmile_qr_scan"}, "is_disabled": 0, "lon": -76.98950266666667, "name": "c0009de60ac998d67a11506c6cb29427", "fusion_lon": 0.0}, {"lat": 38.9214935, "fusion_lat": 0.0, "type": "electric_scooter", "bike_id": "b5eb0ed1831d592f5918144f70232ed6", "is_reserved": 0, "rental_uris": {"ios": "https://dc.lft.to/lastmile_qr_scan", "android": "https://dc.lft.to/lastmile_qr_scan"}, "is_disabled": 0, "lon": -77.043383, "name": "b5eb0ed1831d592f5918144f70232ed6", "fusion_lon": 0.0}, {"lat": 38.897543, "fusion_lat": 0.0, "type": "electric_scooter", "bike_id": "a4c1cf1560f2d61b0cf2e7e4df978c3c", "is_reserved": 0, "rental_uris": {"ios": "https://dc.lft.to/lastmile_qr_scan", "android": "https://dc.lft.to/lastmile_qr_scan"}, "is_disabled": 0, "lon": -77.02991116666666, "name": "a4c1cf1560f2d61b0cf2e7e4df978c3c", "fusion_lon": 0.0}, {"lat": 38.936338, "fusion_lat": 0.0, "type": "electric_scooter", "bike_id": "98a08f6b1b9232c5e5776133134597f6", "is_reserved": 0, "rental_uris": {"ios": "https://dc.lft.to/lastmile_qr_scan", "android": "https://dc.lft.to/lastmile_qr_scan"}, "is_disabled": 0, "lon": -77.03663566666667, "name": "98a08f6b1b9232c5e5776133134597f6", "fusion_lon": 0.0}, {"lat": 38.89115433333333, "fusion_lat": 0.0, "type": "electric_scooter", "bike_id": "0095179b60b4586f0d99ceb88814a90f", "is_reserved": 0, "rental_uris": {"ios": "https://dc.lft.to/lastmile_qr_scan", "android": "https://dc.lft.to/lastmile_qr_scan"}, "is_disabled": 0, "lon": -76.99161283333333, "name": "0095179b60b4586f0d99ceb88814a90f", "fusion_lon": 0.0}, {"lat": 38.9228065, "fusion_lat": 0.0, "type": "electric_scooter", "bike_id": "5055d391eab107d0b47a65a072b31190", "is_reserved": 0, "rental_uris": {"ios": "https://dc.lft.to/lastmile_qr_scan", "android": "https://dc.lft.to/lastmile_qr_scan"}, "is_disabled": 0, "lon": -77.044637, "name": "5055d391eab107d0b47a65a072b31190", "fusion_lon": 0.0}, {"lat": 38.844278833333334, "fusion_lat": 0.0, "type": "electric_scooter", "bike_id": "aa447cd74dca7322ab9c28ca9439d3e1", "is_reserved": 0, "rental_uris": {"ios": "https://dc.lft.to/lastmile_qr_scan", "android": "https://dc.lft.to/lastmile_qr_scan"}, "is_disabled": 0, "lon": -76.99776466666667, "name": "aa447cd74dca7322ab9c28ca9439d3e1", "fusion_lon": 0.0}, {"lat": 38.91481866666667, "fusion_lat": 0.0, "type": "electric_scooter", "bike_id": "928856343395675de86a6c1a68e621c2", "is_reserved": 0, "rental_uris": {"ios": "https://dc.lft.to/lastmile_qr_scan", "android": "https://dc.lft.to/lastmile_qr_scan"}, "is_disabled": 0, "lon": -76.98394016666667, "name": "928856343395675de86a6c1a68e621c2", "fusion_lon": 0.0}, {"lat": 38.92259933333333, "fusion_lat": 0.0, "type": "electric_bike", "bike_id": "1958532c4af155884dcd92fef69bf4a9", "is_reserved": 0, "rental_uris": {"ios": "https://dc.lft.to/lastmile_qr_scan", "android": "https://dc.lft.to/lastmile_qr_scan"}, "is_disabled": 0, "lon": -77.0194935, "name": "1958532c4af155884dcd92fef69bf4a9", "fusion_lon": 0.0}, {"lat": 38.918888833333334, "fusion_lat": 0.0, "type": "electric_scooter", "bike_id": "7f0e2cb021fd655d9591172ef1e4a07d", "is_reserved": 0, "rental_uris": {"ios": "https://dc.lft.to/lastmile_qr_scan", "android": "https://dc.lft.to/lastmile_qr_scan"}, "is_disabled": 0, "lon": -77.04619, "name": "7f0e2cb021fd655d9591172ef1e4a07d", "fusion_lon": 0.0}, {"lat": 38.89992183333333, "fusion_lat": 0.0, "type": "electric_scooter", "bike_id": "4c47558a0c9dfd90b1bd077cf72699c7", "is_reserved": 0, "rental_uris": {"ios": "https://dc.lft.to/lastmile_qr_scan", "android": "https://dc.lft.to/lastmile_qr_scan"}, "is_disabled": 0, "lon": -77.01209616666667, "name": "4c47558a0c9dfd90b1bd077cf72699c7", "fusion_lon": 0.0}, {"lat": 38.929058, "fusion_lat": 0.0, "type": "electric_scooter", "bike_id": "185e3dcb05d3aac9726174388c6b7b0a", "is_reserved": 0, "rental_uris": {"ios": "https://dc.lft.to/lastmile_qr_scan", "android": "https://dc.lft.to/lastmile_qr_scan"}, "is_disabled": 0, "lon": -77.06266933333333, "name": "185e3dcb05d3aac9726174388c6b7b0a", "fusion_lon": 0.0}, {"lat": 38.915968166666666, "fusion_lat": 0.0, "type": "electric_scooter", "bike_id": "5a760ced2189960bf63ec2da10fd08a3", "is_reserved": 0, "rental_uris": {"ios": "https://dc.lft.to/lastmile_qr_scan", "android": "https://dc.lft.to/lastmile_qr_scan"}, "is_disabled": 0, "lon": -77.03195016666666, "name": "5a760ced2189960bf63ec2da10fd08a3", "fusion_lon": 0.0}, {"lat": 38.93691183333333, "fusion_lat": 0.0, "type": "electric_bike", "bike_id": "28e934de668311d113bd8296d002fbd8", "is_reserved": 0, "rental_uris": {"ios": "https://dc.lft.to/lastmile_qr_scan", "android": "https://dc.lft.to/lastmile_qr_scan"}, "is_disabled": 0, "lon": -76.99061133333333, "name": "28e934de668311d113bd8296d002fbd8", "fusion_lon": 0.0}, {"lat": 38.89695533333333, "fusion_lat": 0.0, "type": "electric_scooter", "bike_id": "e857ed86ce20493ec9d4becbefb6cdfd", "is_reserved": 0, "rental_uris": {"ios": "https://dc.lft.to/lastmile_qr_scan", "android": "https://dc.lft.to/lastmile_qr_scan"}, "is_disabled": 0, "lon": -77.04341516666666, "name": "e857ed86ce20493ec9d4becbefb6cdfd", "fusion_lon": 0.0}, {"lat": 38.89222633333333, "fusion_lat": 0.0, "type": "electric_scooter", "bike_id": "ec0bf2c3b5c3ad679f269bd5ddf6f339", "is_reserved": 0, "rental_uris": {"ios": "https://dc.lft.to/lastmile_qr_scan", "android": "https://dc.lft.to/lastmile_qr_scan"}, "is_disabled": 0, "lon": -77.04799983333334, "name": "ec0bf2c3b5c3ad679f269bd5ddf6f339", "fusion_lon": 0.0}, {"lat": 38.887439666666666, "fusion_lat": 0.0, "type": "electric_scooter", "bike_id": "2830e68fe4fdd9b92e2ad59d1e556720", "is_reserved": 0, "rental_uris": {"ios": "https://dc.lft.to/lastmile_qr_scan", "android": "https://dc.lft.to/lastmile_qr_scan"}, "is_disabled": 0, "lon": -77.02572633333334, "name": "2830e68fe4fdd9b92e2ad59d1e556720", "fusion_lon": 0.0}, {"lat": 38.896159833333336, "fusion_lat": 0.0, "type": "electric_scooter", "bike_id": "acd75c0cc65b17c5325755d89ce70b9c", "is_reserved": 0, "rental_uris": {"ios": "https://dc.lft.to/lastmile_qr_scan", "android": "https://dc.lft.to/lastmile_qr_scan"}, "is_disabled": 0, "lon": -77.04474466666667, "name": "acd75c0cc65b17c5325755d89ce70b9c", "fusion_lon": 0.0}, {"lat": 38.9203705, "fusion_lat": 0.0, "type": "electric_scooter", "bike_id": "8a8c00ae056ccb4f02b2ca9182f4bd51", "is_reserved": 0, "rental_uris": {"ios": "https://dc.lft.to/lastmile_qr_scan", "android": "https://dc.lft.to/lastmile_qr_scan"}, "is_disabled": 0, "lon": -77.02586633333334, "name": "8a8c00ae056ccb4f02b2ca9182f4bd51", "fusion_lon": 0.0}, {"lat": 38.91780633333333, "fusion_lat": 0.0, "type": "electric_scooter", "bike_id": "6da05cf4096c73abd9fafc4c08b93cc8", "is_reserved": 0, "rental_uris": {"ios": "https://dc.lft.to/lastmile_qr_scan", "android": "https://dc.lft.to/lastmile_qr_scan"}, "is_disabled": 0, "lon": -77.0231795, "name": "6da05cf4096c73abd9fafc4c08b93cc8", "fusion_lon": 0.0}, {"lat": 38.920748, "fusion_lat": 0.0, "type": "electric_scooter", "bike_id": "a946585ab28d819530df55617597cce6", "is_reserved": 0, "rental_uris": {"ios": "https://dc.lft.to/lastmile_qr_scan", "android": "https://dc.lft.to/lastmile_qr_scan"}, "is_disabled": 0, "lon": -77.02509716666667, "name": "a946585ab28d819530df55617597cce6", "fusion_lon": 0.0}, {"lat": 38.888119333333336, "fusion_lat": 0.0, "type": "electric_bike", "bike_id": "5e422820a0264d4eeba49889d9ee361e", "is_reserved": 0, "rental_uris": {"ios": "https://dc.lft.to/lastmile_qr_scan", "android": "https://dc.lft.to/lastmile_qr_scan"}, "is_disabled": 0, "lon": -77.12635833333333, "name": "5e422820a0264d4eeba49889d9ee361e", "fusion_lon": 0.0}, {"lat": 38.929658833333335, "fusion_lat": 0.0, "type": "electric_bike", "bike_id": "7d9714dd42cfe1f319d2ef1f0ed2389f", "is_reserved": 0, "rental_uris": {"ios": "https://dc.lft.to/lastmile_qr_scan", "android": "https://dc.lft.to/lastmile_qr_scan"}, "is_disabled": 0, "lon": -77.185655, "name": "7d9714dd42cfe1f319d2ef1f0ed2389f", "fusion_lon": 0.0}, {"lat": 38.94223366666667, "fusion_lat": 0.0, "type": "electric_bike", "bike_id": "11c6eeadb7f08f8d5612be338e1cd787", "is_reserved": 0, "rental_uris": {"ios": "https://dc.lft.to/lastmile_qr_scan", "android": "https://dc.lft.to/lastmile_qr_scan"}, "is_disabled": 0, "lon": -76.966176, "name": "11c6eeadb7f08f8d5612be338e1cd787", "fusion_lon": 0.0}, {"lat": 38.934049, "fusion_lat": 0.0, "type": "electric_scooter", "bike_id": "ca6f3f92c723fffb2fd1b9f11dabda21", "is_reserved": 0, "rental_uris": {"ios": "https://dc.lft.to/lastmile_qr_scan", "android": "https://dc.lft.to/lastmile_qr_scan"}, "is_disabled": 0, "lon": -77.03993983333334, "name": "ca6f3f92c723fffb2fd1b9f11dabda21", "fusion_lon": 0.0}, {"lat": 38.92455116666667, "fusion_lat": 0.0, "type": "electric_scooter", "bike_id": "d0495d5fbfbd1729339bbfdebc6a9748", "is_reserved": 0, "rental_uris": {"ios": "https://dc.lft.to/lastmile_qr_scan", "android": "https://dc.lft.to/lastmile_qr_scan"}, "is_disabled": 0, "lon": -77.07824883333333, "name": "d0495d5fbfbd1729339bbfdebc6a9748", "fusion_lon": 0.0}, {"lat": 39.0550285, "fusion_lat": 0.0, "type": "electric_bike", "bike_id": "040eabef0b452c493b5460d8e79d8bb4", "is_reserved": 0, "rental_uris": {"ios": "https://dc.lft.to/lastmile_qr_scan", "android": "https://dc.lft.to/lastmile_qr_scan"}, "is_disabled": 0, "lon": -77.046463, "name": "040eabef0b452c493b5460d8e79d8bb4", "fusion_lon": 0.0}, {"lat": 38.9027255, "fusion_lat": 0.0, "type": "electric_scooter", "bike_id": "edabfaa9c7a02b2b57a95f1cf8fb4450", "is_reserved": 0, "rental_uris": {"ios": "https://dc.lft.to/lastmile_qr_scan", "android": "https://dc.lft.to/lastmile_qr_scan"}, "is_disabled": 0, "lon": -77.05791066666667, "name": "edabfaa9c7a02b2b57a95f1cf8fb4450", "fusion_lon": 0.0}, {"lat": 38.9049365, "fusion_lat": 0.0, "type": "electric_scooter", "bike_id": "39fdc434d98d5ab6410eba734dd065c7", "is_reserved": 0, "rental_uris": {"ios": "https://dc.lft.to/lastmile_qr_scan", "android": "https://dc.lft.to/lastmile_qr_scan"}, "is_disabled": 0, "lon": -77.0199585, "name": "39fdc434d98d5ab6410eba734dd065c7", "fusion_lon": 0.0}, {"lat": 38.88606016666667, "fusion_lat": 0.0, "type": "electric_scooter", "bike_id": "fc7a0e0d367c06e7a35bccba22a90a75", "is_reserved": 0, "rental_uris": {"ios": "https://dc.lft.to/lastmile_qr_scan", "android": "https://dc.lft.to/lastmile_qr_scan"}, "is_disabled": 0, "lon": -76.995106, "name": "fc7a0e0d367c06e7a35bccba22a90a75", "fusion_lon": 0.0}, {"lat": 38.91768316666667, "fusion_lat": 0.0, "type": "electric_scooter", "bike_id": "0674e0bb97df6ca23656eb6bbf6a8df3", "is_reserved": 0, "rental_uris": {"ios": "https://dc.lft.to/lastmile_qr_scan", "android": "https://dc.lft.to/lastmile_qr_scan"}, "is_disabled": 0, "lon": -77.04061516666667, "name": "0674e0bb97df6ca23656eb6bbf6a8df3", "fusion_lon": 0.0}, {"lat": 38.9281785, "fusion_lat": 0.0, "type": "electric_scooter", "bike_id": "688138a24576999928a97a5ec4bf21a3", "is_reserved": 0, "rental_uris": {"ios": "https://dc.lft.to/lastmile_qr_scan", "android": "https://dc.lft.to/lastmile_qr_scan"}, "is_disabled": 0, "lon": -77.0363515, "name": "688138a24576999928a97a5ec4bf21a3", "fusion_lon": 0.0}, {"lat": 38.91108116666667, "fusion_lat": 0.0, "type": "electric_scooter", "bike_id": "0fe2f7bea73eec57a985a37428440c5a", "is_reserved": 0, "rental_uris": {"ios": "https://dc.lft.to/lastmile_qr_scan", "android": "https://dc.lft.to/lastmile_qr_scan"}, "is_disabled": 0, "lon": -77.04360383333334, "name": "0fe2f7bea73eec57a985a37428440c5a", "fusion_lon": 0.0}, {"lat": 38.933182, "fusion_lat": 0.0, "type": "electric_scooter", "bike_id": "95bcefb71a74f7ed3d90a748b34da0f6", "is_reserved": 0, "rental_uris": {"ios": "https://dc.lft.to/lastmile_qr_scan", "android": "https://dc.lft.to/lastmile_qr_scan"}, "is_disabled": 0, "lon": -77.03444916666666, "name": "95bcefb71a74f7ed3d90a748b34da0f6", "fusion_lon": 0.0}, {"lat": 38.91641083333333, "fusion_lat": 0.0, "type": "electric_scooter", "bike_id": "ce03d1d892858cd976f6a0417981d330", "is_reserved": 0, "rental_uris": {"ios": "https://dc.lft.to/lastmile_qr_scan", "android": "https://dc.lft.to/lastmile_qr_scan"}, "is_disabled": 0, "lon": -77.0321385, "name": "ce03d1d892858cd976f6a0417981d330", "fusion_lon": 0.0}, {"lat": 38.916153666666666, "fusion_lat": 0.0, "type": "electric_scooter", "bike_id": "4ad21e826fd1e95dc791e9ae3239b4d3", "is_reserved": 0, "rental_uris": {"ios": "https://dc.lft.to/lastmile_qr_scan", "android": "https://dc.lft.to/lastmile_qr_scan"}, "is_disabled": 0, "lon": -77.04861566666666, "name": "4ad21e826fd1e95dc791e9ae3239b4d3", "fusion_lon": 0.0}, {"lat": 38.920739, "fusion_lat": 0.0, "type": "electric_scooter", "bike_id": "a6b7ec77ddde283a04a6a6c7c94aa8d5", "is_reserved": 0, "rental_uris": {"ios": "https://dc.lft.to/lastmile_qr_scan", "android": "https://dc.lft.to/lastmile_qr_scan"}, "is_disabled": 0, "lon": -77.02514883333333, "name": "a6b7ec77ddde283a04a6a6c7c94aa8d5", "fusion_lon": 0.0}, {"lat": 38.87637633333333, "fusion_lat": 0.0, "type": "electric_scooter", "bike_id": "35aecba87670dd54931045bd2f3b95b1", "is_reserved": 0, "rental_uris": {"ios": "https://dc.lft.to/lastmile_qr_scan", "android": "https://dc.lft.to/lastmile_qr_scan"}, "is_disabled": 0, "lon": -77.0045325, "name": "35aecba87670dd54931045bd2f3b95b1", "fusion_lon": 0.0}, {"lat": 38.913658833333336, "fusion_lat": 0.0, "type": "electric_scooter", "bike_id": "27eb15a37a962674a04767f3e8c67064", "is_reserved": 0, "rental_uris": {"ios": "https://dc.lft.to/lastmile_qr_scan", "android": "https://dc.lft.to/lastmile_qr_scan"}, "is_disabled": 0, "lon": -77.066159, "name": "27eb15a37a962674a04767f3e8c67064", "fusion_lon": 0.0}, {"lat": 38.93223916666667, "fusion_lat": 0.0, "type": "electric_bike", "bike_id": "f4bc3e4a5a3de8660aea9ca7193d377b", "is_reserved": 0, "rental_uris": {"ios": "https://dc.lft.to/lastmile_qr_scan", "android": "https://dc.lft.to/lastmile_qr_scan"}, "is_disabled": 0, "lon": -77.181261, "name": "f4bc3e4a5a3de8660aea9ca7193d377b", "fusion_lon": 0.0}, {"lat": 38.913322666666666, "fusion_lat": 0.0, "type": "electric_scooter", "bike_id": "b159fe941a43168e407c5604534f296f", "is_reserved": 0, "rental_uris": {"ios": "https://dc.lft.to/lastmile_qr_scan", "android": "https://dc.lft.to/lastmile_qr_scan"}, "is_disabled": 0, "lon": -77.03266166666667, "name": "b159fe941a43168e407c5604534f296f", "fusion_lon": 0.0}, {"lat": 38.89608066666667, "fusion_lat": 0.0, "type": "electric_scooter", "bike_id": "680148a8ba779520027255d2635acc92", "is_reserved": 0, "rental_uris": {"ios": "https://dc.lft.to/lastmile_qr_scan", "android": "https://dc.lft.to/lastmile_qr_scan"}, "is_disabled": 0, "lon": -77.05438633333333, "name": "680148a8ba779520027255d2635acc92", "fusion_lon": 0.0}, {"lat": 38.90778683333333, "fusion_lat": 0.0, "type": "electric_scooter", "bike_id": "14d9dbeeb6c0aaccf7e64513150acb07", "is_reserved": 0, "rental_uris": {"ios": "https://dc.lft.to/lastmile_qr_scan", "android": "https://dc.lft.to/lastmile_qr_scan"}, "is_disabled": 0, "lon": -77.03832333333334, "name": "14d9dbeeb6c0aaccf7e64513150acb07", "fusion_lon": 0.0}, {"lat": 38.95870333333333, "fusion_lat": 0.0, "type": "electric_bike", "bike_id": "cb43c7cd8ddea6176d5e69234753b3ec", "is_reserved": 0, "rental_uris": {"ios": "https://dc.lft.to/lastmile_qr_scan", "android": "https://dc.lft.to/lastmile_qr_scan"}, "is_disabled": 0, "lon": -77.00139183333333, "name": "cb43c7cd8ddea6176d5e69234753b3ec", "fusion_lon": 0.0}, {"lat": 38.951847666666666, "fusion_lat": 0.0, "type": "electric_scooter", "bike_id": "0071b0342b853f50b696f6b89178cfcd", "is_reserved": 0, "rental_uris": {"ios": "https://dc.lft.to/lastmile_qr_scan", "android": "https://dc.lft.to/lastmile_qr_scan"}, "is_disabled": 0, "lon": -77.026149, "name": "0071b0342b853f50b696f6b89178cfcd", "fusion_lon": 0.0}, {"lat": 38.91318, "fusion_lat": 0.0, "type": "electric_scooter", "bike_id": "8bec48526e63da75c0e09624bacef821", "is_reserved": 0, "rental_uris": {"ios": "https://dc.lft.to/lastmile_qr_scan", "android": "https://dc.lft.to/lastmile_qr_scan"}, "is_disabled": 0, "lon": -77.0625135, "name": "8bec48526e63da75c0e09624bacef821", "fusion_lon": 0.0}, {"lat": 38.939725333333335, "fusion_lat": 0.0, "type": "electric_scooter", "bike_id": "e58b3613ab31ce34c52edba6b9ab6004", "is_reserved": 0, "rental_uris": {"ios": "https://dc.lft.to/lastmile_qr_scan", "android": "https://dc.lft.to/lastmile_qr_scan"}, "is_disabled": 0, "lon": -77.03691333333333, "name": "e58b3613ab31ce34c52edba6b9ab6004", "fusion_lon": 0.0}, {"lat": 38.866175166666665, "fusion_lat": 0.0, "type": "electric_scooter", "bike_id": "f72bc70ead7d8fd2c39bf5539533a1a4", "is_reserved": 0, "rental_uris": {"ios": "https://dc.lft.to/lastmile_qr_scan", "android": "https://dc.lft.to/lastmile_qr_scan"}, "is_disabled": 0, "lon": -77.0878615, "name": "f72bc70ead7d8fd2c39bf5539533a1a4", "fusion_lon": 0.0}, {"lat": 38.91768866666666, "fusion_lat": 0.0, "type": "electric_scooter", "bike_id": "2e68a0f31fa30b47a40c0454dfd63925", "is_reserved": 0, "rental_uris": {"ios": "https://dc.lft.to/lastmile_qr_scan", "android": "https://dc.lft.to/lastmile_qr_scan"}, "is_disabled": 0, "lon": -77.04060066666666, "name": "2e68a0f31fa30b47a40c0454dfd63925", "fusion_lon": 0.0}, {"lat": 38.928715833333335, "fusion_lat": 0.0, "type": "electric_scooter", "bike_id": "32b6782940bb9d85e479d016b8b85772", "is_reserved": 0, "rental_uris": {"ios": "https://dc.lft.to/lastmile_qr_scan", "android": "https://dc.lft.to/lastmile_qr_scan"}, "is_disabled": 0, "lon": -77.0341195, "name": "32b6782940bb9d85e479d016b8b85772", "fusion_lon": 0.0}, {"lat": 38.90689733333333, "fusion_lat": 0.0, "type": "electric_scooter", "bike_id": "4dc444ff92cc1727cd4fdfd867b1fc5e", "is_reserved": 0, "rental_uris": {"ios": "https://dc.lft.to/lastmile_qr_scan", "android": "https://dc.lft.to/lastmile_qr_scan"}, "is_disabled": 0, "lon": -77.04337466666667, "name": "4dc444ff92cc1727cd4fdfd867b1fc5e", "fusion_lon": 0.0}, {"lat": 38.908333166666665, "fusion_lat": 0.0, "type": "electric_scooter", "bike_id": "5b78759a16f932bd88cbb7a8c762faf2", "is_reserved": 0, "rental_uris": {"ios": "https://dc.lft.to/lastmile_qr_scan", "android": "https://dc.lft.to/lastmile_qr_scan"}, "is_disabled": 0, "lon": -77.0433495, "name": "5b78759a16f932bd88cbb7a8c762faf2", "fusion_lon": 0.0}, {"lat": 38.906366166666665, "fusion_lat": 0.0, "type": "electric_scooter", "bike_id": "9029edfcfff73b7275183ed491c35010", "is_reserved": 0, "rental_uris": {"ios": "https://dc.lft.to/lastmile_qr_scan", "android": "https://dc.lft.to/lastmile_qr_scan"}, "is_disabled": 0, "lon": -77.00188033333333, "name": "9029edfcfff73b7275183ed491c35010", "fusion_lon": 0.0}, {"lat": 38.90642066666667, "fusion_lat": 0.0, "type": "electric_scooter", "bike_id": "62ae28ca5fe6c9abae2c405817c8de55", "is_reserved": 0, "rental_uris": {"ios": "https://dc.lft.to/lastmile_qr_scan", "android": "https://dc.lft.to/lastmile_qr_scan"}, "is_disabled": 0, "lon": -77.02496783333333, "name": "62ae28ca5fe6c9abae2c405817c8de55", "fusion_lon": 0.0}, {"lat": 38.9039865, "fusion_lat": 0.0, "type": "electric_scooter", "bike_id": "b74ed78207cb711d041bd99702b140c3", "is_reserved": 0, "rental_uris": {"ios": "https://dc.lft.to/lastmile_qr_scan", "android": "https://dc.lft.to/lastmile_qr_scan"}, "is_disabled": 0, "lon": -77.06778016666667, "name": "b74ed78207cb711d041bd99702b140c3", "fusion_lon": 0.0}, {"lat": 38.93271283333333, "fusion_lat": 0.0, "type": "electric_scooter", "bike_id": "202297227cea98492983855a448a12dc", "is_reserved": 0, "rental_uris": {"ios": "https://dc.lft.to/lastmile_qr_scan", "android": "https://dc.lft.to/lastmile_qr_scan"}, "is_disabled": 0, "lon": -77.0453965, "name": "202297227cea98492983855a448a12dc", "fusion_lon": 0.0}, {"lat": 38.90961866666667, "fusion_lat": 0.0, "type": "electric_scooter", "bike_id": "53862f5df37d6d6ebe230adc5dd9a583", "is_reserved": 0, "rental_uris": {"ios": "https://dc.lft.to/lastmile_qr_scan", "android": "https://dc.lft.to/lastmile_qr_scan"}, "is_disabled": 0, "lon": -77.03948116666666, "name": "53862f5df37d6d6ebe230adc5dd9a583", "fusion_lon": 0.0}, {"lat": 38.8996285, "fusion_lat": 0.0, "type": "electric_scooter", "bike_id": "6858e67f6d46cef473939ba6483174d3", "is_reserved": 0, "rental_uris": {"ios": "https://dc.lft.to/lastmile_qr_scan", "android": "https://dc.lft.to/lastmile_qr_scan"}, "is_disabled": 0, "lon": -77.01508316666667, "name": "6858e67f6d46cef473939ba6483174d3", "fusion_lon": 0.0}, {"lat": 38.8638695, "fusion_lat": 0.0, "type": "electric_scooter", "bike_id": "d2ef646002032b979815bf7cf161ab59", "is_reserved": 0, "rental_uris": {"ios": "https://dc.lft.to/lastmile_qr_scan", "android": "https://dc.lft.to/lastmile_qr_scan"}, "is_disabled": 0, "lon": -76.990443, "name": "d2ef646002032b979815bf7cf161ab59", "fusion_lon": 0.0}, {"lat": 38.91113, "fusion_lat": 0.0, "type": "electric_scooter", "bike_id": "31f04265dbba46064705fedc47e1562e", "is_reserved": 0, "rental_uris": {"ios": "https://dc.lft.to/lastmile_qr_scan", "android": "https://dc.lft.to/lastmile_qr_scan"}, "is_disabled": 0, "lon": -77.048297, "name": "31f04265dbba46064705fedc47e1562e", "fusion_lon": 0.0}, {"lat": 38.9165585, "fusion_lat": 0.0, "type": "electric_scooter", "bike_id": "f08b0b7c7861ecff677c348235272f49", "is_reserved": 0, "rental_uris": {"ios": "https://dc.lft.to/lastmile_qr_scan", "android": "https://dc.lft.to/lastmile_qr_scan"}, "is_disabled": 0, "lon": -77.02008983333333, "name": "f08b0b7c7861ecff677c348235272f49", "fusion_lon": 0.0}, {"lat": 38.916290833333335, "fusion_lat": 0.0, "type": "electric_scooter", "bike_id": "940df5636e347704db2b838a557bcad3", "is_reserved": 0, "rental_uris": {"ios": "https://dc.lft.to/lastmile_qr_scan", "android": "https://dc.lft.to/lastmile_qr_scan"}, "is_disabled": 0, "lon": -77.038526, "name": "940df5636e347704db2b838a557bcad3", "fusion_lon": 0.0}, {"lat": 38.92492383333333, "fusion_lat": 0.0, "type": "electric_scooter", "bike_id": "00b4774e214254725c523382d3501be8", "is_reserved": 0, "rental_uris": {"ios": "https://dc.lft.to/lastmile_qr_scan", "android": "https://dc.lft.to/lastmile_qr_scan"}, "is_disabled": 0, "lon": -77.05253583333334, "name": "00b4774e214254725c523382d3501be8", "fusion_lon": 0.0}, {"lat": 38.919537, "fusion_lat": 0.0, "type": "electric_scooter", "bike_id": "f71ab9ae81453f35d90bbecab1b873eb", "is_reserved": 0, "rental_uris": {"ios": "https://dc.lft.to/lastmile_qr_scan", "android": "https://dc.lft.to/lastmile_qr_scan"}, "is_disabled": 0, "lon": -77.02489516666667, "name": "f71ab9ae81453f35d90bbecab1b873eb", "fusion_lon": 0.0}, {"lat": 38.86503883333334, "fusion_lat": 0.0, "type": "electric_scooter", "bike_id": "9f9b7c2251586ef16762943c183247b3", "is_reserved": 0, "rental_uris": {"ios": "https://dc.lft.to/lastmile_qr_scan", "android": "https://dc.lft.to/lastmile_qr_scan"}, "is_disabled": 0, "lon": -76.99002233333333, "name": "9f9b7c2251586ef16762943c183247b3", "fusion_lon": 0.0}, {"lat": 38.90043716666667, "fusion_lat": 0.0, "type": "electric_scooter", "bike_id": "f658775da16b32cff0b07c20123cc1be", "is_reserved": 0, "rental_uris": {"ios": "https://dc.lft.to/lastmile_qr_scan", "android": "https://dc.lft.to/lastmile_qr_scan"}, "is_disabled": 0, "lon": -76.988259, "name": "f658775da16b32cff0b07c20123cc1be", "fusion_lon": 0.0}, {"lat": 38.91634916666667, "fusion_lat": 0.0, "type": "electric_scooter", "bike_id": "a10e81d0bacd559c10eb96dad08e10b5", "is_reserved": 0, "rental_uris": {"ios": "https://dc.lft.to/lastmile_qr_scan", "android": "https://dc.lft.to/lastmile_qr_scan"}, "is_disabled": 0, "lon": -77.02554566666667, "name": "a10e81d0bacd559c10eb96dad08e10b5", "fusion_lon": 0.0}, {"lat": 38.932637666666665, "fusion_lat": 0.0, "type": "electric_scooter", "bike_id": "8ee9c5d7def27373254c4aebafd2ba9e", "is_reserved": 0, "rental_uris": {"ios": "https://dc.lft.to/lastmile_qr_scan", "android": "https://dc.lft.to/lastmile_qr_scan"}, "is_disabled": 0, "lon": -77.01922083333334, "name": "8ee9c5d7def27373254c4aebafd2ba9e", "fusion_lon": 0.0}, {"lat": 38.9062955, "fusion_lat": 0.0, "type": "electric_scooter", "bike_id": "dccb1fd459399e1862f2e7e2f9773d74", "is_reserved": 0, "rental_uris": {"ios": "https://dc.lft.to/lastmile_qr_scan", "android": "https://dc.lft.to/lastmile_qr_scan"}, "is_disabled": 0, "lon": -77.0101125, "name": "dccb1fd459399e1862f2e7e2f9773d74", "fusion_lon": 0.0}, {"lat": 38.952479333333336, "fusion_lat": 0.0, "type": "electric_bike", "bike_id": "f0ab18112d5e01b4d0d1251ffd3f194f", "is_reserved": 0, "rental_uris": {"ios": "https://dc.lft.to/lastmile_qr_scan", "android": "https://dc.lft.to/lastmile_qr_scan"}, "is_disabled": 0, "lon": -76.97678083333334, "name": "f0ab18112d5e01b4d0d1251ffd3f194f", "fusion_lon": 0.0}, {"lat": 38.93537766666667, "fusion_lat": 0.0, "type": "electric_scooter", "bike_id": "b378fb373f4fc1c16e0887414929bb28", "is_reserved": 0, "rental_uris": {"ios": "https://dc.lft.to/lastmile_qr_scan", "android": "https://dc.lft.to/lastmile_qr_scan"}, "is_disabled": 0, "lon": -77.05829133333333, "name": "b378fb373f4fc1c16e0887414929bb28", "fusion_lon": 0.0}, {"lat": 38.920824, "fusion_lat": 0.0, "type": "electric_scooter", "bike_id": "7d3cea6116b8220fcac93301e4cce6be", "is_reserved": 0, "rental_uris": {"ios": "https://dc.lft.to/lastmile_qr_scan", "android": "https://dc.lft.to/lastmile_qr_scan"}, "is_disabled": 0, "lon": -77.02400833333333, "name": "7d3cea6116b8220fcac93301e4cce6be", "fusion_lon": 0.0}, {"lat": 38.90215333333333, "fusion_lat": 0.0, "type": "electric_scooter", "bike_id": "56f41670b93ff5aa372ee2b3ae03a696", "is_reserved": 0, "rental_uris": {"ios": "https://dc.lft.to/lastmile_qr_scan", "android": "https://dc.lft.to/lastmile_qr_scan"}, "is_disabled": 0, "lon": -77.02376, "name": "56f41670b93ff5aa372ee2b3ae03a696", "fusion_lon": 0.0}, {"lat": 38.92890466666667, "fusion_lat": 0.0, "type": "electric_bike", "bike_id": "01cad52f1f5e83417be81e3b2277ab07", "is_reserved": 0, "rental_uris": {"ios": "https://dc.lft.to/lastmile_qr_scan", "android": "https://dc.lft.to/lastmile_qr_scan"}, "is_disabled": 0, "lon": -77.08402883333333, "name": "01cad52f1f5e83417be81e3b2277ab07", "fusion_lon": 0.0}, {"lat": 38.905122666666664, "fusion_lat": 0.0, "type": "electric_scooter", "bike_id": "2a3d643917e6d0aba2caaae0d1c07681", "is_reserved": 0, "rental_uris": {"ios": "https://dc.lft.to/lastmile_qr_scan", "android": "https://dc.lft.to/lastmile_qr_scan"}, "is_disabled": 0, "lon": -77.00215816666666, "name": "2a3d643917e6d0aba2caaae0d1c07681", "fusion_lon": 0.0}, {"lat": 38.91102933333333, "fusion_lat": 0.0, "type": "electric_scooter", "bike_id": "0c636d2688c56bf8b7b9425366814cad", "is_reserved": 0, "rental_uris": {"ios": "https://dc.lft.to/lastmile_qr_scan", "android": "https://dc.lft.to/lastmile_qr_scan"}, "is_disabled": 0, "lon": -77.0250555, "name": "0c636d2688c56bf8b7b9425366814cad", "fusion_lon": 0.0}, {"lat": 38.89290366666667, "fusion_lat": 0.0, "type": "electric_bike", "bike_id": "d8970d7ccd81d12fd92fa241dced5006", "is_reserved": 0, "rental_uris": {"ios": "https://dc.lft.to/lastmile_qr_scan", "android": "https://dc.lft.to/lastmile_qr_scan"}, "is_disabled": 0, "lon": -76.97618766666666, "name": "d8970d7ccd81d12fd92fa241dced5006", "fusion_lon": 0.0}, {"lat": 38.905713666666664, "fusion_lat": 0.0, "type": "electric_scooter", "bike_id": "cc337c7729b7d80afeeeccad088747fb", "is_reserved": 0, "rental_uris": {"ios": "https://dc.lft.to/lastmile_qr_scan", "android": "https://dc.lft.to/lastmile_qr_scan"}, "is_disabled": 0, "lon": -77.03447466666667, "name": "cc337c7729b7d80afeeeccad088747fb", "fusion_lon": 0.0}, {"lat": 38.906723666666664, "fusion_lat": 0.0, "type": "electric_scooter", "bike_id": "05911da795537c24aa1cc652b2a81f08", "is_reserved": 0, "rental_uris": {"ios": "https://dc.lft.to/lastmile_qr_scan", "android": "https://dc.lft.to/lastmile_qr_scan"}, "is_disabled": 0, "lon": -77.03758466666666, "name": "05911da795537c24aa1cc652b2a81f08", "fusion_lon": 0.0}, {"lat": 38.9270185, "fusion_lat": 0.0, "type": "electric_scooter", "bike_id": "3c18bb7652d4b54172b7d3e93bd7ce48", "is_reserved": 0, "rental_uris": {"ios": "https://dc.lft.to/lastmile_qr_scan", "android": "https://dc.lft.to/lastmile_qr_scan"}, "is_disabled": 0, "lon": -77.02106583333334, "name": "3c18bb7652d4b54172b7d3e93bd7ce48", "fusion_lon": 0.0}, {"lat": 38.90741966666667, "fusion_lat": 0.0, "type": "electric_scooter", "bike_id": "d69f490989c723c2bdd7e87bc07fa68c", "is_reserved": 0, "rental_uris": {"ios": "https://dc.lft.to/lastmile_qr_scan", "android": "https://dc.lft.to/lastmile_qr_scan"}, "is_disabled": 0, "lon": -77.00059316666666, "name": "d69f490989c723c2bdd7e87bc07fa68c", "fusion_lon": 0.0}, {"lat": 38.9094665, "fusion_lat": 0.0, "type": "electric_scooter", "bike_id": "df8d01a2da4077701ef2d838e5aca725", "is_reserved": 0, "rental_uris": {"ios": "https://dc.lft.to/lastmile_qr_scan", "android": "https://dc.lft.to/lastmile_qr_scan"}, "is_disabled": 0, "lon": -77.0494155, "name": "df8d01a2da4077701ef2d838e5aca725", "fusion_lon": 0.0}, {"lat": 38.90689033333334, "fusion_lat": 0.0, "type": "electric_scooter", "bike_id": "50ad759702806a9d5b28814053bd716f", "is_reserved": 0, "rental_uris": {"ios": "https://dc.lft.to/lastmile_qr_scan", "android": "https://dc.lft.to/lastmile_qr_scan"}, "is_disabled": 0, "lon": -77.0432805, "name": "50ad759702806a9d5b28814053bd716f", "fusion_lon": 0.0}, {"lat": 38.9113495, "fusion_lat": 0.0, "type": "electric_scooter", "bike_id": "d340da646a57c17d6ef05d2d5c0f66a8", "is_reserved": 0, "rental_uris": {"ios": "https://dc.lft.to/lastmile_qr_scan", "android": "https://dc.lft.to/lastmile_qr_scan"}, "is_disabled": 0, "lon": -77.03843233333333, "name": "d340da646a57c17d6ef05d2d5c0f66a8", "fusion_lon": 0.0}, {"lat": 38.928781666666666, "fusion_lat": 0.0, "type": "electric_scooter", "bike_id": "ef5be513c2d81c5684cb021fe3e699bc", "is_reserved": 0, "rental_uris": {"ios": "https://dc.lft.to/lastmile_qr_scan", "android": "https://dc.lft.to/lastmile_qr_scan"}, "is_disabled": 0, "lon": -77.01362866666666, "name": "ef5be513c2d81c5684cb021fe3e699bc", "fusion_lon": 0.0}, {"lat": 38.884907166666665, "fusion_lat": 0.0, "type": "electric_scooter", "bike_id": "c4e6688bb315ad818cbd9dd04e775f16", "is_reserved": 0, "rental_uris": {"ios": "https://dc.lft.to/lastmile_qr_scan", "android": "https://dc.lft.to/lastmile_qr_scan"}, "is_disabled": 0, "lon": -77.00714216666667, "name": "c4e6688bb315ad818cbd9dd04e775f16", "fusion_lon": 0.0}, {"lat": 38.92865966666667, "fusion_lat": 0.0, "type": "electric_scooter", "bike_id": "9c6b08228462dc8234d0a79a9ac2eb34", "is_reserved": 0, "rental_uris": {"ios": "https://dc.lft.to/lastmile_qr_scan", "android": "https://dc.lft.to/lastmile_qr_scan"}, "is_disabled": 0, "lon": -77.03408316666666, "name": "9c6b08228462dc8234d0a79a9ac2eb34", "fusion_lon": 0.0}, {"lat": 38.9156395, "fusion_lat": 0.0, "type": "electric_scooter", "bike_id": "250830dc999ba10b026598aa1f291a4c", "is_reserved": 0, "rental_uris": {"ios": "https://dc.lft.to/lastmile_qr_scan", "android": "https://dc.lft.to/lastmile_qr_scan"}, "is_disabled": 0, "lon": -77.04282766666667, "name": "250830dc999ba10b026598aa1f291a4c", "fusion_lon": 0.0}, {"lat": 38.8961095, "fusion_lat": 0.0, "type": "electric_scooter", "bike_id": "2ed071f8c5c2b4c0aa5e3aa9d5ff0b8d", "is_reserved": 0, "rental_uris": {"ios": "https://dc.lft.to/lastmile_qr_scan", "android": "https://dc.lft.to/lastmile_qr_scan"}, "is_disabled": 0, "lon": -77.0219335, "name": "2ed071f8c5c2b4c0aa5e3aa9d5ff0b8d", "fusion_lon": 0.0}, {"lat": 38.9081705, "fusion_lat": 0.0, "type": "electric_scooter", "bike_id": "37ce7fec9f631544f0dd4ca12b99985c", "is_reserved": 0, "rental_uris": {"ios": "https://dc.lft.to/lastmile_qr_scan", "android": "https://dc.lft.to/lastmile_qr_scan"}, "is_disabled": 0, "lon": -77.03943566666666, "name": "37ce7fec9f631544f0dd4ca12b99985c", "fusion_lon": 0.0}, {"lat": 38.887077, "fusion_lat": 0.0, "type": "electric_scooter", "bike_id": "7a5501f21a63dc5630ccdaf26e857ee7", "is_reserved": 0, "rental_uris": {"ios": "https://dc.lft.to/lastmile_qr_scan", "android": "https://dc.lft.to/lastmile_qr_scan"}, "is_disabled": 0, "lon": -77.00347883333333, "name": "7a5501f21a63dc5630ccdaf26e857ee7", "fusion_lon": 0.0}, {"lat": 38.913994333333335, "fusion_lat": 0.0, "type": "electric_scooter", "bike_id": "a65199155dab2a053403ee41d0c5cb52", "is_reserved": 0, "rental_uris": {"ios": "https://dc.lft.to/lastmile_qr_scan", "android": "https://dc.lft.to/lastmile_qr_scan"}, "is_disabled": 0, "lon": -77.02658983333333, "name": "a65199155dab2a053403ee41d0c5cb52", "fusion_lon": 0.0}, {"lat": 38.90062116666667, "fusion_lat": 0.0, "type": "electric_scooter", "bike_id": "ac8c3ab888147b8735fb0ba31c31306e", "is_reserved": 0, "rental_uris": {"ios": "https://dc.lft.to/lastmile_qr_scan", "android": "https://dc.lft.to/lastmile_qr_scan"}, "is_disabled": 0, "lon": -76.927423, "name": "ac8c3ab888147b8735fb0ba31c31306e", "fusion_lon": 0.0}, {"lat": 38.9025535, "fusion_lat": 0.0, "type": "electric_scooter", "bike_id": "1faf4192a450969de9d44cba7eab1d2a", "is_reserved": 0, "rental_uris": {"ios": "https://dc.lft.to/lastmile_qr_scan", "android": "https://dc.lft.to/lastmile_qr_scan"}, "is_disabled": 0, "lon": -77.02421883333334, "name": "1faf4192a450969de9d44cba7eab1d2a", "fusion_lon": 0.0}, {"lat": 38.954752166666665, "fusion_lat": 0.0, "type": "electric_scooter", "bike_id": "73bfe096f568f25298dc910615a48e26", "is_reserved": 0, "rental_uris": {"ios": "https://dc.lft.to/lastmile_qr_scan", "android": "https://dc.lft.to/lastmile_qr_scan"}, "is_disabled": 0, "lon": -77.022236, "name": "73bfe096f568f25298dc910615a48e26", "fusion_lon": 0.0}, {"lat": 38.93180066666667, "fusion_lat": 0.0, "type": "electric_scooter", "bike_id": "46fd54cf267ae4c7cedb84676e25fea7", "is_reserved": 0, "rental_uris": {"ios": "https://dc.lft.to/lastmile_qr_scan", "android": "https://dc.lft.to/lastmile_qr_scan"}, "is_disabled": 0, "lon": -77.0365825, "name": "46fd54cf267ae4c7cedb84676e25fea7", "fusion_lon": 0.0}, {"lat": 38.923276, "fusion_lat": 0.0, "type": "electric_scooter", "bike_id": "ff82db1aa80758746641cdbc094e9e6d", "is_reserved": 0, "rental_uris": {"ios": "https://dc.lft.to/lastmile_qr_scan", "android": "https://dc.lft.to/lastmile_qr_scan"}, "is_disabled": 0, "lon": -77.00055333333333, "name": "ff82db1aa80758746641cdbc094e9e6d", "fusion_lon": 0.0}, {"lat": 38.9095915, "fusion_lat": 0.0, "type": "electric_scooter", "bike_id": "6ee97864173ad920f9de1610c5097644", "is_reserved": 0, "rental_uris": {"ios": "https://dc.lft.to/lastmile_qr_scan", "android": "https://dc.lft.to/lastmile_qr_scan"}, "is_disabled": 0, "lon": -77.0333035, "name": "6ee97864173ad920f9de1610c5097644", "fusion_lon": 0.0}, {"lat": 38.90018933333333, "fusion_lat": 0.0, "type": "electric_scooter", "bike_id": "35582a516786ff0dcd98a086e54412a7", "is_reserved": 0, "rental_uris": {"ios": "https://dc.lft.to/lastmile_qr_scan", "android": "https://dc.lft.to/lastmile_qr_scan"}, "is_disabled": 0, "lon": -76.992966, "name": "35582a516786ff0dcd98a086e54412a7", "fusion_lon": 0.0}, {"lat": 39.01476016666667, "fusion_lat": 0.0, "type": "electric_bike", "bike_id": "0a35a4ecc2db99503c704d934b383917", "is_reserved": 0, "rental_uris": {"ios": "https://dc.lft.to/lastmile_qr_scan", "android": "https://dc.lft.to/lastmile_qr_scan"}, "is_disabled": 0, "lon": -77.0549555, "name": "0a35a4ecc2db99503c704d934b383917", "fusion_lon": 0.0}, {"lat": 38.94404733333333, "fusion_lat": 0.0, "type": "electric_bike", "bike_id": "cf80043fd4c7f20463f28f5cd1824cd7", "is_reserved": 0, "rental_uris": {"ios": "https://dc.lft.to/lastmile_qr_scan", "android": "https://dc.lft.to/lastmile_qr_scan"}, "is_disabled": 0, "lon": -77.03206333333333, "name": "cf80043fd4c7f20463f28f5cd1824cd7", "fusion_lon": 0.0}, {"lat": 38.90259283333333, "fusion_lat": 0.0, "type": "electric_scooter", "bike_id": "a3011df496feed6030b59ed4fe5a0fad", "is_reserved": 0, "rental_uris": {"ios": "https://dc.lft.to/lastmile_qr_scan", "android": "https://dc.lft.to/lastmile_qr_scan"}, "is_disabled": 0, "lon": -77.03399883333333, "name": "a3011df496feed6030b59ed4fe5a0fad", "fusion_lon": 0.0}, {"lat": 38.92119783333333, "fusion_lat": 0.0, "type": "electric_scooter", "bike_id": "910acbb0946dd415a997aa6893817e6b", "is_reserved": 0, "rental_uris": {"ios": "https://dc.lft.to/lastmile_qr_scan", "android": "https://dc.lft.to/lastmile_qr_scan"}, "is_disabled": 0, "lon": -77.01212566666666, "name": "910acbb0946dd415a997aa6893817e6b", "fusion_lon": 0.0}, {"lat": 38.90652083333333, "fusion_lat": 0.0, "type": "electric_scooter", "bike_id": "53d0b1eb8a180509b8b86e57365b8f7a", "is_reserved": 0, "rental_uris": {"ios": "https://dc.lft.to/lastmile_qr_scan", "android": "https://dc.lft.to/lastmile_qr_scan"}, "is_disabled": 0, "lon": -77.048789, "name": "53d0b1eb8a180509b8b86e57365b8f7a", "fusion_lon": 0.0}, {"lat": 38.920585, "fusion_lat": 0.0, "type": "electric_scooter", "bike_id": "425b279b4a6a58f66e3985959061786d", "is_reserved": 0, "rental_uris": {"ios": "https://dc.lft.to/lastmile_qr_scan", "android": "https://dc.lft.to/lastmile_qr_scan"}, "is_disabled": 0, "lon": -77.02402483333333, "name": "425b279b4a6a58f66e3985959061786d", "fusion_lon": 0.0}, {"lat": 38.9037265, "fusion_lat": 0.0, "type": "electric_scooter", "bike_id": "70692150f81e8f659943cc17bb00f594", "is_reserved": 0, "rental_uris": {"ios": "https://dc.lft.to/lastmile_qr_scan", "android": "https://dc.lft.to/lastmile_qr_scan"}, "is_disabled": 0, "lon": -77.0409485, "name": "70692150f81e8f659943cc17bb00f594", "fusion_lon": 0.0}, {"lat": 38.92875816666667, "fusion_lat": 0.0, "type": "electric_scooter", "bike_id": "0977944a9152e0414363a683205efe8c", "is_reserved": 0, "rental_uris": {"ios": "https://dc.lft.to/lastmile_qr_scan", "android": "https://dc.lft.to/lastmile_qr_scan"}, "is_disabled": 0, "lon": -77.012334, "name": "0977944a9152e0414363a683205efe8c", "fusion_lon": 0.0}, {"lat": 38.89222733333333, "fusion_lat": 0.0, "type": "electric_bike", "bike_id": "ee8c7a310a1b1961e96d3fb8a3269396", "is_reserved": 0, "rental_uris": {"ios": "https://dc.lft.to/lastmile_qr_scan", "android": "https://dc.lft.to/lastmile_qr_scan"}, "is_disabled": 0, "lon": -77.04001283333334, "name": "ee8c7a310a1b1961e96d3fb8a3269396", "fusion_lon": 0.0}, {"lat": 38.929413833333335, "fusion_lat": 0.0, "type": "electric_scooter", "bike_id": "0237abff64a952a98553ef28b7950ff3", "is_reserved": 0, "rental_uris": {"ios": "https://dc.lft.to/lastmile_qr_scan", "android": "https://dc.lft.to/lastmile_qr_scan"}, "is_disabled": 0, "lon": -77.03287783333333, "name": "0237abff64a952a98553ef28b7950ff3", "fusion_lon": 0.0}, {"lat": 38.915512666666665, "fusion_lat": 0.0, "type": "electric_scooter", "bike_id": "4e2b032d59ac2b2a3ad256bc69f78174", "is_reserved": 0, "rental_uris": {"ios": "https://dc.lft.to/lastmile_qr_scan", "android": "https://dc.lft.to/lastmile_qr_scan"}, "is_disabled": 0, "lon": -77.0214505, "name": "4e2b032d59ac2b2a3ad256bc69f78174", "fusion_lon": 0.0}, {"lat": 38.91914516666667, "fusion_lat": 0.0, "type": "electric_scooter", "bike_id": "703e22857f181d59c9d11ab66b7729de", "is_reserved": 0, "rental_uris": {"ios": "https://dc.lft.to/lastmile_qr_scan", "android": "https://dc.lft.to/lastmile_qr_scan"}, "is_disabled": 0, "lon": -77.03225233333333, "name": "703e22857f181d59c9d11ab66b7729de", "fusion_lon": 0.0}, {"lat": 38.88245116666667, "fusion_lat": 0.0, "type": "electric_scooter", "bike_id": "ebc55f2a3d7df7d26a3c33f10eab472c", "is_reserved": 0, "rental_uris": {"ios": "https://dc.lft.to/lastmile_qr_scan", "android": "https://dc.lft.to/lastmile_qr_scan"}, "is_disabled": 0, "lon": -76.991208, "name": "ebc55f2a3d7df7d26a3c33f10eab472c", "fusion_lon": 0.0}, {"lat": 38.902438833333335, "fusion_lat": 0.0, "type": "electric_scooter", "bike_id": "b4be8a95ea982b812ff9043efe1b7a21", "is_reserved": 0, "rental_uris": {"ios": "https://dc.lft.to/lastmile_qr_scan", "android": "https://dc.lft.to/lastmile_qr_scan"}, "is_disabled": 0, "lon": -77.03849916666667, "name": "b4be8a95ea982b812ff9043efe1b7a21", "fusion_lon": 0.0}, {"lat": 38.90361333333333, "fusion_lat": 0.0, "type": "electric_scooter", "bike_id": "8ac5de0d80835aa246f8d7b8b1d6efb3", "is_reserved": 0, "rental_uris": {"ios": "https://dc.lft.to/lastmile_qr_scan", "android": "https://dc.lft.to/lastmile_qr_scan"}, "is_disabled": 0, "lon": -77.03990233333333, "name": "8ac5de0d80835aa246f8d7b8b1d6efb3", "fusion_lon": 0.0}, {"lat": 38.89613933333333, "fusion_lat": 0.0, "type": "electric_scooter", "bike_id": "d62204f4b724cac3d46056afe9ffbb76", "is_reserved": 0, "rental_uris": {"ios": "https://dc.lft.to/lastmile_qr_scan", "android": "https://dc.lft.to/lastmile_qr_scan"}, "is_disabled": 0, "lon": -77.04561966666667, "name": "d62204f4b724cac3d46056afe9ffbb76", "fusion_lon": 0.0}, {"lat": 38.90627683333334, "fusion_lat": 0.0, "type": "electric_scooter", "bike_id": "d186bf17952ed5abe3dfb9c719c41ebb", "is_reserved": 0, "rental_uris": {"ios": "https://dc.lft.to/lastmile_qr_scan", "android": "https://dc.lft.to/lastmile_qr_scan"}, "is_disabled": 0, "lon": -77.04167566666666, "name": "d186bf17952ed5abe3dfb9c719c41ebb", "fusion_lon": 0.0}, {"lat": 38.90258766666667, "fusion_lat": 0.0, "type": "electric_scooter", "bike_id": "785626732967aff637e0d07ec4bbb3c5", "is_reserved": 0, "rental_uris": {"ios": "https://dc.lft.to/lastmile_qr_scan", "android": "https://dc.lft.to/lastmile_qr_scan"}, "is_disabled": 0, "lon": -77.024209, "name": "785626732967aff637e0d07ec4bbb3c5", "fusion_lon": 0.0}, {"lat": 38.91866566666667, "fusion_lat": 0.0, "type": "electric_scooter", "bike_id": "7ded205c842cbb692b6c67e6078cd053", "is_reserved": 0, "rental_uris": {"ios": "https://dc.lft.to/lastmile_qr_scan", "android": "https://dc.lft.to/lastmile_qr_scan"}, "is_disabled": 0, "lon": -77.04757966666666, "name": "7ded205c842cbb692b6c67e6078cd053", "fusion_lon": 0.0}, {"lat": 38.91487083333333, "fusion_lat": 0.0, "type": "electric_scooter", "bike_id": "1de88070fd53ba22c9759cb6fdaffd69", "is_reserved": 0, "rental_uris": {"ios": "https://dc.lft.to/lastmile_qr_scan", "android": "https://dc.lft.to/lastmile_qr_scan"}, "is_disabled": 0, "lon": -77.02194116666666, "name": "1de88070fd53ba22c9759cb6fdaffd69", "fusion_lon": 0.0}, {"lat": 38.92159733333333, "fusion_lat": 0.0, "type": "electric_scooter", "bike_id": "74cdd76a0b47770b858893d6d76ed013", "is_reserved": 0, "rental_uris": {"ios": "https://dc.lft.to/lastmile_qr_scan", "android": "https://dc.lft.to/lastmile_qr_scan"}, "is_disabled": 0, "lon": -77.034431, "name": "74cdd76a0b47770b858893d6d76ed013", "fusion_lon": 0.0}, {"lat": 38.9573005, "fusion_lat": 0.0, "type": "electric_scooter", "bike_id": "3b5d3d09b30cb127ec14f7cdc816ec30", "is_reserved": 0, "rental_uris": {"ios": "https://dc.lft.to/lastmile_qr_scan", "android": "https://dc.lft.to/lastmile_qr_scan"}, "is_disabled": 0, "lon": -77.024024, "name": "3b5d3d09b30cb127ec14f7cdc816ec30", "fusion_lon": 0.0}, {"lat": 38.90112966666667, "fusion_lat": 0.0, "type": "electric_scooter", "bike_id": "d392c28f933f6a3bfd473023d59d3848", "is_reserved": 0, "rental_uris": {"ios": "https://dc.lft.to/lastmile_qr_scan", "android": "https://dc.lft.to/lastmile_qr_scan"}, "is_disabled": 0, "lon": -77.04984283333333, "name": "d392c28f933f6a3bfd473023d59d3848", "fusion_lon": 0.0}, {"lat": 38.9071735, "fusion_lat": 0.0, "type": "electric_scooter", "bike_id": "b8ddf9971e0bcf7531e48be90300d4b4", "is_reserved": 0, "rental_uris": {"ios": "https://dc.lft.to/lastmile_qr_scan", "android": "https://dc.lft.to/lastmile_qr_scan"}, "is_disabled": 0, "lon": -77.07622433333333, "name": "b8ddf9971e0bcf7531e48be90300d4b4", "fusion_lon": 0.0}, {"lat": 38.9361555, "fusion_lat": 0.0, "type": "electric_scooter", "bike_id": "7048930a4ddc96f1dfa0d03437fb7cd0", "is_reserved": 0, "rental_uris": {"ios": "https://dc.lft.to/lastmile_qr_scan", "android": "https://dc.lft.to/lastmile_qr_scan"}, "is_disabled": 0, "lon": -77.06756133333333, "name": "7048930a4ddc96f1dfa0d03437fb7cd0", "fusion_lon": 0.0}, {"lat": 38.9177345, "fusion_lat": 0.0, "type": "electric_scooter", "bike_id": "7a278e3c7408d60bf6ca1e3519df6960", "is_reserved": 0, "rental_uris": {"ios": "https://dc.lft.to/lastmile_qr_scan", "android": "https://dc.lft.to/lastmile_qr_scan"}, "is_disabled": 0, "lon": -77.0364155, "name": "7a278e3c7408d60bf6ca1e3519df6960", "fusion_lon": 0.0}, {"lat": 38.89902816666667, "fusion_lat": 0.0, "type": "electric_scooter", "bike_id": "cf8ed3e9bcea2a8fb5417dfaae477c09", "is_reserved": 0, "rental_uris": {"ios": "https://dc.lft.to/lastmile_qr_scan", "android": "https://dc.lft.to/lastmile_qr_scan"}, "is_disabled": 0, "lon": -77.03343716666667, "name": "cf8ed3e9bcea2a8fb5417dfaae477c09", "fusion_lon": 0.0}, {"lat": 38.93675133333333, "fusion_lat": 0.0, "type": "electric_scooter", "bike_id": "4aac069387ef561f048e05e6b1c1b78b", "is_reserved": 0, "rental_uris": {"ios": "https://dc.lft.to/lastmile_qr_scan", "android": "https://dc.lft.to/lastmile_qr_scan"}, "is_disabled": 0, "lon": -77.0359025, "name": "4aac069387ef561f048e05e6b1c1b78b", "fusion_lon": 0.0}, {"lat": 38.87300616666667, "fusion_lat": 0.0, "type": "electric_bike", "bike_id": "bcfbe8902ff4d2b1a9b9f5dcb39f3316", "is_reserved": 0, "rental_uris": {"ios": "https://dc.lft.to/lastmile_qr_scan", "android": "https://dc.lft.to/lastmile_qr_scan"}, "is_disabled": 0, "lon": -77.13924066666667, "name": "bcfbe8902ff4d2b1a9b9f5dcb39f3316", "fusion_lon": 0.0}, {"lat": 38.935621166666664, "fusion_lat": 0.0, "type": "electric_scooter", "bike_id": "9f4e2bb8f20207b2feff83e111fc5c4c", "is_reserved": 0, "rental_uris": {"ios": "https://dc.lft.to/lastmile_qr_scan", "android": "https://dc.lft.to/lastmile_qr_scan"}, "is_disabled": 0, "lon": -77.05841666666667, "name": "9f4e2bb8f20207b2feff83e111fc5c4c", "fusion_lon": 0.0}, {"lat": 38.897305, "fusion_lat": 0.0, "type": "electric_scooter", "bike_id": "ce830f97f137c33cbb5dac0d2c697005", "is_reserved": 0, "rental_uris": {"ios": "https://dc.lft.to/lastmile_qr_scan", "android": "https://dc.lft.to/lastmile_qr_scan"}, "is_disabled": 0, "lon": -77.04398483333334, "name": "ce830f97f137c33cbb5dac0d2c697005", "fusion_lon": 0.0}, {"lat": 38.91049866666667, "fusion_lat": 0.0, "type": "electric_scooter", "bike_id": "49b6618dd468d08db5ee32f929ec5072", "is_reserved": 0, "rental_uris": {"ios": "https://dc.lft.to/lastmile_qr_scan", "android": "https://dc.lft.to/lastmile_qr_scan"}, "is_disabled": 0, "lon": -77.04489033333333, "name": "49b6618dd468d08db5ee32f929ec5072", "fusion_lon": 0.0}, {"lat": 38.91277133333333, "fusion_lat": 0.0, "type": "electric_scooter", "bike_id": "c3a2ef211df646000f1714d799f14bee", "is_reserved": 0, "rental_uris": {"ios": "https://dc.lft.to/lastmile_qr_scan", "android": "https://dc.lft.to/lastmile_qr_scan"}, "is_disabled": 0, "lon": -77.02593333333333, "name": "c3a2ef211df646000f1714d799f14bee", "fusion_lon": 0.0}, {"lat": 38.90247433333333, "fusion_lat": 0.0, "type": "electric_scooter", "bike_id": "f6ebcc5520f94e43daf6c7c380510fbc", "is_reserved": 0, "rental_uris": {"ios": "https://dc.lft.to/lastmile_qr_scan", "android": "https://dc.lft.to/lastmile_qr_scan"}, "is_disabled": 0, "lon": -77.03960416666666, "name": "f6ebcc5520f94e43daf6c7c380510fbc", "fusion_lon": 0.0}, {"lat": 38.88459116666667, "fusion_lat": 0.0, "type": "electric_scooter", "bike_id": "41a432b9256a27a27dd7d893aa4b2f0f", "is_reserved": 0, "rental_uris": {"ios": "https://dc.lft.to/lastmile_qr_scan", "android": "https://dc.lft.to/lastmile_qr_scan"}, "is_disabled": 0, "lon": -76.957483, "name": "41a432b9256a27a27dd7d893aa4b2f0f", "fusion_lon": 0.0}, {"lat": 38.92228716666666, "fusion_lat": 0.0, "type": "electric_scooter", "bike_id": "ba23a312b17aa87856dce73e4d9e5b8d", "is_reserved": 0, "rental_uris": {"ios": "https://dc.lft.to/lastmile_qr_scan", "android": "https://dc.lft.to/lastmile_qr_scan"}, "is_disabled": 0, "lon": -77.0297945, "name": "ba23a312b17aa87856dce73e4d9e5b8d", "fusion_lon": 0.0}, {"lat": 38.90732333333333, "fusion_lat": 0.0, "type": "electric_scooter", "bike_id": "1f23f93f322b13f6feadeb41a5f226d3", "is_reserved": 0, "rental_uris": {"ios": "https://dc.lft.to/lastmile_qr_scan", "android": "https://dc.lft.to/lastmile_qr_scan"}, "is_disabled": 0, "lon": -77.0113445, "name": "1f23f93f322b13f6feadeb41a5f226d3", "fusion_lon": 0.0}, {"lat": 38.88910966666667, "fusion_lat": 0.0, "type": "electric_scooter", "bike_id": "7574a79b9f7a5bbf9f686895264d8746", "is_reserved": 0, "rental_uris": {"ios": "https://dc.lft.to/lastmile_qr_scan", "android": "https://dc.lft.to/lastmile_qr_scan"}, "is_disabled": 0, "lon": -77.052206, "name": "7574a79b9f7a5bbf9f686895264d8746", "fusion_lon": 0.0}, {"lat": 38.90859833333333, "fusion_lat": 0.0, "type": "electric_scooter", "bike_id": "8fe20f18ce61ac06d73e831e936e0e24", "is_reserved": 0, "rental_uris": {"ios": "https://dc.lft.to/lastmile_qr_scan", "android": "https://dc.lft.to/lastmile_qr_scan"}, "is_disabled": 0, "lon": -77.0242195, "name": "8fe20f18ce61ac06d73e831e936e0e24", "fusion_lon": 0.0}, {"lat": 38.90313883333334, "fusion_lat": 0.0, "type": "electric_scooter", "bike_id": "f21f36b8488e88d5d64047c2fd9abfb9", "is_reserved": 0, "rental_uris": {"ios": "https://dc.lft.to/lastmile_qr_scan", "android": "https://dc.lft.to/lastmile_qr_scan"}, "is_disabled": 0, "lon": -76.97801083333333, "name": "f21f36b8488e88d5d64047c2fd9abfb9", "fusion_lon": 0.0}, {"lat": 38.896774666666666, "fusion_lat": 0.0, "type": "electric_scooter", "bike_id": "08590b79a2aab2d82c676d6eb99994e0", "is_reserved": 0, "rental_uris": {"ios": "https://dc.lft.to/lastmile_qr_scan", "android": "https://dc.lft.to/lastmile_qr_scan"}, "is_disabled": 0, "lon": -77.02624166666666, "name": "08590b79a2aab2d82c676d6eb99994e0", "fusion_lon": 0.0}, {"lat": 38.90856316666667, "fusion_lat": 0.0, "type": "electric_scooter", "bike_id": "29d262817341c034edad1cbfa84a87ac", "is_reserved": 0, "rental_uris": {"ios": "https://dc.lft.to/lastmile_qr_scan", "android": "https://dc.lft.to/lastmile_qr_scan"}, "is_disabled": 0, "lon": -77.04766483333333, "name": "29d262817341c034edad1cbfa84a87ac", "fusion_lon": 0.0}, {"lat": 38.90941316666667, "fusion_lat": 0.0, "type": "electric_scooter", "bike_id": "4b0e4c1c26126154ece50a78577159f4", "is_reserved": 0, "rental_uris": {"ios": "https://dc.lft.to/lastmile_qr_scan", "android": "https://dc.lft.to/lastmile_qr_scan"}, "is_disabled": 0, "lon": -77.04249883333334, "name": "4b0e4c1c26126154ece50a78577159f4", "fusion_lon": 0.0}, {"lat": 38.868925833333336, "fusion_lat": 0.0, "type": "electric_bike", "bike_id": "b709003f77c7168556907e3409d280b9", "is_reserved": 0, "rental_uris": {"ios": "https://dc.lft.to/lastmile_qr_scan", "android": "https://dc.lft.to/lastmile_qr_scan"}, "is_disabled": 0, "lon": -76.957853, "name": "b709003f77c7168556907e3409d280b9", "fusion_lon": 0.0}, {"lat": 38.913357833333336, "fusion_lat": 0.0, "type": "electric_scooter", "bike_id": "bee0d2db28a1fd9ae4dd1d9ad0a773b6", "is_reserved": 0, "rental_uris": {"ios": "https://dc.lft.to/lastmile_qr_scan", "android": "https://dc.lft.to/lastmile_qr_scan"}, "is_disabled": 0, "lon": -77.04229983333333, "name": "bee0d2db28a1fd9ae4dd1d9ad0a773b6", "fusion_lon": 0.0}, {"lat": 38.906098166666666, "fusion_lat": 0.0, "type": "electric_scooter", "bike_id": "bea9050e2101414aa0a5ad4a812b84be", "is_reserved": 0, "rental_uris": {"ios": "https://dc.lft.to/lastmile_qr_scan", "android": "https://dc.lft.to/lastmile_qr_scan"}, "is_disabled": 0, "lon": -76.9927035, "name": "bea9050e2101414aa0a5ad4a812b84be", "fusion_lon": 0.0}, {"lat": 38.94512483333333, "fusion_lat": 0.0, "type": "electric_scooter", "bike_id": "137e3e44fb04d50dfe9d1e0a5e711bf9", "is_reserved": 0, "rental_uris": {"ios": "https://dc.lft.to/lastmile_qr_scan", "android": "https://dc.lft.to/lastmile_qr_scan"}, "is_disabled": 0, "lon": -77.03322466666667, "name": "137e3e44fb04d50dfe9d1e0a5e711bf9", "fusion_lon": 0.0}, {"lat": 38.90037566666667, "fusion_lat": 0.0, "type": "electric_bike", "bike_id": "02432963672795221bbba642b195f4f3", "is_reserved": 0, "rental_uris": {"ios": "https://dc.lft.to/lastmile_qr_scan", "android": "https://dc.lft.to/lastmile_qr_scan"}, "is_disabled": 0, "lon": -76.97226666666667, "name": "02432963672795221bbba642b195f4f3", "fusion_lon": 0.0}, {"lat": 38.93092716666666, "fusion_lat": 0.0, "type": "electric_scooter", "bike_id": "8a0f4c2e25f49d4286cb2d74530b6de4", "is_reserved": 0, "rental_uris": {"ios": "https://dc.lft.to/lastmile_qr_scan", "android": "https://dc.lft.to/lastmile_qr_scan"}, "is_disabled": 0, "lon": -77.02476083333333, "name": "8a0f4c2e25f49d4286cb2d74530b6de4", "fusion_lon": 0.0}, {"lat": 38.858911666666664, "fusion_lat": 0.0, "type": "electric_bike", "bike_id": "04d5eb056d0a14d0f525e75908636ba0", "is_reserved": 0, "rental_uris": {"ios": "https://dc.lft.to/lastmile_qr_scan", "android": "https://dc.lft.to/lastmile_qr_scan"}, "is_disabled": 0, "lon": -77.11860083333333, "name": "04d5eb056d0a14d0f525e75908636ba0", "fusion_lon": 0.0}, {"lat": 38.83828166666667, "fusion_lat": 0.0, "type": "electric_bike", "bike_id": "d2ab75e496d8142900d13c1d3f9c0474", "is_reserved": 0, "rental_uris": {"ios": "https://dc.lft.to/lastmile_qr_scan", "android": "https://dc.lft.to/lastmile_qr_scan"}, "is_disabled": 0, "lon": -77.0790955, "name": "d2ab75e496d8142900d13c1d3f9c0474", "fusion_lon": 0.0}, {"lat": 38.87666316666667, "fusion_lat": 0.0, "type": "electric_scooter", "bike_id": "5655a25ca96d5233dea80d50cb07af15", "is_reserved": 0, "rental_uris": {"ios": "https://dc.lft.to/lastmile_qr_scan", "android": "https://dc.lft.to/lastmile_qr_scan"}, "is_disabled": 0, "lon": -77.00429966666667, "name": "5655a25ca96d5233dea80d50cb07af15", "fusion_lon": 0.0}, {"lat": 38.909854333333335, "fusion_lat": 0.0, "type": "electric_scooter", "bike_id": "7c837b65b5cc066271500290272d36bd", "is_reserved": 0, "rental_uris": {"ios": "https://dc.lft.to/lastmile_qr_scan", "android": "https://dc.lft.to/lastmile_qr_scan"}, "is_disabled": 0, "lon": -77.04404066666666, "name": "7c837b65b5cc066271500290272d36bd", "fusion_lon": 0.0}, {"lat": 38.924219666666666, "fusion_lat": 0.0, "type": "electric_scooter", "bike_id": "7dd76f9aeea230dbca4183c855695b31", "is_reserved": 0, "rental_uris": {"ios": "https://dc.lft.to/lastmile_qr_scan", "android": "https://dc.lft.to/lastmile_qr_scan"}, "is_disabled": 0, "lon": -77.01951816666667, "name": "7dd76f9aeea230dbca4183c855695b31", "fusion_lon": 0.0}, {"lat": 38.96134633333333, "fusion_lat": 0.0, "type": "electric_bike", "bike_id": "13971220d20d93eb0509032c01d08e46", "is_reserved": 0, "rental_uris": {"ios": "https://dc.lft.to/lastmile_qr_scan", "android": "https://dc.lft.to/lastmile_qr_scan"}, "is_disabled": 0, "lon": -77.01365616666666, "name": "13971220d20d93eb0509032c01d08e46", "fusion_lon": 0.0}, {"lat": 38.908357, "fusion_lat": 0.0, "type": "electric_bike", "bike_id": "ca8e5bf3db31b3b602c18608a2cde167", "is_reserved": 0, "rental_uris": {"ios": "https://dc.lft.to/lastmile_qr_scan", "android": "https://dc.lft.to/lastmile_qr_scan"}, "is_disabled": 0, "lon": -76.933108, "name": "ca8e5bf3db31b3b602c18608a2cde167", "fusion_lon": 0.0}, {"lat": 38.884044333333335, "fusion_lat": 0.0, "type": "electric_scooter", "bike_id": "76d7830fb3e5fb8baf43581b0c32e2c8", "is_reserved": 0, "rental_uris": {"ios": "https://dc.lft.to/lastmile_qr_scan", "android": "https://dc.lft.to/lastmile_qr_scan"}, "is_disabled": 0, "lon": -76.954004, "name": "76d7830fb3e5fb8baf43581b0c32e2c8", "fusion_lon": 0.0}, {"lat": 38.892696666666666, "fusion_lat": 0.0, "type": "electric_scooter", "bike_id": "beb638d71e92ec9932ecf1a35435c2dd", "is_reserved": 0, "rental_uris": {"ios": "https://dc.lft.to/lastmile_qr_scan", "android": "https://dc.lft.to/lastmile_qr_scan"}, "is_disabled": 0, "lon": -77.00354216666666, "name": "beb638d71e92ec9932ecf1a35435c2dd", "fusion_lon": 0.0}, {"lat": 38.90982066666667, "fusion_lat": 0.0, "type": "electric_scooter", "bike_id": "d816da9d6bd2fa03dde80f4fbf94395c", "is_reserved": 0, "rental_uris": {"ios": "https://dc.lft.to/lastmile_qr_scan", "android": "https://dc.lft.to/lastmile_qr_scan"}, "is_disabled": 0, "lon": -77.03191183333334, "name": "d816da9d6bd2fa03dde80f4fbf94395c", "fusion_lon": 0.0}, {"lat": 38.92970866666667, "fusion_lat": 0.0, "type": "electric_scooter", "bike_id": "f0fae95622843af22324a8130dc11ec5", "is_reserved": 0, "rental_uris": {"ios": "https://dc.lft.to/lastmile_qr_scan", "android": "https://dc.lft.to/lastmile_qr_scan"}, "is_disabled": 0, "lon": -77.028238, "name": "f0fae95622843af22324a8130dc11ec5", "fusion_lon": 0.0}, {"lat": 38.920166, "fusion_lat": 0.0, "type": "electric_scooter", "bike_id": "cae96c08365a626e0a312c417d93b253", "is_reserved": 0, "rental_uris": {"ios": "https://dc.lft.to/lastmile_qr_scan", "android": "https://dc.lft.to/lastmile_qr_scan"}, "is_disabled": 0, "lon": -77.0419545, "name": "cae96c08365a626e0a312c417d93b253", "fusion_lon": 0.0}, {"lat": 38.9404045, "fusion_lat": 0.0, "type": "electric_scooter", "bike_id": "cbc0bee73cb73e628440263d279a90d3", "is_reserved": 0, "rental_uris": {"ios": "https://dc.lft.to/lastmile_qr_scan", "android": "https://dc.lft.to/lastmile_qr_scan"}, "is_disabled": 0, "lon": -77.02912533333334, "name": "cbc0bee73cb73e628440263d279a90d3", "fusion_lon": 0.0}, {"lat": 38.896711, "fusion_lat": 0.0, "type": "electric_scooter", "bike_id": "566316ca144511c837bede2f18fdcbaa", "is_reserved": 0, "rental_uris": {"ios": "https://dc.lft.to/lastmile_qr_scan", "android": "https://dc.lft.to/lastmile_qr_scan"}, "is_disabled": 0, "lon": -77.0262105, "name": "566316ca144511c837bede2f18fdcbaa", "fusion_lon": 0.0}, {"lat": 38.91068116666667, "fusion_lat": 0.0, "type": "electric_scooter", "bike_id": "606ddcf322b200b2ba820d0dd0291d63", "is_reserved": 0, "rental_uris": {"ios": "https://dc.lft.to/lastmile_qr_scan", "android": "https://dc.lft.to/lastmile_qr_scan"}, "is_disabled": 0, "lon": -77.03843033333334, "name": "606ddcf322b200b2ba820d0dd0291d63", "fusion_lon": 0.0}, {"lat": 38.928636833333336, "fusion_lat": 0.0, "type": "electric_scooter", "bike_id": "340f27bc0530172ef450a32a7765fa63", "is_reserved": 0, "rental_uris": {"ios": "https://dc.lft.to/lastmile_qr_scan", "android": "https://dc.lft.to/lastmile_qr_scan"}, "is_disabled": 0, "lon": -77.03295816666666, "name": "340f27bc0530172ef450a32a7765fa63", "fusion_lon": 0.0}, {"lat": 38.903674333333335, "fusion_lat": 0.0, "type": "electric_scooter", "bike_id": "4aa5ba54ff4107f1a0a51c360339b350", "is_reserved": 0, "rental_uris": {"ios": "https://dc.lft.to/lastmile_qr_scan", "android": "https://dc.lft.to/lastmile_qr_scan"}, "is_disabled": 0, "lon": -77.05301183333333, "name": "4aa5ba54ff4107f1a0a51c360339b350", "fusion_lon": 0.0}, {"lat": 38.9008385, "fusion_lat": 0.0, "type": "electric_scooter", "bike_id": "d717a455bf2ed34f7b3e9b60516c2f08", "is_reserved": 0, "rental_uris": {"ios": "https://dc.lft.to/lastmile_qr_scan", "android": "https://dc.lft.to/lastmile_qr_scan"}, "is_disabled": 0, "lon": -77.05028483333334, "name": "d717a455bf2ed34f7b3e9b60516c2f08", "fusion_lon": 0.0}, {"lat": 38.9367265, "fusion_lat": 0.0, "type": "electric_scooter", "bike_id": "7342707c7ecc2cfd6dcb2c24e8a5e88d", "is_reserved": 0, "rental_uris": {"ios": "https://dc.lft.to/lastmile_qr_scan", "android": "https://dc.lft.to/lastmile_qr_scan"}, "is_disabled": 0, "lon": -77.0358985, "name": "7342707c7ecc2cfd6dcb2c24e8a5e88d", "fusion_lon": 0.0}, {"lat": 38.922426, "fusion_lat": 0.0, "type": "electric_scooter", "bike_id": "c5addaeb047fad280197b84be284f385", "is_reserved": 0, "rental_uris": {"ios": "https://dc.lft.to/lastmile_qr_scan", "android": "https://dc.lft.to/lastmile_qr_scan"}, "is_disabled": 0, "lon": -77.02853666666667, "name": "c5addaeb047fad280197b84be284f385", "fusion_lon": 0.0}, {"lat": 38.908402833333334, "fusion_lat": 0.0, "type": "electric_scooter", "bike_id": "8374ab1f353d921252360ace2c3a1d2a", "is_reserved": 0, "rental_uris": {"ios": "https://dc.lft.to/lastmile_qr_scan", "android": "https://dc.lft.to/lastmile_qr_scan"}, "is_disabled": 0, "lon": -77.040097, "name": "8374ab1f353d921252360ace2c3a1d2a", "fusion_lon": 0.0}, {"lat": 38.88603833333333, "fusion_lat": 0.0, "type": "electric_scooter", "bike_id": "8f83e25b7e9bda3ba592cba05446dc2a", "is_reserved": 0, "rental_uris": {"ios": "https://dc.lft.to/lastmile_qr_scan", "android": "https://dc.lft.to/lastmile_qr_scan"}, "is_disabled": 0, "lon": -76.99102033333334, "name": "8f83e25b7e9bda3ba592cba05446dc2a", "fusion_lon": 0.0}, {"lat": 38.922845833333334, "fusion_lat": 0.0, "type": "electric_scooter", "bike_id": "c98030eb6f8ab599d13c996a53735b44", "is_reserved": 0, "rental_uris": {"ios": "https://dc.lft.to/lastmile_qr_scan", "android": "https://dc.lft.to/lastmile_qr_scan"}, "is_disabled": 0, "lon": -77.0184665, "name": "c98030eb6f8ab599d13c996a53735b44", "fusion_lon": 0.0}, {"lat": 38.90968433333333, "fusion_lat": 0.0, "type": "electric_scooter", "bike_id": "e5cc411314ab21a4e956bbb29304bb46", "is_reserved": 0, "rental_uris": {"ios": "https://dc.lft.to/lastmile_qr_scan", "android": "https://dc.lft.to/lastmile_qr_scan"}, "is_disabled": 0, "lon": -77.03598383333333, "name": "e5cc411314ab21a4e956bbb29304bb46", "fusion_lon": 0.0}, {"lat": 38.915786, "fusion_lat": 0.0, "type": "electric_scooter", "bike_id": "a798beb220bfb2acce62182d06462957", "is_reserved": 0, "rental_uris": {"ios": "https://dc.lft.to/lastmile_qr_scan", "android": "https://dc.lft.to/lastmile_qr_scan"}, "is_disabled": 0, "lon": -77.012314, "name": "a798beb220bfb2acce62182d06462957", "fusion_lon": 0.0}, {"lat": 38.916939666666664, "fusion_lat": 0.0, "type": "electric_scooter", "bike_id": "f82fbe5bf35d4767d9803dce92c67f65", "is_reserved": 0, "rental_uris": {"ios": "https://dc.lft.to/lastmile_qr_scan", "android": "https://dc.lft.to/lastmile_qr_scan"}, "is_disabled": 0, "lon": -77.01051066666666, "name": "f82fbe5bf35d4767d9803dce92c67f65", "fusion_lon": 0.0}, {"lat": 38.92703016666667, "fusion_lat": 0.0, "type": "electric_scooter", "bike_id": "8de6bddad120db529a7b1f367c956413", "is_reserved": 0, "rental_uris": {"ios": "https://dc.lft.to/lastmile_qr_scan", "android": "https://dc.lft.to/lastmile_qr_scan"}, "is_disabled": 0, "lon": -77.024279, "name": "8de6bddad120db529a7b1f367c956413", "fusion_lon": 0.0}, {"lat": 38.9162215, "fusion_lat": 0.0, "type": "electric_scooter", "bike_id": "eb62c7afd7bf49eae863f542de763d26", "is_reserved": 0, "rental_uris": {"ios": "https://dc.lft.to/lastmile_qr_scan", "android": "https://dc.lft.to/lastmile_qr_scan"}, "is_disabled": 0, "lon": -77.038544, "name": "eb62c7afd7bf49eae863f542de763d26", "fusion_lon": 0.0}, {"lat": 38.919595, "fusion_lat": 0.0, "type": "electric_scooter", "bike_id": "763b105b6e260d3e161e8d503e1a8810", "is_reserved": 0, "rental_uris": {"ios": "https://dc.lft.to/lastmile_qr_scan", "android": "https://dc.lft.to/lastmile_qr_scan"}, "is_disabled": 0, "lon": -77.034775, "name": "763b105b6e260d3e161e8d503e1a8810", "fusion_lon": 0.0}, {"lat": 38.916895, "fusion_lat": 0.0, "type": "electric_scooter", "bike_id": "8e97251202da30dd4afb1f9d7c51f0db", "is_reserved": 0, "rental_uris": {"ios": "https://dc.lft.to/lastmile_qr_scan", "android": "https://dc.lft.to/lastmile_qr_scan"}, "is_disabled": 0, "lon": -77.02513633333334, "name": "8e97251202da30dd4afb1f9d7c51f0db", "fusion_lon": 0.0}, {"lat": 38.9934685, "fusion_lat": 0.0, "type": "electric_bike", "bike_id": "749d7a4dd8c87bd1d9f938d51f480a3b", "is_reserved": 0, "rental_uris": {"ios": "https://dc.lft.to/lastmile_qr_scan", "android": "https://dc.lft.to/lastmile_qr_scan"}, "is_disabled": 0, "lon": -77.11573366666667, "name": "749d7a4dd8c87bd1d9f938d51f480a3b", "fusion_lon": 0.0}, {"lat": 38.918149, "fusion_lat": 0.0, "type": "electric_scooter", "bike_id": "678dbf7e40f5b375e72b3634217628aa", "is_reserved": 0, "rental_uris": {"ios": "https://dc.lft.to/lastmile_qr_scan", "android": "https://dc.lft.to/lastmile_qr_scan"}, "is_disabled": 0, "lon": -77.04000333333333, "name": "678dbf7e40f5b375e72b3634217628aa", "fusion_lon": 0.0}, {"lat": 38.941790833333336, "fusion_lat": 0.0, "type": "electric_scooter", "bike_id": "6c3a4db5afc6873e8c2f59d1dbc1426a", "is_reserved": 0, "rental_uris": {"ios": "https://dc.lft.to/lastmile_qr_scan", "android": "https://dc.lft.to/lastmile_qr_scan"}, "is_disabled": 0, "lon": -77.027931, "name": "6c3a4db5afc6873e8c2f59d1dbc1426a", "fusion_lon": 0.0}, {"lat": 38.9221615, "fusion_lat": 0.0, "type": "electric_scooter", "bike_id": "28585bc052fb467c0a11f32760bdb2ef", "is_reserved": 0, "rental_uris": {"ios": "https://dc.lft.to/lastmile_qr_scan", "android": "https://dc.lft.to/lastmile_qr_scan"}, "is_disabled": 0, "lon": -77.0329555, "name": "28585bc052fb467c0a11f32760bdb2ef", "fusion_lon": 0.0},