{"data": {"bikes": [{"name": "36f7d8fe9a97dff9d7e746b144087dc9", "fusion_lat": 0.0, "type": "electric_scooter", "lat": 38.90978783333333, "is_reserved": 0, "is_disabled": 0, "fusion_lon": 0.0, "bike_id": "36f7d8fe9a97dff9d7e746b144087dc9", "lon": -77.0122685, "rental_uris": {"ios": "https://dc.lft.to/lastmile_qr_scan", "android": "https://dc.lft.to/lastmile_qr_scan"}}, {"name": "b50714d2b50045de1d8d6bf16d529da0", "fusion_lat": 0.0, "type": "electric_scooter", "lat": 38.9204665, "is_reserved": 0, "is_disabled": 0, "fusion_lon": 0.0, "bike_id": "b50714d2b50045de1d8d6bf16d529da0", "lon": -77.030213, "rental_uris": {"ios": "https://dc.lft.to/lastmile_qr_scan", "android": "https://dc.lft.to/lastmile_qr_scan"}}, {"name": "072ac87b7d9f70c2c3f73a5ad6c3a41d", "fusion_lat": 0.0, "type": "electric_scooter", "lat": 38.887298, "is_reserved": 0, "is_disabled": 0, "fusion_lon": 0.0, "bike_id": "072ac87b7d9f70c2c3f73a5ad6c3a41d", "lon": -77.02841516666666, "rental_uris": {"ios": "https://dc.lft.to/lastmile_qr_scan", "android": "https://dc.lft.to/lastmile_qr_scan"}}, {"name": "f916a2c755c0b023650ee533e60471c7", "fusion_lat": 0.0, "type": "electric_scooter", "lat": 38.91522633333334, "is_reserved": 0, "is_disabled": 0, "fusion_lon": 0.0, "bike_id": "f916a2c755c0b023650ee533e60471c7", "lon": -77.014198, "rental_uris": {"ios": "https://dc.lft.to/lastmile_qr_scan", "android": "https://dc.lft.to/lastmile_qr_scan"}}, {"name": "0591af3c703426208e18267d0b899dbf", "fusion_lat": 0.0, "type": "electric_scooter", "lat": 38.90336833333333, "is_reserved": 0, "is_disabled": 0, "fusion_lon": 0.0, "bike_id": "0591af3c703426208e18267d0b899dbf", "lon": -76.988217, "rental_uris": {"ios": "https://dc.lft.to/lastmile_qr_scan", "android": "https://dc.lft.to/lastmile_qr_scan"}}, {"name": "c64281ad36de5b93c4455e2579d277e9", "fusion_lat": 0.0, "type": "electric_scooter", "lat": 38.923953833333336, "is_reserved": 0, "is_disabled": 0, "fusion_lon": 0.0, "bike_id": "c64281ad36de5b93c4455e2579d277e9", "lon": -77.027582, "rental_uris": {"ios": "https://dc.lft.to/lastmile_qr_scan", "android": "https://dc.lft.to/lastmile_qr_scan"}}, {"name": "071e71836e162ecd267c9b3ce7ac1883", "fusion_lat": 0.0, "type": "electric_scooter", "lat": 38.91137033333333, "is_reserved": 0, "is_disabled": 0, "fusion_lon": 0.0, "bike_id": "071e71836e162ecd267c9b3ce7ac1883", "lon": -77.04189083333333, "rental_uris": {"ios": "https://dc.lft.to/lastmile_qr_scan", "android": "https://dc.lft.to/lastmile_qr_scan"}}, {"name": "c1bfa2cdb6b48dda3cf555fce21a2e87", "fusion_lat": 0.0, "type": "electric_scooter", "lat": 38.8988895, "is_reserved": 0, "is_disabled": 0, "fusion_lon": 0.0, "bike_id": "c1bfa2cdb6b48dda3cf555fce21a2e87", "lon": -76.933044, "rental_uris": {"ios": "https://dc.lft.to/lastmile_qr_scan", "android": "https://dc.lft.to/lastmile_qr_scan"}}, {"name": "dfa42c217b0f140babfc3e7e2626378f", "fusion_lat": 0.0, "type": "electric_scooter", "lat": 38.916571, "is_reserved": 0, "is_disabled": 0, "fusion_lon": 0.0, "bike_id": "dfa42c217b0f140babfc3e7e2626378f", "lon": -77.09550316666666, "rental_uris": {"ios": "https://dc.lft.to/lastmile_qr_scan", "android": "https://dc.lft.to/lastmile_qr_scan"}}, {"name": "4d2044bef2bfc296227fb06ac0b09dd6", "fusion_lat": 0.0, "type": "electric_scooter", "lat": 38.93608066666667, "is_reserved": 0, "is_disabled": 0, "fusion_lon": 0.0, "bike_id": "4d2044bef2bfc296227fb06ac0b09dd6", "lon": -77.05865183333333, "rental_uris": {"ios": "https://dc.lft.to/lastmile_qr_scan", "android": "https://dc.lft.to/lastmile_qr_scan"}}, {"name": "299d1d2ce2f132ff7bb2954748c1e8d8", "fusion_lat": 0.0, "type": "electric_scooter", "lat": 38.906628166666664, "is_reserved": 0, "is_disabled": 0, "fusion_lon": 0.0, "bike_id": "299d1d2ce2f132ff7bb2954748c1e8d8", "lon": -76.98585916666667, "rental_uris": {"ios": "https://dc.lft.to/lastmile_qr_scan", "android": "https://dc.lft.to/lastmile_qr_scan"}}, {"name": "57e4c37e6fc13504a2a92c4aa0502796", "fusion_lat": 0.0, "type": "electric_scooter", "lat": 38.89958633333333, "is_reserved": 0, "is_disabled": 0, "fusion_lon": 0.0, "bike_id": "57e4c37e6fc13504a2a92c4aa0502796", "lon": -76.98572666666666, "rental_uris": {"ios": "https://dc.lft.to/lastmile_qr_scan", "android": "https://dc.lft.to/lastmile_qr_scan"}}, {"name": "1c2523dec5f194cdea606fe6dc49e1fc", "fusion_lat": 0.0, "type": "electric_scooter", "lat": 38.932846833333336, "is_reserved": 0, "is_disabled": 0, "fusion_lon": 0.0, "bike_id": "1c2523dec5f194cdea606fe6dc49e1fc", "lon": -77.0363565, "rental_uris": {"ios": "https://dc.lft.to/lastmile_qr_scan", "android": "https://dc.lft.to/lastmile_qr_scan"}}, {"name": "ae0a096ccbaeb2ac30983f886859b05d", "fusion_lat": 0.0, "type": "electric_bike", "lat": 38.845733, "is_reserved": 0, "is_disabled": 0, "fusion_lon": 0.0, "bike_id": "ae0a096ccbaeb2ac30983f886859b05d", "lon": -77.09622266666666, "rental_uris": {"ios": "https://dc.lft.to/lastmile_qr_scan", "android": "https://dc.lft.to/lastmile_qr_scan"}}, {"name": "55142d31da071226fdff91a5dfbf9bca", "fusion_lat": 0.0, "type": "electric_scooter", "lat": 38.922253, "is_reserved": 0, "is_disabled": 0, "fusion_lon": 0.0, "bike_id": "55142d31da071226fdff91a5dfbf9bca", "lon": -77.04714383333334, "rental_uris": {"ios": "https://dc.lft.to/lastmile_qr_scan", "android": "https://dc.lft.to/lastmile_qr_scan"}}, {"name": "94680de123afe748d9222fb94ab09b32", "fusion_lat": 0.0, "type": "electric_bike", "lat": 38.999118833333334, "is_reserved": 0, "is_disabled": 0, "fusion_lon": 0.0, "bike_id": "94680de123afe748d9222fb94ab09b32", "lon": -77.04622166666667, "rental_uris": {"ios": "https://dc.lft.to/lastmile_qr_scan", "android": "https://dc.lft.to/lastmile_qr_scan"}}, {"name": "3757ea4735c3009f7e91525f0d8acdbe", "fusion_lat": 0.0, "type": "electric_scooter", "lat": 38.878075833333334, "is_reserved": 0, "is_disabled": 0, "fusion_lon": 0.0, "bike_id": "3757ea4735c3009f7e91525f0d8acdbe", "lon": -77.0060285, "rental_uris": {"ios": "https://dc.lft.to/lastmile_qr_scan", "android": "https://dc.lft.to/lastmile_qr_scan"}}, {"name": "448cacc53933c3ee4db13538274991e2", "fusion_lat": 0.0, "type": "electric_scooter", "lat": 38.93707083333334, "is_reserved": 0, "is_disabled": 0, "fusion_lon": 0.0, "bike_id": "448cacc53933c3ee4db13538274991e2", "lon": -77.06101816666667, "rental_uris": {"ios": "https://dc.lft.to/lastmile_qr_scan", "android": "https://dc.lft.to/lastmile_qr_scan"}}, {"name": "0158897538c287aa319fbc19359a5e24", "fusion_lat": 0.0, "type": "electric_bike", "lat": 38.973782166666666, "is_reserved": 0, "is_disabled": 0, "fusion_lon": 0.0, "bike_id": "0158897538c287aa319fbc19359a5e24", "lon": -77.064737, "rental_uris": {"ios": "https://dc.lft.to/lastmile_qr_scan", "android": "https://dc.lft.to/lastmile_qr_scan"}}, {"name": "587a4453a931f6f2e0c1737ce8e2bf58", "fusion_lat": 0.0, "type": "electric_scooter", "lat": 38.895980333333334, "is_reserved": 0, "is_disabled": 0, "fusion_lon": 0.0, "bike_id": "587a4453a931f6f2e0c1737ce8e2bf58", "lon": -77.02686916666667, "rental_uris": {"ios": "https://dc.lft.to/lastmile_qr_scan", "android": "https://dc.lft.to/lastmile_qr_scan"}}, {"name": "d945bd9aa8699899faa1d413f9f3a071", "fusion_lat": 0.0, "type": "electric_scooter", "lat": 38.93113233333333, "is_reserved": 0, "is_disabled": 0, "fusion_lon": 0.0, "bike_id": "d945bd9aa8699899faa1d413f9f3a071", "lon": -77.03813216666667, "rental_uris": {"ios": "https://dc.lft.to/lastmile_qr_scan", "android": "https://dc.lft.to/lastmile_qr_scan"}}, {"name": "abe2fed19de78121a2c5a2d35ac34256", "fusion_lat": 0.0, "type": "electric_scooter", "lat": 38.87891916666667, "is_reserved": 0, "is_disabled": 0, "fusion_lon": 0.0, "bike_id": "abe2fed19de78121a2c5a2d35ac34256", "lon": -77.0057015, "rental_uris": {"ios": "https://dc.lft.to/lastmile_qr_scan", "android": "https://dc.lft.to/lastmile_qr_scan"}}, {"name": "df642608a92f461d57444b0ff693d04a", "fusion_lat": 0.0, "type": "electric_scooter", "lat": 38.933934666666666, "is_reserved": 0, "is_disabled": 0, "fusion_lon": 0.0, "bike_id": "df642608a92f461d57444b0ff693d04a", "lon": -77.035827, "rental_uris": {"ios": "https://dc.lft.to/lastmile_qr_scan", "android": "https://dc.lft.to/lastmile_qr_scan"}}, {"name": "ab54ae3243a5593ac24e86329fa138a3", "fusion_lat": 0.0, "type": "electric_scooter", "lat": 38.94462266666667, "is_reserved": 0, "is_disabled": 0, "fusion_lon": 0.0, "bike_id": "ab54ae3243a5593ac24e86329fa138a3", "lon": -77.0065555, "rental_uris": {"ios": "https://dc.lft.to/lastmile_qr_scan", "android": "https://dc.lft.to/lastmile_qr_scan"}}, {"name": "9d24acbfba8579faf10fb397ed6fb5aa", "fusion_lat": 0.0, "type": "electric_scooter", "lat": 38.899479, "is_reserved": 0, "is_disabled": 0, "fusion_lon": 0.0, "bike_id": "9d24acbfba8579faf10fb397ed6fb5aa", "lon": -77.02809033333334, "rental_uris": {"ios": "https://dc.lft.to/lastmile_qr_scan", "android": "https://dc.lft.to/lastmile_qr_scan"}}, {"name": "6686a84939e77f632b9f41eebbdb59aa", "fusion_lat": 0.0, "type": "electric_scooter", "lat": 38.927080833333335, "is_reserved": 0, "is_disabled": 0, "fusion_lon": 0.0, "bike_id": "6686a84939e77f632b9f41eebbdb59aa", "lon": -77.0373115, "rental_uris": {"ios": "https://dc.lft.to/lastmile_qr_scan", "android": "https://dc.lft.to/lastmile_qr_scan"}}, {"name": "d69e9d7fcf1704ba0557f3f07d20f626", "fusion_lat": 0.0, "type": "electric_bike", "lat": 38.953034, "is_reserved": 0, "is_disabled": 0, "fusion_lon": 0.0, "bike_id": "d69e9d7fcf1704ba0557f3f07d20f626", "lon": -77.02511933333334, "rental_uris": {"ios": "https://dc.lft.to/lastmile_qr_scan", "android": "https://dc.lft.to/lastmile_qr_scan"}}, {"name": "a68fb39296d88d0729b1d49035a08ec8", "fusion_lat": 0.0, "type": "electric_scooter", "lat": 38.91293683333333, "is_reserved": 0, "is_disabled": 0, "fusion_lon": 0.0, "bike_id": "a68fb39296d88d0729b1d49035a08ec8", "lon": -77.02969633333333, "rental_uris": {"ios": "https://dc.lft.to/lastmile_qr_scan", "android": "https://dc.lft.to/lastmile_qr_scan"}}, {"name": "0061cf515b02f45d0511c1fb0febc936", "fusion_lat": 0.0, "type": "electric_scooter", "lat": 38.895883166666664, "is_reserved": 0, "is_disabled": 0, "fusion_lon": 0.0, "bike_id": "0061cf515b02f45d0511c1fb0febc936", "lon": -77.04331966666666, "rental_uris": {"ios": "https://dc.lft.to/lastmile_qr_scan", "android": "https://dc.lft.to/lastmile_qr_scan"}}, {"name": "a8104425cfae2b3c716b8dfe0f503b4e", "fusion_lat": 0.0, "type": "electric_bike", "lat": 38.93582283333333, "is_reserved": 0, "is_disabled": 0, "fusion_lon": 0.0, "bike_id": "a8104425cfae2b3c716b8dfe0f503b4e", "lon": -77.10683833333333, "rental_uris": {"ios": "https://dc.lft.to/lastmile_qr_scan", "android": "https://dc.lft.to/lastmile_qr_scan"}}, {"name": "6183dd07c9f4cd0173fd8d1d07d3dd7c", "fusion_lat": 0.0, "type": "electric_scooter", "lat": 38.91816216666667, "is_reserved": 0, "is_disabled": 0, "fusion_lon": 0.0, "bike_id": "6183dd07c9f4cd0173fd8d1d07d3dd7c", "lon": -77.0025795, "rental_uris": {"ios": "https://dc.lft.to/lastmile_qr_scan", "android": "https://dc.lft.to/lastmile_qr_scan"}}, {"name": "24842e5a7e0bc1cd2c210038f1f8e5ef", "fusion_lat": 0.0, "type": "electric_scooter", "lat": 38.930551, "is_reserved": 0, "is_disabled": 0, "fusion_lon": 0.0, "bike_id": "24842e5a7e0bc1cd2c210038f1f8e5ef", "lon": -77.0232025, "rental_uris": {"ios": "https://dc.lft.to/lastmile_qr_scan", "android": "https://dc.lft.to/lastmile_qr_scan"}}, {"name": "e50b581764de2f7615be260f205ba46d", "fusion_lat": 0.0, "type": "electric_scooter", "lat": 38.88340916666667, "is_reserved": 0, "is_disabled": 0, "fusion_lon": 0.0, "bike_id": "e50b581764de2f7615be260f205ba46d", "lon": -76.93644566666667, "rental_uris": {"ios": "https://dc.lft.to/lastmile_qr_scan", "android": "https://dc.lft.to/lastmile_qr_scan"}}, {"name": "407d6b4fc4ff541e6de222ecedd67fa1", "fusion_lat": 0.0, "type": "electric_scooter", "lat": 38.911871, "is_reserved": 0, "is_disabled": 0, "fusion_lon": 0.0, "bike_id": "407d6b4fc4ff541e6de222ecedd67fa1", "lon": -77.03217883333333, "rental_uris": {"ios": "https://dc.lft.to/lastmile_qr_scan", "android": "https://dc.lft.to/lastmile_qr_scan"}}, {"name": "2fbb34bc92306233f303f0d46ec4cde5", "fusion_lat": 0.0, "type": "electric_scooter", "lat": 38.92552933333333, "is_reserved": 0, "is_disabled": 0, "fusion_lon": 0.0, "bike_id": "2fbb34bc92306233f303f0d46ec4cde5", "lon": -77.03260266666666, "rental_uris": {"ios": "https://dc.lft.to/lastmile_qr_scan", "android": "https://dc.lft.to/lastmile_qr_scan"}}, {"name": "3535d50c5dee354a7e269551cd7655d7", "fusion_lat": 0.0, "type": "electric_scooter", "lat": 38.90240083333333, "is_reserved": 0, "is_disabled": 0, "fusion_lon": 0.0, "bike_id": "3535d50c5dee354a7e269551cd7655d7", "lon": -77.042773, "rental_uris": {"ios": "https://dc.lft.to/lastmile_qr_scan", "android": "https://dc.lft.to/lastmile_qr_scan"}}, {"name": "55c1f7760bf98c1eb7786fcc96d31456", "fusion_lat": 0.0, "type": "electric_scooter", "lat": 38.91253283333333, "is_reserved": 0, "is_disabled": 0, "fusion_lon": 0.0, "bike_id": "55c1f7760bf98c1eb7786fcc96d31456", "lon": -77.0076655, "rental_uris": {"ios": "https://dc.lft.to/lastmile_qr_scan", "android": "https://dc.lft.to/lastmile_qr_scan"}}, {"name": "687829c8ec435526303b6bd703fe523d", "fusion_lat": 0.0, "type": "electric_scooter", "lat": 38.905092833333335, "is_reserved": 0, "is_disabled": 0, "fusion_lon": 0.0, "bike_id": "687829c8ec435526303b6bd703fe523d", "lon": -77.06682666666667, "rental_uris": {"ios": "https://dc.lft.to/lastmile_qr_scan", "android": "https://dc.lft.to/lastmile_qr_scan"}}, {"name": "edba17bd4bdf51bbfee3f9e8343d6609", "fusion_lat": 0.0, "type": "electric_scooter", "lat": 38.899103333333336, "is_reserved": 0, "is_disabled": 0, "fusion_lon": 0.0, "bike_id": "edba17bd4bdf51bbfee3f9e8343d6609", "lon": -76.933724, "rental_uris": {"ios": "https://dc.lft.to/lastmile_qr_scan", "android": "https://dc.lft.to/lastmile_qr_scan"}}, {"name": "f22a71a90f91e37f83d8811abd843531", "fusion_lat": 0.0, "type": "electric_scooter", "lat": 38.876249666666666, "is_reserved": 0, "is_disabled": 0, "fusion_lon": 0.0, "bike_id": "f22a71a90f91e37f83d8811abd843531", "lon": -77.00725466666667, "rental_uris": {"ios": "https://dc.lft.to/lastmile_qr_scan", "android": "https://dc.lft.to/lastmile_qr_scan"}}, {"name": "2a72dbf9bc5e913617a25a59823af872", "fusion_lat": 0.0, "type": "electric_scooter", "lat": 38.884591, "is_reserved": 0, "is_disabled": 0, "fusion_lon": 0.0, "bike_id": "2a72dbf9bc5e913617a25a59823af872", "lon": -76.92469783333334, "rental_uris": {"ios": "https://dc.lft.to/lastmile_qr_scan", "android": "https://dc.lft.to/lastmile_qr_scan"}}, {"name": "aa31ab55d4083a6010b4b1d887f2994b", "fusion_lat": 0.0, "type": "electric_scooter", "lat": 38.91637583333333, "is_reserved": 0, "is_disabled": 0, "fusion_lon": 0.0, "bike_id": "aa31ab55d4083a6010b4b1d887f2994b", "lon": -77.04817233333333, "rental_uris": {"ios": "https://dc.lft.to/lastmile_qr_scan", "android": "https://dc.lft.to/lastmile_qr_scan"}}, {"name": "e6fe71c3bfa950377fbe481f897c04d1", "fusion_lat": 0.0, "type": "electric_bike", "lat": 38.87528266666666, "is_reserved": 0, "is_disabled": 0, "fusion_lon": 0.0, "bike_id": "e6fe71c3bfa950377fbe481f897c04d1", "lon": -77.19909033333333, "rental_uris": {"ios": "https://dc.lft.to/lastmile_qr_scan", "android": "https://dc.lft.to/lastmile_qr_scan"}}, {"name": "58988787afbf29db5848c3b25924eac2", "fusion_lat": 0.0, "type": "electric_scooter", "lat": 38.87926233333334, "is_reserved": 0, "is_disabled": 0, "fusion_lon": 0.0, "bike_id": "58988787afbf29db5848c3b25924eac2", "lon": -77.02105783333333, "rental_uris": {"ios": "https://dc.lft.to/lastmile_qr_scan", "android": "https://dc.lft.to/lastmile_qr_scan"}}, {"name": "ece76bb058c2a80f2ea982957c71ea9c", "fusion_lat": 0.0, "type": "electric_bike", "lat": 39.094623, "is_reserved": 0, "is_disabled": 0, "fusion_lon": 0.0, "bike_id": "ece76bb058c2a80f2ea982957c71ea9c", "lon": -77.14993933333334, "rental_uris": {"ios": "https://dc.lft.to/lastmile_qr_scan", "android": "https://dc.lft.to/lastmile_qr_scan"}}, {"name": "3ee0c47543eb1165b051e1d5077c5b58", "fusion_lat": 0.0, "type": "electric_scooter", "lat": 38.9272635, "is_reserved": 0, "is_disabled": 0, "fusion_lon": 0.0, "bike_id": "3ee0c47543eb1165b051e1d5077c5b58", "lon": -77.0056725, "rental_uris": {"ios": "https://dc.lft.to/lastmile_qr_scan", "android": "https://dc.lft.to/lastmile_qr_scan"}}, {"name": "3c45c6709bceb8e41b1309cca04b5ccd", "fusion_lat": 0.0, "type": "electric_scooter", "lat": 38.90073433333333, "is_reserved": 0, "is_disabled": 0, "fusion_lon": 0.0, "bike_id": "3c45c6709bceb8e41b1309cca04b5ccd", "lon": -77.04888066666666, "rental_uris": {"ios": "https://dc.lft.to/lastmile_qr_scan", "android": "https://dc.lft.to/lastmile_qr_scan"}}, {"name": "82c77cab949d44730a9ccc95f16690c5", "fusion_lat": 0.0, "type": "electric_bike", "lat": 38.857915166666665, "is_reserved": 0, "is_disabled": 0, "fusion_lon": 0.0, "bike_id": "82c77cab949d44730a9ccc95f16690c5", "lon": -77.09961583333333, "rental_uris": {"ios": "https://dc.lft.to/lastmile_qr_scan", "android": "https://dc.lft.to/lastmile_qr_scan"}}, {"name": "3166a35676b464e20bf991cc6435e8db", "fusion_lat": 0.0, "type": "electric_scooter", "lat": 38.9156395, "is_reserved": 0, "is_disabled": 0, "fusion_lon": 0.0, "bike_id": "3166a35676b464e20bf991cc6435e8db", "lon": -77.03161116666666, "rental_uris": {"ios": "https://dc.lft.to/lastmile_qr_scan", "android": "https://dc.lft.to/lastmile_qr_scan"}}, {"name": "5cfe3275dfe53db8e4954d957010f5e1", "fusion_lat": 0.0, "type": "electric_scooter", "lat": 38.9297415, "is_reserved": 0, "is_disabled": 0, "fusion_lon": 0.0, "bike_id": "5cfe3275dfe53db8e4954d957010f5e1", "lon": -77.01813016666667, "rental_uris": {"ios": "https://dc.lft.to/lastmile_qr_scan", "android": "https://dc.lft.to/lastmile_qr_scan"}}, {"name": "4233fd7ccdc8c842984003b90562a950", "fusion_lat": 0.0, "type": "electric_scooter", "lat": 38.876447166666665, "is_reserved": 0, "is_disabled": 0, "fusion_lon": 0.0, "bike_id": "4233fd7ccdc8c842984003b90562a950", "lon": -77.01570883333333, "rental_uris": {"ios": "https://dc.lft.to/lastmile_qr_scan", "android": "https://dc.lft.to/lastmile_qr_scan"}}, {"name": "523980bb132e90f2c455461a09149c1d", "fusion_lat": 0.0, "type": "electric_scooter", "lat": 38.86504933333333, "is_reserved": 0, "is_disabled": 0, "fusion_lon": 0.0, "bike_id": "523980bb132e90f2c455461a09149c1d", "lon": -76.99001633333333, "rental_uris": {"ios": "https://dc.lft.to/lastmile_qr_scan", "android": "https://dc.lft.to/lastmile_qr_scan"}}, {"name": "db0d1be050e1c7bc6585328264e332b6", "fusion_lat": 0.0, "type": "electric_scooter", "lat": 38.897080833333334, "is_reserved": 0, "is_disabled": 0, "fusion_lon": 0.0, "bike_id": "db0d1be050e1c7bc6585328264e332b6", "lon": -77.01967066666667, "rental_uris": {"ios": "https://dc.lft.to/lastmile_qr_scan", "android": "https://dc.lft.to/lastmile_qr_scan"}}, {"name": "64615a656f11655951289324ee2e7a7b", "fusion_lat": 0.0, "type": "electric_scooter", "lat": 38.90573416666667, "is_reserved": 0, "is_disabled": 0, "fusion_lon": 0.0, "bike_id": "64615a656f11655951289324ee2e7a7b", "lon": -77.02218466666666, "rental_uris": {"ios": "https://dc.lft.to/lastmile_qr_scan", "android": "https://dc.lft.to/lastmile_qr_scan"}}, {"name": "caf7b792c9a5fd1f456b0478dfd66ad3", "fusion_lat": 0.0, "type": "electric_scooter", "lat": 38.89458533333333, "is_reserved": 0, "is_disabled": 0, "fusion_lon": 0.0, "bike_id": "caf7b792c9a5fd1f456b0478dfd66ad3", "lon": -77.03088116666666, "rental_uris": {"ios": "https://dc.lft.to/lastmile_qr_scan", "android": "https://dc.lft.to/lastmile_qr_scan"}}, {"name": "d4ed10bdf59c53fde3c1a86e2adfd3bf", "fusion_lat": 0.0, "type": "electric_scooter", "lat": 38.869607333333335, "is_reserved": 0, "is_disabled": 0, "fusion_lon": 0.0, "bike_id": "d4ed10bdf59c53fde3c1a86e2adfd3bf", "lon": -77.01374933333334, "rental_uris": {"ios": "https://dc.lft.to/lastmile_qr_scan", "android": "https://dc.lft.to/lastmile_qr_scan"}}, {"name": "345d12164d9c16d1088791b8658fbac1", "fusion_lat": 0.0, "type": "electric_scooter", "lat": 38.90648083333333, "is_reserved": 0, "is_disabled": 0, "fusion_lon": 0.0, "bike_id": "345d12164d9c16d1088791b8658fbac1", "lon": -77.01394583333334, "rental_uris": {"ios": "https://dc.lft.to/lastmile_qr_scan", "android": "https://dc.lft.to/lastmile_qr_scan"}}, {"name": "48da7c8fc22a1f36e84d412a30d5571b", "fusion_lat": 0.0, "type": "electric_scooter", "lat": 38.91202716666667, "is_reserved": 0, "is_disabled": 0, "fusion_lon": 0.0, "bike_id": "48da7c8fc22a1f36e84d412a30d5571b", "lon": -77.0021225, "rental_uris": {"ios": "https://dc.lft.to/lastmile_qr_scan", "android": "https://dc.lft.to/lastmile_qr_scan"}}, {"name": "9369a07d79299ee1aacd546972071e16", "fusion_lat": 0.0, "type": "electric_scooter", "lat": 38.9360225, "is_reserved": 0, "is_disabled": 0, "fusion_lon": 0.0, "bike_id": "9369a07d79299ee1aacd546972071e16", "lon": -77.055912, "rental_uris": {"ios": "https://dc.lft.to/lastmile_qr_scan", "android": "https://dc.lft.to/lastmile_qr_scan"}}, {"name": "04b9509794d6743de375ca5daf0c81b0", "fusion_lat": 0.0, "type": "electric_scooter", "lat": 38.905169, "is_reserved": 0, "is_disabled": 0, "fusion_lon": 0.0, "bike_id": "04b9509794d6743de375ca5daf0c81b0", "lon": -77.06886816666666, "rental_uris": {"ios": "https://dc.lft.to/lastmile_qr_scan", "android": "https://dc.lft.to/lastmile_qr_scan"}}, {"name": "b1d201e28200862796030ef5b467149c", "fusion_lat": 0.0, "type": "electric_scooter", "lat": 38.938411333333335, "is_reserved": 0, "is_disabled": 0, "fusion_lon": 0.0, "bike_id": "b1d201e28200862796030ef5b467149c", "lon": -77.02465966666666, "rental_uris": {"ios": "https://dc.lft.to/lastmile_qr_scan", "android": "https://dc.lft.to/lastmile_qr_scan"}}, {"name": "f0f40ca509410e83ee9bd90b13121b51", "fusion_lat": 0.0, "type": "electric_scooter", "lat": 38.92600516666667, "is_reserved": 0, "is_disabled": 0, "fusion_lon": 0.0, "bike_id": "f0f40ca509410e83ee9bd90b13121b51", "lon": -77.0249365, "rental_uris": {"ios": "https://dc.lft.to/lastmile_qr_scan", "android": "https://dc.lft.to/lastmile_qr_scan"}}, {"name": "223747f442bdba634f72f24f153e57e8", "fusion_lat": 0.0, "type": "electric_scooter", "lat": 38.86367933333333, "is_reserved": 0, "is_disabled": 0, "fusion_lon": 0.0, "bike_id": "223747f442bdba634f72f24f153e57e8", "lon": -77.0136685, "rental_uris": {"ios": "https://dc.lft.to/lastmile_qr_scan", "android": "https://dc.lft.to/lastmile_qr_scan"}}, {"name": "b8cb0b9fbbea450653b71dd165663db6", "fusion_lat": 0.0, "type": "electric_scooter", "lat": 38.91702983333333, "is_reserved": 0, "is_disabled": 0, "fusion_lon": 0.0, "bike_id": "b8cb0b9fbbea450653b71dd165663db6", "lon": -77.04176783333334, "rental_uris": {"ios": "https://dc.lft.to/lastmile_qr_scan", "android": "https://dc.lft.to/lastmile_qr_scan"}}, {"name": "97e93a5f0946d07fe856d0bcf0efeb64", "fusion_lat": 0.0, "type": "electric_scooter", "lat": 38.900861166666665, "is_reserved": 0, "is_disabled": 0, "fusion_lon": 0.0, "bike_id": "97e93a5f0946d07fe856d0bcf0efeb64", "lon": -77.01764733333333, "rental_uris": {"ios": "https://dc.lft.to/lastmile_qr_scan", "android": "https://dc.lft.to/lastmile_qr_scan"}}, {"name": "3010f4bb410172bfca4edc8b962e863a", "fusion_lat": 0.0, "type": "electric_scooter", "lat": 38.9156115, "is_reserved": 0, "is_disabled": 0, "fusion_lon": 0.0, "bike_id": "3010f4bb410172bfca4edc8b962e863a", "lon": -77.00590416666667, "rental_uris": {"ios": "https://dc.lft.to/lastmile_qr_scan", "android": "https://dc.lft.to/lastmile_qr_scan"}}, {"name": "c373574e61f961cc7eacd52781a9ba0b", "fusion_lat": 0.0, "type": "electric_scooter", "lat": 38.895986, "is_reserved": 0, "is_disabled": 0, "fusion_lon": 0.0, "bike_id": "c373574e61f961cc7eacd52781a9ba0b", "lon": -77.0413285, "rental_uris": {"ios": "https://dc.lft.to/lastmile_qr_scan", "android": "https://dc.lft.to/lastmile_qr_scan"}}, {"name": "08e2934f2fb215a0680582b9aaef29b6", "fusion_lat": 0.0, "type": "electric_bike", "lat": 39.024173833333336, "is_reserved": 0, "is_disabled": 0, "fusion_lon": 0.0, "bike_id": "08e2934f2fb215a0680582b9aaef29b6", "lon": -77.12503233333334, "rental_uris": {"ios": "https://dc.lft.to/lastmile_qr_scan", "android": "https://dc.lft.to/lastmile_qr_scan"}}, {"name": "a6ec1defeb3442958453899804079ce5", "fusion_lat": 0.0, "type": "electric_scooter", "lat": 38.91561983333333, "is_reserved": 0, "is_disabled": 0, "fusion_lon": 0.0, "bike_id": "a6ec1defeb3442958453899804079ce5", "lon": -77.038956, "rental_uris": {"ios": "https://dc.lft.to/lastmile_qr_scan", "android": "https://dc.lft.to/lastmile_qr_scan"}}, {"name": "54efa7be623de127719df4ec227a8901", "fusion_lat": 0.0, "type": "electric_scooter", "lat": 38.9460545, "is_reserved": 0, "is_disabled": 0, "fusion_lon": 0.0, "bike_id": "54efa7be623de127719df4ec227a8901", "lon": -77.0298025, "rental_uris": {"ios": "https://dc.lft.to/lastmile_qr_scan", "android": "https://dc.lft.to/lastmile_qr_scan"}}, {"name": "3ccae05ba4767c29c8e7d7e49792fb1a", "fusion_lat": 0.0, "type": "electric_scooter", "lat": 38.90049416666667, "is_reserved": 0, "is_disabled": 0, "fusion_lon": 0.0, "bike_id": "3ccae05ba4767c29c8e7d7e49792fb1a", "lon": -77.00070133333334, "rental_uris": {"ios": "https://dc.lft.to/lastmile_qr_scan", "android": "https://dc.lft.to/lastmile_qr_scan"}}, {"name": "af7a6fd31f7c40eed9e0ce4eaabcbc3c", "fusion_lat": 0.0, "type": "electric_scooter", "lat": 38.89569983333333, "is_reserved": 0, "is_disabled": 0, "fusion_lon": 0.0, "bike_id": "af7a6fd31f7c40eed9e0ce4eaabcbc3c", "lon": -77.01369883333334, "rental_uris": {"ios": "https://dc.lft.to/lastmile_qr_scan", "android": "https://dc.lft.to/lastmile_qr_scan"}}, {"name": "3e373801a0c253f930dc04a8a011cb80", "fusion_lat": 0.0, "type": "electric_scooter", "lat": 38.903878666666664, "is_reserved": 0, "is_disabled": 0, "fusion_lon": 0.0, "bike_id": "3e373801a0c253f930dc04a8a011cb80", "lon": -77.03867783333334, "rental_uris": {"ios": "https://dc.lft.to/lastmile_qr_scan", "android": "https://dc.lft.to/lastmile_qr_scan"}}, {"name": "fbdc9649457281a0402896add2dfd845", "fusion_lat": 0.0, "type": "electric_scooter", "lat": 38.8788485, "is_reserved": 0, "is_disabled": 0, "fusion_lon": 0.0, "bike_id": "fbdc9649457281a0402896add2dfd845", "lon": -77.0221275, "rental_uris": {"ios": "https://dc.lft.to/lastmile_qr_scan", "android": "https://dc.lft.to/lastmile_qr_scan"}}, {"name": "01f7f5cb360dc5e084f483d541780079", "fusion_lat": 0.0, "type": "electric_scooter", "lat": 38.896072333333336, "is_reserved": 0, "is_disabled": 0, "fusion_lon": 0.0, "bike_id": "01f7f5cb360dc5e084f483d541780079", "lon": -77.047532, "rental_uris": {"ios": "https://dc.lft.to/lastmile_qr_scan", "android": "https://dc.lft.to/lastmile_qr_scan"}}, {"name": "2a4f35ab48fd4b00b65379bf69119889", "fusion_lat": 0.0, "type": "electric_scooter", "lat": 38.90843566666667, "is_reserved": 0, "is_disabled": 0, "fusion_lon": 0.0, "bike_id": "2a4f35ab48fd4b00b65379bf69119889", "lon": -77.04514533333334, "rental_uris": {"ios": "https://dc.lft.to/lastmile_qr_scan", "android": "https://dc.lft.to/lastmile_qr_scan"}}, {"name": "ed32344ec54141a4079867407768fd9a", "fusion_lat": 0.0, "type": "electric_scooter", "lat": 38.91812616666667, "is_reserved": 0, "is_disabled": 0, "fusion_lon": 0.0, "bike_id": "ed32344ec54141a4079867407768fd9a", "lon": -77.02497583333333, "rental_uris": {"ios": "https://dc.lft.to/lastmile_qr_scan", "android": "https://dc.lft.to/lastmile_qr_scan"}}, {"name": "6c8d20f102dacc0007085e08f6458315", "fusion_lat": 0.0, "type": "electric_scooter", "lat": 38.88617166666667, "is_reserved": 0, "is_disabled": 0, "fusion_lon": 0.0, "bike_id": "6c8d20f102dacc0007085e08f6458315", "lon": -77.0491285, "rental_uris": {"ios": "https://dc.lft.to/lastmile_qr_scan", "android": "https://dc.lft.to/lastmile_qr_scan"}}, {"name": "46123623c9499032b36026d70a81c2de", "fusion_lat": 0.0, "type": "electric_scooter", "lat": 38.93056416666667, "is_reserved": 0, "is_disabled": 0, "fusion_lon": 0.0, "bike_id": "46123623c9499032b36026d70a81c2de", "lon": -77.02323033333333, "rental_uris": {"ios": "https://dc.lft.to/lastmile_qr_scan", "android": "https://dc.lft.to/lastmile_qr_scan"}}, {"name": "3da37b5c54881ca47c87345e86ea5720", "fusion_lat": 0.0, "type": "electric_bike", "lat": 38.8521075, "is_reserved": 0, "is_disabled": 0, "fusion_lon": 0.0, "bike_id": "3da37b5c54881ca47c87345e86ea5720", "lon": -77.04647016666667, "rental_uris": {"ios": "https://dc.lft.to/lastmile_qr_scan", "android": "https://dc.lft.to/lastmile_qr_scan"}}, {"name": "e6f6069918f30775db60ef355a809c97", "fusion_lat": 0.0, "type": "electric_scooter", "lat": 38.8566445, "is_reserved": 0, "is_disabled": 0, "fusion_lon": 0.0, "bike_id": "e6f6069918f30775db60ef355a809c97", "lon": -76.99038716666666, "rental_uris": {"ios": "https://dc.lft.to/lastmile_qr_scan", "android": "https://dc.lft.to/lastmile_qr_scan"}}, {"name": "98b12134da1c4406c7088d5224289035", "fusion_lat": 0.0, "type": "electric_scooter", "lat": 38.8780985, "is_reserved": 0, "is_disabled": 0, "fusion_lon": 0.0, "bike_id": "98b12134da1c4406c7088d5224289035", "lon": -77.006001, "rental_uris": {"ios": "https://dc.lft.to/lastmile_qr_scan", "android": "https://dc.lft.to/lastmile_qr_scan"}}, {"name": "fdd722d3ceea8f49101f31167edfe58a", "fusion_lat": 0.0, "type": "electric_scooter", "lat": 38.927655, "is_reserved": 0, "is_disabled": 0, "fusion_lon": 0.0, "bike_id": "fdd722d3ceea8f49101f31167edfe58a", "lon": -77.02782216666667, "rental_uris": {"ios": "https://dc.lft.to/lastmile_qr_scan", "android": "https://dc.lft.to/lastmile_qr_scan"}}, {"name": "6b7eca6841a0f11d5b2c0614e429e98d", "fusion_lat": 0.0, "type": "electric_scooter", "lat": 38.94703966666667, "is_reserved": 0, "is_disabled": 0, "fusion_lon": 0.0, "bike_id": "6b7eca6841a0f11d5b2c0614e429e98d", "lon": -77.01942566666666, "rental_uris": {"ios": "https://dc.lft.to/lastmile_qr_scan", "android": "https://dc.lft.to/lastmile_qr_scan"}}, {"name": "62a3e77da06770e47df49d1a648213ad", "fusion_lat": 0.0, "type": "electric_scooter", "lat": 38.95909566666667, "is_reserved": 0, "is_disabled": 0, "fusion_lon": 0.0, "bike_id": "62a3e77da06770e47df49d1a648213ad", "lon": -77.08074733333333, "rental_uris": {"ios": "https://dc.lft.to/lastmile_qr_scan", "android": "https://dc.lft.to/lastmile_qr_scan"}}, {"name": "020a9ab43a137a76d76a9eec3d45f256", "fusion_lat": 0.0, "type": "electric_scooter", "lat": 38.92371633333333, "is_reserved": 0, "is_disabled": 0, "fusion_lon": 0.0, "bike_id": "020a9ab43a137a76d76a9eec3d45f256", "lon": -77.03161666666666, "rental_uris": {"ios": "https://dc.lft.to/lastmile_qr_scan", "android": "https://dc.lft.to/lastmile_qr_scan"}}, {"name": "2da835659c6c0336f96807410c18fde6", "fusion_lat": 0.0, "type": "electric_bike", "lat": 39.003867166666666, "is_reserved": 0, "is_disabled": 0, "fusion_lon": 0.0, "bike_id": "2da835659c6c0336f96807410c18fde6", "lon": -77.01289433333334, "rental_uris": {"ios": "https://dc.lft.to/lastmile_qr_scan", "android": "https://dc.lft.to/lastmile_qr_scan"}}, {"name": "aef0b920bfb9bcb85c5ecd69293d76da", "fusion_lat": 0.0, "type": "electric_scooter", "lat": 38.923429166666665, "is_reserved": 0, "is_disabled": 0, "fusion_lon": 0.0, "bike_id": "aef0b920bfb9bcb85c5ecd69293d76da", "lon": -77.05433716666667, "rental_uris": {"ios": "https://dc.lft.to/lastmile_qr_scan", "android": "https://dc.lft.to/lastmile_qr_scan"}}, {"name": "951cfabacb1e86f5d76913f038e59d1b", "fusion_lat": 0.0, "type": "electric_scooter", "lat": 38.894059666666664, "is_reserved": 0, "is_disabled": 0, "fusion_lon": 0.0, "bike_id": "951cfabacb1e86f5d76913f038e59d1b", "lon": -76.9323955, "rental_uris": {"ios": "https://dc.lft.to/lastmile_qr_scan", "android": "https://dc.lft.to/lastmile_qr_scan"}}, {"name": "801cb564c52c62671a4916bf6f3bdf5c", "fusion_lat": 0.0, "type": "electric_scooter", "lat": 38.9320665, "is_reserved": 0, "is_disabled": 0, "fusion_lon": 0.0, "bike_id": "801cb564c52c62671a4916bf6f3bdf5c", "lon": -77.03661466666667, "rental_uris": {"ios": "https://dc.lft.to/lastmile_qr_scan", "android": "https://dc.lft.to/lastmile_qr_scan"}}, {"name": "b6d649ab71ca66741f17928618986852", "fusion_lat": 0.0, "type": "electric_scooter", "lat": 38.91760383333333, "is_reserved": 0, "is_disabled": 0, "fusion_lon": 0.0, "bike_id": "b6d649ab71ca66741f17928618986852", "lon": -77.031911, "rental_uris": {"ios": "https://dc.lft.to/lastmile_qr_scan", "android": "https://dc.lft.to/lastmile_qr_scan"}}, {"name": "7568d64a249bfeeca185e9a8fd81f02b", "fusion_lat": 0.0, "type": "electric_scooter", "lat": 38.90581933333333, "is_reserved": 0, "is_disabled": 0, "fusion_lon": 0.0, "bike_id": "7568d64a249bfeeca185e9a8fd81f02b", "lon": -77.0061065, "rental_uris": {"ios": "https://dc.lft.to/lastmile_qr_scan", "android": "https://dc.lft.to/lastmile_qr_scan"}}, {"name": "f0d291c1061b5598d1fa3aad0c9cd5bc", "fusion_lat": 0.0, "type": "electric_bike", "lat": 38.80795366666667, "is_reserved": 0, "is_disabled": 0, "fusion_lon": 0.0, "bike_id": "f0d291c1061b5598d1fa3aad0c9cd5bc", "lon": -77.12965683333333, "rental_uris": {"ios": "https://dc.lft.to/lastmile_qr_scan", "android": "https://dc.lft.to/lastmile_qr_scan"}}, {"name": "d98ad6dd018f8583681765ebe997e5e1", "fusion_lat": 0.0, "type": "electric_scooter", "lat": 38.92229916666667, "is_reserved": 0, "is_disabled": 0, "fusion_lon": 0.0, "bike_id": "d98ad6dd018f8583681765ebe997e5e1", "lon": -77.04721133333334, "rental_uris": {"ios": "https://dc.lft.to/lastmile_qr_scan", "android": "https://dc.lft.to/lastmile_qr_scan"}}, {"name": "29cf643184d247532f1fe276b0b6e28a", "fusion_lat": 0.0, "type": "electric_scooter", "lat": 38.909746, "is_reserved": 0, "is_disabled": 0, "fusion_lon": 0.0, "bike_id": "29cf643184d247532f1fe276b0b6e28a", "lon": -77.04870933333333, "rental_uris": {"ios": "https://dc.lft.to/lastmile_qr_scan", "android": "https://dc.lft.to/lastmile_qr_scan"}}, {"name": "be7f083ad6b8fe1a496f215d7b4b2a0d", "fusion_lat": 0.0, "type": "electric_scooter", "lat": 38.9282005, "is_reserved": 0, "is_disabled": 0, "fusion_lon": 0.0, "bike_id": "be7f083ad6b8fe1a496f215d7b4b2a0d", "lon": -77.02257383333334, "rental_uris": {"ios": "https://dc.lft.to/lastmile_qr_scan", "android": "https://dc.lft.to/lastmile_qr_scan"}}, {"name": "f05ca548b58fb9a173bbc254eebfdb2e", "fusion_lat": 0.0, "type": "electric_scooter", "lat": 38.934650166666664, "is_reserved": 0, "is_disabled": 0, "fusion_lon": 0.0, "bike_id": "f05ca548b58fb9a173bbc254eebfdb2e", "lon": -77.03526, "rental_uris": {"ios": "https://dc.lft.to/lastmile_qr_scan", "android": "https://dc.lft.to/lastmile_qr_scan"}}, {"name": "2bf7a5f7c89795652c0ee915d50f5903", "fusion_lat": 0.0, "type": "electric_scooter", "lat": 38.96230966666667, "is_reserved": 0, "is_disabled": 0, "fusion_lon": 0.0, "bike_id": "2bf7a5f7c89795652c0ee915d50f5903", "lon": -77.029766, "rental_uris": {"ios": "https://dc.lft.to/lastmile_qr_scan", "android": "https://dc.lft.to/lastmile_qr_scan"}}, {"name": "4ad87038e02c8558bc1677314d207e01", "fusion_lat": 0.0, "type": "electric_scooter", "lat": 38.925704, "is_reserved": 0, "is_disabled": 0, "fusion_lon": 0.0, "bike_id": "4ad87038e02c8558bc1677314d207e01", "lon": -76.99501983333333, "rental_uris": {"ios": "https://dc.lft.to/lastmile_qr_scan", "android": "https://dc.lft.to/lastmile_qr_scan"}}, {"name": "c271b0e7010f03c2b880565756deb3f3", "fusion_lat": 0.0, "type": "electric_scooter", "lat": 38.88231666666667, "is_reserved": 0, "is_disabled": 0, "fusion_lon": 0.0, "bike_id": "c271b0e7010f03c2b880565756deb3f3", "lon": -77.02580983333333, "rental_uris": {"ios": "https://dc.lft.to/lastmile_qr_scan", "android": "https://dc.lft.to/lastmile_qr_scan"}}, {"name": "3ac82b455414ef37d232df1b8176562c", "fusion_lat": 0.0, "type": "electric_scooter", "lat": 38.925568, "is_reserved": 0, "is_disabled": 0, "fusion_lon": 0.0, "bike_id": "3ac82b455414ef37d232df1b8176562c", "lon": -77.03221083333334, "rental_uris": {"ios": "https://dc.lft.to/lastmile_qr_scan", "android": "https://dc.lft.to/lastmile_qr_scan"}}, {"name": "2c94b67a7dc5b293ab487ef792f9748c", "fusion_lat": 0.0, "type": "electric_scooter", "lat": 38.911335666666666, "is_reserved": 0, "is_disabled": 0, "fusion_lon": 0.0, "bike_id": "2c94b67a7dc5b293ab487ef792f9748c", "lon": -77.0419495, "rental_uris": {"ios": "https://dc.lft.to/lastmile_qr_scan", "android": "https://dc.lft.to/lastmile_qr_scan"}}, {"name": "9eb2159a91212a4931fa49ee9b6352ae", "fusion_lat": 0.0, "type": "electric_scooter", "lat": 38.905539833333336, "is_reserved": 0, "is_disabled": 0, "fusion_lon": 0.0, "bike_id": "9eb2159a91212a4931fa49ee9b6352ae", "lon": -77.04857416666667, "rental_uris": {"ios": "https://dc.lft.to/lastmile_qr_scan", "android": "https://dc.lft.to/lastmile_qr_scan"}}, {"name": "ec3be30c74a19d9a0340e65be152cc79", "fusion_lat": 0.0, "type": "electric_bike", "lat": 38.906196666666666, "is_reserved": 0, "is_disabled": 0, "fusion_lon": 0.0, "bike_id": "ec3be30c74a19d9a0340e65be152cc79", "lon": -76.98608183333333, "rental_uris": {"ios": "https://dc.lft.to/lastmile_qr_scan", "android": "https://dc.lft.to/lastmile_qr_scan"}}, {"name": "d31af19841b258abe64a44d10a681e69", "fusion_lat": 0.0, "type": "electric_scooter", "lat": 38.86112216666667, "is_reserved": 0, "is_disabled": 0, "fusion_lon": 0.0, "bike_id": "d31af19841b258abe64a44d10a681e69", "lon": -76.988925, "rental_uris": {"ios": "https://dc.lft.to/lastmile_qr_scan", "android": "https://dc.lft.to/lastmile_qr_scan"}}, {"name": "c35eeaa92745a9c2eda0d25c55a43c32", "fusion_lat": 0.0, "type": "electric_bike", "lat": 38.9601385, "is_reserved": 0, "is_disabled": 0, "fusion_lon": 0.0, "bike_id": "c35eeaa92745a9c2eda0d25c55a43c32", "lon": -76.998782, "rental_uris": {"ios": "https://dc.lft.to/lastmile_qr_scan", "android": "https://dc.lft.to/lastmile_qr_scan"}}, {"name": "452942e787ae8a7073dc3d519b04cef1", "fusion_lat": 0.0, "type": "electric_scooter", "lat": 38.90028133333333, "is_reserved": 0, "is_disabled": 0, "fusion_lon": 0.0, "bike_id": "452942e787ae8a7073dc3d519b04cef1", "lon": -77.02599366666666, "rental_uris": {"ios": "https://dc.lft.to/lastmile_qr_scan", "android": "https://dc.lft.to/lastmile_qr_scan"}}, {"name": "8548947f422bfd1c0548f86f30393dd6", "fusion_lat": 0.0, "type": "electric_scooter", "lat": 38.880343333333336, "is_reserved": 0, "is_disabled": 0, "fusion_lon": 0.0, "bike_id": "8548947f422bfd1c0548f86f30393dd6", "lon": -77.030804, "rental_uris": {"ios": "https://dc.lft.to/lastmile_qr_scan", "android": "https://dc.lft.to/lastmile_qr_scan"}}, {"name": "e91ba3ceb689b4ced61be78a6c948b1f", "fusion_lat": 0.0, "type": "electric_scooter", "lat": 38.938756833333336, "is_reserved": 0, "is_disabled": 0, "fusion_lon": 0.0, "bike_id": "e91ba3ceb689b4ced61be78a6c948b1f", "lon": -77.03258316666667, "rental_uris": {"ios": "https://dc.lft.to/lastmile_qr_scan", "android": "https://dc.lft.to/lastmile_qr_scan"}}, {"name": "87b510545d0babfabeae562ecef42314", "fusion_lat": 0.0, "type": "electric_scooter", "lat": 38.91916716666667, "is_reserved": 0, "is_disabled": 0, "fusion_lon": 0.0, "bike_id": "87b510545d0babfabeae562ecef42314", "lon": -77.03624866666667, "rental_uris": {"ios": "https://dc.lft.to/lastmile_qr_scan", "android": "https://dc.lft.to/lastmile_qr_scan"}}, {"name": "ee84b8fcaedc50530ed9a65805a58b96", "fusion_lat": 0.0, "type": "electric_scooter", "lat": 38.879204333333334, "is_reserved": 0, "is_disabled": 0, "fusion_lon": 0.0, "bike_id": "ee84b8fcaedc50530ed9a65805a58b96", "lon": -77.0074325, "rental_uris": {"ios": "https://dc.lft.to/lastmile_qr_scan", "android": "https://dc.lft.to/lastmile_qr_scan"}}, {"name": "4529d9199c1c9c10fafcdc58d4669527", "fusion_lat": 0.0, "type": "electric_scooter", "lat": 38.87421333333333, "is_reserved": 0, "is_disabled": 0, "fusion_lon": 0.0, "bike_id": "4529d9199c1c9c10fafcdc58d4669527", "lon": -77.0206215, "rental_uris": {"ios": "https://dc.lft.to/lastmile_qr_scan", "android": "https://dc.lft.to/lastmile_qr_scan"}}, {"name": "06f8d7053190fced4b55386693ae80a0", "fusion_lat": 0.0, "type": "electric_scooter", "lat": 38.9312565, "is_reserved": 0, "is_disabled": 0, "fusion_lon": 0.0, "bike_id": "06f8d7053190fced4b55386693ae80a0", "lon": -77.02823633333334, "rental_uris": {"ios": "https://dc.lft.to/lastmile_qr_scan", "android": "https://dc.lft.to/lastmile_qr_scan"}}, {"name": "bf2739ed8e19bb46e3ec1a53ab228112", "fusion_lat": 0.0, "type": "electric_scooter", "lat": 38.91871016666666, "is_reserved": 0, "is_disabled": 0, "fusion_lon": 0.0, "bike_id": "bf2739ed8e19bb46e3ec1a53ab228112", "lon": -77.03504133333334, "rental_uris": {"ios": "https://dc.lft.to/lastmile_qr_scan", "android": "https://dc.lft.to/lastmile_qr_scan"}}, {"name": "e2535649b01bb5ac649924ca10dd25eb", "fusion_lat": 0.0, "type": "electric_scooter", "lat": 38.9498045, "is_reserved": 0, "is_disabled": 0, "fusion_lon": 0.0, "bike_id": "e2535649b01bb5ac649924ca10dd25eb", "lon": -77.02695883333334, "rental_uris": {"ios": "https://dc.lft.to/lastmile_qr_scan", "android": "https://dc.lft.to/lastmile_qr_scan"}}, {"name": "95b7e53641349fe35156b0940b95023f", "fusion_lat": 0.0, "type": "electric_scooter", "lat": 38.89331166666667, "is_reserved": 0, "is_disabled": 0, "fusion_lon": 0.0, "bike_id": "95b7e53641349fe35156b0940b95023f", "lon": -76.92891916666666, "rental_uris": {"ios": "https://dc.lft.to/lastmile_qr_scan", "android": "https://dc.lft.to/lastmile_qr_scan"}}, {"name": "10869314e505af09c433418b3659978d", "fusion_lat": 0.0, "type": "electric_scooter", "lat": 38.90028783333333, "is_reserved": 0, "is_disabled": 0, "fusion_lon": 0.0, "bike_id": "10869314e505af09c433418b3659978d", "lon": -76.99690916666667, "rental_uris": {"ios": "https://dc.lft.to/lastmile_qr_scan", "android": "https://dc.lft.to/lastmile_qr_scan"}}, {"name": "04c7ed8d9ce9fd16fcffd7096a6ecd34", "fusion_lat": 0.0, "type": "electric_scooter", "lat": 38.885357, "is_reserved": 0, "is_disabled": 0, "fusion_lon": 0.0, "bike_id": "04c7ed8d9ce9fd16fcffd7096a6ecd34", "lon": -77.03343816666667, "rental_uris": {"ios": "https://dc.lft.to/lastmile_qr_scan", "android": "https://dc.lft.to/lastmile_qr_scan"}}, {"name": "41b9c03ec2f2598e00c2c7686b795cb0", "fusion_lat": 0.0, "type": "electric_scooter", "lat": 38.918401, "is_reserved": 0, "is_disabled": 0, "fusion_lon": 0.0, "bike_id": "41b9c03ec2f2598e00c2c7686b795cb0", "lon": -77.04582233333333, "rental_uris": {"ios": "https://dc.lft.to/lastmile_qr_scan", "android": "https://dc.lft.to/lastmile_qr_scan"}}, {"name": "a73f66d57bfb07edb64f5cc060d6493a", "fusion_lat": 0.0, "type": "electric_bike", "lat": 38.94200583333333, "is_reserved": 0, "is_disabled": 0, "fusion_lon": 0.0, "bike_id": "a73f66d57bfb07edb64f5cc060d6493a", "lon": -76.96630816666666, "rental_uris": {"ios": "https://dc.lft.to/lastmile_qr_scan", "android": "https://dc.lft.to/lastmile_qr_scan"}}, {"name": "f9bd09d9124c1464a65e0af8e5da343d", "fusion_lat": 0.0, "type": "electric_scooter", "lat": 38.86373483333333, "is_reserved": 0, "is_disabled": 0, "fusion_lon": 0.0, "bike_id": "f9bd09d9124c1464a65e0af8e5da343d", "lon": -77.0135905, "rental_uris": {"ios": "https://dc.lft.to/lastmile_qr_scan", "android": "https://dc.lft.to/lastmile_qr_scan"}}, {"name": "91d08d286cbc3d4f1268fe0a984cbb3b", "fusion_lat": 0.0, "type": "electric_scooter", "lat": 38.8923445, "is_reserved": 0, "is_disabled": 0, "fusion_lon": 0.0, "bike_id": "91d08d286cbc3d4f1268fe0a984cbb3b", "lon": -77.01506916666666, "rental_uris": {"ios": "https://dc.lft.to/lastmile_qr_scan", "android": "https://dc.lft.to/lastmile_qr_scan"}}, {"name": "340bdea061ed56e519f19fe0081d0ad6", "fusion_lat": 0.0, "type": "electric_scooter", "lat": 38.939660833333335, "is_reserved": 0, "is_disabled": 0, "fusion_lon": 0.0, "bike_id": "340bdea061ed56e519f19fe0081d0ad6", "lon": -77.027515, "rental_uris": {"ios": "https://dc.lft.to/lastmile_qr_scan", "android": "https://dc.lft.to/lastmile_qr_scan"}}, {"name": "1888adbb4af2e64f0381bd4b94d220f3", "fusion_lat": 0.0, "type": "electric_bike", "lat": 38.9492055, "is_reserved": 0, "is_disabled": 0, "fusion_lon": 0.0, "bike_id": "1888adbb4af2e64f0381bd4b94d220f3", "lon": -77.00791616666666, "rental_uris": {"ios": "https://dc.lft.to/lastmile_qr_scan", "android": "https://dc.lft.to/lastmile_qr_scan"}}, {"name": "46d1073f8e9db1803e224245c4581bce", "fusion_lat": 0.0, "type": "electric_scooter", "lat": 38.9306595, "is_reserved": 0, "is_disabled": 0, "fusion_lon": 0.0, "bike_id": "46d1073f8e9db1803e224245c4581bce", "lon": -77.02977533333333, "rental_uris": {"ios": "https://dc.lft.to/lastmile_qr_scan", "android": "https://dc.lft.to/lastmile_qr_scan"}}, {"name": "1d54ef0e9121b0b3e26511fadc650f17", "fusion_lat": 0.0, "type": "electric_scooter", "lat": 38.9275465, "is_reserved": 0, "is_disabled": 0, "fusion_lon": 0.0, "bike_id": "1d54ef0e9121b0b3e26511fadc650f17", "lon": -77.02310666666666, "rental_uris": {"ios": "https://dc.lft.to/lastmile_qr_scan", "android": "https://dc.lft.to/lastmile_qr_scan"}}, {"name": "98b60e8c617389c741659449f0bcb5cf", "fusion_lat": 0.0, "type": "electric_scooter", "lat": 38.885097, "is_reserved": 0, "is_disabled": 0, "fusion_lon": 0.0, "bike_id": "98b60e8c617389c741659449f0bcb5cf", "lon": -77.02206633333333, "rental_uris": {"ios": "https://dc.lft.to/lastmile_qr_scan", "android": "https://dc.lft.to/lastmile_qr_scan"}}, {"name": "024f6252e6e213b2580c78ef8a4d6789", "fusion_lat": 0.0, "type": "electric_bike", "lat": 38.85621866666666, "is_reserved": 0, "is_disabled": 0, "fusion_lon": 0.0, "bike_id": "024f6252e6e213b2580c78ef8a4d6789", "lon": -77.08547716666666, "rental_uris": {"ios": "https://dc.lft.to/lastmile_qr_scan", "android": "https://dc.lft.to/lastmile_qr_scan"}}, {"name": "7f99136a482005cb1514bfed5cd3eceb", "fusion_lat": 0.0, "type": "electric_scooter", "lat": 38.91634783333333, "is_reserved": 0, "is_disabled": 0, "fusion_lon": 0.0, "bike_id": "7f99136a482005cb1514bfed5cd3eceb", "lon": -77.00096816666667, "rental_uris": {"ios": "https://dc.lft.to/lastmile_qr_scan", "android": "https://dc.lft.to/lastmile_qr_scan"}}, {"name": "88ee5df0c33b9cd782f7d51a23482491", "fusion_lat": 0.0, "type": "electric_bike", "lat": 39.00016266666667, "is_reserved": 0, "is_disabled": 0, "fusion_lon": 0.0, "bike_id": "88ee5df0c33b9cd782f7d51a23482491", "lon": -77.01742483333334, "rental_uris": {"ios": "https://dc.lft.to/lastmile_qr_scan", "android": "https://dc.lft.to/lastmile_qr_scan"}}, {"name": "e891711fbf81f500b77e250cd713e2a8", "fusion_lat": 0.0, "type": "electric_scooter", "lat": 38.9176155, "is_reserved": 0, "is_disabled": 0, "fusion_lon": 0.0, "bike_id": "e891711fbf81f500b77e250cd713e2a8", "lon": -77.02511733333333, "rental_uris": {"ios": "https://dc.lft.to/lastmile_qr_scan", "android": "https://dc.lft.to/lastmile_qr_scan"}}, {"name": "ee10000476331ab021f0bbb693e74505", "fusion_lat": 0.0, "type": "electric_scooter", "lat": 38.9126515, "is_reserved": 0, "is_disabled": 0, "fusion_lon": 0.0, "bike_id": "ee10000476331ab021f0bbb693e74505", "lon": -77.011228, "rental_uris": {"ios": "https://dc.lft.to/lastmile_qr_scan", "android": "https://dc.lft.to/lastmile_qr_scan"}}, {"name": "b9b8b6ae5aff6bd0807228e20f44a5b2", "fusion_lat": 0.0, "type": "electric_scooter", "lat": 38.89737566666667, "is_reserved": 0, "is_disabled": 0, "fusion_lon": 0.0, "bike_id": "b9b8b6ae5aff6bd0807228e20f44a5b2", "lon": -77.04650933333333, "rental_uris": {"ios": "https://dc.lft.to/lastmile_qr_scan", "android": "https://dc.lft.to/lastmile_qr_scan"}}, {"name": "be505d087026eb8f37e1c0924df9197b", "fusion_lat": 0.0, "type": "electric_scooter", "lat": 38.93725583333333, "is_reserved": 0, "is_disabled": 0, "fusion_lon": 0.0, "bike_id": "be505d087026eb8f37e1c0924df9197b", "lon": -77.03631133333333, "rental_uris": {"ios": "https://dc.lft.to/lastmile_qr_scan", "android": "https://dc.lft.to/lastmile_qr_scan"}}, {"name": "5e16a561bd936809e806281d5725ce8e", "fusion_lat": 0.0, "type": "electric_scooter", "lat": 38.91728716666667, "is_reserved": 0, "is_disabled": 0, "fusion_lon": 0.0, "bike_id": "5e16a561bd936809e806281d5725ce8e", "lon": -77.018641, "rental_uris": {"ios": "https://dc.lft.to/lastmile_qr_scan", "android": "https://dc.lft.to/lastmile_qr_scan"}}, {"name": "3b36d8381ca6580bfd1447255f4fb509", "fusion_lat": 0.0, "type": "electric_scooter", "lat": 38.95642216666667, "is_reserved": 0, "is_disabled": 0, "fusion_lon": 0.0, "bike_id": "3b36d8381ca6580bfd1447255f4fb509", "lon": -77.0227465, "rental_uris": {"ios": "https://dc.lft.to/lastmile_qr_scan", "android": "https://dc.lft.to/lastmile_qr_scan"}}, {"name": "60b144ddeffbd769136a8e190e6b25f5", "fusion_lat": 0.0, "type": "electric_bike", "lat": 38.844874833333336, "is_reserved": 0, "is_disabled": 0, "fusion_lon": 0.0, "bike_id": "60b144ddeffbd769136a8e190e6b25f5", "lon": -76.97223683333333, "rental_uris": {"ios": "https://dc.lft.to/lastmile_qr_scan", "android": "https://dc.lft.to/lastmile_qr_scan"}}, {"name": "0136e7fa0923d37d98e84fb66896d316", "fusion_lat": 0.0, "type": "electric_bike", "lat": 38.946273166666664, "is_reserved": 0, "is_disabled": 0, "fusion_lon": 0.0, "bike_id": "0136e7fa0923d37d98e84fb66896d316", "lon": -77.08049333333334, "rental_uris": {"ios": "https://dc.lft.to/lastmile_qr_scan", "android": "https://dc.lft.to/lastmile_qr_scan"}}, {"name": "386d1769c2c3afa831638bca5f4bb593", "fusion_lat": 0.0, "type": "electric_scooter", "lat": 38.9015155, "is_reserved": 0, "is_disabled": 0, "fusion_lon": 0.0, "bike_id": "386d1769c2c3afa831638bca5f4bb593", "lon": -77.01864533333334, "rental_uris": {"ios": "https://dc.lft.to/lastmile_qr_scan", "android": "https://dc.lft.to/lastmile_qr_scan"}}, {"name": "03ff3ae90dbb11feb0290c6a5c2ed3d1", "fusion_lat": 0.0, "type": "electric_bike", "lat": 38.92335966666667, "is_reserved": 0, "is_disabled": 0, "fusion_lon": 0.0, "bike_id": "03ff3ae90dbb11feb0290c6a5c2ed3d1", "lon": -77.0228935, "rental_uris": {"ios": "https://dc.lft.to/lastmile_qr_scan", "android": "https://dc.lft.to/lastmile_qr_scan"}}, {"name": "74a91d5562f76efcc5830aefb3d8e0c5", "fusion_lat": 0.0, "type": "electric_scooter", "lat": 38.90384616666667, "is_reserved": 0, "is_disabled": 0, "fusion_lon": 0.0, "bike_id": "74a91d5562f76efcc5830aefb3d8e0c5", "lon": -77.0483675, "rental_uris": {"ios": "https://dc.lft.to/lastmile_qr_scan", "android": "https://dc.lft.to/lastmile_qr_scan"}}, {"name": "c32df503ecf0e184b860b1b59153cfcd", "fusion_lat": 0.0, "type": "electric_scooter", "lat": 38.901932333333335, "is_reserved": 0, "is_disabled": 0, "fusion_lon": 0.0, "bike_id": "c32df503ecf0e184b860b1b59153cfcd", "lon": -77.0505235, "rental_uris": {"ios": "https://dc.lft.to/lastmile_qr_scan", "android": "https://dc.lft.to/lastmile_qr_scan"}}, {"name": "ebf17fabef125639c5d03a971d43879c", "fusion_lat": 0.0, "type": "electric_scooter", "lat": 38.8983735, "is_reserved": 0, "is_disabled": 0, "fusion_lon": 0.0, "bike_id": "ebf17fabef125639c5d03a971d43879c", "lon": -77.03310783333333, "rental_uris": {"ios": "https://dc.lft.to/lastmile_qr_scan", "android": "https://dc.lft.to/lastmile_qr_scan"}}, {"name": "2a2ab66c7aacfa26382b9d0937887a3d", "fusion_lat": 0.0, "type": "electric_scooter", "lat": 38.905112, "is_reserved": 0, "is_disabled": 0, "fusion_lon": 0.0, "bike_id": "2a2ab66c7aacfa26382b9d0937887a3d", "lon": -77.069383, "rental_uris": {"ios": "https://dc.lft.to/lastmile_qr_scan", "android": "https://dc.lft.to/lastmile_qr_scan"}}, {"name": "94a24b4fb3caf667bae1065bbfa333ba", "fusion_lat": 0.0, "type": "electric_scooter", "lat": 38.9311145, "is_reserved": 0, "is_disabled": 0, "fusion_lon": 0.0, "bike_id": "94a24b4fb3caf667bae1065bbfa333ba", "lon": -77.03838483333334, "rental_uris": {"ios": "https://dc.lft.to/lastmile_qr_scan", "android": "https://dc.lft.to/lastmile_qr_scan"}}, {"name": "2ba66b24ae50c0bc6bdd547c913d6612", "fusion_lat": 0.0, "type": "electric_scooter", "lat": 38.911040166666666, "is_reserved": 0, "is_disabled": 0, "fusion_lon": 0.0, "bike_id": "2ba66b24ae50c0bc6bdd547c913d6612", "lon": -77.010592, "rental_uris": {"ios": "https://dc.lft.to/lastmile_qr_scan", "android": "https://dc.lft.to/lastmile_qr_scan"}}, {"name": "e6b51c9f000102e0bbb299fe684baa49", "fusion_lat": 0.0, "type": "electric_scooter", "lat": 38.90506933333333, "is_reserved": 0, "is_disabled": 0, "fusion_lon": 0.0, "bike_id": "e6b51c9f000102e0bbb299fe684baa49", "lon": -77.0294335, "rental_uris": {"ios": "https://dc.lft.to/lastmile_qr_scan", "android": "https://dc.lft.to/lastmile_qr_scan"}}, {"name": "80018f72e134b4a687f7478a5ed1acea", "fusion_lat": 0.0, "type": "electric_bike", "lat": 38.9353985, "is_reserved": 0, "is_disabled": 0, "fusion_lon": 0.0, "bike_id": "80018f72e134b4a687f7478a5ed1acea", "lon": -77.08238066666667, "rental_uris": {"ios": "https://dc.lft.to/lastmile_qr_scan", "android": "https://dc.lft.to/lastmile_qr_scan"}}, {"name": "953d736afff3c1496bf3112584b88f01", "fusion_lat": 0.0, "type": "electric_scooter", "lat": 38.939369, "is_reserved": 0, "is_disabled": 0, "fusion_lon": 0.0, "bike_id": "953d736afff3c1496bf3112584b88f01", "lon": -77.0363145, "rental_uris": {"ios": "https://dc.lft.to/lastmile_qr_scan", "android": "https://dc.lft.to/lastmile_qr_scan"}}, {"name": "63f666a8ef3ce506d18566f4932ad685", "fusion_lat": 0.0, "type": "electric_scooter", "lat": 38.9119155, "is_reserved": 0, "is_disabled": 0, "fusion_lon": 0.0, "bike_id": "63f666a8ef3ce506d18566f4932ad685", "lon": -77.00728633333334, "rental_uris": {"ios": "https://dc.lft.to/lastmile_qr_scan", "android": "https://dc.lft.to/lastmile_qr_scan"}}, {"name": "0718005874de0af31f6758ff0984417e", "fusion_lat": 0.0, "type": "electric_scooter", "lat": 38.91066933333333, "is_reserved": 0, "is_disabled": 0, "fusion_lon": 0.0, "bike_id": "0718005874de0af31f6758ff0984417e", "lon": -77.04128033333333, "rental_uris": {"ios": "https://dc.lft.to/lastmile_qr_scan", "android": "https://dc.lft.to/lastmile_qr_scan"}}, {"name": "018addb40158ee8caf4f00bf45102a86", "fusion_lat": 0.0, "type": "electric_scooter", "lat": 38.9116125, "is_reserved": 0, "is_disabled": 0, "fusion_lon": 0.0, "bike_id": "018addb40158ee8caf4f00bf45102a86", "lon": -77.02002, "rental_uris": {"ios": "https://dc.lft.to/lastmile_qr_scan", "android": "https://dc.lft.to/lastmile_qr_scan"}}, {"name": "db2712aafa387df355718af80a3ae088", "fusion_lat": 0.0, "type": "electric_bike", "lat": 38.88591016666667, "is_reserved": 0, "is_disabled": 0, "fusion_lon": 0.0, "bike_id": "db2712aafa387df355718af80a3ae088", "lon": -77.000637, "rental_uris": {"ios": "https://dc.lft.to/lastmile_qr_scan", "android": "https://dc.lft.to/lastmile_qr_scan"}}, {"name": "938da5b1b698efdaf7311e1f77227312", "fusion_lat": 0.0, "type": "electric_scooter", "lat": 38.89491233333333, "is_reserved": 0, "is_disabled": 0, "fusion_lon": 0.0, "bike_id": "938da5b1b698efdaf7311e1f77227312", "lon": -77.01019583333333, "rental_uris": {"ios": "https://dc.lft.to/lastmile_qr_scan", "android": "https://dc.lft.to/lastmile_qr_scan"}}, {"name": "9e01e6b1fa4959af843870e3eb8c6404", "fusion_lat": 0.0, "type": "electric_bike", "lat": 38.8861975, "is_reserved": 0, "is_disabled": 0, "fusion_lon": 0.0, "bike_id": "9e01e6b1fa4959af843870e3eb8c6404", "lon": -77.10755166666667, "rental_uris": {"ios": "https://dc.lft.to/lastmile_qr_scan", "android": "https://dc.lft.to/lastmile_qr_scan"}}, {"name": "906c74adc35d707e41379b578af4828c", "fusion_lat": 0.0, "type": "electric_bike", "lat": 39.053464, "is_reserved": 0, "is_disabled": 0, "fusion_lon": 0.0, "bike_id": "906c74adc35d707e41379b578af4828c", "lon": -77.13597633333333, "rental_uris": {"ios": "https://dc.lft.to/lastmile_qr_scan", "android": "https://dc.lft.to/lastmile_qr_scan"}}, {"name": "ef43015a22a1b4473b89cf8e07d262e5", "fusion_lat": 0.0, "type": "electric_scooter", "lat": 38.90430333333333, "is_reserved": 0, "is_disabled": 0, "fusion_lon": 0.0, "bike_id": "ef43015a22a1b4473b89cf8e07d262e5", "lon": -77.03116666666666, "rental_uris": {"ios": "https://dc.lft.to/lastmile_qr_scan", "android": "https://dc.lft.to/lastmile_qr_scan"}}, {"name": "56e1ed959ac01fe19aa23553f14bdd1c", "fusion_lat": 0.0, "type": "electric_scooter", "lat": 38.9084945, "is_reserved": 0, "is_disabled": 0, "fusion_lon": 0.0, "bike_id": "56e1ed959ac01fe19aa23553f14bdd1c", "lon": -77.02595616666666, "rental_uris": {"ios": "https://dc.lft.to/lastmile_qr_scan", "android": "https://dc.lft.to/lastmile_qr_scan"}}, {"name": "3c2a9f8921c98489ac72de7c2a0212ff", "fusion_lat": 0.0, "type": "electric_scooter", "lat": 38.86268366666667, "is_reserved": 0, "is_disabled": 0, "fusion_lon": 0.0, "bike_id": "3c2a9f8921c98489ac72de7c2a0212ff", "lon": -76.98713783333334, "rental_uris": {"ios": "https://dc.lft.to/lastmile_qr_scan", "android": "https://dc.lft.to/lastmile_qr_scan"}}, {"name": "6e55076ac25866f54ee35e246d4a7161", "fusion_lat": 0.0, "type": "electric_scooter", "lat": 38.93388683333333, "is_reserved": 0, "is_disabled": 0, "fusion_lon": 0.0, "bike_id": "6e55076ac25866f54ee35e246d4a7161", "lon": -77.07385833333333, "rental_uris": {"ios": "https://dc.lft.to/lastmile_qr_scan", "android": "https://dc.lft.to/lastmile_qr_scan"}}, {"name": "355523718c3d39ff57d51b36f14fa843", "fusion_lat": 0.0, "type": "electric_scooter", "lat": 38.9169855, "is_reserved": 0, "is_disabled": 0, "fusion_lon": 0.0, "bike_id": "355523718c3d39ff57d51b36f14fa843", "lon": -77.0289495, "rental_uris": {"ios": "https://dc.lft.to/lastmile_qr_scan", "android": "https://dc.lft.to/lastmile_qr_scan"}}, {"name": "f94492015af756e0766cba4b5cba19ca", "fusion_lat": 0.0, "type": "electric_bike", "lat": 38.8443125, "is_reserved": 0, "is_disabled": 0, "fusion_lon": 0.0, "bike_id": "f94492015af756e0766cba4b5cba19ca", "lon": -77.112619, "rental_uris": {"ios": "https://dc.lft.to/lastmile_qr_scan", "android": "https://dc.lft.to/lastmile_qr_scan"}}, {"name": "ef596161ef5a90a2828eff8343fde67d", "fusion_lat": 0.0, "type": "electric_scooter", "lat": 38.88869016666666, "is_reserved": 0, "is_disabled": 0, "fusion_lon": 0.0, "bike_id": "ef596161ef5a90a2828eff8343fde67d", "lon": -77.040009, "rental_uris": {"ios": "https://dc.lft.to/lastmile_qr_scan", "android": "https://dc.lft.to/lastmile_qr_scan"}}, {"name": "8975f41869994330593acc654ee0e734", "fusion_lat": 0.0, "type": "electric_scooter", "lat": 38.89534866666666, "is_reserved": 0, "is_disabled": 0, "fusion_lon": 0.0, "bike_id": "8975f41869994330593acc654ee0e734", "lon": -77.02376933333333, "rental_uris": {"ios": "https://dc.lft.to/lastmile_qr_scan", "android": "https://dc.lft.to/lastmile_qr_scan"}}, {"name": "4b6e7f033481afdda4643729538d5f81", "fusion_lat": 0.0, "type": "electric_scooter", "lat": 38.9389655, "is_reserved": 0, "is_disabled": 0, "fusion_lon": 0.0, "bike_id": "4b6e7f033481afdda4643729538d5f81", "lon": -77.03284016666667, "rental_uris": {"ios": "https://dc.lft.to/lastmile_qr_scan", "android": "https://dc.lft.to/lastmile_qr_scan"}}, {"name": "fca60c59d5518d49aa398d1aacd7f7a3", "fusion_lat": 0.0, "type": "electric_scooter", "lat": 38.9185275, "is_reserved": 0, "is_disabled": 0, "fusion_lon": 0.0, "bike_id": "fca60c59d5518d49aa398d1aacd7f7a3", "lon": -77.01501316666666, "rental_uris": {"ios": "https://dc.lft.to/lastmile_qr_scan", "android": "https://dc.lft.to/lastmile_qr_scan"}}, {"name": "551cf9f49d9a51b42d7dddad27304466", "fusion_lat": 0.0, "type": "electric_scooter", "lat": 38.93414766666667, "is_reserved": 0, "is_disabled": 0, "fusion_lon": 0.0, "bike_id": "551cf9f49d9a51b42d7dddad27304466", "lon": -77.01963083333334, "rental_uris": {"ios": "https://dc.lft.to/lastmile_qr_scan", "android": "https://dc.lft.to/lastmile_qr_scan"}}, {"name": "6d6b8a3a75356675c15e326e522a8c9a", "fusion_lat": 0.0, "type": "electric_scooter", "lat": 38.90700533333333, "is_reserved": 0, "is_disabled": 0, "fusion_lon": 0.0, "bike_id": "6d6b8a3a75356675c15e326e522a8c9a", "lon": -76.98692866666667, "rental_uris": {"ios": "https://dc.lft.to/lastmile_qr_scan", "android": "https://dc.lft.to/lastmile_qr_scan"}}, {"name": "e87c319601d4f835073a92193c346532", "fusion_lat": 0.0, "type": "electric_scooter", "lat": 38.931008166666665, "is_reserved": 0, "is_disabled": 0, "fusion_lon": 0.0, "bike_id": "e87c319601d4f835073a92193c346532", "lon": -77.02406483333333, "rental_uris": {"ios": "https://dc.lft.to/lastmile_qr_scan", "android": "https://dc.lft.to/lastmile_qr_scan"}}, {"name": "9d3b10f4d34348c82365822ed0c125e6", "fusion_lat": 0.0, "type": "electric_bike", "lat": 38.89771183333333, "is_reserved": 0, "is_disabled": 0, "fusion_lon": 0.0, "bike_id": "9d3b10f4d34348c82365822ed0c125e6", "lon": -76.90435716666667, "rental_uris": {"ios": "https://dc.lft.to/lastmile_qr_scan", "android": "https://dc.lft.to/lastmile_qr_scan"}}, {"name": "7c3f22aff2a8cbf252d859521ad095be", "fusion_lat": 0.0, "type": "electric_scooter", "lat": 38.9289355, "is_reserved": 0, "is_disabled": 0, "fusion_lon": 0.0, "bike_id": "7c3f22aff2a8cbf252d859521ad095be", "lon": -77.037386, "rental_uris": {"ios": "https://dc.lft.to/lastmile_qr_scan", "android": "https://dc.lft.to/lastmile_qr_scan"}}, {"name": "ecdfbe4942b8a57e31d8c24176e92ef4", "fusion_lat": 0.0, "type": "electric_scooter", "lat": 38.92101566666667, "is_reserved": 0, "is_disabled": 0, "fusion_lon": 0.0, "bike_id": "ecdfbe4942b8a57e31d8c24176e92ef4", "lon": -77.04696016666666, "rental_uris": {"ios": "https://dc.lft.to/lastmile_qr_scan", "android": "https://dc.lft.to/lastmile_qr_scan"}}, {"name": "9c0224bf422d8a5b1b5f7dfc24dbb03e", "fusion_lat": 0.0, "type": "electric_scooter", "lat": 38.9351815, "is_reserved": 0, "is_disabled": 0, "fusion_lon": 0.0, "bike_id": "9c0224bf422d8a5b1b5f7dfc24dbb03e", "lon": -77.02856716666666, "rental_uris": {"ios": "https://dc.lft.to/lastmile_qr_scan", "android": "https://dc.lft.to/lastmile_qr_scan"}}, {"name": "8f98cab245815350647957c7264ab033", "fusion_lat": 0.0, "type": "electric_scooter", "lat": 38.907277666666666, "is_reserved": 0, "is_disabled": 0, "fusion_lon": 0.0, "bike_id": "8f98cab245815350647957c7264ab033", "lon": -77.03444966666666, "rental_uris": {"ios": "https://dc.lft.to/lastmile_qr_scan", "android": "https://dc.lft.to/lastmile_qr_scan"}}, {"name": "f02dfddd1933dd8bf2b7ac498aa7a67f", "fusion_lat": 0.0, "type": "electric_scooter", "lat": 38.93398233333333, "is_reserved": 0, "is_disabled": 0, "fusion_lon": 0.0, "bike_id": "f02dfddd1933dd8bf2b7ac498aa7a67f", "lon": -77.027192, "rental_uris": {"ios": "https://dc.lft.to/lastmile_qr_scan", "android": "https://dc.lft.to/lastmile_qr_scan"}}, {"name": "2dd1a0ac35a7c725e7bc88bf28fe6710", "fusion_lat": 0.0, "type": "electric_bike", "lat": 38.852285333333334, "is_reserved": 0, "is_disabled": 0, "fusion_lon": 0.0, "bike_id": "2dd1a0ac35a7c725e7bc88bf28fe6710", "lon": -77.103379, "rental_uris": {"ios": "https://dc.lft.to/lastmile_qr_scan", "android": "https://dc.lft.to/lastmile_qr_scan"}}, {"name": "29ae6fbbf55d91de1a088e9b02317aee", "fusion_lat": 0.0, "type": "electric_scooter", "lat": 38.88038866666667, "is_reserved": 0, "is_disabled": 0, "fusion_lon": 0.0, "bike_id": "29ae6fbbf55d91de1a088e9b02317aee", "lon": -76.92719933333333, "rental_uris": {"ios": "https://dc.lft.to/lastmile_qr_scan", "android": "https://dc.lft.to/lastmile_qr_scan"}}, {"name": "6454a2f8c1cb34b0d9c197a8b4c58038", "fusion_lat": 0.0, "type": "electric_scooter", "lat": 38.90612016666667, "is_reserved": 0, "is_disabled": 0, "fusion_lon": 0.0, "bike_id": "6454a2f8c1cb34b0d9c197a8b4c58038", "lon": -77.034301, "rental_uris": {"ios": "https://dc.lft.to/lastmile_qr_scan", "android": "https://dc.lft.to/lastmile_qr_scan"}}, {"name": "5f174240d0b4d4cc46ab9579a3990f5a", "fusion_lat": 0.0, "type": "electric_bike", "lat": 38.8804375, "is_reserved": 0, "is_disabled": 0, "fusion_lon": 0.0, "bike_id": "5f174240d0b4d4cc46ab9579a3990f5a", "lon": -77.01324916666667, "rental_uris": {"ios": "https://dc.lft.to/lastmile_qr_scan", "android": "https://dc.lft.to/lastmile_qr_scan"}}, {"name": "1eaab1e30ce8d9ad9144e04073b191df", "fusion_lat": 0.0, "type": "electric_scooter", "lat": 38.9041035, "is_reserved": 0, "is_disabled": 0, "fusion_lon": 0.0, "bike_id": "1eaab1e30ce8d9ad9144e04073b191df", "lon": -77.0013455, "rental_uris": {"ios": "https://dc.lft.to/lastmile_qr_scan", "android": "https://dc.lft.to/lastmile_qr_scan"}}, {"name": "634d990fee91bf7b6efc7f9ebfa73015", "fusion_lat": 0.0, "type": "electric_scooter", "lat": 38.9622875, "is_reserved": 0, "is_disabled": 0, "fusion_lon": 0.0, "bike_id": "634d990fee91bf7b6efc7f9ebfa73015", "lon": -77.029778, "rental_uris": {"ios": "https://dc.lft.to/lastmile_qr_scan", "android": "https://dc.lft.to/lastmile_qr_scan"}}, {"name": "67491d1bda8fff5f91da53d00926aa41", "fusion_lat": 0.0, "type": "electric_bike", "lat": 38.98813416666667, "is_reserved": 0, "is_disabled": 0, "fusion_lon": 0.0, "bike_id": "67491d1bda8fff5f91da53d00926aa41", "lon": -77.02655233333333, "rental_uris": {"ios": "https://dc.lft.to/lastmile_qr_scan", "android": "https://dc.lft.to/lastmile_qr_scan"}}, {"name": "f8b0e3acc9aa75a3957bb8d41e4b76cd", "fusion_lat": 0.0, "type": "electric_scooter", "lat": 38.915636666666664, "is_reserved": 0, "is_disabled": 0, "fusion_lon": 0.0, "bike_id": "f8b0e3acc9aa75a3957bb8d41e4b76cd", "lon": -77.04889833333333, "rental_uris": {"ios": "https://dc.lft.to/lastmile_qr_scan", "android": "https://dc.lft.to/lastmile_qr_scan"}}, {"name": "4011ef09c4052e3ee9f14e44a93b5501", "fusion_lat": 0.0, "type": "electric_bike", "lat": 38.90969483333333, "is_reserved": 0, "is_disabled": 0, "fusion_lon": 0.0, "bike_id": "4011ef09c4052e3ee9f14e44a93b5501", "lon": -77.08825433333334, "rental_uris": {"ios": "https://dc.lft.to/lastmile_qr_scan", "android": "https://dc.lft.to/lastmile_qr_scan"}}, {"name": "52acf33eebb4ea87f0b071789b7bc73d", "fusion_lat": 0.0, "type": "electric_scooter", "lat": 38.911906333333334, "is_reserved": 0, "is_disabled": 0, "fusion_lon": 0.0, "bike_id": "52acf33eebb4ea87f0b071789b7bc73d", "lon": -77.05967966666667, "rental_uris": {"ios": "https://dc.lft.to/lastmile_qr_scan", "android": "https://dc.lft.to/lastmile_qr_scan"}}, {"name": "0d0067c563e240ecfbde142e6fb44450", "fusion_lat": 0.0, "type": "electric_scooter", "lat": 38.900335166666665, "is_reserved": 0, "is_disabled": 0, "fusion_lon": 0.0, "bike_id": "0d0067c563e240ecfbde142e6fb44450", "lon": -77.01166983333333, "rental_uris": {"ios": "https://dc.lft.to/lastmile_qr_scan", "android": "https://dc.lft.to/lastmile_qr_scan"}}, {"name": "4813fa953e0d87db5c9073746cb2e1b5", "fusion_lat": 0.0, "type": "electric_scooter", "lat": 38.918354666666666, "is_reserved": 0, "is_disabled": 0, "fusion_lon": 0.0, "bike_id": "4813fa953e0d87db5c9073746cb2e1b5", "lon": -77.02705133333333, "rental_uris": {"ios": "https://dc.lft.to/lastmile_qr_scan", "android": "https://dc.lft.to/lastmile_qr_scan"}}, {"name": "2f3ee1cf25accda40a96acc4b39e8d53", "fusion_lat": 0.0, "type": "electric_scooter", "lat": 38.87630016666667, "is_reserved": 0, "is_disabled": 0, "fusion_lon": 0.0, "bike_id": "2f3ee1cf25accda40a96acc4b39e8d53", "lon": -76.96523716666667, "rental_uris": {"ios": "https://dc.lft.to/lastmile_qr_scan", "android": "https://dc.lft.to/lastmile_qr_scan"}}, {"name": "2babbf09f00967db9b33c49056f82885", "fusion_lat": 0.0, "type": "electric_scooter", "lat": 38.90538316666667, "is_reserved": 0, "is_disabled": 0, "fusion_lon": 0.0, "bike_id": "2babbf09f00967db9b33c49056f82885", "lon": -77.066086, "rental_uris": {"ios": "https://dc.lft.to/lastmile_qr_scan", "android": "https://dc.lft.to/lastmile_qr_scan"}}, {"name": "3b67aa11ac5460c1ac5ca5c596495b45", "fusion_lat": 0.0, "type": "electric_scooter", "lat": 38.89779216666667, "is_reserved": 0, "is_disabled": 0, "fusion_lon": 0.0, "bike_id": "3b67aa11ac5460c1ac5ca5c596495b45", "lon": -77.047799, "rental_uris": {"ios": "https://dc.lft.to/lastmile_qr_scan", "android": "https://dc.lft.to/lastmile_qr_scan"}}, {"name": "3b022b912d87ffd41f56779d6b435455", "fusion_lat": 0.0, "type": "electric_scooter", "lat": 38.916953, "is_reserved": 0, "is_disabled": 0, "fusion_lon": 0.0, "bike_id": "3b022b912d87ffd41f56779d6b435455", "lon": -77.02600083333333, "rental_uris": {"ios": "https://dc.lft.to/lastmile_qr_scan", "android": "https://dc.lft.to/lastmile_qr_scan"}}, {"name": "9f819776d5a718913e8daa1ab35a3193", "fusion_lat": 0.0, "type": "electric_scooter", "lat": 38.9428735, "is_reserved": 0, "is_disabled": 0, "fusion_lon": 0.0, "bike_id": "9f819776d5a718913e8daa1ab35a3193", "lon": -77.02175683333333, "rental_uris": {"ios": "https://dc.lft.to/lastmile_qr_scan", "android": "https://dc.lft.to/lastmile_qr_scan"}}, {"name": "5f792c6245345f6c49d22bb5d1d59c1c", "fusion_lat": 0.0, "type": "electric_scooter", "lat": 38.874146333333336, "is_reserved": 0, "is_disabled": 0, "fusion_lon": 0.0, "bike_id": "5f792c6245345f6c49d22bb5d1d59c1c", "lon": -76.96089933333333, "rental_uris": {"ios": "https://dc.lft.to/lastmile_qr_scan", "android": "https://dc.lft.to/lastmile_qr_scan"}}, {"name": "001ece4577949406dab6e4c32d8e0eb1", "fusion_lat": 0.0, "type": "electric_scooter", "lat": 38.909802166666665, "is_reserved": 0, "is_disabled": 0, "fusion_lon": 0.0, "bike_id": "001ece4577949406dab6e4c32d8e0eb1", "lon": -77.0671235, "rental_uris": {"ios": "https://dc.lft.to/lastmile_qr_scan", "android": "https://dc.lft.to/lastmile_qr_scan"}}, {"name": "22aea93c33eff9a599d5778b80fc7aed", "fusion_lat": 0.0, "type": "electric_scooter", "lat": 38.882633, "is_reserved": 0, "is_disabled": 0, "fusion_lon": 0.0, "bike_id": "22aea93c33eff9a599d5778b80fc7aed", "lon": -76.98618766666667, "rental_uris": {"ios": "https://dc.lft.to/lastmile_qr_scan", "android": "https://dc.lft.to/lastmile_qr_scan"}}, {"name": "a5bbe306d7d83dbab49a738e3140e28d", "fusion_lat": 0.0, "type": "electric_scooter", "lat": 38.89374866666667, "is_reserved": 0, "is_disabled": 0, "fusion_lon": 0.0, "bike_id": "a5bbe306d7d83dbab49a738e3140e28d", "lon": -76.94997783333334, "rental_uris": {"ios": "https://dc.lft.to/lastmile_qr_scan", "android": "https://dc.lft.to/lastmile_qr_scan"}}, {"name": "6b7c2b7735c6e6414c338cdda0703e63", "fusion_lat": 0.0, "type": "electric_scooter", "lat": 38.85841683333334, "is_reserved": 0, "is_disabled": 0, "fusion_lon": 0.0, "bike_id": "6b7c2b7735c6e6414c338cdda0703e63", "lon": -76.9889395, "rental_uris": {"ios": "https://dc.lft.to/lastmile_qr_scan", "android": "https://dc.lft.to/lastmile_qr_scan"}}, {"name": "a33a48eeec3d2f40dbdb548cd3e99c6e", "fusion_lat": 0.0, "type": "electric_scooter", "lat": 38.93728683333333, "is_reserved": 0, "is_disabled": 0, "fusion_lon": 0.0, "bike_id": "a33a48eeec3d2f40dbdb548cd3e99c6e", "lon": -77.020172, "rental_uris": {"ios": "https://dc.lft.to/lastmile_qr_scan", "android": "https://dc.lft.to/lastmile_qr_scan"}}, {"name": "8205a31bffd1d311afee8cd88837e776", "fusion_lat": 0.0, "type": "electric_scooter", "lat": 38.88651616666667, "is_reserved": 0, "is_disabled": 0, "fusion_lon": 0.0, "bike_id": "8205a31bffd1d311afee8cd88837e776", "lon": -77.02566683333333, "rental_uris": {"ios": "https://dc.lft.to/lastmile_qr_scan", "android": "https://dc.lft.to/lastmile_qr_scan"}}, {"name": "4d1a978f6a0982bb996e958a63531dba", "fusion_lat": 0.0, "type": "electric_scooter", "lat": 38.9009975, "is_reserved": 0, "is_disabled": 0, "fusion_lon": 0.0, "bike_id": "4d1a978f6a0982bb996e958a63531dba", "lon": -77.00515083333333, "rental_uris": {"ios": "https://dc.lft.to/lastmile_qr_scan", "android": "https://dc.lft.to/lastmile_qr_scan"}}, {"name": "a9b68c49a27c18e8b3929b2f9a2b27b0", "fusion_lat": 0.0, "type": "electric_scooter", "lat": 38.89735, "is_reserved": 0, "is_disabled": 0, "fusion_lon": 0.0, "bike_id": "a9b68c49a27c18e8b3929b2f9a2b27b0", "lon": -77.04653483333334, "rental_uris": {"ios": "https://dc.lft.to/lastmile_qr_scan", "android": "https://dc.lft.to/lastmile_qr_scan"}}, {"name": "c4db4bfde63ab4b4d14375766836d2ee", "fusion_lat": 0.0, "type": "electric_bike", "lat": 38.927891, "is_reserved": 0, "is_disabled": 0, "fusion_lon": 0.0, "bike_id": "c4db4bfde63ab4b4d14375766836d2ee", "lon": -77.05258966666666, "rental_uris": {"ios": "https://dc.lft.to/lastmile_qr_scan", "android": "https://dc.lft.to/lastmile_qr_scan"}}, {"name": "9892dcae161d50ec884b387ed7b0bf47", "fusion_lat": 0.0, "type": "electric_bike", "lat": 38.850603666666665, "is_reserved": 0, "is_disabled": 0, "fusion_lon": 0.0, "bike_id": "9892dcae161d50ec884b387ed7b0bf47", "lon": -76.9733655, "rental_uris": {"ios": "https://dc.lft.to/lastmile_qr_scan", "android": "https://dc.lft.to/lastmile_qr_scan"}}, {"name": "6b8e080d5f5d655439d00a98822a1817", "fusion_lat": 0.0, "type": "electric_scooter", "lat": 38.93686066666667, "is_reserved": 0, "is_disabled": 0, "fusion_lon": 0.0, "bike_id": "6b8e080d5f5d655439d00a98822a1817", "lon": -77.03286483333333, "rental_uris": {"ios": "https://dc.lft.to/lastmile_qr_scan", "android": "https://dc.lft.to/lastmile_qr_scan"}}, {"name": "37dffa62125ffa9ae5d429bee1911225", "fusion_lat": 0.0, "type": "electric_scooter", "lat": 38.96181716666667, "is_reserved": 0, "is_disabled": 0, "fusion_lon": 0.0, "bike_id": "37dffa62125ffa9ae5d429bee1911225", "lon": -77.03229983333334, "rental_uris": {"ios": "https://dc.lft.to/lastmile_qr_scan", "android": "https://dc.lft.to/lastmile_qr_scan"}}, {"name": "7a336083b50e2f9b471736a1b130ad6b", "fusion_lat": 0.0, "type": "electric_scooter", "lat": 38.89613133333334, "is_reserved": 0, "is_disabled": 0, "fusion_lon": 0.0, "bike_id": "7a336083b50e2f9b471736a1b130ad6b", "lon": -77.04687166666666, "rental_uris": {"ios": "https://dc.lft.to/lastmile_qr_scan", "android": "https://dc.lft.to/lastmile_qr_scan"}}, {"name": "cc8becd50b5c867851ef15a1d9c119e2", "fusion_lat": 0.0, "type": "electric_scooter", "lat": 38.9028785, "is_reserved": 0, "is_disabled": 0, "fusion_lon": 0.0, "bike_id": "cc8becd50b5c867851ef15a1d9c119e2", "lon": -77.04583116666667, "rental_uris": {"ios": "https://dc.lft.to/lastmile_qr_scan", "android": "https://dc.lft.to/lastmile_qr_scan"}}, {"name": "3def69f83d4beb15af5c6e8f8daa9822", "fusion_lat": 0.0, "type": "electric_scooter", "lat": 38.92529533333333, "is_reserved": 0, "is_disabled": 0, "fusion_lon": 0.0, "bike_id": "3def69f83d4beb15af5c6e8f8daa9822", "lon": -77.03217933333333, "rental_uris": {"ios": "https://dc.lft.to/lastmile_qr_scan", "android": "https://dc.lft.to/lastmile_qr_scan"}}, {"name": "fdb438235d75ad3a69b1d178170c8c9a", "fusion_lat": 0.0, "type": "electric_scooter", "lat": 38.907574833333335, "is_reserved": 0, "is_disabled": 0, "fusion_lon": 0.0, "bike_id": "fdb438235d75ad3a69b1d178170c8c9a", "lon": -77.0358105, "rental_uris": {"ios": "https://dc.lft.to/lastmile_qr_scan", "android": "https://dc.lft.to/lastmile_qr_scan"}}, {"name": "be9dad6d310baa0516cbdeaa0594d059", "fusion_lat": 0.0, "type": "electric_scooter", "lat": 38.896578833333336, "is_reserved": 0, "is_disabled": 0, "fusion_lon": 0.0, "bike_id": "be9dad6d310baa0516cbdeaa0594d059", "lon": -77.050354, "rental_uris": {"ios": "https://dc.lft.to/lastmile_qr_scan", "android": "https://dc.lft.to/lastmile_qr_scan"}}, {"name": "c81866be8db19e4a6a6bb5e1519b6732", "fusion_lat": 0.0, "type": "electric_scooter", "lat": 38.921479, "is_reserved": 0, "is_disabled": 0, "fusion_lon": 0.0, "bike_id": "c81866be8db19e4a6a6bb5e1519b6732", "lon": -77.0350895, "rental_uris": {"ios": "https://dc.lft.to/lastmile_qr_scan", "android": "https://dc.lft.to/lastmile_qr_scan"}}, {"name": "e3cfc94ab860aa2e39e256ad07e2e739", "fusion_lat": 0.0, "type": "electric_scooter", "lat": 38.98500283333333, "is_reserved": 0, "is_disabled": 0, "fusion_lon": 0.0, "bike_id": "e3cfc94ab860aa2e39e256ad07e2e739", "lon": -77.02647733333333, "rental_uris": {"ios": "https://dc.lft.to/lastmile_qr_scan", "android": "https://dc.lft.to/lastmile_qr_scan"}}, {"name": "10a2368dd1e571a318ce08c13db8051c", "fusion_lat": 0.0, "type": "electric_scooter", "lat": 38.89610366666667, "is_reserved": 0, "is_disabled": 0, "fusion_lon": 0.0, "bike_id": "10a2368dd1e571a318ce08c13db8051c", "lon": -77.04115366666667, "rental_uris": {"ios": "https://dc.lft.to/lastmile_qr_scan", "android": "https://dc.lft.to/lastmile_qr_scan"}}, {"name": "1cff25b1244b7cc277ab467d87c16465", "fusion_lat": 0.0, "type": "electric_scooter", "lat": 38.88430683333333, "is_reserved": 0, "is_disabled": 0, "fusion_lon": 0.0, "bike_id": "1cff25b1244b7cc277ab467d87c16465", "lon": -76.95758916666666, "rental_uris": {"ios": "https://dc.lft.to/lastmile_qr_scan", "android": "https://dc.lft.to/lastmile_qr_scan"}}, {"name": "4b21f18470e1514bc29ca7141f564ca8", "fusion_lat": 0.0, "type": "electric_scooter", "lat": 38.8764805, "is_reserved": 0, "is_disabled": 0, "fusion_lon": 0.0, "bike_id": "4b21f18470e1514bc29ca7141f564ca8", "lon": -76.96503866666667, "rental_uris": {"ios": "https://dc.lft.to/lastmile_qr_scan", "android": "https://dc.lft.to/lastmile_qr_scan"}}, {"name": "53d09533f1b13fbd9ee3c5b556c0a1be", "fusion_lat": 0.0, "type": "electric_bike", "lat": 38.895632166666665, "is_reserved": 0, "is_disabled": 0, "fusion_lon": 0.0, "bike_id": "53d09533f1b13fbd9ee3c5b556c0a1be", "lon": -77.12732883333334, "rental_uris": {"ios": "https://dc.lft.to/lastmile_qr_scan", "android": "https://dc.lft.to/lastmile_qr_scan"}}, {"name": "bb4f4ae32483048a606ed9e2bbdb81a3", "fusion_lat": 0.0, "type": "electric_bike", "lat": 39.105647166666664, "is_reserved": 0, "is_disabled": 0, "fusion_lon": 0.0, "bike_id": "bb4f4ae32483048a606ed9e2bbdb81a3", "lon": -77.15267316666667, "rental_uris": {"ios": "https://dc.lft.to/lastmile_qr_scan", "android": "https://dc.lft.to/lastmile_qr_scan"}}, {"name": "2a060e2e1400d3d4747c996657cd0e95", "fusion_lat": 0.0, "type": "electric_bike", "lat": 38.92288333333333, "is_reserved": 0, "is_disabled": 0, "fusion_lon": 0.0, "bike_id": "2a060e2e1400d3d4747c996657cd0e95", "lon": -76.99354266666667, "rental_uris": {"ios": "https://dc.lft.to/lastmile_qr_scan", "android": "https://dc.lft.to/lastmile_qr_scan"}}, {"name": "3afdf41c09a2b2e2d60a719cda64e0eb", "fusion_lat": 0.0, "type": "electric_scooter", "lat": 38.895341, "is_reserved": 0, "is_disabled": 0, "fusion_lon": 0.0, "bike_id": "3afdf41c09a2b2e2d60a719cda64e0eb", "lon": -76.94925083333334, "rental_uris": {"ios": "https://dc.lft.to/lastmile_qr_scan", "android": "https://dc.lft.to/lastmile_qr_scan"}}, {"name": "a9bd0afc37c8c492ad223c1929833c30", "fusion_lat": 0.0, "type": "electric_scooter", "lat": 38.89628033333334, "is_reserved": 0, "is_disabled": 0, "fusion_lon": 0.0, "bike_id": "a9bd0afc37c8c492ad223c1929833c30", "lon": -77.02372716666666, "rental_uris": {"ios": "https://dc.lft.to/lastmile_qr_scan", "android": "https://dc.lft.to/lastmile_qr_scan"}}, {"name": "53b2c6a0df27ac44b1e9904f44796f31", "fusion_lat": 0.0, "type": "electric_scooter", "lat": 38.91673516666667, "is_reserved": 0, "is_disabled": 0, "fusion_lon": 0.0, "bike_id": "53b2c6a0df27ac44b1e9904f44796f31", "lon": -77.032067, "rental_uris": {"ios": "https://dc.lft.to/lastmile_qr_scan", "android": "https://dc.lft.to/lastmile_qr_scan"}}, {"name": "66ff8b4e9fdbe7757388482780f636ed", "fusion_lat": 0.0, "type": "electric_scooter", "lat": 38.91565683333334, "is_reserved": 0, "is_disabled": 0, "fusion_lon": 0.0, "bike_id": "66ff8b4e9fdbe7757388482780f636ed", "lon": -77.0317235, "rental_uris": {"ios": "https://dc.lft.to/lastmile_qr_scan", "android": "https://dc.lft.to/lastmile_qr_scan"}}, {"name": "3e99a3b8282ab5bffb03d1cd43801015", "fusion_lat": 0.0, "type": "electric_scooter", "lat": 38.94174616666667, "is_reserved": 0, "is_disabled": 0, "fusion_lon": 0.0, "bike_id": "3e99a3b8282ab5bffb03d1cd43801015", "lon": -77.0251115, "rental_uris": {"ios": "https://dc.lft.to/lastmile_qr_scan", "android": "https://dc.lft.to/lastmile_qr_scan"}}, {"name": "7b30a36dd069c0a3471f137a8f3fa246", "fusion_lat": 0.0, "type": "electric_scooter", "lat": 38.911292833333334, "is_reserved": 0, "is_disabled": 0, "fusion_lon": 0.0, "bike_id": "7b30a36dd069c0a3471f137a8f3fa246", "lon": -77.03139216666666, "rental_uris": {"ios": "https://dc.lft.to/lastmile_qr_scan", "android": "https://dc.lft.to/lastmile_qr_scan"}}, {"name": "ed03e221f7be207d05c5234bb7936404", "fusion_lat": 0.0, "type": "electric_scooter", "lat": 38.9217925, "is_reserved": 0, "is_disabled": 0, "fusion_lon": 0.0, "bike_id": "ed03e221f7be207d05c5234bb7936404", "lon": -77.0241745, "rental_uris": {"ios": "https://dc.lft.to/lastmile_qr_scan", "android": "https://dc.lft.to/lastmile_qr_scan"}}, {"name": "87d4d9a5a0d9d138368b9d222e62bd63", "fusion_lat": 0.0, "type": "electric_scooter", "lat": 38.9085415, "is_reserved": 0, "is_disabled": 0, "fusion_lon": 0.0, "bike_id": "87d4d9a5a0d9d138368b9d222e62bd63", "lon": -77.02093766666667, "rental_uris": {"ios": "https://dc.lft.to/lastmile_qr_scan", "android": "https://dc.lft.to/lastmile_qr_scan"}}, {"name": "5ead33cfbe986458fc4a1eecc016708a", "fusion_lat": 0.0, "type": "electric_scooter", "lat": 38.8991035, "is_reserved": 0, "is_disabled": 0, "fusion_lon": 0.0, "bike_id": "5ead33cfbe986458fc4a1eecc016708a", "lon": -77.07095433333333, "rental_uris": {"ios": "https://dc.lft.to/lastmile_qr_scan", "android": "https://dc.lft.to/lastmile_qr_scan"}}, {"name": "8f10f97d7f74ba34aeabd8dc5737d245", "fusion_lat": 0.0, "type": "electric_bike", "lat": 38.85490383333333, "is_reserved": 0, "is_disabled": 0, "fusion_lon": 0.0, "bike_id": "8f10f97d7f74ba34aeabd8dc5737d245", "lon": -77.1152435, "rental_uris": {"ios": "https://dc.lft.to/lastmile_qr_scan", "android": "https://dc.lft.to/lastmile_qr_scan"}}, {"name": "e0db732e3b836054268764a42e2af408", "fusion_lat": 0.0, "type": "electric_scooter", "lat": 38.906448166666664, "is_reserved": 0, "is_disabled": 0, "fusion_lon": 0.0, "bike_id": "e0db732e3b836054268764a42e2af408", "lon": -77.05151816666667, "rental_uris": {"ios": "https://dc.lft.to/lastmile_qr_scan", "android": "https://dc.lft.to/lastmile_qr_scan"}}, {"name": "cbbc83b6850e00ff7fd34988d6b305c4", "fusion_lat": 0.0, "type": "electric_scooter", "lat": 38.87681666666667, "is_reserved": 0, "is_disabled": 0, "fusion_lon": 0.0, "bike_id": "cbbc83b6850e00ff7fd34988d6b305c4", "lon": -77.00745916666666, "rental_uris": {"ios": "https://dc.lft.to/lastmile_qr_scan", "android": "https://dc.lft.to/lastmile_qr_scan"}}, {"name": "2398afebef20bb5ca936d99cc393ef87", "fusion_lat": 0.0, "type": "electric_scooter", "lat": 38.897236166666666, "is_reserved": 0, "is_disabled": 0, "fusion_lon": 0.0, "bike_id": "2398afebef20bb5ca936d99cc393ef87", "lon": -77.00208483333333, "rental_uris": {"ios": "https://dc.lft.to/lastmile_qr_scan", "android": "https://dc.lft.to/lastmile_qr_scan"}}, {"name": "40bc908c3ffc8992e95326891dba436b", "fusion_lat": 0.0, "type": "electric_scooter", "lat": 38.904611, "is_reserved": 0, "is_disabled": 0, "fusion_lon": 0.0, "bike_id": "40bc908c3ffc8992e95326891dba436b", "lon": -76.98528233333333, "rental_uris": {"ios": "https://dc.lft.to/lastmile_qr_scan", "android": "https://dc.lft.to/lastmile_qr_scan"}}, {"name": "f2aaf29900936014b57019df4689b5b7", "fusion_lat": 0.0, "type": "electric_scooter", "lat": 38.909709666666664, "is_reserved": 0, "is_disabled": 0, "fusion_lon": 0.0, "bike_id": "f2aaf29900936014b57019df4689b5b7", "lon": -77.01716616666667, "rental_uris": {"ios": "https://dc.lft.to/lastmile_qr_scan", "android": "https://dc.lft.to/lastmile_qr_scan"}}, {"name": "96c9c49edf5e27b5c57e547ba48ce916", "fusion_lat": 0.0, "type": "electric_bike", "lat": 38.913102, "is_reserved": 0, "is_disabled": 0, "fusion_lon": 0.0, "bike_id": "96c9c49edf5e27b5c57e547ba48ce916", "lon": -76.976098, "rental_uris": {"ios": "https://dc.lft.to/lastmile_qr_scan", "android": "https://dc.lft.to/lastmile_qr_scan"}}, {"name": "5922a255ec6ee0a5bd9babe7ec557e4a", "fusion_lat": 0.0, "type": "electric_scooter", "lat": 38.923240666666665, "is_reserved": 0, "is_disabled": 0, "fusion_lon": 0.0, "bike_id": "5922a255ec6ee0a5bd9babe7ec557e4a", "lon": -77.02972683333333, "rental_uris": {"ios": "https://dc.lft.to/lastmile_qr_scan", "android": "https://dc.lft.to/lastmile_qr_scan"}}, {"name": "635f81eff9afd1370fc977c750058d5e", "fusion_lat": 0.0, "type": "electric_scooter", "lat": 38.905666, "is_reserved": 0, "is_disabled": 0, "fusion_lon": 0.0, "bike_id": "635f81eff9afd1370fc977c750058d5e", "lon": -77.04873616666667, "rental_uris": {"ios": "https://dc.lft.to/lastmile_qr_scan", "android": "https://dc.lft.to/lastmile_qr_scan"}}, {"name": "4016fa4c9083b0ee3a68dd83c3fedd5a", "fusion_lat": 0.0, "type": "electric_scooter", "lat": 38.9387605, "is_reserved": 0, "is_disabled": 0, "fusion_lon": 0.0, "bike_id": "4016fa4c9083b0ee3a68dd83c3fedd5a", "lon": -77.03256466666667, "rental_uris": {"ios": "https://dc.lft.to/lastmile_qr_scan", "android": "https://dc.lft.to/lastmile_qr_scan"}}, {"name": "5823ca5a5b1477d2febae347f89e741b", "fusion_lat": 0.0, "type": "electric_scooter", "lat": 38.89851516666667, "is_reserved": 0, "is_disabled": 0, "fusion_lon": 0.0, "bike_id": "5823ca5a5b1477d2febae347f89e741b", "lon": -77.0199355, "rental_uris": {"ios": "https://dc.lft.to/lastmile_qr_scan", "android": "https://dc.lft.to/lastmile_qr_scan"}}, {"name": "af9ba2afbeb8a37a62493a860d9838f1", "fusion_lat": 0.0, "type": "electric_scooter", "lat": 38.93536566666667, "is_reserved": 0, "is_disabled": 0, "fusion_lon": 0.0, "bike_id": "af9ba2afbeb8a37a62493a860d9838f1", "lon": -77.03262466666666, "rental_uris": {"ios": "https://dc.lft.to/lastmile_qr_scan", "android": "https://dc.lft.to/lastmile_qr_scan"}}, {"name": "0532935cde949901f7ba834e261f5626", "fusion_lat": 0.0, "type": "electric_scooter", "lat": 38.858683166666665, "is_reserved": 0, "is_disabled": 0, "fusion_lon": 0.0, "bike_id": "0532935cde949901f7ba834e261f5626", "lon": -76.99032316666667, "rental_uris": {"ios": "https://dc.lft.to/lastmile_qr_scan", "android": "https://dc.lft.to/lastmile_qr_scan"}}, {"name": "cbd81abb130de618bf13e90c4f39a9e7", "fusion_lat": 0.0, "type": "electric_scooter", "lat": 38.9258695, "is_reserved": 0, "is_disabled": 0, "fusion_lon": 0.0, "bike_id": "cbd81abb130de618bf13e90c4f39a9e7", "lon": -77.02603866666666, "rental_uris": {"ios": "https://dc.lft.to/lastmile_qr_scan", "android": "https://dc.lft.to/lastmile_qr_scan"}}, {"name": "4b3ef771634c6c59c3dd71df1c558a1a", "fusion_lat": 0.0, "type": "electric_scooter", "lat": 38.96563166666667, "is_reserved": 0, "is_disabled": 0, "fusion_lon": 0.0, "bike_id": "4b3ef771634c6c59c3dd71df1c558a1a", "lon": -77.01624183333334, "rental_uris": {"ios": "https://dc.lft.to/lastmile_qr_scan", "android": "https://dc.lft.to/lastmile_qr_scan"}}, {"name": "35917d17f03662fef2807d9506e696bb", "fusion_lat": 0.0, "type": "electric_scooter", "lat": 38.912633166666666, "is_reserved": 0, "is_disabled": 0, "fusion_lon": 0.0, "bike_id": "35917d17f03662fef2807d9506e696bb", "lon": -77.045225, "rental_uris": {"ios": "https://dc.lft.to/lastmile_qr_scan", "android": "https://dc.lft.to/lastmile_qr_scan"}}, {"name": "4007c2e46f165b7fc108d0e19ae70215", "fusion_lat": 0.0, "type": "electric_scooter", "lat": 38.9000025, "is_reserved": 0, "is_disabled": 0, "fusion_lon": 0.0, "bike_id": "4007c2e46f165b7fc108d0e19ae70215", "lon": -77.0411455, "rental_uris": {"ios": "https://dc.lft.to/lastmile_qr_scan", "android": "https://dc.lft.to/lastmile_qr_scan"}}, {"name": "2357a12a0717816cdeab6252bda99b31", "fusion_lat": 0.0, "type": "electric_scooter", "lat": 38.906060833333335, "is_reserved": 0, "is_disabled": 0, "fusion_lon": 0.0, "bike_id": "2357a12a0717816cdeab6252bda99b31", "lon": -77.056204, "rental_uris": {"ios": "https://dc.lft.to/lastmile_qr_scan", "android": "https://dc.lft.to/lastmile_qr_scan"}}, {"name": "ec8a7fb46ae5a1561b523dc44cac57fb", "fusion_lat": 0.0, "type": "electric_scooter", "lat": 38.9617555, "is_reserved": 0, "is_disabled": 0, "fusion_lon": 0.0, "bike_id": "ec8a7fb46ae5a1561b523dc44cac57fb", "lon": -77.03225733333333, "rental_uris": {"ios": "https://dc.lft.to/lastmile_qr_scan", "android": "https://dc.lft.to/lastmile_qr_scan"}}, {"name": "0c725188f797b824a0e46e73e7345411", "fusion_lat": 0.0, "type": "electric_scooter", "lat": 38.884311833333335, "is_reserved": 0, "is_disabled": 0, "fusion_lon": 0.0, "bike_id": "0c725188f797b824a0e46e73e7345411", "lon": -76.95754783333334, "rental_uris": {"ios": "https://dc.lft.to/lastmile_qr_scan", "android": "https://dc.lft.to/lastmile_qr_scan"}}, {"name": "b52d20fb668617391a4e41b2278df36b", "fusion_lat": 0.0, "type": "electric_scooter", "lat": 38.92264766666667, "is_reserved": 0, "is_disabled": 0, "fusion_lon": 0.0, "bike_id": "b52d20fb668617391a4e41b2278df36b", "lon": -77.03407366666667, "rental_uris": {"ios": "https://dc.lft.to/lastmile_qr_scan", "android": "https://dc.lft.to/lastmile_qr_scan"}}, {"name": "c33dfb23fd3287676cc3fa7694c326e0", "fusion_lat": 0.0, "type": "electric_scooter", "lat": 38.925809666666666, "is_reserved": 0, "is_disabled": 0, "fusion_lon": 0.0, "bike_id": "c33dfb23fd3287676cc3fa7694c326e0", "lon": -77.05212983333334, "rental_uris": {"ios": "https://dc.lft.to/lastmile_qr_scan", "android": "https://dc.lft.to/lastmile_qr_scan"}}, {"name": "b21629741f034004cb85a3a4f53dc87f", "fusion_lat": 0.0, "type": "electric_bike", "lat": 38.966180666666666, "is_reserved": 0, "is_disabled": 0, "fusion_lon": 0.0, "bike_id": "b21629741f034004cb85a3a4f53dc87f", "lon": -76.94421216666667, "rental_uris": {"ios": "https://dc.lft.to/lastmile_qr_scan", "android": "https://dc.lft.to/lastmile_qr_scan"}}, {"name": "2279c5eb55fe5ab34a338b5c5ad97da9", "fusion_lat": 0.0, "type": "electric_bike", "lat": 39.0242125, "is_reserved": 0, "is_disabled": 0, "fusion_lon": 0.0, "bike_id": "2279c5eb55fe5ab34a338b5c5ad97da9", "lon": -77.12506783333333, "rental_uris": {"ios": "https://dc.lft.to/lastmile_qr_scan", "android": "https://dc.lft.to/lastmile_qr_scan"}}, {"name": "9f6f1c860172e9dcc5e02d6ed8be4573", "fusion_lat": 0.0, "type": "electric_scooter", "lat": 38.93117, "is_reserved": 0, "is_disabled": 0, "fusion_lon": 0.0, "bike_id": "9f6f1c860172e9dcc5e02d6ed8be4573", "lon": -77.0199975, "rental_uris": {"ios": "https://dc.lft.to/lastmile_qr_scan", "android": "https://dc.lft.to/lastmile_qr_scan"}}, {"name": "4cc68980b200e4e8589b89bbba0a56ce", "fusion_lat": 0.0, "type": "electric_scooter", "lat": 38.9243425, "is_reserved": 0, "is_disabled": 0, "fusion_lon": 0.0, "bike_id": "4cc68980b200e4e8589b89bbba0a56ce", "lon": -77.0412855, "rental_uris": {"ios": "https://dc.lft.to/lastmile_qr_scan", "android": "https://dc.lft.to/lastmile_qr_scan"}}, {"name": "1aba206f863f7610b2fc20de6f760e4b", "fusion_lat": 0.0, "type": "electric_scooter", "lat": 38.92059166666667, "is_reserved": 0, "is_disabled": 0, "fusion_lon": 0.0, "bike_id": "1aba206f863f7610b2fc20de6f760e4b", "lon": -77.04694166666667, "rental_uris": {"ios": "https://dc.lft.to/lastmile_qr_scan", "android": "https://dc.lft.to/lastmile_qr_scan"}}, {"name": "720a26af3a0ac063cd1cd5a5e34a9f68", "fusion_lat": 0.0, "type": "electric_scooter", "lat": 38.919872833333336, "is_reserved": 0, "is_disabled": 0, "fusion_lon": 0.0, "bike_id": "720a26af3a0ac063cd1cd5a5e34a9f68", "lon": -77.033137, "rental_uris": {"ios": "https://dc.lft.to/lastmile_qr_scan", "android": "https://dc.lft.to/lastmile_qr_scan"}}, {"name": "87278ad872132efe36346fa9f6198294", "fusion_lat": 0.0, "type": "electric_scooter", "lat": 38.93177166666667, "is_reserved": 0, "is_disabled": 0, "fusion_lon": 0.0, "bike_id": "87278ad872132efe36346fa9f6198294", "lon": -77.0560945, "rental_uris": {"ios": "https://dc.lft.to/lastmile_qr_scan", "android": "https://dc.lft.to/lastmile_qr_scan"}}, {"name": "80a8497d2f4c5f2b878ba1eb6a1f2cf4", "fusion_lat": 0.0, "type": "electric_bike", "lat": 38.928491333333334, "is_reserved": 0, "is_disabled": 0, "fusion_lon": 0.0, "bike_id": "80a8497d2f4c5f2b878ba1eb6a1f2cf4", "lon": -77.10508316666666, "rental_uris": {"ios": "https://dc.lft.to/lastmile_qr_scan", "android": "https://dc.lft.to/lastmile_qr_scan"}}, {"name": "b79471b10b6a74b6ee22726dee3167a1", "fusion_lat": 0.0, "type": "electric_scooter", "lat": 38.89093233333333, "is_reserved": 0, "is_disabled": 0, "fusion_lon": 0.0, "bike_id": "b79471b10b6a74b6ee22726dee3167a1", "lon": -76.99789433333333, "rental_uris": {"ios": "https://dc.lft.to/lastmile_qr_scan", "android": "https://dc.lft.to/lastmile_qr_scan"}}, {"name": "4f76982525be20283d3236faad255ce9", "fusion_lat": 0.0, "type": "electric_scooter", "lat": 38.90867166666666, "is_reserved": 0, "is_disabled": 0, "fusion_lon": 0.0, "bike_id": "4f76982525be20283d3236faad255ce9", "lon": -77.04508266666667, "rental_uris": {"ios": "https://dc.lft.to/lastmile_qr_scan", "android": "https://dc.lft.to/lastmile_qr_scan"}}, {"name": "9a1e837fd0aff41f17c92baa9d3d5184", "fusion_lat": 0.0, "type": "electric_scooter", "lat": 38.908565333333335, "is_reserved": 0, "is_disabled": 0, "fusion_lon": 0.0, "bike_id": "9a1e837fd0aff41f17c92baa9d3d5184", "lon": -77.0327895, "rental_uris": {"ios": "https://dc.lft.to/lastmile_qr_scan", "android": "https://dc.lft.to/lastmile_qr_scan"}}, {"name": "c21ac6f1c16dce5f4feddd8a56d957f8", "fusion_lat": 0.0, "type": "electric_scooter", "lat": 38.90026483333333, "is_reserved": 0, "is_disabled": 0, "fusion_lon": 0.0, "bike_id": "c21ac6f1c16dce5f4feddd8a56d957f8", "lon": -77.0297625, "rental_uris": {"ios": "https://dc.lft.to/lastmile_qr_scan", "android": "https://dc.lft.to/lastmile_qr_scan"}}, {"name": "b41d0a0166b515eb5d27a941f0a4cbb9", "fusion_lat": 0.0, "type": "electric_scooter", "lat": 38.897318166666665, "is_reserved": 0, "is_disabled": 0, "fusion_lon": 0.0, "bike_id": "b41d0a0166b515eb5d27a941f0a4cbb9", "lon": -77.047253, "rental_uris": {"ios": "https://dc.lft.to/lastmile_qr_scan", "android": "https://dc.lft.to/lastmile_qr_scan"}}, {"name": "e126684e511e08a8c09bb5d06b56c4b7", "fusion_lat": 0.0, "type": "electric_bike", "lat": 38.93310733333333, "is_reserved": 0, "is_disabled": 0, "fusion_lon": 0.0, "bike_id": "e126684e511e08a8c09bb5d06b56c4b7", "lon": -77.03092916666667, "rental_uris": {"ios": "https://dc.lft.to/lastmile_qr_scan", "android": "https://dc.lft.to/lastmile_qr_scan"}}, {"name": "71f92dc78aacf2e8e3cd6bd425f48083", "fusion_lat": 0.0, "type": "electric_bike", "lat": 38.945853666666665, "is_reserved": 0, "is_disabled": 0, "fusion_lon": 0.0, "bike_id": "71f92dc78aacf2e8e3cd6bd425f48083", "lon": -77.34403383333333, "rental_uris": {"ios": "https://dc.lft.to/lastmile_qr_scan", "android": "https://dc.lft.to/lastmile_qr_scan"}}, {"name": "8db327e5da41dab740852920ed7601f8", "fusion_lat": 0.0, "type": "electric_scooter", "lat": 38.9155695, "is_reserved": 0, "is_disabled": 0, "fusion_lon": 0.0, "bike_id": "8db327e5da41dab740852920ed7601f8", "lon": -77.02071833333333, "rental_uris": {"ios": "https://dc.lft.to/lastmile_qr_scan", "android": "https://dc.lft.to/lastmile_qr_scan"}}, {"name": "2791ed7899f34c1fb687dd63c054a6bf", "fusion_lat": 0.0, "type": "electric_scooter", "lat": 38.897347333333336, "is_reserved": 0, "is_disabled": 0, "fusion_lon": 0.0, "bike_id": "2791ed7899f34c1fb687dd63c054a6bf", "lon": -77.04744483333333, "rental_uris": {"ios": "https://dc.lft.to/lastmile_qr_scan", "android": "https://dc.lft.to/lastmile_qr_scan"}}, {"name": "c32e733ac605b339249be35a459cffc5", "fusion_lat": 0.0, "type": "electric_scooter", "lat": 38.89947816666667, "is_reserved": 0, "is_disabled": 0, "fusion_lon": 0.0, "bike_id": "c32e733ac605b339249be35a459cffc5", "lon": -76.994944, "rental_uris": {"ios": "https://dc.lft.to/lastmile_qr_scan", "android": "https://dc.lft.to/lastmile_qr_scan"}}, {"name": "8b836765ad7bfe07671c0b90a921d4ba", "fusion_lat": 0.0, "type": "electric_scooter", "lat": 38.89886333333333, "is_reserved": 0, "is_disabled": 0, "fusion_lon": 0.0, "bike_id": "8b836765ad7bfe07671c0b90a921d4ba", "lon": -76.93176216666667, "rental_uris": {"ios": "https://dc.lft.to/lastmile_qr_scan", "android": "https://dc.lft.to/lastmile_qr_scan"}}, {"name": "2bf6adc3c0de9a2fef917ea3c196f736", "fusion_lat": 0.0, "type": "electric_scooter", "lat": 38.879198333333335, "is_reserved": 0, "is_disabled": 0, "fusion_lon": 0.0, "bike_id": "2bf6adc3c0de9a2fef917ea3c196f736", "lon": -77.02102366666666, "rental_uris": {"ios": "https://dc.lft.to/lastmile_qr_scan", "android": "https://dc.lft.to/lastmile_qr_scan"}}, {"name": "e2db907344eb211e1ba413da017dfa04", "fusion_lat": 0.0, "type": "electric_scooter", "lat": 38.92492333333333, "is_reserved": 0, "is_disabled": 0, "fusion_lon": 0.0, "bike_id": "e2db907344eb211e1ba413da017dfa04", "lon": -77.052202, "rental_uris": {"ios": "https://dc.lft.to/lastmile_qr_scan", "android": "https://dc.lft.to/lastmile_qr_scan"}}, {"name": "0c893ff69231993e031a398569751159", "fusion_lat": 0.0, "type": "electric_scooter", "lat": 38.90570316666667, "is_reserved": 0, "is_disabled": 0, "fusion_lon": 0.0, "bike_id": "0c893ff69231993e031a398569751159", "lon": -77.05701633333334, "rental_uris": {"ios": "https://dc.lft.to/lastmile_qr_scan", "android": "https://dc.lft.to/lastmile_qr_scan"}}, {"name": "440665c587476bc9eee6f7b9e6130cea", "fusion_lat": 0.0, "type": "electric_scooter", "lat": 38.93339266666667, "is_reserved": 0, "is_disabled": 0, "fusion_lon": 0.0, "bike_id": "440665c587476bc9eee6f7b9e6130cea", "lon": -77.0817865, "rental_uris": {"ios": "https://dc.lft.to/lastmile_qr_scan", "android": "https://dc.lft.to/lastmile_qr_scan"}}, {"name": "4782abe7abfd03057594156db7423b81", "fusion_lat": 0.0, "type": "electric_scooter", "lat": 38.86916033333333, "is_reserved": 0, "is_disabled": 0, "fusion_lon": 0.0, "bike_id": "4782abe7abfd03057594156db7423b81", "lon": -76.9750035, "rental_uris": {"ios": "https://dc.lft.to/lastmile_qr_scan", "android": "https://dc.lft.to/lastmile_qr_scan"}}, {"name": "9df2f5314b7a977b56d3e33c33e00aff", "fusion_lat": 0.0, "type": "electric_scooter", "lat": 38.91643116666667, "is_reserved": 0, "is_disabled": 0, "fusion_lon": 0.0, "bike_id": "9df2f5314b7a977b56d3e33c33e00aff", "lon": -77.0389825, "rental_uris": {"ios": "https://dc.lft.to/lastmile_qr_scan", "android": "https://dc.lft.to/lastmile_qr_scan"}}, {"name": "b52208b92d29e2a4a3ea0bbdff89da82", "fusion_lat": 0.0, "type": "electric_bike", "lat": 38.886360833333335, "is_reserved": 0, "is_disabled": 0, "fusion_lon": 0.0, "bike_id": "b52208b92d29e2a4a3ea0bbdff89da82", "lon": -76.95476516666666, "rental_uris": {"ios": "https://dc.lft.to/lastmile_qr_scan", "android": "https://dc.lft.to/lastmile_qr_scan"}}, {"name": "39d27bcd6ea04ba5eb2fd0f8b0b2fef0", "fusion_lat": 0.0, "type": "electric_scooter", "lat": 38.917112833333334, "is_reserved": 0, "is_disabled": 0, "fusion_lon": 0.0, "bike_id": "39d27bcd6ea04ba5eb2fd0f8b0b2fef0", "lon": -77.012402, "rental_uris": {"ios": "https://dc.lft.to/lastmile_qr_scan", "android": "https://dc.lft.to/lastmile_qr_scan"}}, {"name": "7aa6270d29451a89e247bf4dd20dfdf9", "fusion_lat": 0.0, "type": "electric_scooter", "lat": 38.91549083333334, "is_reserved": 0, "is_disabled": 0, "fusion_lon": 0.0, "bike_id": "7aa6270d29451a89e247bf4dd20dfdf9", "lon": -77.03850183333333, "rental_uris": {"ios": "https://dc.lft.to/lastmile_qr_scan", "android": "https://dc.lft.to/lastmile_qr_scan"}}, {"name": "48aec120963614e5313a0d5dbc156e83", "fusion_lat": 0.0, "type": "electric_scooter", "lat": 38.905409, "is_reserved": 0, "is_disabled": 0, "fusion_lon": 0.0, "bike_id": "48aec120963614e5313a0d5dbc156e83", "lon": -77.06271833333334, "rental_uris": {"ios": "https://dc.lft.to/lastmile_qr_scan", "android": "https://dc.lft.to/lastmile_qr_scan"}}, {"name": "39e3d100dd33795dc5ece775f86f7dc0", "fusion_lat": 0.0, "type": "electric_scooter", "lat": 38.88740416666667, "is_reserved": 0, "is_disabled": 0, "fusion_lon": 0.0, "bike_id": "39e3d100dd33795dc5ece775f86f7dc0", "lon": -77.01532433333334, "rental_uris": {"ios": "https://dc.lft.to/lastmile_qr_scan", "android": "https://dc.lft.to/lastmile_qr_scan"}}, {"name": "ffacda517781a86e1929116ea70e6ade", "fusion_lat": 0.0, "type": "electric_bike", "lat": 38.89836533333333, "is_reserved": 0, "is_disabled": 0, "fusion_lon": 0.0, "bike_id": "ffacda517781a86e1929116ea70e6ade", "lon": -77.1180055, "rental_uris": {"ios": "https://dc.lft.to/lastmile_qr_scan", "android": "https://dc.lft.to/lastmile_qr_scan"}}, {"name": "e3e8497e06dd827c6f4617b360eedcb0", "fusion_lat": 0.0, "type": "electric_scooter", "lat": 38.90015916666667, "is_reserved": 0, "is_disabled": 0, "fusion_lon": 0.0, "bike_id": "e3e8497e06dd827c6f4617b360eedcb0", "lon": -76.98513916666667, "rental_uris": {"ios": "https://dc.lft.to/lastmile_qr_scan", "android": "https://dc.lft.to/lastmile_qr_scan"}}, {"name": "d70b481fb9472d7a430a10d26b44443e", "fusion_lat": 0.0, "type": "electric_scooter", "lat": 38.935460666666664, "is_reserved": 0, "is_disabled": 0, "fusion_lon": 0.0, "bike_id": "d70b481fb9472d7a430a10d26b44443e", "lon": -77.059834, "rental_uris": {"ios": "https://dc.lft.to/lastmile_qr_scan", "android": "https://dc.lft.to/lastmile_qr_scan"}},