{"data": {"bikes": [{"lat": 38.941235166666665, "is_disabled": 0, "type": "electric_scooter", "lon": -77.000615, "bike_id": "524f1e758766565aa2c00bbb4510f86c", "fusion_lat": 0.0, "name": "524f1e758766565aa2c00bbb4510f86c", "is_reserved": 0, "rental_uris": {"android": "https://dc.lft.to/lastmile_qr_scan", "ios": "https://dc.lft.to/lastmile_qr_scan"}, "fusion_lon": 0.0}, {"lat": 38.918821333333334, "is_disabled": 0, "type": "electric_scooter", "lon": -77.0447545, "bike_id": "7768081b945bb8c1e0b821b0d8269d8c", "fusion_lat": 0.0, "name": "7768081b945bb8c1e0b821b0d8269d8c", "is_reserved": 0, "rental_uris": {"android": "https://dc.lft.to/lastmile_qr_scan", "ios": "https://dc.lft.to/lastmile_qr_scan"}, "fusion_lon": 0.0}, {"lat": 38.91681533333333, "is_disabled": 0, "type": "electric_scooter", "lon": -77.00202716666666, "bike_id": "bb3c1377f272d63f12141abfa0b95755", "fusion_lat": 0.0, "name": "bb3c1377f272d63f12141abfa0b95755", "is_reserved": 0, "rental_uris": {"android": "https://dc.lft.to/lastmile_qr_scan", "ios": "https://dc.lft.to/lastmile_qr_scan"}, "fusion_lon": 0.0}, {"lat": 38.925361333333335, "is_disabled": 0, "type": "electric_scooter", "lon": -77.0263205, "bike_id": "52d47baed4cc142c508e3f7cf4557f8a", "fusion_lat": 0.0, "name": "52d47baed4cc142c508e3f7cf4557f8a", "is_reserved": 0, "rental_uris": {"android": "https://dc.lft.to/lastmile_qr_scan", "ios": "https://dc.lft.to/lastmile_qr_scan"}, "fusion_lon": 0.0}, {"lat": 38.95887866666666, "is_disabled": 0, "type": "electric_bike", "lon": -76.92484766666666, "bike_id": "d216107fbda10f0a00c798afee9315c8", "fusion_lat": 0.0, "name": "d216107fbda10f0a00c798afee9315c8", "is_reserved": 0, "rental_uris": {"android": "https://dc.lft.to/lastmile_qr_scan", "ios": "https://dc.lft.to/lastmile_qr_scan"}, "fusion_lon": 0.0}, {"lat": 38.8836045, "is_disabled": 0, "type": "electric_scooter", "lon": -76.941546, "bike_id": "432358aa1bd66dd7c34f76dfb3d17454", "fusion_lat": 0.0, "name": "432358aa1bd66dd7c34f76dfb3d17454", "is_reserved": 0, "rental_uris": {"android": "https://dc.lft.to/lastmile_qr_scan", "ios": "https://dc.lft.to/lastmile_qr_scan"}, "fusion_lon": 0.0}, {"lat": 38.934105333333335, "is_disabled": 0, "type": "electric_scooter", "lon": -77.03291583333333, "bike_id": "29cbd594e0b76f0fa1bf3ca2fd1891e9", "fusion_lat": 0.0, "name": "29cbd594e0b76f0fa1bf3ca2fd1891e9", "is_reserved": 0, "rental_uris": {"android": "https://dc.lft.to/lastmile_qr_scan", "ios": "https://dc.lft.to/lastmile_qr_scan"}, "fusion_lon": 0.0}, {"lat": 38.91422933333333, "is_disabled": 0, "type": "electric_scooter", "lon": -77.03187083333333, "bike_id": "cffe5094ced7234e3953a4e40ed56691", "fusion_lat": 0.0, "name": "cffe5094ced7234e3953a4e40ed56691", "is_reserved": 0, "rental_uris": {"android": "https://dc.lft.to/lastmile_qr_scan", "ios": "https://dc.lft.to/lastmile_qr_scan"}, "fusion_lon": 0.0}, {"lat": 38.880347, "is_disabled": 0, "type": "electric_scooter", "lon": -77.00363466666667, "bike_id": "3b8499faed01e7d3b26882c1d4e9ee91", "fusion_lat": 0.0, "name": "3b8499faed01e7d3b26882c1d4e9ee91", "is_reserved": 0, "rental_uris": {"android": "https://dc.lft.to/lastmile_qr_scan", "ios": "https://dc.lft.to/lastmile_qr_scan"}, "fusion_lon": 0.0}, {"lat": 38.907038, "is_disabled": 0, "type": "electric_scooter", "lon": -77.06311566666666, "bike_id": "377e7012eddf9706e0158ed4d0c55a8c", "fusion_lat": 0.0, "name": "377e7012eddf9706e0158ed4d0c55a8c", "is_reserved": 0, "rental_uris": {"android": "https://dc.lft.to/lastmile_qr_scan", "ios": "https://dc.lft.to/lastmile_qr_scan"}, "fusion_lon": 0.0}, {"lat": 38.913253833333336, "is_disabled": 0, "type": "electric_scooter", "lon": -77.04011083333333, "bike_id": "85ac200b209f1303e2aec6fd27ce36ba", "fusion_lat": 0.0, "name": "85ac200b209f1303e2aec6fd27ce36ba", "is_reserved": 0, "rental_uris": {"android": "https://dc.lft.to/lastmile_qr_scan", "ios": "https://dc.lft.to/lastmile_qr_scan"}, "fusion_lon": 0.0}, {"lat": 38.92278233333333, "is_disabled": 0, "type": "electric_scooter", "lon": -77.044741, "bike_id": "abebfe4167a5f4360cfc7236168ec388", "fusion_lat": 0.0, "name": "abebfe4167a5f4360cfc7236168ec388", "is_reserved": 0, "rental_uris": {"android": "https://dc.lft.to/lastmile_qr_scan", "ios": "https://dc.lft.to/lastmile_qr_scan"}, "fusion_lon": 0.0}, {"lat": 38.923883833333335, "is_disabled": 0, "type": "electric_scooter", "lon": -77.03538766666667, "bike_id": "eaead1230c18ce996b60a47bec66c1cc", "fusion_lat": 0.0, "name": "eaead1230c18ce996b60a47bec66c1cc", "is_reserved": 0, "rental_uris": {"android": "https://dc.lft.to/lastmile_qr_scan", "ios": "https://dc.lft.to/lastmile_qr_scan"}, "fusion_lon": 0.0}, {"lat": 38.918712666666664, "is_disabled": 0, "type": "electric_scooter", "lon": -77.04055, "bike_id": "0483c7c3ba597f9ff8614aaa245d80ff", "fusion_lat": 0.0, "name": "0483c7c3ba597f9ff8614aaa245d80ff", "is_reserved": 0, "rental_uris": {"android": "https://dc.lft.to/lastmile_qr_scan", "ios": "https://dc.lft.to/lastmile_qr_scan"}, "fusion_lon": 0.0}, {"lat": 38.9239685, "is_disabled": 0, "type": "electric_scooter", "lon": -77.00069833333333, "bike_id": "c84a20c9b9557db49ed15aa78c95386a", "fusion_lat": 0.0, "name": "c84a20c9b9557db49ed15aa78c95386a", "is_reserved": 0, "rental_uris": {"android": "https://dc.lft.to/lastmile_qr_scan", "ios": "https://dc.lft.to/lastmile_qr_scan"}, "fusion_lon": 0.0}, {"lat": 38.9007, "is_disabled": 0, "type": "electric_scooter", "lon": -77.0501675, "bike_id": "9a3aaaa8af213bb0c6f7c2b275b1d4b1", "fusion_lat": 0.0, "name": "9a3aaaa8af213bb0c6f7c2b275b1d4b1", "is_reserved": 0, "rental_uris": {"android": "https://dc.lft.to/lastmile_qr_scan", "ios": "https://dc.lft.to/lastmile_qr_scan"}, "fusion_lon": 0.0}, {"lat": 38.90540166666667, "is_disabled": 0, "type": "electric_scooter", "lon": -77.05145633333333, "bike_id": "d3c8b7fecf729fab38fb0626802f4a6e", "fusion_lat": 0.0, "name": "d3c8b7fecf729fab38fb0626802f4a6e", "is_reserved": 0, "rental_uris": {"android": "https://dc.lft.to/lastmile_qr_scan", "ios": "https://dc.lft.to/lastmile_qr_scan"}, "fusion_lon": 0.0}, {"lat": 38.85805583333333, "is_disabled": 0, "type": "electric_scooter", "lon": -76.98721833333333, "bike_id": "fe6f58ba933e55d4d66350e91f610ac8", "fusion_lat": 0.0, "name": "fe6f58ba933e55d4d66350e91f610ac8", "is_reserved": 0, "rental_uris": {"android": "https://dc.lft.to/lastmile_qr_scan", "ios": "https://dc.lft.to/lastmile_qr_scan"}, "fusion_lon": 0.0}, {"lat": 38.91482666666667, "is_disabled": 0, "type": "electric_scooter", "lon": -76.9836195, "bike_id": "e7526728c7f49926fcdfc7fb8885ba2c", "fusion_lat": 0.0, "name": "e7526728c7f49926fcdfc7fb8885ba2c", "is_reserved": 0, "rental_uris": {"android": "https://dc.lft.to/lastmile_qr_scan", "ios": "https://dc.lft.to/lastmile_qr_scan"}, "fusion_lon": 0.0}, {"lat": 38.931990166666665, "is_disabled": 0, "type": "electric_scooter", "lon": -77.04418316666667, "bike_id": "4a83918ea29dd004323bc37348814282", "fusion_lat": 0.0, "name": "4a83918ea29dd004323bc37348814282", "is_reserved": 0, "rental_uris": {"android": "https://dc.lft.to/lastmile_qr_scan", "ios": "https://dc.lft.to/lastmile_qr_scan"}, "fusion_lon": 0.0}, {"lat": 38.914182, "is_disabled": 0, "type": "electric_scooter", "lon": -77.02407333333333, "bike_id": "eec615c113dff48af4b304e820d87ffb", "fusion_lat": 0.0, "name": "eec615c113dff48af4b304e820d87ffb", "is_reserved": 0, "rental_uris": {"android": "https://dc.lft.to/lastmile_qr_scan", "ios": "https://dc.lft.to/lastmile_qr_scan"}, "fusion_lon": 0.0}, {"lat": 38.89764183333333, "is_disabled": 0, "type": "electric_scooter", "lon": -77.054958, "bike_id": "46c118906a282470b1c4a69830d388d7", "fusion_lat": 0.0, "name": "46c118906a282470b1c4a69830d388d7", "is_reserved": 0, "rental_uris": {"android": "https://dc.lft.to/lastmile_qr_scan", "ios": "https://dc.lft.to/lastmile_qr_scan"}, "fusion_lon": 0.0}, {"lat": 38.932082, "is_disabled": 0, "type": "electric_scooter", "lon": -77.03515633333333, "bike_id": "b4cf274e56f4f36128663065c1cb7189", "fusion_lat": 0.0, "name": "b4cf274e56f4f36128663065c1cb7189", "is_reserved": 0, "rental_uris": {"android": "https://dc.lft.to/lastmile_qr_scan", "ios": "https://dc.lft.to/lastmile_qr_scan"}, "fusion_lon": 0.0}, {"lat": 38.92211, "is_disabled": 0, "type": "electric_bike", "lon": -76.98794983333333, "bike_id": "2d8b49136d11e6742e079d04042f84a3", "fusion_lat": 0.0, "name": "2d8b49136d11e6742e079d04042f84a3", "is_reserved": 0, "rental_uris": {"android": "https://dc.lft.to/lastmile_qr_scan", "ios": "https://dc.lft.to/lastmile_qr_scan"}, "fusion_lon": 0.0}, {"lat": 38.876251, "is_disabled": 0, "type": "electric_scooter", "lon": -76.96526733333333, "bike_id": "fa02525a716266706da6e63078826567", "fusion_lat": 0.0, "name": "fa02525a716266706da6e63078826567", "is_reserved": 0, "rental_uris": {"android": "https://dc.lft.to/lastmile_qr_scan", "ios": "https://dc.lft.to/lastmile_qr_scan"}, "fusion_lon": 0.0}, {"lat": 38.922498, "is_disabled": 0, "type": "electric_scooter", "lon": -77.019351, "bike_id": "87f35386c4ee89de3ac197b8aa8427cd", "fusion_lat": 0.0, "name": "87f35386c4ee89de3ac197b8aa8427cd", "is_reserved": 0, "rental_uris": {"android": "https://dc.lft.to/lastmile_qr_scan", "ios": "https://dc.lft.to/lastmile_qr_scan"}, "fusion_lon": 0.0}, {"lat": 38.924799666666665, "is_disabled": 0, "type": "electric_scooter", "lon": -77.03482783333334, "bike_id": "c4cc9f69b0fc207a9b5320b612f8c953", "fusion_lat": 0.0, "name": "c4cc9f69b0fc207a9b5320b612f8c953", "is_reserved": 0, "rental_uris": {"android": "https://dc.lft.to/lastmile_qr_scan", "ios": "https://dc.lft.to/lastmile_qr_scan"}, "fusion_lon": 0.0}, {"lat": 38.982249333333336, "is_disabled": 0, "type": "electric_scooter", "lon": -77.02644516666666, "bike_id": "8f09b75002638d493ddcffe94e8e14c0", "fusion_lat": 0.0, "name": "8f09b75002638d493ddcffe94e8e14c0", "is_reserved": 0, "rental_uris": {"android": "https://dc.lft.to/lastmile_qr_scan", "ios": "https://dc.lft.to/lastmile_qr_scan"}, "fusion_lon": 0.0}, {"lat": 38.90272916666667, "is_disabled": 0, "type": "electric_scooter", "lon": -77.03645066666667, "bike_id": "e23c68c3519ca9a9a0fa8ffc4eda178a", "fusion_lat": 0.0, "name": "e23c68c3519ca9a9a0fa8ffc4eda178a", "is_reserved": 0, "rental_uris": {"android": "https://dc.lft.to/lastmile_qr_scan", "ios": "https://dc.lft.to/lastmile_qr_scan"}, "fusion_lon": 0.0}, {"lat": 38.914950166666664, "is_disabled": 0, "type": "electric_scooter", "lon": -77.02185416666667, "bike_id": "0b32b6c7e9238e418e70f2439dfe6ac1", "fusion_lat": 0.0, "name": "0b32b6c7e9238e418e70f2439dfe6ac1", "is_reserved": 0, "rental_uris": {"android": "https://dc.lft.to/lastmile_qr_scan", "ios": "https://dc.lft.to/lastmile_qr_scan"}, "fusion_lon": 0.0}, {"lat": 38.89484616666667, "is_disabled": 0, "type": "electric_scooter", "lon": -77.00225283333333, "bike_id": "6eb5df3c77d280a59051906a8e2d7f27", "fusion_lat": 0.0, "name": "6eb5df3c77d280a59051906a8e2d7f27", "is_reserved": 0, "rental_uris": {"android": "https://dc.lft.to/lastmile_qr_scan", "ios": "https://dc.lft.to/lastmile_qr_scan"}, "fusion_lon": 0.0}, {"lat": 38.89221916666666, "is_disabled": 0, "type": "electric_scooter", "lon": -77.04862633333333, "bike_id": "97df4acf09be9e0b6c33bd65cecbbc6f", "fusion_lat": 0.0, "name": "97df4acf09be9e0b6c33bd65cecbbc6f", "is_reserved": 0, "rental_uris": {"android": "https://dc.lft.to/lastmile_qr_scan", "ios": "https://dc.lft.to/lastmile_qr_scan"}, "fusion_lon": 0.0}, {"lat": 38.921622166666666, "is_disabled": 0, "type": "electric_scooter", "lon": -77.04024833333334, "bike_id": "9c9a5e3d36531e7414290fc4f669d894", "fusion_lat": 0.0, "name": "9c9a5e3d36531e7414290fc4f669d894", "is_reserved": 0, "rental_uris": {"android": "https://dc.lft.to/lastmile_qr_scan", "ios": "https://dc.lft.to/lastmile_qr_scan"}, "fusion_lon": 0.0}, {"lat": 38.920988333333334, "is_disabled": 0, "type": "electric_scooter", "lon": -77.04177133333333, "bike_id": "127523c73193dc274418529474cce12f", "fusion_lat": 0.0, "name": "127523c73193dc274418529474cce12f", "is_reserved": 0, "rental_uris": {"android": "https://dc.lft.to/lastmile_qr_scan", "ios": "https://dc.lft.to/lastmile_qr_scan"}, "fusion_lon": 0.0}, {"lat": 38.92684766666667, "is_disabled": 0, "type": "electric_scooter", "lon": -77.01483916666666, "bike_id": "12f94cbd95d07b18e76d2511a47a6ad8", "fusion_lat": 0.0, "name": "12f94cbd95d07b18e76d2511a47a6ad8", "is_reserved": 0, "rental_uris": {"android": "https://dc.lft.to/lastmile_qr_scan", "ios": "https://dc.lft.to/lastmile_qr_scan"}, "fusion_lon": 0.0}, {"lat": 38.88628116666667, "is_disabled": 0, "type": "electric_scooter", "lon": -76.9551215, "bike_id": "3a9bb10ef0b33654993d8d38c45661e3", "fusion_lat": 0.0, "name": "3a9bb10ef0b33654993d8d38c45661e3", "is_reserved": 0, "rental_uris": {"android": "https://dc.lft.to/lastmile_qr_scan", "ios": "https://dc.lft.to/lastmile_qr_scan"}, "fusion_lon": 0.0}, {"lat": 38.904817333333334, "is_disabled": 0, "type": "electric_scooter", "lon": -76.97326183333334, "bike_id": "1197e26f1337d42a33b539dc896a20a9", "fusion_lat": 0.0, "name": "1197e26f1337d42a33b539dc896a20a9", "is_reserved": 0, "rental_uris": {"android": "https://dc.lft.to/lastmile_qr_scan", "ios": "https://dc.lft.to/lastmile_qr_scan"}, "fusion_lon": 0.0}, {"lat": 38.94310266666667, "is_disabled": 0, "type": "electric_scooter", "lon": -77.0613325, "bike_id": "7897eeeb5bacd4847a073816c82c3b45", "fusion_lat": 0.0, "name": "7897eeeb5bacd4847a073816c82c3b45", "is_reserved": 0, "rental_uris": {"android": "https://dc.lft.to/lastmile_qr_scan", "ios": "https://dc.lft.to/lastmile_qr_scan"}, "fusion_lon": 0.0}, {"lat": 38.915777166666665, "is_disabled": 0, "type": "electric_scooter", "lon": -77.05020633333334, "bike_id": "4ff2ccfe423eead6f5f08c06361b1738", "fusion_lat": 0.0, "name": "4ff2ccfe423eead6f5f08c06361b1738", "is_reserved": 0, "rental_uris": {"android": "https://dc.lft.to/lastmile_qr_scan", "ios": "https://dc.lft.to/lastmile_qr_scan"}, "fusion_lon": 0.0}, {"lat": 38.90524683333334, "is_disabled": 0, "type": "electric_scooter", "lon": -77.029456, "bike_id": "df059fa96080f03ddf4a9a268d25d4cb", "fusion_lat": 0.0, "name": "df059fa96080f03ddf4a9a268d25d4cb", "is_reserved": 0, "rental_uris": {"android": "https://dc.lft.to/lastmile_qr_scan", "ios": "https://dc.lft.to/lastmile_qr_scan"}, "fusion_lon": 0.0}, {"lat": 38.91555733333333, "is_disabled": 0, "type": "electric_scooter", "lon": -77.0386085, "bike_id": "1ebf822164cf9045f253640ab9be9a14", "fusion_lat": 0.0, "name": "1ebf822164cf9045f253640ab9be9a14", "is_reserved": 0, "rental_uris": {"android": "https://dc.lft.to/lastmile_qr_scan", "ios": "https://dc.lft.to/lastmile_qr_scan"}, "fusion_lon": 0.0}, {"lat": 38.9163915, "is_disabled": 0, "type": "electric_scooter", "lon": -77.020835, "bike_id": "2bd2d51c4449512da35991e8fb5460cf", "fusion_lat": 0.0, "name": "2bd2d51c4449512da35991e8fb5460cf", "is_reserved": 0, "rental_uris": {"android": "https://dc.lft.to/lastmile_qr_scan", "ios": "https://dc.lft.to/lastmile_qr_scan"}, "fusion_lon": 0.0}, {"lat": 38.926104333333335, "is_disabled": 0, "type": "electric_scooter", "lon": -76.99612316666666, "bike_id": "6285a1a8bdec89e8cb0697a077099d18", "fusion_lat": 0.0, "name": "6285a1a8bdec89e8cb0697a077099d18", "is_reserved": 0, "rental_uris": {"android": "https://dc.lft.to/lastmile_qr_scan", "ios": "https://dc.lft.to/lastmile_qr_scan"}, "fusion_lon": 0.0}, {"lat": 38.875783166666665, "is_disabled": 0, "type": "electric_bike", "lon": -77.10565633333333, "bike_id": "571f0283b0dc10e584e6a7f8f7db580d", "fusion_lat": 0.0, "name": "571f0283b0dc10e584e6a7f8f7db580d", "is_reserved": 0, "rental_uris": {"android": "https://dc.lft.to/lastmile_qr_scan", "ios": "https://dc.lft.to/lastmile_qr_scan"}, "fusion_lon": 0.0}, {"lat": 38.942915166666666, "is_disabled": 0, "type": "electric_scooter", "lon": -77.02169316666667, "bike_id": "996ff3b87feb6df465cb844aa40a984c", "fusion_lat": 0.0, "name": "996ff3b87feb6df465cb844aa40a984c", "is_reserved": 0, "rental_uris": {"android": "https://dc.lft.to/lastmile_qr_scan", "ios": "https://dc.lft.to/lastmile_qr_scan"}, "fusion_lon": 0.0}, {"lat": 38.884884, "is_disabled": 0, "type": "electric_scooter", "lon": -77.007133, "bike_id": "6755016fa9bf029038cc461aafc83e6c", "fusion_lat": 0.0, "name": "6755016fa9bf029038cc461aafc83e6c", "is_reserved": 0, "rental_uris": {"android": "https://dc.lft.to/lastmile_qr_scan", "ios": "https://dc.lft.to/lastmile_qr_scan"}, "fusion_lon": 0.0}, {"lat": 38.866236666666666, "is_disabled": 0, "type": "electric_scooter", "lon": -76.9869715, "bike_id": "acc3d7d39834541596f00fd7fa236e08", "fusion_lat": 0.0, "name": "acc3d7d39834541596f00fd7fa236e08", "is_reserved": 0, "rental_uris": {"android": "https://dc.lft.to/lastmile_qr_scan", "ios": "https://dc.lft.to/lastmile_qr_scan"}, "fusion_lon": 0.0}, {"lat": 38.90728383333333, "is_disabled": 0, "type": "electric_scooter", "lon": -77.037181, "bike_id": "b6fb511405b977962cf9b1478f1512dd", "fusion_lat": 0.0, "name": "b6fb511405b977962cf9b1478f1512dd", "is_reserved": 0, "rental_uris": {"android": "https://dc.lft.to/lastmile_qr_scan", "ios": "https://dc.lft.to/lastmile_qr_scan"}, "fusion_lon": 0.0}, {"lat": 38.8952945, "is_disabled": 0, "type": "electric_scooter", "lon": -77.00202683333333, "bike_id": "f96c8d6025ea6bc5c047c5c12a9bfe16", "fusion_lat": 0.0, "name": "f96c8d6025ea6bc5c047c5c12a9bfe16", "is_reserved": 0, "rental_uris": {"android": "https://dc.lft.to/lastmile_qr_scan", "ios": "https://dc.lft.to/lastmile_qr_scan"}, "fusion_lon": 0.0}, {"lat": 38.89000733333334, "is_disabled": 0, "type": "electric_scooter", "lon": -76.95413566666667, "bike_id": "e2d0a7a41ec1ce891f49108ef2a9546f", "fusion_lat": 0.0, "name": "e2d0a7a41ec1ce891f49108ef2a9546f", "is_reserved": 0, "rental_uris": {"android": "https://dc.lft.to/lastmile_qr_scan", "ios": "https://dc.lft.to/lastmile_qr_scan"}, "fusion_lon": 0.0}, {"lat": 38.8997, "is_disabled": 0, "type": "electric_scooter", "lon": -77.02401083333334, "bike_id": "a95a3b06e674dca5023cf480d2ea0a19", "fusion_lat": 0.0, "name": "a95a3b06e674dca5023cf480d2ea0a19", "is_reserved": 0, "rental_uris": {"android": "https://dc.lft.to/lastmile_qr_scan", "ios": "https://dc.lft.to/lastmile_qr_scan"}, "fusion_lon": 0.0}, {"lat": 38.84277383333333, "is_disabled": 0, "type": "electric_bike", "lon": -76.98840766666666, "bike_id": "bb83a2b4bb333d702bcba7fcd20a8329", "fusion_lat": 0.0, "name": "bb83a2b4bb333d702bcba7fcd20a8329", "is_reserved": 0, "rental_uris": {"android": "https://dc.lft.to/lastmile_qr_scan", "ios": "https://dc.lft.to/lastmile_qr_scan"}, "fusion_lon": 0.0}, {"lat": 38.884436, "is_disabled": 0, "type": "electric_scooter", "lon": -77.00058516666667, "bike_id": "2d2cb639973ef5c7a5c9964d9586acfe", "fusion_lat": 0.0, "name": "2d2cb639973ef5c7a5c9964d9586acfe", "is_reserved": 0, "rental_uris": {"android": "https://dc.lft.to/lastmile_qr_scan", "ios": "https://dc.lft.to/lastmile_qr_scan"}, "fusion_lon": 0.0}, {"lat": 38.909215, "is_disabled": 0, "type": "electric_scooter", "lon": -77.03199266666667, "bike_id": "26cf7270aa66bc9301bdf1a95e6d3503", "fusion_lat": 0.0, "name": "26cf7270aa66bc9301bdf1a95e6d3503", "is_reserved": 0, "rental_uris": {"android": "https://dc.lft.to/lastmile_qr_scan", "ios": "https://dc.lft.to/lastmile_qr_scan"}, "fusion_lon": 0.0}, {"lat": 38.914996333333335, "is_disabled": 0, "type": "electric_scooter", "lon": -77.06788816666666, "bike_id": "64449623b69cb4244ed32504237fde90", "fusion_lat": 0.0, "name": "64449623b69cb4244ed32504237fde90", "is_reserved": 0, "rental_uris": {"android": "https://dc.lft.to/lastmile_qr_scan", "ios": "https://dc.lft.to/lastmile_qr_scan"}, "fusion_lon": 0.0}, {"lat": 38.867008, "is_disabled": 0, "type": "electric_scooter", "lon": -76.9871035, "bike_id": "1797285b3e4e191ab02bda0c1f61d3ea", "fusion_lat": 0.0, "name": "1797285b3e4e191ab02bda0c1f61d3ea", "is_reserved": 0, "rental_uris": {"android": "https://dc.lft.to/lastmile_qr_scan", "ios": "https://dc.lft.to/lastmile_qr_scan"}, "fusion_lon": 0.0}, {"lat": 38.91797016666666, "is_disabled": 0, "type": "electric_scooter", "lon": -77.040121, "bike_id": "b7a8bc94699861205f74fe58d7516666", "fusion_lat": 0.0, "name": "b7a8bc94699861205f74fe58d7516666", "is_reserved": 0, "rental_uris": {"android": "https://dc.lft.to/lastmile_qr_scan", "ios": "https://dc.lft.to/lastmile_qr_scan"}, "fusion_lon": 0.0}, {"lat": 38.928513, "is_disabled": 0, "type": "electric_scooter", "lon": -77.01409316666667, "bike_id": "26053cda563fd97a2ba529114f9fd838", "fusion_lat": 0.0, "name": "26053cda563fd97a2ba529114f9fd838", "is_reserved": 0, "rental_uris": {"android": "https://dc.lft.to/lastmile_qr_scan", "ios": "https://dc.lft.to/lastmile_qr_scan"}, "fusion_lon": 0.0}, {"lat": 38.89830516666667, "is_disabled": 0, "type": "electric_scooter", "lon": -77.02002033333333, "bike_id": "b946d726217fd8b9871c50dcaba4783f", "fusion_lat": 0.0, "name": "b946d726217fd8b9871c50dcaba4783f", "is_reserved": 0, "rental_uris": {"android": "https://dc.lft.to/lastmile_qr_scan", "ios": "https://dc.lft.to/lastmile_qr_scan"}, "fusion_lon": 0.0}, {"lat": 38.8939705, "is_disabled": 0, "type": "electric_scooter", "lon": -77.0499985, "bike_id": "f4eda56617e1ba3d2db980ceb4a21dd1", "fusion_lat": 0.0, "name": "f4eda56617e1ba3d2db980ceb4a21dd1", "is_reserved": 0, "rental_uris": {"android": "https://dc.lft.to/lastmile_qr_scan", "ios": "https://dc.lft.to/lastmile_qr_scan"}, "fusion_lon": 0.0}, {"lat": 38.900782, "is_disabled": 0, "type": "electric_scooter", "lon": -77.00208033333334, "bike_id": "9c17a6cd366cbebaad451138deff6e72", "fusion_lat": 0.0, "name": "9c17a6cd366cbebaad451138deff6e72", "is_reserved": 0, "rental_uris": {"android": "https://dc.lft.to/lastmile_qr_scan", "ios": "https://dc.lft.to/lastmile_qr_scan"}, "fusion_lon": 0.0}, {"lat": 38.90970316666667, "is_disabled": 0, "type": "electric_scooter", "lon": -77.033692, "bike_id": "2a14e2fdb84389242d47f4afe46f5be0", "fusion_lat": 0.0, "name": "2a14e2fdb84389242d47f4afe46f5be0", "is_reserved": 0, "rental_uris": {"android": "https://dc.lft.to/lastmile_qr_scan", "ios": "https://dc.lft.to/lastmile_qr_scan"}, "fusion_lon": 0.0}, {"lat": 38.9328195, "is_disabled": 0, "type": "electric_scooter", "lon": -77.03268816666667, "bike_id": "00edeb292b717c7951a6387f9d714f6b", "fusion_lat": 0.0, "name": "00edeb292b717c7951a6387f9d714f6b", "is_reserved": 0, "rental_uris": {"android": "https://dc.lft.to/lastmile_qr_scan", "ios": "https://dc.lft.to/lastmile_qr_scan"}, "fusion_lon": 0.0}, {"lat": 38.910435, "is_disabled": 0, "type": "electric_scooter", "lon": -77.03540433333333, "bike_id": "f24793aec8d9cc992b90188c07b3fb52", "fusion_lat": 0.0, "name": "f24793aec8d9cc992b90188c07b3fb52", "is_reserved": 0, "rental_uris": {"android": "https://dc.lft.to/lastmile_qr_scan", "ios": "https://dc.lft.to/lastmile_qr_scan"}, "fusion_lon": 0.0}, {"lat": 39.0048315, "is_disabled": 0, "type": "electric_bike", "lon": -76.90134366666666, "bike_id": "3a67b933483cd89b40f8c20efa8f6ced", "fusion_lat": 0.0, "name": "3a67b933483cd89b40f8c20efa8f6ced", "is_reserved": 0, "rental_uris": {"android": "https://dc.lft.to/lastmile_qr_scan", "ios": "https://dc.lft.to/lastmile_qr_scan"}, "fusion_lon": 0.0}, {"lat": 38.9301825, "is_disabled": 0, "type": "electric_scooter", "lon": -77.04449866666667, "bike_id": "813058ef02ccb5c9814f66b4ea30397a", "fusion_lat": 0.0, "name": "813058ef02ccb5c9814f66b4ea30397a", "is_reserved": 0, "rental_uris": {"android": "https://dc.lft.to/lastmile_qr_scan", "ios": "https://dc.lft.to/lastmile_qr_scan"}, "fusion_lon": 0.0}, {"lat": 38.923199833333335, "is_disabled": 0, "type": "electric_scooter", "lon": -77.02796383333333, "bike_id": "fc1f3aefd69afd1d099953cdaccbe9b2", "fusion_lat": 0.0, "name": "fc1f3aefd69afd1d099953cdaccbe9b2", "is_reserved": 0, "rental_uris": {"android": "https://dc.lft.to/lastmile_qr_scan", "ios": "https://dc.lft.to/lastmile_qr_scan"}, "fusion_lon": 0.0}, {"lat": 38.90990983333333, "is_disabled": 0, "type": "electric_scooter", "lon": -76.997383, "bike_id": "16b455b4b369efdc6d89f32da10ad784", "fusion_lat": 0.0, "name": "16b455b4b369efdc6d89f32da10ad784", "is_reserved": 0, "rental_uris": {"android": "https://dc.lft.to/lastmile_qr_scan", "ios": "https://dc.lft.to/lastmile_qr_scan"}, "fusion_lon": 0.0}, {"lat": 38.82867483333333, "is_disabled": 0, "type": "electric_bike", "lon": -77.1121845, "bike_id": "25aca91eca4912507e2294b043090e80", "fusion_lat": 0.0, "name": "25aca91eca4912507e2294b043090e80", "is_reserved": 0, "rental_uris": {"android": "https://dc.lft.to/lastmile_qr_scan", "ios": "https://dc.lft.to/lastmile_qr_scan"}, "fusion_lon": 0.0}, {"lat": 38.859108166666665, "is_disabled": 0, "type": "electric_scooter", "lon": -76.99149783333333, "bike_id": "7067665c74a52d13d27239923df9b0de", "fusion_lat": 0.0, "name": "7067665c74a52d13d27239923df9b0de", "is_reserved": 0, "rental_uris": {"android": "https://dc.lft.to/lastmile_qr_scan", "ios": "https://dc.lft.to/lastmile_qr_scan"}, "fusion_lon": 0.0}, {"lat": 38.89731, "is_disabled": 0, "type": "electric_scooter", "lon": -76.97474816666667, "bike_id": "98c08fa6ab170e91fab8a2c2ba0d0d1c", "fusion_lat": 0.0, "name": "98c08fa6ab170e91fab8a2c2ba0d0d1c", "is_reserved": 0, "rental_uris": {"android": "https://dc.lft.to/lastmile_qr_scan", "ios": "https://dc.lft.to/lastmile_qr_scan"}, "fusion_lon": 0.0}, {"lat": 38.908537333333335, "is_disabled": 0, "type": "electric_scooter", "lon": -76.99161883333333, "bike_id": "53b16d7af07b95172f22ef2758979be3", "fusion_lat": 0.0, "name": "53b16d7af07b95172f22ef2758979be3", "is_reserved": 0, "rental_uris": {"android": "https://dc.lft.to/lastmile_qr_scan", "ios": "https://dc.lft.to/lastmile_qr_scan"}, "fusion_lon": 0.0}, {"lat": 38.91554133333333, "is_disabled": 0, "type": "electric_scooter", "lon": -77.037948, "bike_id": "5affc3b2176f9d41061fbfbc7d2b0ffe", "fusion_lat": 0.0, "name": "5affc3b2176f9d41061fbfbc7d2b0ffe", "is_reserved": 0, "rental_uris": {"android": "https://dc.lft.to/lastmile_qr_scan", "ios": "https://dc.lft.to/lastmile_qr_scan"}, "fusion_lon": 0.0}, {"lat": 38.891154666666665, "is_disabled": 0, "type": "electric_scooter", "lon": -76.94383533333334, "bike_id": "5f4736b26e1d4307b56737165bb5dcf2", "fusion_lat": 0.0, "name": "5f4736b26e1d4307b56737165bb5dcf2", "is_reserved": 0, "rental_uris": {"android": "https://dc.lft.to/lastmile_qr_scan", "ios": "https://dc.lft.to/lastmile_qr_scan"}, "fusion_lon": 0.0}, {"lat": 38.90046, "is_disabled": 0, "type": "electric_scooter", "lon": -76.99371066666667, "bike_id": "d0f873902bc70e6bef65d75bd58c7fd4", "fusion_lat": 0.0, "name": "d0f873902bc70e6bef65d75bd58c7fd4", "is_reserved": 0, "rental_uris": {"android": "https://dc.lft.to/lastmile_qr_scan", "ios": "https://dc.lft.to/lastmile_qr_scan"}, "fusion_lon": 0.0}, {"lat": 38.86645333333333, "is_disabled": 0, "type": "electric_scooter", "lon": -76.98879483333333, "bike_id": "e484dbd7051a2cb44abc7bd42c81f804", "fusion_lat": 0.0, "name": "e484dbd7051a2cb44abc7bd42c81f804", "is_reserved": 0, "rental_uris": {"android": "https://dc.lft.to/lastmile_qr_scan", "ios": "https://dc.lft.to/lastmile_qr_scan"}, "fusion_lon": 0.0}, {"lat": 38.95297, "is_disabled": 0, "type": "electric_scooter", "lon": -77.06879716666667, "bike_id": "4c90fcce60be829e3f6ef097ac34ead6", "fusion_lat": 0.0, "name": "4c90fcce60be829e3f6ef097ac34ead6", "is_reserved": 0, "rental_uris": {"android": "https://dc.lft.to/lastmile_qr_scan", "ios": "https://dc.lft.to/lastmile_qr_scan"}, "fusion_lon": 0.0}, {"lat": 38.910500166666665, "is_disabled": 0, "type": "electric_scooter", "lon": -77.02764266666667, "bike_id": "09f2ba47540cb6037d3efb43186181d7", "fusion_lat": 0.0, "name": "09f2ba47540cb6037d3efb43186181d7", "is_reserved": 0, "rental_uris": {"android": "https://dc.lft.to/lastmile_qr_scan", "ios": "https://dc.lft.to/lastmile_qr_scan"}, "fusion_lon": 0.0}, {"lat": 39.05200833333333, "is_disabled": 0, "type": "electric_bike", "lon": -77.10911266666666, "bike_id": "998461c44f7583c17b3e54f7cc96b73a", "fusion_lat": 0.0, "name": "998461c44f7583c17b3e54f7cc96b73a", "is_reserved": 0, "rental_uris": {"android": "https://dc.lft.to/lastmile_qr_scan", "ios": "https://dc.lft.to/lastmile_qr_scan"}, "fusion_lon": 0.0}, {"lat": 38.89909266666667, "is_disabled": 0, "type": "electric_scooter", "lon": -76.93350166666667, "bike_id": "afcad0050b924732caa5917d45ab3b5a", "fusion_lat": 0.0, "name": "afcad0050b924732caa5917d45ab3b5a", "is_reserved": 0, "rental_uris": {"android": "https://dc.lft.to/lastmile_qr_scan", "ios": "https://dc.lft.to/lastmile_qr_scan"}, "fusion_lon": 0.0}, {"lat": 38.9001495, "is_disabled": 0, "type": "electric_scooter", "lon": -77.00225866666666, "bike_id": "802594c3ddb8ac609965f45da620796a", "fusion_lat": 0.0, "name": "802594c3ddb8ac609965f45da620796a", "is_reserved": 0, "rental_uris": {"android": "https://dc.lft.to/lastmile_qr_scan", "ios": "https://dc.lft.to/lastmile_qr_scan"}, "fusion_lon": 0.0}, {"lat": 38.8961935, "is_disabled": 0, "type": "electric_scooter", "lon": -77.045004, "bike_id": "fea76229a6c26af04ffba56630c84ec6", "fusion_lat": 0.0, "name": "fea76229a6c26af04ffba56630c84ec6", "is_reserved": 0, "rental_uris": {"android": "https://dc.lft.to/lastmile_qr_scan", "ios": "https://dc.lft.to/lastmile_qr_scan"}, "fusion_lon": 0.0}, {"lat": 38.91553283333333, "is_disabled": 0, "type": "electric_scooter", "lon": -77.05319583333333, "bike_id": "d68dd83e5897245edb149e0beed2f5ad", "fusion_lat": 0.0, "name": "d68dd83e5897245edb149e0beed2f5ad", "is_reserved": 0, "rental_uris": {"android": "https://dc.lft.to/lastmile_qr_scan", "ios": "https://dc.lft.to/lastmile_qr_scan"}, "fusion_lon": 0.0}, {"lat": 38.89609166666666, "is_disabled": 0, "type": "electric_scooter", "lon": -77.05467566666667, "bike_id": "976aa80ee3356567b7e51d830ff4da82", "fusion_lat": 0.0, "name": "976aa80ee3356567b7e51d830ff4da82", "is_reserved": 0, "rental_uris": {"android": "https://dc.lft.to/lastmile_qr_scan", "ios": "https://dc.lft.to/lastmile_qr_scan"}, "fusion_lon": 0.0}, {"lat": 38.9118675, "is_disabled": 0, "type": "electric_scooter", "lon": -77.044503, "bike_id": "b013d4e2160b23dd6b6a70f6244c3e3a", "fusion_lat": 0.0, "name": "b013d4e2160b23dd6b6a70f6244c3e3a", "is_reserved": 0, "rental_uris": {"android": "https://dc.lft.to/lastmile_qr_scan", "ios": "https://dc.lft.to/lastmile_qr_scan"}, "fusion_lon": 0.0}, {"lat": 38.9073645, "is_disabled": 0, "type": "electric_scooter", "lon": -77.0346285, "bike_id": "bb707e6224fac75c764fceb4c90a6213", "fusion_lat": 0.0, "name": "bb707e6224fac75c764fceb4c90a6213", "is_reserved": 0, "rental_uris": {"android": "https://dc.lft.to/lastmile_qr_scan", "ios": "https://dc.lft.to/lastmile_qr_scan"}, "fusion_lon": 0.0}, {"lat": 38.9014035, "is_disabled": 0, "type": "electric_scooter", "lon": -77.0006015, "bike_id": "9055eadb34891b2b4086f7eed0085e34", "fusion_lat": 0.0, "name": "9055eadb34891b2b4086f7eed0085e34", "is_reserved": 0, "rental_uris": {"android": "https://dc.lft.to/lastmile_qr_scan", "ios": "https://dc.lft.to/lastmile_qr_scan"}, "fusion_lon": 0.0}, {"lat": 38.90255616666666, "is_disabled": 0, "type": "electric_scooter", "lon": -77.06230466666666, "bike_id": "ddd61bc7ac82934fc388733c1553cb9d", "fusion_lat": 0.0, "name": "ddd61bc7ac82934fc388733c1553cb9d", "is_reserved": 0, "rental_uris": {"android": "https://dc.lft.to/lastmile_qr_scan", "ios": "https://dc.lft.to/lastmile_qr_scan"}, "fusion_lon": 0.0}, {"lat": 38.9211215, "is_disabled": 0, "type": "electric_scooter", "lon": -77.01800066666667, "bike_id": "ce7ab5c23bd94f1b43af4da02b6131ad", "fusion_lat": 0.0, "name": "ce7ab5c23bd94f1b43af4da02b6131ad", "is_reserved": 0, "rental_uris": {"android": "https://dc.lft.to/lastmile_qr_scan", "ios": "https://dc.lft.to/lastmile_qr_scan"}, "fusion_lon": 0.0}, {"lat": 38.917160833333334, "is_disabled": 0, "type": "electric_scooter", "lon": -77.0404415, "bike_id": "689deeccbbdc2d7fb39949d8d245539d", "fusion_lat": 0.0, "name": "689deeccbbdc2d7fb39949d8d245539d", "is_reserved": 0, "rental_uris": {"android": "https://dc.lft.to/lastmile_qr_scan", "ios": "https://dc.lft.to/lastmile_qr_scan"}, "fusion_lon": 0.0}, {"lat": 38.90712383333333, "is_disabled": 0, "type": "electric_scooter", "lon": -77.03198716666667, "bike_id": "bb00e0b024e9be648da2a5d01281f833", "fusion_lat": 0.0, "name": "bb00e0b024e9be648da2a5d01281f833", "is_reserved": 0, "rental_uris": {"android": "https://dc.lft.to/lastmile_qr_scan", "ios": "https://dc.lft.to/lastmile_qr_scan"}, "fusion_lon": 0.0}, {"lat": 38.914328166666664, "is_disabled": 0, "type": "electric_scooter", "lon": -77.02347633333333, "bike_id": "0970bcafa984197c8d4c5f1a1fab3b38", "fusion_lat": 0.0, "name": "0970bcafa984197c8d4c5f1a1fab3b38", "is_reserved": 0, "rental_uris": {"android": "https://dc.lft.to/lastmile_qr_scan", "ios": "https://dc.lft.to/lastmile_qr_scan"}, "fusion_lon": 0.0}, {"lat": 38.9104055, "is_disabled": 0, "type": "electric_scooter", "lon": -77.03873133333333, "bike_id": "a67cf4b464cfb807573847cbe325c389", "fusion_lat": 0.0, "name": "a67cf4b464cfb807573847cbe325c389", "is_reserved": 0, "rental_uris": {"android": "https://dc.lft.to/lastmile_qr_scan", "ios": "https://dc.lft.to/lastmile_qr_scan"}, "fusion_lon": 0.0}, {"lat": 38.9160685, "is_disabled": 0, "type": "electric_scooter", "lon": -77.0229785, "bike_id": "b46610ded9f1c17670c65c8c3faf1a2c", "fusion_lat": 0.0, "name": "b46610ded9f1c17670c65c8c3faf1a2c", "is_reserved": 0, "rental_uris": {"android": "https://dc.lft.to/lastmile_qr_scan", "ios": "https://dc.lft.to/lastmile_qr_scan"}, "fusion_lon": 0.0}, {"lat": 38.871431, "is_disabled": 0, "type": "electric_bike", "lon": -76.93703183333334, "bike_id": "d33ba8378cb7c1236a95c6438e2c0116", "fusion_lat": 0.0, "name": "d33ba8378cb7c1236a95c6438e2c0116", "is_reserved": 0, "rental_uris": {"android": "https://dc.lft.to/lastmile_qr_scan", "ios": "https://dc.lft.to/lastmile_qr_scan"}, "fusion_lon": 0.0}, {"lat": 38.930649833333334, "is_disabled": 0, "type": "electric_bike", "lon": -77.02298233333333, "bike_id": "a67be403133d1128ca2f383edc4efe46", "fusion_lat": 0.0, "name": "a67be403133d1128ca2f383edc4efe46", "is_reserved": 0, "rental_uris": {"android": "https://dc.lft.to/lastmile_qr_scan", "ios": "https://dc.lft.to/lastmile_qr_scan"}, "fusion_lon": 0.0}, {"lat": 38.922894666666664, "is_disabled": 0, "type": "electric_scooter", "lon": -77.042555, "bike_id": "a6879727fda40f2495c5d425a6d9a57a", "fusion_lat": 0.0, "name": "a6879727fda40f2495c5d425a6d9a57a", "is_reserved": 0, "rental_uris": {"android": "https://dc.lft.to/lastmile_qr_scan", "ios": "https://dc.lft.to/lastmile_qr_scan"}, "fusion_lon": 0.0}, {"lat": 38.929752, "is_disabled": 0, "type": "electric_scooter", "lon": -77.01300066666667, "bike_id": "95f35812db64cb1bf06c490993243f99", "fusion_lat": 0.0, "name": "95f35812db64cb1bf06c490993243f99", "is_reserved": 0, "rental_uris": {"android": "https://dc.lft.to/lastmile_qr_scan", "ios": "https://dc.lft.to/lastmile_qr_scan"}, "fusion_lon": 0.0}, {"lat": 38.90663266666667, "is_disabled": 0, "type": "electric_scooter", "lon": -77.038595, "bike_id": "92061cc00f990f40d176f21c50b2515d", "fusion_lat": 0.0, "name": "92061cc00f990f40d176f21c50b2515d", "is_reserved": 0, "rental_uris": {"android": "https://dc.lft.to/lastmile_qr_scan", "ios": "https://dc.lft.to/lastmile_qr_scan"}, "fusion_lon": 0.0}, {"lat": 38.922471333333334, "is_disabled": 0, "type": "electric_scooter", "lon": -77.03010883333333, "bike_id": "46fa38d8eed3361a2a3171d68598637d", "fusion_lat": 0.0, "name": "46fa38d8eed3361a2a3171d68598637d", "is_reserved": 0, "rental_uris": {"android": "https://dc.lft.to/lastmile_qr_scan", "ios": "https://dc.lft.to/lastmile_qr_scan"}, "fusion_lon": 0.0}, {"lat": 38.85722366666667, "is_disabled": 0, "type": "electric_bike", "lon": -76.9710695, "bike_id": "df1379de6609b24ae1f83f3a91df2c41", "fusion_lat": 0.0, "name": "df1379de6609b24ae1f83f3a91df2c41", "is_reserved": 0, "rental_uris": {"android": "https://dc.lft.to/lastmile_qr_scan", "ios": "https://dc.lft.to/lastmile_qr_scan"}, "fusion_lon": 0.0}, {"lat": 38.96135983333333, "is_disabled": 0, "type": "electric_scooter", "lon": -77.02234533333333, "bike_id": "a819b614dd7e4a082b5886f25bf25cfc", "fusion_lat": 0.0, "name": "a819b614dd7e4a082b5886f25bf25cfc", "is_reserved": 0, "rental_uris": {"android": "https://dc.lft.to/lastmile_qr_scan", "ios": "https://dc.lft.to/lastmile_qr_scan"}, "fusion_lon": 0.0}, {"lat": 38.9179605, "is_disabled": 0, "type": "electric_scooter", "lon": -77.03204866666667, "bike_id": "161e5b670b7d93f42b340536ccb4dffd", "fusion_lat": 0.0, "name": "161e5b670b7d93f42b340536ccb4dffd", "is_reserved": 0, "rental_uris": {"android": "https://dc.lft.to/lastmile_qr_scan", "ios": "https://dc.lft.to/lastmile_qr_scan"}, "fusion_lon": 0.0}, {"lat": 38.89951166666667, "is_disabled": 0, "type": "electric_scooter", "lon": -77.0415585, "bike_id": "fab4f828bac7d56f605b2f29390ed77f", "fusion_lat": 0.0, "name": "fab4f828bac7d56f605b2f29390ed77f", "is_reserved": 0, "rental_uris": {"android": "https://dc.lft.to/lastmile_qr_scan", "ios": "https://dc.lft.to/lastmile_qr_scan"}, "fusion_lon": 0.0}, {"lat": 38.91303933333333, "is_disabled": 0, "type": "electric_scooter", "lon": -77.02399583333333, "bike_id": "78b3a4922492cb21b940183e1ec4d5ae", "fusion_lat": 0.0, "name": "78b3a4922492cb21b940183e1ec4d5ae", "is_reserved": 0, "rental_uris": {"android": "https://dc.lft.to/lastmile_qr_scan", "ios": "https://dc.lft.to/lastmile_qr_scan"}, "fusion_lon": 0.0}, {"lat": 38.90754333333334, "is_disabled": 0, "type": "electric_scooter", "lon": -77.03489783333333, "bike_id": "d90f31f5b5a0b215c196dd18450097f8", "fusion_lat": 0.0, "name": "d90f31f5b5a0b215c196dd18450097f8", "is_reserved": 0, "rental_uris": {"android": "https://dc.lft.to/lastmile_qr_scan", "ios": "https://dc.lft.to/lastmile_qr_scan"}, "fusion_lon": 0.0}, {"lat": 38.903518166666665, "is_disabled": 0, "type": "electric_scooter", "lon": -77.04473533333334, "bike_id": "eab78607225970783684bba6167b3c68", "fusion_lat": 0.0, "name": "eab78607225970783684bba6167b3c68", "is_reserved": 0, "rental_uris": {"android": "https://dc.lft.to/lastmile_qr_scan", "ios": "https://dc.lft.to/lastmile_qr_scan"}, "fusion_lon": 0.0}, {"lat": 38.9027315, "is_disabled": 0, "type": "electric_scooter", "lon": -77.03969766666667, "bike_id": "d77a9440725c832c11dc10620aeafc58", "fusion_lat": 0.0, "name": "d77a9440725c832c11dc10620aeafc58", "is_reserved": 0, "rental_uris": {"android": "https://dc.lft.to/lastmile_qr_scan", "ios": "https://dc.lft.to/lastmile_qr_scan"}, "fusion_lon": 0.0}, {"lat": 38.911199833333335, "is_disabled": 0, "type": "electric_scooter", "lon": -77.03205916666667, "bike_id": "c2bc241068f046f457f47e21b7533a52", "fusion_lat": 0.0, "name": "c2bc241068f046f457f47e21b7533a52", "is_reserved": 0, "rental_uris": {"android": "https://dc.lft.to/lastmile_qr_scan", "ios": "https://dc.lft.to/lastmile_qr_scan"}, "fusion_lon": 0.0}, {"lat": 38.881540666666666, "is_disabled": 0, "type": "electric_scooter", "lon": -77.02735716666666, "bike_id": "585310966009eb1cef542eecad07bf37", "fusion_lat": 0.0, "name": "585310966009eb1cef542eecad07bf37", "is_reserved": 0, "rental_uris": {"android": "https://dc.lft.to/lastmile_qr_scan", "ios": "https://dc.lft.to/lastmile_qr_scan"}, "fusion_lon": 0.0}, {"lat": 38.93356716666667, "is_disabled": 0, "type": "electric_bike", "lon": -77.09963083333334, "bike_id": "3e8cae5e4159bea2d91c1e1509e253a3", "fusion_lat": 0.0, "name": "3e8cae5e4159bea2d91c1e1509e253a3", "is_reserved": 0, "rental_uris": {"android": "https://dc.lft.to/lastmile_qr_scan", "ios": "https://dc.lft.to/lastmile_qr_scan"}, "fusion_lon": 0.0}, {"lat": 38.9286455, "is_disabled": 0, "type": "electric_scooter", "lon": -77.01370183333333, "bike_id": "4407edefa61b9617704120d5cd6b3377", "fusion_lat": 0.0, "name": "4407edefa61b9617704120d5cd6b3377", "is_reserved": 0, "rental_uris": {"android": "https://dc.lft.to/lastmile_qr_scan", "ios": "https://dc.lft.to/lastmile_qr_scan"}, "fusion_lon": 0.0}, {"lat": 38.951635833333334, "is_disabled": 0, "type": "electric_bike", "lon": -76.96895783333333, "bike_id": "b1dfa217acef74904ed29105de540ee9", "fusion_lat": 0.0, "name": "b1dfa217acef74904ed29105de540ee9", "is_reserved": 0, "rental_uris": {"android": "https://dc.lft.to/lastmile_qr_scan", "ios": "https://dc.lft.to/lastmile_qr_scan"}, "fusion_lon": 0.0}, {"lat": 38.91869533333333, "is_disabled": 0, "type": "electric_scooter", "lon": -77.01211116666667, "bike_id": "a895a6d42df3916729a3a7c1ef20b002", "fusion_lat": 0.0, "name": "a895a6d42df3916729a3a7c1ef20b002", "is_reserved": 0, "rental_uris": {"android": "https://dc.lft.to/lastmile_qr_scan", "ios": "https://dc.lft.to/lastmile_qr_scan"}, "fusion_lon": 0.0}, {"lat": 38.900701166666664, "is_disabled": 0, "type": "electric_scooter", "lon": -77.0021425, "bike_id": "ab2f4c24d7f31f8643bf7ba23d996589", "fusion_lat": 0.0, "name": "ab2f4c24d7f31f8643bf7ba23d996589", "is_reserved": 0, "rental_uris": {"android": "https://dc.lft.to/lastmile_qr_scan", "ios": "https://dc.lft.to/lastmile_qr_scan"}, "fusion_lon": 0.0}, {"lat": 38.92086066666667, "is_disabled": 0, "type": "electric_scooter", "lon": -77.025353, "bike_id": "83322cece5238aa6fbaf3fe3841ac020", "fusion_lat": 0.0, "name": "83322cece5238aa6fbaf3fe3841ac020", "is_reserved": 0, "rental_uris": {"android": "https://dc.lft.to/lastmile_qr_scan", "ios": "https://dc.lft.to/lastmile_qr_scan"}, "fusion_lon": 0.0}, {"lat": 38.9225185, "is_disabled": 0, "type": "electric_scooter", "lon": -77.03085766666666, "bike_id": "d950178bc1de382e7a5a6b44570c4247", "fusion_lat": 0.0, "name": "d950178bc1de382e7a5a6b44570c4247", "is_reserved": 0, "rental_uris": {"android": "https://dc.lft.to/lastmile_qr_scan", "ios": "https://dc.lft.to/lastmile_qr_scan"}, "fusion_lon": 0.0}, {"lat": 38.905174, "is_disabled": 0, "type": "electric_scooter", "lon": -77.02952066666667, "bike_id": "f0adaa6a8efcf45abbaac060901928aa", "fusion_lat": 0.0, "name": "f0adaa6a8efcf45abbaac060901928aa", "is_reserved": 0, "rental_uris": {"android": "https://dc.lft.to/lastmile_qr_scan", "ios": "https://dc.lft.to/lastmile_qr_scan"}, "fusion_lon": 0.0}, {"lat": 38.85866566666667, "is_disabled": 0, "type": "electric_bike", "lon": -77.06065983333333, "bike_id": "4393da516153189e3ab3c4596080e659", "fusion_lat": 0.0, "name": "4393da516153189e3ab3c4596080e659", "is_reserved": 0, "rental_uris": {"android": "https://dc.lft.to/lastmile_qr_scan", "ios": "https://dc.lft.to/lastmile_qr_scan"}, "fusion_lon": 0.0}, {"lat": 38.871534833333335, "is_disabled": 0, "type": "electric_bike", "lon": -76.93669783333333, "bike_id": "4b20bf4e1720689f84c4a9bedaaf0c6a", "fusion_lat": 0.0, "name": "4b20bf4e1720689f84c4a9bedaaf0c6a", "is_reserved": 0, "rental_uris": {"android": "https://dc.lft.to/lastmile_qr_scan", "ios": "https://dc.lft.to/lastmile_qr_scan"}, "fusion_lon": 0.0}, {"lat": 38.930946166666665, "is_disabled": 0, "type": "electric_scooter", "lon": -77.02352416666666, "bike_id": "79369c1e0f15761e7fc17986435667ff", "fusion_lat": 0.0, "name": "79369c1e0f15761e7fc17986435667ff", "is_reserved": 0, "rental_uris": {"android": "https://dc.lft.to/lastmile_qr_scan", "ios": "https://dc.lft.to/lastmile_qr_scan"}, "fusion_lon": 0.0}, {"lat": 38.86365983333334, "is_disabled": 0, "type": "electric_scooter", "lon": -76.99027933333333, "bike_id": "651abfcbb65b9da4e9de778f959aa0fb", "fusion_lat": 0.0, "name": "651abfcbb65b9da4e9de778f959aa0fb", "is_reserved": 0, "rental_uris": {"android": "https://dc.lft.to/lastmile_qr_scan", "ios": "https://dc.lft.to/lastmile_qr_scan"}, "fusion_lon": 0.0}, {"lat": 38.92313133333333, "is_disabled": 0, "type": "electric_scooter", "lon": -77.042188, "bike_id": "84cb15026060c903a4e0bf4d199f4f28", "fusion_lat": 0.0, "name": "84cb15026060c903a4e0bf4d199f4f28", "is_reserved": 0, "rental_uris": {"android": "https://dc.lft.to/lastmile_qr_scan", "ios": "https://dc.lft.to/lastmile_qr_scan"}, "fusion_lon": 0.0}, {"lat": 38.92129516666667, "is_disabled": 0, "type": "electric_scooter", "lon": -77.03652266666667, "bike_id": "a0a695ba9a6f33c947b4dc7b7793e514", "fusion_lat": 0.0, "name": "a0a695ba9a6f33c947b4dc7b7793e514", "is_reserved": 0, "rental_uris": {"android": "https://dc.lft.to/lastmile_qr_scan", "ios": "https://dc.lft.to/lastmile_qr_scan"}, "fusion_lon": 0.0}, {"lat": 38.8935665, "is_disabled": 0, "type": "electric_scooter", "lon": -77.02183516666666, "bike_id": "a54f3e39eb56ddfa40af8a05ef69f270", "fusion_lat": 0.0, "name": "a54f3e39eb56ddfa40af8a05ef69f270", "is_reserved": 0, "rental_uris": {"android": "https://dc.lft.to/lastmile_qr_scan", "ios": "https://dc.lft.to/lastmile_qr_scan"}, "fusion_lon": 0.0}, {"lat": 38.909406, "is_disabled": 0, "type": "electric_scooter", "lon": -77.04658716666667, "bike_id": "977449d61b42bb0e32557947ec1d4973", "fusion_lat": 0.0, "name": "977449d61b42bb0e32557947ec1d4973", "is_reserved": 0, "rental_uris": {"android": "https://dc.lft.to/lastmile_qr_scan", "ios": "https://dc.lft.to/lastmile_qr_scan"}, "fusion_lon": 0.0}, {"lat": 38.94945333333333, "is_disabled": 0, "type": "electric_scooter", "lon": -77.01578616666667, "bike_id": "aeb0cf08be280c4a0ba084654eef336c", "fusion_lat": 0.0, "name": "aeb0cf08be280c4a0ba084654eef336c", "is_reserved": 0, "rental_uris": {"android": "https://dc.lft.to/lastmile_qr_scan", "ios": "https://dc.lft.to/lastmile_qr_scan"}, "fusion_lon": 0.0}, {"lat": 38.935803666666665, "is_disabled": 0, "type": "electric_bike", "lon": -77.10680833333333, "bike_id": "bfaaace30eb0ac048a14ffb4ed4f2df6", "fusion_lat": 0.0, "name": "bfaaace30eb0ac048a14ffb4ed4f2df6", "is_reserved": 0, "rental_uris": {"android": "https://dc.lft.to/lastmile_qr_scan", "ios": "https://dc.lft.to/lastmile_qr_scan"}, "fusion_lon": 0.0}, {"lat": 38.912704166666664, "is_disabled": 0, "type": "electric_scooter", "lon": -77.02251383333333, "bike_id": "8f21417ca036bf8cf5475eff47933169", "fusion_lat": 0.0, "name": "8f21417ca036bf8cf5475eff47933169", "is_reserved": 0, "rental_uris": {"android": "https://dc.lft.to/lastmile_qr_scan", "ios": "https://dc.lft.to/lastmile_qr_scan"}, "fusion_lon": 0.0}, {"lat": 38.91737033333333, "is_disabled": 0, "type": "electric_scooter", "lon": -77.03184883333333, "bike_id": "0a31a48672161ea196a5b679baa486a1", "fusion_lat": 0.0, "name": "0a31a48672161ea196a5b679baa486a1", "is_reserved": 0, "rental_uris": {"android": "https://dc.lft.to/lastmile_qr_scan", "ios": "https://dc.lft.to/lastmile_qr_scan"}, "fusion_lon": 0.0}, {"lat": 38.915475666666666, "is_disabled": 0, "type": "electric_scooter", "lon": -76.98542633333334, "bike_id": "ea8812b2f94fa65942d7d5f7b813826b", "fusion_lat": 0.0, "name": "ea8812b2f94fa65942d7d5f7b813826b", "is_reserved": 0, "rental_uris": {"android": "https://dc.lft.to/lastmile_qr_scan", "ios": "https://dc.lft.to/lastmile_qr_scan"}, "fusion_lon": 0.0}, {"lat": 38.908790833333335, "is_disabled": 0, "type": "electric_scooter", "lon": -76.98522666666666, "bike_id": "cdf4631e85fac0a595501b321a18a746", "fusion_lat": 0.0, "name": "cdf4631e85fac0a595501b321a18a746", "is_reserved": 0, "rental_uris": {"android": "https://dc.lft.to/lastmile_qr_scan", "ios": "https://dc.lft.to/lastmile_qr_scan"}, "fusion_lon": 0.0}, {"lat": 38.950079833333334, "is_disabled": 0, "type": "electric_scooter", "lon": -77.0819685, "bike_id": "5e30eb0c28f1db41bd9eb5c70d4b732e", "fusion_lat": 0.0, "name": "5e30eb0c28f1db41bd9eb5c70d4b732e", "is_reserved": 0, "rental_uris": {"android": "https://dc.lft.to/lastmile_qr_scan", "ios": "https://dc.lft.to/lastmile_qr_scan"}, "fusion_lon": 0.0}, {"lat": 38.9057995, "is_disabled": 0, "type": "electric_scooter", "lon": -77.005994, "bike_id": "e5489a136c111210cf827663740d6792", "fusion_lat": 0.0, "name": "e5489a136c111210cf827663740d6792", "is_reserved": 0, "rental_uris": {"android": "https://dc.lft.to/lastmile_qr_scan", "ios": "https://dc.lft.to/lastmile_qr_scan"}, "fusion_lon": 0.0}, {"lat": 38.949177166666665, "is_disabled": 0, "type": "electric_bike", "lon": -77.0079745, "bike_id": "67d4e0387482d279c5a629174a0ebcfd", "fusion_lat": 0.0, "name": "67d4e0387482d279c5a629174a0ebcfd", "is_reserved": 0, "rental_uris": {"android": "https://dc.lft.to/lastmile_qr_scan", "ios": "https://dc.lft.to/lastmile_qr_scan"}, "fusion_lon": 0.0}, {"lat": 38.917172, "is_disabled": 0, "type": "electric_scooter", "lon": -77.02389633333334, "bike_id": "c11829b05946fc7ee5329f86ae001260", "fusion_lat": 0.0, "name": "c11829b05946fc7ee5329f86ae001260", "is_reserved": 0, "rental_uris": {"android": "https://dc.lft.to/lastmile_qr_scan", "ios": "https://dc.lft.to/lastmile_qr_scan"}, "fusion_lon": 0.0}, {"lat": 38.921119166666664, "is_disabled": 0, "type": "electric_bike", "lon": -76.985747, "bike_id": "874a3b4ed07647908d7746d8de1a4d8b", "fusion_lat": 0.0, "name": "874a3b4ed07647908d7746d8de1a4d8b", "is_reserved": 0, "rental_uris": {"android": "https://dc.lft.to/lastmile_qr_scan", "ios": "https://dc.lft.to/lastmile_qr_scan"}, "fusion_lon": 0.0}, {"lat": 38.9589895, "is_disabled": 0, "type": "electric_bike", "lon": -76.92482916666667, "bike_id": "f7ab45841b6fdf014d38e0ac13dd23e8", "fusion_lat": 0.0, "name": "f7ab45841b6fdf014d38e0ac13dd23e8", "is_reserved": 0, "rental_uris": {"android": "https://dc.lft.to/lastmile_qr_scan", "ios": "https://dc.lft.to/lastmile_qr_scan"}, "fusion_lon": 0.0}, {"lat": 38.914187166666665, "is_disabled": 0, "type": "electric_scooter", "lon": -77.0318465, "bike_id": "30d2e8a96043c3cb1fa0331d1bd6d7a7", "fusion_lat": 0.0, "name": "30d2e8a96043c3cb1fa0331d1bd6d7a7", "is_reserved": 0, "rental_uris": {"android": "https://dc.lft.to/lastmile_qr_scan", "ios": "https://dc.lft.to/lastmile_qr_scan"}, "fusion_lon": 0.0}, {"lat": 38.90268116666667, "is_disabled": 0, "type": "electric_scooter", "lon": -77.06354716666667, "bike_id": "c86a4b48d62706ee38ea72c845842796", "fusion_lat": 0.0, "name": "c86a4b48d62706ee38ea72c845842796", "is_reserved": 0, "rental_uris": {"android": "https://dc.lft.to/lastmile_qr_scan", "ios": "https://dc.lft.to/lastmile_qr_scan"}, "fusion_lon": 0.0}, {"lat": 38.93117766666667, "is_disabled": 0, "type": "electric_scooter", "lon": -77.03395183333333, "bike_id": "b8981c2c170a042342807b0e73d94026", "fusion_lat": 0.0, "name": "b8981c2c170a042342807b0e73d94026", "is_reserved": 0, "rental_uris": {"android": "https://dc.lft.to/lastmile_qr_scan", "ios": "https://dc.lft.to/lastmile_qr_scan"}, "fusion_lon": 0.0}, {"lat": 38.912636666666664, "is_disabled": 0, "type": "electric_scooter", "lon": -77.04477666666666, "bike_id": "c58fccd6e38b8fc7ce434c50b87660cd", "fusion_lat": 0.0, "name": "c58fccd6e38b8fc7ce434c50b87660cd", "is_reserved": 0, "rental_uris": {"android": "https://dc.lft.to/lastmile_qr_scan", "ios": "https://dc.lft.to/lastmile_qr_scan"}, "fusion_lon": 0.0}, {"lat": 38.91174816666667, "is_disabled": 0, "type": "electric_scooter", "lon": -77.03853, "bike_id": "e4910b904344f4283a16f6213a008c75", "fusion_lat": 0.0, "name": "e4910b904344f4283a16f6213a008c75", "is_reserved": 0, "rental_uris": {"android": "https://dc.lft.to/lastmile_qr_scan", "ios": "https://dc.lft.to/lastmile_qr_scan"}, "fusion_lon": 0.0}, {"lat": 38.843343, "is_disabled": 0, "type": "electric_bike", "lon": -77.114616, "bike_id": "18eac70cf07c62c9dd2609dd782050fa", "fusion_lat": 0.0, "name": "18eac70cf07c62c9dd2609dd782050fa", "is_reserved": 0, "rental_uris": {"android": "https://dc.lft.to/lastmile_qr_scan", "ios": "https://dc.lft.to/lastmile_qr_scan"}, "fusion_lon": 0.0}, {"lat": 38.91181433333333, "is_disabled": 0, "type": "electric_scooter", "lon": -77.04327366666666, "bike_id": "387cadc10253ca84ea480ecc6e1e247d", "fusion_lat": 0.0, "name": "387cadc10253ca84ea480ecc6e1e247d", "is_reserved": 0, "rental_uris": {"android": "https://dc.lft.to/lastmile_qr_scan", "ios": "https://dc.lft.to/lastmile_qr_scan"}, "fusion_lon": 0.0}, {"lat": 38.91705733333333, "is_disabled": 0, "type": "electric_scooter", "lon": -77.02464933333333, "bike_id": "741b89c31df6d8bafd86c61973d8d98c", "fusion_lat": 0.0, "name": "741b89c31df6d8bafd86c61973d8d98c", "is_reserved": 0, "rental_uris": {"android": "https://dc.lft.to/lastmile_qr_scan", "ios": "https://dc.lft.to/lastmile_qr_scan"}, "fusion_lon": 0.0}, {"lat": 38.93469916666667, "is_disabled": 0, "type": "electric_scooter", "lon": -77.0240965, "bike_id": "d572fe03a1dcc5c033dd4f82190509f2", "fusion_lat": 0.0, "name": "d572fe03a1dcc5c033dd4f82190509f2", "is_reserved": 0, "rental_uris": {"android": "https://dc.lft.to/lastmile_qr_scan", "ios": "https://dc.lft.to/lastmile_qr_scan"}, "fusion_lon": 0.0}, {"lat": 38.920751833333334, "is_disabled": 0, "type": "electric_scooter", "lon": -77.01431316666667, "bike_id": "ead5c40de871298e4fc05e4e27acc1b8", "fusion_lat": 0.0, "name": "ead5c40de871298e4fc05e4e27acc1b8", "is_reserved": 0, "rental_uris": {"android": "https://dc.lft.to/lastmile_qr_scan", "ios": "https://dc.lft.to/lastmile_qr_scan"}, "fusion_lon": 0.0}, {"lat": 38.89350566666667, "is_disabled": 0, "type": "electric_scooter", "lon": -77.04135766666667, "bike_id": "ec0c407999b904461410514729e622d7", "fusion_lat": 0.0, "name": "ec0c407999b904461410514729e622d7", "is_reserved": 0, "rental_uris": {"android": "https://dc.lft.to/lastmile_qr_scan", "ios": "https://dc.lft.to/lastmile_qr_scan"}, "fusion_lon": 0.0}, {"lat": 38.9127785, "is_disabled": 0, "type": "electric_scooter", "lon": -77.03202633333333, "bike_id": "cad3fd3694447d1f54b102fec391ef8c", "fusion_lat": 0.0, "name": "cad3fd3694447d1f54b102fec391ef8c", "is_reserved": 0, "rental_uris": {"android": "https://dc.lft.to/lastmile_qr_scan", "ios": "https://dc.lft.to/lastmile_qr_scan"}, "fusion_lon": 0.0}, {"lat": 38.863677333333335, "is_disabled": 0, "type": "electric_scooter", "lon": -76.99024616666667, "bike_id": "6603f12d3960305a1437dca78a39ff7d", "fusion_lat": 0.0, "name": "6603f12d3960305a1437dca78a39ff7d", "is_reserved": 0, "rental_uris": {"android": "https://dc.lft.to/lastmile_qr_scan", "ios": "https://dc.lft.to/lastmile_qr_scan"}, "fusion_lon": 0.0}, {"lat": 38.9036125, "is_disabled": 0, "type": "electric_scooter", "lon": -77.0291265, "bike_id": "288a49165e3f8081d7cb9c3a4ff095dd", "fusion_lat": 0.0, "name": "288a49165e3f8081d7cb9c3a4ff095dd", "is_reserved": 0, "rental_uris": {"android": "https://dc.lft.to/lastmile_qr_scan", "ios": "https://dc.lft.to/lastmile_qr_scan"}, "fusion_lon": 0.0}, {"lat": 38.9133915, "is_disabled": 0, "type": "electric_scooter", "lon": -77.04883983333333, "bike_id": "e9aee0cab9bbdf15341ac29dd9aab653", "fusion_lat": 0.0, "name": "e9aee0cab9bbdf15341ac29dd9aab653", "is_reserved": 0, "rental_uris": {"android": "https://dc.lft.to/lastmile_qr_scan", "ios": "https://dc.lft.to/lastmile_qr_scan"}, "fusion_lon": 0.0}, {"lat": 38.88513233333333, "is_disabled": 0, "type": "electric_scooter", "lon": -77.00678483333333, "bike_id": "cee8543c5c570a3e29ec551fefbf5ca7", "fusion_lat": 0.0, "name": "cee8543c5c570a3e29ec551fefbf5ca7", "is_reserved": 0, "rental_uris": {"android": "https://dc.lft.to/lastmile_qr_scan", "ios": "https://dc.lft.to/lastmile_qr_scan"}, "fusion_lon": 0.0}, {"lat": 38.923603166666666, "is_disabled": 0, "type": "electric_scooter", "lon": -77.04323, "bike_id": "326f6477a9a025359407687bb53f44ed", "fusion_lat": 0.0, "name": "326f6477a9a025359407687bb53f44ed", "is_reserved": 0, "rental_uris": {"android": "https://dc.lft.to/lastmile_qr_scan", "ios": "https://dc.lft.to/lastmile_qr_scan"}, "fusion_lon": 0.0}, {"lat": 38.904343833333336, "is_disabled": 0, "type": "electric_scooter", "lon": -77.04045466666666, "bike_id": "b62bd7b921a05cc2e5bfcc2b34e1af13", "fusion_lat": 0.0, "name": "b62bd7b921a05cc2e5bfcc2b34e1af13", "is_reserved": 0, "rental_uris": {"android": "https://dc.lft.to/lastmile_qr_scan", "ios": "https://dc.lft.to/lastmile_qr_scan"}, "fusion_lon": 0.0}, {"lat": 38.9436185, "is_disabled": 0, "type": "electric_bike", "lon": -76.96777716666666, "bike_id": "cf601446ab19563b6b06e8f7b692e9f7", "fusion_lat": 0.0, "name": "cf601446ab19563b6b06e8f7b692e9f7", "is_reserved": 0, "rental_uris": {"android": "https://dc.lft.to/lastmile_qr_scan", "ios": "https://dc.lft.to/lastmile_qr_scan"}, "fusion_lon": 0.0}, {"lat": 38.87568016666667, "is_disabled": 0, "type": "electric_scooter", "lon": -77.02078283333333, "bike_id": "b4ec88607cc12899e04267353050e1ba", "fusion_lat": 0.0, "name": "b4ec88607cc12899e04267353050e1ba", "is_reserved": 0, "rental_uris": {"android": "https://dc.lft.to/lastmile_qr_scan", "ios": "https://dc.lft.to/lastmile_qr_scan"}, "fusion_lon": 0.0}, {"lat": 38.905401, "is_disabled": 0, "type": "electric_scooter", "lon": -77.04098416666666, "bike_id": "1aea48192bff1fe5c7ce4709d00df228", "fusion_lat": 0.0, "name": "1aea48192bff1fe5c7ce4709d00df228", "is_reserved": 0, "rental_uris": {"android": "https://dc.lft.to/lastmile_qr_scan", "ios": "https://dc.lft.to/lastmile_qr_scan"}, "fusion_lon": 0.0}, {"lat": 38.91302433333333, "is_disabled": 0, "type": "electric_scooter", "lon": -77.01619216666667, "bike_id": "5093ec4a3484fe427ee34146d9e3891e", "fusion_lat": 0.0, "name": "5093ec4a3484fe427ee34146d9e3891e", "is_reserved": 0, "rental_uris": {"android": "https://dc.lft.to/lastmile_qr_scan", "ios": "https://dc.lft.to/lastmile_qr_scan"}, "fusion_lon": 0.0}, {"lat": 38.92750016666667, "is_disabled": 0, "type": "electric_scooter", "lon": -76.997277, "bike_id": "6573fb8beaf468ca08419f58f161ab6d", "fusion_lat": 0.0, "name": "6573fb8beaf468ca08419f58f161ab6d", "is_reserved": 0, "rental_uris": {"android": "https://dc.lft.to/lastmile_qr_scan", "ios": "https://dc.lft.to/lastmile_qr_scan"}, "fusion_lon": 0.0}, {"lat": 38.91605283333333, "is_disabled": 0, "type": "electric_scooter", "lon": -77.03853266666667, "bike_id": "c31da37617f15890f0c75cb41560b3a2", "fusion_lat": 0.0, "name": "c31da37617f15890f0c75cb41560b3a2", "is_reserved": 0, "rental_uris": {"android": "https://dc.lft.to/lastmile_qr_scan", "ios": "https://dc.lft.to/lastmile_qr_scan"}, "fusion_lon": 0.0}, {"lat": 39.030491, "is_disabled": 0, "type": "electric_bike", "lon": -77.09473666666666, "bike_id": "6de0fbb1e76358130f85f6679c9eefff", "fusion_lat": 0.0, "name": "6de0fbb1e76358130f85f6679c9eefff", "is_reserved": 0, "rental_uris": {"android": "https://dc.lft.to/lastmile_qr_scan", "ios": "https://dc.lft.to/lastmile_qr_scan"}, "fusion_lon": 0.0}, {"lat": 38.892759166666664, "is_disabled": 0, "type": "electric_scooter", "lon": -77.05038166666667, "bike_id": "9bb714d1bab0877c474a1c32b4357535", "fusion_lat": 0.0, "name": "9bb714d1bab0877c474a1c32b4357535", "is_reserved": 0, "rental_uris": {"android": "https://dc.lft.to/lastmile_qr_scan", "ios": "https://dc.lft.to/lastmile_qr_scan"}, "fusion_lon": 0.0}, {"lat": 38.92481166666666, "is_disabled": 0, "type": "electric_bike", "lon": -76.99024833333333, "bike_id": "07153c6b86d3f70c184a5325f1b98c01", "fusion_lat": 0.0, "name": "07153c6b86d3f70c184a5325f1b98c01", "is_reserved": 0, "rental_uris": {"android": "https://dc.lft.to/lastmile_qr_scan", "ios": "https://dc.lft.to/lastmile_qr_scan"}, "fusion_lon": 0.0}, {"lat": 39.088598833333336, "is_disabled": 0, "type": "electric_bike", "lon": -77.178436, "bike_id": "47f850213ef190c25eb721aa59f7c4a6", "fusion_lat": 0.0, "name": "47f850213ef190c25eb721aa59f7c4a6", "is_reserved": 0, "rental_uris": {"android": "https://dc.lft.to/lastmile_qr_scan", "ios": "https://dc.lft.to/lastmile_qr_scan"}, "fusion_lon": 0.0}, {"lat": 38.911288666666664, "is_disabled": 0, "type": "electric_bike", "lon": -77.06583483333333, "bike_id": "657bd1041790fadcde1c75814dcfa297", "fusion_lat": 0.0, "name": "657bd1041790fadcde1c75814dcfa297", "is_reserved": 0, "rental_uris": {"android": "https://dc.lft.to/lastmile_qr_scan", "ios": "https://dc.lft.to/lastmile_qr_scan"}, "fusion_lon": 0.0}, {"lat": 38.90755083333333, "is_disabled": 0, "type": "electric_bike", "lon": -77.06995883333333, "bike_id": "826f2d12f570495a30d189f7aaa02b33", "fusion_lat": 0.0, "name": "826f2d12f570495a30d189f7aaa02b33", "is_reserved": 0, "rental_uris": {"android": "https://dc.lft.to/lastmile_qr_scan", "ios": "https://dc.lft.to/lastmile_qr_scan"}, "fusion_lon": 0.0}, {"lat": 38.91771983333334, "is_disabled": 0, "type": "electric_scooter", "lon": -77.04766916666667, "bike_id": "6f9cdbd9bc28fe419fb6bd6b4906ef01", "fusion_lat": 0.0, "name": "6f9cdbd9bc28fe419fb6bd6b4906ef01", "is_reserved": 0, "rental_uris": {"android": "https://dc.lft.to/lastmile_qr_scan", "ios": "https://dc.lft.to/lastmile_qr_scan"}, "fusion_lon": 0.0}, {"lat": 38.9285575, "is_disabled": 0, "type": "electric_bike", "lon": -77.222095, "bike_id": "8543eee289903bfcaeb4b0ccdaf8ca2f", "fusion_lat": 0.0, "name": "8543eee289903bfcaeb4b0ccdaf8ca2f", "is_reserved": 0, "rental_uris": {"android": "https://dc.lft.to/lastmile_qr_scan", "ios": "https://dc.lft.to/lastmile_qr_scan"}, "fusion_lon": 0.0}, {"lat": 38.90628733333333, "is_disabled": 0, "type": "electric_scooter", "lon": -77.03141133333334, "bike_id": "0eede1e6e50b3fdb8954550511227c69", "fusion_lat": 0.0, "name": "0eede1e6e50b3fdb8954550511227c69", "is_reserved": 0, "rental_uris": {"android": "https://dc.lft.to/lastmile_qr_scan", "ios": "https://dc.lft.to/lastmile_qr_scan"}, "fusion_lon": 0.0}, {"lat": 38.905582, "is_disabled": 0, "type": "electric_bike", "lon": -77.056969, "bike_id": "b29a495925b77a4df44567f9d9b50057", "fusion_lat": 0.0, "name": "b29a495925b77a4df44567f9d9b50057", "is_reserved": 0, "rental_uris": {"android": "https://dc.lft.to/lastmile_qr_scan", "ios": "https://dc.lft.to/lastmile_qr_scan"}, "fusion_lon": 0.0}, {"lat": 38.90337183333333, "is_disabled": 0, "type": "electric_scooter", "lon": -77.02907266666666, "bike_id": "76981ed806b242d6a86cd353dc61b88d", "fusion_lat": 0.0, "name": "76981ed806b242d6a86cd353dc61b88d", "is_reserved": 0, "rental_uris": {"android": "https://dc.lft.to/lastmile_qr_scan", "ios": "https://dc.lft.to/lastmile_qr_scan"}, "fusion_lon": 0.0}, {"lat": 38.8949565, "is_disabled": 0, "type": "electric_scooter", "lon": -77.00207533333334, "bike_id": "48e52b4e1b74391cce832e3dfa73ea33", "fusion_lat": 0.0, "name": "48e52b4e1b74391cce832e3dfa73ea33", "is_reserved": 0, "rental_uris": {"android": "https://dc.lft.to/lastmile_qr_scan", "ios": "https://dc.lft.to/lastmile_qr_scan"}, "fusion_lon": 0.0}, {"lat": 38.92616133333333, "is_disabled": 0, "type": "electric_scooter", "lon": -77.04192366666666, "bike_id": "6677f241df21892c5520282c4afe13a3", "fusion_lat": 0.0, "name": "6677f241df21892c5520282c4afe13a3", "is_reserved": 0, "rental_uris": {"android": "https://dc.lft.to/lastmile_qr_scan", "ios": "https://dc.lft.to/lastmile_qr_scan"}, "fusion_lon": 0.0}, {"lat": 38.94443233333333, "is_disabled": 0, "type": "electric_scooter", "lon": -77.06279016666667, "bike_id": "d4826133a9a5ae4ba23a75f493b71af9", "fusion_lat": 0.0, "name": "d4826133a9a5ae4ba23a75f493b71af9", "is_reserved": 0, "rental_uris": {"android": "https://dc.lft.to/lastmile_qr_scan", "ios": "https://dc.lft.to/lastmile_qr_scan"}, "fusion_lon": 0.0}, {"lat": 38.9202985, "is_disabled": 0, "type": "electric_scooter", "lon": -77.013258, "bike_id": "70ee9809d6431e8d758b73794418fa37", "fusion_lat": 0.0, "name": "70ee9809d6431e8d758b73794418fa37", "is_reserved": 0, "rental_uris": {"android": "https://dc.lft.to/lastmile_qr_scan", "ios": "https://dc.lft.to/lastmile_qr_scan"}, "fusion_lon": 0.0}, {"lat": 38.90755, "is_disabled": 0, "type": "electric_scooter", "lon": -76.9990555, "bike_id": "ead5b9ab46244753c9a9fc7a2696c220", "fusion_lat": 0.0, "name": "ead5b9ab46244753c9a9fc7a2696c220", "is_reserved": 0, "rental_uris": {"android": "https://dc.lft.to/lastmile_qr_scan", "ios": "https://dc.lft.to/lastmile_qr_scan"}, "fusion_lon": 0.0}, {"lat": 38.92717716666667, "is_disabled": 0, "type": "electric_bike", "lon": -77.02962783333334, "bike_id": "837ad645c3a0df87b27a27d820a32115", "fusion_lat": 0.0, "name": "837ad645c3a0df87b27a27d820a32115", "is_reserved": 0, "rental_uris": {"android": "https://dc.lft.to/lastmile_qr_scan", "ios": "https://dc.lft.to/lastmile_qr_scan"}, "fusion_lon": 0.0}, {"lat": 38.896069833333335, "is_disabled": 0, "type": "electric_scooter", "lon": -77.04495833333333, "bike_id": "8ccf9f011d426122fcb4d9c10ac2ec42", "fusion_lat": 0.0, "name": "8ccf9f011d426122fcb4d9c10ac2ec42", "is_reserved": 0, "rental_uris": {"android": "https://dc.lft.to/lastmile_qr_scan", "ios": "https://dc.lft.to/lastmile_qr_scan"}, "fusion_lon": 0.0}, {"lat": 38.93756066666667, "is_disabled": 0, "type": "electric_scooter", "lon": -77.03451733333333, "bike_id": "a9d40c02bf4f1d1b19935875967cfb03", "fusion_lat": 0.0, "name": "a9d40c02bf4f1d1b19935875967cfb03", "is_reserved": 0, "rental_uris": {"android": "https://dc.lft.to/lastmile_qr_scan", "ios": "https://dc.lft.to/lastmile_qr_scan"}, "fusion_lon": 0.0}, {"lat": 38.90575483333333, "is_disabled": 0, "type": "electric_scooter", "lon": -77.03784666666667, "bike_id": "5d1e341d1a2bd921e41d8238aa457517", "fusion_lat": 0.0, "name": "5d1e341d1a2bd921e41d8238aa457517", "is_reserved": 0, "rental_uris": {"android": "https://dc.lft.to/lastmile_qr_scan", "ios": "https://dc.lft.to/lastmile_qr_scan"}, "fusion_lon": 0.0}, {"lat": 38.85925, "is_disabled": 0, "type": "electric_scooter", "lon": -76.98979483333333, "bike_id": "e86cffbb38e72ff1a48f899ad319f7d5", "fusion_lat": 0.0, "name": "e86cffbb38e72ff1a48f899ad319f7d5", "is_reserved": 0, "rental_uris": {"android": "https://dc.lft.to/lastmile_qr_scan", "ios": "https://dc.lft.to/lastmile_qr_scan"}, "fusion_lon": 0.0}, {"lat": 38.92401133333333, "is_disabled": 0, "type": "electric_scooter", "lon": -77.04274466666666, "bike_id": "cf0adbad10820569801dd6e125f5db35", "fusion_lat": 0.0, "name": "cf0adbad10820569801dd6e125f5db35", "is_reserved": 0, "rental_uris": {"android": "https://dc.lft.to/lastmile_qr_scan", "ios": "https://dc.lft.to/lastmile_qr_scan"}, "fusion_lon": 0.0}, {"lat": 38.920548333333336, "is_disabled": 0, "type": "electric_scooter", "lon": -77.031717, "bike_id": "d21cac84ee061baea99862b3ec6d313e", "fusion_lat": 0.0, "name": "d21cac84ee061baea99862b3ec6d313e", "is_reserved": 0, "rental_uris": {"android": "https://dc.lft.to/lastmile_qr_scan", "ios": "https://dc.lft.to/lastmile_qr_scan"}, "fusion_lon": 0.0}, {"lat": 38.930629833333334, "is_disabled": 0, "type": "electric_scooter", "lon": -77.040211, "bike_id": "d63436a7d9f5651509c8c048ede1d6ff", "fusion_lat": 0.0, "name": "d63436a7d9f5651509c8c048ede1d6ff", "is_reserved": 0, "rental_uris": {"android": "https://dc.lft.to/lastmile_qr_scan", "ios": "https://dc.lft.to/lastmile_qr_scan"}, "fusion_lon": 0.0}, {"lat": 38.91318916666667, "is_disabled": 0, "type": "electric_scooter", "lon": -77.03188666666667, "bike_id": "c14f3fd7eb610830ed30396dc02474a2", "fusion_lat": 0.0, "name": "c14f3fd7eb610830ed30396dc02474a2", "is_reserved": 0, "rental_uris": {"android": "https://dc.lft.to/lastmile_qr_scan", "ios": "https://dc.lft.to/lastmile_qr_scan"}, "fusion_lon": 0.0}, {"lat": 38.92138416666667, "is_disabled": 0, "type": "electric_scooter", "lon": -77.04480783333334, "bike_id": "9e5ebd3c8ebb891f0bebbca668d05ffe", "fusion_lat": 0.0, "name": "9e5ebd3c8ebb891f0bebbca668d05ffe", "is_reserved": 0, "rental_uris": {"android": "https://dc.lft.to/lastmile_qr_scan", "ios": "https://dc.lft.to/lastmile_qr_scan"}, "fusion_lon": 0.0}, {"lat": 38.9164325, "is_disabled": 0, "type": "electric_scooter", "lon": -77.022394, "bike_id": "acb0faaca1f0d7d650617fb098c4c927", "fusion_lat": 0.0, "name": "acb0faaca1f0d7d650617fb098c4c927", "is_reserved": 0, "rental_uris": {"android": "https://dc.lft.to/lastmile_qr_scan", "ios": "https://dc.lft.to/lastmile_qr_scan"}, "fusion_lon": 0.0}, {"lat": 38.9999665, "is_disabled": 0, "type": "electric_bike", "lon": -76.92496833333334, "bike_id": "b07f4a2f87f5069b76517155bef40c53", "fusion_lat": 0.0, "name": "b07f4a2f87f5069b76517155bef40c53", "is_reserved": 0, "rental_uris": {"android": "https://dc.lft.to/lastmile_qr_scan", "ios": "https://dc.lft.to/lastmile_qr_scan"}, "fusion_lon": 0.0}, {"lat": 38.890924166666665, "is_disabled": 0, "type": "electric_scooter", "lon": -76.95266583333333, "bike_id": "c72ebfabcaf5f34e3e151318b65ae361", "fusion_lat": 0.0, "name": "c72ebfabcaf5f34e3e151318b65ae361", "is_reserved": 0, "rental_uris": {"android": "https://dc.lft.to/lastmile_qr_scan", "ios": "https://dc.lft.to/lastmile_qr_scan"}, "fusion_lon": 0.0}, {"lat": 38.9386345, "is_disabled": 0, "type": "electric_scooter", "lon": -77.02739966666667, "bike_id": "630b2ac291f94265e277315d54cb99e8", "fusion_lat": 0.0, "name": "630b2ac291f94265e277315d54cb99e8", "is_reserved": 0, "rental_uris": {"android": "https://dc.lft.to/lastmile_qr_scan", "ios": "https://dc.lft.to/lastmile_qr_scan"}, "fusion_lon": 0.0}, {"lat": 38.911049, "is_disabled": 0, "type": "electric_scooter", "lon": -77.037236, "bike_id": "b146481fbd50ceaff93707f7b08e868b", "fusion_lat": 0.0, "name": "b146481fbd50ceaff93707f7b08e868b", "is_reserved": 0, "rental_uris": {"android": "https://dc.lft.to/lastmile_qr_scan", "ios": "https://dc.lft.to/lastmile_qr_scan"}, "fusion_lon": 0.0}, {"lat": 38.952175833333335, "is_disabled": 0, "type": "electric_scooter", "lon": -77.08601333333333, "bike_id": "012f5ea6c563d71e69d486263f923d6b", "fusion_lat": 0.0, "name": "012f5ea6c563d71e69d486263f923d6b", "is_reserved": 0, "rental_uris": {"android": "https://dc.lft.to/lastmile_qr_scan", "ios": "https://dc.lft.to/lastmile_qr_scan"}, "fusion_lon": 0.0}, {"lat": 38.957093666666665, "is_disabled": 0, "type": "electric_scooter", "lon": -77.02400866666666, "bike_id": "2473f3f8505e922ce7e3da58e7d29de2", "fusion_lat": 0.0, "name": "2473f3f8505e922ce7e3da58e7d29de2", "is_reserved": 0, "rental_uris": {"android": "https://dc.lft.to/lastmile_qr_scan", "ios": "https://dc.lft.to/lastmile_qr_scan"}, "fusion_lon": 0.0}, {"lat": 38.904162166666666, "is_disabled": 0, "type": "electric_scooter", "lon": -77.05059616666666, "bike_id": "e01d0a7ef043432aa87996f9a89826ea", "fusion_lat": 0.0, "name": "e01d0a7ef043432aa87996f9a89826ea", "is_reserved": 0, "rental_uris": {"android": "https://dc.lft.to/lastmile_qr_scan", "ios": "https://dc.lft.to/lastmile_qr_scan"}, "fusion_lon": 0.0}, {"lat": 38.908288166666665, "is_disabled": 0, "type": "electric_scooter", "lon": -77.02009933333333, "bike_id": "799333f8126ed62ccfab6d2f2e9b6d6b", "fusion_lat": 0.0, "name": "799333f8126ed62ccfab6d2f2e9b6d6b", "is_reserved": 0, "rental_uris": {"android": "https://dc.lft.to/lastmile_qr_scan", "ios": "https://dc.lft.to/lastmile_qr_scan"}, "fusion_lon": 0.0}, {"lat": 38.90643, "is_disabled": 0, "type": "electric_scooter", "lon": -77.00828416666667, "bike_id": "ce34d8570477a0f259a0ac32cf1b766c", "fusion_lat": 0.0, "name": "ce34d8570477a0f259a0ac32cf1b766c", "is_reserved": 0, "rental_uris": {"android": "https://dc.lft.to/lastmile_qr_scan", "ios": "https://dc.lft.to/lastmile_qr_scan"}, "fusion_lon": 0.0}, {"lat": 38.8866385, "is_disabled": 0, "type": "electric_bike", "lon": -77.16239766666666, "bike_id": "ab2cb6864839299e463da7a1376be755", "fusion_lat": 0.0, "name": "ab2cb6864839299e463da7a1376be755", "is_reserved": 0, "rental_uris": {"android": "https://dc.lft.to/lastmile_qr_scan", "ios": "https://dc.lft.to/lastmile_qr_scan"}, "fusion_lon": 0.0}, {"lat": 38.90392966666667, "is_disabled": 0, "type": "electric_scooter", "lon": -76.99002966666667, "bike_id": "735745cbba6673e1e84ff94d0da33c78", "fusion_lat": 0.0, "name": "735745cbba6673e1e84ff94d0da33c78", "is_reserved": 0, "rental_uris": {"android": "https://dc.lft.to/lastmile_qr_scan", "ios": "https://dc.lft.to/lastmile_qr_scan"}, "fusion_lon": 0.0}, {"lat": 38.922008, "is_disabled": 0, "type": "electric_bike", "lon": -77.08203983333334, "bike_id": "ed8d6f9f7bac538a7260f6e049369907", "fusion_lat": 0.0, "name": "ed8d6f9f7bac538a7260f6e049369907", "is_reserved": 0, "rental_uris": {"android": "https://dc.lft.to/lastmile_qr_scan", "ios": "https://dc.lft.to/lastmile_qr_scan"}, "fusion_lon": 0.0}, {"lat": 38.88603466666667, "is_disabled": 0, "type": "electric_scooter", "lon": -77.0189095, "bike_id": "d06066ef43d9b4d818d60373bf1aca93", "fusion_lat": 0.0, "name": "d06066ef43d9b4d818d60373bf1aca93", "is_reserved": 0, "rental_uris": {"android": "https://dc.lft.to/lastmile_qr_scan", "ios": "https://dc.lft.to/lastmile_qr_scan"}, "fusion_lon": 0.0}, {"lat": 38.948241, "is_disabled": 0, "type": "electric_scooter", "lon": -76.99904733333334, "bike_id": "487bb425294aa99b04580822201c2fe4", "fusion_lat": 0.0, "name": "487bb425294aa99b04580822201c2fe4", "is_reserved": 0, "rental_uris": {"android": "https://dc.lft.to/lastmile_qr_scan", "ios": "https://dc.lft.to/lastmile_qr_scan"}, "fusion_lon": 0.0}, {"lat": 38.919583833333334, "is_disabled": 0, "type": "electric_scooter", "lon": -77.01438166666667, "bike_id": "7439f9c5e148ba622d78c6481d1b79e0", "fusion_lat": 0.0, "name": "7439f9c5e148ba622d78c6481d1b79e0", "is_reserved": 0, "rental_uris": {"android": "https://dc.lft.to/lastmile_qr_scan", "ios": "https://dc.lft.to/lastmile_qr_scan"}, "fusion_lon": 0.0}, {"lat": 38.885480666666666, "is_disabled": 0, "type": "electric_bike", "lon": -77.11785283333333, "bike_id": "d88e971a078abeea38e79b602746e677", "fusion_lat": 0.0, "name": "d88e971a078abeea38e79b602746e677", "is_reserved": 0, "rental_uris": {"android": "https://dc.lft.to/lastmile_qr_scan", "ios": "https://dc.lft.to/lastmile_qr_scan"}, "fusion_lon": 0.0}, {"lat": 38.901426666666666, "is_disabled": 0, "type": "electric_scooter", "lon": -77.03994816666666, "bike_id": "c5d5362887411de0c6ffa65556bf9ce1", "fusion_lat": 0.0, "name": "c5d5362887411de0c6ffa65556bf9ce1", "is_reserved": 0, "rental_uris": {"android": "https://dc.lft.to/lastmile_qr_scan", "ios": "https://dc.lft.to/lastmile_qr_scan"}, "fusion_lon": 0.0}, {"lat": 38.91567033333333, "is_disabled": 0, "type": "electric_scooter", "lon": -77.02007883333333, "bike_id": "477538769650a7fd9e10aeb8e073f478", "fusion_lat": 0.0, "name": "477538769650a7fd9e10aeb8e073f478", "is_reserved": 0, "rental_uris": {"android": "https://dc.lft.to/lastmile_qr_scan", "ios": "https://dc.lft.to/lastmile_qr_scan"}, "fusion_lon": 0.0}, {"lat": 38.95407466666666, "is_disabled": 0, "type": "electric_bike", "lon": -76.98059883333333, "bike_id": "acc2de86bfe14e26bbc3f974e05a1707", "fusion_lat": 0.0, "name": "acc2de86bfe14e26bbc3f974e05a1707", "is_reserved": 0, "rental_uris": {"android": "https://dc.lft.to/lastmile_qr_scan", "ios": "https://dc.lft.to/lastmile_qr_scan"}, "fusion_lon": 0.0}, {"lat": 38.901070833333335, "is_disabled": 0, "type": "electric_scooter", "lon": -77.03310366666666, "bike_id": "e4dfe4372432732a9aaa55733f6d23e0", "fusion_lat": 0.0, "name": "e4dfe4372432732a9aaa55733f6d23e0", "is_reserved": 0, "rental_uris": {"android": "https://dc.lft.to/lastmile_qr_scan", "ios": "https://dc.lft.to/lastmile_qr_scan"}, "fusion_lon": 0.0}, {"lat": 38.8734165, "is_disabled": 0, "type": "electric_scooter", "lon": -76.9916675, "bike_id": "9e05e0d67fc7f5a794a55cfa6a7e1f37", "fusion_lat": 0.0, "name": "9e05e0d67fc7f5a794a55cfa6a7e1f37", "is_reserved": 0, "rental_uris": {"android": "https://dc.lft.to/lastmile_qr_scan", "ios": "https://dc.lft.to/lastmile_qr_scan"}, "fusion_lon": 0.0}, {"lat": 38.9245, "is_disabled": 0, "type": "electric_scooter", "lon": -77.04017316666666, "bike_id": "a6c9138f7583963a3b14f35895ea7a0f", "fusion_lat": 0.0, "name": "a6c9138f7583963a3b14f35895ea7a0f", "is_reserved": 0, "rental_uris": {"android": "https://dc.lft.to/lastmile_qr_scan", "ios": "https://dc.lft.to/lastmile_qr_scan"}, "fusion_lon": 0.0}, {"lat": 38.90716366666667, "is_disabled": 0, "type": "electric_scooter", "lon": -77.0275205, "bike_id": "44af03134a3c8d29f590564c15ebfc38", "fusion_lat": 0.0, "name": "44af03134a3c8d29f590564c15ebfc38", "is_reserved": 0, "rental_uris": {"android": "https://dc.lft.to/lastmile_qr_scan", "ios": "https://dc.lft.to/lastmile_qr_scan"}, "fusion_lon": 0.0}, {"lat": 38.876266, "is_disabled": 0, "type": "electric_scooter", "lon": -76.965241, "bike_id": "0922bc6fc3b246c711a7b9f5afdc1230", "fusion_lat": 0.0, "name": "0922bc6fc3b246c711a7b9f5afdc1230", "is_reserved": 0, "rental_uris": {"android": "https://dc.lft.to/lastmile_qr_scan", "ios": "https://dc.lft.to/lastmile_qr_scan"}, "fusion_lon": 0.0}, {"lat": 38.91903716666667, "is_disabled": 0, "type": "electric_scooter", "lon": -77.02467766666666, "bike_id": "5e3933ed8e616a540dea4fac289aa908", "fusion_lat": 0.0, "name": "5e3933ed8e616a540dea4fac289aa908", "is_reserved": 0, "rental_uris": {"android": "https://dc.lft.to/lastmile_qr_scan", "ios": "https://dc.lft.to/lastmile_qr_scan"}, "fusion_lon": 0.0}, {"lat": 38.906217166666664, "is_disabled": 0, "type": "electric_scooter", "lon": -77.021796, "bike_id": "db857ab6a61ee35d9994fc0672669e37", "fusion_lat": 0.0, "name": "db857ab6a61ee35d9994fc0672669e37", "is_reserved": 0, "rental_uris": {"android": "https://dc.lft.to/lastmile_qr_scan", "ios": "https://dc.lft.to/lastmile_qr_scan"}, "fusion_lon": 0.0}, {"lat": 38.900263333333335, "is_disabled": 0, "type": "electric_scooter", "lon": -77.04415316666666, "bike_id": "62b9b1a5c2dcc6da3935fc1f0cbe1fc1", "fusion_lat": 0.0, "name": "62b9b1a5c2dcc6da3935fc1f0cbe1fc1", "is_reserved": 0, "rental_uris": {"android": "https://dc.lft.to/lastmile_qr_scan", "ios": "https://dc.lft.to/lastmile_qr_scan"}, "fusion_lon": 0.0}, {"lat": 38.897184, "is_disabled": 0, "type": "electric_scooter", "lon": -77.00794183333333, "bike_id": "20ac879217be352ad13ec980cf5ba684", "fusion_lat": 0.0, "name": "20ac879217be352ad13ec980cf5ba684", "is_reserved": 0, "rental_uris": {"android": "https://dc.lft.to/lastmile_qr_scan", "ios": "https://dc.lft.to/lastmile_qr_scan"}, "fusion_lon": 0.0}, {"lat": 38.897884833333336, "is_disabled": 0, "type": "electric_scooter", "lon": -77.0503245, "bike_id": "d0441324d4be8e7407608f58886985ef", "fusion_lat": 0.0, "name": "d0441324d4be8e7407608f58886985ef", "is_reserved": 0, "rental_uris": {"android": "https://dc.lft.to/lastmile_qr_scan", "ios": "https://dc.lft.to/lastmile_qr_scan"}, "fusion_lon": 0.0}, {"lat": 38.949036666666665, "is_disabled": 0, "type": "electric_bike", "lon": -76.972405, "bike_id": "54ae8c808f4873e8dd5cb9b6a6b37b4a", "fusion_lat": 0.0, "name": "54ae8c808f4873e8dd5cb9b6a6b37b4a", "is_reserved": 0, "rental_uris": {"android": "https://dc.lft.to/lastmile_qr_scan", "ios": "https://dc.lft.to/lastmile_qr_scan"}, "fusion_lon": 0.0}, {"lat": 38.79327116666666, "is_disabled": 0, "type": "electric_bike", "lon": -77.0401575, "bike_id": "40570b54320d98ffe9acf4adbfc0505c", "fusion_lat": 0.0, "name": "40570b54320d98ffe9acf4adbfc0505c", "is_reserved": 0, "rental_uris": {"android": "https://dc.lft.to/lastmile_qr_scan", "ios": "https://dc.lft.to/lastmile_qr_scan"}, "fusion_lon": 0.0}, {"lat": 38.926850333333334, "is_disabled": 0, "type": "electric_scooter", "lon": -77.01570316666667, "bike_id": "cc77be330d1226a3a48fcfc45af65168", "fusion_lat": 0.0, "name": "cc77be330d1226a3a48fcfc45af65168", "is_reserved": 0, "rental_uris": {"android": "https://dc.lft.to/lastmile_qr_scan", "ios": "https://dc.lft.to/lastmile_qr_scan"}, "fusion_lon": 0.0}, {"lat": 38.90598466666667, "is_disabled": 0, "type": "electric_scooter", "lon": -77.034032, "bike_id": "b94142aad1e0b1fb91d59ec65096c044", "fusion_lat": 0.0, "name": "b94142aad1e0b1fb91d59ec65096c044", "is_reserved": 0, "rental_uris": {"android": "https://dc.lft.to/lastmile_qr_scan", "ios": "https://dc.lft.to/lastmile_qr_scan"}, "fusion_lon": 0.0}, {"lat": 38.88334616666667, "is_disabled": 0, "type": "electric_scooter", "lon": -77.00929216666667, "bike_id": "d2c2ebb9b34f18c647f16d950f57991d", "fusion_lat": 0.0, "name": "d2c2ebb9b34f18c647f16d950f57991d", "is_reserved": 0, "rental_uris": {"android": "https://dc.lft.to/lastmile_qr_scan", "ios": "https://dc.lft.to/lastmile_qr_scan"}, "fusion_lon": 0.0}, {"lat": 38.868338666666666, "is_disabled": 0, "type": "electric_scooter", "lon": -76.97739583333333, "bike_id": "248a58dae1d280122623627c109c8017", "fusion_lat": 0.0, "name": "248a58dae1d280122623627c109c8017", "is_reserved": 0, "rental_uris": {"android": "https://dc.lft.to/lastmile_qr_scan", "ios": "https://dc.lft.to/lastmile_qr_scan"}, "fusion_lon": 0.0}, {"lat": 38.92704466666667, "is_disabled": 0, "type": "electric_scooter", "lon": -77.02100566666667, "bike_id": "870ce9f70c35d3ab1584e26aa1027432", "fusion_lat": 0.0, "name": "870ce9f70c35d3ab1584e26aa1027432", "is_reserved": 0, "rental_uris": {"android": "https://dc.lft.to/lastmile_qr_scan", "ios": "https://dc.lft.to/lastmile_qr_scan"}, "fusion_lon": 0.0}, {"lat": 38.916200833333335, "is_disabled": 0, "type": "electric_scooter", "lon": -77.04866766666666, "bike_id": "bb185d2286606cf124faddd79a6853ec", "fusion_lat": 0.0, "name": "bb185d2286606cf124faddd79a6853ec", "is_reserved": 0, "rental_uris": {"android": "https://dc.lft.to/lastmile_qr_scan", "ios": "https://dc.lft.to/lastmile_qr_scan"}, "fusion_lon": 0.0}, {"lat": 38.9142585, "is_disabled": 0, "type": "electric_scooter", "lon": -77.04640866666666, "bike_id": "8e12cd1d925ebf7fae8f04c4e116f3d5", "fusion_lat": 0.0, "name": "8e12cd1d925ebf7fae8f04c4e116f3d5", "is_reserved": 0, "rental_uris": {"android": "https://dc.lft.to/lastmile_qr_scan", "ios": "https://dc.lft.to/lastmile_qr_scan"}, "fusion_lon": 0.0}, {"lat": 38.906345333333334, "is_disabled": 0, "type": "electric_scooter", "lon": -77.02496333333333, "bike_id": "d6fbcd32cb52fa706596d1d6219f3c53", "fusion_lat": 0.0, "name": "d6fbcd32cb52fa706596d1d6219f3c53", "is_reserved": 0, "rental_uris": {"android": "https://dc.lft.to/lastmile_qr_scan", "ios": "https://dc.lft.to/lastmile_qr_scan"}, "fusion_lon": 0.0}, {"lat": 38.90104866666667, "is_disabled": 0, "type": "electric_scooter", "lon": -77.050633, "bike_id": "cb726b7bbc986a50bc55640c71678e98", "fusion_lat": 0.0, "name": "cb726b7bbc986a50bc55640c71678e98", "is_reserved": 0, "rental_uris": {"android": "https://dc.lft.to/lastmile_qr_scan", "ios": "https://dc.lft.to/lastmile_qr_scan"}, "fusion_lon": 0.0}, {"lat": 38.871455833333336, "is_disabled": 0, "type": "electric_bike", "lon": -76.93704933333333, "bike_id": "55e031db3e35b9a5dad43f718238962b", "fusion_lat": 0.0, "name": "55e031db3e35b9a5dad43f718238962b", "is_reserved": 0, "rental_uris": {"android": "https://dc.lft.to/lastmile_qr_scan", "ios": "https://dc.lft.to/lastmile_qr_scan"}, "fusion_lon": 0.0}, {"lat": 38.836964, "is_disabled": 0, "type": "electric_scooter", "lon": -77.10307166666666, "bike_id": "728cd6cb199e0f8d73f1b66b8f5654f2", "fusion_lat": 0.0, "name": "728cd6cb199e0f8d73f1b66b8f5654f2", "is_reserved": 0, "rental_uris": {"android": "https://dc.lft.to/lastmile_qr_scan", "ios": "https://dc.lft.to/lastmile_qr_scan"}, "fusion_lon": 0.0}, {"lat": 38.91616283333333, "is_disabled": 0, "type": "electric_scooter", "lon": -77.03274083333334, "bike_id": "5d64eaf4047fcf43f7089e2d4a89cceb", "fusion_lat": 0.0, "name": "5d64eaf4047fcf43f7089e2d4a89cceb", "is_reserved": 0, "rental_uris": {"android": "https://dc.lft.to/lastmile_qr_scan", "ios": "https://dc.lft.to/lastmile_qr_scan"}, "fusion_lon": 0.0}, {"lat": 38.894596, "is_disabled": 0, "type": "electric_bike", "lon": -77.07321033333334, "bike_id": "1293b3dabdfe4c2a57d894fb906a12bb", "fusion_lat": 0.0, "name": "1293b3dabdfe4c2a57d894fb906a12bb", "is_reserved": 0, "rental_uris": {"android": "https://dc.lft.to/lastmile_qr_scan", "ios": "https://dc.lft.to/lastmile_qr_scan"}, "fusion_lon": 0.0}, {"lat": 38.898404166666666, "is_disabled": 0, "type": "electric_scooter", "lon": -76.99504283333333, "bike_id": "1d2c7208b9a4c5f6cd3f224dc3742e03", "fusion_lat": 0.0, "name": "1d2c7208b9a4c5f6cd3f224dc3742e03", "is_reserved": 0, "rental_uris": {"android": "https://dc.lft.to/lastmile_qr_scan", "ios": "https://dc.lft.to/lastmile_qr_scan"}, "fusion_lon": 0.0}, {"lat": 38.9036145, "is_disabled": 0, "type": "electric_scooter", "lon": -77.00751766666667, "bike_id": "0ef1aa8cbcc6a58f6a4c908a2afd2af4", "fusion_lat": 0.0, "name": "0ef1aa8cbcc6a58f6a4c908a2afd2af4", "is_reserved": 0, "rental_uris": {"android": "https://dc.lft.to/lastmile_qr_scan", "ios": "https://dc.lft.to/lastmile_qr_scan"}, "fusion_lon": 0.0}, {"lat": 38.90057733333333, "is_disabled": 0, "type": "electric_scooter", "lon": -77.02193433333333, "bike_id": "680e6a036a7a727083cc6d42ad033974", "fusion_lat": 0.0, "name": "680e6a036a7a727083cc6d42ad033974", "is_reserved": 0, "rental_uris": {"android": "https://dc.lft.to/lastmile_qr_scan", "ios": "https://dc.lft.to/lastmile_qr_scan"}, "fusion_lon": 0.0}, {"lat": 38.899100833333335, "is_disabled": 0, "type": "electric_bike", "lon": -77.03294883333334, "bike_id": "024f8b731fea33b20e2e28a3e37c8826", "fusion_lat": 0.0, "name": "024f8b731fea33b20e2e28a3e37c8826", "is_reserved": 0, "rental_uris": {"android": "https://dc.lft.to/lastmile_qr_scan", "ios": "https://dc.lft.to/lastmile_qr_scan"}, "fusion_lon": 0.0}, {"lat": 38.8866755, "is_disabled": 0, "type": "electric_scooter", "lon": -77.01389, "bike_id": "bdb75601315767df406ca9ec9c5d2f47", "fusion_lat": 0.0, "name": "bdb75601315767df406ca9ec9c5d2f47", "is_reserved": 0, "rental_uris": {"android": "https://dc.lft.to/lastmile_qr_scan", "ios": "https://dc.lft.to/lastmile_qr_scan"}, "fusion_lon": 0.0}, {"lat": 38.91595566666667, "is_disabled": 0, "type": "electric_scooter", "lon": -77.02125966666667, "bike_id": "be601eb6af6f3338cb686d046807ee8c", "fusion_lat": 0.0, "name": "be601eb6af6f3338cb686d046807ee8c", "is_reserved": 0, "rental_uris": {"android": "https://dc.lft.to/lastmile_qr_scan", "ios": "https://dc.lft.to/lastmile_qr_scan"}, "fusion_lon": 0.0}, {"lat": 38.892195666666666, "is_disabled": 0, "type": "electric_bike", "lon": -77.1078015, "bike_id": "dded9b40e40f1c7893a688e079fb7448", "fusion_lat": 0.0, "name": "dded9b40e40f1c7893a688e079fb7448", "is_reserved": 0, "rental_uris": {"android": "https://dc.lft.to/lastmile_qr_scan", "ios": "https://dc.lft.to/lastmile_qr_scan"}, "fusion_lon": 0.0}, {"lat": 38.96217933333333, "is_disabled": 0, "type": "electric_bike", "lon": -77.0262665, "bike_id": "46ac1545ffa687c23362da3f3ae54e38", "fusion_lat": 0.0, "name": "46ac1545ffa687c23362da3f3ae54e38", "is_reserved": 0, "rental_uris": {"android": "https://dc.lft.to/lastmile_qr_scan", "ios": "https://dc.lft.to/lastmile_qr_scan"}, "fusion_lon": 0.0}, {"lat": 38.910867, "is_disabled": 0, "type": "electric_scooter", "lon": -77.04388966666667, "bike_id": "5ef0c40fa8b1e8e4fe6c71d1994bb42b", "fusion_lat": 0.0, "name": "5ef0c40fa8b1e8e4fe6c71d1994bb42b", "is_reserved": 0, "rental_uris": {"android": "https://dc.lft.to/lastmile_qr_scan", "ios": "https://dc.lft.to/lastmile_qr_scan"}, "fusion_lon": 0.0}, {"lat": 38.925188166666665, "is_disabled": 0, "type": "electric_scooter", "lon": -77.02353616666667, "bike_id": "4f9e0b04c238b5f65ecf090099438e7a", "fusion_lat": 0.0, "name": "4f9e0b04c238b5f65ecf090099438e7a", "is_reserved": 0, "rental_uris": {"android": "https://dc.lft.to/lastmile_qr_scan", "ios": "https://dc.lft.to/lastmile_qr_scan"}, "fusion_lon": 0.0}, {"lat": 38.917065666666666, "is_disabled": 0, "type": "electric_scooter", "lon": -77.02381133333333, "bike_id": "7419f7c2d74945961dd68f4767d8de6d", "fusion_lat": 0.0, "name": "7419f7c2d74945961dd68f4767d8de6d", "is_reserved": 0, "rental_uris": {"android": "https://dc.lft.to/lastmile_qr_scan", "ios": "https://dc.lft.to/lastmile_qr_scan"}, "fusion_lon": 0.0}, {"lat": 38.95083433333333, "is_disabled": 0, "type": "electric_bike", "lon": -77.01187966666667, "bike_id": "83c1d9901cdff160c23554900d847b4c", "fusion_lat": 0.0, "name": "83c1d9901cdff160c23554900d847b4c", "is_reserved": 0, "rental_uris": {"android": "https://dc.lft.to/lastmile_qr_scan", "ios": "https://dc.lft.to/lastmile_qr_scan"}, "fusion_lon": 0.0}, {"lat": 38.90347633333333, "is_disabled": 0, "type": "electric_scooter", "lon": -77.00215083333333, "bike_id": "5bc23e66f0a03c594c3d9e362c20f543", "fusion_lat": 0.0, "name": "5bc23e66f0a03c594c3d9e362c20f543", "is_reserved": 0, "rental_uris": {"android": "https://dc.lft.to/lastmile_qr_scan", "ios": "https://dc.lft.to/lastmile_qr_scan"}, "fusion_lon": 0.0}, {"lat": 38.86619066666667, "is_disabled": 0, "type": "electric_scooter", "lon": -76.98658716666667, "bike_id": "b4511853f367f7603a8a9fd0b0355075", "fusion_lat": 0.0, "name": "b4511853f367f7603a8a9fd0b0355075", "is_reserved": 0, "rental_uris": {"android": "https://dc.lft.to/lastmile_qr_scan", "ios": "https://dc.lft.to/lastmile_qr_scan"}, "fusion_lon": 0.0}, {"lat": 38.90239416666667, "is_disabled": 0, "type": "electric_scooter", "lon": -77.06262383333333, "bike_id": "b608eac79337526c1717e47a6f4b329b", "fusion_lat": 0.0, "name": "b608eac79337526c1717e47a6f4b329b", "is_reserved": 0, "rental_uris": {"android": "https://dc.lft.to/lastmile_qr_scan", "ios": "https://dc.lft.to/lastmile_qr_scan"}, "fusion_lon": 0.0}, {"lat": 38.9357685, "is_disabled": 0, "type": "electric_scooter", "lon": -77.037531, "bike_id": "6209f20a2d98512b76d124c7ea51f292", "fusion_lat": 0.0, "name": "6209f20a2d98512b76d124c7ea51f292", "is_reserved": 0, "rental_uris": {"android": "https://dc.lft.to/lastmile_qr_scan", "ios": "https://dc.lft.to/lastmile_qr_scan"}, "fusion_lon": 0.0}, {"lat": 38.882814833333335, "is_disabled": 0, "type": "electric_bike", "lon": -76.93255816666667, "bike_id": "fc6bea08948e8e597ef76e5f6151f17f", "fusion_lat": 0.0, "name": "fc6bea08948e8e597ef76e5f6151f17f", "is_reserved": 0, "rental_uris": {"android": "https://dc.lft.to/lastmile_qr_scan", "ios": "https://dc.lft.to/lastmile_qr_scan"}, "fusion_lon": 0.0}, {"lat": 38.8942715, "is_disabled": 0, "type": "electric_scooter", "lon": -77.0209085, "bike_id": "9758e66d9af2fd8971f47e12ef8fc8ab", "fusion_lat": 0.0, "name": "9758e66d9af2fd8971f47e12ef8fc8ab", "is_reserved": 0, "rental_uris": {"android": "https://dc.lft.to/lastmile_qr_scan", "ios": "https://dc.lft.to/lastmile_qr_scan"}, "fusion_lon": 0.0}, {"lat": 38.918172, "is_disabled": 0, "type": "electric_scooter", "lon": -77.036722, "bike_id": "9d8009964898a348d8dc5cfab9eb0704", "fusion_lat": 0.0, "name": "9d8009964898a348d8dc5cfab9eb0704", "is_reserved": 0, "rental_uris": {"android": "https://dc.lft.to/lastmile_qr_scan", "ios": "https://dc.lft.to/lastmile_qr_scan"}, "fusion_lon": 0.0}, {"lat": 38.946596, "is_disabled": 0, "type": "electric_scooter", "lon": -77.03653433333334, "bike_id": "8ae7cafebf593e68f7b737bc159ff1c4", "fusion_lat": 0.0, "name": "8ae7cafebf593e68f7b737bc159ff1c4", "is_reserved": 0, "rental_uris": {"android": "https://dc.lft.to/lastmile_qr_scan", "ios": "https://dc.lft.to/lastmile_qr_scan"}, "fusion_lon": 0.0}, {"lat": 38.911176, "is_disabled": 0, "type": "electric_scooter", "lon": -77.03867266666667, "bike_id": "11840f7bfaf0383f28ed78cb70780481", "fusion_lat": 0.0, "name": "11840f7bfaf0383f28ed78cb70780481", "is_reserved": 0, "rental_uris": {"android": "https://dc.lft.to/lastmile_qr_scan", "ios": "https://dc.lft.to/lastmile_qr_scan"}, "fusion_lon": 0.0}, {"lat": 38.90270666666667, "is_disabled": 0, "type": "electric_scooter", "lon": -77.04040066666667, "bike_id": "700c7e0b572d14c4031732137ed66c4c", "fusion_lat": 0.0, "name": "700c7e0b572d14c4031732137ed66c4c", "is_reserved": 0, "rental_uris": {"android": "https://dc.lft.to/lastmile_qr_scan", "ios": "https://dc.lft.to/lastmile_qr_scan"}, "fusion_lon": 0.0}, {"lat": 38.903356333333335, "is_disabled": 0, "type": "electric_scooter", "lon": -76.97056116666667, "bike_id": "f6248b10b79faaaffe6bef75cdc306bc", "fusion_lat": 0.0, "name": "f6248b10b79faaaffe6bef75cdc306bc", "is_reserved": 0, "rental_uris": {"android": "https://dc.lft.to/lastmile_qr_scan", "ios": "https://dc.lft.to/lastmile_qr_scan"}, "fusion_lon": 0.0}, {"lat": 38.92698083333333, "is_disabled": 0, "type": "electric_scooter", "lon": -77.02089566666666, "bike_id": "1d4e2e040d89876c80eba3af1dba7ba3", "fusion_lat": 0.0, "name": "1d4e2e040d89876c80eba3af1dba7ba3", "is_reserved": 0, "rental_uris": {"android": "https://dc.lft.to/lastmile_qr_scan", "ios": "https://dc.lft.to/lastmile_qr_scan"}, "fusion_lon": 0.0}, {"lat": 38.9062045, "is_disabled": 0, "type": "electric_scooter", "lon": -77.021863, "bike_id": "c19fb1cc9934375547408e2a99094aef", "fusion_lat": 0.0, "name": "c19fb1cc9934375547408e2a99094aef", "is_reserved": 0, "rental_uris": {"android": "https://dc.lft.to/lastmile_qr_scan", "ios": "https://dc.lft.to/lastmile_qr_scan"}, "fusion_lon": 0.0}, {"lat": 38.91503616666667, "is_disabled": 0, "type": "electric_scooter", "lon": -76.983572, "bike_id": "951d9469b118b533bba524eec3500ef3", "fusion_lat": 0.0, "name": "951d9469b118b533bba524eec3500ef3", "is_reserved": 0, "rental_uris": {"android": "https://dc.lft.to/lastmile_qr_scan", "ios": "https://dc.lft.to/lastmile_qr_scan"}, "fusion_lon": 0.0}, {"lat": 38.907620333333334, "is_disabled": 0, "type": "electric_scooter", "lon": -77.04148633333334, "bike_id": "9d4ccca2550e64c09a7dc94b688b1a42", "fusion_lat": 0.0, "name": "9d4ccca2550e64c09a7dc94b688b1a42", "is_reserved": 0, "rental_uris": {"android": "https://dc.lft.to/lastmile_qr_scan", "ios": "https://dc.lft.to/lastmile_qr_scan"}, "fusion_lon": 0.0}, {"lat": 38.80268433333333, "is_disabled": 0, "type": "electric_bike", "lon": -77.08112666666666, "bike_id": "ed6ef6351df95b10d4f8dda786eca53e", "fusion_lat": 0.0, "name": "ed6ef6351df95b10d4f8dda786eca53e", "is_reserved": 0, "rental_uris": {"android": "https://dc.lft.to/lastmile_qr_scan", "ios": "https://dc.lft.to/lastmile_qr_scan"}, "fusion_lon": 0.0}, {"lat": 38.8625755, "is_disabled": 0, "type": "electric_scooter", "lon": -76.995141, "bike_id": "5f695c1be416885c5dc94e3c18a7f782", "fusion_lat": 0.0, "name": "5f695c1be416885c5dc94e3c18a7f782", "is_reserved": 0, "rental_uris": {"android": "https://dc.lft.to/lastmile_qr_scan", "ios": "https://dc.lft.to/lastmile_qr_scan"}, "fusion_lon": 0.0}, {"lat": 39.00374516666667, "is_disabled": 0, "type": "electric_bike", "lon": -77.01288566666666, "bike_id": "97bc960c5c3ddc3c70b74b2c3803b04d", "fusion_lat": 0.0, "name": "97bc960c5c3ddc3c70b74b2c3803b04d", "is_reserved": 0, "rental_uris": {"android": "https://dc.lft.to/lastmile_qr_scan", "ios": "https://dc.lft.to/lastmile_qr_scan"}, "fusion_lon": 0.0}, {"lat": 38.90022783333333, "is_disabled": 0, "type": "electric_scooter", "lon": -76.999071, "bike_id": "0e080ab385e0543074b1cbdc1499e9d6", "fusion_lat": 0.0, "name": "0e080ab385e0543074b1cbdc1499e9d6", "is_reserved": 0, "rental_uris": {"android": "https://dc.lft.to/lastmile_qr_scan", "ios": "https://dc.lft.to/lastmile_qr_scan"}, "fusion_lon": 0.0}, {"lat": 38.93348433333333, "is_disabled": 0, "type": "electric_scooter", "lon": -77.02497666666666, "bike_id": "edf9defd58a9864bcad9e29e75385347", "fusion_lat": 0.0, "name": "edf9defd58a9864bcad9e29e75385347", "is_reserved": 0, "rental_uris": {"android": "https://dc.lft.to/lastmile_qr_scan", "ios": "https://dc.lft.to/lastmile_qr_scan"}, "fusion_lon": 0.0}, {"lat": 38.929962, "is_disabled": 0, "type": "electric_scooter", "lon": -77.03234116666667, "bike_id": "2badd842478e3805f6ea39408fd0c195", "fusion_lat": 0.0, "name": "2badd842478e3805f6ea39408fd0c195", "is_reserved": 0, "rental_uris": {"android": "https://dc.lft.to/lastmile_qr_scan", "ios": "https://dc.lft.to/lastmile_qr_scan"}, "fusion_lon": 0.0}, {"lat": 38.92467083333333, "is_disabled": 0, "type": "electric_bike", "lon": -77.20837466666667, "bike_id": "a2e1cc0a6e958bac5534b53810df8faf", "fusion_lat": 0.0, "name": "a2e1cc0a6e958bac5534b53810df8faf", "is_reserved": 0, "rental_uris": {"android": "https://dc.lft.to/lastmile_qr_scan", "ios": "https://dc.lft.to/lastmile_qr_scan"}, "fusion_lon": 0.0}, {"lat": 38.842568166666666, "is_disabled": 0, "type": "electric_bike", "lon": -77.0583165, "bike_id": "8925e34456e778be8a602f2dfc425954", "fusion_lat": 0.0, "name": "8925e34456e778be8a602f2dfc425954", "is_reserved": 0, "rental_uris": {"android": "https://dc.lft.to/lastmile_qr_scan", "ios": "https://dc.lft.to/lastmile_qr_scan"}, "fusion_lon": 0.0}, {"lat": 38.916964666666665, "is_disabled": 0, "type": "electric_scooter", "lon": -77.04267116666666, "bike_id": "3cdaa3616474353fd03c3bbff7dfafd9", "fusion_lat": 0.0, "name": "3cdaa3616474353fd03c3bbff7dfafd9", "is_reserved": 0, "rental_uris": {"android": "https://dc.lft.to/lastmile_qr_scan", "ios": "https://dc.lft.to/lastmile_qr_scan"}, "fusion_lon": 0.0}, {"lat": 38.90035666666667, "is_disabled": 0, "type": "electric_scooter", "lon": -77.00590333333334, "bike_id": "96a8c4ee75d376180d0f5b5cb9ee768b", "fusion_lat": 0.0, "name": "96a8c4ee75d376180d0f5b5cb9ee768b", "is_reserved": 0, "rental_uris": {"android": "https://dc.lft.to/lastmile_qr_scan", "ios": "https://dc.lft.to/lastmile_qr_scan"}, "fusion_lon": 0.0}, {"lat": 38.910005166666664, "is_disabled": 0, "type": "electric_scooter", "lon": -77.01508883333334, "bike_id": "759b0fa701a515502a5932091780022a", "fusion_lat": 0.0, "name": "759b0fa701a515502a5932091780022a", "is_reserved": 0, "rental_uris": {"android": "https://dc.lft.to/lastmile_qr_scan", "ios": "https://dc.lft.to/lastmile_qr_scan"}, "fusion_lon": 0.0}, {"lat": 38.90696416666667, "is_disabled": 0, "type": "electric_scooter", "lon": -77.01007966666667, "bike_id": "0c7048c27d52471dacc9dd840c6992c2", "fusion_lat": 0.0, "name": "0c7048c27d52471dacc9dd840c6992c2", "is_reserved": 0, "rental_uris": {"android": "https://dc.lft.to/lastmile_qr_scan", "ios": "https://dc.lft.to/lastmile_qr_scan"}, "fusion_lon": 0.0}, {"lat": 38.9083235, "is_disabled": 0, "type": "electric_scooter", "lon": -76.997024, "bike_id": "27d7e95d382dbfda854f3897039990de", "fusion_lat": 0.0, "name": "27d7e95d382dbfda854f3897039990de", "is_reserved": 0, "rental_uris": {"android": "https://dc.lft.to/lastmile_qr_scan", "ios": "https://dc.lft.to/lastmile_qr_scan"}, "fusion_lon": 0.0}, {"lat": 38.917163, "is_disabled": 0, "type": "electric_scooter", "lon": -77.03249316666667, "bike_id": "7f0b0e3ced7369f995f5b08ef2d126e7", "fusion_lat": 0.0, "name": "7f0b0e3ced7369f995f5b08ef2d126e7", "is_reserved": 0, "rental_uris": {"android": "https://dc.lft.to/lastmile_qr_scan", "ios": "https://dc.lft.to/lastmile_qr_scan"}, "fusion_lon": 0.0}, {"lat": 38.91129766666667, "is_disabled": 0, "type": "electric_scooter", "lon": -77.0033395, "bike_id": "e69c56e9e0ccc72f7e374bfa182bd280", "fusion_lat": 0.0, "name": "e69c56e9e0ccc72f7e374bfa182bd280", "is_reserved": 0, "rental_uris": {"android": "https://dc.lft.to/lastmile_qr_scan", "ios": "https://dc.lft.to/lastmile_qr_scan"}, "fusion_lon": 0.0}, {"lat": 38.8801395, "is_disabled": 0, "type": "electric_scooter", "lon": -77.02477133333333, "bike_id": "07a970ce2b5d8659115764b7b826b8a6", "fusion_lat": 0.0, "name": "07a970ce2b5d8659115764b7b826b8a6", "is_reserved": 0, "rental_uris": {"android": "https://dc.lft.to/lastmile_qr_scan", "ios": "https://dc.lft.to/lastmile_qr_scan"}, "fusion_lon": 0.0}, {"lat": 38.90360166666667, "is_disabled": 0, "type": "electric_scooter", "lon": -77.0427355, "bike_id": "ac6d45748cc0ae31e52cfd1836abc047", "fusion_lat": 0.0, "name": "ac6d45748cc0ae31e52cfd1836abc047", "is_reserved": 0, "rental_uris": {"android": "https://dc.lft.to/lastmile_qr_scan", "ios": "https://dc.lft.to/lastmile_qr_scan"}, "fusion_lon": 0.0}, {"lat": 38.865092, "is_disabled": 0, "type": "electric_scooter", "lon": -76.99007383333333, "bike_id": "efdb8ee8bf2ae4a7364f958bceb43e1b", "fusion_lat": 0.0, "name": "efdb8ee8bf2ae4a7364f958bceb43e1b", "is_reserved": 0, "rental_uris": {"android": "https://dc.lft.to/lastmile_qr_scan", "ios": "https://dc.lft.to/lastmile_qr_scan"}, "fusion_lon": 0.0}, {"lat": 38.884720333333334, "is_disabled": 0, "type": "electric_scooter", "lon": -77.0242255, "bike_id": "7816de252c12d3aab98bc1cef802df0b", "fusion_lat": 0.0, "name": "7816de252c12d3aab98bc1cef802df0b", "is_reserved": 0, "rental_uris": {"android": "https://dc.lft.to/lastmile_qr_scan", "ios": "https://dc.lft.to/lastmile_qr_scan"}, "fusion_lon": 0.0}, {"lat": 38.905673166666666, "is_disabled": 0, "type": "electric_scooter", "lon": -76.99876633333334, "bike_id": "f29c80c532be92c0c8018d1743ad2d10", "fusion_lat": 0.0, "name": "f29c80c532be92c0c8018d1743ad2d10", "is_reserved": 0, "rental_uris": {"android": "https://dc.lft.to/lastmile_qr_scan", "ios": "https://dc.lft.to/lastmile_qr_scan"}, "fusion_lon": 0.0}, {"lat": 38.86713233333333, "is_disabled": 0, "type": "electric_scooter", "lon": -76.98725633333333, "bike_id": "d58b4ede9e718cdc0c4b0df257d11c63", "fusion_lat": 0.0, "name": "d58b4ede9e718cdc0c4b0df257d11c63", "is_reserved": 0, "rental_uris": {"android": "https://dc.lft.to/lastmile_qr_scan", "ios": "https://dc.lft.to/lastmile_qr_scan"}, "fusion_lon": 0.0}, {"lat": 38.902327, "is_disabled": 0, "type": "electric_scooter", "lon": -77.0591415, "bike_id": "7d72e3c87f1f5428a4231dbaff7fba06", "fusion_lat": 0.0, "name": "7d72e3c87f1f5428a4231dbaff7fba06", "is_reserved": 0, "rental_uris": {"android": "https://dc.lft.to/lastmile_qr_scan", "ios": "https://dc.lft.to/lastmile_qr_scan"}, "fusion_lon": 0.0},