{"data": {"bikes": [{"is_disabled": 0, "fusion_lon": 0.0, "fusion_lat": 0.0, "lat": 38.918677, "type": "electric_scooter", "lon": -77.035199, "bike_id": "56b7be7579a21250d855e4e53d4d4cc6", "rental_uris": {"android": "https://dc.lft.to/lastmile_qr_scan", "ios": "https://dc.lft.to/lastmile_qr_scan"}, "name": "56b7be7579a21250d855e4e53d4d4cc6", "is_reserved": 0}, {"is_disabled": 0, "fusion_lon": 0.0, "fusion_lat": 0.0, "lat": 38.94151216666667, "type": "electric_bike", "lon": -77.00199083333334, "bike_id": "ed7e5bbbd5fd62f025b15c0cd17133fe", "rental_uris": {"android": "https://dc.lft.to/lastmile_qr_scan", "ios": "https://dc.lft.to/lastmile_qr_scan"}, "name": "ed7e5bbbd5fd62f025b15c0cd17133fe", "is_reserved": 0}, {"is_disabled": 0, "fusion_lon": 0.0, "fusion_lat": 0.0, "lat": 39.058138, "type": "electric_bike", "lon": -77.12626583333333, "bike_id": "34ba10c4b862e93dafe9ac26190e24d3", "rental_uris": {"android": "https://dc.lft.to/lastmile_qr_scan", "ios": "https://dc.lft.to/lastmile_qr_scan"}, "name": "34ba10c4b862e93dafe9ac26190e24d3", "is_reserved": 0}, {"is_disabled": 0, "fusion_lon": 0.0, "fusion_lat": 0.0, "lat": 38.907607666666664, "type": "electric_scooter", "lon": -77.03584583333334, "bike_id": "b54524a0c23e42cccfaa508dda053805", "rental_uris": {"android": "https://dc.lft.to/lastmile_qr_scan", "ios": "https://dc.lft.to/lastmile_qr_scan"}, "name": "b54524a0c23e42cccfaa508dda053805", "is_reserved": 0}, {"is_disabled": 0, "fusion_lon": 0.0, "fusion_lat": 0.0, "lat": 38.876750333333334, "type": "electric_bike", "lon": -77.01438933333333, "bike_id": "0814c5202d13944fa4bdebaf1e121d30", "rental_uris": {"android": "https://dc.lft.to/lastmile_qr_scan", "ios": "https://dc.lft.to/lastmile_qr_scan"}, "name": "0814c5202d13944fa4bdebaf1e121d30", "is_reserved": 0}, {"is_disabled": 0, "fusion_lon": 0.0, "fusion_lat": 0.0, "lat": 38.90971916666667, "type": "electric_scooter", "lon": -77.03848783333333, "bike_id": "b2bc81006b9ca32363a55fbd23045193", "rental_uris": {"android": "https://dc.lft.to/lastmile_qr_scan", "ios": "https://dc.lft.to/lastmile_qr_scan"}, "name": "b2bc81006b9ca32363a55fbd23045193", "is_reserved": 0}, {"is_disabled": 0, "fusion_lon": 0.0, "fusion_lat": 0.0, "lat": 38.905171, "type": "electric_scooter", "lon": -77.026331, "bike_id": "8200fc65bafe8aff88b1903c6cfca731", "rental_uris": {"android": "https://dc.lft.to/lastmile_qr_scan", "ios": "https://dc.lft.to/lastmile_qr_scan"}, "name": "8200fc65bafe8aff88b1903c6cfca731", "is_reserved": 0}, {"is_disabled": 0, "fusion_lon": 0.0, "fusion_lat": 0.0, "lat": 38.9033655, "type": "electric_scooter", "lon": -77.02551966666667, "bike_id": "f5914fd1f46f55c99eeb5dbf3f1eadbb", "rental_uris": {"android": "https://dc.lft.to/lastmile_qr_scan", "ios": "https://dc.lft.to/lastmile_qr_scan"}, "name": "f5914fd1f46f55c99eeb5dbf3f1eadbb", "is_reserved": 0}, {"is_disabled": 0, "fusion_lon": 0.0, "fusion_lat": 0.0, "lat": 38.88756383333333, "type": "electric_scooter", "lon": -77.0338355, "bike_id": "b467da209792cc01e2094cbf0a837f27", "rental_uris": {"android": "https://dc.lft.to/lastmile_qr_scan", "ios": "https://dc.lft.to/lastmile_qr_scan"}, "name": "b467da209792cc01e2094cbf0a837f27", "is_reserved": 0}, {"is_disabled": 0, "fusion_lon": 0.0, "fusion_lat": 0.0, "lat": 38.9229825, "type": "electric_scooter", "lon": -77.04028333333333, "bike_id": "2024bd3ccbd39a56362642feeb3bc511", "rental_uris": {"android": "https://dc.lft.to/lastmile_qr_scan", "ios": "https://dc.lft.to/lastmile_qr_scan"}, "name": "2024bd3ccbd39a56362642feeb3bc511", "is_reserved": 0}, {"is_disabled": 0, "fusion_lon": 0.0, "fusion_lat": 0.0, "lat": 39.115065666666666, "type": "electric_bike", "lon": -77.19546333333334, "bike_id": "cc0b57a91d1571f899399b08fa93b2b6", "rental_uris": {"android": "https://dc.lft.to/lastmile_qr_scan", "ios": "https://dc.lft.to/lastmile_qr_scan"}, "name": "cc0b57a91d1571f899399b08fa93b2b6", "is_reserved": 0}, {"is_disabled": 0, "fusion_lon": 0.0, "fusion_lat": 0.0, "lat": 38.943021, "type": "electric_scooter", "lon": -77.023589, "bike_id": "40a29ab8f5df6d7c6a99314af863f28f", "rental_uris": {"android": "https://dc.lft.to/lastmile_qr_scan", "ios": "https://dc.lft.to/lastmile_qr_scan"}, "name": "40a29ab8f5df6d7c6a99314af863f28f", "is_reserved": 0}, {"is_disabled": 0, "fusion_lon": 0.0, "fusion_lat": 0.0, "lat": 38.9387775, "type": "electric_scooter", "lon": -77.03332333333333, "bike_id": "70093c60556ce4208d0aa10e22367f23", "rental_uris": {"android": "https://dc.lft.to/lastmile_qr_scan", "ios": "https://dc.lft.to/lastmile_qr_scan"}, "name": "70093c60556ce4208d0aa10e22367f23", "is_reserved": 0}, {"is_disabled": 0, "fusion_lon": 0.0, "fusion_lat": 0.0, "lat": 38.85716433333333, "type": "electric_bike", "lon": -76.98116083333333, "bike_id": "cf8f357ccacbbe8ba30b2ec8be8df93e", "rental_uris": {"android": "https://dc.lft.to/lastmile_qr_scan", "ios": "https://dc.lft.to/lastmile_qr_scan"}, "name": "cf8f357ccacbbe8ba30b2ec8be8df93e", "is_reserved": 0}, {"is_disabled": 0, "fusion_lon": 0.0, "fusion_lat": 0.0, "lat": 38.930480333333335, "type": "electric_scooter", "lon": -77.0041865, "bike_id": "b8cf75cda4bb99cf222ab03c7d809183", "rental_uris": {"android": "https://dc.lft.to/lastmile_qr_scan", "ios": "https://dc.lft.to/lastmile_qr_scan"}, "name": "b8cf75cda4bb99cf222ab03c7d809183", "is_reserved": 0}, {"is_disabled": 0, "fusion_lon": 0.0, "fusion_lat": 0.0, "lat": 38.838123333333336, "type": "electric_scooter", "lon": -77.00431816666666, "bike_id": "cdbff6d33997dc278fcc1bdd6a424feb", "rental_uris": {"android": "https://dc.lft.to/lastmile_qr_scan", "ios": "https://dc.lft.to/lastmile_qr_scan"}, "name": "cdbff6d33997dc278fcc1bdd6a424feb", "is_reserved": 0}, {"is_disabled": 0, "fusion_lon": 0.0, "fusion_lat": 0.0, "lat": 38.99255516666667, "type": "electric_bike", "lon": -77.049991, "bike_id": "82c37d4f1c5ccf4290cffc3f6f4e6ec2", "rental_uris": {"android": "https://dc.lft.to/lastmile_qr_scan", "ios": "https://dc.lft.to/lastmile_qr_scan"}, "name": "82c37d4f1c5ccf4290cffc3f6f4e6ec2", "is_reserved": 0}, {"is_disabled": 0, "fusion_lon": 0.0, "fusion_lat": 0.0, "lat": 38.89262183333334, "type": "electric_scooter", "lon": -77.03192, "bike_id": "b06ec69715084b05ab7b7126b9f2d996", "rental_uris": {"android": "https://dc.lft.to/lastmile_qr_scan", "ios": "https://dc.lft.to/lastmile_qr_scan"}, "name": "b06ec69715084b05ab7b7126b9f2d996", "is_reserved": 0}, {"is_disabled": 0, "fusion_lon": 0.0, "fusion_lat": 0.0, "lat": 38.90482033333333, "type": "electric_scooter", "lon": -77.02730333333334, "bike_id": "6fc398fb27412fb55e87b7aa236be348", "rental_uris": {"android": "https://dc.lft.to/lastmile_qr_scan", "ios": "https://dc.lft.to/lastmile_qr_scan"}, "name": "6fc398fb27412fb55e87b7aa236be348", "is_reserved": 0}, {"is_disabled": 0, "fusion_lon": 0.0, "fusion_lat": 0.0, "lat": 38.911311, "type": "electric_scooter", "lon": -77.04417183333334, "bike_id": "daf27328760178619e0b5613d07bead7", "rental_uris": {"android": "https://dc.lft.to/lastmile_qr_scan", "ios": "https://dc.lft.to/lastmile_qr_scan"}, "name": "daf27328760178619e0b5613d07bead7", "is_reserved": 0}, {"is_disabled": 0, "fusion_lon": 0.0, "fusion_lat": 0.0, "lat": 38.885768, "type": "electric_scooter", "lon": -76.91911066666667, "bike_id": "50ebae73eafaa8477cb4fe02b4fab2a1", "rental_uris": {"android": "https://dc.lft.to/lastmile_qr_scan", "ios": "https://dc.lft.to/lastmile_qr_scan"}, "name": "50ebae73eafaa8477cb4fe02b4fab2a1", "is_reserved": 0}, {"is_disabled": 0, "fusion_lon": 0.0, "fusion_lat": 0.0, "lat": 39.03882566666667, "type": "electric_bike", "lon": -77.10913216666667, "bike_id": "c0592ed8026073d2ac13e33ff8cc9c84", "rental_uris": {"android": "https://dc.lft.to/lastmile_qr_scan", "ios": "https://dc.lft.to/lastmile_qr_scan"}, "name": "c0592ed8026073d2ac13e33ff8cc9c84", "is_reserved": 0}, {"is_disabled": 0, "fusion_lon": 0.0, "fusion_lat": 0.0, "lat": 38.9164935, "type": "electric_scooter", "lon": -77.02184183333334, "bike_id": "d12d8ea80e6704b4937658b3fcf61919", "rental_uris": {"android": "https://dc.lft.to/lastmile_qr_scan", "ios": "https://dc.lft.to/lastmile_qr_scan"}, "name": "d12d8ea80e6704b4937658b3fcf61919", "is_reserved": 0}, {"is_disabled": 0, "fusion_lon": 0.0, "fusion_lat": 0.0, "lat": 38.89285866666667, "type": "electric_bike", "lon": -77.00146116666667, "bike_id": "4379a5670a18cf9e87e6dd11ad6d2d55", "rental_uris": {"android": "https://dc.lft.to/lastmile_qr_scan", "ios": "https://dc.lft.to/lastmile_qr_scan"}, "name": "4379a5670a18cf9e87e6dd11ad6d2d55", "is_reserved": 0}, {"is_disabled": 0, "fusion_lon": 0.0, "fusion_lat": 0.0, "lat": 38.9366965, "type": "electric_bike", "lon": -76.95209016666666, "bike_id": "ce408569d3c8c5194b533bf057e44016", "rental_uris": {"android": "https://dc.lft.to/lastmile_qr_scan", "ios": "https://dc.lft.to/lastmile_qr_scan"}, "name": "ce408569d3c8c5194b533bf057e44016", "is_reserved": 0}, {"is_disabled": 0, "fusion_lon": 0.0, "fusion_lat": 0.0, "lat": 38.953275166666664, "type": "electric_scooter", "lon": -77.06858233333334, "bike_id": "9a3b9604e774d276b893c9ca18df6ac9", "rental_uris": {"android": "https://dc.lft.to/lastmile_qr_scan", "ios": "https://dc.lft.to/lastmile_qr_scan"}, "name": "9a3b9604e774d276b893c9ca18df6ac9", "is_reserved": 0}, {"is_disabled": 0, "fusion_lon": 0.0, "fusion_lat": 0.0, "lat": 38.922172833333335, "type": "electric_scooter", "lon": -77.04336666666667, "bike_id": "e71a9f52c24b6c3ec0672ae8cbbab3d7", "rental_uris": {"android": "https://dc.lft.to/lastmile_qr_scan", "ios": "https://dc.lft.to/lastmile_qr_scan"}, "name": "e71a9f52c24b6c3ec0672ae8cbbab3d7", "is_reserved": 0}, {"is_disabled": 0, "fusion_lon": 0.0, "fusion_lat": 0.0, "lat": 38.9429955, "type": "electric_scooter", "lon": -77.03351266666667, "bike_id": "358227f284a7665f2175a037925fc8c6", "rental_uris": {"android": "https://dc.lft.to/lastmile_qr_scan", "ios": "https://dc.lft.to/lastmile_qr_scan"}, "name": "358227f284a7665f2175a037925fc8c6", "is_reserved": 0}, {"is_disabled": 0, "fusion_lon": 0.0, "fusion_lat": 0.0, "lat": 38.96445116666666, "type": "electric_bike", "lon": -76.97728666666667, "bike_id": "abee8248352cc6ab1302628dbccd7280", "rental_uris": {"android": "https://dc.lft.to/lastmile_qr_scan", "ios": "https://dc.lft.to/lastmile_qr_scan"}, "name": "abee8248352cc6ab1302628dbccd7280", "is_reserved": 0}, {"is_disabled": 0, "fusion_lon": 0.0, "fusion_lat": 0.0, "lat": 39.02999666666667, "type": "electric_bike", "lon": -77.106565, "bike_id": "5cbae1c536da7830a2a83aa00efd0d79", "rental_uris": {"android": "https://dc.lft.to/lastmile_qr_scan", "ios": "https://dc.lft.to/lastmile_qr_scan"}, "name": "5cbae1c536da7830a2a83aa00efd0d79", "is_reserved": 0}, {"is_disabled": 0, "fusion_lon": 0.0, "fusion_lat": 0.0, "lat": 38.858477666666666, "type": "electric_bike", "lon": -77.097546, "bike_id": "ab0389b1a0a0bfe40a91cc8c26af95dc", "rental_uris": {"android": "https://dc.lft.to/lastmile_qr_scan", "ios": "https://dc.lft.to/lastmile_qr_scan"}, "name": "ab0389b1a0a0bfe40a91cc8c26af95dc", "is_reserved": 0}, {"is_disabled": 0, "fusion_lon": 0.0, "fusion_lat": 0.0, "lat": 38.887476666666664, "type": "electric_scooter", "lon": -77.01610716666667, "bike_id": "a1215fa74b86aff5c7440a1979ab7635", "rental_uris": {"android": "https://dc.lft.to/lastmile_qr_scan", "ios": "https://dc.lft.to/lastmile_qr_scan"}, "name": "a1215fa74b86aff5c7440a1979ab7635", "is_reserved": 0}, {"is_disabled": 0, "fusion_lon": 0.0, "fusion_lat": 0.0, "lat": 38.842928666666666, "type": "electric_scooter", "lon": -76.99950233333334, "bike_id": "7ad753a11fef9f567a948f2168d112af", "rental_uris": {"android": "https://dc.lft.to/lastmile_qr_scan", "ios": "https://dc.lft.to/lastmile_qr_scan"}, "name": "7ad753a11fef9f567a948f2168d112af", "is_reserved": 0}, {"is_disabled": 0, "fusion_lon": 0.0, "fusion_lat": 0.0, "lat": 38.92886283333333, "type": "electric_scooter", "lon": -77.02309966666667, "bike_id": "88b9b3b03521d65fd3d8888608031355", "rental_uris": {"android": "https://dc.lft.to/lastmile_qr_scan", "ios": "https://dc.lft.to/lastmile_qr_scan"}, "name": "88b9b3b03521d65fd3d8888608031355", "is_reserved": 0}, {"is_disabled": 0, "fusion_lon": 0.0, "fusion_lat": 0.0, "lat": 38.940486, "type": "electric_scooter", "lon": -77.02500316666666, "bike_id": "bcc9b592db876da63c4eb952381fe4eb", "rental_uris": {"android": "https://dc.lft.to/lastmile_qr_scan", "ios": "https://dc.lft.to/lastmile_qr_scan"}, "name": "bcc9b592db876da63c4eb952381fe4eb", "is_reserved": 0}, {"is_disabled": 0, "fusion_lon": 0.0, "fusion_lat": 0.0, "lat": 38.899551833333334, "type": "electric_scooter", "lon": -77.05221733333333, "bike_id": "5708dfe9f8eb2d0fc1d0a008431c9888", "rental_uris": {"android": "https://dc.lft.to/lastmile_qr_scan", "ios": "https://dc.lft.to/lastmile_qr_scan"}, "name": "5708dfe9f8eb2d0fc1d0a008431c9888", "is_reserved": 0}, {"is_disabled": 0, "fusion_lon": 0.0, "fusion_lat": 0.0, "lat": 38.90188533333333, "type": "electric_scooter", "lon": -77.03959283333333, "bike_id": "172a6e61774d846dedaaa9c0fb51d6f4", "rental_uris": {"android": "https://dc.lft.to/lastmile_qr_scan", "ios": "https://dc.lft.to/lastmile_qr_scan"}, "name": "172a6e61774d846dedaaa9c0fb51d6f4", "is_reserved": 0}, {"is_disabled": 0, "fusion_lon": 0.0, "fusion_lat": 0.0, "lat": 38.9072745, "type": "electric_scooter", "lon": -77.03450616666667, "bike_id": "513030d256f751bc1d925bee04548bc5", "rental_uris": {"android": "https://dc.lft.to/lastmile_qr_scan", "ios": "https://dc.lft.to/lastmile_qr_scan"}, "name": "513030d256f751bc1d925bee04548bc5", "is_reserved": 0}, {"is_disabled": 0, "fusion_lon": 0.0, "fusion_lat": 0.0, "lat": 38.90175416666666, "type": "electric_scooter", "lon": -77.025014, "bike_id": "bf47fdf0431e5f1dec9a17147a159b6a", "rental_uris": {"android": "https://dc.lft.to/lastmile_qr_scan", "ios": "https://dc.lft.to/lastmile_qr_scan"}, "name": "bf47fdf0431e5f1dec9a17147a159b6a", "is_reserved": 0}, {"is_disabled": 0, "fusion_lon": 0.0, "fusion_lat": 0.0, "lat": 38.906837, "type": "electric_scooter", "lon": -77.02697366666666, "bike_id": "acf9b08c5341f445d1d6220705afc1f8", "rental_uris": {"android": "https://dc.lft.to/lastmile_qr_scan", "ios": "https://dc.lft.to/lastmile_qr_scan"}, "name": "acf9b08c5341f445d1d6220705afc1f8", "is_reserved": 0}, {"is_disabled": 0, "fusion_lon": 0.0, "fusion_lat": 0.0, "lat": 38.897246833333334, "type": "electric_scooter", "lon": -77.00340266666667, "bike_id": "6c4e6b2da6f084fe565a161503679c5c", "rental_uris": {"android": "https://dc.lft.to/lastmile_qr_scan", "ios": "https://dc.lft.to/lastmile_qr_scan"}, "name": "6c4e6b2da6f084fe565a161503679c5c", "is_reserved": 0}, {"is_disabled": 0, "fusion_lon": 0.0, "fusion_lat": 0.0, "lat": 38.91680433333333, "type": "electric_scooter", "lon": -77.02717883333334, "bike_id": "a1a26e3fcb39414fa2fb323604e56f1e", "rental_uris": {"android": "https://dc.lft.to/lastmile_qr_scan", "ios": "https://dc.lft.to/lastmile_qr_scan"}, "name": "a1a26e3fcb39414fa2fb323604e56f1e", "is_reserved": 0}, {"is_disabled": 0, "fusion_lon": 0.0, "fusion_lat": 0.0, "lat": 38.9083805, "type": "electric_scooter", "lon": -76.9970465, "bike_id": "c8bb22208fe5f02b8a67d5e7497d8327", "rental_uris": {"android": "https://dc.lft.to/lastmile_qr_scan", "ios": "https://dc.lft.to/lastmile_qr_scan"}, "name": "c8bb22208fe5f02b8a67d5e7497d8327", "is_reserved": 0}, {"is_disabled": 0, "fusion_lon": 0.0, "fusion_lat": 0.0, "lat": 38.8451345, "type": "electric_bike", "lon": -77.0779585, "bike_id": "2593105760d78bfc38f6a6ef9b90ca7c", "rental_uris": {"android": "https://dc.lft.to/lastmile_qr_scan", "ios": "https://dc.lft.to/lastmile_qr_scan"}, "name": "2593105760d78bfc38f6a6ef9b90ca7c", "is_reserved": 0}, {"is_disabled": 0, "fusion_lon": 0.0, "fusion_lat": 0.0, "lat": 38.9007115, "type": "electric_scooter", "lon": -77.049916, "bike_id": "0556777c7efd1fa87fc7d39f4f3894cf", "rental_uris": {"android": "https://dc.lft.to/lastmile_qr_scan", "ios": "https://dc.lft.to/lastmile_qr_scan"}, "name": "0556777c7efd1fa87fc7d39f4f3894cf", "is_reserved": 0}, {"is_disabled": 0, "fusion_lon": 0.0, "fusion_lat": 0.0, "lat": 38.92263716666667, "type": "electric_bike", "lon": -77.07714933333334, "bike_id": "ad5b5010ff32c1082c8506142c97b295", "rental_uris": {"android": "https://dc.lft.to/lastmile_qr_scan", "ios": "https://dc.lft.to/lastmile_qr_scan"}, "name": "ad5b5010ff32c1082c8506142c97b295", "is_reserved": 0}, {"is_disabled": 0, "fusion_lon": 0.0, "fusion_lat": 0.0, "lat": 38.92049683333333, "type": "electric_scooter", "lon": -77.02614766666666, "bike_id": "69571ea1bce3bd514cffe6279988c620", "rental_uris": {"android": "https://dc.lft.to/lastmile_qr_scan", "ios": "https://dc.lft.to/lastmile_qr_scan"}, "name": "69571ea1bce3bd514cffe6279988c620", "is_reserved": 0}, {"is_disabled": 0, "fusion_lon": 0.0, "fusion_lat": 0.0, "lat": 38.905469333333336, "type": "electric_scooter", "lon": -77.04720933333333, "bike_id": "d742421f6f800dd0a3961605fd70b12a", "rental_uris": {"android": "https://dc.lft.to/lastmile_qr_scan", "ios": "https://dc.lft.to/lastmile_qr_scan"}, "name": "d742421f6f800dd0a3961605fd70b12a", "is_reserved": 0}, {"is_disabled": 0, "fusion_lon": 0.0, "fusion_lat": 0.0, "lat": 38.8931695, "type": "electric_scooter", "lon": -77.0221035, "bike_id": "605e27d77e57b325c485dd485d429024", "rental_uris": {"android": "https://dc.lft.to/lastmile_qr_scan", "ios": "https://dc.lft.to/lastmile_qr_scan"}, "name": "605e27d77e57b325c485dd485d429024", "is_reserved": 0}, {"is_disabled": 0, "fusion_lon": 0.0, "fusion_lat": 0.0, "lat": 38.92333266666667, "type": "electric_scooter", "lon": -77.047509, "bike_id": "38728e31cdce48898d166c607445536b", "rental_uris": {"android": "https://dc.lft.to/lastmile_qr_scan", "ios": "https://dc.lft.to/lastmile_qr_scan"}, "name": "38728e31cdce48898d166c607445536b", "is_reserved": 0}, {"is_disabled": 0, "fusion_lon": 0.0, "fusion_lat": 0.0, "lat": 38.9104555, "type": "electric_scooter", "lon": -77.04056383333334, "bike_id": "6f7cc35c216f28c1a3bcacc6c8b01b11", "rental_uris": {"android": "https://dc.lft.to/lastmile_qr_scan", "ios": "https://dc.lft.to/lastmile_qr_scan"}, "name": "6f7cc35c216f28c1a3bcacc6c8b01b11", "is_reserved": 0}, {"is_disabled": 0, "fusion_lon": 0.0, "fusion_lat": 0.0, "lat": 38.9050085, "type": "electric_scooter", "lon": -76.98859466666667, "bike_id": "d1ac2974fdb7be18fe5bb3339b134960", "rental_uris": {"android": "https://dc.lft.to/lastmile_qr_scan", "ios": "https://dc.lft.to/lastmile_qr_scan"}, "name": "d1ac2974fdb7be18fe5bb3339b134960", "is_reserved": 0}, {"is_disabled": 0, "fusion_lon": 0.0, "fusion_lat": 0.0, "lat": 38.89371666666667, "type": "electric_scooter", "lon": -76.9500055, "bike_id": "141c9a5584ac524fabcf8a943119b816", "rental_uris": {"android": "https://dc.lft.to/lastmile_qr_scan", "ios": "https://dc.lft.to/lastmile_qr_scan"}, "name": "141c9a5584ac524fabcf8a943119b816", "is_reserved": 0}, {"is_disabled": 0, "fusion_lon": 0.0, "fusion_lat": 0.0, "lat": 38.892297166666665, "type": "electric_scooter", "lon": -77.04362766666667, "bike_id": "8b2be72bafb5ee314abb4a69a115c9ae", "rental_uris": {"android": "https://dc.lft.to/lastmile_qr_scan", "ios": "https://dc.lft.to/lastmile_qr_scan"}, "name": "8b2be72bafb5ee314abb4a69a115c9ae", "is_reserved": 0}, {"is_disabled": 0, "fusion_lon": 0.0, "fusion_lat": 0.0, "lat": 38.936055833333334, "type": "electric_scooter", "lon": -77.05863883333333, "bike_id": "5a7b4afcb2c6ed0f464b4b1dc3ccd59a", "rental_uris": {"android": "https://dc.lft.to/lastmile_qr_scan", "ios": "https://dc.lft.to/lastmile_qr_scan"}, "name": "5a7b4afcb2c6ed0f464b4b1dc3ccd59a", "is_reserved": 0}, {"is_disabled": 0, "fusion_lon": 0.0, "fusion_lat": 0.0, "lat": 38.952892166666665, "type": "electric_scooter", "lon": -77.06856766666667, "bike_id": "a66a102f7ace1efd1bc4c46999dc96a9", "rental_uris": {"android": "https://dc.lft.to/lastmile_qr_scan", "ios": "https://dc.lft.to/lastmile_qr_scan"}, "name": "a66a102f7ace1efd1bc4c46999dc96a9", "is_reserved": 0}, {"is_disabled": 0, "fusion_lon": 0.0, "fusion_lat": 0.0, "lat": 38.905292, "type": "electric_scooter", "lon": -76.987862, "bike_id": "a1fd8a838a5d8a0a1b7f3b70a77d0e34", "rental_uris": {"android": "https://dc.lft.to/lastmile_qr_scan", "ios": "https://dc.lft.to/lastmile_qr_scan"}, "name": "a1fd8a838a5d8a0a1b7f3b70a77d0e34", "is_reserved": 0}, {"is_disabled": 0, "fusion_lon": 0.0, "fusion_lat": 0.0, "lat": 38.895812666666664, "type": "electric_scooter", "lon": -77.02171383333334, "bike_id": "d7ce03c420513092e543bb7a3e33340d", "rental_uris": {"android": "https://dc.lft.to/lastmile_qr_scan", "ios": "https://dc.lft.to/lastmile_qr_scan"}, "name": "d7ce03c420513092e543bb7a3e33340d", "is_reserved": 0}, {"is_disabled": 0, "fusion_lon": 0.0, "fusion_lat": 0.0, "lat": 38.97049966666667, "type": "electric_bike", "lon": -77.0308685, "bike_id": "b372d6889aa61f7a71c119a8838c0487", "rental_uris": {"android": "https://dc.lft.to/lastmile_qr_scan", "ios": "https://dc.lft.to/lastmile_qr_scan"}, "name": "b372d6889aa61f7a71c119a8838c0487", "is_reserved": 0}, {"is_disabled": 0, "fusion_lon": 0.0, "fusion_lat": 0.0, "lat": 38.905631166666666, "type": "electric_scooter", "lon": -77.0468465, "bike_id": "8f86291d0f7e600ce5d5b24e15a23af2", "rental_uris": {"android": "https://dc.lft.to/lastmile_qr_scan", "ios": "https://dc.lft.to/lastmile_qr_scan"}, "name": "8f86291d0f7e600ce5d5b24e15a23af2", "is_reserved": 0}, {"is_disabled": 0, "fusion_lon": 0.0, "fusion_lat": 0.0, "lat": 38.90703383333334, "type": "electric_scooter", "lon": -77.0269505, "bike_id": "26f08ea90cc2af93eabdb95926813de4", "rental_uris": {"android": "https://dc.lft.to/lastmile_qr_scan", "ios": "https://dc.lft.to/lastmile_qr_scan"}, "name": "26f08ea90cc2af93eabdb95926813de4", "is_reserved": 0}, {"is_disabled": 0, "fusion_lon": 0.0, "fusion_lat": 0.0, "lat": 38.91730283333333, "type": "electric_scooter", "lon": -77.04178266666666, "bike_id": "42fbf4699478e9e10220de7e3358bea6", "rental_uris": {"android": "https://dc.lft.to/lastmile_qr_scan", "ios": "https://dc.lft.to/lastmile_qr_scan"}, "name": "42fbf4699478e9e10220de7e3358bea6", "is_reserved": 0}, {"is_disabled": 0, "fusion_lon": 0.0, "fusion_lat": 0.0, "lat": 38.9339625, "type": "electric_scooter", "lon": -77.027395, "bike_id": "4e51e9a0474fa062f313e51ccc709f52", "rental_uris": {"android": "https://dc.lft.to/lastmile_qr_scan", "ios": "https://dc.lft.to/lastmile_qr_scan"}, "name": "4e51e9a0474fa062f313e51ccc709f52", "is_reserved": 0}, {"is_disabled": 0, "fusion_lon": 0.0, "fusion_lat": 0.0, "lat": 38.91462583333333, "type": "electric_scooter", "lon": -77.0281675, "bike_id": "2802ee9f33a33a5b666da34c6c535855", "rental_uris": {"android": "https://dc.lft.to/lastmile_qr_scan", "ios": "https://dc.lft.to/lastmile_qr_scan"}, "name": "2802ee9f33a33a5b666da34c6c535855", "is_reserved": 0}, {"is_disabled": 0, "fusion_lon": 0.0, "fusion_lat": 0.0, "lat": 38.900651833333335, "type": "electric_scooter", "lon": -77.03470916666667, "bike_id": "7dc6a167a7d3958749eedac36897c390", "rental_uris": {"android": "https://dc.lft.to/lastmile_qr_scan", "ios": "https://dc.lft.to/lastmile_qr_scan"}, "name": "7dc6a167a7d3958749eedac36897c390", "is_reserved": 0}, {"is_disabled": 0, "fusion_lon": 0.0, "fusion_lat": 0.0, "lat": 38.895205, "type": "electric_scooter", "lon": -77.028207, "bike_id": "e17d354f52e588f9d485f26b3e6203ba", "rental_uris": {"android": "https://dc.lft.to/lastmile_qr_scan", "ios": "https://dc.lft.to/lastmile_qr_scan"}, "name": "e17d354f52e588f9d485f26b3e6203ba", "is_reserved": 0}, {"is_disabled": 0, "fusion_lon": 0.0, "fusion_lat": 0.0, "lat": 38.896660833333335, "type": "electric_scooter", "lon": -76.94726516666667, "bike_id": "ce534c3bab0dbbcf94dd5a0cbabc4cbb", "rental_uris": {"android": "https://dc.lft.to/lastmile_qr_scan", "ios": "https://dc.lft.to/lastmile_qr_scan"}, "name": "ce534c3bab0dbbcf94dd5a0cbabc4cbb", "is_reserved": 0}, {"is_disabled": 0, "fusion_lon": 0.0, "fusion_lat": 0.0, "lat": 38.875764333333336, "type": "electric_scooter", "lon": -77.0199705, "bike_id": "3a1fca290b710d1f048398937f1acc5d", "rental_uris": {"android": "https://dc.lft.to/lastmile_qr_scan", "ios": "https://dc.lft.to/lastmile_qr_scan"}, "name": "3a1fca290b710d1f048398937f1acc5d", "is_reserved": 0}, {"is_disabled": 0, "fusion_lon": 0.0, "fusion_lat": 0.0, "lat": 38.9024145, "type": "electric_bike", "lon": -76.97015183333333, "bike_id": "67aa8fbb0e5c38c8eca27ef94b77338f", "rental_uris": {"android": "https://dc.lft.to/lastmile_qr_scan", "ios": "https://dc.lft.to/lastmile_qr_scan"}, "name": "67aa8fbb0e5c38c8eca27ef94b77338f", "is_reserved": 0}, {"is_disabled": 0, "fusion_lon": 0.0, "fusion_lat": 0.0, "lat": 38.91257816666667, "type": "electric_scooter", "lon": -77.03674466666666, "bike_id": "f5d7fb64a11fe8e9d5f6b3e1ee6fe538", "rental_uris": {"android": "https://dc.lft.to/lastmile_qr_scan", "ios": "https://dc.lft.to/lastmile_qr_scan"}, "name": "f5d7fb64a11fe8e9d5f6b3e1ee6fe538", "is_reserved": 0}, {"is_disabled": 0, "fusion_lon": 0.0, "fusion_lat": 0.0, "lat": 38.90545866666667, "type": "electric_scooter", "lon": -77.02719583333334, "bike_id": "913fdf1ee1596d118270ac188f9397dd", "rental_uris": {"android": "https://dc.lft.to/lastmile_qr_scan", "ios": "https://dc.lft.to/lastmile_qr_scan"}, "name": "913fdf1ee1596d118270ac188f9397dd", "is_reserved": 0}, {"is_disabled": 0, "fusion_lon": 0.0, "fusion_lat": 0.0, "lat": 38.892656333333335, "type": "electric_scooter", "lon": -77.03183933333334, "bike_id": "cd04db523c33200a42912c7add25170a", "rental_uris": {"android": "https://dc.lft.to/lastmile_qr_scan", "ios": "https://dc.lft.to/lastmile_qr_scan"}, "name": "cd04db523c33200a42912c7add25170a", "is_reserved": 0}, {"is_disabled": 0, "fusion_lon": 0.0, "fusion_lat": 0.0, "lat": 38.92996383333333, "type": "electric_scooter", "lon": -77.02186383333333, "bike_id": "06362835dfa488d367fe9bf85fe0b55d", "rental_uris": {"android": "https://dc.lft.to/lastmile_qr_scan", "ios": "https://dc.lft.to/lastmile_qr_scan"}, "name": "06362835dfa488d367fe9bf85fe0b55d", "is_reserved": 0}, {"is_disabled": 0, "fusion_lon": 0.0, "fusion_lat": 0.0, "lat": 38.922639, "type": "electric_scooter", "lon": -76.9940095, "bike_id": "bfdee6f6b7e578324fdff22fceb212d8", "rental_uris": {"android": "https://dc.lft.to/lastmile_qr_scan", "ios": "https://dc.lft.to/lastmile_qr_scan"}, "name": "bfdee6f6b7e578324fdff22fceb212d8", "is_reserved": 0}, {"is_disabled": 0, "fusion_lon": 0.0, "fusion_lat": 0.0, "lat": 38.8484305, "type": "electric_bike", "lon": -77.08045816666667, "bike_id": "7611f1233936172b004ac08e93ba8fc3", "rental_uris": {"android": "https://dc.lft.to/lastmile_qr_scan", "ios": "https://dc.lft.to/lastmile_qr_scan"}, "name": "7611f1233936172b004ac08e93ba8fc3", "is_reserved": 0}, {"is_disabled": 0, "fusion_lon": 0.0, "fusion_lat": 0.0, "lat": 38.92333433333334, "type": "electric_scooter", "lon": -77.03615666666667, "bike_id": "3d039e58281d981a27d6c4225a5df551", "rental_uris": {"android": "https://dc.lft.to/lastmile_qr_scan", "ios": "https://dc.lft.to/lastmile_qr_scan"}, "name": "3d039e58281d981a27d6c4225a5df551", "is_reserved": 0}, {"is_disabled": 0, "fusion_lon": 0.0, "fusion_lat": 0.0, "lat": 38.90061633333333, "type": "electric_scooter", "lon": -76.98687516666666, "bike_id": "5aefdb6f95b9cc702ae66cce1a6d0780", "rental_uris": {"android": "https://dc.lft.to/lastmile_qr_scan", "ios": "https://dc.lft.to/lastmile_qr_scan"}, "name": "5aefdb6f95b9cc702ae66cce1a6d0780", "is_reserved": 0}, {"is_disabled": 0, "fusion_lon": 0.0, "fusion_lat": 0.0, "lat": 38.91381966666667, "type": "electric_scooter", "lon": -77.0297305, "bike_id": "08a3bfae6be49d1c00dbf3f7902e0c29", "rental_uris": {"android": "https://dc.lft.to/lastmile_qr_scan", "ios": "https://dc.lft.to/lastmile_qr_scan"}, "name": "08a3bfae6be49d1c00dbf3f7902e0c29", "is_reserved": 0}, {"is_disabled": 0, "fusion_lon": 0.0, "fusion_lat": 0.0, "lat": 38.887058833333334, "type": "electric_scooter", "lon": -76.95362183333333, "bike_id": "02b0d3adc16ebc96392223cb55740216", "rental_uris": {"android": "https://dc.lft.to/lastmile_qr_scan", "ios": "https://dc.lft.to/lastmile_qr_scan"}, "name": "02b0d3adc16ebc96392223cb55740216", "is_reserved": 0}, {"is_disabled": 0, "fusion_lon": 0.0, "fusion_lat": 0.0, "lat": 38.842905, "type": "electric_scooter", "lon": -76.999496, "bike_id": "3fce1f18439d8b8c0767e24a83db18dc", "rental_uris": {"android": "https://dc.lft.to/lastmile_qr_scan", "ios": "https://dc.lft.to/lastmile_qr_scan"}, "name": "3fce1f18439d8b8c0767e24a83db18dc", "is_reserved": 0}, {"is_disabled": 0, "fusion_lon": 0.0, "fusion_lat": 0.0, "lat": 38.911278333333335, "type": "electric_scooter", "lon": -77.04178216666666, "bike_id": "6b720690b8ff747db8ad5476c91fa0f7", "rental_uris": {"android": "https://dc.lft.to/lastmile_qr_scan", "ios": "https://dc.lft.to/lastmile_qr_scan"}, "name": "6b720690b8ff747db8ad5476c91fa0f7", "is_reserved": 0}, {"is_disabled": 0, "fusion_lon": 0.0, "fusion_lat": 0.0, "lat": 38.91406883333333, "type": "electric_scooter", "lon": -77.04574116666667, "bike_id": "6dd67512a5ce9ad5ffc437e93762e8f2", "rental_uris": {"android": "https://dc.lft.to/lastmile_qr_scan", "ios": "https://dc.lft.to/lastmile_qr_scan"}, "name": "6dd67512a5ce9ad5ffc437e93762e8f2", "is_reserved": 0}, {"is_disabled": 0, "fusion_lon": 0.0, "fusion_lat": 0.0, "lat": 38.9083605, "type": "electric_scooter", "lon": -76.99704583333333, "bike_id": "6628ebd8ffeff02b4f29d083425e4aaf", "rental_uris": {"android": "https://dc.lft.to/lastmile_qr_scan", "ios": "https://dc.lft.to/lastmile_qr_scan"}, "name": "6628ebd8ffeff02b4f29d083425e4aaf", "is_reserved": 0}, {"is_disabled": 0, "fusion_lon": 0.0, "fusion_lat": 0.0, "lat": 38.900049833333334, "type": "electric_scooter", "lon": -76.99651133333333, "bike_id": "fb7891a38fc12f872b1b865870ba4032", "rental_uris": {"android": "https://dc.lft.to/lastmile_qr_scan", "ios": "https://dc.lft.to/lastmile_qr_scan"}, "name": "fb7891a38fc12f872b1b865870ba4032", "is_reserved": 0}, {"is_disabled": 0, "fusion_lon": 0.0, "fusion_lat": 0.0, "lat": 38.895685666666665, "type": "electric_bike", "lon": -77.12739983333333, "bike_id": "bbd690b1a95167c48befd07791495e50", "rental_uris": {"android": "https://dc.lft.to/lastmile_qr_scan", "ios": "https://dc.lft.to/lastmile_qr_scan"}, "name": "bbd690b1a95167c48befd07791495e50", "is_reserved": 0}, {"is_disabled": 0, "fusion_lon": 0.0, "fusion_lat": 0.0, "lat": 38.92253733333333, "type": "electric_scooter", "lon": -77.041332, "bike_id": "e92510ef8e02fc622dd6f11400eb3aa9", "rental_uris": {"android": "https://dc.lft.to/lastmile_qr_scan", "ios": "https://dc.lft.to/lastmile_qr_scan"}, "name": "e92510ef8e02fc622dd6f11400eb3aa9", "is_reserved": 0}, {"is_disabled": 0, "fusion_lon": 0.0, "fusion_lat": 0.0, "lat": 38.915614, "type": "electric_scooter", "lon": -77.01174766666666, "bike_id": "064003bf45609fb9fd6d9ea8a2475354", "rental_uris": {"android": "https://dc.lft.to/lastmile_qr_scan", "ios": "https://dc.lft.to/lastmile_qr_scan"}, "name": "064003bf45609fb9fd6d9ea8a2475354", "is_reserved": 0}, {"is_disabled": 0, "fusion_lon": 0.0, "fusion_lat": 0.0, "lat": 38.92578066666667, "type": "electric_scooter", "lon": -76.99495066666667, "bike_id": "173e3c18f08ef8fe5ade515953383c94", "rental_uris": {"android": "https://dc.lft.to/lastmile_qr_scan", "ios": "https://dc.lft.to/lastmile_qr_scan"}, "name": "173e3c18f08ef8fe5ade515953383c94", "is_reserved": 0}, {"is_disabled": 0, "fusion_lon": 0.0, "fusion_lat": 0.0, "lat": 38.937836833333336, "type": "electric_scooter", "lon": -77.018791, "bike_id": "1011dd68c948cfaf4870f7a6200573b0", "rental_uris": {"android": "https://dc.lft.to/lastmile_qr_scan", "ios": "https://dc.lft.to/lastmile_qr_scan"}, "name": "1011dd68c948cfaf4870f7a6200573b0", "is_reserved": 0}, {"is_disabled": 0, "fusion_lon": 0.0, "fusion_lat": 0.0, "lat": 38.91274666666666, "type": "electric_scooter", "lon": -77.03204583333333, "bike_id": "0d4a746b09c6afd3d6351d947b7c8c19", "rental_uris": {"android": "https://dc.lft.to/lastmile_qr_scan", "ios": "https://dc.lft.to/lastmile_qr_scan"}, "name": "0d4a746b09c6afd3d6351d947b7c8c19", "is_reserved": 0}, {"is_disabled": 0, "fusion_lon": 0.0, "fusion_lat": 0.0, "lat": 38.92225283333333, "type": "electric_scooter", "lon": -77.03301116666667, "bike_id": "2be50ae08060dae8976ced5bf5e0b874", "rental_uris": {"android": "https://dc.lft.to/lastmile_qr_scan", "ios": "https://dc.lft.to/lastmile_qr_scan"}, "name": "2be50ae08060dae8976ced5bf5e0b874", "is_reserved": 0}, {"is_disabled": 0, "fusion_lon": 0.0, "fusion_lat": 0.0, "lat": 38.8874425, "type": "electric_scooter", "lon": -77.01548166666667, "bike_id": "e9564209d6a7cfea11c4f91ac5c8b7b7", "rental_uris": {"android": "https://dc.lft.to/lastmile_qr_scan", "ios": "https://dc.lft.to/lastmile_qr_scan"}, "name": "e9564209d6a7cfea11c4f91ac5c8b7b7", "is_reserved": 0}, {"is_disabled": 0, "fusion_lon": 0.0, "fusion_lat": 0.0, "lat": 38.91617433333333, "type": "electric_scooter", "lon": -77.04862, "bike_id": "778b51c3a49516d6e22935be6afbc2ff", "rental_uris": {"android": "https://dc.lft.to/lastmile_qr_scan", "ios": "https://dc.lft.to/lastmile_qr_scan"}, "name": "778b51c3a49516d6e22935be6afbc2ff", "is_reserved": 0}, {"is_disabled": 0, "fusion_lon": 0.0, "fusion_lat": 0.0, "lat": 38.905585333333335, "type": "electric_scooter", "lon": -77.036428, "bike_id": "c45271c89135571f4424f8edc77aa4ee", "rental_uris": {"android": "https://dc.lft.to/lastmile_qr_scan", "ios": "https://dc.lft.to/lastmile_qr_scan"}, "name": "c45271c89135571f4424f8edc77aa4ee", "is_reserved": 0}, {"is_disabled": 0, "fusion_lon": 0.0, "fusion_lat": 0.0, "lat": 38.90561816666667, "type": "electric_scooter", "lon": -77.04692483333334, "bike_id": "cf48bf9331146eaa9acedd75c35351c6", "rental_uris": {"android": "https://dc.lft.to/lastmile_qr_scan", "ios": "https://dc.lft.to/lastmile_qr_scan"}, "name": "cf48bf9331146eaa9acedd75c35351c6", "is_reserved": 0}, {"is_disabled": 0, "fusion_lon": 0.0, "fusion_lat": 0.0, "lat": 38.91995583333333, "type": "electric_scooter", "lon": -77.02552983333334, "bike_id": "2a12527b5e42a62e450261b18fe20637", "rental_uris": {"android": "https://dc.lft.to/lastmile_qr_scan", "ios": "https://dc.lft.to/lastmile_qr_scan"}, "name": "2a12527b5e42a62e450261b18fe20637", "is_reserved": 0}, {"is_disabled": 0, "fusion_lon": 0.0, "fusion_lat": 0.0, "lat": 38.90862816666667, "type": "electric_scooter", "lon": -77.043474, "bike_id": "9ee5e98d4524f5518e12f441f9c7d266", "rental_uris": {"android": "https://dc.lft.to/lastmile_qr_scan", "ios": "https://dc.lft.to/lastmile_qr_scan"}, "name": "9ee5e98d4524f5518e12f441f9c7d266", "is_reserved": 0}, {"is_disabled": 0, "fusion_lon": 0.0, "fusion_lat": 0.0, "lat": 38.95076366666667, "type": "electric_scooter", "lon": -77.02879266666666, "bike_id": "d64d7a9145bc6342bbab598bb627b79b", "rental_uris": {"android": "https://dc.lft.to/lastmile_qr_scan", "ios": "https://dc.lft.to/lastmile_qr_scan"}, "name": "d64d7a9145bc6342bbab598bb627b79b", "is_reserved": 0}, {"is_disabled": 0, "fusion_lon": 0.0, "fusion_lat": 0.0, "lat": 38.920529333333334, "type": "electric_scooter", "lon": -76.99875616666667, "bike_id": "5dc44edd0bfc4f0a0aae7c7a9647ebfd", "rental_uris": {"android": "https://dc.lft.to/lastmile_qr_scan", "ios": "https://dc.lft.to/lastmile_qr_scan"}, "name": "5dc44edd0bfc4f0a0aae7c7a9647ebfd", "is_reserved": 0}, {"is_disabled": 0, "fusion_lon": 0.0, "fusion_lat": 0.0, "lat": 38.90578083333333, "type": "electric_scooter", "lon": -77.0418275, "bike_id": "38c284007250903cd9ddbf256a6d0090", "rental_uris": {"android": "https://dc.lft.to/lastmile_qr_scan", "ios": "https://dc.lft.to/lastmile_qr_scan"}, "name": "38c284007250903cd9ddbf256a6d0090", "is_reserved": 0}, {"is_disabled": 0, "fusion_lon": 0.0, "fusion_lat": 0.0, "lat": 38.93189316666667, "type": "electric_bike", "lon": -77.22939, "bike_id": "d3b18dc8083e324d0d87bb95e458b52c", "rental_uris": {"android": "https://dc.lft.to/lastmile_qr_scan", "ios": "https://dc.lft.to/lastmile_qr_scan"}, "name": "d3b18dc8083e324d0d87bb95e458b52c", "is_reserved": 0}, {"is_disabled": 0, "fusion_lon": 0.0, "fusion_lat": 0.0, "lat": 38.99246266666667, "type": "electric_bike", "lon": -77.04998033333334, "bike_id": "175bff50013ff14510f9dde8afeca15b", "rental_uris": {"android": "https://dc.lft.to/lastmile_qr_scan", "ios": "https://dc.lft.to/lastmile_qr_scan"}, "name": "175bff50013ff14510f9dde8afeca15b", "is_reserved": 0}, {"is_disabled": 0, "fusion_lon": 0.0, "fusion_lat": 0.0, "lat": 38.917610333333336, "type": "electric_scooter", "lon": -77.03584866666667, "bike_id": "2dda21901aaf1cf795e532ccbc57015e", "rental_uris": {"android": "https://dc.lft.to/lastmile_qr_scan", "ios": "https://dc.lft.to/lastmile_qr_scan"}, "name": "2dda21901aaf1cf795e532ccbc57015e", "is_reserved": 0}, {"is_disabled": 0, "fusion_lon": 0.0, "fusion_lat": 0.0, "lat": 38.92118083333333, "type": "electric_scooter", "lon": -77.043967, "bike_id": "e6ef538332c8b0f5676002f9745761b1", "rental_uris": {"android": "https://dc.lft.to/lastmile_qr_scan", "ios": "https://dc.lft.to/lastmile_qr_scan"}, "name": "e6ef538332c8b0f5676002f9745761b1", "is_reserved": 0}, {"is_disabled": 0, "fusion_lon": 0.0, "fusion_lat": 0.0, "lat": 38.90441116666667, "type": "electric_scooter", "lon": -77.02418583333333, "bike_id": "87c0fcf15913862ff581cf7fe33a0d3c", "rental_uris": {"android": "https://dc.lft.to/lastmile_qr_scan", "ios": "https://dc.lft.to/lastmile_qr_scan"}, "name": "87c0fcf15913862ff581cf7fe33a0d3c", "is_reserved": 0}, {"is_disabled": 0, "fusion_lon": 0.0, "fusion_lat": 0.0, "lat": 38.905633333333334, "type": "electric_scooter", "lon": -77.02763566666667, "bike_id": "01d1dbad781a5d87a1ecc2c8eafd992b", "rental_uris": {"android": "https://dc.lft.to/lastmile_qr_scan", "ios": "https://dc.lft.to/lastmile_qr_scan"}, "name": "01d1dbad781a5d87a1ecc2c8eafd992b", "is_reserved": 0}, {"is_disabled": 0, "fusion_lon": 0.0, "fusion_lat": 0.0, "lat": 38.852835166666665, "type": "electric_bike", "lon": -76.98157733333333, "bike_id": "b6ed56ee137b71a211822faeabca94e3", "rental_uris": {"android": "https://dc.lft.to/lastmile_qr_scan", "ios": "https://dc.lft.to/lastmile_qr_scan"}, "name": "b6ed56ee137b71a211822faeabca94e3", "is_reserved": 0}, {"is_disabled": 0, "fusion_lon": 0.0, "fusion_lat": 0.0, "lat": 38.857828, "type": "electric_bike", "lon": -76.98765366666666, "bike_id": "aa6084855b1c07abb863ea04b9c87359", "rental_uris": {"android": "https://dc.lft.to/lastmile_qr_scan", "ios": "https://dc.lft.to/lastmile_qr_scan"}, "name": "aa6084855b1c07abb863ea04b9c87359", "is_reserved": 0}, {"is_disabled": 0, "fusion_lon": 0.0, "fusion_lat": 0.0, "lat": 38.91120033333333, "type": "electric_scooter", "lon": -77.042091, "bike_id": "0720d7de5b5c1cd32e145e646ec0f506", "rental_uris": {"android": "https://dc.lft.to/lastmile_qr_scan", "ios": "https://dc.lft.to/lastmile_qr_scan"}, "name": "0720d7de5b5c1cd32e145e646ec0f506", "is_reserved": 0}, {"is_disabled": 0, "fusion_lon": 0.0, "fusion_lat": 0.0, "lat": 38.921258, "type": "electric_scooter", "lon": -77.0444275, "bike_id": "bb1d878ab25a57bdfa2504551956b231", "rental_uris": {"android": "https://dc.lft.to/lastmile_qr_scan", "ios": "https://dc.lft.to/lastmile_qr_scan"}, "name": "bb1d878ab25a57bdfa2504551956b231", "is_reserved": 0}, {"is_disabled": 0, "fusion_lon": 0.0, "fusion_lat": 0.0, "lat": 38.9433285, "type": "electric_bike", "lon": -77.014766, "bike_id": "48abaebe476c567514703754114bb423", "rental_uris": {"android": "https://dc.lft.to/lastmile_qr_scan", "ios": "https://dc.lft.to/lastmile_qr_scan"}, "name": "48abaebe476c567514703754114bb423", "is_reserved": 0}, {"is_disabled": 0, "fusion_lon": 0.0, "fusion_lat": 0.0, "lat": 38.89222483333333, "type": "electric_scooter", "lon": -77.04863083333333, "bike_id": "a9344b3643415843335986d02612562a", "rental_uris": {"android": "https://dc.lft.to/lastmile_qr_scan", "ios": "https://dc.lft.to/lastmile_qr_scan"}, "name": "a9344b3643415843335986d02612562a", "is_reserved": 0}, {"is_disabled": 0, "fusion_lon": 0.0, "fusion_lat": 0.0, "lat": 38.89999183333333, "type": "electric_scooter", "lon": -77.03369566666667, "bike_id": "976c60039416c1e9427c515df51a36cc", "rental_uris": {"android": "https://dc.lft.to/lastmile_qr_scan", "ios": "https://dc.lft.to/lastmile_qr_scan"}, "name": "976c60039416c1e9427c515df51a36cc", "is_reserved": 0}, {"is_disabled": 0, "fusion_lon": 0.0, "fusion_lat": 0.0, "lat": 38.905083166666664, "type": "electric_scooter", "lon": -76.982429, "bike_id": "1021e393e15c64b145e569d5231b1dce", "rental_uris": {"android": "https://dc.lft.to/lastmile_qr_scan", "ios": "https://dc.lft.to/lastmile_qr_scan"}, "name": "1021e393e15c64b145e569d5231b1dce", "is_reserved": 0}, {"is_disabled": 0, "fusion_lon": 0.0, "fusion_lat": 0.0, "lat": 38.908513, "type": "electric_scooter", "lon": -77.0550795, "bike_id": "2630ff399e3ab8f9430b04fc36ee076e", "rental_uris": {"android": "https://dc.lft.to/lastmile_qr_scan", "ios": "https://dc.lft.to/lastmile_qr_scan"}, "name": "2630ff399e3ab8f9430b04fc36ee076e", "is_reserved": 0}, {"is_disabled": 0, "fusion_lon": 0.0, "fusion_lat": 0.0, "lat": 38.887052833333335, "type": "electric_scooter", "lon": -77.03214416666667, "bike_id": "7232239f3d66b3a5d7a430181069f9ab", "rental_uris": {"android": "https://dc.lft.to/lastmile_qr_scan", "ios": "https://dc.lft.to/lastmile_qr_scan"}, "name": "7232239f3d66b3a5d7a430181069f9ab", "is_reserved": 0}, {"is_disabled": 0, "fusion_lon": 0.0, "fusion_lat": 0.0, "lat": 38.887459166666666, "type": "electric_scooter", "lon": -77.0143405, "bike_id": "927ce4d46b77e6cbf2b57dcebeb04305", "rental_uris": {"android": "https://dc.lft.to/lastmile_qr_scan", "ios": "https://dc.lft.to/lastmile_qr_scan"}, "name": "927ce4d46b77e6cbf2b57dcebeb04305", "is_reserved": 0}, {"is_disabled": 0, "fusion_lon": 0.0, "fusion_lat": 0.0, "lat": 38.945861666666666, "type": "electric_bike", "lon": -77.34416833333333, "bike_id": "3fd36672f1a1c5cd580b047a81672739", "rental_uris": {"android": "https://dc.lft.to/lastmile_qr_scan", "ios": "https://dc.lft.to/lastmile_qr_scan"}, "name": "3fd36672f1a1c5cd580b047a81672739", "is_reserved": 0}, {"is_disabled": 0, "fusion_lon": 0.0, "fusion_lat": 0.0, "lat": 38.9222185, "type": "electric_scooter", "lon": -77.04313716666667, "bike_id": "082df5d533227ce03df1e6aa802bcc6b", "rental_uris": {"android": "https://dc.lft.to/lastmile_qr_scan", "ios": "https://dc.lft.to/lastmile_qr_scan"}, "name": "082df5d533227ce03df1e6aa802bcc6b", "is_reserved": 0}, {"is_disabled": 0, "fusion_lon": 0.0, "fusion_lat": 0.0, "lat": 38.92308833333333, "type": "electric_scooter", "lon": -77.02258483333334, "bike_id": "6646f7a4d7b5203f571ce4e084726894", "rental_uris": {"android": "https://dc.lft.to/lastmile_qr_scan", "ios": "https://dc.lft.to/lastmile_qr_scan"}, "name": "6646f7a4d7b5203f571ce4e084726894", "is_reserved": 0}, {"is_disabled": 0, "fusion_lon": 0.0, "fusion_lat": 0.0, "lat": 38.884251, "type": "electric_scooter", "lon": -77.02965833333333, "bike_id": "b283bcfbe417bb1a347e64e0653dcc02", "rental_uris": {"android": "https://dc.lft.to/lastmile_qr_scan", "ios": "https://dc.lft.to/lastmile_qr_scan"}, "name": "b283bcfbe417bb1a347e64e0653dcc02", "is_reserved": 0}, {"is_disabled": 0, "fusion_lon": 0.0, "fusion_lat": 0.0, "lat": 39.05459533333333, "type": "electric_bike", "lon": -77.14327633333333, "bike_id": "69f11d7eb58c85431c0904a5d8c4e06d", "rental_uris": {"android": "https://dc.lft.to/lastmile_qr_scan", "ios": "https://dc.lft.to/lastmile_qr_scan"}, "name": "69f11d7eb58c85431c0904a5d8c4e06d", "is_reserved": 0}, {"is_disabled": 0, "fusion_lon": 0.0, "fusion_lat": 0.0, "lat": 38.89387516666667, "type": "electric_scooter", "lon": -76.94994633333333, "bike_id": "8fc2bbaa409fae32459e00b782d83c22", "rental_uris": {"android": "https://dc.lft.to/lastmile_qr_scan", "ios": "https://dc.lft.to/lastmile_qr_scan"}, "name": "8fc2bbaa409fae32459e00b782d83c22", "is_reserved": 0}, {"is_disabled": 0, "fusion_lon": 0.0, "fusion_lat": 0.0, "lat": 38.9168995, "type": "electric_scooter", "lon": -77.03691883333333, "bike_id": "59c1691c8a2fa3c3fe6c4e76a48b756a", "rental_uris": {"android": "https://dc.lft.to/lastmile_qr_scan", "ios": "https://dc.lft.to/lastmile_qr_scan"}, "name": "59c1691c8a2fa3c3fe6c4e76a48b756a", "is_reserved": 0}, {"is_disabled": 0, "fusion_lon": 0.0, "fusion_lat": 0.0, "lat": 38.92578866666667, "type": "electric_scooter", "lon": -77.02865383333334, "bike_id": "3503513a76a61526cc941e1b79151dc6", "rental_uris": {"android": "https://dc.lft.to/lastmile_qr_scan", "ios": "https://dc.lft.to/lastmile_qr_scan"}, "name": "3503513a76a61526cc941e1b79151dc6", "is_reserved": 0}, {"is_disabled": 0, "fusion_lon": 0.0, "fusion_lat": 0.0, "lat": 38.924846, "type": "electric_scooter", "lon": -77.026948, "bike_id": "72655763c4abf9737e3160240d19757e", "rental_uris": {"android": "https://dc.lft.to/lastmile_qr_scan", "ios": "https://dc.lft.to/lastmile_qr_scan"}, "name": "72655763c4abf9737e3160240d19757e", "is_reserved": 0}, {"is_disabled": 0, "fusion_lon": 0.0, "fusion_lat": 0.0, "lat": 38.8922505, "type": "electric_scooter", "lon": -77.0486205, "bike_id": "540d41cfe42b5b1522dd169de53213bf", "rental_uris": {"android": "https://dc.lft.to/lastmile_qr_scan", "ios": "https://dc.lft.to/lastmile_qr_scan"}, "name": "540d41cfe42b5b1522dd169de53213bf", "is_reserved": 0}, {"is_disabled": 0, "fusion_lon": 0.0, "fusion_lat": 0.0, "lat": 38.92821333333333, "type": "electric_scooter", "lon": -77.022587, "bike_id": "3c25c75d0e51e5be519a8604ca6700ea", "rental_uris": {"android": "https://dc.lft.to/lastmile_qr_scan", "ios": "https://dc.lft.to/lastmile_qr_scan"}, "name": "3c25c75d0e51e5be519a8604ca6700ea", "is_reserved": 0}, {"is_disabled": 0, "fusion_lon": 0.0, "fusion_lat": 0.0, "lat": 38.906691333333335, "type": "electric_scooter", "lon": -77.027225, "bike_id": "4a7c0cb66ab668c22be4506a6d139e71", "rental_uris": {"android": "https://dc.lft.to/lastmile_qr_scan", "ios": "https://dc.lft.to/lastmile_qr_scan"}, "name": "4a7c0cb66ab668c22be4506a6d139e71", "is_reserved": 0}, {"is_disabled": 0, "fusion_lon": 0.0, "fusion_lat": 0.0, "lat": 38.90516383333333, "type": "electric_scooter", "lon": -76.9825465, "bike_id": "a145ab11e0e4da1eef1e3101516efc1d", "rental_uris": {"android": "https://dc.lft.to/lastmile_qr_scan", "ios": "https://dc.lft.to/lastmile_qr_scan"}, "name": "a145ab11e0e4da1eef1e3101516efc1d", "is_reserved": 0}, {"is_disabled": 0, "fusion_lon": 0.0, "fusion_lat": 0.0, "lat": 38.91116866666667, "type": "electric_scooter", "lon": -77.04460083333333, "bike_id": "a18230942495486721045f8d7681ee84", "rental_uris": {"android": "https://dc.lft.to/lastmile_qr_scan", "ios": "https://dc.lft.to/lastmile_qr_scan"}, "name": "a18230942495486721045f8d7681ee84", "is_reserved": 0}, {"is_disabled": 0, "fusion_lon": 0.0, "fusion_lat": 0.0, "lat": 38.9396115, "type": "electric_scooter", "lon": -77.032612, "bike_id": "3ab3b1b33802031e4518ebd8d79c591d", "rental_uris": {"android": "https://dc.lft.to/lastmile_qr_scan", "ios": "https://dc.lft.to/lastmile_qr_scan"}, "name": "3ab3b1b33802031e4518ebd8d79c591d", "is_reserved": 0}, {"is_disabled": 0, "fusion_lon": 0.0, "fusion_lat": 0.0, "lat": 38.916925166666665, "type": "electric_scooter", "lon": -77.0260185, "bike_id": "380ac66833cda927a430d87b4b220032", "rental_uris": {"android": "https://dc.lft.to/lastmile_qr_scan", "ios": "https://dc.lft.to/lastmile_qr_scan"}, "name": "380ac66833cda927a430d87b4b220032", "is_reserved": 0}, {"is_disabled": 0, "fusion_lon": 0.0, "fusion_lat": 0.0, "lat": 38.916911999999996, "type": "electric_scooter", "lon": -77.02988983333333, "bike_id": "92cf7226b270c78e1a3d713ac48bf9e7", "rental_uris": {"android": "https://dc.lft.to/lastmile_qr_scan", "ios": "https://dc.lft.to/lastmile_qr_scan"}, "name": "92cf7226b270c78e1a3d713ac48bf9e7", "is_reserved": 0}, {"is_disabled": 0, "fusion_lon": 0.0, "fusion_lat": 0.0, "lat": 38.92484283333334, "type": "electric_scooter", "lon": -77.02693466666666, "bike_id": "78a6076860c9f712d2955d97e5f5c8a8", "rental_uris": {"android": "https://dc.lft.to/lastmile_qr_scan", "ios": "https://dc.lft.to/lastmile_qr_scan"}, "name": "78a6076860c9f712d2955d97e5f5c8a8", "is_reserved": 0}, {"is_disabled": 0, "fusion_lon": 0.0, "fusion_lat": 0.0, "lat": 39.0078045, "type": "electric_bike", "lon": -76.99570466666667, "bike_id": "50c1e43a4731baa91752c8e7c14bee09", "rental_uris": {"android": "https://dc.lft.to/lastmile_qr_scan", "ios": "https://dc.lft.to/lastmile_qr_scan"}, "name": "50c1e43a4731baa91752c8e7c14bee09", "is_reserved": 0}, {"is_disabled": 0, "fusion_lon": 0.0, "fusion_lat": 0.0, "lat": 38.90425616666667, "type": "electric_scooter", "lon": -77.02227383333333, "bike_id": "72d53dbe48d61481438617ad8942d3e3", "rental_uris": {"android": "https://dc.lft.to/lastmile_qr_scan", "ios": "https://dc.lft.to/lastmile_qr_scan"}, "name": "72d53dbe48d61481438617ad8942d3e3", "is_reserved": 0}, {"is_disabled": 0, "fusion_lon": 0.0, "fusion_lat": 0.0, "lat": 38.900752, "type": "electric_scooter", "lon": -77.04917566666667, "bike_id": "101b03290cb336751afed3aa4a2470af", "rental_uris": {"android": "https://dc.lft.to/lastmile_qr_scan", "ios": "https://dc.lft.to/lastmile_qr_scan"}, "name": "101b03290cb336751afed3aa4a2470af", "is_reserved": 0}, {"is_disabled": 0, "fusion_lon": 0.0, "fusion_lat": 0.0, "lat": 38.906363666666664, "type": "electric_scooter", "lon": -77.045372, "bike_id": "0289658784abfe7063aa93b303242306", "rental_uris": {"android": "https://dc.lft.to/lastmile_qr_scan", "ios": "https://dc.lft.to/lastmile_qr_scan"}, "name": "0289658784abfe7063aa93b303242306", "is_reserved": 0}, {"is_disabled": 0, "fusion_lon": 0.0, "fusion_lat": 0.0, "lat": 38.94624116666667, "type": "electric_bike", "lon": -76.93413766666667, "bike_id": "de71acf3050bf455ef8975241ff171b8", "rental_uris": {"android": "https://dc.lft.to/lastmile_qr_scan", "ios": "https://dc.lft.to/lastmile_qr_scan"}, "name": "de71acf3050bf455ef8975241ff171b8", "is_reserved": 0}, {"is_disabled": 0, "fusion_lon": 0.0, "fusion_lat": 0.0, "lat": 38.9245755, "type": "electric_scooter", "lon": -77.02967733333334, "bike_id": "a9a528248868b2b06893a97113d09617", "rental_uris": {"android": "https://dc.lft.to/lastmile_qr_scan", "ios": "https://dc.lft.to/lastmile_qr_scan"}, "name": "a9a528248868b2b06893a97113d09617", "is_reserved": 0}, {"is_disabled": 0, "fusion_lon": 0.0, "fusion_lat": 0.0, "lat": 38.910433166666664, "type": "electric_scooter", "lon": -77.02295033333333, "bike_id": "2aaa0ab0802d9fc7d2dd0f626c6f06a7", "rental_uris": {"android": "https://dc.lft.to/lastmile_qr_scan", "ios": "https://dc.lft.to/lastmile_qr_scan"}, "name": "2aaa0ab0802d9fc7d2dd0f626c6f06a7", "is_reserved": 0}, {"is_disabled": 0, "fusion_lon": 0.0, "fusion_lat": 0.0, "lat": 38.91705316666667, "type": "electric_scooter", "lon": -77.0331555, "bike_id": "6ce14cce9a92e2bb7fd4d7de69fe88db", "rental_uris": {"android": "https://dc.lft.to/lastmile_qr_scan", "ios": "https://dc.lft.to/lastmile_qr_scan"}, "name": "6ce14cce9a92e2bb7fd4d7de69fe88db", "is_reserved": 0}, {"is_disabled": 0, "fusion_lon": 0.0, "fusion_lat": 0.0, "lat": 38.95181866666667, "type": "electric_scooter", "lon": -77.02613033333333, "bike_id": "06d0b8f8ad0a066c95592a7f5c25acfa", "rental_uris": {"android": "https://dc.lft.to/lastmile_qr_scan", "ios": "https://dc.lft.to/lastmile_qr_scan"}, "name": "06d0b8f8ad0a066c95592a7f5c25acfa", "is_reserved": 0}, {"is_disabled": 0, "fusion_lon": 0.0, "fusion_lat": 0.0, "lat": 38.903878, "type": "electric_scooter", "lon": -76.99001783333334, "bike_id": "e8c33c26a08637a8a5655c8e1238d624", "rental_uris": {"android": "https://dc.lft.to/lastmile_qr_scan", "ios": "https://dc.lft.to/lastmile_qr_scan"}, "name": "e8c33c26a08637a8a5655c8e1238d624", "is_reserved": 0}, {"is_disabled": 0, "fusion_lon": 0.0, "fusion_lat": 0.0, "lat": 38.898263166666666, "type": "electric_scooter", "lon": -76.94654016666667, "bike_id": "2157bc82af8291ccaf168ee4cddbef46", "rental_uris": {"android": "https://dc.lft.to/lastmile_qr_scan", "ios": "https://dc.lft.to/lastmile_qr_scan"}, "name": "2157bc82af8291ccaf168ee4cddbef46", "is_reserved": 0}, {"is_disabled": 0, "fusion_lon": 0.0, "fusion_lat": 0.0, "lat": 38.906817333333336, "type": "electric_scooter", "lon": -77.026932, "bike_id": "1980b71eb374fac8b2a0f41a6a28245a", "rental_uris": {"android": "https://dc.lft.to/lastmile_qr_scan", "ios": "https://dc.lft.to/lastmile_qr_scan"}, "name": "1980b71eb374fac8b2a0f41a6a28245a", "is_reserved": 0}, {"is_disabled": 0, "fusion_lon": 0.0, "fusion_lat": 0.0, "lat": 38.902806, "type": "electric_scooter", "lon": -77.0343295, "bike_id": "09f31fcee406a9924f1a21fda1a82feb", "rental_uris": {"android": "https://dc.lft.to/lastmile_qr_scan", "ios": "https://dc.lft.to/lastmile_qr_scan"}, "name": "09f31fcee406a9924f1a21fda1a82feb", "is_reserved": 0}, {"is_disabled": 0, "fusion_lon": 0.0, "fusion_lat": 0.0, "lat": 38.88373266666667, "type": "electric_scooter", "lon": -76.923779, "bike_id": "7601cfabb0d2c41370274982601b21e1", "rental_uris": {"android": "https://dc.lft.to/lastmile_qr_scan", "ios": "https://dc.lft.to/lastmile_qr_scan"}, "name": "7601cfabb0d2c41370274982601b21e1", "is_reserved": 0}, {"is_disabled": 0, "fusion_lon": 0.0, "fusion_lat": 0.0, "lat": 38.918070666666665, "type": "electric_scooter", "lon": -77.034384, "bike_id": "956507a495239a453c02650304e4e81e", "rental_uris": {"android": "https://dc.lft.to/lastmile_qr_scan", "ios": "https://dc.lft.to/lastmile_qr_scan"}, "name": "956507a495239a453c02650304e4e81e", "is_reserved": 0}, {"is_disabled": 0, "fusion_lon": 0.0, "fusion_lat": 0.0, "lat": 38.915445, "type": "electric_scooter", "lon": -77.04175833333333, "bike_id": "a7f2243983409e000c5d8916fa0f8ee8", "rental_uris": {"android": "https://dc.lft.to/lastmile_qr_scan", "ios": "https://dc.lft.to/lastmile_qr_scan"}, "name": "a7f2243983409e000c5d8916fa0f8ee8", "is_reserved": 0}, {"is_disabled": 0, "fusion_lon": 0.0, "fusion_lat": 0.0, "lat": 38.90246583333333, "type": "electric_scooter", "lon": -77.05406833333333, "bike_id": "abff8a8996e4592be52bc76497c4a67e", "rental_uris": {"android": "https://dc.lft.to/lastmile_qr_scan", "ios": "https://dc.lft.to/lastmile_qr_scan"}, "name": "abff8a8996e4592be52bc76497c4a67e", "is_reserved": 0}, {"is_disabled": 0, "fusion_lon": 0.0, "fusion_lat": 0.0, "lat": 38.9163, "type": "electric_scooter", "lon": -77.04079933333334, "bike_id": "47aed46c722281c5ee01e6fe86e63d01", "rental_uris": {"android": "https://dc.lft.to/lastmile_qr_scan", "ios": "https://dc.lft.to/lastmile_qr_scan"}, "name": "47aed46c722281c5ee01e6fe86e63d01", "is_reserved": 0}, {"is_disabled": 0, "fusion_lon": 0.0, "fusion_lat": 0.0, "lat": 38.9071105, "type": "electric_scooter", "lon": -77.02885316666666, "bike_id": "e67d96ca24745afe1769914ff73ab36b", "rental_uris": {"android": "https://dc.lft.to/lastmile_qr_scan", "ios": "https://dc.lft.to/lastmile_qr_scan"}, "name": "e67d96ca24745afe1769914ff73ab36b", "is_reserved": 0}, {"is_disabled": 0, "fusion_lon": 0.0, "fusion_lat": 0.0, "lat": 38.894814833333335, "type": "electric_scooter", "lon": -77.02286233333334, "bike_id": "3cf6da098408acdab2d4bba8096eff23", "rental_uris": {"android": "https://dc.lft.to/lastmile_qr_scan", "ios": "https://dc.lft.to/lastmile_qr_scan"}, "name": "3cf6da098408acdab2d4bba8096eff23", "is_reserved": 0}, {"is_disabled": 0, "fusion_lon": 0.0, "fusion_lat": 0.0, "lat": 38.925659333333336, "type": "electric_scooter", "lon": -77.05266933333333, "bike_id": "5a13f2170021d9a1cc958c51158bb230", "rental_uris": {"android": "https://dc.lft.to/lastmile_qr_scan", "ios": "https://dc.lft.to/lastmile_qr_scan"}, "name": "5a13f2170021d9a1cc958c51158bb230", "is_reserved": 0}, {"is_disabled": 0, "fusion_lon": 0.0, "fusion_lat": 0.0, "lat": 38.9452595, "type": "electric_scooter", "lon": -77.02984783333333, "bike_id": "94129e08ab772bc26c8c79004613906c", "rental_uris": {"android": "https://dc.lft.to/lastmile_qr_scan", "ios": "https://dc.lft.to/lastmile_qr_scan"}, "name": "94129e08ab772bc26c8c79004613906c", "is_reserved": 0}, {"is_disabled": 0, "fusion_lon": 0.0, "fusion_lat": 0.0, "lat": 38.90686516666667, "type": "electric_scooter", "lon": -77.031148, "bike_id": "178b5b97df9b2f98049d3ee6ca433ff7", "rental_uris": {"android": "https://dc.lft.to/lastmile_qr_scan", "ios": "https://dc.lft.to/lastmile_qr_scan"}, "name": "178b5b97df9b2f98049d3ee6ca433ff7", "is_reserved": 0}, {"is_disabled": 0, "fusion_lon": 0.0, "fusion_lat": 0.0, "lat": 38.9169095, "type": "electric_scooter", "lon": -77.02994316666667, "bike_id": "806077fbda8fcade11c5f3110bfd113a", "rental_uris": {"android": "https://dc.lft.to/lastmile_qr_scan", "ios": "https://dc.lft.to/lastmile_qr_scan"}, "name": "806077fbda8fcade11c5f3110bfd113a", "is_reserved": 0}, {"is_disabled": 0, "fusion_lon": 0.0, "fusion_lat": 0.0, "lat": 38.90670933333333, "type": "electric_scooter", "lon": -77.02717133333333, "bike_id": "de203081e9fa1c1559ea15315fb34abb", "rental_uris": {"android": "https://dc.lft.to/lastmile_qr_scan", "ios": "https://dc.lft.to/lastmile_qr_scan"}, "name": "de203081e9fa1c1559ea15315fb34abb", "is_reserved": 0}, {"is_disabled": 0, "fusion_lon": 0.0, "fusion_lat": 0.0, "lat": 38.949223333333336, "type": "electric_scooter", "lon": -77.0230085, "bike_id": "be9f4159b216e1fb2ed6d88b75c0c192", "rental_uris": {"android": "https://dc.lft.to/lastmile_qr_scan", "ios": "https://dc.lft.to/lastmile_qr_scan"}, "name": "be9f4159b216e1fb2ed6d88b75c0c192", "is_reserved": 0}, {"is_disabled": 0, "fusion_lon": 0.0, "fusion_lat": 0.0, "lat": 38.90564216666667, "type": "electric_scooter", "lon": -77.04689883333333, "bike_id": "d465722d5eff45eab4696ff1ec0265d1", "rental_uris": {"android": "https://dc.lft.to/lastmile_qr_scan", "ios": "https://dc.lft.to/lastmile_qr_scan"}, "name": "d465722d5eff45eab4696ff1ec0265d1", "is_reserved": 0}, {"is_disabled": 0, "fusion_lon": 0.0, "fusion_lat": 0.0, "lat": 38.894859333333336, "type": "electric_scooter", "lon": -77.02217433333334, "bike_id": "ac9f2a66ebc6b38d3a1f2081dfcd6eac", "rental_uris": {"android": "https://dc.lft.to/lastmile_qr_scan", "ios": "https://dc.lft.to/lastmile_qr_scan"}, "name": "ac9f2a66ebc6b38d3a1f2081dfcd6eac", "is_reserved": 0}, {"is_disabled": 0, "fusion_lon": 0.0, "fusion_lat": 0.0, "lat": 38.90006566666667, "type": "electric_scooter", "lon": -77.03964716666667, "bike_id": "2ba5b99b8c6d052ddf61e309b8f4c673", "rental_uris": {"android": "https://dc.lft.to/lastmile_qr_scan", "ios": "https://dc.lft.to/lastmile_qr_scan"}, "name": "2ba5b99b8c6d052ddf61e309b8f4c673", "is_reserved": 0}, {"is_disabled": 0, "fusion_lon": 0.0, "fusion_lat": 0.0, "lat": 38.93053466666667, "type": "electric_scooter", "lon": -77.0280525, "bike_id": "8e51217f3556afccd430fd0674defcb4", "rental_uris": {"android": "https://dc.lft.to/lastmile_qr_scan", "ios": "https://dc.lft.to/lastmile_qr_scan"}, "name": "8e51217f3556afccd430fd0674defcb4", "is_reserved": 0}, {"is_disabled": 0, "fusion_lon": 0.0, "fusion_lat": 0.0, "lat": 38.902209, "type": "electric_bike", "lon": -77.01938366666667, "bike_id": "9d6ff0686b96aad46f38181b7d0057ea", "rental_uris": {"android": "https://dc.lft.to/lastmile_qr_scan", "ios": "https://dc.lft.to/lastmile_qr_scan"}, "name": "9d6ff0686b96aad46f38181b7d0057ea", "is_reserved": 0}, {"is_disabled": 0, "fusion_lon": 0.0, "fusion_lat": 0.0, "lat": 38.89485883333333, "type": "electric_scooter", "lon": -77.02277683333334, "bike_id": "ab4e7bafd5702580d09670e0ffc3e09c", "rental_uris": {"android": "https://dc.lft.to/lastmile_qr_scan", "ios": "https://dc.lft.to/lastmile_qr_scan"}, "name": "ab4e7bafd5702580d09670e0ffc3e09c", "is_reserved": 0}, {"is_disabled": 0, "fusion_lon": 0.0, "fusion_lat": 0.0, "lat": 38.914045333333334, "type": "electric_scooter", "lon": -77.00337233333333, "bike_id": "b6543fb3cf83733af41af47630f21c41", "rental_uris": {"android": "https://dc.lft.to/lastmile_qr_scan", "ios": "https://dc.lft.to/lastmile_qr_scan"}, "name": "b6543fb3cf83733af41af47630f21c41", "is_reserved": 0}, {"is_disabled": 0, "fusion_lon": 0.0, "fusion_lat": 0.0, "lat": 38.935478333333336, "type": "electric_scooter", "lon": -77.058124, "bike_id": "b442d0c2ae91f2b30fb161eb711b7601", "rental_uris": {"android": "https://dc.lft.to/lastmile_qr_scan", "ios": "https://dc.lft.to/lastmile_qr_scan"}, "name": "b442d0c2ae91f2b30fb161eb711b7601", "is_reserved": 0}, {"is_disabled": 0, "fusion_lon": 0.0, "fusion_lat": 0.0, "lat": 38.94494383333333, "type": "electric_bike", "lon": -76.98661116666666, "bike_id": "a47f1f546d253c80f6da4fed9b9d0864", "rental_uris": {"android": "https://dc.lft.to/lastmile_qr_scan", "ios": "https://dc.lft.to/lastmile_qr_scan"}, "name": "a47f1f546d253c80f6da4fed9b9d0864", "is_reserved": 0}, {"is_disabled": 0, "fusion_lon": 0.0, "fusion_lat": 0.0, "lat": 38.91777616666667, "type": "electric_scooter", "lon": -77.04310666666667, "bike_id": "1fc44e1ed67a8e0ff81ae4582b6253c6", "rental_uris": {"android": "https://dc.lft.to/lastmile_qr_scan", "ios": "https://dc.lft.to/lastmile_qr_scan"}, "name": "1fc44e1ed67a8e0ff81ae4582b6253c6", "is_reserved": 0}, {"is_disabled": 0, "fusion_lon": 0.0, "fusion_lat": 0.0, "lat": 38.90728033333333, "type": "electric_scooter", "lon": -77.0385485, "bike_id": "acafeb932813b4ed56b1e9e8d21b4976", "rental_uris": {"android": "https://dc.lft.to/lastmile_qr_scan", "ios": "https://dc.lft.to/lastmile_qr_scan"}, "name": "acafeb932813b4ed56b1e9e8d21b4976", "is_reserved": 0}, {"is_disabled": 0, "fusion_lon": 0.0, "fusion_lat": 0.0, "lat": 38.90839033333334, "type": "electric_scooter", "lon": -77.02702166666667, "bike_id": "8fdf8a6e69de6fd591f8e3bea7f6b7ac", "rental_uris": {"android": "https://dc.lft.to/lastmile_qr_scan", "ios": "https://dc.lft.to/lastmile_qr_scan"}, "name": "8fdf8a6e69de6fd591f8e3bea7f6b7ac", "is_reserved": 0}, {"is_disabled": 0, "fusion_lon": 0.0, "fusion_lat": 0.0, "lat": 38.956308166666666, "type": "electric_scooter", "lon": -77.02978816666666, "bike_id": "d79971eee7dcf03f7b6b0c5632bdffa8", "rental_uris": {"android": "https://dc.lft.to/lastmile_qr_scan", "ios": "https://dc.lft.to/lastmile_qr_scan"}, "name": "d79971eee7dcf03f7b6b0c5632bdffa8", "is_reserved": 0}, {"is_disabled": 0, "fusion_lon": 0.0, "fusion_lat": 0.0, "lat": 38.85978166666666, "type": "electric_scooter", "lon": -76.98414016666666, "bike_id": "bda5554e4805eb4f925d1758d594ced8", "rental_uris": {"android": "https://dc.lft.to/lastmile_qr_scan", "ios": "https://dc.lft.to/lastmile_qr_scan"}, "name": "bda5554e4805eb4f925d1758d594ced8", "is_reserved": 0}, {"is_disabled": 0, "fusion_lon": 0.0, "fusion_lat": 0.0, "lat": 38.919053166666664, "type": "electric_scooter", "lon": -77.027613, "bike_id": "156a62b049969cf4546982624507dfc7", "rental_uris": {"android": "https://dc.lft.to/lastmile_qr_scan", "ios": "https://dc.lft.to/lastmile_qr_scan"}, "name": "156a62b049969cf4546982624507dfc7", "is_reserved": 0}, {"is_disabled": 0, "fusion_lon": 0.0, "fusion_lat": 0.0, "lat": 38.9052505, "type": "electric_scooter", "lon": -77.06244733333334, "bike_id": "c01791f8052348a2e28cf2fb40bcee8a", "rental_uris": {"android": "https://dc.lft.to/lastmile_qr_scan", "ios": "https://dc.lft.to/lastmile_qr_scan"}, "name": "c01791f8052348a2e28cf2fb40bcee8a", "is_reserved": 0}, {"is_disabled": 0, "fusion_lon": 0.0, "fusion_lat": 0.0, "lat": 38.9248165, "type": "electric_scooter", "lon": -77.02714966666667, "bike_id": "7f1c7b5db0dcc8766152d80f6c093084", "rental_uris": {"android": "https://dc.lft.to/lastmile_qr_scan", "ios": "https://dc.lft.to/lastmile_qr_scan"}, "name": "7f1c7b5db0dcc8766152d80f6c093084", "is_reserved": 0}, {"is_disabled": 0, "fusion_lon": 0.0, "fusion_lat": 0.0, "lat": 38.919969, "type": "electric_scooter", "lon": -77.03223066666666, "bike_id": "86cda8080ff4fe47b9fb57fa3d74e3bb", "rental_uris": {"android": "https://dc.lft.to/lastmile_qr_scan", "ios": "https://dc.lft.to/lastmile_qr_scan"}, "name": "86cda8080ff4fe47b9fb57fa3d74e3bb", "is_reserved": 0}, {"is_disabled": 0, "fusion_lon": 0.0, "fusion_lat": 0.0, "lat": 38.904949333333334, "type": "electric_scooter", "lon": -77.0295685, "bike_id": "430e5f756197299e8efe4cbf3e98a56a", "rental_uris": {"android": "https://dc.lft.to/lastmile_qr_scan", "ios": "https://dc.lft.to/lastmile_qr_scan"}, "name": "430e5f756197299e8efe4cbf3e98a56a", "is_reserved": 0}, {"is_disabled": 0, "fusion_lon": 0.0, "fusion_lat": 0.0, "lat": 38.9273825, "type": "electric_bike", "lon": -76.99364483333333, "bike_id": "438fbff6789c768f76857d862da6f249", "rental_uris": {"android": "https://dc.lft.to/lastmile_qr_scan", "ios": "https://dc.lft.to/lastmile_qr_scan"}, "name": "438fbff6789c768f76857d862da6f249", "is_reserved": 0}, {"is_disabled": 0, "fusion_lon": 0.0, "fusion_lat": 0.0, "lat": 38.927946666666664, "type": "electric_scooter", "lon": -77.02299783333333, "bike_id": "d847026376b403cc7213e1aebfd1d41b", "rental_uris": {"android": "https://dc.lft.to/lastmile_qr_scan", "ios": "https://dc.lft.to/lastmile_qr_scan"}, "name": "d847026376b403cc7213e1aebfd1d41b", "is_reserved": 0}, {"is_disabled": 0, "fusion_lon": 0.0, "fusion_lat": 0.0, "lat": 38.85066116666667, "type": "electric_bike", "lon": -76.97332833333333, "bike_id": "90ccbbcf25da430d5f2edf767593d977", "rental_uris": {"android": "https://dc.lft.to/lastmile_qr_scan", "ios": "https://dc.lft.to/lastmile_qr_scan"}, "name": "90ccbbcf25da430d5f2edf767593d977", "is_reserved": 0}, {"is_disabled": 0, "fusion_lon": 0.0, "fusion_lat": 0.0, "lat": 38.922851666666666, "type": "electric_scooter", "lon": -77.04232633333334, "bike_id": "4c931f7fca5b36a5ea18157b243c9e10", "rental_uris": {"android": "https://dc.lft.to/lastmile_qr_scan", "ios": "https://dc.lft.to/lastmile_qr_scan"}, "name": "4c931f7fca5b36a5ea18157b243c9e10", "is_reserved": 0}, {"is_disabled": 0, "fusion_lon": 0.0, "fusion_lat": 0.0, "lat": 38.975398166666665, "type": "electric_bike", "lon": -76.995304, "bike_id": "f423c6963a5ae249f6d5fa34d6d5aecd", "rental_uris": {"android": "https://dc.lft.to/lastmile_qr_scan", "ios": "https://dc.lft.to/lastmile_qr_scan"}, "name": "f423c6963a5ae249f6d5fa34d6d5aecd", "is_reserved": 0}, {"is_disabled": 0, "fusion_lon": 0.0, "fusion_lat": 0.0, "lat": 38.93551383333333, "type": "electric_scooter", "lon": -77.02221166666666, "bike_id": "fde235bb06807a7eb122ac1a5266b910", "rental_uris": {"android": "https://dc.lft.to/lastmile_qr_scan", "ios": "https://dc.lft.to/lastmile_qr_scan"}, "name": "fde235bb06807a7eb122ac1a5266b910", "is_reserved": 0}, {"is_disabled": 0, "fusion_lon": 0.0, "fusion_lat": 0.0, "lat": 38.86909716666667, "type": "electric_bike", "lon": -77.131832, "bike_id": "f453ccbe2ac0c2c3facdde0dec90737d", "rental_uris": {"android": "https://dc.lft.to/lastmile_qr_scan", "ios": "https://dc.lft.to/lastmile_qr_scan"}, "name": "f453ccbe2ac0c2c3facdde0dec90737d", "is_reserved": 0}, {"is_disabled": 0, "fusion_lon": 0.0, "fusion_lat": 0.0, "lat": 38.916976166666664, "type": "electric_scooter", "lon": -77.0328985, "bike_id": "fa7af5a93c7eb3c02178c21d5cef4b77", "rental_uris": {"android": "https://dc.lft.to/lastmile_qr_scan", "ios": "https://dc.lft.to/lastmile_qr_scan"}, "name": "fa7af5a93c7eb3c02178c21d5cef4b77", "is_reserved": 0}, {"is_disabled": 0, "fusion_lon": 0.0, "fusion_lat": 0.0, "lat": 38.911273, "type": "electric_scooter", "lon": -77.04182433333334, "bike_id": "f38d1cc10138fe9495d60614fd2b8e59", "rental_uris": {"android": "https://dc.lft.to/lastmile_qr_scan", "ios": "https://dc.lft.to/lastmile_qr_scan"}, "name": "f38d1cc10138fe9495d60614fd2b8e59", "is_reserved": 0}, {"is_disabled": 0, "fusion_lon": 0.0, "fusion_lat": 0.0, "lat": 38.935735666666666, "type": "electric_bike", "lon": -77.08259066666666, "bike_id": "1a070ea7f09e7558ebd46fdc6a516ba7", "rental_uris": {"android": "https://dc.lft.to/lastmile_qr_scan", "ios": "https://dc.lft.to/lastmile_qr_scan"}, "name": "1a070ea7f09e7558ebd46fdc6a516ba7", "is_reserved": 0}, {"is_disabled": 0, "fusion_lon": 0.0, "fusion_lat": 0.0, "lat": 38.924574, "type": "electric_scooter", "lon": -77.02968666666666, "bike_id": "4754cc7dad724fda9f75dc2d7600da8d", "rental_uris": {"android": "https://dc.lft.to/lastmile_qr_scan", "ios": "https://dc.lft.to/lastmile_qr_scan"}, "name": "4754cc7dad724fda9f75dc2d7600da8d", "is_reserved": 0}, {"is_disabled": 0, "fusion_lon": 0.0, "fusion_lat": 0.0, "lat": 38.89633166666667, "type": "electric_scooter", "lon": -77.00897583333334, "bike_id": "c0cb09531bace977af7f7334abab7ab4", "rental_uris": {"android": "https://dc.lft.to/lastmile_qr_scan", "ios": "https://dc.lft.to/lastmile_qr_scan"}, "name": "c0cb09531bace977af7f7334abab7ab4", "is_reserved": 0}, {"is_disabled": 0, "fusion_lon": 0.0, "fusion_lat": 0.0, "lat": 38.8971005, "type": "electric_scooter", "lon": -77.02156933333333, "bike_id": "6f22c57d252bd5fe0c3746c1635be939", "rental_uris": {"android": "https://dc.lft.to/lastmile_qr_scan", "ios": "https://dc.lft.to/lastmile_qr_scan"}, "name": "6f22c57d252bd5fe0c3746c1635be939", "is_reserved": 0}, {"is_disabled": 0, "fusion_lon": 0.0, "fusion_lat": 0.0, "lat": 38.91994666666667, "type": "electric_bike", "lon": -76.97319083333333, "bike_id": "23d1a9f1eb6b5a0d377254a331149e74", "rental_uris": {"android": "https://dc.lft.to/lastmile_qr_scan", "ios": "https://dc.lft.to/lastmile_qr_scan"}, "name": "23d1a9f1eb6b5a0d377254a331149e74", "is_reserved": 0}, {"is_disabled": 0, "fusion_lon": 0.0, "fusion_lat": 0.0, "lat": 38.89985566666667, "type": "electric_scooter", "lon": -77.02931733333334, "bike_id": "45933696c421bc1d9fcd35f858a1ef40", "rental_uris": {"android": "https://dc.lft.to/lastmile_qr_scan", "ios": "https://dc.lft.to/lastmile_qr_scan"}, "name": "45933696c421bc1d9fcd35f858a1ef40", "is_reserved": 0}, {"is_disabled": 0, "fusion_lon": 0.0, "fusion_lat": 0.0, "lat": 38.922978, "type": "electric_bike", "lon": -76.99771266666667, "bike_id": "20cfcb24065da230bbec497fb9b68873", "rental_uris": {"android": "https://dc.lft.to/lastmile_qr_scan", "ios": "https://dc.lft.to/lastmile_qr_scan"}, "name": "20cfcb24065da230bbec497fb9b68873", "is_reserved": 0}, {"is_disabled": 0, "fusion_lon": 0.0, "fusion_lat": 0.0, "lat": 38.918553833333334, "type": "electric_scooter", "lon": -77.03212966666666, "bike_id": "7a8bf8dcc46817e9f3d50f35d1eb796e", "rental_uris": {"android": "https://dc.lft.to/lastmile_qr_scan", "ios": "https://dc.lft.to/lastmile_qr_scan"}, "name": "7a8bf8dcc46817e9f3d50f35d1eb796e", "is_reserved": 0}, {"is_disabled": 0, "fusion_lon": 0.0, "fusion_lat": 0.0, "lat": 38.915968, "type": "electric_bike", "lon": -76.97153416666667, "bike_id": "4ed4c5abd8f0419f85bc167fb491f681", "rental_uris": {"android": "https://dc.lft.to/lastmile_qr_scan", "ios": "https://dc.lft.to/lastmile_qr_scan"}, "name": "4ed4c5abd8f0419f85bc167fb491f681", "is_reserved": 0}, {"is_disabled": 0, "fusion_lon": 0.0, "fusion_lat": 0.0, "lat": 38.8994295, "type": "electric_scooter", "lon": -77.02946366666667, "bike_id": "51771bad5b863acc3f29242bb9817bb6", "rental_uris": {"android": "https://dc.lft.to/lastmile_qr_scan", "ios": "https://dc.lft.to/lastmile_qr_scan"}, "name": "51771bad5b863acc3f29242bb9817bb6", "is_reserved": 0}, {"is_disabled": 0, "fusion_lon": 0.0, "fusion_lat": 0.0, "lat": 38.91120883333333, "type": "electric_scooter", "lon": -77.00336016666667, "bike_id": "532dce08fa7371ab5e0c9f5845d966da", "rental_uris": {"android": "https://dc.lft.to/lastmile_qr_scan", "ios": "https://dc.lft.to/lastmile_qr_scan"}, "name": "532dce08fa7371ab5e0c9f5845d966da", "is_reserved": 0}, {"is_disabled": 0, "fusion_lon": 0.0, "fusion_lat": 0.0, "lat": 38.908427333333336, "type": "electric_scooter", "lon": -77.026996, "bike_id": "44df25b1025ed17c8d0e43be3e675333", "rental_uris": {"android": "https://dc.lft.to/lastmile_qr_scan", "ios": "https://dc.lft.to/lastmile_qr_scan"}, "name": "44df25b1025ed17c8d0e43be3e675333", "is_reserved": 0}, {"is_disabled": 0, "fusion_lon": 0.0, "fusion_lat": 0.0, "lat": 38.9300035, "type": "electric_scooter", "lon": -77.02203866666666, "bike_id": "847f7583430609274adcf6dd99f87903", "rental_uris": {"android": "https://dc.lft.to/lastmile_qr_scan", "ios": "https://dc.lft.to/lastmile_qr_scan"}, "name": "847f7583430609274adcf6dd99f87903", "is_reserved": 0}, {"is_disabled": 0, "fusion_lon": 0.0, "fusion_lat": 0.0, "lat": 38.8848455, "type": "electric_scooter", "lon": -76.92969766666667, "bike_id": "558453908fe4a1da298879e652aefc15", "rental_uris": {"android": "https://dc.lft.to/lastmile_qr_scan", "ios": "https://dc.lft.to/lastmile_qr_scan"}, "name": "558453908fe4a1da298879e652aefc15", "is_reserved": 0}, {"is_disabled": 0, "fusion_lon": 0.0, "fusion_lat": 0.0, "lat": 38.872860833333334, "type": "electric_scooter", "lon": -77.00987933333333, "bike_id": "4310b0fbef1599b1603bbce65ebea701", "rental_uris": {"android": "https://dc.lft.to/lastmile_qr_scan", "ios": "https://dc.lft.to/lastmile_qr_scan"}, "name": "4310b0fbef1599b1603bbce65ebea701", "is_reserved": 0}, {"is_disabled": 0, "fusion_lon": 0.0, "fusion_lat": 0.0, "lat": 38.895628, "type": "electric_scooter", "lon": -77.021794, "bike_id": "582beb304f34923c8261a2730cf870f9", "rental_uris": {"android": "https://dc.lft.to/lastmile_qr_scan", "ios": "https://dc.lft.to/lastmile_qr_scan"}, "name": "582beb304f34923c8261a2730cf870f9", "is_reserved": 0}, {"is_disabled": 0, "fusion_lon": 0.0, "fusion_lat": 0.0, "lat": 38.91128616666666, "type": "electric_scooter", "lon": -77.0593695, "bike_id": "61345d66ea3bd56aca5b37e95a5d6640", "rental_uris": {"android": "https://dc.lft.to/lastmile_qr_scan", "ios": "https://dc.lft.to/lastmile_qr_scan"}, "name": "61345d66ea3bd56aca5b37e95a5d6640", "is_reserved": 0}, {"is_disabled": 0, "fusion_lon": 0.0, "fusion_lat": 0.0, "lat": 38.921536833333334, "type": "electric_scooter", "lon": -77.0340385, "bike_id": "559a1b78b80640de443018f278240bc8", "rental_uris": {"android": "https://dc.lft.to/lastmile_qr_scan", "ios": "https://dc.lft.to/lastmile_qr_scan"}, "name": "559a1b78b80640de443018f278240bc8", "is_reserved": 0}, {"is_disabled": 0, "fusion_lon": 0.0, "fusion_lat": 0.0, "lat": 38.907809, "type": "electric_scooter", "lon": -77.03203033333334, "bike_id": "f0647f02e6937bd8f836d6539d0c1669", "rental_uris": {"android": "https://dc.lft.to/lastmile_qr_scan", "ios": "https://dc.lft.to/lastmile_qr_scan"}, "name": "f0647f02e6937bd8f836d6539d0c1669", "is_reserved": 0}, {"is_disabled": 0, "fusion_lon": 0.0, "fusion_lat": 0.0, "lat": 38.902714, "type": "electric_scooter", "lon": -77.05318933333334, "bike_id": "21ce3e752a20ce06bc84f77364e807e5", "rental_uris": {"android": "https://dc.lft.to/lastmile_qr_scan", "ios": "https://dc.lft.to/lastmile_qr_scan"}, "name": "21ce3e752a20ce06bc84f77364e807e5", "is_reserved": 0}, {"is_disabled": 0, "fusion_lon": 0.0, "fusion_lat": 0.0, "lat": 38.892588, "type": "electric_scooter", "lon": -77.03207133333333, "bike_id": "ceb41504877941c57a7ccca23473b2ab", "rental_uris": {"android": "https://dc.lft.to/lastmile_qr_scan", "ios": "https://dc.lft.to/lastmile_qr_scan"}, "name": "ceb41504877941c57a7ccca23473b2ab", "is_reserved": 0}, {"is_disabled": 0, "fusion_lon": 0.0, "fusion_lat": 0.0, "lat": 38.918177166666666, "type": "electric_scooter", "lon": -77.0418265, "bike_id": "f63c88a855c13cce0901e3f10b841e89", "rental_uris": {"android": "https://dc.lft.to/lastmile_qr_scan", "ios": "https://dc.lft.to/lastmile_qr_scan"}, "name": "f63c88a855c13cce0901e3f10b841e89", "is_reserved": 0}, {"is_disabled": 0, "fusion_lon": 0.0, "fusion_lat": 0.0, "lat": 38.89677866666667, "type": "electric_scooter", "lon": -77.0115215, "bike_id": "337cd04cdc98dc70c573dacdd3c07de1", "rental_uris": {"android": "https://dc.lft.to/lastmile_qr_scan", "ios": "https://dc.lft.to/lastmile_qr_scan"}, "name": "337cd04cdc98dc70c573dacdd3c07de1", "is_reserved": 0}, {"is_disabled": 0, "fusion_lon": 0.0, "fusion_lat": 0.0, "lat": 38.916992, "type": "electric_scooter", "lon": -77.04279466666667, "bike_id": "202ffe80778d5bd27fc17a2bb0bc05c9", "rental_uris": {"android": "https://dc.lft.to/lastmile_qr_scan", "ios": "https://dc.lft.to/lastmile_qr_scan"}, "name": "202ffe80778d5bd27fc17a2bb0bc05c9", "is_reserved": 0}, {"is_disabled": 0, "fusion_lon": 0.0, "fusion_lat": 0.0, "lat": 38.90315316666667, "type": "electric_scooter", "lon": -77.02883916666667, "bike_id": "c66590501d9c2601c0c146817d69c30c", "rental_uris": {"android": "https://dc.lft.to/lastmile_qr_scan", "ios": "https://dc.lft.to/lastmile_qr_scan"}, "name": "c66590501d9c2601c0c146817d69c30c", "is_reserved": 0}, {"is_disabled": 0, "fusion_lon": 0.0, "fusion_lat": 0.0, "lat": 38.859886, "type": "electric_bike", "lon": -76.97054883333334, "bike_id": "0c2869b7e188d90863d39e37b776b041", "rental_uris": {"android": "https://dc.lft.to/lastmile_qr_scan", "ios": "https://dc.lft.to/lastmile_qr_scan"}, "name": "0c2869b7e188d90863d39e37b776b041", "is_reserved": 0}, {"is_disabled": 0, "fusion_lon": 0.0, "fusion_lat": 0.0, "lat": 38.8689465, "type": "electric_scooter", "lon": -76.98316516666667, "bike_id": "765eccd90cb1444bb58daa5f89e4f0bf", "rental_uris": {"android": "https://dc.lft.to/lastmile_qr_scan", "ios": "https://dc.lft.to/lastmile_qr_scan"}, "name": "765eccd90cb1444bb58daa5f89e4f0bf", "is_reserved": 0}, {"is_disabled": 0, "fusion_lon": 0.0, "fusion_lat": 0.0, "lat": 38.9146585, "type": "electric_scooter", "lon": -77.02799233333333, "bike_id": "76de9acc7f342e2964126cfaaebd9e2f", "rental_uris": {"android": "https://dc.lft.to/lastmile_qr_scan", "ios": "https://dc.lft.to/lastmile_qr_scan"}, "name": "76de9acc7f342e2964126cfaaebd9e2f", "is_reserved": 0}, {"is_disabled": 0, "fusion_lon": 0.0, "fusion_lat": 0.0, "lat": 38.880089, "type": "electric_bike", "lon": -76.91594283333333, "bike_id": "e76c6b89f035e2116a6147f050fb9141", "rental_uris": {"android": "https://dc.lft.to/lastmile_qr_scan", "ios": "https://dc.lft.to/lastmile_qr_scan"}, "name": "e76c6b89f035e2116a6147f050fb9141", "is_reserved": 0}, {"is_disabled": 0, "fusion_lon": 0.0, "fusion_lat": 0.0, "lat": 38.994546166666666, "type": "electric_bike", "lon": -76.90819416666666, "bike_id": "7186af321a247db9af24c1ba767fee00", "rental_uris": {"android": "https://dc.lft.to/lastmile_qr_scan", "ios": "https://dc.lft.to/lastmile_qr_scan"}, "name": "7186af321a247db9af24c1ba767fee00", "is_reserved": 0}, {"is_disabled": 0, "fusion_lon": 0.0, "fusion_lat": 0.0, "lat": 39.105651333333334, "type": "electric_bike", "lon": -77.15268816666666, "bike_id": "a813c9ab4e9cdec3486265cfc3838218", "rental_uris": {"android": "https://dc.lft.to/lastmile_qr_scan", "ios": "https://dc.lft.to/lastmile_qr_scan"}, "name": "a813c9ab4e9cdec3486265cfc3838218", "is_reserved": 0}, {"is_disabled": 0, "fusion_lon": 0.0, "fusion_lat": 0.0, "lat": 38.9226185, "type": "electric_bike", "lon": -76.99428416666666, "bike_id": "064fe65ffb6465c684c8d34d3cfc1f70", "rental_uris": {"android": "https://dc.lft.to/lastmile_qr_scan", "ios": "https://dc.lft.to/lastmile_qr_scan"}, "name": "064fe65ffb6465c684c8d34d3cfc1f70", "is_reserved": 0}, {"is_disabled": 0, "fusion_lon": 0.0, "fusion_lat": 0.0, "lat": 38.90251416666667, "type": "electric_scooter", "lon": -77.04262766666666, "bike_id": "f996ffa9ce67d0662456ab1f4883f883", "rental_uris": {"android": "https://dc.lft.to/lastmile_qr_scan", "ios": "https://dc.lft.to/lastmile_qr_scan"}, "name": "f996ffa9ce67d0662456ab1f4883f883", "is_reserved": 0}, {"is_disabled": 0, "fusion_lon": 0.0, "fusion_lat": 0.0, "lat": 38.920965333333335, "type": "electric_scooter", "lon": -76.9941945, "bike_id": "a71be14d397176cf6f39b4b28487d753", "rental_uris": {"android": "https://dc.lft.to/lastmile_qr_scan", "ios": "https://dc.lft.to/lastmile_qr_scan"}, "name": "a71be14d397176cf6f39b4b28487d753", "is_reserved": 0}, {"is_disabled": 0, "fusion_lon": 0.0, "fusion_lat": 0.0, "lat": 38.93633066666666, "type": "electric_scooter", "lon": -77.03666433333333, "bike_id": "8a632d76267d8d00a593ecba1c05ffe0", "rental_uris": {"android": "https://dc.lft.to/lastmile_qr_scan", "ios": "https://dc.lft.to/lastmile_qr_scan"}, "name": "8a632d76267d8d00a593ecba1c05ffe0", "is_reserved": 0}, {"is_disabled": 0, "fusion_lon": 0.0, "fusion_lat": 0.0, "lat": 38.89372866666667, "type": "electric_scooter", "lon": -76.94998133333333, "bike_id": "c69be6972664694bf035ca75066ed7f7", "rental_uris": {"android": "https://dc.lft.to/lastmile_qr_scan", "ios": "https://dc.lft.to/lastmile_qr_scan"}, "name": "c69be6972664694bf035ca75066ed7f7", "is_reserved": 0}, {"is_disabled": 0, "fusion_lon": 0.0, "fusion_lat": 0.0, "lat": 38.919790666666664, "type": "electric_scooter", "lon": -77.00024533333334, "bike_id": "adee2c3d89496bef676a941f3f9f0a81", "rental_uris": {"android": "https://dc.lft.to/lastmile_qr_scan", "ios": "https://dc.lft.to/lastmile_qr_scan"}, "name": "adee2c3d89496bef676a941f3f9f0a81", "is_reserved": 0}, {"is_disabled": 0, "fusion_lon": 0.0, "fusion_lat": 0.0, "lat": 38.92443983333333, "type": "electric_bike", "lon": -76.96842616666666, "bike_id": "d3d10b831781f684e7ac8e0f542dab75", "rental_uris": {"android": "https://dc.lft.to/lastmile_qr_scan", "ios": "https://dc.lft.to/lastmile_qr_scan"}, "name": "d3d10b831781f684e7ac8e0f542dab75", "is_reserved": 0}, {"is_disabled": 0, "fusion_lon": 0.0, "fusion_lat": 0.0, "lat": 38.924133166666664, "type": "electric_scooter", "lon": -77.05628683333333, "bike_id": "b4b9317a31ca1ac21ef7cc20d9b1b3ef", "rental_uris": {"android": "https://dc.lft.to/lastmile_qr_scan", "ios": "https://dc.lft.to/lastmile_qr_scan"}, "name": "b4b9317a31ca1ac21ef7cc20d9b1b3ef", "is_reserved": 0}, {"is_disabled": 0, "fusion_lon": 0.0, "fusion_lat": 0.0, "lat": 38.918512166666666, "type": "electric_scooter", "lon": -77.0295035, "bike_id": "6096d141adae40e435fb87df71421a41", "rental_uris": {"android": "https://dc.lft.to/lastmile_qr_scan", "ios": "https://dc.lft.to/lastmile_qr_scan"}, "name": "6096d141adae40e435fb87df71421a41", "is_reserved": 0}, {"is_disabled": 0, "fusion_lon": 0.0, "fusion_lat": 0.0, "lat": 38.914741166666666, "type": "electric_scooter", "lon": -77.04411383333333, "bike_id": "045aebaac7400e037c30a05e6376c03e", "rental_uris": {"android": "https://dc.lft.to/lastmile_qr_scan", "ios": "https://dc.lft.to/lastmile_qr_scan"}, "name": "045aebaac7400e037c30a05e6376c03e", "is_reserved": 0}, {"is_disabled": 0, "fusion_lon": 0.0, "fusion_lat": 0.0, "lat": 38.986577833333335, "type": "electric_scooter", "lon": -77.02647, "bike_id": "c50cec4f225c57ddc5f06563e92fa854", "rental_uris": {"android": "https://dc.lft.to/lastmile_qr_scan", "ios": "https://dc.lft.to/lastmile_qr_scan"}, "name": "c50cec4f225c57ddc5f06563e92fa854", "is_reserved": 0}, {"is_disabled": 0, "fusion_lon": 0.0, "fusion_lat": 0.0, "lat": 38.888783833333335, "type": "electric_scooter", "lon": -77.02864383333333, "bike_id": "caa37ce44e574ca7d826ee97edbf858d", "rental_uris": {"android": "https://dc.lft.to/lastmile_qr_scan", "ios": "https://dc.lft.to/lastmile_qr_scan"}, "name": "caa37ce44e574ca7d826ee97edbf858d", "is_reserved": 0}, {"is_disabled": 0, "fusion_lon": 0.0, "fusion_lat": 0.0, "lat": 38.96916616666667, "type": "electric_bike", "lon": -77.02615366666667, "bike_id": "5195a147b58e21f614ad3bd73437efda", "rental_uris": {"android": "https://dc.lft.to/lastmile_qr_scan", "ios": "https://dc.lft.to/lastmile_qr_scan"}, "name": "5195a147b58e21f614ad3bd73437efda", "is_reserved": 0}, {"is_disabled": 0, "fusion_lon": 0.0, "fusion_lat": 0.0, "lat": 38.91649366666667, "type": "electric_scooter", "lon": -77.03444783333333, "bike_id": "6f5955bcc53a1d51785e7fc5bed37200", "rental_uris": {"android": "https://dc.lft.to/lastmile_qr_scan", "ios": "https://dc.lft.to/lastmile_qr_scan"}, "name": "6f5955bcc53a1d51785e7fc5bed37200", "is_reserved": 0}, {"is_disabled": 0, "fusion_lon": 0.0, "fusion_lat": 0.0, "lat": 38.887506333333334, "type": "electric_scooter", "lon": -76.996202, "bike_id": "6af4a68bac4dc648ab6d77ceb6ecbe50", "rental_uris": {"android": "https://dc.lft.to/lastmile_qr_scan", "ios": "https://dc.lft.to/lastmile_qr_scan"}, "name": "6af4a68bac4dc648ab6d77ceb6ecbe50", "is_reserved": 0}, {"is_disabled": 0, "fusion_lon": 0.0, "fusion_lat": 0.0, "lat": 38.91284666666667, "type": "electric_scooter", "lon": -76.9870155, "bike_id": "d7714fde4af3c37e0a5dcb59120b911e", "rental_uris": {"android": "https://dc.lft.to/lastmile_qr_scan", "ios": "https://dc.lft.to/lastmile_qr_scan"}, "name": "d7714fde4af3c37e0a5dcb59120b911e", "is_reserved": 0}, {"is_disabled": 0, "fusion_lon": 0.0, "fusion_lat": 0.0, "lat": 38.89906216666667, "type": "electric_scooter", "lon": -76.933921, "bike_id": "d805125fe1a13bda15f4f9784de676d1", "rental_uris": {"android": "https://dc.lft.to/lastmile_qr_scan", "ios": "https://dc.lft.to/lastmile_qr_scan"}, "name": "d805125fe1a13bda15f4f9784de676d1", "is_reserved": 0}, {"is_disabled": 0, "fusion_lon": 0.0, "fusion_lat": 0.0, "lat": 38.9054165, "type": "electric_scooter", "lon": -77.05699, "bike_id": "58b17bdce95b8cac2e9c0f7fe40fa23b", "rental_uris": {"android": "https://dc.lft.to/lastmile_qr_scan", "ios": "https://dc.lft.to/lastmile_qr_scan"}, "name": "58b17bdce95b8cac2e9c0f7fe40fa23b", "is_reserved": 0}, {"is_disabled": 0, "fusion_lon": 0.0, "fusion_lat": 0.0, "lat": 38.91194616666667, "type": "electric_scooter", "lon": -77.03929, "bike_id": "4f246b21028faea09ec9bb893aa9411e", "rental_uris": {"android": "https://dc.lft.to/lastmile_qr_scan", "ios": "https://dc.lft.to/lastmile_qr_scan"}, "name": "4f246b21028faea09ec9bb893aa9411e", "is_reserved": 0}, {"is_disabled": 0, "fusion_lon": 0.0, "fusion_lat": 0.0, "lat": 38.87677583333333, "type": "electric_scooter", "lon": -77.017865, "bike_id": "be2b5ec8e169a53f243545bb1fc85c3c", "rental_uris": {"android": "https://dc.lft.to/lastmile_qr_scan", "ios": "https://dc.lft.to/lastmile_qr_scan"}, "name": "be2b5ec8e169a53f243545bb1fc85c3c", "is_reserved": 0}, {"is_disabled": 0, "fusion_lon": 0.0, "fusion_lat": 0.0, "lat": 38.892097, "type": "electric_scooter", "lon": -76.98804566666666, "bike_id": "2232490d9a6d1a5b278cef85383d31a1", "rental_uris": {"android": "https://dc.lft.to/lastmile_qr_scan", "ios": "https://dc.lft.to/lastmile_qr_scan"}, "name": "2232490d9a6d1a5b278cef85383d31a1", "is_reserved": 0}, {"is_disabled": 0, "fusion_lon": 0.0, "fusion_lat": 0.0, "lat": 38.9563675, "type": "electric_scooter", "lon": -77.09098016666667, "bike_id": "91d2f84e52d88319b2d37d4ac9514ce6", "rental_uris": {"android": "https://dc.lft.to/lastmile_qr_scan", "ios": "https://dc.lft.to/lastmile_qr_scan"}, "name": "91d2f84e52d88319b2d37d4ac9514ce6", "is_reserved": 0}, {"is_disabled": 0, "fusion_lon": 0.0, "fusion_lat": 0.0, "lat": 38.9180565, "type": "electric_scooter", "lon": -77.04031866666666, "bike_id": "ea51ae9ad7b0ad5707d1cfdb9a496c7d", "rental_uris": {"android": "https://dc.lft.to/lastmile_qr_scan", "ios": "https://dc.lft.to/lastmile_qr_scan"}, "name": "ea51ae9ad7b0ad5707d1cfdb9a496c7d", "is_reserved": 0}, {"is_disabled": 0, "fusion_lon": 0.0, "fusion_lat": 0.0, "lat": 38.8868855, "type": "electric_scooter", "lon": -76.987985, "bike_id": "78ca78f408c44d4a9465690e6327b36a", "rental_uris": {"android": "https://dc.lft.to/lastmile_qr_scan", "ios": "https://dc.lft.to/lastmile_qr_scan"}, "name": "78ca78f408c44d4a9465690e6327b36a", "is_reserved": 0}, {"is_disabled": 0, "fusion_lon": 0.0, "fusion_lat": 0.0, "lat": 38.91690166666667, "type": "electric_scooter", "lon": -77.01177183333333, "bike_id": "9e32b6b0a2fbe883e734f59bf40fc934", "rental_uris": {"android": "https://dc.lft.to/lastmile_qr_scan", "ios": "https://dc.lft.to/lastmile_qr_scan"}, "name": "9e32b6b0a2fbe883e734f59bf40fc934", "is_reserved": 0}, {"is_disabled": 0, "fusion_lon": 0.0, "fusion_lat": 0.0, "lat": 38.90743483333333, "type": "electric_scooter", "lon": -77.0010845, "bike_id": "f90616eaae0ac8413123cb4b99a18a6a", "rental_uris": {"android": "https://dc.lft.to/lastmile_qr_scan", "ios": "https://dc.lft.to/lastmile_qr_scan"}, "name": "f90616eaae0ac8413123cb4b99a18a6a", "is_reserved": 0}, {"is_disabled": 0, "fusion_lon": 0.0, "fusion_lat": 0.0, "lat": 38.9369985, "type": "electric_scooter", "lon": -77.05599483333333, "bike_id": "92c45f3674f5373ef66df32e5b6887ed", "rental_uris": {"android": "https://dc.lft.to/lastmile_qr_scan", "ios": "https://dc.lft.to/lastmile_qr_scan"}, "name": "92c45f3674f5373ef66df32e5b6887ed", "is_reserved": 0}, {"is_disabled": 0, "fusion_lon": 0.0, "fusion_lat": 0.0, "lat": 38.89217033333333, "type": "electric_scooter", "lon": -77.022258, "bike_id": "f3d23b54294e81ae165ef990261081e6", "rental_uris": {"android": "https://dc.lft.to/lastmile_qr_scan", "ios": "https://dc.lft.to/lastmile_qr_scan"}, "name": "f3d23b54294e81ae165ef990261081e6", "is_reserved": 0}, {"is_disabled": 0, "fusion_lon": 0.0, "fusion_lat": 0.0, "lat": 38.85648716666667, "type": "electric_bike", "lon": -77.08532233333334, "bike_id": "d621541552f8cef73f6948931e376326", "rental_uris": {"android": "https://dc.lft.to/lastmile_qr_scan", "ios": "https://dc.lft.to/lastmile_qr_scan"}, "name": "d621541552f8cef73f6948931e376326", "is_reserved": 0}, {"is_disabled": 0, "fusion_lon": 0.0, "fusion_lat": 0.0, "lat": 38.849319333333334, "type": "electric_bike", "lon": -77.10013066666667, "bike_id": "a4c79d53cca3de8b16f348bcd6055f33", "rental_uris": {"android": "https://dc.lft.to/lastmile_qr_scan", "ios": "https://dc.lft.to/lastmile_qr_scan"}, "name": "a4c79d53cca3de8b16f348bcd6055f33", "is_reserved": 0}, {"is_disabled": 0, "fusion_lon": 0.0, "fusion_lat": 0.0, "lat": 38.913136, "type": "electric_scooter", "lon": -77.01435433333333, "bike_id": "5e5c7b1e883400055ce2159da06d8e71", "rental_uris": {"android": "https://dc.lft.to/lastmile_qr_scan", "ios": "https://dc.lft.to/lastmile_qr_scan"}, "name": "5e5c7b1e883400055ce2159da06d8e71", "is_reserved": 0}, {"is_disabled": 0, "fusion_lon": 0.0, "fusion_lat": 0.0, "lat": 38.90376233333333, "type": "electric_scooter", "lon": -77.05366, "bike_id": "8fe13603d4d1b703d5bb5813495eab3f", "rental_uris": {"android": "https://dc.lft.to/lastmile_qr_scan", "ios": "https://dc.lft.to/lastmile_qr_scan"}, "name": "8fe13603d4d1b703d5bb5813495eab3f", "is_reserved": 0}, {"is_disabled": 0, "fusion_lon": 0.0, "fusion_lat": 0.0, "lat": 38.886101833333335, "type": "electric_scooter", "lon": -77.00581933333333, "bike_id": "61affb3d687b994cceadda79e215011d", "rental_uris": {"android": "https://dc.lft.to/lastmile_qr_scan", "ios": "https://dc.lft.to/lastmile_qr_scan"}, "name": "61affb3d687b994cceadda79e215011d", "is_reserved": 0}, {"is_disabled": 0, "fusion_lon": 0.0, "fusion_lat": 0.0, "lat": 38.870536333333334, "type": "electric_scooter", "lon": -76.9808865, "bike_id": "74ddd8ddeab0a7a89bf10cefd1c4ba50", "rental_uris": {"android": "https://dc.lft.to/lastmile_qr_scan", "ios": "https://dc.lft.to/lastmile_qr_scan"}, "name": "74ddd8ddeab0a7a89bf10cefd1c4ba50", "is_reserved": 0}, {"is_disabled": 0, "fusion_lon": 0.0, "fusion_lat": 0.0, "lat": 38.89408916666667, "type": "electric_scooter", "lon": -77.01089933333333, "bike_id": "a2538486b225c504db9f75991723c8bd", "rental_uris": {"android": "https://dc.lft.to/lastmile_qr_scan", "ios": "https://dc.lft.to/lastmile_qr_scan"}, "name": "a2538486b225c504db9f75991723c8bd", "is_reserved": 0}, {"is_disabled": 0, "fusion_lon": 0.0, "fusion_lat": 0.0, "lat": 38.9257955, "type": "electric_scooter", "lon": -77.03213483333333, "bike_id": "f3e21351c12a97b7098f01449ce5ce73", "rental_uris": {"android": "https://dc.lft.to/lastmile_qr_scan", "ios": "https://dc.lft.to/lastmile_qr_scan"}, "name": "f3e21351c12a97b7098f01449ce5ce73", "is_reserved": 0}, {"is_disabled": 0, "fusion_lon": 0.0, "fusion_lat": 0.0, "lat": 38.92072183333333, "type": "electric_scooter", "lon": -77.043785, "bike_id": "1f7a782104d83e0acad0ab4d7bbdc4d5", "rental_uris": {"android": "https://dc.lft.to/lastmile_qr_scan", "ios": "https://dc.lft.to/lastmile_qr_scan"}, "name": "1f7a782104d83e0acad0ab4d7bbdc4d5", "is_reserved": 0}, {"is_disabled": 0, "fusion_lon": 0.0, "fusion_lat": 0.0, "lat": 38.9234155, "type": "electric_scooter", "lon": -77.04190116666666, "bike_id": "bacf50d7ba06bd34e0753302982a1b6d", "rental_uris": {"android": "https://dc.lft.to/lastmile_qr_scan", "ios": "https://dc.lft.to/lastmile_qr_scan"}, "name": "bacf50d7ba06bd34e0753302982a1b6d", "is_reserved": 0}, {"is_disabled": 0, "fusion_lon": 0.0, "fusion_lat": 0.0, "lat": 38.81028116666667, "type": "electric_bike", "lon": -77.0843905, "bike_id": "8abdcdd7faf466fa5164d9c998e3dabb", "rental_uris": {"android": "https://dc.lft.to/lastmile_qr_scan", "ios": "https://dc.lft.to/lastmile_qr_scan"}, "name": "8abdcdd7faf466fa5164d9c998e3dabb", "is_reserved": 0}, {"is_disabled": 0, "fusion_lon": 0.0, "fusion_lat": 0.0, "lat": 38.86962233333333, "type": "electric_scooter", "lon": -76.96034, "bike_id": "cd9b1fdfd3a8391899a7e0bcbffbdb3c", "rental_uris": {"android": "https://dc.lft.to/lastmile_qr_scan", "ios": "https://dc.lft.to/lastmile_qr_scan"}, "name": "cd9b1fdfd3a8391899a7e0bcbffbdb3c", "is_reserved": 0}, {"is_disabled": 0, "fusion_lon": 0.0, "fusion_lat": 0.0, "lat": 38.919363833333335, "type": "electric_bike", "lon": -76.97502483333334, "bike_id": "ce17652200d2eb207b70b44a6541050a", "rental_uris": {"android": "https://dc.lft.to/lastmile_qr_scan", "ios": "https://dc.lft.to/lastmile_qr_scan"}, "name": "ce17652200d2eb207b70b44a6541050a", "is_reserved": 0}, {"is_disabled": 0, "fusion_lon": 0.0, "fusion_lat": 0.0, "lat": 38.90004233333333, "type": "electric_scooter", "lon": -77.03334466666666, "bike_id": "063ad9138228f9c381f557e217789d2b", "rental_uris": {"android": "https://dc.lft.to/lastmile_qr_scan", "ios": "https://dc.lft.to/lastmile_qr_scan"}, "name": "063ad9138228f9c381f557e217789d2b", "is_reserved": 0}, {"is_disabled": 0, "fusion_lon": 0.0, "fusion_lat": 0.0, "lat": 38.9095235, "type": "electric_scooter", "lon": -77.02379316666666, "bike_id": "b21f142fca13d73584cadccedcacf2e2", "rental_uris": {"android": "https://dc.lft.to/lastmile_qr_scan", "ios": "https://dc.lft.to/lastmile_qr_scan"}, "name": "b21f142fca13d73584cadccedcacf2e2", "is_reserved": 0}, {"is_disabled": 0, "fusion_lon": 0.0, "fusion_lat": 0.0, "lat": 38.943016166666666, "type": "electric_scooter", "lon": -77.02763683333333, "bike_id": "fa2ec476392400b2e427028122cf3fd0", "rental_uris": {"android": "https://dc.lft.to/lastmile_qr_scan", "ios": "https://dc.lft.to/lastmile_qr_scan"}, "name": "fa2ec476392400b2e427028122cf3fd0", "is_reserved": 0}, {"is_disabled": 0, "fusion_lon": 0.0, "fusion_lat": 0.0, "lat": 38.9154385, "type": "electric_scooter", "lon": -77.04175266666667, "bike_id": "c2ee44840d181fd8b4d7e0aa5ea9b0cc", "rental_uris": {"android": "https://dc.lft.to/lastmile_qr_scan", "ios": "https://dc.lft.to/lastmile_qr_scan"}, "name": "c2ee44840d181fd8b4d7e0aa5ea9b0cc", "is_reserved": 0}, {"is_disabled": 0, "fusion_lon": 0.0, "fusion_lat": 0.0, "lat": 38.91038966666667, "type": "electric_scooter", "lon": -77.04013583333334, "bike_id": "4248c0bee0ead0de077386f41965e29c", "rental_uris": {"android": "https://dc.lft.to/lastmile_qr_scan", "ios": "https://dc.lft.to/lastmile_qr_scan"}, "name": "4248c0bee0ead0de077386f41965e29c", "is_reserved": 0}, {"is_disabled": 0, "fusion_lon": 0.0, "fusion_lat": 0.0, "lat": 38.94201433333333, "type": "electric_scooter", "lon": -77.0259315, "bike_id": "19cf9887bafffa317252f3f69aea8775", "rental_uris": {"android": "https://dc.lft.to/lastmile_qr_scan", "ios": "https://dc.lft.to/lastmile_qr_scan"}, "name": "19cf9887bafffa317252f3f69aea8775", "is_reserved": 0}, {"is_disabled": 0, "fusion_lon": 0.0, "fusion_lat": 0.0, "lat": 38.906818666666666, "type": "electric_scooter", "lon": -76.98001483333333, "bike_id": "f362e8ca9dc38dbabe1ed86b38240225", "rental_uris": {"android": "https://dc.lft.to/lastmile_qr_scan", "ios": "https://dc.lft.to/lastmile_qr_scan"}, "name": "f362e8ca9dc38dbabe1ed86b38240225", "is_reserved": 0}, {"is_disabled": 0, "fusion_lon": 0.0, "fusion_lat": 0.0, "lat": 38.896058833333335, "type": "electric_scooter", "lon": -77.0093015, "bike_id": "ed8555a8bfc10ab7de98bfc929ca392b", "rental_uris": {"android": "https://dc.lft.to/lastmile_qr_scan", "ios": "https://dc.lft.to/lastmile_qr_scan"}, "name": "ed8555a8bfc10ab7de98bfc929ca392b", "is_reserved": 0}, {"is_disabled": 0, "fusion_lon": 0.0, "fusion_lat": 0.0, "lat": 38.85806516666667, "type": "electric_scooter", "lon": -76.986556, "bike_id": "6cfd08ac141140cc22d7bc4d6b853e69", "rental_uris": {"android": "https://dc.lft.to/lastmile_qr_scan", "ios": "https://dc.lft.to/lastmile_qr_scan"}, "name": "6cfd08ac141140cc22d7bc4d6b853e69", "is_reserved": 0}, {"is_disabled": 0, "fusion_lon": 0.0, "fusion_lat": 0.0, "lat": 38.93132216666667, "type": "electric_scooter", "lon": -77.05619883333334, "bike_id": "57b1ca5a8fc4676c27ed725008ec9582", "rental_uris": {"android": "https://dc.lft.to/lastmile_qr_scan", "ios": "https://dc.lft.to/lastmile_qr_scan"}, "name": "57b1ca5a8fc4676c27ed725008ec9582", "is_reserved": 0}, {"is_disabled": 0, "fusion_lon": 0.0, "fusion_lat": 0.0, "lat": 38.960967333333336, "type": "electric_scooter", "lon": -77.06904233333333, "bike_id": "0b36d610d3959dd6ff37476a7dca5279", "rental_uris": {"android": "https://dc.lft.to/lastmile_qr_scan", "ios": "https://dc.lft.to/lastmile_qr_scan"}, "name": "0b36d610d3959dd6ff37476a7dca5279", "is_reserved": 0}, {"is_disabled": 0, "fusion_lon": 0.0, "fusion_lat": 0.0, "lat": 38.9218275, "type": "electric_scooter", "lon": -76.99704983333334, "bike_id": "2f68b637e817fd5ef498d9923cdf62d2", "rental_uris": {"android": "https://dc.lft.to/lastmile_qr_scan", "ios": "https://dc.lft.to/lastmile_qr_scan"}, "name": "2f68b637e817fd5ef498d9923cdf62d2", "is_reserved": 0}, {"is_disabled": 0, "fusion_lon": 0.0, "fusion_lat": 0.0, "lat": 38.90867766666667, "type": "electric_scooter", "lon": -77.035428, "bike_id": "4b846d4a342863b4fb44b395b2accb0a", "rental_uris": {"android": "https://dc.lft.to/lastmile_qr_scan", "ios": "https://dc.lft.to/lastmile_qr_scan"}, "name": "4b846d4a342863b4fb44b395b2accb0a", "is_reserved": 0}, {"is_disabled": 0, "fusion_lon": 0.0, "fusion_lat": 0.0, "lat": 38.93405466666667, "type": "electric_scooter", "lon": -77.03261033333334, "bike_id": "d4cc58a19c85ddd5073cc8ab03cb6f83", "rental_uris": {"android": "https://dc.lft.to/lastmile_qr_scan", "ios": "https://dc.lft.to/lastmile_qr_scan"}, "name": "d4cc58a19c85ddd5073cc8ab03cb6f83", "is_reserved": 0}, {"is_disabled": 0, "fusion_lon": 0.0, "fusion_lat": 0.0, "lat": 38.91181233333333, "type": "electric_scooter", "lon": -77.03510183333333, "bike_id": "05ba07e6c42a3e06e2d1ca431a6f5e09", "rental_uris": {"android": "https://dc.lft.to/lastmile_qr_scan", "ios": "https://dc.lft.to/lastmile_qr_scan"}, "name": "05ba07e6c42a3e06e2d1ca431a6f5e09", "is_reserved": 0}, {"is_disabled": 0, "fusion_lon": 0.0, "fusion_lat": 0.0, "lat": 38.93472633333333, "type": "electric_scooter", "lon": -77.035822, "bike_id": "0b34db83a4c9c3d2717fb9c70575e4d4", "rental_uris": {"android": "https://dc.lft.to/lastmile_qr_scan", "ios": "https://dc.lft.to/lastmile_qr_scan"}, "name": "0b34db83a4c9c3d2717fb9c70575e4d4", "is_reserved": 0}, {"is_disabled": 0, "fusion_lon": 0.0, "fusion_lat": 0.0, "lat": 38.916103166666666, "type": "electric_scooter", "lon": -77.03172933333333, "bike_id": "1e33a4dae23849d68d503cb26a9e6a7d", "rental_uris": {"android": "https://dc.lft.to/lastmile_qr_scan", "ios": "https://dc.lft.to/lastmile_qr_scan"}, "name": "1e33a4dae23849d68d503cb26a9e6a7d", "is_reserved": 0}, {"is_disabled": 0, "fusion_lon": 0.0, "fusion_lat": 0.0, "lat": 38.929726, "type": "electric_scooter", "lon": -77.0207355, "bike_id": "8c8b4f0ff191861d11fa49f725f52af2", "rental_uris": {"android": "https://dc.lft.to/lastmile_qr_scan", "ios": "https://dc.lft.to/lastmile_qr_scan"}, "name": "8c8b4f0ff191861d11fa49f725f52af2", "is_reserved": 0}, {"is_disabled": 0, "fusion_lon": 0.0, "fusion_lat": 0.0, "lat": 38.865255166666664, "type": "electric_scooter", "lon": -76.98970966666667, "bike_id": "6acb7aecdd04db6f576453e8e0e44f43", "rental_uris": {"android": "https://dc.lft.to/lastmile_qr_scan", "ios": "https://dc.lft.to/lastmile_qr_scan"}, "name": "6acb7aecdd04db6f576453e8e0e44f43", "is_reserved": 0}, {"is_disabled": 0, "fusion_lon": 0.0, "fusion_lat": 0.0, "lat": 38.90153333333333, "type": "electric_scooter", "lon": -77.02288716666666, "bike_id": "e46788029f794b654ec6c559c80d5540", "rental_uris": {"android": "https://dc.lft.to/lastmile_qr_scan", "ios": "https://dc.lft.to/lastmile_qr_scan"}, "name": "e46788029f794b654ec6c559c80d5540", "is_reserved": 0}, {"is_disabled": 0, "fusion_lon": 0.0, "fusion_lat": 0.0, "lat": 38.93418666666667, "type": "electric_scooter", "lon": -77.02451483333333, "bike_id": "be4ef65f264dea8df30e2e4ed539c090", "rental_uris": {"android": "https://dc.lft.to/lastmile_qr_scan", "ios": "https://dc.lft.to/lastmile_qr_scan"}, "name": "be4ef65f264dea8df30e2e4ed539c090", "is_reserved": 0},