{"data": {"bikes": [{"bike_id": "c9ae588754f70f40cd5e3d8130d36bb6", "is_reserved": 0, "name": "c9ae588754f70f40cd5e3d8130d36bb6", "lat": 38.901318833333335, "fusion_lat": 0.0, "lon": -77.00287133333333, "is_disabled": 0, "fusion_lon": 0.0, "rental_uris": {"android": "https://dc.lft.to/lastmile_qr_scan", "ios": "https://dc.lft.to/lastmile_qr_scan"}, "type": "electric_scooter"}, {"bike_id": "b2a746102c1fe65dce10eac1d7b49858", "is_reserved": 0, "name": "b2a746102c1fe65dce10eac1d7b49858", "lat": 38.910372333333335, "fusion_lat": 0.0, "lon": -77.031983, "is_disabled": 0, "fusion_lon": 0.0, "rental_uris": {"android": "https://dc.lft.to/lastmile_qr_scan", "ios": "https://dc.lft.to/lastmile_qr_scan"}, "type": "electric_scooter"}, {"bike_id": "8d197036c71c4dc9dd5e909a20ab64ff", "is_reserved": 0, "name": "8d197036c71c4dc9dd5e909a20ab64ff", "lat": 38.892376666666664, "fusion_lat": 0.0, "lon": -77.023813, "is_disabled": 0, "fusion_lon": 0.0, "rental_uris": {"android": "https://dc.lft.to/lastmile_qr_scan", "ios": "https://dc.lft.to/lastmile_qr_scan"}, "type": "electric_scooter"}, {"bike_id": "47a059ed2ada873f866a2245caad5f0a", "is_reserved": 0, "name": "47a059ed2ada873f866a2245caad5f0a", "lat": 38.894994, "fusion_lat": 0.0, "lon": -77.03958033333333, "is_disabled": 0, "fusion_lon": 0.0, "rental_uris": {"android": "https://dc.lft.to/lastmile_qr_scan", "ios": "https://dc.lft.to/lastmile_qr_scan"}, "type": "electric_scooter"}, {"bike_id": "a3654d5ba23ac9560b40501099b9babc", "is_reserved": 0, "name": "a3654d5ba23ac9560b40501099b9babc", "lat": 38.88017266666667, "fusion_lat": 0.0, "lon": -76.980685, "is_disabled": 0, "fusion_lon": 0.0, "rental_uris": {"android": "https://dc.lft.to/lastmile_qr_scan", "ios": "https://dc.lft.to/lastmile_qr_scan"}, "type": "electric_scooter"}, {"bike_id": "ad36a41a7a007c9b2b5491de17569b5c", "is_reserved": 0, "name": "ad36a41a7a007c9b2b5491de17569b5c", "lat": 38.9149065, "fusion_lat": 0.0, "lon": -77.04172183333333, "is_disabled": 0, "fusion_lon": 0.0, "rental_uris": {"android": "https://dc.lft.to/lastmile_qr_scan", "ios": "https://dc.lft.to/lastmile_qr_scan"}, "type": "electric_scooter"}, {"bike_id": "544401c2d3409d32e3c68837a16cb8c9", "is_reserved": 0, "name": "544401c2d3409d32e3c68837a16cb8c9", "lat": 38.96225716666667, "fusion_lat": 0.0, "lon": -77.02628283333334, "is_disabled": 0, "fusion_lon": 0.0, "rental_uris": {"android": "https://dc.lft.to/lastmile_qr_scan", "ios": "https://dc.lft.to/lastmile_qr_scan"}, "type": "electric_bike"}, {"bike_id": "67187c0d2833b66e2d7bf59913d2fbce", "is_reserved": 0, "name": "67187c0d2833b66e2d7bf59913d2fbce", "lat": 38.923823166666665, "fusion_lat": 0.0, "lon": -77.0410895, "is_disabled": 0, "fusion_lon": 0.0, "rental_uris": {"android": "https://dc.lft.to/lastmile_qr_scan", "ios": "https://dc.lft.to/lastmile_qr_scan"}, "type": "electric_scooter"}, {"bike_id": "062a9806347526d09a9f23977e4164b2", "is_reserved": 0, "name": "062a9806347526d09a9f23977e4164b2", "lat": 38.876978333333334, "fusion_lat": 0.0, "lon": -77.00284866666667, "is_disabled": 0, "fusion_lon": 0.0, "rental_uris": {"android": "https://dc.lft.to/lastmile_qr_scan", "ios": "https://dc.lft.to/lastmile_qr_scan"}, "type": "electric_scooter"}, {"bike_id": "d5414227710cb37d868b65b8a4ab2cff", "is_reserved": 0, "name": "d5414227710cb37d868b65b8a4ab2cff", "lat": 38.892217, "fusion_lat": 0.0, "lon": -77.04328416666667, "is_disabled": 0, "fusion_lon": 0.0, "rental_uris": {"android": "https://dc.lft.to/lastmile_qr_scan", "ios": "https://dc.lft.to/lastmile_qr_scan"}, "type": "electric_scooter"}, {"bike_id": "aefb03a8f494c8c8ac191ec4d81193b3", "is_reserved": 0, "name": "aefb03a8f494c8c8ac191ec4d81193b3", "lat": 38.897566, "fusion_lat": 0.0, "lon": -77.03305066666667, "is_disabled": 0, "fusion_lon": 0.0, "rental_uris": {"android": "https://dc.lft.to/lastmile_qr_scan", "ios": "https://dc.lft.to/lastmile_qr_scan"}, "type": "electric_scooter"}, {"bike_id": "2f9a6b5977723a7f8c87162c0db6fdaf", "is_reserved": 0, "name": "2f9a6b5977723a7f8c87162c0db6fdaf", "lat": 38.90339216666667, "fusion_lat": 0.0, "lon": -77.05295233333334, "is_disabled": 0, "fusion_lon": 0.0, "rental_uris": {"android": "https://dc.lft.to/lastmile_qr_scan", "ios": "https://dc.lft.to/lastmile_qr_scan"}, "type": "electric_scooter"}, {"bike_id": "abdf21d04a28c11f8c2a7b0f90558851", "is_reserved": 0, "name": "abdf21d04a28c11f8c2a7b0f90558851", "lat": 38.91269833333333, "fusion_lat": 0.0, "lon": -77.045529, "is_disabled": 0, "fusion_lon": 0.0, "rental_uris": {"android": "https://dc.lft.to/lastmile_qr_scan", "ios": "https://dc.lft.to/lastmile_qr_scan"}, "type": "electric_scooter"}, {"bike_id": "054a19058da1f19bf8fc587e3be86baa", "is_reserved": 0, "name": "054a19058da1f19bf8fc587e3be86baa", "lat": 38.909913833333334, "fusion_lat": 0.0, "lon": -76.99468916666666, "is_disabled": 0, "fusion_lon": 0.0, "rental_uris": {"android": "https://dc.lft.to/lastmile_qr_scan", "ios": "https://dc.lft.to/lastmile_qr_scan"}, "type": "electric_scooter"}, {"bike_id": "dedf09b8ca6f89161324a7178d77cb36", "is_reserved": 0, "name": "dedf09b8ca6f89161324a7178d77cb36", "lat": 38.9621815, "fusion_lat": 0.0, "lon": -77.02798533333333, "is_disabled": 0, "fusion_lon": 0.0, "rental_uris": {"android": "https://dc.lft.to/lastmile_qr_scan", "ios": "https://dc.lft.to/lastmile_qr_scan"}, "type": "electric_bike"}, {"bike_id": "9f7660f21e90a87f33d32add491650f2", "is_reserved": 0, "name": "9f7660f21e90a87f33d32add491650f2", "lat": 38.908579, "fusion_lat": 0.0, "lon": -77.0272205, "is_disabled": 0, "fusion_lon": 0.0, "rental_uris": {"android": "https://dc.lft.to/lastmile_qr_scan", "ios": "https://dc.lft.to/lastmile_qr_scan"}, "type": "electric_scooter"}, {"bike_id": "085d378f1a1d465e5876860c8a3d0686", "is_reserved": 0, "name": "085d378f1a1d465e5876860c8a3d0686", "lat": 38.887363, "fusion_lat": 0.0, "lon": -77.02383233333333, "is_disabled": 0, "fusion_lon": 0.0, "rental_uris": {"android": "https://dc.lft.to/lastmile_qr_scan", "ios": "https://dc.lft.to/lastmile_qr_scan"}, "type": "electric_scooter"}, {"bike_id": "aabbe8c7a065de27866ebbe1d2aeab7b", "is_reserved": 0, "name": "aabbe8c7a065de27866ebbe1d2aeab7b", "lat": 38.9249, "fusion_lat": 0.0, "lon": -77.02137816666666, "is_disabled": 0, "fusion_lon": 0.0, "rental_uris": {"android": "https://dc.lft.to/lastmile_qr_scan", "ios": "https://dc.lft.to/lastmile_qr_scan"}, "type": "electric_scooter"}, {"bike_id": "502e52a8172cf3238f6a34ce6dbc12c6", "is_reserved": 0, "name": "502e52a8172cf3238f6a34ce6dbc12c6", "lat": 38.846136666666666, "fusion_lat": 0.0, "lon": -76.96910433333333, "is_disabled": 0, "fusion_lon": 0.0, "rental_uris": {"android": "https://dc.lft.to/lastmile_qr_scan", "ios": "https://dc.lft.to/lastmile_qr_scan"}, "type": "electric_bike"}, {"bike_id": "78b2c82c4595d9bcb3343b2dd5e3cc9f", "is_reserved": 0, "name": "78b2c82c4595d9bcb3343b2dd5e3cc9f", "lat": 38.89958933333333, "fusion_lat": 0.0, "lon": -77.04491683333333, "is_disabled": 0, "fusion_lon": 0.0, "rental_uris": {"android": "https://dc.lft.to/lastmile_qr_scan", "ios": "https://dc.lft.to/lastmile_qr_scan"}, "type": "electric_scooter"}, {"bike_id": "ffccfcfe0b3f2c1e537b90a8c952d9b4", "is_reserved": 0, "name": "ffccfcfe0b3f2c1e537b90a8c952d9b4", "lat": 38.91688716666667, "fusion_lat": 0.0, "lon": -77.02290466666666, "is_disabled": 0, "fusion_lon": 0.0, "rental_uris": {"android": "https://dc.lft.to/lastmile_qr_scan", "ios": "https://dc.lft.to/lastmile_qr_scan"}, "type": "electric_scooter"}, {"bike_id": "fc1fced29cf14eaed5aa77ee32a9af06", "is_reserved": 0, "name": "fc1fced29cf14eaed5aa77ee32a9af06", "lat": 38.92848583333333, "fusion_lat": 0.0, "lon": -77.03281183333333, "is_disabled": 0, "fusion_lon": 0.0, "rental_uris": {"android": "https://dc.lft.to/lastmile_qr_scan", "ios": "https://dc.lft.to/lastmile_qr_scan"}, "type": "electric_scooter"}, {"bike_id": "8f99177394255c36dfa01f48e048bef0", "is_reserved": 0, "name": "8f99177394255c36dfa01f48e048bef0", "lat": 38.9125315, "fusion_lat": 0.0, "lon": -77.007746, "is_disabled": 0, "fusion_lon": 0.0, "rental_uris": {"android": "https://dc.lft.to/lastmile_qr_scan", "ios": "https://dc.lft.to/lastmile_qr_scan"}, "type": "electric_scooter"}, {"bike_id": "618defa4c57ea173f74eec732fe85660", "is_reserved": 0, "name": "618defa4c57ea173f74eec732fe85660", "lat": 38.873774166666664, "fusion_lat": 0.0, "lon": -77.00129483333333, "is_disabled": 0, "fusion_lon": 0.0, "rental_uris": {"android": "https://dc.lft.to/lastmile_qr_scan", "ios": "https://dc.lft.to/lastmile_qr_scan"}, "type": "electric_scooter"}, {"bike_id": "6480a65f09176506836e44a6e9f78c28", "is_reserved": 0, "name": "6480a65f09176506836e44a6e9f78c28", "lat": 38.90463033333333, "fusion_lat": 0.0, "lon": -77.05320016666667, "is_disabled": 0, "fusion_lon": 0.0, "rental_uris": {"android": "https://dc.lft.to/lastmile_qr_scan", "ios": "https://dc.lft.to/lastmile_qr_scan"}, "type": "electric_scooter"}, {"bike_id": "c211376aa1a26fa312c52b6651b388d4", "is_reserved": 0, "name": "c211376aa1a26fa312c52b6651b388d4", "lat": 38.939348, "fusion_lat": 0.0, "lon": -77.024713, "is_disabled": 0, "fusion_lon": 0.0, "rental_uris": {"android": "https://dc.lft.to/lastmile_qr_scan", "ios": "https://dc.lft.to/lastmile_qr_scan"}, "type": "electric_scooter"}, {"bike_id": "6b8d3e781bc2755521ed7cc373cff6bf", "is_reserved": 0, "name": "6b8d3e781bc2755521ed7cc373cff6bf", "lat": 38.87470616666667, "fusion_lat": 0.0, "lon": -77.00565966666667, "is_disabled": 0, "fusion_lon": 0.0, "rental_uris": {"android": "https://dc.lft.to/lastmile_qr_scan", "ios": "https://dc.lft.to/lastmile_qr_scan"}, "type": "electric_scooter"}, {"bike_id": "599509971cba34c05f8fa9b331fa93e7", "is_reserved": 0, "name": "599509971cba34c05f8fa9b331fa93e7", "lat": 38.91923583333333, "fusion_lat": 0.0, "lon": -77.026624, "is_disabled": 0, "fusion_lon": 0.0, "rental_uris": {"android": "https://dc.lft.to/lastmile_qr_scan", "ios": "https://dc.lft.to/lastmile_qr_scan"}, "type": "electric_scooter"}, {"bike_id": "fa7d05180a58d3956d4e4443fa0e68c3", "is_reserved": 0, "name": "fa7d05180a58d3956d4e4443fa0e68c3", "lat": 38.9096975, "fusion_lat": 0.0, "lon": -77.03473783333334, "is_disabled": 0, "fusion_lon": 0.0, "rental_uris": {"android": "https://dc.lft.to/lastmile_qr_scan", "ios": "https://dc.lft.to/lastmile_qr_scan"}, "type": "electric_scooter"}, {"bike_id": "2f9a9f3fb13ffe7d7f411372e53d230d", "is_reserved": 0, "name": "2f9a9f3fb13ffe7d7f411372e53d230d", "lat": 38.896992166666664, "fusion_lat": 0.0, "lon": -77.02677833333334, "is_disabled": 0, "fusion_lon": 0.0, "rental_uris": {"android": "https://dc.lft.to/lastmile_qr_scan", "ios": "https://dc.lft.to/lastmile_qr_scan"}, "type": "electric_scooter"}, {"bike_id": "913ae06cf80061df81eb7c4d5038b24a", "is_reserved": 0, "name": "913ae06cf80061df81eb7c4d5038b24a", "lat": 38.917081333333336, "fusion_lat": 0.0, "lon": -77.03087633333334, "is_disabled": 0, "fusion_lon": 0.0, "rental_uris": {"android": "https://dc.lft.to/lastmile_qr_scan", "ios": "https://dc.lft.to/lastmile_qr_scan"}, "type": "electric_scooter"}, {"bike_id": "3faa0061be9f3a7c0ea287035766e26f", "is_reserved": 0, "name": "3faa0061be9f3a7c0ea287035766e26f", "lat": 38.855197833333335, "fusion_lat": 0.0, "lon": -76.98422433333333, "is_disabled": 0, "fusion_lon": 0.0, "rental_uris": {"android": "https://dc.lft.to/lastmile_qr_scan", "ios": "https://dc.lft.to/lastmile_qr_scan"}, "type": "electric_bike"}, {"bike_id": "5b4d7c5eac88ca44465a9af2b455b086", "is_reserved": 0, "name": "5b4d7c5eac88ca44465a9af2b455b086", "lat": 38.91505333333333, "fusion_lat": 0.0, "lon": -77.044979, "is_disabled": 0, "fusion_lon": 0.0, "rental_uris": {"android": "https://dc.lft.to/lastmile_qr_scan", "ios": "https://dc.lft.to/lastmile_qr_scan"}, "type": "electric_scooter"}, {"bike_id": "67cfa89b442326875dbadc0d9da9a3ce", "is_reserved": 0, "name": "67cfa89b442326875dbadc0d9da9a3ce", "lat": 38.883917, "fusion_lat": 0.0, "lon": -76.93043266666666, "is_disabled": 0, "fusion_lon": 0.0, "rental_uris": {"android": "https://dc.lft.to/lastmile_qr_scan", "ios": "https://dc.lft.to/lastmile_qr_scan"}, "type": "electric_scooter"}, {"bike_id": "5cb6f565a306559a1d36c363108ab39b", "is_reserved": 0, "name": "5cb6f565a306559a1d36c363108ab39b", "lat": 38.9373485, "fusion_lat": 0.0, "lon": -76.99068966666667, "is_disabled": 0, "fusion_lon": 0.0, "rental_uris": {"android": "https://dc.lft.to/lastmile_qr_scan", "ios": "https://dc.lft.to/lastmile_qr_scan"}, "type": "electric_bike"}, {"bike_id": "a4c7dbf26a6be24179feabe37a7c0483", "is_reserved": 0, "name": "a4c7dbf26a6be24179feabe37a7c0483", "lat": 38.872102, "fusion_lat": 0.0, "lon": -77.00576733333334, "is_disabled": 0, "fusion_lon": 0.0, "rental_uris": {"android": "https://dc.lft.to/lastmile_qr_scan", "ios": "https://dc.lft.to/lastmile_qr_scan"}, "type": "electric_scooter"}, {"bike_id": "89c86a000690111dcefd879cfa3ba75f", "is_reserved": 0, "name": "89c86a000690111dcefd879cfa3ba75f", "lat": 38.883619, "fusion_lat": 0.0, "lon": -77.01357883333333, "is_disabled": 0, "fusion_lon": 0.0, "rental_uris": {"android": "https://dc.lft.to/lastmile_qr_scan", "ios": "https://dc.lft.to/lastmile_qr_scan"}, "type": "electric_scooter"}, {"bike_id": "3a32a516bbb73d4b8f79bf8476d0571c", "is_reserved": 0, "name": "3a32a516bbb73d4b8f79bf8476d0571c", "lat": 38.921226833333336, "fusion_lat": 0.0, "lon": -77.01213233333333, "is_disabled": 0, "fusion_lon": 0.0, "rental_uris": {"android": "https://dc.lft.to/lastmile_qr_scan", "ios": "https://dc.lft.to/lastmile_qr_scan"}, "type": "electric_scooter"}, {"bike_id": "5b66b6a126c9a22482e7f01266acff05", "is_reserved": 0, "name": "5b66b6a126c9a22482e7f01266acff05", "lat": 38.900583166666664, "fusion_lat": 0.0, "lon": -77.01619583333333, "is_disabled": 0, "fusion_lon": 0.0, "rental_uris": {"android": "https://dc.lft.to/lastmile_qr_scan", "ios": "https://dc.lft.to/lastmile_qr_scan"}, "type": "electric_scooter"}, {"bike_id": "2617871b0c63e11b004cb0e93e68e7cb", "is_reserved": 0, "name": "2617871b0c63e11b004cb0e93e68e7cb", "lat": 38.94018633333334, "fusion_lat": 0.0, "lon": -77.02539466666667, "is_disabled": 0, "fusion_lon": 0.0, "rental_uris": {"android": "https://dc.lft.to/lastmile_qr_scan", "ios": "https://dc.lft.to/lastmile_qr_scan"}, "type": "electric_scooter"}, {"bike_id": "8f73c014fa3817003fa741b7057a51b6", "is_reserved": 0, "name": "8f73c014fa3817003fa741b7057a51b6", "lat": 38.90948933333333, "fusion_lat": 0.0, "lon": -77.027132, "is_disabled": 0, "fusion_lon": 0.0, "rental_uris": {"android": "https://dc.lft.to/lastmile_qr_scan", "ios": "https://dc.lft.to/lastmile_qr_scan"}, "type": "electric_scooter"}, {"bike_id": "ae3b848d98e71514be69e91ffc982aa9", "is_reserved": 0, "name": "ae3b848d98e71514be69e91ffc982aa9", "lat": 38.9467705, "fusion_lat": 0.0, "lon": -76.95671366666667, "is_disabled": 0, "fusion_lon": 0.0, "rental_uris": {"android": "https://dc.lft.to/lastmile_qr_scan", "ios": "https://dc.lft.to/lastmile_qr_scan"}, "type": "electric_bike"}, {"bike_id": "c2673c3e274bbe33bfd20944c4bad25b", "is_reserved": 0, "name": "c2673c3e274bbe33bfd20944c4bad25b", "lat": 38.91702083333333, "fusion_lat": 0.0, "lon": -77.02741633333333, "is_disabled": 0, "fusion_lon": 0.0, "rental_uris": {"android": "https://dc.lft.to/lastmile_qr_scan", "ios": "https://dc.lft.to/lastmile_qr_scan"}, "type": "electric_scooter"}, {"bike_id": "468819a55748e4b7c9ac215e7e057cb0", "is_reserved": 0, "name": "468819a55748e4b7c9ac215e7e057cb0", "lat": 38.932469833333336, "fusion_lat": 0.0, "lon": -77.02973366666667, "is_disabled": 0, "fusion_lon": 0.0, "rental_uris": {"android": "https://dc.lft.to/lastmile_qr_scan", "ios": "https://dc.lft.to/lastmile_qr_scan"}, "type": "electric_scooter"}, {"bike_id": "477d8d87088a5ce70bfa586a24dfe477", "is_reserved": 0, "name": "477d8d87088a5ce70bfa586a24dfe477", "lat": 38.91858333333333, "fusion_lat": 0.0, "lon": -77.04165733333333, "is_disabled": 0, "fusion_lon": 0.0, "rental_uris": {"android": "https://dc.lft.to/lastmile_qr_scan", "ios": "https://dc.lft.to/lastmile_qr_scan"}, "type": "electric_scooter"}, {"bike_id": "c36c65e90f9a460ae57fd1e2b12acfa0", "is_reserved": 0, "name": "c36c65e90f9a460ae57fd1e2b12acfa0", "lat": 38.887348, "fusion_lat": 0.0, "lon": -77.02125033333333, "is_disabled": 0, "fusion_lon": 0.0, "rental_uris": {"android": "https://dc.lft.to/lastmile_qr_scan", "ios": "https://dc.lft.to/lastmile_qr_scan"}, "type": "electric_scooter"}, {"bike_id": "0c98f14c4ef34a9e7656cdc5d6f912b6", "is_reserved": 0, "name": "0c98f14c4ef34a9e7656cdc5d6f912b6", "lat": 38.901107, "fusion_lat": 0.0, "lon": -77.04181883333334, "is_disabled": 0, "fusion_lon": 0.0, "rental_uris": {"android": "https://dc.lft.to/lastmile_qr_scan", "ios": "https://dc.lft.to/lastmile_qr_scan"}, "type": "electric_scooter"}, {"bike_id": "306aa37faf8672398b3eaabffc55b250", "is_reserved": 0, "name": "306aa37faf8672398b3eaabffc55b250", "lat": 38.898898, "fusion_lat": 0.0, "lon": -77.04461, "is_disabled": 0, "fusion_lon": 0.0, "rental_uris": {"android": "https://dc.lft.to/lastmile_qr_scan", "ios": "https://dc.lft.to/lastmile_qr_scan"}, "type": "electric_scooter"}, {"bike_id": "e46f4908c1caa96c44ed835163813708", "is_reserved": 0, "name": "e46f4908c1caa96c44ed835163813708", "lat": 38.9203265, "fusion_lat": 0.0, "lon": -76.98997166666666, "is_disabled": 0, "fusion_lon": 0.0, "rental_uris": {"android": "https://dc.lft.to/lastmile_qr_scan", "ios": "https://dc.lft.to/lastmile_qr_scan"}, "type": "electric_scooter"}, {"bike_id": "a1d17988e68929f1efcc65e6e8993a00", "is_reserved": 0, "name": "a1d17988e68929f1efcc65e6e8993a00", "lat": 38.914098, "fusion_lat": 0.0, "lon": -77.0248265, "is_disabled": 0, "fusion_lon": 0.0, "rental_uris": {"android": "https://dc.lft.to/lastmile_qr_scan", "ios": "https://dc.lft.to/lastmile_qr_scan"}, "type": "electric_scooter"}, {"bike_id": "88d3cf5042a3ccca7afc914578a78572", "is_reserved": 0, "name": "88d3cf5042a3ccca7afc914578a78572", "lat": 38.91696, "fusion_lat": 0.0, "lon": -77.02644083333334, "is_disabled": 0, "fusion_lon": 0.0, "rental_uris": {"android": "https://dc.lft.to/lastmile_qr_scan", "ios": "https://dc.lft.to/lastmile_qr_scan"}, "type": "electric_scooter"}, {"bike_id": "fa91720a99169e471a99ef65755adac0", "is_reserved": 0, "name": "fa91720a99169e471a99ef65755adac0", "lat": 38.907134166666665, "fusion_lat": 0.0, "lon": -77.027152, "is_disabled": 0, "fusion_lon": 0.0, "rental_uris": {"android": "https://dc.lft.to/lastmile_qr_scan", "ios": "https://dc.lft.to/lastmile_qr_scan"}, "type": "electric_scooter"}, {"bike_id": "290c103451093ecb86b354ab65d01d0a", "is_reserved": 0, "name": "290c103451093ecb86b354ab65d01d0a", "lat": 38.90959183333333, "fusion_lat": 0.0, "lon": -77.03289416666667, "is_disabled": 0, "fusion_lon": 0.0, "rental_uris": {"android": "https://dc.lft.to/lastmile_qr_scan", "ios": "https://dc.lft.to/lastmile_qr_scan"}, "type": "electric_scooter"}, {"bike_id": "f432748b03ecba75ecf02ef60e414e70", "is_reserved": 0, "name": "f432748b03ecba75ecf02ef60e414e70", "lat": 38.903468333333336, "fusion_lat": 0.0, "lon": -77.0342865, "is_disabled": 0, "fusion_lon": 0.0, "rental_uris": {"android": "https://dc.lft.to/lastmile_qr_scan", "ios": "https://dc.lft.to/lastmile_qr_scan"}, "type": "electric_scooter"}, {"bike_id": "ce04e3e7d58c3fbcfa5159a851a94085", "is_reserved": 0, "name": "ce04e3e7d58c3fbcfa5159a851a94085", "lat": 38.905776833333334, "fusion_lat": 0.0, "lon": -77.005911, "is_disabled": 0, "fusion_lon": 0.0, "rental_uris": {"android": "https://dc.lft.to/lastmile_qr_scan", "ios": "https://dc.lft.to/lastmile_qr_scan"}, "type": "electric_scooter"}, {"bike_id": "b2d89123aba8f08007fc43a563a8e278", "is_reserved": 0, "name": "b2d89123aba8f08007fc43a563a8e278", "lat": 38.9345035, "fusion_lat": 0.0, "lon": -77.03876533333333, "is_disabled": 0, "fusion_lon": 0.0, "rental_uris": {"android": "https://dc.lft.to/lastmile_qr_scan", "ios": "https://dc.lft.to/lastmile_qr_scan"}, "type": "electric_scooter"}, {"bike_id": "9a0089328ca50a52edbe959a9391de30", "is_reserved": 0, "name": "9a0089328ca50a52edbe959a9391de30", "lat": 38.9623385, "fusion_lat": 0.0, "lon": -76.92794966666666, "is_disabled": 0, "fusion_lon": 0.0, "rental_uris": {"android": "https://dc.lft.to/lastmile_qr_scan", "ios": "https://dc.lft.to/lastmile_qr_scan"}, "type": "electric_bike"}, {"bike_id": "9a85b66ec75970d206c7ea75e9a27638", "is_reserved": 0, "name": "9a85b66ec75970d206c7ea75e9a27638", "lat": 38.92856666666667, "fusion_lat": 0.0, "lon": -77.0328535, "is_disabled": 0, "fusion_lon": 0.0, "rental_uris": {"android": "https://dc.lft.to/lastmile_qr_scan", "ios": "https://dc.lft.to/lastmile_qr_scan"}, "type": "electric_scooter"}, {"bike_id": "f83b4bc15d0b4685f6394490e45cefc2", "is_reserved": 0, "name": "f83b4bc15d0b4685f6394490e45cefc2", "lat": 38.892218166666666, "fusion_lat": 0.0, "lon": -77.04505983333334, "is_disabled": 0, "fusion_lon": 0.0, "rental_uris": {"android": "https://dc.lft.to/lastmile_qr_scan", "ios": "https://dc.lft.to/lastmile_qr_scan"}, "type": "electric_scooter"}, {"bike_id": "7d1011df4900bd3eb068bb521a4b1f3c", "is_reserved": 0, "name": "7d1011df4900bd3eb068bb521a4b1f3c", "lat": 38.89727766666667, "fusion_lat": 0.0, "lon": -77.018668, "is_disabled": 0, "fusion_lon": 0.0, "rental_uris": {"android": "https://dc.lft.to/lastmile_qr_scan", "ios": "https://dc.lft.to/lastmile_qr_scan"}, "type": "electric_scooter"}, {"bike_id": "40e5ac0acda7872ac0356cf10636d296", "is_reserved": 0, "name": "40e5ac0acda7872ac0356cf10636d296", "lat": 38.89721266666667, "fusion_lat": 0.0, "lon": -77.00210633333333, "is_disabled": 0, "fusion_lon": 0.0, "rental_uris": {"android": "https://dc.lft.to/lastmile_qr_scan", "ios": "https://dc.lft.to/lastmile_qr_scan"}, "type": "electric_scooter"}, {"bike_id": "e2bc771bca352e421b464415c939bb78", "is_reserved": 0, "name": "e2bc771bca352e421b464415c939bb78", "lat": 38.90837966666667, "fusion_lat": 0.0, "lon": -77.04410983333334, "is_disabled": 0, "fusion_lon": 0.0, "rental_uris": {"android": "https://dc.lft.to/lastmile_qr_scan", "ios": "https://dc.lft.to/lastmile_qr_scan"}, "type": "electric_bike"}, {"bike_id": "73a927a17776916e80344919fe1ade4c", "is_reserved": 0, "name": "73a927a17776916e80344919fe1ade4c", "lat": 38.90271533333333, "fusion_lat": 0.0, "lon": -77.0385145, "is_disabled": 0, "fusion_lon": 0.0, "rental_uris": {"android": "https://dc.lft.to/lastmile_qr_scan", "ios": "https://dc.lft.to/lastmile_qr_scan"}, "type": "electric_scooter"}, {"bike_id": "a2094979da4926a4a05f4b96241742eb", "is_reserved": 0, "name": "a2094979da4926a4a05f4b96241742eb", "lat": 38.900310166666664, "fusion_lat": 0.0, "lon": -76.99140316666667, "is_disabled": 0, "fusion_lon": 0.0, "rental_uris": {"android": "https://dc.lft.to/lastmile_qr_scan", "ios": "https://dc.lft.to/lastmile_qr_scan"}, "type": "electric_scooter"}, {"bike_id": "bfa953d32a0c65d28037e62817b3effa", "is_reserved": 0, "name": "bfa953d32a0c65d28037e62817b3effa", "lat": 38.887443, "fusion_lat": 0.0, "lon": -77.01778466666667, "is_disabled": 0, "fusion_lon": 0.0, "rental_uris": {"android": "https://dc.lft.to/lastmile_qr_scan", "ios": "https://dc.lft.to/lastmile_qr_scan"}, "type": "electric_scooter"}, {"bike_id": "332df583e6e9e88b608dd7d8b06c92cb", "is_reserved": 0, "name": "332df583e6e9e88b608dd7d8b06c92cb", "lat": 38.902091166666665, "fusion_lat": 0.0, "lon": -77.023699, "is_disabled": 0, "fusion_lon": 0.0, "rental_uris": {"android": "https://dc.lft.to/lastmile_qr_scan", "ios": "https://dc.lft.to/lastmile_qr_scan"}, "type": "electric_scooter"}, {"bike_id": "a53fc1255dffd1a798f83667447657c9", "is_reserved": 0, "name": "a53fc1255dffd1a798f83667447657c9", "lat": 38.90038716666667, "fusion_lat": 0.0, "lon": -77.03500983333333, "is_disabled": 0, "fusion_lon": 0.0, "rental_uris": {"android": "https://dc.lft.to/lastmile_qr_scan", "ios": "https://dc.lft.to/lastmile_qr_scan"}, "type": "electric_scooter"}, {"bike_id": "5fd6540b3a19cfb67b4715f8ab6540bd", "is_reserved": 0, "name": "5fd6540b3a19cfb67b4715f8ab6540bd", "lat": 38.86829516666667, "fusion_lat": 0.0, "lon": -77.01147433333334, "is_disabled": 0, "fusion_lon": 0.0, "rental_uris": {"android": "https://dc.lft.to/lastmile_qr_scan", "ios": "https://dc.lft.to/lastmile_qr_scan"}, "type": "electric_scooter"}, {"bike_id": "3992b56038889c8cbba46fcdf4c40a9f", "is_reserved": 0, "name": "3992b56038889c8cbba46fcdf4c40a9f", "lat": 38.917522, "fusion_lat": 0.0, "lon": -77.02485816666666, "is_disabled": 0, "fusion_lon": 0.0, "rental_uris": {"android": "https://dc.lft.to/lastmile_qr_scan", "ios": "https://dc.lft.to/lastmile_qr_scan"}, "type": "electric_scooter"}, {"bike_id": "6d70f2f6dfcd20565831d718fe767cf3", "is_reserved": 0, "name": "6d70f2f6dfcd20565831d718fe767cf3", "lat": 38.90043566666667, "fusion_lat": 0.0, "lon": -77.03503233333333, "is_disabled": 0, "fusion_lon": 0.0, "rental_uris": {"android": "https://dc.lft.to/lastmile_qr_scan", "ios": "https://dc.lft.to/lastmile_qr_scan"}, "type": "electric_scooter"}, {"bike_id": "6cb7f26d9225a0afd6879663ea7c94ae", "is_reserved": 0, "name": "6cb7f26d9225a0afd6879663ea7c94ae", "lat": 38.895871, "fusion_lat": 0.0, "lon": -76.98314583333334, "is_disabled": 0, "fusion_lon": 0.0, "rental_uris": {"android": "https://dc.lft.to/lastmile_qr_scan", "ios": "https://dc.lft.to/lastmile_qr_scan"}, "type": "electric_scooter"}, {"bike_id": "846af2c473d06ad58d92103c2cd77151", "is_reserved": 0, "name": "846af2c473d06ad58d92103c2cd77151", "lat": 38.925428833333335, "fusion_lat": 0.0, "lon": -77.03493083333333, "is_disabled": 0, "fusion_lon": 0.0, "rental_uris": {"android": "https://dc.lft.to/lastmile_qr_scan", "ios": "https://dc.lft.to/lastmile_qr_scan"}, "type": "electric_scooter"}, {"bike_id": "bb18a26e685d054f25c375aed5153a6b", "is_reserved": 0, "name": "bb18a26e685d054f25c375aed5153a6b", "lat": 38.879374, "fusion_lat": 0.0, "lon": -77.00645383333334, "is_disabled": 0, "fusion_lon": 0.0, "rental_uris": {"android": "https://dc.lft.to/lastmile_qr_scan", "ios": "https://dc.lft.to/lastmile_qr_scan"}, "type": "electric_scooter"}, {"bike_id": "9857efbaca500d374121a90d3bbe2a06", "is_reserved": 0, "name": "9857efbaca500d374121a90d3bbe2a06", "lat": 38.92808483333334, "fusion_lat": 0.0, "lon": -77.03638983333333, "is_disabled": 0, "fusion_lon": 0.0, "rental_uris": {"android": "https://dc.lft.to/lastmile_qr_scan", "ios": "https://dc.lft.to/lastmile_qr_scan"}, "type": "electric_scooter"}, {"bike_id": "610e191eb53006b910d3643434ffb391", "is_reserved": 0, "name": "610e191eb53006b910d3643434ffb391", "lat": 38.93293516666667, "fusion_lat": 0.0, "lon": -77.02851916666667, "is_disabled": 0, "fusion_lon": 0.0, "rental_uris": {"android": "https://dc.lft.to/lastmile_qr_scan", "ios": "https://dc.lft.to/lastmile_qr_scan"}, "type": "electric_scooter"}, {"bike_id": "c209b90fdd0cf099fe418bac06163ed2", "is_reserved": 0, "name": "c209b90fdd0cf099fe418bac06163ed2", "lat": 38.92523766666667, "fusion_lat": 0.0, "lon": -77.02576416666666, "is_disabled": 0, "fusion_lon": 0.0, "rental_uris": {"android": "https://dc.lft.to/lastmile_qr_scan", "ios": "https://dc.lft.to/lastmile_qr_scan"}, "type": "electric_scooter"}, {"bike_id": "92a04918a0c851c3a009322de72646cc", "is_reserved": 0, "name": "92a04918a0c851c3a009322de72646cc", "lat": 38.91706666666666, "fusion_lat": 0.0, "lon": -77.0303875, "is_disabled": 0, "fusion_lon": 0.0, "rental_uris": {"android": "https://dc.lft.to/lastmile_qr_scan", "ios": "https://dc.lft.to/lastmile_qr_scan"}, "type": "electric_scooter"}, {"bike_id": "780a5a5d393c78b19a66777ddc101efd", "is_reserved": 0, "name": "780a5a5d393c78b19a66777ddc101efd", "lat": 38.91699, "fusion_lat": 0.0, "lon": -77.03122266666666, "is_disabled": 0, "fusion_lon": 0.0, "rental_uris": {"android": "https://dc.lft.to/lastmile_qr_scan", "ios": "https://dc.lft.to/lastmile_qr_scan"}, "type": "electric_scooter"}, {"bike_id": "92b2166403395d5ea7d33acbb8b6a65b", "is_reserved": 0, "name": "92b2166403395d5ea7d33acbb8b6a65b", "lat": 38.8960105, "fusion_lat": 0.0, "lon": -77.02353266666667, "is_disabled": 0, "fusion_lon": 0.0, "rental_uris": {"android": "https://dc.lft.to/lastmile_qr_scan", "ios": "https://dc.lft.to/lastmile_qr_scan"}, "type": "electric_scooter"}, {"bike_id": "4a52dc77a0a44750ff078835af6a86cb", "is_reserved": 0, "name": "4a52dc77a0a44750ff078835af6a86cb", "lat": 38.90048983333333, "fusion_lat": 0.0, "lon": -77.00067916666667, "is_disabled": 0, "fusion_lon": 0.0, "rental_uris": {"android": "https://dc.lft.to/lastmile_qr_scan", "ios": "https://dc.lft.to/lastmile_qr_scan"}, "type": "electric_scooter"}, {"bike_id": "2a6f3db085d033504c8d7412181144af", "is_reserved": 0, "name": "2a6f3db085d033504c8d7412181144af", "lat": 38.934756166666666, "fusion_lat": 0.0, "lon": -77.07263066666667, "is_disabled": 0, "fusion_lon": 0.0, "rental_uris": {"android": "https://dc.lft.to/lastmile_qr_scan", "ios": "https://dc.lft.to/lastmile_qr_scan"}, "type": "electric_scooter"}, {"bike_id": "3f88ef7319e336d06ae2b2dac7e8a8e6", "is_reserved": 0, "name": "3f88ef7319e336d06ae2b2dac7e8a8e6", "lat": 38.92359066666667, "fusion_lat": 0.0, "lon": -77.02963, "is_disabled": 0, "fusion_lon": 0.0, "rental_uris": {"android": "https://dc.lft.to/lastmile_qr_scan", "ios": "https://dc.lft.to/lastmile_qr_scan"}, "type": "electric_scooter"}, {"bike_id": "147f077b8b45a05e70074c157adc73e5", "is_reserved": 0, "name": "147f077b8b45a05e70074c157adc73e5", "lat": 38.844256, "fusion_lat": 0.0, "lon": -76.99779333333333, "is_disabled": 0, "fusion_lon": 0.0, "rental_uris": {"android": "https://dc.lft.to/lastmile_qr_scan", "ios": "https://dc.lft.to/lastmile_qr_scan"}, "type": "electric_scooter"}, {"bike_id": "684f683e2fd730f7dba645ef501c2335", "is_reserved": 0, "name": "684f683e2fd730f7dba645ef501c2335", "lat": 38.920345833333336, "fusion_lat": 0.0, "lon": -77.0258435, "is_disabled": 0, "fusion_lon": 0.0, "rental_uris": {"android": "https://dc.lft.to/lastmile_qr_scan", "ios": "https://dc.lft.to/lastmile_qr_scan"}, "type": "electric_scooter"}, {"bike_id": "2a44667a3888920968c3cc69e2f3bb5d", "is_reserved": 0, "name": "2a44667a3888920968c3cc69e2f3bb5d", "lat": 38.912197166666665, "fusion_lat": 0.0, "lon": -77.031903, "is_disabled": 0, "fusion_lon": 0.0, "rental_uris": {"android": "https://dc.lft.to/lastmile_qr_scan", "ios": "https://dc.lft.to/lastmile_qr_scan"}, "type": "electric_scooter"}, {"bike_id": "ac351d079d7aafd12d18812a96f5e79f", "is_reserved": 0, "name": "ac351d079d7aafd12d18812a96f5e79f", "lat": 38.90334433333334, "fusion_lat": 0.0, "lon": -77.05027683333333, "is_disabled": 0, "fusion_lon": 0.0, "rental_uris": {"android": "https://dc.lft.to/lastmile_qr_scan", "ios": "https://dc.lft.to/lastmile_qr_scan"}, "type": "electric_scooter"}, {"bike_id": "198decdf4d2697b2a4bfde11b23fb381", "is_reserved": 0, "name": "198decdf4d2697b2a4bfde11b23fb381", "lat": 38.878731333333334, "fusion_lat": 0.0, "lon": -76.99938516666667, "is_disabled": 0, "fusion_lon": 0.0, "rental_uris": {"android": "https://dc.lft.to/lastmile_qr_scan", "ios": "https://dc.lft.to/lastmile_qr_scan"}, "type": "electric_scooter"}, {"bike_id": "e896b3cf9ff00d38cdf31c65a68446d4", "is_reserved": 0, "name": "e896b3cf9ff00d38cdf31c65a68446d4", "lat": 38.905646, "fusion_lat": 0.0, "lon": -77.0059675, "is_disabled": 0, "fusion_lon": 0.0, "rental_uris": {"android": "https://dc.lft.to/lastmile_qr_scan", "ios": "https://dc.lft.to/lastmile_qr_scan"}, "type": "electric_scooter"}, {"bike_id": "f870caba6306e0d703f907e844a11307", "is_reserved": 0, "name": "f870caba6306e0d703f907e844a11307", "lat": 38.902660833333336, "fusion_lat": 0.0, "lon": -77.04624083333333, "is_disabled": 0, "fusion_lon": 0.0, "rental_uris": {"android": "https://dc.lft.to/lastmile_qr_scan", "ios": "https://dc.lft.to/lastmile_qr_scan"}, "type": "electric_scooter"}, {"bike_id": "8f4c2c578b21e09237668ee9a009a7a6", "is_reserved": 0, "name": "8f4c2c578b21e09237668ee9a009a7a6", "lat": 38.93133866666667, "fusion_lat": 0.0, "lon": -77.03654516666667, "is_disabled": 0, "fusion_lon": 0.0, "rental_uris": {"android": "https://dc.lft.to/lastmile_qr_scan", "ios": "https://dc.lft.to/lastmile_qr_scan"}, "type": "electric_scooter"}, {"bike_id": "c2617890fa6e17287f3724b4cc0d28dd", "is_reserved": 0, "name": "c2617890fa6e17287f3724b4cc0d28dd", "lat": 38.92296783333333, "fusion_lat": 0.0, "lon": -77.04143233333333, "is_disabled": 0, "fusion_lon": 0.0, "rental_uris": {"android": "https://dc.lft.to/lastmile_qr_scan", "ios": "https://dc.lft.to/lastmile_qr_scan"}, "type": "electric_scooter"}, {"bike_id": "85e3ec37a18cb9ce4cf1ac590a7c8935", "is_reserved": 0, "name": "85e3ec37a18cb9ce4cf1ac590a7c8935", "lat": 38.89240216666666, "fusion_lat": 0.0, "lon": -77.03186516666666, "is_disabled": 0, "fusion_lon": 0.0, "rental_uris": {"android": "https://dc.lft.to/lastmile_qr_scan", "ios": "https://dc.lft.to/lastmile_qr_scan"}, "type": "electric_scooter"}, {"bike_id": "181221f6d616b59a1075eb94ea39c510", "is_reserved": 0, "name": "181221f6d616b59a1075eb94ea39c510", "lat": 38.899314, "fusion_lat": 0.0, "lon": -77.01996633333333, "is_disabled": 0, "fusion_lon": 0.0, "rental_uris": {"android": "https://dc.lft.to/lastmile_qr_scan", "ios": "https://dc.lft.to/lastmile_qr_scan"}, "type": "electric_scooter"}, {"bike_id": "16e4124d651214b7d859780e07519e7d", "is_reserved": 0, "name": "16e4124d651214b7d859780e07519e7d", "lat": 38.902835833333334, "fusion_lat": 0.0, "lon": -77.03661966666667, "is_disabled": 0, "fusion_lon": 0.0, "rental_uris": {"android": "https://dc.lft.to/lastmile_qr_scan", "ios": "https://dc.lft.to/lastmile_qr_scan"}, "type": "electric_scooter"}, {"bike_id": "16ddcc06eb3c3c3f540f0f798435fa67", "is_reserved": 0, "name": "16ddcc06eb3c3c3f540f0f798435fa67", "lat": 38.87702916666667, "fusion_lat": 0.0, "lon": -77.00728783333334, "is_disabled": 0, "fusion_lon": 0.0, "rental_uris": {"android": "https://dc.lft.to/lastmile_qr_scan", "ios": "https://dc.lft.to/lastmile_qr_scan"}, "type": "electric_scooter"}, {"bike_id": "c80c4f8c5f1329c6e26ffbbc8861ed67", "is_reserved": 0, "name": "c80c4f8c5f1329c6e26ffbbc8861ed67", "lat": 38.8976755, "fusion_lat": 0.0, "lon": -77.02720633333334, "is_disabled": 0, "fusion_lon": 0.0, "rental_uris": {"android": "https://dc.lft.to/lastmile_qr_scan", "ios": "https://dc.lft.to/lastmile_qr_scan"}, "type": "electric_bike"}, {"bike_id": "5487764b9c249eab2c88836fe882383e", "is_reserved": 0, "name": "5487764b9c249eab2c88836fe882383e", "lat": 38.892286666666664, "fusion_lat": 0.0, "lon": -77.03218516666666, "is_disabled": 0, "fusion_lon": 0.0, "rental_uris": {"android": "https://dc.lft.to/lastmile_qr_scan", "ios": "https://dc.lft.to/lastmile_qr_scan"}, "type": "electric_scooter"}, {"bike_id": "d36a70ffa161fe043957e1ca11ddd4f4", "is_reserved": 0, "name": "d36a70ffa161fe043957e1ca11ddd4f4", "lat": 38.924868000000004, "fusion_lat": 0.0, "lon": -77.02595033333333, "is_disabled": 0, "fusion_lon": 0.0, "rental_uris": {"android": "https://dc.lft.to/lastmile_qr_scan", "ios": "https://dc.lft.to/lastmile_qr_scan"}, "type": "electric_scooter"}, {"bike_id": "6198c714a53bc5e3992975c63e9a34de", "is_reserved": 0, "name": "6198c714a53bc5e3992975c63e9a34de", "lat": 38.88730483333333, "fusion_lat": 0.0, "lon": -77.03216666666667, "is_disabled": 0, "fusion_lon": 0.0, "rental_uris": {"android": "https://dc.lft.to/lastmile_qr_scan", "ios": "https://dc.lft.to/lastmile_qr_scan"}, "type": "electric_scooter"}, {"bike_id": "f97459c33ccd04fb581c205a9903ebf0", "is_reserved": 0, "name": "f97459c33ccd04fb581c205a9903ebf0", "lat": 38.89037583333333, "fusion_lat": 0.0, "lon": -77.02979383333333, "is_disabled": 0, "fusion_lon": 0.0, "rental_uris": {"android": "https://dc.lft.to/lastmile_qr_scan", "ios": "https://dc.lft.to/lastmile_qr_scan"}, "type": "electric_scooter"}, {"bike_id": "09af7df9553c18aea1fb6fad5b53a469", "is_reserved": 0, "name": "09af7df9553c18aea1fb6fad5b53a469", "lat": 38.9011955, "fusion_lat": 0.0, "lon": -77.00213016666666, "is_disabled": 0, "fusion_lon": 0.0, "rental_uris": {"android": "https://dc.lft.to/lastmile_qr_scan", "ios": "https://dc.lft.to/lastmile_qr_scan"}, "type": "electric_scooter"}, {"bike_id": "10c2c703aed73dbdaac79378d20d98dd", "is_reserved": 0, "name": "10c2c703aed73dbdaac79378d20d98dd", "lat": 38.89195816666667, "fusion_lat": 0.0, "lon": -77.02219866666667, "is_disabled": 0, "fusion_lon": 0.0, "rental_uris": {"android": "https://dc.lft.to/lastmile_qr_scan", "ios": "https://dc.lft.to/lastmile_qr_scan"}, "type": "electric_scooter"}, {"bike_id": "69b6c2cb867c40fa454ced79a6833237", "is_reserved": 0, "name": "69b6c2cb867c40fa454ced79a6833237", "lat": 38.930079666666664, "fusion_lat": 0.0, "lon": -77.03249716666667, "is_disabled": 0, "fusion_lon": 0.0, "rental_uris": {"android": "https://dc.lft.to/lastmile_qr_scan", "ios": "https://dc.lft.to/lastmile_qr_scan"}, "type": "electric_scooter"}, {"bike_id": "3b97dcf0367194c3436b0e06203ec117", "is_reserved": 0, "name": "3b97dcf0367194c3436b0e06203ec117", "lat": 38.9006255, "fusion_lat": 0.0, "lon": -76.927421, "is_disabled": 0, "fusion_lon": 0.0, "rental_uris": {"android": "https://dc.lft.to/lastmile_qr_scan", "ios": "https://dc.lft.to/lastmile_qr_scan"}, "type": "electric_scooter"}, {"bike_id": "6f16d8983c8eb5a8dcfa6436a0924891", "is_reserved": 0, "name": "6f16d8983c8eb5a8dcfa6436a0924891", "lat": 38.8076285, "fusion_lat": 0.0, "lon": -77.12983333333334, "is_disabled": 0, "fusion_lon": 0.0, "rental_uris": {"android": "https://dc.lft.to/lastmile_qr_scan", "ios": "https://dc.lft.to/lastmile_qr_scan"}, "type": "electric_bike"}, {"bike_id": "e6bc7464b2c10a4959cf44b393dd7bcd", "is_reserved": 0, "name": "e6bc7464b2c10a4959cf44b393dd7bcd", "lat": 38.887331833333334, "fusion_lat": 0.0, "lon": -77.015122, "is_disabled": 0, "fusion_lon": 0.0, "rental_uris": {"android": "https://dc.lft.to/lastmile_qr_scan", "ios": "https://dc.lft.to/lastmile_qr_scan"}, "type": "electric_scooter"}, {"bike_id": "c0a65b32accfe4bf8fe6afd657078492", "is_reserved": 0, "name": "c0a65b32accfe4bf8fe6afd657078492", "lat": 38.887692, "fusion_lat": 0.0, "lon": -77.02363533333333, "is_disabled": 0, "fusion_lon": 0.0, "rental_uris": {"android": "https://dc.lft.to/lastmile_qr_scan", "ios": "https://dc.lft.to/lastmile_qr_scan"}, "type": "electric_scooter"}, {"bike_id": "d5bf5ece7491070842aac85a8ff45a1e", "is_reserved": 0, "name": "d5bf5ece7491070842aac85a8ff45a1e", "lat": 38.8753495, "fusion_lat": 0.0, "lon": -77.00512083333334, "is_disabled": 0, "fusion_lon": 0.0, "rental_uris": {"android": "https://dc.lft.to/lastmile_qr_scan", "ios": "https://dc.lft.to/lastmile_qr_scan"}, "type": "electric_scooter"}, {"bike_id": "3bdf79825fb469fad6aa5cacc95fc8ed", "is_reserved": 0, "name": "3bdf79825fb469fad6aa5cacc95fc8ed", "lat": 38.89542866666667, "fusion_lat": 0.0, "lon": -76.94955866666666, "is_disabled": 0, "fusion_lon": 0.0, "rental_uris": {"android": "https://dc.lft.to/lastmile_qr_scan", "ios": "https://dc.lft.to/lastmile_qr_scan"}, "type": "electric_scooter"}, {"bike_id": "dd9e9b3292da08dbed8c1f8313977dd8", "is_reserved": 0, "name": "dd9e9b3292da08dbed8c1f8313977dd8", "lat": 38.937005166666665, "fusion_lat": 0.0, "lon": -77.05591666666666, "is_disabled": 0, "fusion_lon": 0.0, "rental_uris": {"android": "https://dc.lft.to/lastmile_qr_scan", "ios": "https://dc.lft.to/lastmile_qr_scan"}, "type": "electric_scooter"}, {"bike_id": "a0920b0a1f75f08a5952ada12c9d906e", "is_reserved": 0, "name": "a0920b0a1f75f08a5952ada12c9d906e", "lat": 38.911118, "fusion_lat": 0.0, "lon": -77.04540533333333, "is_disabled": 0, "fusion_lon": 0.0, "rental_uris": {"android": "https://dc.lft.to/lastmile_qr_scan", "ios": "https://dc.lft.to/lastmile_qr_scan"}, "type": "electric_scooter"}, {"bike_id": "f7d11d9ec5c2fccb7a6a86d09c619c73", "is_reserved": 0, "name": "f7d11d9ec5c2fccb7a6a86d09c619c73", "lat": 38.900312666666665, "fusion_lat": 0.0, "lon": -76.991373, "is_disabled": 0, "fusion_lon": 0.0, "rental_uris": {"android": "https://dc.lft.to/lastmile_qr_scan", "ios": "https://dc.lft.to/lastmile_qr_scan"}, "type": "electric_scooter"}, {"bike_id": "905d656e0351846a589cffc2780ca194", "is_reserved": 0, "name": "905d656e0351846a589cffc2780ca194", "lat": 38.95087933333333, "fusion_lat": 0.0, "lon": -76.99794516666667, "is_disabled": 0, "fusion_lon": 0.0, "rental_uris": {"android": "https://dc.lft.to/lastmile_qr_scan", "ios": "https://dc.lft.to/lastmile_qr_scan"}, "type": "electric_bike"}, {"bike_id": "a239407535c65f53210c34c01895e722", "is_reserved": 0, "name": "a239407535c65f53210c34c01895e722", "lat": 38.8955585, "fusion_lat": 0.0, "lon": -76.94872566666666, "is_disabled": 0, "fusion_lon": 0.0, "rental_uris": {"android": "https://dc.lft.to/lastmile_qr_scan", "ios": "https://dc.lft.to/lastmile_qr_scan"}, "type": "electric_scooter"}, {"bike_id": "b86f2d1dad350ef4d49938b0dfc0e195", "is_reserved": 0, "name": "b86f2d1dad350ef4d49938b0dfc0e195", "lat": 38.927555, "fusion_lat": 0.0, "lon": -77.02427883333333, "is_disabled": 0, "fusion_lon": 0.0, "rental_uris": {"android": "https://dc.lft.to/lastmile_qr_scan", "ios": "https://dc.lft.to/lastmile_qr_scan"}, "type": "electric_scooter"}, {"bike_id": "a5dee402f55344d1eb8ab848a6c637f8", "is_reserved": 0, "name": "a5dee402f55344d1eb8ab848a6c637f8", "lat": 38.936922, "fusion_lat": 0.0, "lon": -76.99063316666667, "is_disabled": 0, "fusion_lon": 0.0, "rental_uris": {"android": "https://dc.lft.to/lastmile_qr_scan", "ios": "https://dc.lft.to/lastmile_qr_scan"}, "type": "electric_bike"}, {"bike_id": "f822f3bca21cfd2f68e9fe05bf3fd944", "is_reserved": 0, "name": "f822f3bca21cfd2f68e9fe05bf3fd944", "lat": 38.90415, "fusion_lat": 0.0, "lon": -77.046604, "is_disabled": 0, "fusion_lon": 0.0, "rental_uris": {"android": "https://dc.lft.to/lastmile_qr_scan", "ios": "https://dc.lft.to/lastmile_qr_scan"}, "type": "electric_scooter"}, {"bike_id": "ab2f5a08833f113dc0f983c91b1eb603", "is_reserved": 0, "name": "ab2f5a08833f113dc0f983c91b1eb603", "lat": 38.89042333333333, "fusion_lat": 0.0, "lon": -77.01506066666667, "is_disabled": 0, "fusion_lon": 0.0, "rental_uris": {"android": "https://dc.lft.to/lastmile_qr_scan", "ios": "https://dc.lft.to/lastmile_qr_scan"}, "type": "electric_scooter"}, {"bike_id": "c997c5bbb18fd23a0ba67700134bfae0", "is_reserved": 0, "name": "c997c5bbb18fd23a0ba67700134bfae0", "lat": 38.918183, "fusion_lat": 0.0, "lon": -77.03251583333333, "is_disabled": 0, "fusion_lon": 0.0, "rental_uris": {"android": "https://dc.lft.to/lastmile_qr_scan", "ios": "https://dc.lft.to/lastmile_qr_scan"}, "type": "electric_scooter"}, {"bike_id": "522d418f5131a4248d6372b1c5a5b26f", "is_reserved": 0, "name": "522d418f5131a4248d6372b1c5a5b26f", "lat": 38.898055666666664, "fusion_lat": 0.0, "lon": -77.0294175, "is_disabled": 0, "fusion_lon": 0.0, "rental_uris": {"android": "https://dc.lft.to/lastmile_qr_scan", "ios": "https://dc.lft.to/lastmile_qr_scan"}, "type": "electric_scooter"}, {"bike_id": "bde5c5e046eac3b7c8498ae3e630451b", "is_reserved": 0, "name": "bde5c5e046eac3b7c8498ae3e630451b", "lat": 38.896271, "fusion_lat": 0.0, "lon": -77.04422766666667, "is_disabled": 0, "fusion_lon": 0.0, "rental_uris": {"android": "https://dc.lft.to/lastmile_qr_scan", "ios": "https://dc.lft.to/lastmile_qr_scan"}, "type": "electric_scooter"}, {"bike_id": "5b10cab2862c8c5c3f1cf4cbf8a8bbf4", "is_reserved": 0, "name": "5b10cab2862c8c5c3f1cf4cbf8a8bbf4", "lat": 38.92612333333334, "fusion_lat": 0.0, "lon": -77.07569616666666, "is_disabled": 0, "fusion_lon": 0.0, "rental_uris": {"android": "https://dc.lft.to/lastmile_qr_scan", "ios": "https://dc.lft.to/lastmile_qr_scan"}, "type": "electric_scooter"}, {"bike_id": "bce96e5240a5b560f7d997ae193c7527", "is_reserved": 0, "name": "bce96e5240a5b560f7d997ae193c7527", "lat": 38.91050166666667, "fusion_lat": 0.0, "lon": -77.04381533333333, "is_disabled": 0, "fusion_lon": 0.0, "rental_uris": {"android": "https://dc.lft.to/lastmile_qr_scan", "ios": "https://dc.lft.to/lastmile_qr_scan"}, "type": "electric_scooter"}, {"bike_id": "73f736504273f60f2cd8de65d2f8a240", "is_reserved": 0, "name": "73f736504273f60f2cd8de65d2f8a240", "lat": 38.91710333333333, "fusion_lat": 0.0, "lon": -77.04073316666667, "is_disabled": 0, "fusion_lon": 0.0, "rental_uris": {"android": "https://dc.lft.to/lastmile_qr_scan", "ios": "https://dc.lft.to/lastmile_qr_scan"}, "type": "electric_scooter"}, {"bike_id": "3e1f3c3359854d636c2f82b9b6d8b8ce", "is_reserved": 0, "name": "3e1f3c3359854d636c2f82b9b6d8b8ce", "lat": 38.89672783333333, "fusion_lat": 0.0, "lon": -77.01172033333333, "is_disabled": 0, "fusion_lon": 0.0, "rental_uris": {"android": "https://dc.lft.to/lastmile_qr_scan", "ios": "https://dc.lft.to/lastmile_qr_scan"}, "type": "electric_scooter"}, {"bike_id": "a4d8192350afecc7368f9faaf274b7df", "is_reserved": 0, "name": "a4d8192350afecc7368f9faaf274b7df", "lat": 38.90376033333333, "fusion_lat": 0.0, "lon": -77.038716, "is_disabled": 0, "fusion_lon": 0.0, "rental_uris": {"android": "https://dc.lft.to/lastmile_qr_scan", "ios": "https://dc.lft.to/lastmile_qr_scan"}, "type": "electric_scooter"}, {"bike_id": "d2cc60dfa6c7d5db115f3507962f5db7", "is_reserved": 0, "name": "d2cc60dfa6c7d5db115f3507962f5db7", "lat": 38.92845916666667, "fusion_lat": 0.0, "lon": -77.01358483333334, "is_disabled": 0, "fusion_lon": 0.0, "rental_uris": {"android": "https://dc.lft.to/lastmile_qr_scan", "ios": "https://dc.lft.to/lastmile_qr_scan"}, "type": "electric_scooter"}, {"bike_id": "d67bd165c2d96649aec2e02d545c2d36", "is_reserved": 0, "name": "d67bd165c2d96649aec2e02d545c2d36", "lat": 38.922989333333334, "fusion_lat": 0.0, "lon": -77.0232865, "is_disabled": 0, "fusion_lon": 0.0, "rental_uris": {"android": "https://dc.lft.to/lastmile_qr_scan", "ios": "https://dc.lft.to/lastmile_qr_scan"}, "type": "electric_scooter"}, {"bike_id": "8c7adba3ed2d3bb903e5cbea02772c9b", "is_reserved": 0, "name": "8c7adba3ed2d3bb903e5cbea02772c9b", "lat": 38.901118833333335, "fusion_lat": 0.0, "lon": -76.9742435, "is_disabled": 0, "fusion_lon": 0.0, "rental_uris": {"android": "https://dc.lft.to/lastmile_qr_scan", "ios": "https://dc.lft.to/lastmile_qr_scan"}, "type": "electric_scooter"}, {"bike_id": "9bdaa52e469c31f2094178502e514fc1", "is_reserved": 0, "name": "9bdaa52e469c31f2094178502e514fc1", "lat": 38.9127115, "fusion_lat": 0.0, "lon": -77.03296966666667, "is_disabled": 0, "fusion_lon": 0.0, "rental_uris": {"android": "https://dc.lft.to/lastmile_qr_scan", "ios": "https://dc.lft.to/lastmile_qr_scan"}, "type": "electric_scooter"}, {"bike_id": "0378f8abe233d3ddbb7e7bad37468321", "is_reserved": 0, "name": "0378f8abe233d3ddbb7e7bad37468321", "lat": 38.90816483333333, "fusion_lat": 0.0, "lon": -77.03446866666667, "is_disabled": 0, "fusion_lon": 0.0, "rental_uris": {"android": "https://dc.lft.to/lastmile_qr_scan", "ios": "https://dc.lft.to/lastmile_qr_scan"}, "type": "electric_scooter"}, {"bike_id": "19e32fa3d0bc5f88715e843994ce3814", "is_reserved": 0, "name": "19e32fa3d0bc5f88715e843994ce3814", "lat": 38.91944733333333, "fusion_lat": 0.0, "lon": -77.02496883333333, "is_disabled": 0, "fusion_lon": 0.0, "rental_uris": {"android": "https://dc.lft.to/lastmile_qr_scan", "ios": "https://dc.lft.to/lastmile_qr_scan"}, "type": "electric_scooter"}, {"bike_id": "5850597d20d75a53145e5555296c52cd", "is_reserved": 0, "name": "5850597d20d75a53145e5555296c52cd", "lat": 38.922634333333335, "fusion_lat": 0.0, "lon": -77.018709, "is_disabled": 0, "fusion_lon": 0.0, "rental_uris": {"android": "https://dc.lft.to/lastmile_qr_scan", "ios": "https://dc.lft.to/lastmile_qr_scan"}, "type": "electric_scooter"}, {"bike_id": "c7514023fa3f83703d728a5209f60109", "is_reserved": 0, "name": "c7514023fa3f83703d728a5209f60109", "lat": 38.905942, "fusion_lat": 0.0, "lon": -77.0432335, "is_disabled": 0, "fusion_lon": 0.0, "rental_uris": {"android": "https://dc.lft.to/lastmile_qr_scan", "ios": "https://dc.lft.to/lastmile_qr_scan"}, "type": "electric_scooter"}, {"bike_id": "5960504630b2a18c8690c48e338789d3", "is_reserved": 0, "name": "5960504630b2a18c8690c48e338789d3", "lat": 38.961659166666664, "fusion_lat": 0.0, "lon": -77.03226316666667, "is_disabled": 0, "fusion_lon": 0.0, "rental_uris": {"android": "https://dc.lft.to/lastmile_qr_scan", "ios": "https://dc.lft.to/lastmile_qr_scan"}, "type": "electric_bike"}, {"bike_id": "34113df0262b3b4c9ba901d896d981b5", "is_reserved": 0, "name": "34113df0262b3b4c9ba901d896d981b5", "lat": 38.9187205, "fusion_lat": 0.0, "lon": -76.96400566666667, "is_disabled": 0, "fusion_lon": 0.0, "rental_uris": {"android": "https://dc.lft.to/lastmile_qr_scan", "ios": "https://dc.lft.to/lastmile_qr_scan"}, "type": "electric_scooter"}, {"bike_id": "40c07594546a30882609aa4d3968b9af", "is_reserved": 0, "name": "40c07594546a30882609aa4d3968b9af", "lat": 38.91271033333334, "fusion_lat": 0.0, "lon": -77.02233133333333, "is_disabled": 0, "fusion_lon": 0.0, "rental_uris": {"android": "https://dc.lft.to/lastmile_qr_scan", "ios": "https://dc.lft.to/lastmile_qr_scan"}, "type": "electric_scooter"}, {"bike_id": "4c51fcd7b65e80e298b9106a2c1750e9", "is_reserved": 0, "name": "4c51fcd7b65e80e298b9106a2c1750e9", "lat": 38.9080305, "fusion_lat": 0.0, "lon": -77.04155366666667, "is_disabled": 0, "fusion_lon": 0.0, "rental_uris": {"android": "https://dc.lft.to/lastmile_qr_scan", "ios": "https://dc.lft.to/lastmile_qr_scan"}, "type": "electric_scooter"}, {"bike_id": "a2b23638a9f9b1d21249aab7671613e5", "is_reserved": 0, "name": "a2b23638a9f9b1d21249aab7671613e5", "lat": 38.930740666666665, "fusion_lat": 0.0, "lon": -77.03157483333334, "is_disabled": 0, "fusion_lon": 0.0, "rental_uris": {"android": "https://dc.lft.to/lastmile_qr_scan", "ios": "https://dc.lft.to/lastmile_qr_scan"}, "type": "electric_scooter"}, {"bike_id": "a95d91b548ab08edfc65e00c2b1edacb", "is_reserved": 0, "name": "a95d91b548ab08edfc65e00c2b1edacb", "lat": 38.88745883333333, "fusion_lat": 0.0, "lon": -76.998474, "is_disabled": 0, "fusion_lon": 0.0, "rental_uris": {"android": "https://dc.lft.to/lastmile_qr_scan", "ios": "https://dc.lft.to/lastmile_qr_scan"}, "type": "electric_scooter"}, {"bike_id": "ef166b55eb8552d77e51ebf1f8bd713b", "is_reserved": 0, "name": "ef166b55eb8552d77e51ebf1f8bd713b", "lat": 38.97199033333333, "fusion_lat": 0.0, "lon": -77.02713833333334, "is_disabled": 0, "fusion_lon": 0.0, "rental_uris": {"android": "https://dc.lft.to/lastmile_qr_scan", "ios": "https://dc.lft.to/lastmile_qr_scan"}, "type": "electric_bike"}, {"bike_id": "7096d87ca8de11a93cdfe5d0c8ae873a", "is_reserved": 0, "name": "7096d87ca8de11a93cdfe5d0c8ae873a", "lat": 38.9096775, "fusion_lat": 0.0, "lon": -77.03941316666666, "is_disabled": 0, "fusion_lon": 0.0, "rental_uris": {"android": "https://dc.lft.to/lastmile_qr_scan", "ios": "https://dc.lft.to/lastmile_qr_scan"}, "type": "electric_scooter"}, {"bike_id": "27d4b2e014d6d05dcc6700fce2e711e7", "is_reserved": 0, "name": "27d4b2e014d6d05dcc6700fce2e711e7", "lat": 38.883999833333334, "fusion_lat": 0.0, "lon": -77.02979483333333, "is_disabled": 0, "fusion_lon": 0.0, "rental_uris": {"android": "https://dc.lft.to/lastmile_qr_scan", "ios": "https://dc.lft.to/lastmile_qr_scan"}, "type": "electric_scooter"}, {"bike_id": "c772e8188695c5831e71ddb96dee3f1c", "is_reserved": 0, "name": "c772e8188695c5831e71ddb96dee3f1c", "lat": 38.86205983333333, "fusion_lat": 0.0, "lon": -76.9953195, "is_disabled": 0, "fusion_lon": 0.0, "rental_uris": {"android": "https://dc.lft.to/lastmile_qr_scan", "ios": "https://dc.lft.to/lastmile_qr_scan"}, "type": "electric_bike"}, {"bike_id": "a89e9485ff0954e9f95e3c3023c584d0", "is_reserved": 0, "name": "a89e9485ff0954e9f95e3c3023c584d0", "lat": 38.92994316666667, "fusion_lat": 0.0, "lon": -77.037988, "is_disabled": 0, "fusion_lon": 0.0, "rental_uris": {"android": "https://dc.lft.to/lastmile_qr_scan", "ios": "https://dc.lft.to/lastmile_qr_scan"}, "type": "electric_scooter"}, {"bike_id": "a681672eb95bf27338593f849f8a2f72", "is_reserved": 0, "name": "a681672eb95bf27338593f849f8a2f72", "lat": 38.90375683333333, "fusion_lat": 0.0, "lon": -77.05066583333333, "is_disabled": 0, "fusion_lon": 0.0, "rental_uris": {"android": "https://dc.lft.to/lastmile_qr_scan", "ios": "https://dc.lft.to/lastmile_qr_scan"}, "type": "electric_scooter"}, {"bike_id": "7188bca28f53a1f4aa6ab56df51045a9", "is_reserved": 0, "name": "7188bca28f53a1f4aa6ab56df51045a9", "lat": 38.899944833333336, "fusion_lat": 0.0, "lon": -77.02413616666666, "is_disabled": 0, "fusion_lon": 0.0, "rental_uris": {"android": "https://dc.lft.to/lastmile_qr_scan", "ios": "https://dc.lft.to/lastmile_qr_scan"}, "type": "electric_scooter"}, {"bike_id": "883c03c6be37afa1cf160da4cb83819d", "is_reserved": 0, "name": "883c03c6be37afa1cf160da4cb83819d", "lat": 38.8873825, "fusion_lat": 0.0, "lon": -77.00348383333333, "is_disabled": 0, "fusion_lon": 0.0, "rental_uris": {"android": "https://dc.lft.to/lastmile_qr_scan", "ios": "https://dc.lft.to/lastmile_qr_scan"}, "type": "electric_scooter"}, {"bike_id": "2b141e3f3512ad2adc802f18ca63a056", "is_reserved": 0, "name": "2b141e3f3512ad2adc802f18ca63a056", "lat": 38.8872775, "fusion_lat": 0.0, "lon": -76.9835835, "is_disabled": 0, "fusion_lon": 0.0, "rental_uris": {"android": "https://dc.lft.to/lastmile_qr_scan", "ios": "https://dc.lft.to/lastmile_qr_scan"}, "type": "electric_scooter"}, {"bike_id": "fc3b016f1d8a15b40aac46e0fd92b7d5", "is_reserved": 0, "name": "fc3b016f1d8a15b40aac46e0fd92b7d5", "lat": 38.91878916666667, "fusion_lat": 0.0, "lon": -77.04185166666667, "is_disabled": 0, "fusion_lon": 0.0, "rental_uris": {"android": "https://dc.lft.to/lastmile_qr_scan", "ios": "https://dc.lft.to/lastmile_qr_scan"}, "type": "electric_scooter"}, {"bike_id": "96c6fa156ad986af2a0acef41d5f8b1a", "is_reserved": 0, "name": "96c6fa156ad986af2a0acef41d5f8b1a", "lat": 38.906692166666666, "fusion_lat": 0.0, "lon": -77.01065733333333, "is_disabled": 0, "fusion_lon": 0.0, "rental_uris": {"android": "https://dc.lft.to/lastmile_qr_scan", "ios": "https://dc.lft.to/lastmile_qr_scan"}, "type": "electric_scooter"}, {"bike_id": "7e5bce2d1f7cb8012369fdbe9d896326", "is_reserved": 0, "name": "7e5bce2d1f7cb8012369fdbe9d896326", "lat": 38.893827333333334, "fusion_lat": 0.0, "lon": -76.92310316666666, "is_disabled": 0, "fusion_lon": 0.0, "rental_uris": {"android": "https://dc.lft.to/lastmile_qr_scan", "ios": "https://dc.lft.to/lastmile_qr_scan"}, "type": "electric_scooter"}, {"bike_id": "4bd843b7259f274a4bada8bd185be929", "is_reserved": 0, "name": "4bd843b7259f274a4bada8bd185be929", "lat": 38.905747833333336, "fusion_lat": 0.0, "lon": -77.00599733333334, "is_disabled": 0, "fusion_lon": 0.0, "rental_uris": {"android": "https://dc.lft.to/lastmile_qr_scan", "ios": "https://dc.lft.to/lastmile_qr_scan"}, "type": "electric_scooter"}, {"bike_id": "f9ed0c5dcec3dca1fc1735ae63d5bc7a", "is_reserved": 0, "name": "f9ed0c5dcec3dca1fc1735ae63d5bc7a", "lat": 38.95359716666667, "fusion_lat": 0.0, "lon": -76.980991, "is_disabled": 0, "fusion_lon": 0.0, "rental_uris": {"android": "https://dc.lft.to/lastmile_qr_scan", "ios": "https://dc.lft.to/lastmile_qr_scan"}, "type": "electric_bike"}, {"bike_id": "38487b88cc363f6e4917e54e9e35e03d", "is_reserved": 0, "name": "38487b88cc363f6e4917e54e9e35e03d", "lat": 38.900318666666664, "fusion_lat": 0.0, "lon": -76.99838233333334, "is_disabled": 0, "fusion_lon": 0.0, "rental_uris": {"android": "https://dc.lft.to/lastmile_qr_scan", "ios": "https://dc.lft.to/lastmile_qr_scan"}, "type": "electric_scooter"}, {"bike_id": "d6dcf427404ef65c7dea700280a11cc2", "is_reserved": 0, "name": "d6dcf427404ef65c7dea700280a11cc2", "lat": 38.8951825, "fusion_lat": 0.0, "lon": -77.00362966666667, "is_disabled": 0, "fusion_lon": 0.0, "rental_uris": {"android": "https://dc.lft.to/lastmile_qr_scan", "ios": "https://dc.lft.to/lastmile_qr_scan"}, "type": "electric_scooter"}, {"bike_id": "50760bb71fd59417c0c596d7c3b9afb8", "is_reserved": 0, "name": "50760bb71fd59417c0c596d7c3b9afb8", "lat": 38.91799616666667, "fusion_lat": 0.0, "lon": -77.027083, "is_disabled": 0, "fusion_lon": 0.0, "rental_uris": {"android": "https://dc.lft.to/lastmile_qr_scan", "ios": "https://dc.lft.to/lastmile_qr_scan"}, "type": "electric_scooter"}, {"bike_id": "e2941d66f2367cf713d9f7a40b1c5548", "is_reserved": 0, "name": "e2941d66f2367cf713d9f7a40b1c5548", "lat": 38.94271916666667, "fusion_lat": 0.0, "lon": -76.9945235, "is_disabled": 0, "fusion_lon": 0.0, "rental_uris": {"android": "https://dc.lft.to/lastmile_qr_scan", "ios": "https://dc.lft.to/lastmile_qr_scan"}, "type": "electric_scooter"}, {"bike_id": "cfab10cc57ea6e6312840b86cef7b4b1", "is_reserved": 0, "name": "cfab10cc57ea6e6312840b86cef7b4b1", "lat": 38.9020895, "fusion_lat": 0.0, "lon": -77.02350516666667, "is_disabled": 0, "fusion_lon": 0.0, "rental_uris": {"android": "https://dc.lft.to/lastmile_qr_scan", "ios": "https://dc.lft.to/lastmile_qr_scan"}, "type": "electric_scooter"}, {"bike_id": "6813f265064c08d9f73c61722b737121", "is_reserved": 0, "name": "6813f265064c08d9f73c61722b737121", "lat": 38.923425, "fusion_lat": 0.0, "lon": -77.05179983333333, "is_disabled": 0, "fusion_lon": 0.0, "rental_uris": {"android": "https://dc.lft.to/lastmile_qr_scan", "ios": "https://dc.lft.to/lastmile_qr_scan"}, "type": "electric_scooter"}, {"bike_id": "313250b0a095b28b863f18279a97cfa8", "is_reserved": 0, "name": "313250b0a095b28b863f18279a97cfa8", "lat": 38.84095966666667, "fusion_lat": 0.0, "lon": -77.10704583333333, "is_disabled": 0, "fusion_lon": 0.0, "rental_uris": {"android": "https://dc.lft.to/lastmile_qr_scan", "ios": "https://dc.lft.to/lastmile_qr_scan"}, "type": "electric_bike"}, {"bike_id": "5e388febe00f93e5662cdec4ded57376", "is_reserved": 0, "name": "5e388febe00f93e5662cdec4ded57376", "lat": 38.89725166666667, "fusion_lat": 0.0, "lon": -77.00207633333333, "is_disabled": 0, "fusion_lon": 0.0, "rental_uris": {"android": "https://dc.lft.to/lastmile_qr_scan", "ios": "https://dc.lft.to/lastmile_qr_scan"}, "type": "electric_scooter"}, {"bike_id": "f5b536a81af47309d0f25c8b7192c1c3", "is_reserved": 0, "name": "f5b536a81af47309d0f25c8b7192c1c3", "lat": 38.900355833333336, "fusion_lat": 0.0, "lon": -77.00215183333333, "is_disabled": 0, "fusion_lon": 0.0, "rental_uris": {"android": "https://dc.lft.to/lastmile_qr_scan", "ios": "https://dc.lft.to/lastmile_qr_scan"}, "type": "electric_scooter"}, {"bike_id": "2f617e3d8f4eb4db7a872811aa2b9395", "is_reserved": 0, "name": "2f617e3d8f4eb4db7a872811aa2b9395", "lat": 38.923440666666664, "fusion_lat": 0.0, "lon": -77.05178366666667, "is_disabled": 0, "fusion_lon": 0.0, "rental_uris": {"android": "https://dc.lft.to/lastmile_qr_scan", "ios": "https://dc.lft.to/lastmile_qr_scan"}, "type": "electric_scooter"}, {"bike_id": "b4dedb4cc61b28e3ea265bf621159869", "is_reserved": 0, "name": "b4dedb4cc61b28e3ea265bf621159869", "lat": 38.88312233333333, "fusion_lat": 0.0, "lon": -77.01380533333334, "is_disabled": 0, "fusion_lon": 0.0, "rental_uris": {"android": "https://dc.lft.to/lastmile_qr_scan", "ios": "https://dc.lft.to/lastmile_qr_scan"}, "type": "electric_scooter"}, {"bike_id": "0d9927c489920fe941d4c2d3d36628be", "is_reserved": 0, "name": "0d9927c489920fe941d4c2d3d36628be", "lat": 38.900047666666666, "fusion_lat": 0.0, "lon": -77.054237, "is_disabled": 0, "fusion_lon": 0.0, "rental_uris": {"android": "https://dc.lft.to/lastmile_qr_scan", "ios": "https://dc.lft.to/lastmile_qr_scan"}, "type": "electric_scooter"}, {"bike_id": "d09548ffff4332745d4096bd521f82ce", "is_reserved": 0, "name": "d09548ffff4332745d4096bd521f82ce", "lat": 38.9078085, "fusion_lat": 0.0, "lon": -77.0449395, "is_disabled": 0, "fusion_lon": 0.0, "rental_uris": {"android": "https://dc.lft.to/lastmile_qr_scan", "ios": "https://dc.lft.to/lastmile_qr_scan"}, "type": "electric_scooter"}, {"bike_id": "975e6e4e83df0aa585e0fb74b3897881", "is_reserved": 0, "name": "975e6e4e83df0aa585e0fb74b3897881", "lat": 38.9236395, "fusion_lat": 0.0, "lon": -77.02111916666667, "is_disabled": 0, "fusion_lon": 0.0, "rental_uris": {"android": "https://dc.lft.to/lastmile_qr_scan", "ios": "https://dc.lft.to/lastmile_qr_scan"}, "type": "electric_scooter"}, {"bike_id": "d46890a883394d3c36cf7e606e57e45a", "is_reserved": 0, "name": "d46890a883394d3c36cf7e606e57e45a", "lat": 38.90505616666667, "fusion_lat": 0.0, "lon": -77.0507265, "is_disabled": 0, "fusion_lon": 0.0, "rental_uris": {"android": "https://dc.lft.to/lastmile_qr_scan", "ios": "https://dc.lft.to/lastmile_qr_scan"}, "type": "electric_scooter"}, {"bike_id": "5d9d1d5d6cc656e52b8e8bed290961c6", "is_reserved": 0, "name": "5d9d1d5d6cc656e52b8e8bed290961c6", "lat": 38.90224033333333, "fusion_lat": 0.0, "lon": -77.01611983333333, "is_disabled": 0, "fusion_lon": 0.0, "rental_uris": {"android": "https://dc.lft.to/lastmile_qr_scan", "ios": "https://dc.lft.to/lastmile_qr_scan"}, "type": "electric_scooter"}, {"bike_id": "73932985d428987ab6e9e1d36c59b68c", "is_reserved": 0, "name": "73932985d428987ab6e9e1d36c59b68c", "lat": 38.871792666666664, "fusion_lat": 0.0, "lon": -77.00605983333334, "is_disabled": 0, "fusion_lon": 0.0, "rental_uris": {"android": "https://dc.lft.to/lastmile_qr_scan", "ios": "https://dc.lft.to/lastmile_qr_scan"}, "type": "electric_scooter"}, {"bike_id": "92e3e41c2bdf9b41f0a80b270d133f27", "is_reserved": 0, "name": "92e3e41c2bdf9b41f0a80b270d133f27", "lat": 38.91686333333333, "fusion_lat": 0.0, "lon": -77.0238645, "is_disabled": 0, "fusion_lon": 0.0, "rental_uris": {"android": "https://dc.lft.to/lastmile_qr_scan", "ios": "https://dc.lft.to/lastmile_qr_scan"}, "type": "electric_scooter"}, {"bike_id": "c291e482e54bdbf5b4692792dbfcae1a", "is_reserved": 0, "name": "c291e482e54bdbf5b4692792dbfcae1a", "lat": 38.899355, "fusion_lat": 0.0, "lon": -77.019953, "is_disabled": 0, "fusion_lon": 0.0, "rental_uris": {"android": "https://dc.lft.to/lastmile_qr_scan", "ios": "https://dc.lft.to/lastmile_qr_scan"}, "type": "electric_scooter"}, {"bike_id": "20cdefe7887eac17c56e4c624c2f46ea", "is_reserved": 0, "name": "20cdefe7887eac17c56e4c624c2f46ea", "lat": 38.9040875, "fusion_lat": 0.0, "lon": -77.0626975, "is_disabled": 0, "fusion_lon": 0.0, "rental_uris": {"android": "https://dc.lft.to/lastmile_qr_scan", "ios": "https://dc.lft.to/lastmile_qr_scan"}, "type": "electric_scooter"}, {"bike_id": "7a8550336a6c621c2ce7c67285ac98ab", "is_reserved": 0, "name": "7a8550336a6c621c2ce7c67285ac98ab", "lat": 38.8957635, "fusion_lat": 0.0, "lon": -76.9832805, "is_disabled": 0, "fusion_lon": 0.0, "rental_uris": {"android": "https://dc.lft.to/lastmile_qr_scan", "ios": "https://dc.lft.to/lastmile_qr_scan"}, "type": "electric_scooter"}, {"bike_id": "3c7cff025b607b6c4f1fc10de2c86dd8", "is_reserved": 0, "name": "3c7cff025b607b6c4f1fc10de2c86dd8", "lat": 38.91637733333334, "fusion_lat": 0.0, "lon": -77.040154, "is_disabled": 0, "fusion_lon": 0.0, "rental_uris": {"android": "https://dc.lft.to/lastmile_qr_scan", "ios": "https://dc.lft.to/lastmile_qr_scan"}, "type": "electric_scooter"}, {"bike_id": "8455615ea657bdc4abd9238c552b72c4", "is_reserved": 0, "name": "8455615ea657bdc4abd9238c552b72c4", "lat": 38.90464266666667, "fusion_lat": 0.0, "lon": -77.0282275, "is_disabled": 0, "fusion_lon": 0.0, "rental_uris": {"android": "https://dc.lft.to/lastmile_qr_scan", "ios": "https://dc.lft.to/lastmile_qr_scan"}, "type": "electric_scooter"}, {"bike_id": "62a9c7cbaaea7ca0b95dc448cc3e150a", "is_reserved": 0, "name": "62a9c7cbaaea7ca0b95dc448cc3e150a", "lat": 38.926699, "fusion_lat": 0.0, "lon": -77.03029916666667, "is_disabled": 0, "fusion_lon": 0.0, "rental_uris": {"android": "https://dc.lft.to/lastmile_qr_scan", "ios": "https://dc.lft.to/lastmile_qr_scan"}, "type": "electric_scooter"}, {"bike_id": "85aef6348503df1fa89755dbbd680d7b", "is_reserved": 0, "name": "85aef6348503df1fa89755dbbd680d7b", "lat": 38.916983, "fusion_lat": 0.0, "lon": -77.04274, "is_disabled": 0, "fusion_lon": 0.0, "rental_uris": {"android": "https://dc.lft.to/lastmile_qr_scan", "ios": "https://dc.lft.to/lastmile_qr_scan"}, "type": "electric_scooter"}, {"bike_id": "20df3f8282a09e4b53b3850c134d2353", "is_reserved": 0, "name": "20df3f8282a09e4b53b3850c134d2353", "lat": 38.93019, "fusion_lat": 0.0, "lon": -77.05518333333333, "is_disabled": 0, "fusion_lon": 0.0, "rental_uris": {"android": "https://dc.lft.to/lastmile_qr_scan", "ios": "https://dc.lft.to/lastmile_qr_scan"}, "type": "electric_scooter"}, {"bike_id": "6aa4c4e5e36ad7109c8236d7c3d7986f", "is_reserved": 0, "name": "6aa4c4e5e36ad7109c8236d7c3d7986f", "lat": 38.95932783333333, "fusion_lat": 0.0, "lon": -76.92837466666667, "is_disabled": 0, "fusion_lon": 0.0, "rental_uris": {"android": "https://dc.lft.to/lastmile_qr_scan", "ios": "https://dc.lft.to/lastmile_qr_scan"}, "type": "electric_bike"}, {"bike_id": "f5d10f137aaeca89b4ff30797274b48c", "is_reserved": 0, "name": "f5d10f137aaeca89b4ff30797274b48c", "lat": 38.879123, "fusion_lat": 0.0, "lon": -76.994863, "is_disabled": 0, "fusion_lon": 0.0, "rental_uris": {"android": "https://dc.lft.to/lastmile_qr_scan", "ios": "https://dc.lft.to/lastmile_qr_scan"}, "type": "electric_scooter"}, {"bike_id": "cccefe6156d304b59504debb59d7277a", "is_reserved": 0, "name": "cccefe6156d304b59504debb59d7277a", "lat": 38.919341333333335, "fusion_lat": 0.0, "lon": -77.04484016666666, "is_disabled": 0, "fusion_lon": 0.0, "rental_uris": {"android": "https://dc.lft.to/lastmile_qr_scan", "ios": "https://dc.lft.to/lastmile_qr_scan"}, "type": "electric_scooter"}, {"bike_id": "3df4cceced534b9a057df4eb565ea78c", "is_reserved": 0, "name": "3df4cceced534b9a057df4eb565ea78c", "lat": 38.924723, "fusion_lat": 0.0, "lon": -77.03762633333334, "is_disabled": 0, "fusion_lon": 0.0, "rental_uris": {"android": "https://dc.lft.to/lastmile_qr_scan", "ios": "https://dc.lft.to/lastmile_qr_scan"}, "type": "electric_scooter"}, {"bike_id": "4adeada3b5dffaec5ebc60c84988d272", "is_reserved": 0, "name": "4adeada3b5dffaec5ebc60c84988d272", "lat": 38.96589933333333, "fusion_lat": 0.0, "lon": -77.015927, "is_disabled": 0, "fusion_lon": 0.0, "rental_uris": {"android": "https://dc.lft.to/lastmile_qr_scan", "ios": "https://dc.lft.to/lastmile_qr_scan"}, "type": "electric_scooter"}, {"bike_id": "94347f726a9f19f809cd300ec365c6bd", "is_reserved": 0, "name": "94347f726a9f19f809cd300ec365c6bd", "lat": 38.92437316666667, "fusion_lat": 0.0, "lon": -76.99708016666666, "is_disabled": 0, "fusion_lon": 0.0, "rental_uris": {"android": "https://dc.lft.to/lastmile_qr_scan", "ios": "https://dc.lft.to/lastmile_qr_scan"}, "type": "electric_scooter"}, {"bike_id": "1eb65f9cafbaef06c17ca7f744e7b681", "is_reserved": 0, "name": "1eb65f9cafbaef06c17ca7f744e7b681", "lat": 38.903366166666665, "fusion_lat": 0.0, "lon": -77.0529165, "is_disabled": 0, "fusion_lon": 0.0, "rental_uris": {"android": "https://dc.lft.to/lastmile_qr_scan", "ios": "https://dc.lft.to/lastmile_qr_scan"}, "type": "electric_scooter"}, {"bike_id": "49148701167ffdabb60773e212854d4e", "is_reserved": 0, "name": "49148701167ffdabb60773e212854d4e", "lat": 38.887442666666665, "fusion_lat": 0.0, "lon": -77.0212895, "is_disabled": 0, "fusion_lon": 0.0, "rental_uris": {"android": "https://dc.lft.to/lastmile_qr_scan", "ios": "https://dc.lft.to/lastmile_qr_scan"}, "type": "electric_scooter"}, {"bike_id": "432f824a1f3dfcb71050a5ca590750ed", "is_reserved": 0, "name": "432f824a1f3dfcb71050a5ca590750ed", "lat": 38.902496666666664, "fusion_lat": 0.0, "lon": -77.026023, "is_disabled": 0, "fusion_lon": 0.0, "rental_uris": {"android": "https://dc.lft.to/lastmile_qr_scan", "ios": "https://dc.lft.to/lastmile_qr_scan"}, "type": "electric_scooter"}, {"bike_id": "e2fc194a413ac4383111b35b7b4f16d9", "is_reserved": 0, "name": "e2fc194a413ac4383111b35b7b4f16d9", "lat": 38.900980833333335, "fusion_lat": 0.0, "lon": -77.0490185, "is_disabled": 0, "fusion_lon": 0.0, "rental_uris": {"android": "https://dc.lft.to/lastmile_qr_scan", "ios": "https://dc.lft.to/lastmile_qr_scan"}, "type": "electric_scooter"}, {"bike_id": "e2e2057f06aa6f2fd8ab9dc1ffdce635", "is_reserved": 0, "name": "e2e2057f06aa6f2fd8ab9dc1ffdce635", "lat": 38.887707666666664, "fusion_lat": 0.0, "lon": -77.0237165, "is_disabled": 0, "fusion_lon": 0.0, "rental_uris": {"android": "https://dc.lft.to/lastmile_qr_scan", "ios": "https://dc.lft.to/lastmile_qr_scan"}, "type": "electric_scooter"}, {"bike_id": "4931497c8be1083328ff3fa812f98a93", "is_reserved": 0, "name": "4931497c8be1083328ff3fa812f98a93", "lat": 38.8718025, "fusion_lat": 0.0, "lon": -77.00607216666667, "is_disabled": 0, "fusion_lon": 0.0, "rental_uris": {"android": "https://dc.lft.to/lastmile_qr_scan", "ios": "https://dc.lft.to/lastmile_qr_scan"}, "type": "electric_scooter"}, {"bike_id": "e554becb7010f9a10a34d443b2481cf7", "is_reserved": 0, "name": "e554becb7010f9a10a34d443b2481cf7", "lat": 38.92147583333333, "fusion_lat": 0.0, "lon": -76.99359483333333, "is_disabled": 0, "fusion_lon": 0.0, "rental_uris": {"android": "https://dc.lft.to/lastmile_qr_scan", "ios": "https://dc.lft.to/lastmile_qr_scan"}, "type": "electric_bike"}, {"bike_id": "fe2c4ea981bf46f8395cb3ed61bcbc2a", "is_reserved": 0, "name": "fe2c4ea981bf46f8395cb3ed61bcbc2a", "lat": 38.86393416666667, "fusion_lat": 0.0, "lon": -77.20108416666666, "is_disabled": 0, "fusion_lon": 0.0, "rental_uris": {"android": "https://dc.lft.to/lastmile_qr_scan", "ios": "https://dc.lft.to/lastmile_qr_scan"}, "type": "electric_bike"}, {"bike_id": "75e82274f73ea8cbc6eafbe8439239bc", "is_reserved": 0, "name": "75e82274f73ea8cbc6eafbe8439239bc", "lat": 38.91110233333333, "fusion_lat": 0.0, "lon": -77.0067095, "is_disabled": 0, "fusion_lon": 0.0, "rental_uris": {"android": "https://dc.lft.to/lastmile_qr_scan", "ios": "https://dc.lft.to/lastmile_qr_scan"}, "type": "electric_scooter"}, {"bike_id": "cb903fe96776dd8361ea0581db8de706", "is_reserved": 0, "name": "cb903fe96776dd8361ea0581db8de706", "lat": 38.905691166666664, "fusion_lat": 0.0, "lon": -77.02418, "is_disabled": 0, "fusion_lon": 0.0, "rental_uris": {"android": "https://dc.lft.to/lastmile_qr_scan", "ios": "https://dc.lft.to/lastmile_qr_scan"}, "type": "electric_scooter"}, {"bike_id": "fafa7ef62109bbcd0db184d52ea3f098", "is_reserved": 0, "name": "fafa7ef62109bbcd0db184d52ea3f098", "lat": 38.90276466666667, "fusion_lat": 0.0, "lon": -77.0276405, "is_disabled": 0, "fusion_lon": 0.0, "rental_uris": {"android": "https://dc.lft.to/lastmile_qr_scan", "ios": "https://dc.lft.to/lastmile_qr_scan"}, "type": "electric_scooter"}, {"bike_id": "97524545f720e45e40ea9b98d3587446", "is_reserved": 0, "name": "97524545f720e45e40ea9b98d3587446", "lat": 38.9030735, "fusion_lat": 0.0, "lon": -77.05809716666667, "is_disabled": 0, "fusion_lon": 0.0, "rental_uris": {"android": "https://dc.lft.to/lastmile_qr_scan", "ios": "https://dc.lft.to/lastmile_qr_scan"}, "type": "electric_scooter"}, {"bike_id": "e7bc0cad95f825e4015b8f707448f6d4", "is_reserved": 0, "name": "e7bc0cad95f825e4015b8f707448f6d4", "lat": 38.9072445, "fusion_lat": 0.0, "lon": -77.02892333333334, "is_disabled": 0, "fusion_lon": 0.0, "rental_uris": {"android": "https://dc.lft.to/lastmile_qr_scan", "ios": "https://dc.lft.to/lastmile_qr_scan"}, "type": "electric_scooter"}, {"bike_id": "dd3bf7dab09d8c71955aa66814de5662", "is_reserved": 0, "name": "dd3bf7dab09d8c71955aa66814de5662", "lat": 38.883731833333336, "fusion_lat": 0.0, "lon": -76.99516566666667, "is_disabled": 0, "fusion_lon": 0.0, "rental_uris": {"android": "https://dc.lft.to/lastmile_qr_scan", "ios": "https://dc.lft.to/lastmile_qr_scan"}, "type": "electric_scooter"}, {"bike_id": "2f58debbc681c77a7ff12f22c90b9f37", "is_reserved": 0, "name": "2f58debbc681c77a7ff12f22c90b9f37", "lat": 38.9483335, "fusion_lat": 0.0, "lon": -77.09997466666667, "is_disabled": 0, "fusion_lon": 0.0, "rental_uris": {"android": "https://dc.lft.to/lastmile_qr_scan", "ios": "https://dc.lft.to/lastmile_qr_scan"}, "type": "electric_scooter"}, {"bike_id": "5f431c557b32f43af9dd4c14f5eb4a3f", "is_reserved": 0, "name": "5f431c557b32f43af9dd4c14f5eb4a3f", "lat": 38.892497, "fusion_lat": 0.0, "lon": -77.03956583333333, "is_disabled": 0, "fusion_lon": 0.0, "rental_uris": {"android": "https://dc.lft.to/lastmile_qr_scan", "ios": "https://dc.lft.to/lastmile_qr_scan"}, "type": "electric_scooter"}, {"bike_id": "468516b470c936e5a12ad678b7fe54ca", "is_reserved": 0, "name": "468516b470c936e5a12ad678b7fe54ca", "lat": 38.9025215, "fusion_lat": 0.0, "lon": -77.03914033333334, "is_disabled": 0, "fusion_lon": 0.0, "rental_uris": {"android": "https://dc.lft.to/lastmile_qr_scan", "ios": "https://dc.lft.to/lastmile_qr_scan"}, "type": "electric_scooter"}, {"bike_id": "fc0ac408ad852e984a399061bf8b9ed8", "is_reserved": 0, "name": "fc0ac408ad852e984a399061bf8b9ed8", "lat": 38.893638333333335, "fusion_lat": 0.0, "lon": -77.00330583333333, "is_disabled": 0, "fusion_lon": 0.0, "rental_uris": {"android": "https://dc.lft.to/lastmile_qr_scan", "ios": "https://dc.lft.to/lastmile_qr_scan"}, "type": "electric_scooter"}, {"bike_id": "b5a90ce09d62a8b2e81f4d3ce8befab2", "is_reserved": 0, "name": "b5a90ce09d62a8b2e81f4d3ce8befab2", "lat": 38.92321783333333, "fusion_lat": 0.0, "lon": -77.04030216666666, "is_disabled": 0, "fusion_lon": 0.0, "rental_uris": {"android": "https://dc.lft.to/lastmile_qr_scan", "ios": "https://dc.lft.to/lastmile_qr_scan"}, "type": "electric_scooter"}, {"bike_id": "48abca65675532d0e7c297accdf8af45", "is_reserved": 0, "name": "48abca65675532d0e7c297accdf8af45", "lat": 38.9112165, "fusion_lat": 0.0, "lon": -77.00755716666667, "is_disabled": 0, "fusion_lon": 0.0, "rental_uris": {"android": "https://dc.lft.to/lastmile_qr_scan", "ios": "https://dc.lft.to/lastmile_qr_scan"}, "type": "electric_scooter"}, {"bike_id": "156ccfd3333650f0b0146366f0dbd487", "is_reserved": 0, "name": "156ccfd3333650f0b0146366f0dbd487", "lat": 38.9072875, "fusion_lat": 0.0, "lon": -77.043419, "is_disabled": 0, "fusion_lon": 0.0, "rental_uris": {"android": "https://dc.lft.to/lastmile_qr_scan", "ios": "https://dc.lft.to/lastmile_qr_scan"}, "type": "electric_scooter"}, {"bike_id": "0fcaa0e009a277035885943af012c995", "is_reserved": 0, "name": "0fcaa0e009a277035885943af012c995", "lat": 38.905571333333334, "fusion_lat": 0.0, "lon": -77.00528416666667, "is_disabled": 0, "fusion_lon": 0.0, "rental_uris": {"android": "https://dc.lft.to/lastmile_qr_scan", "ios": "https://dc.lft.to/lastmile_qr_scan"}, "type": "electric_scooter"}, {"bike_id": "11fefd3954cd564a70de97c6f2aeb4bb", "is_reserved": 0, "name": "11fefd3954cd564a70de97c6f2aeb4bb", "lat": 38.923726, "fusion_lat": 0.0, "lon": -77.03163916666666, "is_disabled": 0, "fusion_lon": 0.0, "rental_uris": {"android": "https://dc.lft.to/lastmile_qr_scan", "ios": "https://dc.lft.to/lastmile_qr_scan"}, "type": "electric_scooter"}, {"bike_id": "94e2e9d607027cc312b51fab4b464197", "is_reserved": 0, "name": "94e2e9d607027cc312b51fab4b464197", "lat": 38.9347975, "fusion_lat": 0.0, "lon": -77.07262516666667, "is_disabled": 0, "fusion_lon": 0.0, "rental_uris": {"android": "https://dc.lft.to/lastmile_qr_scan", "ios": "https://dc.lft.to/lastmile_qr_scan"}, "type": "electric_scooter"}, {"bike_id": "6f1e2457bb8b0ca2a7424ac2588f0c9d", "is_reserved": 0, "name": "6f1e2457bb8b0ca2a7424ac2588f0c9d", "lat": 38.8874605, "fusion_lat": 0.0, "lon": -77.0256975, "is_disabled": 0, "fusion_lon": 0.0, "rental_uris": {"android": "https://dc.lft.to/lastmile_qr_scan", "ios": "https://dc.lft.to/lastmile_qr_scan"}, "type": "electric_scooter"}, {"bike_id": "1976bc06c371e919d3900ec333e18979", "is_reserved": 0, "name": "1976bc06c371e919d3900ec333e18979", "lat": 38.898758, "fusion_lat": 0.0, "lon": -76.9318285, "is_disabled": 0, "fusion_lon": 0.0, "rental_uris": {"android": "https://dc.lft.to/lastmile_qr_scan", "ios": "https://dc.lft.to/lastmile_qr_scan"}, "type": "electric_scooter"}, {"bike_id": "4d78fd3c1a5fefcec91b0be1946f4dc1", "is_reserved": 0, "name": "4d78fd3c1a5fefcec91b0be1946f4dc1", "lat": 38.928790666666664, "fusion_lat": 0.0, "lon": -77.01363416666666, "is_disabled": 0, "fusion_lon": 0.0, "rental_uris": {"android": "https://dc.lft.to/lastmile_qr_scan", "ios": "https://dc.lft.to/lastmile_qr_scan"}, "type": "electric_scooter"}, {"bike_id": "4b069fc00e3f624fa6b4f7259bafcb74", "is_reserved": 0, "name": "4b069fc00e3f624fa6b4f7259bafcb74", "lat": 38.892294, "fusion_lat": 0.0, "lon": -77.040948, "is_disabled": 0, "fusion_lon": 0.0, "rental_uris": {"android": "https://dc.lft.to/lastmile_qr_scan", "ios": "https://dc.lft.to/lastmile_qr_scan"}, "type": "electric_scooter"}, {"bike_id": "78e4c57356cf196338a66e52b68ebe73", "is_reserved": 0, "name": "78e4c57356cf196338a66e52b68ebe73", "lat": 38.89222383333333, "fusion_lat": 0.0, "lon": -77.02222516666667, "is_disabled": 0, "fusion_lon": 0.0, "rental_uris": {"android": "https://dc.lft.to/lastmile_qr_scan", "ios": "https://dc.lft.to/lastmile_qr_scan"}, "type": "electric_scooter"}, {"bike_id": "83e0a0e46c8398c7cc6e45036c32db8a", "is_reserved": 0, "name": "83e0a0e46c8398c7cc6e45036c32db8a", "lat": 38.916907333333334, "fusion_lat": 0.0, "lon": -77.022861, "is_disabled": 0, "fusion_lon": 0.0, "rental_uris": {"android": "https://dc.lft.to/lastmile_qr_scan", "ios": "https://dc.lft.to/lastmile_qr_scan"}, "type": "electric_scooter"}, {"bike_id": "bea87313c7c0581f7b3e628504634b95", "is_reserved": 0, "name": "bea87313c7c0581f7b3e628504634b95", "lat": 38.914975166666665, "fusion_lat": 0.0, "lon": -77.01220816666667, "is_disabled": 0, "fusion_lon": 0.0, "rental_uris": {"android": "https://dc.lft.to/lastmile_qr_scan", "ios": "https://dc.lft.to/lastmile_qr_scan"}, "type": "electric_scooter"}, {"bike_id": "aa930193541d3b11257412abb5514cc0", "is_reserved": 0, "name": "aa930193541d3b11257412abb5514cc0", "lat": 39.036108166666665, "fusion_lat": 0.0, "lon": -77.05546633333333, "is_disabled": 0, "fusion_lon": 0.0, "rental_uris": {"android": "https://dc.lft.to/lastmile_qr_scan", "ios": "https://dc.lft.to/lastmile_qr_scan"}, "type": "electric_bike"}, {"bike_id": "72edbec37e7efe0572dfc7a042029519", "is_reserved": 0, "name": "72edbec37e7efe0572dfc7a042029519", "lat": 38.934008166666665, "fusion_lat": 0.0, "lon": -77.039875, "is_disabled": 0, "fusion_lon": 0.0, "rental_uris": {"android": "https://dc.lft.to/lastmile_qr_scan", "ios": "https://dc.lft.to/lastmile_qr_scan"}, "type": "electric_scooter"}, {"bike_id": "bc9152d4d6af097050ca55eb7bdbab58", "is_reserved": 0, "name": "bc9152d4d6af097050ca55eb7bdbab58", "lat": 38.90642066666667, "fusion_lat": 0.0, "lon": -77.005955, "is_disabled": 0, "fusion_lon": 0.0, "rental_uris": {"android": "https://dc.lft.to/lastmile_qr_scan", "ios": "https://dc.lft.to/lastmile_qr_scan"}, "type": "electric_scooter"}, {"bike_id": "44c7bce8613350eb7fe5f5cf38157cd4", "is_reserved": 0, "name": "44c7bce8613350eb7fe5f5cf38157cd4", "lat": 38.886243, "fusion_lat": 0.0, "lon": -77.028341, "is_disabled": 0, "fusion_lon": 0.0, "rental_uris": {"android": "https://dc.lft.to/lastmile_qr_scan", "ios": "https://dc.lft.to/lastmile_qr_scan"}, "type": "electric_scooter"}, {"bike_id": "f9b31112017d09d52fbd47e03bdb4254", "is_reserved": 0, "name": "f9b31112017d09d52fbd47e03bdb4254", "lat": 38.90234366666667, "fusion_lat": 0.0, "lon": -77.03261983333333, "is_disabled": 0, "fusion_lon": 0.0, "rental_uris": {"android": "https://dc.lft.to/lastmile_qr_scan", "ios": "https://dc.lft.to/lastmile_qr_scan"}, "type": "electric_scooter"}, {"bike_id": "4c8aa74e9a285743072068dfdc7a308b", "is_reserved": 0, "name": "4c8aa74e9a285743072068dfdc7a308b", "lat": 38.9252645, "fusion_lat": 0.0, "lon": -77.0411545, "is_disabled": 0, "fusion_lon": 0.0, "rental_uris": {"android": "https://dc.lft.to/lastmile_qr_scan", "ios": "https://dc.lft.to/lastmile_qr_scan"}, "type": "electric_scooter"}, {"bike_id": "32b3ae94475cbf426361e74d518afc35", "is_reserved": 0, "name": "32b3ae94475cbf426361e74d518afc35", "lat": 38.905622666666666, "fusion_lat": 0.0, "lon": -77.02423083333333, "is_disabled": 0, "fusion_lon": 0.0, "rental_uris": {"android": "https://dc.lft.to/lastmile_qr_scan", "ios": "https://dc.lft.to/lastmile_qr_scan"}, "type": "electric_scooter"}, {"bike_id": "10b489d86d28aeaae11cb6712db7e38a", "is_reserved": 0, "name": "10b489d86d28aeaae11cb6712db7e38a", "lat": 38.90836133333333, "fusion_lat": 0.0, "lon": -76.99697016666667, "is_disabled": 0, "fusion_lon": 0.0, "rental_uris": {"android": "https://dc.lft.to/lastmile_qr_scan", "ios": "https://dc.lft.to/lastmile_qr_scan"}, "type": "electric_scooter"}, {"bike_id": "0fe9cefa4659a65c6d8bf04c760723aa", "is_reserved": 0, "name": "0fe9cefa4659a65c6d8bf04c760723aa", "lat": 38.898898, "fusion_lat": 0.0, "lon": -76.93172683333333, "is_disabled": 0, "fusion_lon": 0.0, "rental_uris": {"android": "https://dc.lft.to/lastmile_qr_scan", "ios": "https://dc.lft.to/lastmile_qr_scan"}, "type": "electric_scooter"}, {"bike_id": "4eafe978d2f2f3c5b4b99e9bf76f27b8", "is_reserved": 0, "name": "4eafe978d2f2f3c5b4b99e9bf76f27b8", "lat": 38.926044833333336, "fusion_lat": 0.0, "lon": -77.02155916666666, "is_disabled": 0, "fusion_lon": 0.0, "rental_uris": {"android": "https://dc.lft.to/lastmile_qr_scan", "ios": "https://dc.lft.to/lastmile_qr_scan"}, "type": "electric_scooter"}, {"bike_id": "b91d305566eed31e369cf54fb7e86f88", "is_reserved": 0, "name": "b91d305566eed31e369cf54fb7e86f88", "lat": 38.901664333333336, "fusion_lat": 0.0, "lon": -77.05064166666666, "is_disabled": 0, "fusion_lon": 0.0, "rental_uris": {"android": "https://dc.lft.to/lastmile_qr_scan", "ios": "https://dc.lft.to/lastmile_qr_scan"}, "type": "electric_scooter"}, {"bike_id": "a11aa3391d96c7006257236183f743fd", "is_reserved": 0, "name": "a11aa3391d96c7006257236183f743fd", "lat": 38.862183, "fusion_lat": 0.0, "lon": -76.99488966666667, "is_disabled": 0, "fusion_lon": 0.0, "rental_uris": {"android": "https://dc.lft.to/lastmile_qr_scan", "ios": "https://dc.lft.to/lastmile_qr_scan"}, "type": "electric_scooter"}, {"bike_id": "7c3d3f4318c55b9c5d730e2531a46a73", "is_reserved": 0, "name": "7c3d3f4318c55b9c5d730e2531a46a73", "lat": 38.91565116666666, "fusion_lat": 0.0, "lon": -77.02172266666666, "is_disabled": 0, "fusion_lon": 0.0, "rental_uris": {"android": "https://dc.lft.to/lastmile_qr_scan", "ios": "https://dc.lft.to/lastmile_qr_scan"}, "type": "electric_scooter"}, {"bike_id": "924988748caa06eca21cb0dc75fae2f1", "is_reserved": 0, "name": "924988748caa06eca21cb0dc75fae2f1", "lat": 38.887326333333334, "fusion_lat": 0.0, "lon": -77.03176433333333, "is_disabled": 0, "fusion_lon": 0.0, "rental_uris": {"android": "https://dc.lft.to/lastmile_qr_scan", "ios": "https://dc.lft.to/lastmile_qr_scan"}, "type": "electric_scooter"}, {"bike_id": "53202a5dd0322d40012f9df458aea0ba", "is_reserved": 0, "name": "53202a5dd0322d40012f9df458aea0ba", "lat": 38.92101616666667, "fusion_lat": 0.0, "lon": -77.02508466666667, "is_disabled": 0, "fusion_lon": 0.0, "rental_uris": {"android": "https://dc.lft.to/lastmile_qr_scan", "ios": "https://dc.lft.to/lastmile_qr_scan"}, "type": "electric_scooter"}, {"bike_id": "c939dc70981845de5a62f0391948eb86", "is_reserved": 0, "name": "c939dc70981845de5a62f0391948eb86", "lat": 38.91269233333333, "fusion_lat": 0.0, "lon": -77.02230733333333, "is_disabled": 0, "fusion_lon": 0.0, "rental_uris": {"android": "https://dc.lft.to/lastmile_qr_scan", "ios": "https://dc.lft.to/lastmile_qr_scan"}, "type": "electric_scooter"}, {"bike_id": "a2576ebddb2c10f29ea6a9f6312357d9", "is_reserved": 0, "name": "a2576ebddb2c10f29ea6a9f6312357d9", "lat": 38.92330716666667, "fusion_lat": 0.0, "lon": -77.05678433333334, "is_disabled": 0, "fusion_lon": 0.0, "rental_uris": {"android": "https://dc.lft.to/lastmile_qr_scan", "ios": "https://dc.lft.to/lastmile_qr_scan"}, "type": "electric_scooter"}, {"bike_id": "ab4a72b4f83d7fb2aad5ddb0ff9c9f9f", "is_reserved": 0, "name": "ab4a72b4f83d7fb2aad5ddb0ff9c9f9f", "lat": 38.883417, "fusion_lat": 0.0, "lon": -76.93499133333333, "is_disabled": 0, "fusion_lon": 0.0, "rental_uris": {"android": "https://dc.lft.to/lastmile_qr_scan", "ios": "https://dc.lft.to/lastmile_qr_scan"}, "type": "electric_scooter"}, {"bike_id": "132a4575f3a02d438683d992589934d5", "is_reserved": 0, "name": "132a4575f3a02d438683d992589934d5", "lat": 38.920685166666665, "fusion_lat": 0.0, "lon": -77.0240145, "is_disabled": 0, "fusion_lon": 0.0, "rental_uris": {"android": "https://dc.lft.to/lastmile_qr_scan", "ios": "https://dc.lft.to/lastmile_qr_scan"}, "type": "electric_scooter"}, {"bike_id": "db1b4f0f08ff6ed4b53611da0efe4bd8", "is_reserved": 0, "name": "db1b4f0f08ff6ed4b53611da0efe4bd8", "lat": 38.905615166666664, "fusion_lat": 0.0, "lon": -77.03749166666667, "is_disabled": 0, "fusion_lon": 0.0, "rental_uris": {"android": "https://dc.lft.to/lastmile_qr_scan", "ios": "https://dc.lft.to/lastmile_qr_scan"}, "type": "electric_scooter"}, {"bike_id": "07b4fd73b82ae3ce201d3e3ec5dd2830", "is_reserved": 0, "name": "07b4fd73b82ae3ce201d3e3ec5dd2830", "lat": 38.9046975, "fusion_lat": 0.0, "lon": -77.04861516666666, "is_disabled": 0, "fusion_lon": 0.0, "rental_uris": {"android": "https://dc.lft.to/lastmile_qr_scan", "ios": "https://dc.lft.to/lastmile_qr_scan"}, "type": "electric_scooter"}, {"bike_id": "ed467f283548f7e69172961211156d84", "is_reserved": 0, "name": "ed467f283548f7e69172961211156d84", "lat": 38.947192333333334, "fusion_lat": 0.0, "lon": -77.06546383333334, "is_disabled": 0, "fusion_lon": 0.0, "rental_uris": {"android": "https://dc.lft.to/lastmile_qr_scan", "ios": "https://dc.lft.to/lastmile_qr_scan"}, "type": "electric_scooter"}, {"bike_id": "1978f9f7f9498ce67ea282d06d8a3f56", "is_reserved": 0, "name": "1978f9f7f9498ce67ea282d06d8a3f56", "lat": 38.9012025, "fusion_lat": 0.0, "lon": -77.0337165, "is_disabled": 0, "fusion_lon": 0.0, "rental_uris": {"android": "https://dc.lft.to/lastmile_qr_scan", "ios": "https://dc.lft.to/lastmile_qr_scan"}, "type": "electric_scooter"}, {"bike_id": "a6a00955f15e6034f2b617de4c06ae68", "is_reserved": 0, "name": "a6a00955f15e6034f2b617de4c06ae68", "lat": 38.92866266666667, "fusion_lat": 0.0, "lon": -77.03223583333333, "is_disabled": 0, "fusion_lon": 0.0, "rental_uris": {"android": "https://dc.lft.to/lastmile_qr_scan", "ios": "https://dc.lft.to/lastmile_qr_scan"}, "type": "electric_scooter"}, {"bike_id": "15e9a11d34af94ec4137d920dfe93891", "is_reserved": 0, "name": "15e9a11d34af94ec4137d920dfe93891", "lat": 38.9009515, "fusion_lat": 0.0, "lon": -77.0569845, "is_disabled": 0, "fusion_lon": 0.0, "rental_uris": {"android": "https://dc.lft.to/lastmile_qr_scan", "ios": "https://dc.lft.to/lastmile_qr_scan"}, "type": "electric_scooter"}, {"bike_id": "2053b86d8f1eb57465ab609a97b2a56b", "is_reserved": 0, "name": "2053b86d8f1eb57465ab609a97b2a56b", "lat": 38.92483983333333, "fusion_lat": 0.0, "lon": -77.2336435, "is_disabled": 0, "fusion_lon": 0.0, "rental_uris": {"android": "https://dc.lft.to/lastmile_qr_scan", "ios": "https://dc.lft.to/lastmile_qr_scan"}, "type": "electric_bike"}, {"bike_id": "cbefc7288ec529287ea27c99c27b317e", "is_reserved": 0, "name": "cbefc7288ec529287ea27c99c27b317e", "lat": 38.908812, "fusion_lat": 0.0, "lon": -77.07534133333333, "is_disabled": 0, "fusion_lon": 0.0, "rental_uris": {"android": "https://dc.lft.to/lastmile_qr_scan", "ios": "https://dc.lft.to/lastmile_qr_scan"}, "type": "electric_scooter"}, {"bike_id": "1466e40a26b384b7b59e13c2faa7f43f", "is_reserved": 0, "name": "1466e40a26b384b7b59e13c2faa7f43f", "lat": 38.905655, "fusion_lat": 0.0, "lon": -76.98139883333333, "is_disabled": 0, "fusion_lon": 0.0, "rental_uris": {"android": "https://dc.lft.to/lastmile_qr_scan", "ios": "https://dc.lft.to/lastmile_qr_scan"}, "type": "electric_scooter"}, {"bike_id": "5b8bcad17edce4c92023b312e39277dc", "is_reserved": 0, "name": "5b8bcad17edce4c92023b312e39277dc", "lat": 38.907357833333336, "fusion_lat": 0.0, "lon": -77.02951266666666, "is_disabled": 0, "fusion_lon": 0.0, "rental_uris": {"android": "https://dc.lft.to/lastmile_qr_scan", "ios": "https://dc.lft.to/lastmile_qr_scan"}, "type": "electric_scooter"}, {"bike_id": "8eeb52a86fd0e01899b563f6c055af60", "is_reserved": 0, "name": "8eeb52a86fd0e01899b563f6c055af60", "lat": 38.90976833333333, "fusion_lat": 0.0, "lon": -77.034219, "is_disabled": 0, "fusion_lon": 0.0, "rental_uris": {"android": "https://dc.lft.to/lastmile_qr_scan", "ios": "https://dc.lft.to/lastmile_qr_scan"}, "type": "electric_scooter"}, {"bike_id": "1cf98014db96e868014fedd4de7818e9", "is_reserved": 0, "name": "1cf98014db96e868014fedd4de7818e9", "lat": 38.91021633333333, "fusion_lat": 0.0, "lon": -77.04257616666666, "is_disabled": 0, "fusion_lon": 0.0, "rental_uris": {"android": "https://dc.lft.to/lastmile_qr_scan", "ios": "https://dc.lft.to/lastmile_qr_scan"}, "type": "electric_scooter"}, {"bike_id": "f7cf883c97718e7789b5608a326b6429", "is_reserved": 0, "name": "f7cf883c97718e7789b5608a326b6429", "lat": 38.901998, "fusion_lat": 0.0, "lon": -77.02375583333334, "is_disabled": 0, "fusion_lon": 0.0, "rental_uris": {"android": "https://dc.lft.to/lastmile_qr_scan", "ios": "https://dc.lft.to/lastmile_qr_scan"}, "type": "electric_scooter"}, {"bike_id": "94a08b8a1bafad7ad1a634fbd1388563", "is_reserved": 0, "name": "94a08b8a1bafad7ad1a634fbd1388563", "lat": 38.93175933333333, "fusion_lat": 0.0, "lon": -77.0565465, "is_disabled": 0, "fusion_lon": 0.0, "rental_uris": {"android": "https://dc.lft.to/lastmile_qr_scan", "ios": "https://dc.lft.to/lastmile_qr_scan"}, "type": "electric_scooter"}, {"bike_id": "1b0ff1ee561cf454db8cc9269a699174", "is_reserved": 0, "name": "1b0ff1ee561cf454db8cc9269a699174", "lat": 38.9101885, "fusion_lat": 0.0, "lon": -77.04254733333333, "is_disabled": 0, "fusion_lon": 0.0, "rental_uris": {"android": "https://dc.lft.to/lastmile_qr_scan", "ios": "https://dc.lft.to/lastmile_qr_scan"}, "type": "electric_scooter"}, {"bike_id": "eea3dc652904ca818be22333d026a8ec", "is_reserved": 0, "name": "eea3dc652904ca818be22333d026a8ec", "lat": 38.9110495, "fusion_lat": 0.0, "lon": -77.04203633333333, "is_disabled": 0, "fusion_lon": 0.0, "rental_uris": {"android": "https://dc.lft.to/lastmile_qr_scan", "ios": "https://dc.lft.to/lastmile_qr_scan"}, "type": "electric_scooter"}, {"bike_id": "0ee9f3a99647a75fdcff5dba454d8586", "is_reserved": 0, "name": "0ee9f3a99647a75fdcff5dba454d8586", "lat": 38.90665533333333, "fusion_lat": 0.0, "lon": -77.0269605, "is_disabled": 0, "fusion_lon": 0.0, "rental_uris": {"android": "https://dc.lft.to/lastmile_qr_scan", "ios": "https://dc.lft.to/lastmile_qr_scan"}, "type": "electric_scooter"}, {"bike_id": "af25036ab5cbc3b98928a1c9dae6362f", "is_reserved": 0, "name": "af25036ab5cbc3b98928a1c9dae6362f", "lat": 38.918142, "fusion_lat": 0.0, "lon": -77.03179083333333, "is_disabled": 0, "fusion_lon": 0.0, "rental_uris": {"android": "https://dc.lft.to/lastmile_qr_scan", "ios": "https://dc.lft.to/lastmile_qr_scan"}, "type": "electric_scooter"}, {"bike_id": "9af3fb2d2553757670745efc67da51c6", "is_reserved": 0, "name": "9af3fb2d2553757670745efc67da51c6", "lat": 38.873754, "fusion_lat": 0.0, "lon": -77.0006055, "is_disabled": 0, "fusion_lon": 0.0, "rental_uris": {"android": "https://dc.lft.to/lastmile_qr_scan", "ios": "https://dc.lft.to/lastmile_qr_scan"}, "type": "electric_scooter"}, {"bike_id": "e52675240d5d2c6f5bcf77c86fd6a254", "is_reserved": 0, "name": "e52675240d5d2c6f5bcf77c86fd6a254", "lat": 38.93117433333333, "fusion_lat": 0.0, "lon": -77.0209885, "is_disabled": 0, "fusion_lon": 0.0, "rental_uris": {"android": "https://dc.lft.to/lastmile_qr_scan", "ios": "https://dc.lft.to/lastmile_qr_scan"}, "type": "electric_scooter"}, {"bike_id": "0a70e7b59b1aafc366c6d9913dcf75ef", "is_reserved": 0, "name": "0a70e7b59b1aafc366c6d9913dcf75ef", "lat": 38.874461333333336, "fusion_lat": 0.0, "lon": -77.000631, "is_disabled": 0, "fusion_lon": 0.0, "rental_uris": {"android": "https://dc.lft.to/lastmile_qr_scan", "ios": "https://dc.lft.to/lastmile_qr_scan"}, "type": "electric_scooter"}, {"bike_id": "43bccfc953755bb4f1145b96f7da1354", "is_reserved": 0, "name": "43bccfc953755bb4f1145b96f7da1354", "lat": 38.9103355, "fusion_lat": 0.0, "lon": -77.04271183333333, "is_disabled": 0, "fusion_lon": 0.0, "rental_uris": {"android": "https://dc.lft.to/lastmile_qr_scan", "ios": "https://dc.lft.to/lastmile_qr_scan"}, "type": "electric_scooter"}, {"bike_id": "20f7cacc72cbba320cb2ca51addf276c", "is_reserved": 0, "name": "20f7cacc72cbba320cb2ca51addf276c", "lat": 38.9102335, "fusion_lat": 0.0, "lon": -76.997258, "is_disabled": 0, "fusion_lon": 0.0, "rental_uris": {"android": "https://dc.lft.to/lastmile_qr_scan", "ios": "https://dc.lft.to/lastmile_qr_scan"}, "type": "electric_scooter"}, {"bike_id": "3446d3216dbc47cc3f7254223dcf11da", "is_reserved": 0, "name": "3446d3216dbc47cc3f7254223dcf11da", "lat": 38.89470016666667, "fusion_lat": 0.0, "lon": -77.017656, "is_disabled": 0, "fusion_lon": 0.0, "rental_uris": {"android": "https://dc.lft.to/lastmile_qr_scan", "ios": "https://dc.lft.to/lastmile_qr_scan"}, "type": "electric_scooter"}, {"bike_id": "1e41928cc1c34068bf9d5c563ca8c16e", "is_reserved": 0, "name": "1e41928cc1c34068bf9d5c563ca8c16e", "lat": 38.89477733333333, "fusion_lat": 0.0, "lon": -77.00310866666666, "is_disabled": 0, "fusion_lon": 0.0, "rental_uris": {"android": "https://dc.lft.to/lastmile_qr_scan", "ios": "https://dc.lft.to/lastmile_qr_scan"}, "type": "electric_scooter"}, {"bike_id": "4ffdfcbdd7e480146fa5b56d285b0780", "is_reserved": 0, "name": "4ffdfcbdd7e480146fa5b56d285b0780", "lat": 38.907748833333336, "fusion_lat": 0.0, "lon": -76.993746, "is_disabled": 0, "fusion_lon": 0.0, "rental_uris": {"android": "https://dc.lft.to/lastmile_qr_scan", "ios": "https://dc.lft.to/lastmile_qr_scan"}, "type": "electric_scooter"}, {"bike_id": "6e6d275e0d52a0d1ac014d718955cb07", "is_reserved": 0, "name": "6e6d275e0d52a0d1ac014d718955cb07", "lat": 38.923531, "fusion_lat": 0.0, "lon": -77.03315616666667, "is_disabled": 0, "fusion_lon": 0.0, "rental_uris": {"android": "https://dc.lft.to/lastmile_qr_scan", "ios": "https://dc.lft.to/lastmile_qr_scan"}, "type": "electric_scooter"}, {"bike_id": "b48520dc2fca03b0756ad6db708b221c", "is_reserved": 0, "name": "b48520dc2fca03b0756ad6db708b221c", "lat": 38.89554783333333, "fusion_lat": 0.0, "lon": -76.94876466666666, "is_disabled": 0, "fusion_lon": 0.0, "rental_uris": {"android": "https://dc.lft.to/lastmile_qr_scan", "ios": "https://dc.lft.to/lastmile_qr_scan"}, "type": "electric_scooter"}, {"bike_id": "9bef4766a67d7ce4bfbe1b5d06519060", "is_reserved": 0, "name": "9bef4766a67d7ce4bfbe1b5d06519060", "lat": 38.89759216666667, "fusion_lat": 0.0, "lon": -77.02990716666666, "is_disabled": 0, "fusion_lon": 0.0, "rental_uris": {"android": "https://dc.lft.to/lastmile_qr_scan", "ios": "https://dc.lft.to/lastmile_qr_scan"}, "type": "electric_scooter"}, {"bike_id": "531af3176437b0046b49837329a61508", "is_reserved": 0, "name": "531af3176437b0046b49837329a61508", "lat": 38.915504166666665, "fusion_lat": 0.0, "lon": -77.038516, "is_disabled": 0, "fusion_lon": 0.0, "rental_uris": {"android": "https://dc.lft.to/lastmile_qr_scan", "ios": "https://dc.lft.to/lastmile_qr_scan"}, "type": "electric_scooter"}, {"bike_id": "0d04f8798b215d48a96dae8e7afdd567", "is_reserved": 0, "name": "0d04f8798b215d48a96dae8e7afdd567", "lat": 38.91762, "fusion_lat": 0.0, "lon": -77.069502, "is_disabled": 0, "fusion_lon": 0.0, "rental_uris": {"android": "https://dc.lft.to/lastmile_qr_scan", "ios": "https://dc.lft.to/lastmile_qr_scan"}, "type": "electric_scooter"}, {"bike_id": "a379ea5174fb062d3a6dd2cf08794166", "is_reserved": 0, "name": "a379ea5174fb062d3a6dd2cf08794166", "lat": 38.899354833333334, "fusion_lat": 0.0, "lon": -77.03143583333333, "is_disabled": 0, "fusion_lon": 0.0, "rental_uris": {"android": "https://dc.lft.to/lastmile_qr_scan", "ios": "https://dc.lft.to/lastmile_qr_scan"}, "type": "electric_scooter"}, {"bike_id": "c585080d14779e1e9502a7744c9d5aad", "is_reserved": 0, "name": "c585080d14779e1e9502a7744c9d5aad", "lat": 38.93246766666667, "fusion_lat": 0.0, "lon": -76.99522183333333, "is_disabled": 0, "fusion_lon": 0.0, "rental_uris": {"android": "https://dc.lft.to/lastmile_qr_scan", "ios": "https://dc.lft.to/lastmile_qr_scan"}, "type": "electric_scooter"}, {"bike_id": "bc61b4b111339dfc483b9984e1629c59", "is_reserved": 0, "name": "bc61b4b111339dfc483b9984e1629c59", "lat": 38.926444833333335, "fusion_lat": 0.0, "lon": -77.04136083333333, "is_disabled": 0, "fusion_lon": 0.0, "rental_uris": {"android": "https://dc.lft.to/lastmile_qr_scan", "ios": "https://dc.lft.to/lastmile_qr_scan"}, "type": "electric_scooter"}, {"bike_id": "4ff27c43e19cb9d5b9c4a5a242501266", "is_reserved": 0, "name": "4ff27c43e19cb9d5b9c4a5a242501266", "lat": 38.90282533333333, "fusion_lat": 0.0, "lon": -77.02272033333334, "is_disabled": 0, "fusion_lon": 0.0, "rental_uris": {"android": "https://dc.lft.to/lastmile_qr_scan", "ios": "https://dc.lft.to/lastmile_qr_scan"}, "type": "electric_scooter"}, {"bike_id": "a595b9e5fd1e61e31e2395d0e97c99fc", "is_reserved": 0, "name": "a595b9e5fd1e61e31e2395d0e97c99fc", "lat": 38.91269033333333, "fusion_lat": 0.0, "lon": -77.03118516666666, "is_disabled": 0, "fusion_lon": 0.0, "rental_uris": {"android": "https://dc.lft.to/lastmile_qr_scan", "ios": "https://dc.lft.to/lastmile_qr_scan"}, "type": "electric_scooter"}, {"bike_id": "a93081ac2e53819556e1d459937ec757", "is_reserved": 0, "name": "a93081ac2e53819556e1d459937ec757", "lat": 38.80679533333333, "fusion_lat": 0.0, "lon": -77.06912466666667, "is_disabled": 0, "fusion_lon": 0.0, "rental_uris": {"android": "https://dc.lft.to/lastmile_qr_scan", "ios": "https://dc.lft.to/lastmile_qr_scan"}, "type": "electric_bike"}, {"bike_id": "e02289eb21bd6969f35c033ab3812ef1", "is_reserved": 0, "name": "e02289eb21bd6969f35c033ab3812ef1", "lat": 38.9283565, "fusion_lat": 0.0, "lon": -77.00599483333333, "is_disabled": 0, "fusion_lon": 0.0, "rental_uris": {"android": "https://dc.lft.to/lastmile_qr_scan", "ios": "https://dc.lft.to/lastmile_qr_scan"}, "type": "electric_scooter"}, {"bike_id": "d42f13fc6ffb5f8530418948542155a2", "is_reserved": 0, "name": "d42f13fc6ffb5f8530418948542155a2", "lat": 38.918125333333336, "fusion_lat": 0.0, "lon": -77.03144783333333, "is_disabled": 0, "fusion_lon": 0.0, "rental_uris": {"android": "https://dc.lft.to/lastmile_qr_scan", "ios": "https://dc.lft.to/lastmile_qr_scan"}, "type": "electric_scooter"}, {"bike_id": "f4653a33fd2c1a4f1c7de22888212f4a", "is_reserved": 0, "name": "f4653a33fd2c1a4f1c7de22888212f4a", "lat": 38.8974635, "fusion_lat": 0.0, "lon": -77.0076445, "is_disabled": 0, "fusion_lon": 0.0, "rental_uris": {"android": "https://dc.lft.to/lastmile_qr_scan", "ios": "https://dc.lft.to/lastmile_qr_scan"}, "type": "electric_bike"}, {"bike_id": "433fbc9707b9226e1dfb858ecc18751d", "is_reserved": 0, "name": "433fbc9707b9226e1dfb858ecc18751d", "lat": 38.9217525, "fusion_lat": 0.0, "lon": -77.04027616666667, "is_disabled": 0, "fusion_lon": 0.0, "rental_uris": {"android": "https://dc.lft.to/lastmile_qr_scan", "ios": "https://dc.lft.to/lastmile_qr_scan"}, "type": "electric_scooter"}, {"bike_id": "72550a978dd399c035c86e3574cfee7a", "is_reserved": 0, "name": "72550a978dd399c035c86e3574cfee7a", "lat": 38.901728166666665, "fusion_lat": 0.0, "lon": -76.99255833333333, "is_disabled": 0, "fusion_lon": 0.0, "rental_uris": {"android": "https://dc.lft.to/lastmile_qr_scan", "ios": "https://dc.lft.to/lastmile_qr_scan"}, "type": "electric_scooter"}, {"bike_id": "17c5d59f859df5b4b5737e53870e4d8a", "is_reserved": 0, "name": "17c5d59f859df5b4b5737e53870e4d8a", "lat": 38.9225475, "fusion_lat": 0.0, "lon": -77.01970616666667, "is_disabled": 0, "fusion_lon": 0.0, "rental_uris": {"android": "https://dc.lft.to/lastmile_qr_scan", "ios": "https://dc.lft.to/lastmile_qr_scan"}, "type": "electric_scooter"}, {"bike_id": "9ddb4a21e758021d89f47654ea8aff39", "is_reserved": 0, "name": "9ddb4a21e758021d89f47654ea8aff39", "lat": 38.907105, "fusion_lat": 0.0, "lon": -77.05045766666667, "is_disabled": 0, "fusion_lon": 0.0, "rental_uris": {"android": "https://dc.lft.to/lastmile_qr_scan", "ios": "https://dc.lft.to/lastmile_qr_scan"}, "type": "electric_scooter"}, {"bike_id": "1b48a51a091c120a4a6b278df55435df", "is_reserved": 0, "name": "1b48a51a091c120a4a6b278df55435df", "lat": 38.927967833333334, "fusion_lat": 0.0, "lon": -77.027194, "is_disabled": 0, "fusion_lon": 0.0, "rental_uris": {"android": "https://dc.lft.to/lastmile_qr_scan", "ios": "https://dc.lft.to/lastmile_qr_scan"}, "type": "electric_scooter"}, {"bike_id": "7fe85cfef9e9fd0e822fb31f17cb648f", "is_reserved": 0, "name": "7fe85cfef9e9fd0e822fb31f17cb648f", "lat": 38.930857333333336, "fusion_lat": 0.0, "lon": -77.0340925, "is_disabled": 0, "fusion_lon": 0.0, "rental_uris": {"android": "https://dc.lft.to/lastmile_qr_scan", "ios": "https://dc.lft.to/lastmile_qr_scan"}, "type": "electric_scooter"},