{"data": {"bikes": [{"rental_uris": {"ios": "https://dc.lft.to/lastmile_qr_scan", "android": "https://dc.lft.to/lastmile_qr_scan"}, "lon": -76.98565733333334, "type": "electric_scooter", "fusion_lat": 0.0, "lat": 38.85589683333333, "name": "d274177a7c9fd27e871bac8275213d68", "fusion_lon": 0.0, "bike_id": "d274177a7c9fd27e871bac8275213d68", "is_disabled": 0, "is_reserved": 0}, {"rental_uris": {"ios": "https://dc.lft.to/lastmile_qr_scan", "android": "https://dc.lft.to/lastmile_qr_scan"}, "lon": -77.04498183333334, "type": "electric_scooter", "fusion_lat": 0.0, "lat": 38.91960016666667, "name": "0773de23c92c1f7a107ac3322f354dd0", "fusion_lon": 0.0, "bike_id": "0773de23c92c1f7a107ac3322f354dd0", "is_disabled": 0, "is_reserved": 0}, {"rental_uris": {"ios": "https://dc.lft.to/lastmile_qr_scan", "android": "https://dc.lft.to/lastmile_qr_scan"}, "lon": -77.03178083333333, "type": "electric_scooter", "fusion_lat": 0.0, "lat": 38.921088833333336, "name": "9b7f18dd0fa517f0588e5b64c6428004", "fusion_lon": 0.0, "bike_id": "9b7f18dd0fa517f0588e5b64c6428004", "is_disabled": 0, "is_reserved": 0}, {"rental_uris": {"ios": "https://dc.lft.to/lastmile_qr_scan", "android": "https://dc.lft.to/lastmile_qr_scan"}, "lon": -77.04135983333333, "type": "electric_scooter", "fusion_lat": 0.0, "lat": 38.90357766666666, "name": "8ed8fe2d8d9ebf0a66f506ab83461407", "fusion_lon": 0.0, "bike_id": "8ed8fe2d8d9ebf0a66f506ab83461407", "is_disabled": 0, "is_reserved": 0}, {"rental_uris": {"ios": "https://dc.lft.to/lastmile_qr_scan", "android": "https://dc.lft.to/lastmile_qr_scan"}, "lon": -77.02584283333333, "type": "electric_scooter", "fusion_lat": 0.0, "lat": 38.892466, "name": "9edfa3608cb64921b0f4191658e4cc35", "fusion_lon": 0.0, "bike_id": "9edfa3608cb64921b0f4191658e4cc35", "is_disabled": 0, "is_reserved": 0}, {"rental_uris": {"ios": "https://dc.lft.to/lastmile_qr_scan", "android": "https://dc.lft.to/lastmile_qr_scan"}, "lon": -77.0790775, "type": "electric_scooter", "fusion_lat": 0.0, "lat": 38.94805733333333, "name": "cbde94099f9f6cd2861a3b3b276e2fe4", "fusion_lon": 0.0, "bike_id": "cbde94099f9f6cd2861a3b3b276e2fe4", "is_disabled": 0, "is_reserved": 0}, {"rental_uris": {"ios": "https://dc.lft.to/lastmile_qr_scan", "android": "https://dc.lft.to/lastmile_qr_scan"}, "lon": -77.031849, "type": "electric_scooter", "fusion_lat": 0.0, "lat": 38.916396, "name": "e143feb7bbdfe3564bb164b44f536f36", "fusion_lon": 0.0, "bike_id": "e143feb7bbdfe3564bb164b44f536f36", "is_disabled": 0, "is_reserved": 0}, {"rental_uris": {"ios": "https://dc.lft.to/lastmile_qr_scan", "android": "https://dc.lft.to/lastmile_qr_scan"}, "lon": -77.0099505, "type": "electric_scooter", "fusion_lat": 0.0, "lat": 38.89608716666667, "name": "c37943606594443e00f86471666ca3f3", "fusion_lon": 0.0, "bike_id": "c37943606594443e00f86471666ca3f3", "is_disabled": 0, "is_reserved": 0}, {"rental_uris": {"ios": "https://dc.lft.to/lastmile_qr_scan", "android": "https://dc.lft.to/lastmile_qr_scan"}, "lon": -76.94892633333333, "type": "electric_scooter", "fusion_lat": 0.0, "lat": 38.895298833333335, "name": "59757221b2d7176b285f31739c38d62a", "fusion_lon": 0.0, "bike_id": "59757221b2d7176b285f31739c38d62a", "is_disabled": 0, "is_reserved": 0}, {"rental_uris": {"ios": "https://dc.lft.to/lastmile_qr_scan", "android": "https://dc.lft.to/lastmile_qr_scan"}, "lon": -77.04709733333334, "type": "electric_scooter", "fusion_lat": 0.0, "lat": 38.9223625, "name": "6670efebcc1f6e43d3ef4d90058cea4a", "fusion_lon": 0.0, "bike_id": "6670efebcc1f6e43d3ef4d90058cea4a", "is_disabled": 0, "is_reserved": 0}, {"rental_uris": {"ios": "https://dc.lft.to/lastmile_qr_scan", "android": "https://dc.lft.to/lastmile_qr_scan"}, "lon": -77.04981783333334, "type": "electric_scooter", "fusion_lat": 0.0, "lat": 38.901128166666666, "name": "4bfb134c8bc9350fb6acad589d957e43", "fusion_lon": 0.0, "bike_id": "4bfb134c8bc9350fb6acad589d957e43", "is_disabled": 0, "is_reserved": 0}, {"rental_uris": {"ios": "https://dc.lft.to/lastmile_qr_scan", "android": "https://dc.lft.to/lastmile_qr_scan"}, "lon": -77.03206883333333, "type": "electric_scooter", "fusion_lat": 0.0, "lat": 38.92580133333333, "name": "6fc785285518836606f3c3cc9676bf81", "fusion_lon": 0.0, "bike_id": "6fc785285518836606f3c3cc9676bf81", "is_disabled": 0, "is_reserved": 0}, {"rental_uris": {"ios": "https://dc.lft.to/lastmile_qr_scan", "android": "https://dc.lft.to/lastmile_qr_scan"}, "lon": -77.0037115, "type": "electric_scooter", "fusion_lat": 0.0, "lat": 38.87658583333333, "name": "b1553e8064752b96b6b82c1a82f20866", "fusion_lon": 0.0, "bike_id": "b1553e8064752b96b6b82c1a82f20866", "is_disabled": 0, "is_reserved": 0}, {"rental_uris": {"ios": "https://dc.lft.to/lastmile_qr_scan", "android": "https://dc.lft.to/lastmile_qr_scan"}, "lon": -77.02580516666667, "type": "electric_scooter", "fusion_lat": 0.0, "lat": 38.90370333333333, "name": "a21d1d3a877d3a22dc1c5d6694d103d5", "fusion_lon": 0.0, "bike_id": "a21d1d3a877d3a22dc1c5d6694d103d5", "is_disabled": 0, "is_reserved": 0}, {"rental_uris": {"ios": "https://dc.lft.to/lastmile_qr_scan", "android": "https://dc.lft.to/lastmile_qr_scan"}, "lon": -77.0318135, "type": "electric_scooter", "fusion_lat": 0.0, "lat": 38.901581, "name": "199d24e426e58ff84545ada95dd68145", "fusion_lon": 0.0, "bike_id": "199d24e426e58ff84545ada95dd68145", "is_disabled": 0, "is_reserved": 0}, {"rental_uris": {"ios": "https://dc.lft.to/lastmile_qr_scan", "android": "https://dc.lft.to/lastmile_qr_scan"}, "lon": -77.00862166666667, "type": "electric_bike", "fusion_lat": 0.0, "lat": 38.827293166666664, "name": "3e569ef913cd49ade113a169fceb2074", "fusion_lon": 0.0, "bike_id": "3e569ef913cd49ade113a169fceb2074", "is_disabled": 0, "is_reserved": 0}, {"rental_uris": {"ios": "https://dc.lft.to/lastmile_qr_scan", "android": "https://dc.lft.to/lastmile_qr_scan"}, "lon": -77.01949416666666, "type": "electric_scooter", "fusion_lat": 0.0, "lat": 38.92416333333333, "name": "8ac84ce23e06e84f3ac75e08a170356e", "fusion_lon": 0.0, "bike_id": "8ac84ce23e06e84f3ac75e08a170356e", "is_disabled": 0, "is_reserved": 0}, {"rental_uris": {"ios": "https://dc.lft.to/lastmile_qr_scan", "android": "https://dc.lft.to/lastmile_qr_scan"}, "lon": -76.931761, "type": "electric_scooter", "fusion_lat": 0.0, "lat": 38.898868666666665, "name": "824d66fccd45d6c49e326c0516cc8b1f", "fusion_lon": 0.0, "bike_id": "824d66fccd45d6c49e326c0516cc8b1f", "is_disabled": 0, "is_reserved": 0}, {"rental_uris": {"ios": "https://dc.lft.to/lastmile_qr_scan", "android": "https://dc.lft.to/lastmile_qr_scan"}, "lon": -76.937358, "type": "electric_scooter", "fusion_lat": 0.0, "lat": 38.89014183333333, "name": "c14665afa3774794bfd21aa6dd2b7b49", "fusion_lon": 0.0, "bike_id": "c14665afa3774794bfd21aa6dd2b7b49", "is_disabled": 0, "is_reserved": 0}, {"rental_uris": {"ios": "https://dc.lft.to/lastmile_qr_scan", "android": "https://dc.lft.to/lastmile_qr_scan"}, "lon": -77.000308, "type": "electric_scooter", "fusion_lat": 0.0, "lat": 38.876444, "name": "4decc5e3395c2ab3c530d6906e02333b", "fusion_lon": 0.0, "bike_id": "4decc5e3395c2ab3c530d6906e02333b", "is_disabled": 0, "is_reserved": 0}, {"rental_uris": {"ios": "https://dc.lft.to/lastmile_qr_scan", "android": "https://dc.lft.to/lastmile_qr_scan"}, "lon": -77.037859, "type": "electric_scooter", "fusion_lat": 0.0, "lat": 38.93027583333333, "name": "8802b3ab8efe4f0900363c46edb48ecc", "fusion_lon": 0.0, "bike_id": "8802b3ab8efe4f0900363c46edb48ecc", "is_disabled": 0, "is_reserved": 0}, {"rental_uris": {"ios": "https://dc.lft.to/lastmile_qr_scan", "android": "https://dc.lft.to/lastmile_qr_scan"}, "lon": -77.0395965, "type": "electric_scooter", "fusion_lat": 0.0, "lat": 38.898554, "name": "532898d40e7e414949ee70ddae3692ef", "fusion_lon": 0.0, "bike_id": "532898d40e7e414949ee70ddae3692ef", "is_disabled": 0, "is_reserved": 0}, {"rental_uris": {"ios": "https://dc.lft.to/lastmile_qr_scan", "android": "https://dc.lft.to/lastmile_qr_scan"}, "lon": -77.04223816666666, "type": "electric_scooter", "fusion_lat": 0.0, "lat": 38.91476933333333, "name": "46e012b5095a005f4c137dc121ddd24b", "fusion_lon": 0.0, "bike_id": "46e012b5095a005f4c137dc121ddd24b", "is_disabled": 0, "is_reserved": 0}, {"rental_uris": {"ios": "https://dc.lft.to/lastmile_qr_scan", "android": "https://dc.lft.to/lastmile_qr_scan"}, "lon": -77.01601833333334, "type": "electric_scooter", "fusion_lat": 0.0, "lat": 38.911359, "name": "58200001db1f28e38a92b22cdae657cf", "fusion_lon": 0.0, "bike_id": "58200001db1f28e38a92b22cdae657cf", "is_disabled": 0, "is_reserved": 0}, {"rental_uris": {"ios": "https://dc.lft.to/lastmile_qr_scan", "android": "https://dc.lft.to/lastmile_qr_scan"}, "lon": -77.02650566666667, "type": "electric_scooter", "fusion_lat": 0.0, "lat": 38.8811585, "name": "23eef51ff41c58e10a99fc695228a788", "fusion_lon": 0.0, "bike_id": "23eef51ff41c58e10a99fc695228a788", "is_disabled": 0, "is_reserved": 0}, {"rental_uris": {"ios": "https://dc.lft.to/lastmile_qr_scan", "android": "https://dc.lft.to/lastmile_qr_scan"}, "lon": -76.9992625, "type": "electric_scooter", "fusion_lat": 0.0, "lat": 38.90909583333333, "name": "ea2d7acce02aecadd5a0ace7e3b7bcc3", "fusion_lon": 0.0, "bike_id": "ea2d7acce02aecadd5a0ace7e3b7bcc3", "is_disabled": 0, "is_reserved": 0}, {"rental_uris": {"ios": "https://dc.lft.to/lastmile_qr_scan", "android": "https://dc.lft.to/lastmile_qr_scan"}, "lon": -76.9822885, "type": "electric_scooter", "fusion_lat": 0.0, "lat": 38.867631333333335, "name": "fe1b468e5340a07e28de45b7bb3858e5", "fusion_lon": 0.0, "bike_id": "fe1b468e5340a07e28de45b7bb3858e5", "is_disabled": 0, "is_reserved": 0}, {"rental_uris": {"ios": "https://dc.lft.to/lastmile_qr_scan", "android": "https://dc.lft.to/lastmile_qr_scan"}, "lon": -77.0257135, "type": "electric_scooter", "fusion_lat": 0.0, "lat": 38.887480833333335, "name": "8d55a76e9851744428b0d709712861d5", "fusion_lon": 0.0, "bike_id": "8d55a76e9851744428b0d709712861d5", "is_disabled": 0, "is_reserved": 0}, {"rental_uris": {"ios": "https://dc.lft.to/lastmile_qr_scan", "android": "https://dc.lft.to/lastmile_qr_scan"}, "lon": -77.0350855, "type": "electric_scooter", "fusion_lat": 0.0, "lat": 38.91884483333333, "name": "078f3e85e7021263921804bfb25b033f", "fusion_lon": 0.0, "bike_id": "078f3e85e7021263921804bfb25b033f", "is_disabled": 0, "is_reserved": 0}, {"rental_uris": {"ios": "https://dc.lft.to/lastmile_qr_scan", "android": "https://dc.lft.to/lastmile_qr_scan"}, "lon": -77.03524216666666, "type": "electric_scooter", "fusion_lat": 0.0, "lat": 38.92334866666667, "name": "9905c06169fd755f6a240eeb7b73f6a8", "fusion_lon": 0.0, "bike_id": "9905c06169fd755f6a240eeb7b73f6a8", "is_disabled": 0, "is_reserved": 0}, {"rental_uris": {"ios": "https://dc.lft.to/lastmile_qr_scan", "android": "https://dc.lft.to/lastmile_qr_scan"}, "lon": -77.05515816666667, "type": "electric_scooter", "fusion_lat": 0.0, "lat": 38.928366, "name": "02f163fd1449b3d4ac369299b37403fb", "fusion_lon": 0.0, "bike_id": "02f163fd1449b3d4ac369299b37403fb", "is_disabled": 0, "is_reserved": 0}, {"rental_uris": {"ios": "https://dc.lft.to/lastmile_qr_scan", "android": "https://dc.lft.to/lastmile_qr_scan"}, "lon": -76.9802245, "type": "electric_scooter", "fusion_lat": 0.0, "lat": 38.887609166666664, "name": "d667f59b62c0ceb03c7a2da04e61ab55", "fusion_lon": 0.0, "bike_id": "d667f59b62c0ceb03c7a2da04e61ab55", "is_disabled": 0, "is_reserved": 0}, {"rental_uris": {"ios": "https://dc.lft.to/lastmile_qr_scan", "android": "https://dc.lft.to/lastmile_qr_scan"}, "lon": -77.0336335, "type": "electric_scooter", "fusion_lat": 0.0, "lat": 38.928885, "name": "ae66ca03cfeaf88f99365e497d18d29d", "fusion_lon": 0.0, "bike_id": "ae66ca03cfeaf88f99365e497d18d29d", "is_disabled": 0, "is_reserved": 0}, {"rental_uris": {"ios": "https://dc.lft.to/lastmile_qr_scan", "android": "https://dc.lft.to/lastmile_qr_scan"}, "lon": -77.02144516666667, "type": "electric_scooter", "fusion_lat": 0.0, "lat": 38.897194, "name": "0263a086752af1d738069bc4d9e2d2c0", "fusion_lon": 0.0, "bike_id": "0263a086752af1d738069bc4d9e2d2c0", "is_disabled": 0, "is_reserved": 0}, {"rental_uris": {"ios": "https://dc.lft.to/lastmile_qr_scan", "android": "https://dc.lft.to/lastmile_qr_scan"}, "lon": -77.05755116666667, "type": "electric_scooter", "fusion_lat": 0.0, "lat": 38.9341775, "name": "e84d6fada8f587e29ae76a8e4e1c49ef", "fusion_lon": 0.0, "bike_id": "e84d6fada8f587e29ae76a8e4e1c49ef", "is_disabled": 0, "is_reserved": 0}, {"rental_uris": {"ios": "https://dc.lft.to/lastmile_qr_scan", "android": "https://dc.lft.to/lastmile_qr_scan"}, "lon": -77.0462145, "type": "electric_scooter", "fusion_lat": 0.0, "lat": 38.916355833333334, "name": "c80ae4a1e10f79977c373751a29acb0c", "fusion_lon": 0.0, "bike_id": "c80ae4a1e10f79977c373751a29acb0c", "is_disabled": 0, "is_reserved": 0}, {"rental_uris": {"ios": "https://dc.lft.to/lastmile_qr_scan", "android": "https://dc.lft.to/lastmile_qr_scan"}, "lon": -77.07187966666666, "type": "electric_scooter", "fusion_lat": 0.0, "lat": 38.91997383333333, "name": "13b721f1ad74a502e607883b72668de8", "fusion_lon": 0.0, "bike_id": "13b721f1ad74a502e607883b72668de8", "is_disabled": 0, "is_reserved": 0}, {"rental_uris": {"ios": "https://dc.lft.to/lastmile_qr_scan", "android": "https://dc.lft.to/lastmile_qr_scan"}, "lon": -77.0260005, "type": "electric_scooter", "fusion_lat": 0.0, "lat": 38.91671783333334, "name": "daf8ce204ef416337b172fdba6fc1aa1", "fusion_lon": 0.0, "bike_id": "daf8ce204ef416337b172fdba6fc1aa1", "is_disabled": 0, "is_reserved": 0}, {"rental_uris": {"ios": "https://dc.lft.to/lastmile_qr_scan", "android": "https://dc.lft.to/lastmile_qr_scan"}, "lon": -77.0789965, "type": "electric_bike", "fusion_lat": 0.0, "lat": 38.8393855, "name": "732d8fd4b8336a3010c48666e65f7b63", "fusion_lon": 0.0, "bike_id": "732d8fd4b8336a3010c48666e65f7b63", "is_disabled": 0, "is_reserved": 0}, {"rental_uris": {"ios": "https://dc.lft.to/lastmile_qr_scan", "android": "https://dc.lft.to/lastmile_qr_scan"}, "lon": -77.00778516666666, "type": "electric_scooter", "fusion_lat": 0.0, "lat": 38.8709175, "name": "d315811924be1d7390c9a908204aaa35", "fusion_lon": 0.0, "bike_id": "d315811924be1d7390c9a908204aaa35", "is_disabled": 0, "is_reserved": 0}, {"rental_uris": {"ios": "https://dc.lft.to/lastmile_qr_scan", "android": "https://dc.lft.to/lastmile_qr_scan"}, "lon": -77.02349, "type": "electric_scooter", "fusion_lat": 0.0, "lat": 38.93380883333333, "name": "87a50fa3ba51d6e620eea1b6dfb6f56e", "fusion_lon": 0.0, "bike_id": "87a50fa3ba51d6e620eea1b6dfb6f56e", "is_disabled": 0, "is_reserved": 0}, {"rental_uris": {"ios": "https://dc.lft.to/lastmile_qr_scan", "android": "https://dc.lft.to/lastmile_qr_scan"}, "lon": -77.11428216666667, "type": "electric_bike", "fusion_lat": 0.0, "lat": 38.84306433333333, "name": "e61a0aaa65a78e9805587cd2d869bde9", "fusion_lon": 0.0, "bike_id": "e61a0aaa65a78e9805587cd2d869bde9", "is_disabled": 0, "is_reserved": 0}, {"rental_uris": {"ios": "https://dc.lft.to/lastmile_qr_scan", "android": "https://dc.lft.to/lastmile_qr_scan"}, "lon": -77.02356166666667, "type": "electric_scooter", "fusion_lat": 0.0, "lat": 38.93135, "name": "6e20b2e785f66041dc90ffe207e0d227", "fusion_lon": 0.0, "bike_id": "6e20b2e785f66041dc90ffe207e0d227", "is_disabled": 0, "is_reserved": 0}, {"rental_uris": {"ios": "https://dc.lft.to/lastmile_qr_scan", "android": "https://dc.lft.to/lastmile_qr_scan"}, "lon": -77.012324, "type": "electric_scooter", "fusion_lat": 0.0, "lat": 38.91331983333333, "name": "6bba5ae2ee5aaa665c1779a77aac55f9", "fusion_lon": 0.0, "bike_id": "6bba5ae2ee5aaa665c1779a77aac55f9", "is_disabled": 0, "is_reserved": 0}, {"rental_uris": {"ios": "https://dc.lft.to/lastmile_qr_scan", "android": "https://dc.lft.to/lastmile_qr_scan"}, "lon": -76.97256966666667, "type": "electric_bike", "fusion_lat": 0.0, "lat": 38.91924183333333, "name": "a4a7cafa7412553f333a3c1e5eb92811", "fusion_lon": 0.0, "bike_id": "a4a7cafa7412553f333a3c1e5eb92811", "is_disabled": 0, "is_reserved": 0}, {"rental_uris": {"ios": "https://dc.lft.to/lastmile_qr_scan", "android": "https://dc.lft.to/lastmile_qr_scan"}, "lon": -77.05091033333333, "type": "electric_bike", "fusion_lat": 0.0, "lat": 38.813262333333334, "name": "cc3caaed77bd462c1025bc3afb65a82a", "fusion_lon": 0.0, "bike_id": "cc3caaed77bd462c1025bc3afb65a82a", "is_disabled": 0, "is_reserved": 0}, {"rental_uris": {"ios": "https://dc.lft.to/lastmile_qr_scan", "android": "https://dc.lft.to/lastmile_qr_scan"}, "lon": -77.0296775, "type": "electric_scooter", "fusion_lat": 0.0, "lat": 38.895761666666665, "name": "4f19b311309467f3e109751572c72523", "fusion_lon": 0.0, "bike_id": "4f19b311309467f3e109751572c72523", "is_disabled": 0, "is_reserved": 0}, {"rental_uris": {"ios": "https://dc.lft.to/lastmile_qr_scan", "android": "https://dc.lft.to/lastmile_qr_scan"}, "lon": -77.015324, "type": "electric_scooter", "fusion_lat": 0.0, "lat": 38.88739183333333, "name": "35cb39bdf027dd61f83d5e7c9dada089", "fusion_lon": 0.0, "bike_id": "35cb39bdf027dd61f83d5e7c9dada089", "is_disabled": 0, "is_reserved": 0}, {"rental_uris": {"ios": "https://dc.lft.to/lastmile_qr_scan", "android": "https://dc.lft.to/lastmile_qr_scan"}, "lon": -76.93626266666666, "type": "electric_bike", "fusion_lat": 0.0, "lat": 38.97078883333333, "name": "479b1c97669b66af0ce49d8da8bf0838", "fusion_lon": 0.0, "bike_id": "479b1c97669b66af0ce49d8da8bf0838", "is_disabled": 0, "is_reserved": 0}, {"rental_uris": {"ios": "https://dc.lft.to/lastmile_qr_scan", "android": "https://dc.lft.to/lastmile_qr_scan"}, "lon": -77.0270745, "type": "electric_scooter", "fusion_lat": 0.0, "lat": 38.881597166666666, "name": "6281f3a3236ebcdcdc9c3e94192671e3", "fusion_lon": 0.0, "bike_id": "6281f3a3236ebcdcdc9c3e94192671e3", "is_disabled": 0, "is_reserved": 0}, {"rental_uris": {"ios": "https://dc.lft.to/lastmile_qr_scan", "android": "https://dc.lft.to/lastmile_qr_scan"}, "lon": -77.0386645, "type": "electric_scooter", "fusion_lat": 0.0, "lat": 38.908121333333334, "name": "65e648472c7c2c2333eb5afbb472a70c", "fusion_lon": 0.0, "bike_id": "65e648472c7c2c2333eb5afbb472a70c", "is_disabled": 0, "is_reserved": 0}, {"rental_uris": {"ios": "https://dc.lft.to/lastmile_qr_scan", "android": "https://dc.lft.to/lastmile_qr_scan"}, "lon": -77.01186733333333, "type": "electric_scooter", "fusion_lat": 0.0, "lat": 38.90029283333333, "name": "b2a57b4e8875a8d25a4fbbac687677c2", "fusion_lon": 0.0, "bike_id": "b2a57b4e8875a8d25a4fbbac687677c2", "is_disabled": 0, "is_reserved": 0}, {"rental_uris": {"ios": "https://dc.lft.to/lastmile_qr_scan", "android": "https://dc.lft.to/lastmile_qr_scan"}, "lon": -77.02343816666666, "type": "electric_scooter", "fusion_lat": 0.0, "lat": 38.962059333333336, "name": "28a00a8a3428d10b7ac9b01d1126aee5", "fusion_lon": 0.0, "bike_id": "28a00a8a3428d10b7ac9b01d1126aee5", "is_disabled": 0, "is_reserved": 0}, {"rental_uris": {"ios": "https://dc.lft.to/lastmile_qr_scan", "android": "https://dc.lft.to/lastmile_qr_scan"}, "lon": -77.0056925, "type": "electric_scooter", "fusion_lat": 0.0, "lat": 38.92719666666667, "name": "448afdeac47f52c4c88c4cd1bd1193f7", "fusion_lon": 0.0, "bike_id": "448afdeac47f52c4c88c4cd1bd1193f7", "is_disabled": 0, "is_reserved": 0}, {"rental_uris": {"ios": "https://dc.lft.to/lastmile_qr_scan", "android": "https://dc.lft.to/lastmile_qr_scan"}, "lon": -77.05737433333333, "type": "electric_scooter", "fusion_lat": 0.0, "lat": 38.933665166666664, "name": "6a7c8099a29ae8908ebc417230f5a83e", "fusion_lon": 0.0, "bike_id": "6a7c8099a29ae8908ebc417230f5a83e", "is_disabled": 0, "is_reserved": 0}, {"rental_uris": {"ios": "https://dc.lft.to/lastmile_qr_scan", "android": "https://dc.lft.to/lastmile_qr_scan"}, "lon": -77.00528583333333, "type": "electric_scooter", "fusion_lat": 0.0, "lat": 38.9290725, "name": "726606a946fa65e0ccf9a8cc85c56c15", "fusion_lon": 0.0, "bike_id": "726606a946fa65e0ccf9a8cc85c56c15", "is_disabled": 0, "is_reserved": 0}, {"rental_uris": {"ios": "https://dc.lft.to/lastmile_qr_scan", "android": "https://dc.lft.to/lastmile_qr_scan"}, "lon": -77.06346783333333, "type": "electric_scooter", "fusion_lat": 0.0, "lat": 38.9445545, "name": "9ac9408d23bda19d2723fdfc4ae9219a", "fusion_lon": 0.0, "bike_id": "9ac9408d23bda19d2723fdfc4ae9219a", "is_disabled": 0, "is_reserved": 0}, {"rental_uris": {"ios": "https://dc.lft.to/lastmile_qr_scan", "android": "https://dc.lft.to/lastmile_qr_scan"}, "lon": -77.04810816666667, "type": "electric_scooter", "fusion_lat": 0.0, "lat": 38.89740333333334, "name": "a9c1807466b656ca2594863c123a11ab", "fusion_lon": 0.0, "bike_id": "a9c1807466b656ca2594863c123a11ab", "is_disabled": 0, "is_reserved": 0}, {"rental_uris": {"ios": "https://dc.lft.to/lastmile_qr_scan", "android": "https://dc.lft.to/lastmile_qr_scan"}, "lon": -77.03958033333333, "type": "electric_scooter", "fusion_lat": 0.0, "lat": 38.9148435, "name": "5f850f727b707bb8a5f9e1cf49893cad", "fusion_lon": 0.0, "bike_id": "5f850f727b707bb8a5f9e1cf49893cad", "is_disabled": 0, "is_reserved": 0}, {"rental_uris": {"ios": "https://dc.lft.to/lastmile_qr_scan", "android": "https://dc.lft.to/lastmile_qr_scan"}, "lon": -77.03028983333333, "type": "electric_scooter", "fusion_lat": 0.0, "lat": 38.931143666666664, "name": "93749732f3baabe8f87903e8a946a563", "fusion_lon": 0.0, "bike_id": "93749732f3baabe8f87903e8a946a563", "is_disabled": 0, "is_reserved": 0}, {"rental_uris": {"ios": "https://dc.lft.to/lastmile_qr_scan", "android": "https://dc.lft.to/lastmile_qr_scan"}, "lon": -77.03535316666667, "type": "electric_scooter", "fusion_lat": 0.0, "lat": 38.925974333333336, "name": "73a9dd873c706af8a38eeb33ec3f5470", "fusion_lon": 0.0, "bike_id": "73a9dd873c706af8a38eeb33ec3f5470", "is_disabled": 0, "is_reserved": 0}, {"rental_uris": {"ios": "https://dc.lft.to/lastmile_qr_scan", "android": "https://dc.lft.to/lastmile_qr_scan"}, "lon": -77.072744, "type": "electric_scooter", "fusion_lat": 0.0, "lat": 38.93481466666667, "name": "fad56baa7e6118749e9affdc9b13ab18", "fusion_lon": 0.0, "bike_id": "fad56baa7e6118749e9affdc9b13ab18", "is_disabled": 0, "is_reserved": 0}, {"rental_uris": {"ios": "https://dc.lft.to/lastmile_qr_scan", "android": "https://dc.lft.to/lastmile_qr_scan"}, "lon": -77.05316283333333, "type": "electric_scooter", "fusion_lat": 0.0, "lat": 38.923495, "name": "24385cf7076fd615cc40f1c051b7927f", "fusion_lon": 0.0, "bike_id": "24385cf7076fd615cc40f1c051b7927f", "is_disabled": 0, "is_reserved": 0}, {"rental_uris": {"ios": "https://dc.lft.to/lastmile_qr_scan", "android": "https://dc.lft.to/lastmile_qr_scan"}, "lon": -77.0219485, "type": "electric_scooter", "fusion_lat": 0.0, "lat": 38.896337, "name": "e92b52a3e7a09da61788403d33df004d", "fusion_lon": 0.0, "bike_id": "e92b52a3e7a09da61788403d33df004d", "is_disabled": 0, "is_reserved": 0}, {"rental_uris": {"ios": "https://dc.lft.to/lastmile_qr_scan", "android": "https://dc.lft.to/lastmile_qr_scan"}, "lon": -77.02407866666667, "type": "electric_scooter", "fusion_lat": 0.0, "lat": 38.911077, "name": "953d944ad088cc8a992d4d32456a9909", "fusion_lon": 0.0, "bike_id": "953d944ad088cc8a992d4d32456a9909", "is_disabled": 0, "is_reserved": 0}, {"rental_uris": {"ios": "https://dc.lft.to/lastmile_qr_scan", "android": "https://dc.lft.to/lastmile_qr_scan"}, "lon": -77.03190733333334, "type": "electric_scooter", "fusion_lat": 0.0, "lat": 38.917637, "name": "fd61e03869e85dfdf63a9802a4a3caef", "fusion_lon": 0.0, "bike_id": "fd61e03869e85dfdf63a9802a4a3caef", "is_disabled": 0, "is_reserved": 0}, {"rental_uris": {"ios": "https://dc.lft.to/lastmile_qr_scan", "android": "https://dc.lft.to/lastmile_qr_scan"}, "lon": -77.01711866666666, "type": "electric_scooter", "fusion_lat": 0.0, "lat": 38.92054133333333, "name": "1939369929aab1ad87248e53f1dc5501", "fusion_lon": 0.0, "bike_id": "1939369929aab1ad87248e53f1dc5501", "is_disabled": 0, "is_reserved": 0}, {"rental_uris": {"ios": "https://dc.lft.to/lastmile_qr_scan", "android": "https://dc.lft.to/lastmile_qr_scan"}, "lon": -77.03874116666667, "type": "electric_scooter", "fusion_lat": 0.0, "lat": 38.915537666666665, "name": "c845a0f939d558b081bc5b2570c69e2e", "fusion_lon": 0.0, "bike_id": "c845a0f939d558b081bc5b2570c69e2e", "is_disabled": 0, "is_reserved": 0}, {"rental_uris": {"ios": "https://dc.lft.to/lastmile_qr_scan", "android": "https://dc.lft.to/lastmile_qr_scan"}, "lon": -76.9993655, "type": "electric_scooter", "fusion_lat": 0.0, "lat": 38.896190833333335, "name": "7b4c199c7e4b688ad8e4024adc75f315", "fusion_lon": 0.0, "bike_id": "7b4c199c7e4b688ad8e4024adc75f315", "is_disabled": 0, "is_reserved": 0}, {"rental_uris": {"ios": "https://dc.lft.to/lastmile_qr_scan", "android": "https://dc.lft.to/lastmile_qr_scan"}, "lon": -77.04552833333334, "type": "electric_scooter", "fusion_lat": 0.0, "lat": 38.917856666666665, "name": "72fee1a3e08cb87506d04605eb8ad733", "fusion_lon": 0.0, "bike_id": "72fee1a3e08cb87506d04605eb8ad733", "is_disabled": 0, "is_reserved": 0}, {"rental_uris": {"ios": "https://dc.lft.to/lastmile_qr_scan", "android": "https://dc.lft.to/lastmile_qr_scan"}, "lon": -77.01298866666667, "type": "electric_scooter", "fusion_lat": 0.0, "lat": 38.900477, "name": "cf81dcba815cef7ba2b42a4151e45f03", "fusion_lon": 0.0, "bike_id": "cf81dcba815cef7ba2b42a4151e45f03", "is_disabled": 0, "is_reserved": 0}, {"rental_uris": {"ios": "https://dc.lft.to/lastmile_qr_scan", "android": "https://dc.lft.to/lastmile_qr_scan"}, "lon": -77.0283525, "type": "electric_scooter", "fusion_lat": 0.0, "lat": 38.88768616666667, "name": "6c36b385d83dbc8174d0683057ad803f", "fusion_lon": 0.0, "bike_id": "6c36b385d83dbc8174d0683057ad803f", "is_disabled": 0, "is_reserved": 0}, {"rental_uris": {"ios": "https://dc.lft.to/lastmile_qr_scan", "android": "https://dc.lft.to/lastmile_qr_scan"}, "lon": -77.036887, "type": "electric_scooter", "fusion_lat": 0.0, "lat": 38.922597833333334, "name": "d44801b42988307d9ed745230d858ba2", "fusion_lon": 0.0, "bike_id": "d44801b42988307d9ed745230d858ba2", "is_disabled": 0, "is_reserved": 0}, {"rental_uris": {"ios": "https://dc.lft.to/lastmile_qr_scan", "android": "https://dc.lft.to/lastmile_qr_scan"}, "lon": -77.03823433333334, "type": "electric_scooter", "fusion_lat": 0.0, "lat": 38.907783333333334, "name": "06a3230e27df0208eb60a25a18e595d4", "fusion_lon": 0.0, "bike_id": "06a3230e27df0208eb60a25a18e595d4", "is_disabled": 0, "is_reserved": 0}, {"rental_uris": {"ios": "https://dc.lft.to/lastmile_qr_scan", "android": "https://dc.lft.to/lastmile_qr_scan"}, "lon": -77.04571183333333, "type": "electric_scooter", "fusion_lat": 0.0, "lat": 38.910570666666665, "name": "6fa2d2e23dc28297636c98d4eae212c0", "fusion_lon": 0.0, "bike_id": "6fa2d2e23dc28297636c98d4eae212c0", "is_disabled": 0, "is_reserved": 0}, {"rental_uris": {"ios": "https://dc.lft.to/lastmile_qr_scan", "android": "https://dc.lft.to/lastmile_qr_scan"}, "lon": -77.02223033333334, "type": "electric_scooter", "fusion_lat": 0.0, "lat": 38.8935825, "name": "7eda7cca40509c2959461b3a494ddf95", "fusion_lon": 0.0, "bike_id": "7eda7cca40509c2959461b3a494ddf95", "is_disabled": 0, "is_reserved": 0}, {"rental_uris": {"ios": "https://dc.lft.to/lastmile_qr_scan", "android": "https://dc.lft.to/lastmile_qr_scan"}, "lon": -77.03882833333333, "type": "electric_scooter", "fusion_lat": 0.0, "lat": 38.92228733333334, "name": "cfba575b29a6739246e34fb4fd0713e3", "fusion_lon": 0.0, "bike_id": "cfba575b29a6739246e34fb4fd0713e3", "is_disabled": 0, "is_reserved": 0}, {"rental_uris": {"ios": "https://dc.lft.to/lastmile_qr_scan", "android": "https://dc.lft.to/lastmile_qr_scan"}, "lon": -76.98995733333334, "type": "electric_scooter", "fusion_lat": 0.0, "lat": 38.9039035, "name": "6affe221cb997be5c5482cd366648cb3", "fusion_lon": 0.0, "bike_id": "6affe221cb997be5c5482cd366648cb3", "is_disabled": 0, "is_reserved": 0}, {"rental_uris": {"ios": "https://dc.lft.to/lastmile_qr_scan", "android": "https://dc.lft.to/lastmile_qr_scan"}, "lon": -77.01023033333334, "type": "electric_scooter", "fusion_lat": 0.0, "lat": 38.918111833333334, "name": "ff03ac5d7b649603004b202d385cdbc4", "fusion_lon": 0.0, "bike_id": "ff03ac5d7b649603004b202d385cdbc4", "is_disabled": 0, "is_reserved": 0}, {"rental_uris": {"ios": "https://dc.lft.to/lastmile_qr_scan", "android": "https://dc.lft.to/lastmile_qr_scan"}, "lon": -76.99815783333334, "type": "electric_scooter", "fusion_lat": 0.0, "lat": 38.900491, "name": "b30b717f2712e56f8b278981ef777788", "fusion_lon": 0.0, "bike_id": "b30b717f2712e56f8b278981ef777788", "is_disabled": 0, "is_reserved": 0}, {"rental_uris": {"ios": "https://dc.lft.to/lastmile_qr_scan", "android": "https://dc.lft.to/lastmile_qr_scan"}, "lon": -76.98310283333333, "type": "electric_scooter", "fusion_lat": 0.0, "lat": 38.8997905, "name": "cffab4377f9d3143a206dee23f90638b", "fusion_lon": 0.0, "bike_id": "cffab4377f9d3143a206dee23f90638b", "is_disabled": 0, "is_reserved": 0}, {"rental_uris": {"ios": "https://dc.lft.to/lastmile_qr_scan", "android": "https://dc.lft.to/lastmile_qr_scan"}, "lon": -77.0375485, "type": "electric_scooter", "fusion_lat": 0.0, "lat": 38.912591166666665, "name": "e1ec80399b2921a291921e818de65d48", "fusion_lon": 0.0, "bike_id": "e1ec80399b2921a291921e818de65d48", "is_disabled": 0, "is_reserved": 0}, {"rental_uris": {"ios": "https://dc.lft.to/lastmile_qr_scan", "android": "https://dc.lft.to/lastmile_qr_scan"}, "lon": -77.05753933333334, "type": "electric_scooter", "fusion_lat": 0.0, "lat": 38.93420066666667, "name": "d95802504a65d34cbcedf1c10d5dcf48", "fusion_lon": 0.0, "bike_id": "d95802504a65d34cbcedf1c10d5dcf48", "is_disabled": 0, "is_reserved": 0}, {"rental_uris": {"ios": "https://dc.lft.to/lastmile_qr_scan", "android": "https://dc.lft.to/lastmile_qr_scan"}, "lon": -76.99553216666666, "type": "electric_scooter", "fusion_lat": 0.0, "lat": 38.862323833333335, "name": "fc8ac9726114b33c5db782a421eb34ca", "fusion_lon": 0.0, "bike_id": "fc8ac9726114b33c5db782a421eb34ca", "is_disabled": 0, "is_reserved": 0}, {"rental_uris": {"ios": "https://dc.lft.to/lastmile_qr_scan", "android": "https://dc.lft.to/lastmile_qr_scan"}, "lon": -77.0591785, "type": "electric_scooter", "fusion_lat": 0.0, "lat": 38.90958066666666, "name": "54e66cc02d5be3ee928d14693ab37274", "fusion_lon": 0.0, "bike_id": "54e66cc02d5be3ee928d14693ab37274", "is_disabled": 0, "is_reserved": 0}, {"rental_uris": {"ios": "https://dc.lft.to/lastmile_qr_scan", "android": "https://dc.lft.to/lastmile_qr_scan"}, "lon": -77.01990883333333, "type": "electric_scooter", "fusion_lat": 0.0, "lat": 38.9377905, "name": "fe1cefa04559c605a076df8159e50021", "fusion_lon": 0.0, "bike_id": "fe1cefa04559c605a076df8159e50021", "is_disabled": 0, "is_reserved": 0}, {"rental_uris": {"ios": "https://dc.lft.to/lastmile_qr_scan", "android": "https://dc.lft.to/lastmile_qr_scan"}, "lon": -77.031459, "type": "electric_scooter", "fusion_lat": 0.0, "lat": 38.91405666666667, "name": "c62678fd43e7f4b268fe44b11d55463b", "fusion_lon": 0.0, "bike_id": "c62678fd43e7f4b268fe44b11d55463b", "is_disabled": 0, "is_reserved": 0}, {"rental_uris": {"ios": "https://dc.lft.to/lastmile_qr_scan", "android": "https://dc.lft.to/lastmile_qr_scan"}, "lon": -77.034731, "type": "electric_scooter", "fusion_lat": 0.0, "lat": 38.934367333333334, "name": "90ce1cd252dc1b0ff6a95df18a95a6e9", "fusion_lon": 0.0, "bike_id": "90ce1cd252dc1b0ff6a95df18a95a6e9", "is_disabled": 0, "is_reserved": 0}, {"rental_uris": {"ios": "https://dc.lft.to/lastmile_qr_scan", "android": "https://dc.lft.to/lastmile_qr_scan"}, "lon": -76.92375066666666, "type": "electric_bike", "fusion_lat": 0.0, "lat": 38.88375816666667, "name": "86e47da63e359f68c2d64accf7fbec2b", "fusion_lon": 0.0, "bike_id": "86e47da63e359f68c2d64accf7fbec2b", "is_disabled": 0, "is_reserved": 0}, {"rental_uris": {"ios": "https://dc.lft.to/lastmile_qr_scan", "android": "https://dc.lft.to/lastmile_qr_scan"}, "lon": -77.00814766666667, "type": "electric_scooter", "fusion_lat": 0.0, "lat": 38.905680833333335, "name": "71e8e148c4a530e9f6d6d5db363eca58", "fusion_lon": 0.0, "bike_id": "71e8e148c4a530e9f6d6d5db363eca58", "is_disabled": 0, "is_reserved": 0}, {"rental_uris": {"ios": "https://dc.lft.to/lastmile_qr_scan", "android": "https://dc.lft.to/lastmile_qr_scan"}, "lon": -77.09877216666666, "type": "electric_bike", "fusion_lat": 0.0, "lat": 38.94792983333333, "name": "7c703d5e446efc7cb5a1ebf5256f38ec", "fusion_lon": 0.0, "bike_id": "7c703d5e446efc7cb5a1ebf5256f38ec", "is_disabled": 0, "is_reserved": 0}, {"rental_uris": {"ios": "https://dc.lft.to/lastmile_qr_scan", "android": "https://dc.lft.to/lastmile_qr_scan"}, "lon": -77.043068, "type": "electric_scooter", "fusion_lat": 0.0, "lat": 38.90891366666666, "name": "0f6d166d8f449f011139dadf4dbc086e", "fusion_lon": 0.0, "bike_id": "0f6d166d8f449f011139dadf4dbc086e", "is_disabled": 0, "is_reserved": 0}, {"rental_uris": {"ios": "https://dc.lft.to/lastmile_qr_scan", "android": "https://dc.lft.to/lastmile_qr_scan"}, "lon": -77.04222283333333, "type": "electric_scooter", "fusion_lat": 0.0, "lat": 38.911190833333336, "name": "69f1379cbee961625c215454af036dd3", "fusion_lon": 0.0, "bike_id": "69f1379cbee961625c215454af036dd3", "is_disabled": 0, "is_reserved": 0}, {"rental_uris": {"ios": "https://dc.lft.to/lastmile_qr_scan", "android": "https://dc.lft.to/lastmile_qr_scan"}, "lon": -76.99584466666667, "type": "electric_scooter", "fusion_lat": 0.0, "lat": 38.955055, "name": "3f9a2926bf4ad364f1dafc410caf9163", "fusion_lon": 0.0, "bike_id": "3f9a2926bf4ad364f1dafc410caf9163", "is_disabled": 0, "is_reserved": 0}, {"rental_uris": {"ios": "https://dc.lft.to/lastmile_qr_scan", "android": "https://dc.lft.to/lastmile_qr_scan"}, "lon": -77.04501633333334, "type": "electric_scooter", "fusion_lat": 0.0, "lat": 38.91118183333333, "name": "23e680b75ed35b28bdea36f23ad7ad8c", "fusion_lon": 0.0, "bike_id": "23e680b75ed35b28bdea36f23ad7ad8c", "is_disabled": 0, "is_reserved": 0}, {"rental_uris": {"ios": "https://dc.lft.to/lastmile_qr_scan", "android": "https://dc.lft.to/lastmile_qr_scan"}, "lon": -77.0502265, "type": "electric_scooter", "fusion_lat": 0.0, "lat": 38.923556833333336, "name": "426aabf404f273e904913282daf375e3", "fusion_lon": 0.0, "bike_id": "426aabf404f273e904913282daf375e3", "is_disabled": 0, "is_reserved": 0}, {"rental_uris": {"ios": "https://dc.lft.to/lastmile_qr_scan", "android": "https://dc.lft.to/lastmile_qr_scan"}, "lon": -77.03272666666666, "type": "electric_bike", "fusion_lat": 0.0, "lat": 38.933041, "name": "64618c85c2c9cfcf6a3fc6888cd63812", "fusion_lon": 0.0, "bike_id": "64618c85c2c9cfcf6a3fc6888cd63812", "is_disabled": 0, "is_reserved": 0}, {"rental_uris": {"ios": "https://dc.lft.to/lastmile_qr_scan", "android": "https://dc.lft.to/lastmile_qr_scan"}, "lon": -77.04178, "type": "electric_scooter", "fusion_lat": 0.0, "lat": 38.911866, "name": "9615dfe797f2217ef2a841026b13bb9e", "fusion_lon": 0.0, "bike_id": "9615dfe797f2217ef2a841026b13bb9e", "is_disabled": 0, "is_reserved": 0}, {"rental_uris": {"ios": "https://dc.lft.to/lastmile_qr_scan", "android": "https://dc.lft.to/lastmile_qr_scan"}, "lon": -77.02763083333333, "type": "electric_scooter", "fusion_lat": 0.0, "lat": 38.913459, "name": "e6613bc9252ad18567b70fc90b31f45a", "fusion_lon": 0.0, "bike_id": "e6613bc9252ad18567b70fc90b31f45a", "is_disabled": 0, "is_reserved": 0}, {"rental_uris": {"ios": "https://dc.lft.to/lastmile_qr_scan", "android": "https://dc.lft.to/lastmile_qr_scan"}, "lon": -77.02415416666666, "type": "electric_scooter", "fusion_lat": 0.0, "lat": 38.92047483333333, "name": "24f695bfcd0d29032975150d06babdf6", "fusion_lon": 0.0, "bike_id": "24f695bfcd0d29032975150d06babdf6", "is_disabled": 0, "is_reserved": 0}, {"rental_uris": {"ios": "https://dc.lft.to/lastmile_qr_scan", "android": "https://dc.lft.to/lastmile_qr_scan"}, "lon": -76.93174816666667, "type": "electric_scooter", "fusion_lat": 0.0, "lat": 38.898841, "name": "4975663e810642727f5433e473cec367", "fusion_lon": 0.0, "bike_id": "4975663e810642727f5433e473cec367", "is_disabled": 0, "is_reserved": 0}, {"rental_uris": {"ios": "https://dc.lft.to/lastmile_qr_scan", "android": "https://dc.lft.to/lastmile_qr_scan"}, "lon": -77.0738515, "type": "electric_bike", "fusion_lat": 0.0, "lat": 38.9617795, "name": "2cb40058ec8f792511c403d94fbac608", "fusion_lon": 0.0, "bike_id": "2cb40058ec8f792511c403d94fbac608", "is_disabled": 0, "is_reserved": 0}, {"rental_uris": {"ios": "https://dc.lft.to/lastmile_qr_scan", "android": "https://dc.lft.to/lastmile_qr_scan"}, "lon": -77.038165, "type": "electric_scooter", "fusion_lat": 0.0, "lat": 38.920591333333334, "name": "9cf31fed565401ad49ad2cd97c107d1d", "fusion_lon": 0.0, "bike_id": "9cf31fed565401ad49ad2cd97c107d1d", "is_disabled": 0, "is_reserved": 0}, {"rental_uris": {"ios": "https://dc.lft.to/lastmile_qr_scan", "android": "https://dc.lft.to/lastmile_qr_scan"}, "lon": -77.00255883333334, "type": "electric_scooter", "fusion_lat": 0.0, "lat": 38.91194566666667, "name": "594070a23179ee6d591e3be7cfc7f882", "fusion_lon": 0.0, "bike_id": "594070a23179ee6d591e3be7cfc7f882", "is_disabled": 0, "is_reserved": 0}, {"rental_uris": {"ios": "https://dc.lft.to/lastmile_qr_scan", "android": "https://dc.lft.to/lastmile_qr_scan"}, "lon": -77.030538, "type": "electric_scooter", "fusion_lat": 0.0, "lat": 38.884117833333335, "name": "e2b81b8d3bbb23268fba8e2e797da073", "fusion_lon": 0.0, "bike_id": "e2b81b8d3bbb23268fba8e2e797da073", "is_disabled": 0, "is_reserved": 0}, {"rental_uris": {"ios": "https://dc.lft.to/lastmile_qr_scan", "android": "https://dc.lft.to/lastmile_qr_scan"}, "lon": -77.04200866666666, "type": "electric_scooter", "fusion_lat": 0.0, "lat": 38.918783833333336, "name": "59ea816ba9c7c912aeb96de3c8b17a5c", "fusion_lon": 0.0, "bike_id": "59ea816ba9c7c912aeb96de3c8b17a5c", "is_disabled": 0, "is_reserved": 0}, {"rental_uris": {"ios": "https://dc.lft.to/lastmile_qr_scan", "android": "https://dc.lft.to/lastmile_qr_scan"}, "lon": -77.04788366666666, "type": "electric_scooter", "fusion_lat": 0.0, "lat": 38.893774666666665, "name": "77d2dda08c65137c314d56a2015522f0", "fusion_lon": 0.0, "bike_id": "77d2dda08c65137c314d56a2015522f0", "is_disabled": 0, "is_reserved": 0}, {"rental_uris": {"ios": "https://dc.lft.to/lastmile_qr_scan", "android": "https://dc.lft.to/lastmile_qr_scan"}, "lon": -77.0446605, "type": "electric_scooter", "fusion_lat": 0.0, "lat": 38.903213666666666, "name": "0ef5d09d17c36f1c3ce33cf1589be736", "fusion_lon": 0.0, "bike_id": "0ef5d09d17c36f1c3ce33cf1589be736", "is_disabled": 0, "is_reserved": 0}, {"rental_uris": {"ios": "https://dc.lft.to/lastmile_qr_scan", "android": "https://dc.lft.to/lastmile_qr_scan"}, "lon": -76.995737, "type": "electric_scooter", "fusion_lat": 0.0, "lat": 38.90033583333334, "name": "54d31d275235dd6c996b47c3c4a4d806", "fusion_lon": 0.0, "bike_id": "54d31d275235dd6c996b47c3c4a4d806", "is_disabled": 0, "is_reserved": 0}, {"rental_uris": {"ios": "https://dc.lft.to/lastmile_qr_scan", "android": "https://dc.lft.to/lastmile_qr_scan"}, "lon": -77.02357416666666, "type": "electric_scooter", "fusion_lat": 0.0, "lat": 38.920683, "name": "4b31a5c1b5ea93e6f606c5845f1c72b6", "fusion_lon": 0.0, "bike_id": "4b31a5c1b5ea93e6f606c5845f1c72b6", "is_disabled": 0, "is_reserved": 0}, {"rental_uris": {"ios": "https://dc.lft.to/lastmile_qr_scan", "android": "https://dc.lft.to/lastmile_qr_scan"}, "lon": -77.0515355, "type": "electric_scooter", "fusion_lat": 0.0, "lat": 38.92429883333333, "name": "ceb83e582105bddd119db637b611fff2", "fusion_lon": 0.0, "bike_id": "ceb83e582105bddd119db637b611fff2", "is_disabled": 0, "is_reserved": 0}, {"rental_uris": {"ios": "https://dc.lft.to/lastmile_qr_scan", "android": "https://dc.lft.to/lastmile_qr_scan"}, "lon": -77.036451, "type": "electric_scooter", "fusion_lat": 0.0, "lat": 38.902847, "name": "70b945ed1a31614beb2ba128f27ea3c7", "fusion_lon": 0.0, "bike_id": "70b945ed1a31614beb2ba128f27ea3c7", "is_disabled": 0, "is_reserved": 0}, {"rental_uris": {"ios": "https://dc.lft.to/lastmile_qr_scan", "android": "https://dc.lft.to/lastmile_qr_scan"}, "lon": -77.02749316666667, "type": "electric_scooter", "fusion_lat": 0.0, "lat": 38.96626233333333, "name": "422440fbc20fcef6a1772a30aea2e855", "fusion_lon": 0.0, "bike_id": "422440fbc20fcef6a1772a30aea2e855", "is_disabled": 0, "is_reserved": 0}, {"rental_uris": {"ios": "https://dc.lft.to/lastmile_qr_scan", "android": "https://dc.lft.to/lastmile_qr_scan"}, "lon": -77.03199483333333, "type": "electric_scooter", "fusion_lat": 0.0, "lat": 38.893441333333335, "name": "3d4fc42925a77b45649a6b7471476932", "fusion_lon": 0.0, "bike_id": "3d4fc42925a77b45649a6b7471476932", "is_disabled": 0, "is_reserved": 0}, {"rental_uris": {"ios": "https://dc.lft.to/lastmile_qr_scan", "android": "https://dc.lft.to/lastmile_qr_scan"}, "lon": -77.0076785, "type": "electric_scooter", "fusion_lat": 0.0, "lat": 38.87653366666667, "name": "d5c8bc50b89a16ee261c2f75999cdffc", "fusion_lon": 0.0, "bike_id": "d5c8bc50b89a16ee261c2f75999cdffc", "is_disabled": 0, "is_reserved": 0}, {"rental_uris": {"ios": "https://dc.lft.to/lastmile_qr_scan", "android": "https://dc.lft.to/lastmile_qr_scan"}, "lon": -76.98496633333333, "type": "electric_scooter", "fusion_lat": 0.0, "lat": 38.86049033333333, "name": "4d59fd8542908adfc87225916d31bf2c", "fusion_lon": 0.0, "bike_id": "4d59fd8542908adfc87225916d31bf2c", "is_disabled": 0, "is_reserved": 0}, {"rental_uris": {"ios": "https://dc.lft.to/lastmile_qr_scan", "android": "https://dc.lft.to/lastmile_qr_scan"}, "lon": -76.99539466666667, "type": "electric_scooter", "fusion_lat": 0.0, "lat": 38.92666966666667, "name": "2f46b86067876cf57d743a345dc30df5", "fusion_lon": 0.0, "bike_id": "2f46b86067876cf57d743a345dc30df5", "is_disabled": 0, "is_reserved": 0}, {"rental_uris": {"ios": "https://dc.lft.to/lastmile_qr_scan", "android": "https://dc.lft.to/lastmile_qr_scan"}, "lon": -76.99513016666667, "type": "electric_scooter", "fusion_lat": 0.0, "lat": 38.84470366666667, "name": "59b48bf9e9c94dfe0fa892dfe7f91ba3", "fusion_lon": 0.0, "bike_id": "59b48bf9e9c94dfe0fa892dfe7f91ba3", "is_disabled": 0, "is_reserved": 0}, {"rental_uris": {"ios": "https://dc.lft.to/lastmile_qr_scan", "android": "https://dc.lft.to/lastmile_qr_scan"}, "lon": -77.029253, "type": "electric_scooter", "fusion_lat": 0.0, "lat": 38.900051500000004, "name": "f80b3928b108413b2db606ccee81d6ae", "fusion_lon": 0.0, "bike_id": "f80b3928b108413b2db606ccee81d6ae", "is_disabled": 0, "is_reserved": 0}, {"rental_uris": {"ios": "https://dc.lft.to/lastmile_qr_scan", "android": "https://dc.lft.to/lastmile_qr_scan"}, "lon": -77.03012066666666, "type": "electric_scooter", "fusion_lat": 0.0, "lat": 38.919270833333336, "name": "b9afbb271958f0c2ff228722668f37f4", "fusion_lon": 0.0, "bike_id": "b9afbb271958f0c2ff228722668f37f4", "is_disabled": 0, "is_reserved": 0}, {"rental_uris": {"ios": "https://dc.lft.to/lastmile_qr_scan", "android": "https://dc.lft.to/lastmile_qr_scan"}, "lon": -77.03304816666666, "type": "electric_scooter", "fusion_lat": 0.0, "lat": 38.90152633333334, "name": "9be200b7684041a028da89d370c2f04f", "fusion_lon": 0.0, "bike_id": "9be200b7684041a028da89d370c2f04f", "is_disabled": 0, "is_reserved": 0}, {"rental_uris": {"ios": "https://dc.lft.to/lastmile_qr_scan", "android": "https://dc.lft.to/lastmile_qr_scan"}, "lon": -77.032064, "type": "electric_scooter", "fusion_lat": 0.0, "lat": 38.9174445, "name": "d75d482b7a39b047b62ccd171d85bdc7", "fusion_lon": 0.0, "bike_id": "d75d482b7a39b047b62ccd171d85bdc7", "is_disabled": 0, "is_reserved": 0}, {"rental_uris": {"ios": "https://dc.lft.to/lastmile_qr_scan", "android": "https://dc.lft.to/lastmile_qr_scan"}, "lon": -76.98845783333333, "type": "electric_bike", "fusion_lat": 0.0, "lat": 38.84271583333334, "name": "0c9deea238b774f9751e86ee37151c7b", "fusion_lon": 0.0, "bike_id": "0c9deea238b774f9751e86ee37151c7b", "is_disabled": 0, "is_reserved": 0}, {"rental_uris": {"ios": "https://dc.lft.to/lastmile_qr_scan", "android": "https://dc.lft.to/lastmile_qr_scan"}, "lon": -76.97600733333333, "type": "electric_scooter", "fusion_lat": 0.0, "lat": 38.90206216666667, "name": "b00aac31223bf062aa34def20effa103", "fusion_lon": 0.0, "bike_id": "b00aac31223bf062aa34def20effa103", "is_disabled": 0, "is_reserved": 0}, {"rental_uris": {"ios": "https://dc.lft.to/lastmile_qr_scan", "android": "https://dc.lft.to/lastmile_qr_scan"}, "lon": -76.97009116666666, "type": "electric_bike", "fusion_lat": 0.0, "lat": 38.8637, "name": "9e09248a59f14a7e708c9df20e3ee6a0", "fusion_lon": 0.0, "bike_id": "9e09248a59f14a7e708c9df20e3ee6a0", "is_disabled": 0, "is_reserved": 0}, {"rental_uris": {"ios": "https://dc.lft.to/lastmile_qr_scan", "android": "https://dc.lft.to/lastmile_qr_scan"}, "lon": -77.0241845, "type": "electric_scooter", "fusion_lat": 0.0, "lat": 38.91855916666667, "name": "2d451483d8e9af07bdc819a0b8514b84", "fusion_lon": 0.0, "bike_id": "2d451483d8e9af07bdc819a0b8514b84", "is_disabled": 0, "is_reserved": 0}, {"rental_uris": {"ios": "https://dc.lft.to/lastmile_qr_scan", "android": "https://dc.lft.to/lastmile_qr_scan"}, "lon": -76.96886433333333, "type": "electric_bike", "fusion_lat": 0.0, "lat": 38.84601516666667, "name": "391dfc2422817757c4ec465f70cba1c0", "fusion_lon": 0.0, "bike_id": "391dfc2422817757c4ec465f70cba1c0", "is_disabled": 0, "is_reserved": 0}, {"rental_uris": {"ios": "https://dc.lft.to/lastmile_qr_scan", "android": "https://dc.lft.to/lastmile_qr_scan"}, "lon": -76.999102, "type": "electric_scooter", "fusion_lat": 0.0, "lat": 38.909301, "name": "dd742d5168989b21df744a3730ea6b96", "fusion_lon": 0.0, "bike_id": "dd742d5168989b21df744a3730ea6b96", "is_disabled": 0, "is_reserved": 0}, {"rental_uris": {"ios": "https://dc.lft.to/lastmile_qr_scan", "android": "https://dc.lft.to/lastmile_qr_scan"}, "lon": -77.02821666666667, "type": "electric_scooter", "fusion_lat": 0.0, "lat": 38.9093435, "name": "5f26501fefa6c992e5d60f29613afe93", "fusion_lon": 0.0, "bike_id": "5f26501fefa6c992e5d60f29613afe93", "is_disabled": 0, "is_reserved": 0}, {"rental_uris": {"ios": "https://dc.lft.to/lastmile_qr_scan", "android": "https://dc.lft.to/lastmile_qr_scan"}, "lon": -77.04462766666667, "type": "electric_scooter", "fusion_lat": 0.0, "lat": 38.90668466666666, "name": "167fa94cfec3c5b4f8e162b9ccf8731e", "fusion_lon": 0.0, "bike_id": "167fa94cfec3c5b4f8e162b9ccf8731e", "is_disabled": 0, "is_reserved": 0}, {"rental_uris": {"ios": "https://dc.lft.to/lastmile_qr_scan", "android": "https://dc.lft.to/lastmile_qr_scan"}, "lon": -77.03261933333333, "type": "electric_scooter", "fusion_lat": 0.0, "lat": 38.9216715, "name": "6e124cef5413d1974e9ccc6fdd36a437", "fusion_lon": 0.0, "bike_id": "6e124cef5413d1974e9ccc6fdd36a437", "is_disabled": 0, "is_reserved": 0}, {"rental_uris": {"ios": "https://dc.lft.to/lastmile_qr_scan", "android": "https://dc.lft.to/lastmile_qr_scan"}, "lon": -76.98829233333333, "type": "electric_scooter", "fusion_lat": 0.0, "lat": 38.880213833333336, "name": "991150d4bcaf39a2234823d19f2fecd7", "fusion_lon": 0.0, "bike_id": "991150d4bcaf39a2234823d19f2fecd7", "is_disabled": 0, "is_reserved": 0}, {"rental_uris": {"ios": "https://dc.lft.to/lastmile_qr_scan", "android": "https://dc.lft.to/lastmile_qr_scan"}, "lon": -77.0321245, "type": "electric_scooter", "fusion_lat": 0.0, "lat": 38.88704, "name": "b257c3d74fa55e50c6786024431a392e", "fusion_lon": 0.0, "bike_id": "b257c3d74fa55e50c6786024431a392e", "is_disabled": 0, "is_reserved": 0}, {"rental_uris": {"ios": "https://dc.lft.to/lastmile_qr_scan", "android": "https://dc.lft.to/lastmile_qr_scan"}, "lon": -77.0241905, "type": "electric_scooter", "fusion_lat": 0.0, "lat": 38.884663833333335, "name": "677840ca01dbaaa0189121b337621b67", "fusion_lon": 0.0, "bike_id": "677840ca01dbaaa0189121b337621b67", "is_disabled": 0, "is_reserved": 0}, {"rental_uris": {"ios": "https://dc.lft.to/lastmile_qr_scan", "android": "https://dc.lft.to/lastmile_qr_scan"}, "lon": -77.04679233333333, "type": "electric_scooter", "fusion_lat": 0.0, "lat": 38.8972945, "name": "64b43404ffcd5b0cb5d4d4a8a6aaacfd", "fusion_lon": 0.0, "bike_id": "64b43404ffcd5b0cb5d4d4a8a6aaacfd", "is_disabled": 0, "is_reserved": 0}, {"rental_uris": {"ios": "https://dc.lft.to/lastmile_qr_scan", "android": "https://dc.lft.to/lastmile_qr_scan"}, "lon": -77.03335766666666, "type": "electric_scooter", "fusion_lat": 0.0, "lat": 38.899517833333334, "name": "42a3c26755dc3ecc64e7ce16ff98fd2b", "fusion_lon": 0.0, "bike_id": "42a3c26755dc3ecc64e7ce16ff98fd2b", "is_disabled": 0, "is_reserved": 0}, {"rental_uris": {"ios": "https://dc.lft.to/lastmile_qr_scan", "android": "https://dc.lft.to/lastmile_qr_scan"}, "lon": -77.03667066666667, "type": "electric_scooter", "fusion_lat": 0.0, "lat": 38.91815616666667, "name": "983a45f2bc6d3fe3e069d514c663fb6d", "fusion_lon": 0.0, "bike_id": "983a45f2bc6d3fe3e069d514c663fb6d", "is_disabled": 0, "is_reserved": 0}, {"rental_uris": {"ios": "https://dc.lft.to/lastmile_qr_scan", "android": "https://dc.lft.to/lastmile_qr_scan"}, "lon": -77.038539, "type": "electric_scooter", "fusion_lat": 0.0, "lat": 38.91206916666667, "name": "06ba686387471379bc19cb0cd7e96ba2", "fusion_lon": 0.0, "bike_id": "06ba686387471379bc19cb0cd7e96ba2", "is_disabled": 0, "is_reserved": 0}, {"rental_uris": {"ios": "https://dc.lft.to/lastmile_qr_scan", "android": "https://dc.lft.to/lastmile_qr_scan"}, "lon": -76.98691566666666, "type": "electric_scooter", "fusion_lat": 0.0, "lat": 38.912872166666666, "name": "66d066b50282b2fbd0f3200ff13cebfd", "fusion_lon": 0.0, "bike_id": "66d066b50282b2fbd0f3200ff13cebfd", "is_disabled": 0, "is_reserved": 0}, {"rental_uris": {"ios": "https://dc.lft.to/lastmile_qr_scan", "android": "https://dc.lft.to/lastmile_qr_scan"}, "lon": -77.11316066666667, "type": "electric_bike", "fusion_lat": 0.0, "lat": 38.855637333333334, "name": "71b550de6c342893d0ad8f68dc6c0311", "fusion_lon": 0.0, "bike_id": "71b550de6c342893d0ad8f68dc6c0311", "is_disabled": 0, "is_reserved": 0}, {"rental_uris": {"ios": "https://dc.lft.to/lastmile_qr_scan", "android": "https://dc.lft.to/lastmile_qr_scan"}, "lon": -77.03210683333333, "type": "electric_scooter", "fusion_lat": 0.0, "lat": 38.9258195, "name": "e4e3c253c5832e2c0151f4826b426796", "fusion_lon": 0.0, "bike_id": "e4e3c253c5832e2c0151f4826b426796", "is_disabled": 0, "is_reserved": 0}, {"rental_uris": {"ios": "https://dc.lft.to/lastmile_qr_scan", "android": "https://dc.lft.to/lastmile_qr_scan"}, "lon": -77.06880216666667, "type": "electric_scooter", "fusion_lat": 0.0, "lat": 38.90514266666667, "name": "a00da9eb33def6aad4748a5b46d58537", "fusion_lon": 0.0, "bike_id": "a00da9eb33def6aad4748a5b46d58537", "is_disabled": 0, "is_reserved": 0}, {"rental_uris": {"ios": "https://dc.lft.to/lastmile_qr_scan", "android": "https://dc.lft.to/lastmile_qr_scan"}, "lon": -77.01087583333333, "type": "electric_scooter", "fusion_lat": 0.0, "lat": 38.89399183333333, "name": "832bda0e12004da31cfe8ba93be9669f", "fusion_lon": 0.0, "bike_id": "832bda0e12004da31cfe8ba93be9669f", "is_disabled": 0, "is_reserved": 0}, {"rental_uris": {"ios": "https://dc.lft.to/lastmile_qr_scan", "android": "https://dc.lft.to/lastmile_qr_scan"}, "lon": -77.0174345, "type": "electric_scooter", "fusion_lat": 0.0, "lat": 38.87722933333333, "name": "e65d05a88a716e69ab2f73114d053b6a", "fusion_lon": 0.0, "bike_id": "e65d05a88a716e69ab2f73114d053b6a", "is_disabled": 0, "is_reserved": 0}, {"rental_uris": {"ios": "https://dc.lft.to/lastmile_qr_scan", "android": "https://dc.lft.to/lastmile_qr_scan"}, "lon": -77.03105966666666, "type": "electric_scooter", "fusion_lat": 0.0, "lat": 38.91191466666667, "name": "1e32e41b319ca2514ac6d6fd4dce9548", "fusion_lon": 0.0, "bike_id": "1e32e41b319ca2514ac6d6fd4dce9548", "is_disabled": 0, "is_reserved": 0}, {"rental_uris": {"ios": "https://dc.lft.to/lastmile_qr_scan", "android": "https://dc.lft.to/lastmile_qr_scan"}, "lon": -77.12808133333333, "type": "electric_bike", "fusion_lat": 0.0, "lat": 38.865265, "name": "64264831093a7e2600d8232a580fe7ef", "fusion_lon": 0.0, "bike_id": "64264831093a7e2600d8232a580fe7ef", "is_disabled": 0, "is_reserved": 0}, {"rental_uris": {"ios": "https://dc.lft.to/lastmile_qr_scan", "android": "https://dc.lft.to/lastmile_qr_scan"}, "lon": -77.04009316666667, "type": "electric_scooter", "fusion_lat": 0.0, "lat": 38.909956666666666, "name": "7f6128c034efad04bd6ad8f5ca640761", "fusion_lon": 0.0, "bike_id": "7f6128c034efad04bd6ad8f5ca640761", "is_disabled": 0, "is_reserved": 0}, {"rental_uris": {"ios": "https://dc.lft.to/lastmile_qr_scan", "android": "https://dc.lft.to/lastmile_qr_scan"}, "lon": -77.02220866666667, "type": "electric_scooter", "fusion_lat": 0.0, "lat": 38.89355283333333, "name": "3fc9220104793d7390615ecf8b59247e", "fusion_lon": 0.0, "bike_id": "3fc9220104793d7390615ecf8b59247e", "is_disabled": 0, "is_reserved": 0}, {"rental_uris": {"ios": "https://dc.lft.to/lastmile_qr_scan", "android": "https://dc.lft.to/lastmile_qr_scan"}, "lon": -76.91598383333333, "type": "electric_bike", "fusion_lat": 0.0, "lat": 38.8798165, "name": "d9913ac6345ba592d04995b5d58de62d", "fusion_lon": 0.0, "bike_id": "d9913ac6345ba592d04995b5d58de62d", "is_disabled": 0, "is_reserved": 0}, {"rental_uris": {"ios": "https://dc.lft.to/lastmile_qr_scan", "android": "https://dc.lft.to/lastmile_qr_scan"}, "lon": -77.0688775, "type": "electric_scooter", "fusion_lat": 0.0, "lat": 38.9403, "name": "7f412feb27eb261229cc89c8d4a74491", "fusion_lon": 0.0, "bike_id": "7f412feb27eb261229cc89c8d4a74491", "is_disabled": 0, "is_reserved": 0}, {"rental_uris": {"ios": "https://dc.lft.to/lastmile_qr_scan", "android": "https://dc.lft.to/lastmile_qr_scan"}, "lon": -77.063951, "type": "electric_scooter", "fusion_lat": 0.0, "lat": 38.929089833333336, "name": "8a32f6390772be9c4fb57acaa55f8940", "fusion_lon": 0.0, "bike_id": "8a32f6390772be9c4fb57acaa55f8940", "is_disabled": 0, "is_reserved": 0}, {"rental_uris": {"ios": "https://dc.lft.to/lastmile_qr_scan", "android": "https://dc.lft.to/lastmile_qr_scan"}, "lon": -77.02476066666667, "type": "electric_scooter", "fusion_lat": 0.0, "lat": 38.918194, "name": "a0bddb084ea92c7fb84d944944e600e5", "fusion_lon": 0.0, "bike_id": "a0bddb084ea92c7fb84d944944e600e5", "is_disabled": 0, "is_reserved": 0}, {"rental_uris": {"ios": "https://dc.lft.to/lastmile_qr_scan", "android": "https://dc.lft.to/lastmile_qr_scan"}, "lon": -77.12971183333333, "type": "electric_bike", "fusion_lat": 0.0, "lat": 38.79990683333333, "name": "ebd89d0f4133d739070c0ae13133795a", "fusion_lon": 0.0, "bike_id": "ebd89d0f4133d739070c0ae13133795a", "is_disabled": 0, "is_reserved": 0}, {"rental_uris": {"ios": "https://dc.lft.to/lastmile_qr_scan", "android": "https://dc.lft.to/lastmile_qr_scan"}, "lon": -77.0502195, "type": "electric_scooter", "fusion_lat": 0.0, "lat": 38.9235525, "name": "27665bc586536ad60f7cdb5836e4ffd0", "fusion_lon": 0.0, "bike_id": "27665bc586536ad60f7cdb5836e4ffd0", "is_disabled": 0, "is_reserved": 0}, {"rental_uris": {"ios": "https://dc.lft.to/lastmile_qr_scan", "android": "https://dc.lft.to/lastmile_qr_scan"}, "lon": -77.02380516666666, "type": "electric_bike", "fusion_lat": 0.0, "lat": 38.994406, "name": "4a5788e96425babeb14763c277fe53f5", "fusion_lon": 0.0, "bike_id": "4a5788e96425babeb14763c277fe53f5", "is_disabled": 0, "is_reserved": 0}, {"rental_uris": {"ios": "https://dc.lft.to/lastmile_qr_scan", "android": "https://dc.lft.to/lastmile_qr_scan"}, "lon": -77.03979916666667, "type": "electric_scooter", "fusion_lat": 0.0, "lat": 38.902771666666666, "name": "2d881c7b176d503e71960c6cfccd1b6b", "fusion_lon": 0.0, "bike_id": "2d881c7b176d503e71960c6cfccd1b6b", "is_disabled": 0, "is_reserved": 0}, {"rental_uris": {"ios": "https://dc.lft.to/lastmile_qr_scan", "android": "https://dc.lft.to/lastmile_qr_scan"}, "lon": -77.05756666666667, "type": "electric_bike", "fusion_lat": 0.0, "lat": 38.92488266666667, "name": "c0aee09ec631eb7e1013bbc58b1493b2", "fusion_lon": 0.0, "bike_id": "c0aee09ec631eb7e1013bbc58b1493b2", "is_disabled": 0, "is_reserved": 0}, {"rental_uris": {"ios": "https://dc.lft.to/lastmile_qr_scan", "android": "https://dc.lft.to/lastmile_qr_scan"}, "lon": -77.02952033333334, "type": "electric_scooter", "fusion_lat": 0.0, "lat": 38.90503983333333, "name": "b142baad35502ec30bd51c3cf7065100", "fusion_lon": 0.0, "bike_id": "b142baad35502ec30bd51c3cf7065100", "is_disabled": 0, "is_reserved": 0}, {"rental_uris": {"ios": "https://dc.lft.to/lastmile_qr_scan", "android": "https://dc.lft.to/lastmile_qr_scan"}, "lon": -77.07042633333333, "type": "electric_bike", "fusion_lat": 0.0, "lat": 38.8244845, "name": "634a81fedd4daa5d464c39616729cf04", "fusion_lon": 0.0, "bike_id": "634a81fedd4daa5d464c39616729cf04", "is_disabled": 0, "is_reserved": 0}, {"rental_uris": {"ios": "https://dc.lft.to/lastmile_qr_scan", "android": "https://dc.lft.to/lastmile_qr_scan"}, "lon": -76.98883, "type": "electric_scooter", "fusion_lat": 0.0, "lat": 38.8666095, "name": "537a93e1c22bab05e1455bd487b9e2bd", "fusion_lon": 0.0, "bike_id": "537a93e1c22bab05e1455bd487b9e2bd", "is_disabled": 0, "is_reserved": 0}, {"rental_uris": {"ios": "https://dc.lft.to/lastmile_qr_scan", "android": "https://dc.lft.to/lastmile_qr_scan"}, "lon": -77.025297, "type": "electric_scooter", "fusion_lat": 0.0, "lat": 38.924895, "name": "895386eb189c2ed2f2aabf0cfe23222e", "fusion_lon": 0.0, "bike_id": "895386eb189c2ed2f2aabf0cfe23222e", "is_disabled": 0, "is_reserved": 0}, {"rental_uris": {"ios": "https://dc.lft.to/lastmile_qr_scan", "android": "https://dc.lft.to/lastmile_qr_scan"}, "lon": -77.03708966666666, "type": "electric_scooter", "fusion_lat": 0.0, "lat": 38.926356, "name": "43473ed798c7797cee81a57643e562a9", "fusion_lon": 0.0, "bike_id": "43473ed798c7797cee81a57643e562a9", "is_disabled": 0, "is_reserved": 0}, {"rental_uris": {"ios": "https://dc.lft.to/lastmile_qr_scan", "android": "https://dc.lft.to/lastmile_qr_scan"}, "lon": -77.00785233333333, "type": "electric_scooter", "fusion_lat": 0.0, "lat": 38.9118715, "name": "00cf46d0f5bc7b3a05a30b89cc0b6531", "fusion_lon": 0.0, "bike_id": "00cf46d0f5bc7b3a05a30b89cc0b6531", "is_disabled": 0, "is_reserved": 0}, {"rental_uris": {"ios": "https://dc.lft.to/lastmile_qr_scan", "android": "https://dc.lft.to/lastmile_qr_scan"}, "lon": -77.001974, "type": "electric_scooter", "fusion_lat": 0.0, "lat": 38.90036333333333, "name": "2e6e5aabc78cfe9b62893eaf3710c464", "fusion_lon": 0.0, "bike_id": "2e6e5aabc78cfe9b62893eaf3710c464", "is_disabled": 0, "is_reserved": 0}, {"rental_uris": {"ios": "https://dc.lft.to/lastmile_qr_scan", "android": "https://dc.lft.to/lastmile_qr_scan"}, "lon": -77.007706, "type": "electric_scooter", "fusion_lat": 0.0, "lat": 38.90664483333333, "name": "8f20cadfa2bb6e387a813bba2741ffcf", "fusion_lon": 0.0, "bike_id": "8f20cadfa2bb6e387a813bba2741ffcf", "is_disabled": 0, "is_reserved": 0}, {"rental_uris": {"ios": "https://dc.lft.to/lastmile_qr_scan", "android": "https://dc.lft.to/lastmile_qr_scan"}, "lon": -77.038411, "type": "electric_scooter", "fusion_lat": 0.0, "lat": 38.908604833333335, "name": "021f462f5941c924ed9d29d9392c9ca3", "fusion_lon": 0.0, "bike_id": "021f462f5941c924ed9d29d9392c9ca3", "is_disabled": 0, "is_reserved": 0}, {"rental_uris": {"ios": "https://dc.lft.to/lastmile_qr_scan", "android": "https://dc.lft.to/lastmile_qr_scan"}, "lon": -76.931952, "type": "electric_scooter", "fusion_lat": 0.0, "lat": 38.88997033333333, "name": "7edf2a09f8b510eca5f8f4779861a420", "fusion_lon": 0.0, "bike_id": "7edf2a09f8b510eca5f8f4779861a420", "is_disabled": 0, "is_reserved": 0}, {"rental_uris": {"ios": "https://dc.lft.to/lastmile_qr_scan", "android": "https://dc.lft.to/lastmile_qr_scan"}, "lon": -77.017942, "type": "electric_scooter", "fusion_lat": 0.0, "lat": 38.90407916666667, "name": "0d8c25db8a6de4712a3f70d7c41021c7", "fusion_lon": 0.0, "bike_id": "0d8c25db8a6de4712a3f70d7c41021c7", "is_disabled": 0, "is_reserved": 0}, {"rental_uris": {"ios": "https://dc.lft.to/lastmile_qr_scan", "android": "https://dc.lft.to/lastmile_qr_scan"}, "lon": -76.97346, "type": "electric_scooter", "fusion_lat": 0.0, "lat": 38.865114166666665, "name": "077ccf684da95edefbb8e97efd57578c", "fusion_lon": 0.0, "bike_id": "077ccf684da95edefbb8e97efd57578c", "is_disabled": 0, "is_reserved": 0}, {"rental_uris": {"ios": "https://dc.lft.to/lastmile_qr_scan", "android": "https://dc.lft.to/lastmile_qr_scan"}, "lon": -77.02984366666666, "type": "electric_scooter", "fusion_lat": 0.0, "lat": 38.92473433333333, "name": "7b7624d494a9ce05773fadeb96d9c934", "fusion_lon": 0.0, "bike_id": "7b7624d494a9ce05773fadeb96d9c934", "is_disabled": 0, "is_reserved": 0}, {"rental_uris": {"ios": "https://dc.lft.to/lastmile_qr_scan", "android": "https://dc.lft.to/lastmile_qr_scan"}, "lon": -77.01510583333334, "type": "electric_scooter", "fusion_lat": 0.0, "lat": 38.9015525, "name": "48dfea6d0acbdae14f8344aa20afee32", "fusion_lon": 0.0, "bike_id": "48dfea6d0acbdae14f8344aa20afee32", "is_disabled": 0, "is_reserved": 0}, {"rental_uris": {"ios": "https://dc.lft.to/lastmile_qr_scan", "android": "https://dc.lft.to/lastmile_qr_scan"}, "lon": -77.03657333333334, "type": "electric_scooter", "fusion_lat": 0.0, "lat": 38.92301783333333, "name": "17cf0f52208804ee90c56928d8d4cd2c", "fusion_lon": 0.0, "bike_id": "17cf0f52208804ee90c56928d8d4cd2c", "is_disabled": 0, "is_reserved": 0}, {"rental_uris": {"ios": "https://dc.lft.to/lastmile_qr_scan", "android": "https://dc.lft.to/lastmile_qr_scan"}, "lon": -77.00596466666667, "type": "electric_scooter", "fusion_lat": 0.0, "lat": 38.9063665, "name": "d81843b3443c0b93de74fb92ef6682e9", "fusion_lon": 0.0, "bike_id": "d81843b3443c0b93de74fb92ef6682e9", "is_disabled": 0, "is_reserved": 0}, {"rental_uris": {"ios": "https://dc.lft.to/lastmile_qr_scan", "android": "https://dc.lft.to/lastmile_qr_scan"}, "lon": -77.00874533333334, "type": "electric_scooter", "fusion_lat": 0.0, "lat": 38.90574733333333, "name": "15100f833c5d4e1150b60bd78e6d9643", "fusion_lon": 0.0, "bike_id": "15100f833c5d4e1150b60bd78e6d9643", "is_disabled": 0, "is_reserved": 0}, {"rental_uris": {"ios": "https://dc.lft.to/lastmile_qr_scan", "android": "https://dc.lft.to/lastmile_qr_scan"}, "lon": -76.98700166666667, "type": "electric_scooter", "fusion_lat": 0.0, "lat": 38.901446666666665, "name": "c9d9d2f9e8d9777d48a04878e32cfa48", "fusion_lon": 0.0, "bike_id": "c9d9d2f9e8d9777d48a04878e32cfa48", "is_disabled": 0, "is_reserved": 0}, {"rental_uris": {"ios": "https://dc.lft.to/lastmile_qr_scan", "android": "https://dc.lft.to/lastmile_qr_scan"}, "lon": -77.02172283333333, "type": "electric_scooter", "fusion_lat": 0.0, "lat": 38.89257883333333, "name": "257b1d2e3cf49d9b2cd0deacd22c371d", "fusion_lon": 0.0, "bike_id": "257b1d2e3cf49d9b2cd0deacd22c371d", "is_disabled": 0, "is_reserved": 0}, {"rental_uris": {"ios": "https://dc.lft.to/lastmile_qr_scan", "android": "https://dc.lft.to/lastmile_qr_scan"}, "lon": -77.04515666666667, "type": "electric_scooter", "fusion_lat": 0.0, "lat": 38.90786466666667, "name": "e5e453ad813dfab5df8ee2c922bcb72a", "fusion_lon": 0.0, "bike_id": "e5e453ad813dfab5df8ee2c922bcb72a", "is_disabled": 0, "is_reserved": 0}, {"rental_uris": {"ios": "https://dc.lft.to/lastmile_qr_scan", "android": "https://dc.lft.to/lastmile_qr_scan"}, "lon": -77.0385935, "type": "electric_scooter", "fusion_lat": 0.0, "lat": 38.915565, "name": "15eefb3682597df53cf539fc86944a48", "fusion_lon": 0.0, "bike_id": "15eefb3682597df53cf539fc86944a48", "is_disabled": 0, "is_reserved": 0}, {"rental_uris": {"ios": "https://dc.lft.to/lastmile_qr_scan", "android": "https://dc.lft.to/lastmile_qr_scan"}, "lon": -77.04040716666667, "type": "electric_scooter", "fusion_lat": 0.0, "lat": 38.918816666666665, "name": "6ad3c4861df5d8c9d28fc575538962e9", "fusion_lon": 0.0, "bike_id": "6ad3c4861df5d8c9d28fc575538962e9", "is_disabled": 0, "is_reserved": 0}, {"rental_uris": {"ios": "https://dc.lft.to/lastmile_qr_scan", "android": "https://dc.lft.to/lastmile_qr_scan"}, "lon": -77.02478466666666, "type": "electric_scooter", "fusion_lat": 0.0, "lat": 38.93358216666667, "name": "c3bf803a9b8b78114895ef8fbbe5c0ae", "fusion_lon": 0.0, "bike_id": "c3bf803a9b8b78114895ef8fbbe5c0ae", "is_disabled": 0, "is_reserved": 0}, {"rental_uris": {"ios": "https://dc.lft.to/lastmile_qr_scan", "android": "https://dc.lft.to/lastmile_qr_scan"}, "lon": -77.02947266666666, "type": "electric_scooter", "fusion_lat": 0.0, "lat": 38.90374933333333, "name": "bc0b5d0d6ced1e171a384972648ee49d", "fusion_lon": 0.0, "bike_id": "bc0b5d0d6ced1e171a384972648ee49d", "is_disabled": 0, "is_reserved": 0}, {"rental_uris": {"ios": "https://dc.lft.to/lastmile_qr_scan", "android": "https://dc.lft.to/lastmile_qr_scan"}, "lon": -77.006522, "type": "electric_scooter", "fusion_lat": 0.0, "lat": 38.908627333333335, "name": "01dbc3f25e65d9a1384d138e790d45ed", "fusion_lon": 0.0, "bike_id": "01dbc3f25e65d9a1384d138e790d45ed", "is_disabled": 0, "is_reserved": 0}, {"rental_uris": {"ios": "https://dc.lft.to/lastmile_qr_scan", "android": "https://dc.lft.to/lastmile_qr_scan"}, "lon": -77.14986616666667, "type": "electric_bike", "fusion_lat": 0.0, "lat": 39.094599333333335, "name": "d333f77b231f0f6a4f43277002bbb0e3", "fusion_lon": 0.0, "bike_id": "d333f77b231f0f6a4f43277002bbb0e3", "is_disabled": 0, "is_reserved": 0}, {"rental_uris": {"ios": "https://dc.lft.to/lastmile_qr_scan", "android": "https://dc.lft.to/lastmile_qr_scan"}, "lon": -77.03661, "type": "electric_scooter", "fusion_lat": 0.0, "lat": 38.921161833333336, "name": "6cc3125ed1a68c5d4e8d96e788f7aeb2", "fusion_lon": 0.0, "bike_id": "6cc3125ed1a68c5d4e8d96e788f7aeb2", "is_disabled": 0, "is_reserved": 0}, {"rental_uris": {"ios": "https://dc.lft.to/lastmile_qr_scan", "android": "https://dc.lft.to/lastmile_qr_scan"}, "lon": -77.19908683333334, "type": "electric_bike", "fusion_lat": 0.0, "lat": 38.87530616666667, "name": "56ac6a73e83baa80203258ecc74e2c15", "fusion_lon": 0.0, "bike_id": "56ac6a73e83baa80203258ecc74e2c15", "is_disabled": 0, "is_reserved": 0}, {"rental_uris": {"ios": "https://dc.lft.to/lastmile_qr_scan", "android": "https://dc.lft.to/lastmile_qr_scan"}, "lon": -77.02215133333333, "type": "electric_scooter", "fusion_lat": 0.0, "lat": 38.91271183333333, "name": "cc82a7cab87bb54f34e15e26d28d35f9", "fusion_lon": 0.0, "bike_id": "cc82a7cab87bb54f34e15e26d28d35f9", "is_disabled": 0, "is_reserved": 0}, {"rental_uris": {"ios": "https://dc.lft.to/lastmile_qr_scan", "android": "https://dc.lft.to/lastmile_qr_scan"}, "lon": -77.0034295, "type": "electric_scooter", "fusion_lat": 0.0, "lat": 38.89161633333333, "name": "62274d64f99d790acc9e61d52aa2303c", "fusion_lon": 0.0, "bike_id": "62274d64f99d790acc9e61d52aa2303c", "is_disabled": 0, "is_reserved": 0}, {"rental_uris": {"ios": "https://dc.lft.to/lastmile_qr_scan", "android": "https://dc.lft.to/lastmile_qr_scan"}, "lon": -77.05050716666666, "type": "electric_scooter", "fusion_lat": 0.0, "lat": 38.905297833333336, "name": "4039dcaacd072b9bce390af5bd0fc9c4", "fusion_lon": 0.0, "bike_id": "4039dcaacd072b9bce390af5bd0fc9c4", "is_disabled": 0, "is_reserved": 0}, {"rental_uris": {"ios": "https://dc.lft.to/lastmile_qr_scan", "android": "https://dc.lft.to/lastmile_qr_scan"}, "lon": -77.038142, "type": "electric_scooter", "fusion_lat": 0.0, "lat": 38.926414666666666, "name": "84658c0e81c291971b28050f98d7bcb1", "fusion_lon": 0.0, "bike_id": "84658c0e81c291971b28050f98d7bcb1", "is_disabled": 0, "is_reserved": 0}, {"rental_uris": {"ios": "https://dc.lft.to/lastmile_qr_scan", "android": "https://dc.lft.to/lastmile_qr_scan"}, "lon": -76.94633733333333, "type": "electric_scooter", "fusion_lat": 0.0, "lat": 38.8983315, "name": "b146cceb2bb617b2fdc2267124255296", "fusion_lon": 0.0, "bike_id": "b146cceb2bb617b2fdc2267124255296", "is_disabled": 0, "is_reserved": 0}, {"rental_uris": {"ios": "https://dc.lft.to/lastmile_qr_scan", "android": "https://dc.lft.to/lastmile_qr_scan"}, "lon": -76.95761966666667, "type": "electric_bike", "fusion_lat": 0.0, "lat": 38.884158166666666, "name": "f4a9ab0b8842d3381ba5671abeb79c5e", "fusion_lon": 0.0, "bike_id": "f4a9ab0b8842d3381ba5671abeb79c5e", "is_disabled": 0, "is_reserved": 0}, {"rental_uris": {"ios": "https://dc.lft.to/lastmile_qr_scan", "android": "https://dc.lft.to/lastmile_qr_scan"}, "lon": -77.10683983333334, "type": "electric_bike", "fusion_lat": 0.0, "lat": 38.85556233333333, "name": "f1594e1356c76d823db78dc34775920c", "fusion_lon": 0.0, "bike_id": "f1594e1356c76d823db78dc34775920c", "is_disabled": 0, "is_reserved": 0}, {"rental_uris": {"ios": "https://dc.lft.to/lastmile_qr_scan", "android": "https://dc.lft.to/lastmile_qr_scan"}, "lon": -76.976155, "type": "electric_scooter", "fusion_lat": 0.0, "lat": 38.903857, "name": "9de5d89c8f2bed72ca927d245618b439", "fusion_lon": 0.0, "bike_id": "9de5d89c8f2bed72ca927d245618b439", "is_disabled": 0, "is_reserved": 0}, {"rental_uris": {"ios": "https://dc.lft.to/lastmile_qr_scan", "android": "https://dc.lft.to/lastmile_qr_scan"}, "lon": -76.87821583333333, "type": "electric_bike", "fusion_lat": 0.0, "lat": 38.992291333333334, "name": "c62ed515f56f5314b4c3fc9272082875", "fusion_lon": 0.0, "bike_id": "c62ed515f56f5314b4c3fc9272082875", "is_disabled": 0, "is_reserved": 0}, {"rental_uris": {"ios": "https://dc.lft.to/lastmile_qr_scan", "android": "https://dc.lft.to/lastmile_qr_scan"}, "lon": -77.03826366666667, "type": "electric_scooter", "fusion_lat": 0.0, "lat": 38.92173866666667, "name": "18064d006cd214445a67e1c7fd7973e1", "fusion_lon": 0.0, "bike_id": "18064d006cd214445a67e1c7fd7973e1", "is_disabled": 0, "is_reserved": 0}, {"rental_uris": {"ios": "https://dc.lft.to/lastmile_qr_scan", "android": "https://dc.lft.to/lastmile_qr_scan"}, "lon": -77.0247645, "type": "electric_scooter", "fusion_lat": 0.0, "lat": 38.918186, "name": "d891a8f6caea0764b4610cac2f712d40", "fusion_lon": 0.0, "bike_id": "d891a8f6caea0764b4610cac2f712d40", "is_disabled": 0, "is_reserved": 0}, {"rental_uris": {"ios": "https://dc.lft.to/lastmile_qr_scan", "android": "https://dc.lft.to/lastmile_qr_scan"}, "lon": -76.97746783333334, "type": "electric_scooter", "fusion_lat": 0.0, "lat": 38.90011166666667, "name": "fd06698f2c88ebc81e285db41385f5d5", "fusion_lon": 0.0, "bike_id": "fd06698f2c88ebc81e285db41385f5d5", "is_disabled": 0, "is_reserved": 0}, {"rental_uris": {"ios": "https://dc.lft.to/lastmile_qr_scan", "android": "https://dc.lft.to/lastmile_qr_scan"}, "lon": -77.034326, "type": "electric_scooter", "fusion_lat": 0.0, "lat": 38.939757666666665, "name": "cc65ee922032890e0db131c74a328cdf", "fusion_lon": 0.0, "bike_id": "cc65ee922032890e0db131c74a328cdf", "is_disabled": 0, "is_reserved": 0}, {"rental_uris": {"ios": "https://dc.lft.to/lastmile_qr_scan", "android": "https://dc.lft.to/lastmile_qr_scan"}, "lon": -77.10025483333334, "type": "electric_bike", "fusion_lat": 0.0, "lat": 38.990656, "name": "ef2efe95a646eab24b87da67963b70e6", "fusion_lon": 0.0, "bike_id": "ef2efe95a646eab24b87da67963b70e6", "is_disabled": 0, "is_reserved": 0}, {"rental_uris": {"ios": "https://dc.lft.to/lastmile_qr_scan", "android": "https://dc.lft.to/lastmile_qr_scan"}, "lon": -77.0490015, "type": "electric_bike", "fusion_lat": 0.0, "lat": 38.8749435, "name": "af7ec22235da0311dbea28233ff9016e", "fusion_lon": 0.0, "bike_id": "af7ec22235da0311dbea28233ff9016e", "is_disabled": 0, "is_reserved": 0}, {"rental_uris": {"ios": "https://dc.lft.to/lastmile_qr_scan", "android": "https://dc.lft.to/lastmile_qr_scan"}, "lon": -77.0320685, "type": "electric_scooter", "fusion_lat": 0.0, "lat": 38.90726633333333, "name": "760ffb70ee7d8248369985a055ce990c", "fusion_lon": 0.0, "bike_id": "760ffb70ee7d8248369985a055ce990c", "is_disabled": 0, "is_reserved": 0}, {"rental_uris": {"ios": "https://dc.lft.to/lastmile_qr_scan", "android": "https://dc.lft.to/lastmile_qr_scan"}, "lon": -77.04877316666666, "type": "electric_scooter", "fusion_lat": 0.0, "lat": 38.9036425, "name": "dc47a35ef30a05d97464db9725448606", "fusion_lon": 0.0, "bike_id": "dc47a35ef30a05d97464db9725448606", "is_disabled": 0, "is_reserved": 0}, {"rental_uris": {"ios": "https://dc.lft.to/lastmile_qr_scan", "android": "https://dc.lft.to/lastmile_qr_scan"}, "lon": -76.99607333333333, "type": "electric_scooter", "fusion_lat": 0.0, "lat": 38.90030633333333, "name": "75edcbbfdc9b2484c85deec28ba03da6", "fusion_lon": 0.0, "bike_id": "75edcbbfdc9b2484c85deec28ba03da6", "is_disabled": 0, "is_reserved": 0}, {"rental_uris": {"ios": "https://dc.lft.to/lastmile_qr_scan", "android": "https://dc.lft.to/lastmile_qr_scan"}, "lon": -77.04682466666667, "type": "electric_scooter", "fusion_lat": 0.0, "lat": 38.89225316666667, "name": "702d4609c93cd5ea999b7d0ce0df21a6", "fusion_lon": 0.0, "bike_id": "702d4609c93cd5ea999b7d0ce0df21a6", "is_disabled": 0, "is_reserved": 0}, {"rental_uris": {"ios": "https://dc.lft.to/lastmile_qr_scan", "android": "https://dc.lft.to/lastmile_qr_scan"}, "lon": -77.0321045, "type": "electric_scooter", "fusion_lat": 0.0, "lat": 38.96244466666667, "name": "03583fdd95cb33e9cfbacf89517ac7a0", "fusion_lon": 0.0, "bike_id": "03583fdd95cb33e9cfbacf89517ac7a0", "is_disabled": 0, "is_reserved": 0}, {"rental_uris": {"ios": "https://dc.lft.to/lastmile_qr_scan", "android": "https://dc.lft.to/lastmile_qr_scan"}, "lon": -77.01809783333333, "type": "electric_scooter", "fusion_lat": 0.0, "lat": 38.911926, "name": "9f8af1835498f917c64a81d0ae632082", "fusion_lon": 0.0, "bike_id": "9f8af1835498f917c64a81d0ae632082", "is_disabled": 0, "is_reserved": 0}, {"rental_uris": {"ios": "https://dc.lft.to/lastmile_qr_scan", "android": "https://dc.lft.to/lastmile_qr_scan"}, "lon": -76.946524, "type": "electric_scooter", "fusion_lat": 0.0, "lat": 38.89828983333334, "name": "7945a7a0af168283ae4edc41d7075d1a", "fusion_lon": 0.0, "bike_id": "7945a7a0af168283ae4edc41d7075d1a", "is_disabled": 0, "is_reserved": 0}, {"rental_uris": {"ios": "https://dc.lft.to/lastmile_qr_scan", "android": "https://dc.lft.to/lastmile_qr_scan"}, "lon": -77.06282733333333, "type": "electric_scooter", "fusion_lat": 0.0, "lat": 38.9068695, "name": "644c64dcf420fbf1ec8adb9c155f7313", "fusion_lon": 0.0, "bike_id": "644c64dcf420fbf1ec8adb9c155f7313", "is_disabled": 0, "is_reserved": 0}, {"rental_uris": {"ios": "https://dc.lft.to/lastmile_qr_scan", "android": "https://dc.lft.to/lastmile_qr_scan"}, "lon": -77.024149, "type": "electric_scooter", "fusion_lat": 0.0, "lat": 38.9182495, "name": "c2bbfb07bb83a4ce7218ddd9fc63b704", "fusion_lon": 0.0, "bike_id": "c2bbfb07bb83a4ce7218ddd9fc63b704", "is_disabled": 0, "is_reserved": 0}, {"rental_uris": {"ios": "https://dc.lft.to/lastmile_qr_scan", "android": "https://dc.lft.to/lastmile_qr_scan"}, "lon": -77.0399835, "type": "electric_scooter", "fusion_lat": 0.0, "lat": 38.91416783333333, "name": "c6c82107656e15b3720c0a2d9bc61de5", "fusion_lon": 0.0, "bike_id": "c6c82107656e15b3720c0a2d9bc61de5", "is_disabled": 0, "is_reserved": 0}, {"rental_uris": {"ios": "https://dc.lft.to/lastmile_qr_scan", "android": "https://dc.lft.to/lastmile_qr_scan"}, "lon": -77.01610333333333, "type": "electric_scooter", "fusion_lat": 0.0, "lat": 38.876727333333335, "name": "c410ed1d98405114cb0f64e00005ca8b", "fusion_lon": 0.0, "bike_id": "c410ed1d98405114cb0f64e00005ca8b", "is_disabled": 0, "is_reserved": 0}, {"rental_uris": {"ios": "https://dc.lft.to/lastmile_qr_scan", "android": "https://dc.lft.to/lastmile_qr_scan"}, "lon": -76.98570266666667, "type": "electric_scooter", "fusion_lat": 0.0, "lat": 38.89889983333333, "name": "e2f5eb4549aa43e5dd9567f46873a43b", "fusion_lon": 0.0, "bike_id": "e2f5eb4549aa43e5dd9567f46873a43b", "is_disabled": 0, "is_reserved": 0}, {"rental_uris": {"ios": "https://dc.lft.to/lastmile_qr_scan", "android": "https://dc.lft.to/lastmile_qr_scan"}, "lon": -77.00253516666666, "type": "electric_scooter", "fusion_lat": 0.0, "lat": 38.9013595, "name": "6565df04a8581c912110e17b634f09e8", "fusion_lon": 0.0, "bike_id": "6565df04a8581c912110e17b634f09e8", "is_disabled": 0, "is_reserved": 0}, {"rental_uris": {"ios": "https://dc.lft.to/lastmile_qr_scan", "android": "https://dc.lft.to/lastmile_qr_scan"}, "lon": -76.999731, "type": "electric_scooter", "fusion_lat": 0.0, "lat": 38.838414, "name": "e92c356c9085c4cef96c393ebd6d125c", "fusion_lon": 0.0, "bike_id": "e92c356c9085c4cef96c393ebd6d125c", "is_disabled": 0, "is_reserved": 0}, {"rental_uris": {"ios": "https://dc.lft.to/lastmile_qr_scan", "android": "https://dc.lft.to/lastmile_qr_scan"}, "lon": -77.03917783333333, "type": "electric_scooter", "fusion_lat": 0.0, "lat": 38.911121666666666, "name": "ed0884d5e8ae888221d656dda3606bab", "fusion_lon": 0.0, "bike_id": "ed0884d5e8ae888221d656dda3606bab", "is_disabled": 0, "is_reserved": 0}, {"rental_uris": {"ios": "https://dc.lft.to/lastmile_qr_scan", "android": "https://dc.lft.to/lastmile_qr_scan"}, "lon": -77.034239, "type": "electric_scooter", "fusion_lat": 0.0, "lat": 38.919242, "name": "620015ffbf7705a5ed1ae20a3c2f31f0", "fusion_lon": 0.0, "bike_id": "620015ffbf7705a5ed1ae20a3c2f31f0", "is_disabled": 0, "is_reserved": 0}, {"rental_uris": {"ios": "https://dc.lft.to/lastmile_qr_scan", "android": "https://dc.lft.to/lastmile_qr_scan"}, "lon": -77.03455366666667, "type": "electric_scooter", "fusion_lat": 0.0, "lat": 38.90891933333333, "name": "b068b5249941ecf149df0209893c7f0b", "fusion_lon": 0.0, "bike_id": "b068b5249941ecf149df0209893c7f0b", "is_disabled": 0, "is_reserved": 0}, {"rental_uris": {"ios": "https://dc.lft.to/lastmile_qr_scan", "android": "https://dc.lft.to/lastmile_qr_scan"}, "lon": -77.07271033333333, "type": "electric_scooter", "fusion_lat": 0.0, "lat": 38.93484566666667, "name": "045e08ff413cc6c210cb462f0ba18c6b", "fusion_lon": 0.0, "bike_id": "045e08ff413cc6c210cb462f0ba18c6b", "is_disabled": 0, "is_reserved": 0}, {"rental_uris": {"ios": "https://dc.lft.to/lastmile_qr_scan", "android": "https://dc.lft.to/lastmile_qr_scan"}, "lon": -77.00087566666667, "type": "electric_scooter", "fusion_lat": 0.0, "lat": 38.90751516666667, "name": "9c4ca02f954f7a701f033f1c495b4163", "fusion_lon": 0.0, "bike_id": "9c4ca02f954f7a701f033f1c495b4163", "is_disabled": 0, "is_reserved": 0}, {"rental_uris": {"ios": "https://dc.lft.to/lastmile_qr_scan", "android": "https://dc.lft.to/lastmile_qr_scan"}, "lon": -76.99004383333333, "type": "electric_scooter", "fusion_lat": 0.0, "lat": 38.86510766666667, "name": "b3a440dae5360f17ecc4f106709b74d2", "fusion_lon": 0.0, "bike_id": "b3a440dae5360f17ecc4f106709b74d2", "is_disabled": 0, "is_reserved": 0}, {"rental_uris": {"ios": "https://dc.lft.to/lastmile_qr_scan", "android": "https://dc.lft.to/lastmile_qr_scan"}, "lon": -77.04282566666667, "type": "electric_scooter", "fusion_lat": 0.0, "lat": 38.92263066666667, "name": "7538a14fecebb216cc5b6ece5adc6c8b", "fusion_lon": 0.0, "bike_id": "7538a14fecebb216cc5b6ece5adc6c8b", "is_disabled": 0, "is_reserved": 0}, {"rental_uris": {"ios": "https://dc.lft.to/lastmile_qr_scan", "android": "https://dc.lft.to/lastmile_qr_scan"}, "lon": -77.04029283333334, "type": "electric_scooter", "fusion_lat": 0.0, "lat": 38.92345133333333, "name": "027f50a9c572406f84b3f9415197af58", "fusion_lon": 0.0, "bike_id": "027f50a9c572406f84b3f9415197af58", "is_disabled": 0, "is_reserved": 0}, {"rental_uris": {"ios": "https://dc.lft.to/lastmile_qr_scan", "android": "https://dc.lft.to/lastmile_qr_scan"}, "lon": -76.931582, "type": "electric_scooter", "fusion_lat": 0.0, "lat": 38.89882683333333, "name": "10688437fd385a5857abdaf93a5fac0b", "fusion_lon": 0.0, "bike_id": "10688437fd385a5857abdaf93a5fac0b", "is_disabled": 0, "is_reserved": 0}, {"rental_uris": {"ios": "https://dc.lft.to/lastmile_qr_scan", "android": "https://dc.lft.to/lastmile_qr_scan"}, "lon": -77.01188833333333, "type": "electric_scooter", "fusion_lat": 0.0, "lat": 38.90033016666667, "name": "12defd271540d1d345e93135e0f39774", "fusion_lon": 0.0, "bike_id": "12defd271540d1d345e93135e0f39774", "is_disabled": 0, "is_reserved": 0}, {"rental_uris": {"ios": "https://dc.lft.to/lastmile_qr_scan", "android": "https://dc.lft.to/lastmile_qr_scan"}, "lon": -77.03489933333333, "type": "electric_scooter", "fusion_lat": 0.0, "lat": 38.91926516666667, "name": "e7e89ca9acdb5c33c3307b00aca85dbc", "fusion_lon": 0.0, "bike_id": "e7e89ca9acdb5c33c3307b00aca85dbc", "is_disabled": 0, "is_reserved": 0}, {"rental_uris": {"ios": "https://dc.lft.to/lastmile_qr_scan", "android": "https://dc.lft.to/lastmile_qr_scan"}, "lon": -77.002084, "type": "electric_scooter", "fusion_lat": 0.0, "lat": 38.900377666666664, "name": "40362582abda0999b143200fff9c911d", "fusion_lon": 0.0, "bike_id": "40362582abda0999b143200fff9c911d", "is_disabled": 0, "is_reserved": 0}, {"rental_uris": {"ios": "https://dc.lft.to/lastmile_qr_scan", "android": "https://dc.lft.to/lastmile_qr_scan"}, "lon": -77.04457383333333, "type": "electric_scooter", "fusion_lat": 0.0, "lat": 38.9111755, "name": "b58f947b0340750689864a0c72154eb6", "fusion_lon": 0.0, "bike_id": "b58f947b0340750689864a0c72154eb6", "is_disabled": 0, "is_reserved": 0}, {"rental_uris": {"ios": "https://dc.lft.to/lastmile_qr_scan", "android": "https://dc.lft.to/lastmile_qr_scan"}, "lon": -77.025244, "type": "electric_scooter", "fusion_lat": 0.0, "lat": 38.932898333333334, "name": "08241a6e6a3121ecfa2686ccb4ec025e", "fusion_lon": 0.0, "bike_id": "08241a6e6a3121ecfa2686ccb4ec025e", "is_disabled": 0, "is_reserved": 0}, {"rental_uris": {"ios": "https://dc.lft.to/lastmile_qr_scan", "android": "https://dc.lft.to/lastmile_qr_scan"}, "lon": -77.03370983333333, "type": "electric_scooter", "fusion_lat": 0.0, "lat": 38.92881083333333, "name": "7d3b53387607a42a8c0b0e13eab41823", "fusion_lon": 0.0, "bike_id": "7d3b53387607a42a8c0b0e13eab41823", "is_disabled": 0, "is_reserved": 0}, {"rental_uris": {"ios": "https://dc.lft.to/lastmile_qr_scan", "android": "https://dc.lft.to/lastmile_qr_scan"}, "lon": -76.98158333333333, "type": "electric_scooter", "fusion_lat": 0.0, "lat": 38.90015733333333, "name": "d2293f44c8d9b8aeea50ecc6b89e4121", "fusion_lon": 0.0, "bike_id": "d2293f44c8d9b8aeea50ecc6b89e4121", "is_disabled": 0, "is_reserved": 0}, {"rental_uris": {"ios": "https://dc.lft.to/lastmile_qr_scan", "android": "https://dc.lft.to/lastmile_qr_scan"}, "lon": -77.05004133333334, "type": "electric_scooter", "fusion_lat": 0.0, "lat": 38.892290833333334, "name": "6ac15464da3fa7b360407560d9ab298a", "fusion_lon": 0.0, "bike_id": "6ac15464da3fa7b360407560d9ab298a", "is_disabled": 0, "is_reserved": 0}, {"rental_uris": {"ios": "https://dc.lft.to/lastmile_qr_scan", "android": "https://dc.lft.to/lastmile_qr_scan"}, "lon": -76.96301316666667, "type": "electric_bike", "fusion_lat": 0.0, "lat": 38.9270895, "name": "ea4ded55348c9cf70f93c63128c4c19c", "fusion_lon": 0.0, "bike_id": "ea4ded55348c9cf70f93c63128c4c19c", "is_disabled": 0, "is_reserved": 0}, {"rental_uris": {"ios": "https://dc.lft.to/lastmile_qr_scan", "android": "https://dc.lft.to/lastmile_qr_scan"}, "lon": -77.0072295, "type": "electric_scooter", "fusion_lat": 0.0, "lat": 38.8849185, "name": "6d83eab884f4ee6122c280a0102debfc", "fusion_lon": 0.0, "bike_id": "6d83eab884f4ee6122c280a0102debfc", "is_disabled": 0, "is_reserved": 0}, {"rental_uris": {"ios": "https://dc.lft.to/lastmile_qr_scan", "android": "https://dc.lft.to/lastmile_qr_scan"}, "lon": -77.02715133333334, "type": "electric_scooter", "fusion_lat": 0.0, "lat": 38.9181995, "name": "566e54da4b38a97b4889aefd885dba6c", "fusion_lon": 0.0, "bike_id": "566e54da4b38a97b4889aefd885dba6c", "is_disabled": 0, "is_reserved": 0}, {"rental_uris": {"ios": "https://dc.lft.to/lastmile_qr_scan", "android": "https://dc.lft.to/lastmile_qr_scan"}, "lon": -77.01965766666666, "type": "electric_scooter", "fusion_lat": 0.0, "lat": 38.92972666666667, "name": "8f3993b70e31770bd1f4d73ee280d95e", "fusion_lon": 0.0, "bike_id": "8f3993b70e31770bd1f4d73ee280d95e", "is_disabled": 0, "is_reserved": 0}, {"rental_uris": {"ios": "https://dc.lft.to/lastmile_qr_scan", "android": "https://dc.lft.to/lastmile_qr_scan"}, "lon": -76.9043645, "type": "electric_bike", "fusion_lat": 0.0, "lat": 38.897782, "name": "ad5d6bf6bd10b3c089c7a3f193929f15", "fusion_lon": 0.0, "bike_id": "ad5d6bf6bd10b3c089c7a3f193929f15", "is_disabled": 0, "is_reserved": 0}, {"rental_uris": {"ios": "https://dc.lft.to/lastmile_qr_scan", "android": "https://dc.lft.to/lastmile_qr_scan"}, "lon": -77.01994066666667, "type": "electric_scooter", "fusion_lat": 0.0, "lat": 38.9046925, "name": "76997055f0bac8fcfa255089754b688a", "fusion_lon": 0.0, "bike_id": "76997055f0bac8fcfa255089754b688a", "is_disabled": 0, "is_reserved": 0}, {"rental_uris": {"ios": "https://dc.lft.to/lastmile_qr_scan", "android": "https://dc.lft.to/lastmile_qr_scan"}, "lon": -77.017491, "type": "electric_scooter", "fusion_lat": 0.0, "lat": 38.91714183333333, "name": "900dab1a51b1017403307b12f7e190d2", "fusion_lon": 0.0, "bike_id": "900dab1a51b1017403307b12f7e190d2", "is_disabled": 0, "is_reserved": 0}, {"rental_uris": {"ios": "https://dc.lft.to/lastmile_qr_scan", "android": "https://dc.lft.to/lastmile_qr_scan"}, "lon": -77.02321616666667, "type": "electric_scooter", "fusion_lat": 0.0, "lat": 38.92952016666667, "name": "c0f601f1003eab1c82202e0d8cfdfc4c", "fusion_lon": 0.0, "bike_id": "c0f601f1003eab1c82202e0d8cfdfc4c", "is_disabled": 0, "is_reserved": 0}, {"rental_uris": {"ios": "https://dc.lft.to/lastmile_qr_scan", "android": "https://dc.lft.to/lastmile_qr_scan"}, "lon": -77.02590016666667, "type": "electric_scooter", "fusion_lat": 0.0, "lat": 38.91987566666667, "name": "c342ff85cc25405b83c63be5eb98b73a", "fusion_lon": 0.0, "bike_id": "c342ff85cc25405b83c63be5eb98b73a", "is_disabled": 0, "is_reserved": 0}, {"rental_uris": {"ios": "https://dc.lft.to/lastmile_qr_scan", "android": "https://dc.lft.to/lastmile_qr_scan"}, "lon": -77.03079616666666, "type": "electric_scooter", "fusion_lat": 0.0, "lat": 38.9100065, "name": "cea538826e0066b0d3d0aa583458a143", "fusion_lon": 0.0, "bike_id": "cea538826e0066b0d3d0aa583458a143", "is_disabled": 0, "is_reserved": 0}, {"rental_uris": {"ios": "https://dc.lft.to/lastmile_qr_scan", "android": "https://dc.lft.to/lastmile_qr_scan"}, "lon": -77.01512516666666, "type": "electric_scooter", "fusion_lat": 0.0, "lat": 38.88736, "name": "1bfed6404aded5b65e8f9d32c6342dda", "fusion_lon": 0.0, "bike_id": "1bfed6404aded5b65e8f9d32c6342dda", "is_disabled": 0, "is_reserved": 0}, {"rental_uris": {"ios": "https://dc.lft.to/lastmile_qr_scan", "android": "https://dc.lft.to/lastmile_qr_scan"}, "lon": -77.012074, "type": "electric_scooter", "fusion_lat": 0.0, "lat": 38.91524416666667, "name": "55db0534e008c911d7c7b558ac89c80f", "fusion_lon": 0.0, "bike_id": "55db0534e008c911d7c7b558ac89c80f", "is_disabled": 0, "is_reserved": 0}, {"rental_uris": {"ios": "https://dc.lft.to/lastmile_qr_scan", "android": "https://dc.lft.to/lastmile_qr_scan"}, "lon": -77.035711, "type": "electric_scooter", "fusion_lat": 0.0, "lat": 38.90221583333334, "name": "355f4e15f0f880bfb6492dead68912bb", "fusion_lon": 0.0, "bike_id": "355f4e15f0f880bfb6492dead68912bb", "is_disabled": 0, "is_reserved": 0}, {"rental_uris": {"ios": "https://dc.lft.to/lastmile_qr_scan", "android": "https://dc.lft.to/lastmile_qr_scan"}, "lon": -77.04881366666666, "type": "electric_scooter", "fusion_lat": 0.0, "lat": 38.91236133333334, "name": "6176c82664ccfadc3e8e8bbf2c8e2fe7", "fusion_lon": 0.0, "bike_id": "6176c82664ccfadc3e8e8bbf2c8e2fe7", "is_disabled": 0, "is_reserved": 0}, {"rental_uris": {"ios": "https://dc.lft.to/lastmile_qr_scan", "android": "https://dc.lft.to/lastmile_qr_scan"}, "lon": -77.03429333333334, "type": "electric_scooter", "fusion_lat": 0.0, "lat": 38.903462, "name": "79293fe95b2a9358edcf858ed745163a", "fusion_lon": 0.0, "bike_id": "79293fe95b2a9358edcf858ed745163a", "is_disabled": 0, "is_reserved": 0}, {"rental_uris": {"ios": "https://dc.lft.to/lastmile_qr_scan", "android": "https://dc.lft.to/lastmile_qr_scan"}, "lon": -77.0201535, "type": "electric_bike", "fusion_lat": 0.0, "lat": 38.9372495, "name": "6a123d0d206eaad0f9eb78960dcb9b74", "fusion_lon": 0.0, "bike_id": "6a123d0d206eaad0f9eb78960dcb9b74", "is_disabled": 0, "is_reserved": 0}, {"rental_uris": {"ios": "https://dc.lft.to/lastmile_qr_scan", "android": "https://dc.lft.to/lastmile_qr_scan"}, "lon": -77.03641683333333, "type": "electric_scooter", "fusion_lat": 0.0, "lat": 38.902873, "name": "36a20c35bcac9351f584be153b846be0", "fusion_lon": 0.0, "bike_id": "36a20c35bcac9351f584be153b846be0", "is_disabled": 0, "is_reserved": 0}, {"rental_uris": {"ios": "https://dc.lft.to/lastmile_qr_scan", "android": "https://dc.lft.to/lastmile_qr_scan"}, "lon": -77.08042583333334, "type": "electric_bike", "fusion_lat": 0.0, "lat": 38.848500333333334, "name": "c998622afb912dc63f010aba5accd696", "fusion_lon": 0.0, "bike_id": "c998622afb912dc63f010aba5accd696", "is_disabled": 0, "is_reserved": 0}, {"rental_uris": {"ios": "https://dc.lft.to/lastmile_qr_scan", "android": "https://dc.lft.to/lastmile_qr_scan"}, "lon": -77.03863866666667, "type": "electric_scooter", "fusion_lat": 0.0, "lat": 38.91564566666667, "name": "3d7a4d669366e6327786451daf6291b8", "fusion_lon": 0.0, "bike_id": "3d7a4d669366e6327786451daf6291b8", "is_disabled": 0, "is_reserved": 0}, {"rental_uris": {"ios": "https://dc.lft.to/lastmile_qr_scan", "android": "https://dc.lft.to/lastmile_qr_scan"}, "lon": -77.03837933333334, "type": "electric_scooter", "fusion_lat": 0.0, "lat": 38.90752033333333, "name": "514512a8e4674351d93640829038b8da", "fusion_lon": 0.0, "bike_id": "514512a8e4674351d93640829038b8da", "is_disabled": 0, "is_reserved": 0}, {"rental_uris": {"ios": "https://dc.lft.to/lastmile_qr_scan", "android": "https://dc.lft.to/lastmile_qr_scan"}, "lon": -76.9851865, "type": "electric_scooter", "fusion_lat": 0.0, "lat": 38.910032333333334, "name": "bf447919e4815a26880a62cf9f67ad24", "fusion_lon": 0.0, "bike_id": "bf447919e4815a26880a62cf9f67ad24", "is_disabled": 0, "is_reserved": 0}, {"rental_uris": {"ios": "https://dc.lft.to/lastmile_qr_scan", "android": "https://dc.lft.to/lastmile_qr_scan"}, "lon": -76.97415666666667, "type": "electric_scooter", "fusion_lat": 0.0, "lat": 38.90238316666667, "name": "f9ac6ffbbd69b7f9ccc18b088e3e1217", "fusion_lon": 0.0, "bike_id": "f9ac6ffbbd69b7f9ccc18b088e3e1217", "is_disabled": 0, "is_reserved": 0}, {"rental_uris": {"ios": "https://dc.lft.to/lastmile_qr_scan", "android": "https://dc.lft.to/lastmile_qr_scan"}, "lon": -76.98607183333333, "type": "electric_scooter", "fusion_lat": 0.0, "lat": 38.87839966666667, "name": "d67ae8fab80366f06fe7f3effb8ad920", "fusion_lon": 0.0, "bike_id": "d67ae8fab80366f06fe7f3effb8ad920", "is_disabled": 0, "is_reserved": 0}, {"rental_uris": {"ios": "https://dc.lft.to/lastmile_qr_scan", "android": "https://dc.lft.to/lastmile_qr_scan"}, "lon": -77.00335566666666, "type": "electric_bike", "fusion_lat": 0.0, "lat": 38.876626333333334, "name": "d833588d59e7ed888f4687dd73ad8b54", "fusion_lon": 0.0, "bike_id": "d833588d59e7ed888f4687dd73ad8b54", "is_disabled": 0, "is_reserved": 0}, {"rental_uris": {"ios": "https://dc.lft.to/lastmile_qr_scan", "android": "https://dc.lft.to/lastmile_qr_scan"}, "lon": -77.03406883333334, "type": "electric_scooter", "fusion_lat": 0.0, "lat": 38.924301166666666, "name": "f8b5fc031bf78d5880920d77a32a4364", "fusion_lon": 0.0, "bike_id": "f8b5fc031bf78d5880920d77a32a4364", "is_disabled": 0, "is_reserved": 0}, {"rental_uris": {"ios": "https://dc.lft.to/lastmile_qr_scan", "android": "https://dc.lft.to/lastmile_qr_scan"}, "lon": -77.01112216666667, "type": "electric_scooter", "fusion_lat": 0.0, "lat": 38.870885666666666, "name": "9ac83e4d6f49be143ff5b7fd8bb5774a", "fusion_lon": 0.0, "bike_id": "9ac83e4d6f49be143ff5b7fd8bb5774a", "is_disabled": 0, "is_reserved": 0}, {"rental_uris": {"ios": "https://dc.lft.to/lastmile_qr_scan", "android": "https://dc.lft.to/lastmile_qr_scan"}, "lon": -76.92845783333334, "type": "electric_scooter", "fusion_lat": 0.0, "lat": 38.88358183333333, "name": "f345fde1ead223686d024d967d4de379", "fusion_lon": 0.0, "bike_id": "f345fde1ead223686d024d967d4de379", "is_disabled": 0, "is_reserved": 0}, {"rental_uris": {"ios": "https://dc.lft.to/lastmile_qr_scan", "android": "https://dc.lft.to/lastmile_qr_scan"}, "lon": -77.03154683333334, "type": "electric_scooter", "fusion_lat": 0.0, "lat": 38.89359683333333, "name": "d7675f8a86111e967da904db72395b83", "fusion_lon": 0.0, "bike_id": "d7675f8a86111e967da904db72395b83", "is_disabled": 0, "is_reserved": 0}, {"rental_uris": {"ios": "https://dc.lft.to/lastmile_qr_scan", "android": "https://dc.lft.to/lastmile_qr_scan"}, "lon": -76.9946225, "type": "electric_scooter", "fusion_lat": 0.0, "lat": 38.85162066666667, "name": "8149b81f5b7de0236c28782b5f625485", "fusion_lon": 0.0, "bike_id": "8149b81f5b7de0236c28782b5f625485", "is_disabled": 0, "is_reserved": 0}, {"rental_uris": {"ios": "https://dc.lft.to/lastmile_qr_scan", "android": "https://dc.lft.to/lastmile_qr_scan"}, "lon": -77.03932183333333, "type": "electric_scooter", "fusion_lat": 0.0, "lat": 38.90281133333333, "name": "9a3a5486ed5965ec03a7cfce1b445b9b", "fusion_lon": 0.0, "bike_id": "9a3a5486ed5965ec03a7cfce1b445b9b", "is_disabled": 0, "is_reserved": 0}, {"rental_uris": {"ios": "https://dc.lft.to/lastmile_qr_scan", "android": "https://dc.lft.to/lastmile_qr_scan"}, "lon": -77.03888816666667, "type": "electric_scooter", "fusion_lat": 0.0, "lat": 38.922504833333335, "name": "e9903fb62b6d0717b6f2e38ecd8e5600", "fusion_lon": 0.0, "bike_id": "e9903fb62b6d0717b6f2e38ecd8e5600", "is_disabled": 0, "is_reserved": 0}, {"rental_uris": {"ios": "https://dc.lft.to/lastmile_qr_scan", "android": "https://dc.lft.to/lastmile_qr_scan"}, "lon": -77.03569116666667, "type": "electric_scooter", "fusion_lat": 0.0, "lat": 38.93979016666667, "name": "a8246c872e85cb144dfac624455cf839", "fusion_lon": 0.0, "bike_id": "a8246c872e85cb144dfac624455cf839", "is_disabled": 0, "is_reserved": 0}, {"rental_uris": {"ios": "https://dc.lft.to/lastmile_qr_scan", "android": "https://dc.lft.to/lastmile_qr_scan"}, "lon": -76.95677433333333, "type": "electric_bike", "fusion_lat": 0.0, "lat": 38.94729783333333, "name": "ca805976814b3ae6190f958d449b47c0", "fusion_lon": 0.0, "bike_id": "ca805976814b3ae6190f958d449b47c0", "is_disabled": 0, "is_reserved": 0}, {"rental_uris": {"ios": "https://dc.lft.to/lastmile_qr_scan", "android": "https://dc.lft.to/lastmile_qr_scan"}, "lon": -76.93160783333333, "type": "electric_scooter", "fusion_lat": 0.0, "lat": 38.89879466666667, "name": "dc5fb23c1cfb9c9b8b7513c40073e227", "fusion_lon": 0.0, "bike_id": "dc5fb23c1cfb9c9b8b7513c40073e227", "is_disabled": 0, "is_reserved": 0}, {"rental_uris": {"ios": "https://dc.lft.to/lastmile_qr_scan", "android": "https://dc.lft.to/lastmile_qr_scan"}, "lon": -77.045683, "type": "electric_scooter", "fusion_lat": 0.0, "lat": 38.910639333333336, "name": "22bf90906e4ec4fd5c6a9a35cc3f1be5", "fusion_lon": 0.0, "bike_id": "22bf90906e4ec4fd5c6a9a35cc3f1be5", "is_disabled": 0, "is_reserved": 0}, {"rental_uris": {"ios": "https://dc.lft.to/lastmile_qr_scan", "android": "https://dc.lft.to/lastmile_qr_scan"}, "lon": -76.948361, "type": "electric_scooter", "fusion_lat": 0.0, "lat": 38.884165833333334, "name": "ed2159a08a01610b361fff91e53ada48", "fusion_lon": 0.0, "bike_id": "ed2159a08a01610b361fff91e53ada48", "is_disabled": 0, "is_reserved": 0}, {"rental_uris": {"ios": "https://dc.lft.to/lastmile_qr_scan", "android": "https://dc.lft.to/lastmile_qr_scan"}, "lon": -76.92875416666666, "type": "electric_scooter", "fusion_lat": 0.0, "lat": 38.884435, "name": "87774ff8b1038ad10dab1715ebba6d3f", "fusion_lon": 0.0, "bike_id": "87774ff8b1038ad10dab1715ebba6d3f", "is_disabled": 0, "is_reserved": 0}, {"rental_uris": {"ios": "https://dc.lft.to/lastmile_qr_scan", "android": "https://dc.lft.to/lastmile_qr_scan"}, "lon": -77.0482195, "type": "electric_scooter", "fusion_lat": 0.0, "lat": 38.909636666666664, "name": "0ba5fba692da3d486cca95e2fa16917c", "fusion_lon": 0.0, "bike_id": "0ba5fba692da3d486cca95e2fa16917c", "is_disabled": 0, "is_reserved": 0}, {"rental_uris": {"ios": "https://dc.lft.to/lastmile_qr_scan", "android": "https://dc.lft.to/lastmile_qr_scan"}, "lon": -77.04541116666667, "type": "electric_scooter", "fusion_lat": 0.0, "lat": 38.89479733333334, "name": "1c5915300cae67bc3af58fb70f96dc95", "fusion_lon": 0.0, "bike_id": "1c5915300cae67bc3af58fb70f96dc95", "is_disabled": 0, "is_reserved": 0}, {"rental_uris": {"ios": "https://dc.lft.to/lastmile_qr_scan", "android": "https://dc.lft.to/lastmile_qr_scan"}, "lon": -77.0318345, "type": "electric_scooter", "fusion_lat": 0.0, "lat": 38.89843916666667, "name": "266e6ea547d6760aac96984dfd8e5587", "fusion_lon": 0.0, "bike_id": "266e6ea547d6760aac96984dfd8e5587", "is_disabled": 0, "is_reserved": 0}, {"rental_uris": {"ios": "https://dc.lft.to/lastmile_qr_scan", "android": "https://dc.lft.to/lastmile_qr_scan"}, "lon": -76.98348416666667, "type": "electric_scooter", "fusion_lat": 0.0, "lat": 38.915347, "name": "df431d61d1f20f6abeff59c1f2b43fd6", "fusion_lon": 0.0, "bike_id": "df431d61d1f20f6abeff59c1f2b43fd6", "is_disabled": 0, "is_reserved": 0}, {"rental_uris": {"ios": "https://dc.lft.to/lastmile_qr_scan", "android": "https://dc.lft.to/lastmile_qr_scan"}, "lon": -77.02706216666667, "type": "electric_scooter", "fusion_lat": 0.0, "lat": 38.90941566666667, "name": "41e5079fa6b3706b1e63f7c1798245fb", "fusion_lon": 0.0, "bike_id": "41e5079fa6b3706b1e63f7c1798245fb", "is_disabled": 0, "is_reserved": 0}, {"rental_uris": {"ios": "https://dc.lft.to/lastmile_qr_scan", "android": "https://dc.lft.to/lastmile_qr_scan"}, "lon": -77.02694266666667, "type": "electric_scooter", "fusion_lat": 0.0, "lat": 38.90670816666667, "name": "637ca7133563437be5c6f2d25c3e756a", "fusion_lon": 0.0, "bike_id": "637ca7133563437be5c6f2d25c3e756a", "is_disabled": 0, "is_reserved": 0}, {"rental_uris": {"ios": "https://dc.lft.to/lastmile_qr_scan", "android": "https://dc.lft.to/lastmile_qr_scan"}, "lon": -77.0321005, "type": "electric_scooter", "fusion_lat": 0.0, "lat": 38.90034333333333, "name": "b2513b48eeed46265990d66bdc866b01", "fusion_lon": 0.0, "bike_id": "b2513b48eeed46265990d66bdc866b01", "is_disabled": 0, "is_reserved": 0}, {"rental_uris": {"ios": "https://dc.lft.to/lastmile_qr_scan", "android": "https://dc.lft.to/lastmile_qr_scan"}, "lon": -77.02841533333333, "type": "electric_scooter", "fusion_lat": 0.0, "lat": 38.934521, "name": "f94748d3c1ca5c9f631ced7927612fcd", "fusion_lon": 0.0, "bike_id": "f94748d3c1ca5c9f631ced7927612fcd", "is_disabled": 0, "is_reserved": 0}, {"rental_uris": {"ios": "https://dc.lft.to/lastmile_qr_scan", "android": "https://dc.lft.to/lastmile_qr_scan"}, "lon": -77.026501, "type": "electric_scooter", "fusion_lat": 0.0, "lat": 38.881159, "name": "b1e964d381cdbddd675c60121eea6990", "fusion_lon": 0.0, "bike_id": "b1e964d381cdbddd675c60121eea6990", "is_disabled": 0, "is_reserved": 0}, {"rental_uris": {"ios": "https://dc.lft.to/lastmile_qr_scan", "android": "https://dc.lft.to/lastmile_qr_scan"}, "lon": -77.00691066666667, "type": "electric_scooter", "fusion_lat": 0.0, "lat": 38.87649533333333, "name": "bbb4fc6b95c4ec3df8654bad14d21e7e", "fusion_lon": 0.0, "bike_id": "bbb4fc6b95c4ec3df8654bad14d21e7e", "is_disabled": 0, "is_reserved": 0}, {"rental_uris": {"ios": "https://dc.lft.to/lastmile_qr_scan", "android": "https://dc.lft.to/lastmile_qr_scan"}, "lon": -77.07304533333334, "type": "electric_scooter", "fusion_lat": 0.0, "lat": 38.936128333333336, "name": "914949a0d9d52c14ce71f268685d70fa", "fusion_lon": 0.0, "bike_id": "914949a0d9d52c14ce71f268685d70fa", "is_disabled": 0, "is_reserved": 0}, {"rental_uris": {"ios": "https://dc.lft.to/lastmile_qr_scan", "android": "https://dc.lft.to/lastmile_qr_scan"}, "lon": -77.0330135, "type": "electric_scooter", "fusion_lat": 0.0, "lat": 38.90908183333333, "name": "22c0aec92af9459b85b48eba75695081", "fusion_lon": 0.0, "bike_id": "22c0aec92af9459b85b48eba75695081", "is_disabled": 0, "is_reserved": 0}, {"rental_uris": {"ios": "https://dc.lft.to/lastmile_qr_scan", "android": "https://dc.lft.to/lastmile_qr_scan"}, "lon": -76.99065533333334, "type": "electric_scooter", "fusion_lat": 0.0, "lat": 38.8635725, "name": "2ffabea5bce3d4b0e99f297a66498e36", "fusion_lon": 0.0, "bike_id": "2ffabea5bce3d4b0e99f297a66498e36", "is_disabled": 0, "is_reserved": 0}, {"rental_uris": {"ios": "https://dc.lft.to/lastmile_qr_scan", "android": "https://dc.lft.to/lastmile_qr_scan"}, "lon": -77.036293, "type": "electric_scooter", "fusion_lat": 0.0, "lat": 38.9129185, "name": "eba26b110cdad7aefd09c5dbc443199b", "fusion_lon": 0.0, "bike_id": "eba26b110cdad7aefd09c5dbc443199b", "is_disabled": 0, "is_reserved": 0}, {"rental_uris": {"ios": "https://dc.lft.to/lastmile_qr_scan", "android": "https://dc.lft.to/lastmile_qr_scan"},