{"data": {"bikes": [{"rental_uris": {"ios": "https://dc.lft.to/lastmile_qr_scan", "android": "https://dc.lft.to/lastmile_qr_scan"}, "fusion_lat": 0.0, "name": "c893cf8bdbdb0f5f45ac21f4ca0f7277", "bike_id": "c893cf8bdbdb0f5f45ac21f4ca0f7277", "is_disabled": 0, "type": "electric_scooter", "lat": 38.86355183333333, "lon": -76.99041416666667, "is_reserved": 0, "fusion_lon": 0.0}, {"rental_uris": {"ios": "https://dc.lft.to/lastmile_qr_scan", "android": "https://dc.lft.to/lastmile_qr_scan"}, "fusion_lat": 0.0, "name": "1bcd40ef8db2cd662928ed7ede62fa23", "bike_id": "1bcd40ef8db2cd662928ed7ede62fa23", "is_disabled": 0, "type": "electric_scooter", "lat": 38.91271066666667, "lon": -77.0221695, "is_reserved": 0, "fusion_lon": 0.0}, {"rental_uris": {"ios": "https://dc.lft.to/lastmile_qr_scan", "android": "https://dc.lft.to/lastmile_qr_scan"}, "fusion_lat": 0.0, "name": "97bac28af8b21a2624c08a105c08b1df", "bike_id": "97bac28af8b21a2624c08a105c08b1df", "is_disabled": 0, "type": "electric_scooter", "lat": 38.90233333333333, "lon": -77.04347983333334, "is_reserved": 0, "fusion_lon": 0.0}, {"rental_uris": {"ios": "https://dc.lft.to/lastmile_qr_scan", "android": "https://dc.lft.to/lastmile_qr_scan"}, "fusion_lat": 0.0, "name": "349396ba08e9ed808b1352087c1d4890", "bike_id": "349396ba08e9ed808b1352087c1d4890", "is_disabled": 0, "type": "electric_scooter", "lat": 38.91162583333333, "lon": -77.00884883333333, "is_reserved": 0, "fusion_lon": 0.0}, {"rental_uris": {"ios": "https://dc.lft.to/lastmile_qr_scan", "android": "https://dc.lft.to/lastmile_qr_scan"}, "fusion_lat": 0.0, "name": "b9605dbe672c2c13d5cf06d5f1cbd51d", "bike_id": "b9605dbe672c2c13d5cf06d5f1cbd51d", "is_disabled": 0, "type": "electric_scooter", "lat": 38.901134166666665, "lon": -77.04483033333334, "is_reserved": 0, "fusion_lon": 0.0}, {"rental_uris": {"ios": "https://dc.lft.to/lastmile_qr_scan", "android": "https://dc.lft.to/lastmile_qr_scan"}, "fusion_lat": 0.0, "name": "4ce78f8526d770ea4bbf7af2ade46c8f", "bike_id": "4ce78f8526d770ea4bbf7af2ade46c8f", "is_disabled": 0, "type": "electric_scooter", "lat": 38.91846916666667, "lon": -77.0091285, "is_reserved": 0, "fusion_lon": 0.0}, {"rental_uris": {"ios": "https://dc.lft.to/lastmile_qr_scan", "android": "https://dc.lft.to/lastmile_qr_scan"}, "fusion_lat": 0.0, "name": "fd8183284614c5a6703cfa354a13334b", "bike_id": "fd8183284614c5a6703cfa354a13334b", "is_disabled": 0, "type": "electric_scooter", "lat": 38.8798345, "lon": -77.01551833333333, "is_reserved": 0, "fusion_lon": 0.0}, {"rental_uris": {"ios": "https://dc.lft.to/lastmile_qr_scan", "android": "https://dc.lft.to/lastmile_qr_scan"}, "fusion_lat": 0.0, "name": "40e4ff6100e66ad716b14d286a5cd8f9", "bike_id": "40e4ff6100e66ad716b14d286a5cd8f9", "is_disabled": 0, "type": "electric_bike", "lat": 38.802251166666665, "lon": -77.07919583333333, "is_reserved": 0, "fusion_lon": 0.0}, {"rental_uris": {"ios": "https://dc.lft.to/lastmile_qr_scan", "android": "https://dc.lft.to/lastmile_qr_scan"}, "fusion_lat": 0.0, "name": "2df4002a2bb099e12ba35d3cdd6501b6", "bike_id": "2df4002a2bb099e12ba35d3cdd6501b6", "is_disabled": 0, "type": "electric_bike", "lat": 38.84280416666667, "lon": -76.98840516666667, "is_reserved": 0, "fusion_lon": 0.0}, {"rental_uris": {"ios": "https://dc.lft.to/lastmile_qr_scan", "android": "https://dc.lft.to/lastmile_qr_scan"}, "fusion_lat": 0.0, "name": "0a462646cef3a924c1eb2c6309321066", "bike_id": "0a462646cef3a924c1eb2c6309321066", "is_disabled": 0, "type": "electric_scooter", "lat": 38.9305325, "lon": -77.02319466666667, "is_reserved": 0, "fusion_lon": 0.0}, {"rental_uris": {"ios": "https://dc.lft.to/lastmile_qr_scan", "android": "https://dc.lft.to/lastmile_qr_scan"}, "fusion_lat": 0.0, "name": "00b0d3a422a3aec2480c679258e38c39", "bike_id": "00b0d3a422a3aec2480c679258e38c39", "is_disabled": 0, "type": "electric_scooter", "lat": 38.918773, "lon": -76.9654915, "is_reserved": 0, "fusion_lon": 0.0}, {"rental_uris": {"ios": "https://dc.lft.to/lastmile_qr_scan", "android": "https://dc.lft.to/lastmile_qr_scan"}, "fusion_lat": 0.0, "name": "b4a0e08ad9beba75e7edc2dcd22c5776", "bike_id": "b4a0e08ad9beba75e7edc2dcd22c5776", "is_disabled": 0, "type": "electric_scooter", "lat": 38.92448133333333, "lon": -77.04107733333333, "is_reserved": 0, "fusion_lon": 0.0}, {"rental_uris": {"ios": "https://dc.lft.to/lastmile_qr_scan", "android": "https://dc.lft.to/lastmile_qr_scan"}, "fusion_lat": 0.0, "name": "53ff67ebc7b966c44ed3a7f78b08ea0e", "bike_id": "53ff67ebc7b966c44ed3a7f78b08ea0e", "is_disabled": 0, "type": "electric_bike", "lat": 38.95327416666667, "lon": -76.98244183333334, "is_reserved": 0, "fusion_lon": 0.0}, {"rental_uris": {"ios": "https://dc.lft.to/lastmile_qr_scan", "android": "https://dc.lft.to/lastmile_qr_scan"}, "fusion_lat": 0.0, "name": "ba4eee2e591555a4c5851606d9c9142a", "bike_id": "ba4eee2e591555a4c5851606d9c9142a", "is_disabled": 0, "type": "electric_scooter", "lat": 38.86696116666667, "lon": -76.98400266666667, "is_reserved": 0, "fusion_lon": 0.0}, {"rental_uris": {"ios": "https://dc.lft.to/lastmile_qr_scan", "android": "https://dc.lft.to/lastmile_qr_scan"}, "fusion_lat": 0.0, "name": "df76e1a7042f0b6251c8ffedcaffdf0e", "bike_id": "df76e1a7042f0b6251c8ffedcaffdf0e", "is_disabled": 0, "type": "electric_scooter", "lat": 38.921636, "lon": -76.99402466666666, "is_reserved": 0, "fusion_lon": 0.0}, {"rental_uris": {"ios": "https://dc.lft.to/lastmile_qr_scan", "android": "https://dc.lft.to/lastmile_qr_scan"}, "fusion_lat": 0.0, "name": "9f78084b3a69aa758eb598e46445deef", "bike_id": "9f78084b3a69aa758eb598e46445deef", "is_disabled": 0, "type": "electric_scooter", "lat": 38.900822833333336, "lon": -77.02710283333333, "is_reserved": 0, "fusion_lon": 0.0}, {"rental_uris": {"ios": "https://dc.lft.to/lastmile_qr_scan", "android": "https://dc.lft.to/lastmile_qr_scan"}, "fusion_lat": 0.0, "name": "3706f2546721b9ec6fa360b378ac5f48", "bike_id": "3706f2546721b9ec6fa360b378ac5f48", "is_disabled": 0, "type": "electric_bike", "lat": 38.867255666666665, "lon": -76.98955283333333, "is_reserved": 0, "fusion_lon": 0.0}, {"rental_uris": {"ios": "https://dc.lft.to/lastmile_qr_scan", "android": "https://dc.lft.to/lastmile_qr_scan"}, "fusion_lat": 0.0, "name": "59025eb2e5e86548e87292abea48aa2f", "bike_id": "59025eb2e5e86548e87292abea48aa2f", "is_disabled": 0, "type": "electric_scooter", "lat": 38.90798066666667, "lon": -77.03826833333333, "is_reserved": 0, "fusion_lon": 0.0}, {"rental_uris": {"ios": "https://dc.lft.to/lastmile_qr_scan", "android": "https://dc.lft.to/lastmile_qr_scan"}, "fusion_lat": 0.0, "name": "47d8d7c6c99c93aa3ee7a695068c6752", "bike_id": "47d8d7c6c99c93aa3ee7a695068c6752", "is_disabled": 0, "type": "electric_scooter", "lat": 38.9204605, "lon": -77.03403766666666, "is_reserved": 0, "fusion_lon": 0.0}, {"rental_uris": {"ios": "https://dc.lft.to/lastmile_qr_scan", "android": "https://dc.lft.to/lastmile_qr_scan"}, "fusion_lat": 0.0, "name": "3e460d06350efa1251abb913ca1e27a6", "bike_id": "3e460d06350efa1251abb913ca1e27a6", "is_disabled": 0, "type": "electric_scooter", "lat": 38.888127, "lon": -76.93349333333333, "is_reserved": 0, "fusion_lon": 0.0}, {"rental_uris": {"ios": "https://dc.lft.to/lastmile_qr_scan", "android": "https://dc.lft.to/lastmile_qr_scan"}, "fusion_lat": 0.0, "name": "88c11baf2eec9334b48642bd238aca2c", "bike_id": "88c11baf2eec9334b48642bd238aca2c", "is_disabled": 0, "type": "electric_scooter", "lat": 38.931755833333334, "lon": -77.070654, "is_reserved": 0, "fusion_lon": 0.0}, {"rental_uris": {"ios": "https://dc.lft.to/lastmile_qr_scan", "android": "https://dc.lft.to/lastmile_qr_scan"}, "fusion_lat": 0.0, "name": "486c94ea891f7aa407f546a2f0ce79fb", "bike_id": "486c94ea891f7aa407f546a2f0ce79fb", "is_disabled": 0, "type": "electric_bike", "lat": 38.878587, "lon": -77.0075975, "is_reserved": 0, "fusion_lon": 0.0}, {"rental_uris": {"ios": "https://dc.lft.to/lastmile_qr_scan", "android": "https://dc.lft.to/lastmile_qr_scan"}, "fusion_lat": 0.0, "name": "e738f6e5270b60fcc7c61543eb07c2e0", "bike_id": "e738f6e5270b60fcc7c61543eb07c2e0", "is_disabled": 0, "type": "electric_scooter", "lat": 38.907875, "lon": -77.04822566666667, "is_reserved": 0, "fusion_lon": 0.0}, {"rental_uris": {"ios": "https://dc.lft.to/lastmile_qr_scan", "android": "https://dc.lft.to/lastmile_qr_scan"}, "fusion_lat": 0.0, "name": "010572fec3f27aa85d111670ac3cfc4b", "bike_id": "010572fec3f27aa85d111670ac3cfc4b", "is_disabled": 0, "type": "electric_scooter", "lat": 38.922850333333336, "lon": -77.029761, "is_reserved": 0, "fusion_lon": 0.0}, {"rental_uris": {"ios": "https://dc.lft.to/lastmile_qr_scan", "android": "https://dc.lft.to/lastmile_qr_scan"}, "fusion_lat": 0.0, "name": "b585869153f1558f178f7620da859622", "bike_id": "b585869153f1558f178f7620da859622", "is_disabled": 0, "type": "electric_scooter", "lat": 38.916231, "lon": -77.02707933333333, "is_reserved": 0, "fusion_lon": 0.0}, {"rental_uris": {"ios": "https://dc.lft.to/lastmile_qr_scan", "android": "https://dc.lft.to/lastmile_qr_scan"}, "fusion_lat": 0.0, "name": "3d3a1d97d99670b06f697c5471f016b2", "bike_id": "3d3a1d97d99670b06f697c5471f016b2", "is_disabled": 0, "type": "electric_scooter", "lat": 38.89221783333333, "lon": -77.03157316666666, "is_reserved": 0, "fusion_lon": 0.0}, {"rental_uris": {"ios": "https://dc.lft.to/lastmile_qr_scan", "android": "https://dc.lft.to/lastmile_qr_scan"}, "fusion_lat": 0.0, "name": "3183d27cf7468e0282bb0f1c72399c0a", "bike_id": "3183d27cf7468e0282bb0f1c72399c0a", "is_disabled": 0, "type": "electric_scooter", "lat": 38.9276485, "lon": -77.02731916666667, "is_reserved": 0, "fusion_lon": 0.0}, {"rental_uris": {"ios": "https://dc.lft.to/lastmile_qr_scan", "android": "https://dc.lft.to/lastmile_qr_scan"}, "fusion_lat": 0.0, "name": "b132a8875ecb07e549e202feba019d25", "bike_id": "b132a8875ecb07e549e202feba019d25", "is_disabled": 0, "type": "electric_scooter", "lat": 38.92199816666667, "lon": -77.042583, "is_reserved": 0, "fusion_lon": 0.0}, {"rental_uris": {"ios": "https://dc.lft.to/lastmile_qr_scan", "android": "https://dc.lft.to/lastmile_qr_scan"}, "fusion_lat": 0.0, "name": "faa29958d71f680c122b0c98cc78cdbf", "bike_id": "faa29958d71f680c122b0c98cc78cdbf", "is_disabled": 0, "type": "electric_scooter", "lat": 38.8429625, "lon": -76.99946333333334, "is_reserved": 0, "fusion_lon": 0.0}, {"rental_uris": {"ios": "https://dc.lft.to/lastmile_qr_scan", "android": "https://dc.lft.to/lastmile_qr_scan"}, "fusion_lat": 0.0, "name": "6ab490bef69d76bd68d5723ba175a5d2", "bike_id": "6ab490bef69d76bd68d5723ba175a5d2", "is_disabled": 0, "type": "electric_scooter", "lat": 38.902984000000004, "lon": -77.03329716666667, "is_reserved": 0, "fusion_lon": 0.0}, {"rental_uris": {"ios": "https://dc.lft.to/lastmile_qr_scan", "android": "https://dc.lft.to/lastmile_qr_scan"}, "fusion_lat": 0.0, "name": "d98de7fdbebd0f46a380e07a4afba8b1", "bike_id": "d98de7fdbebd0f46a380e07a4afba8b1", "is_disabled": 0, "type": "electric_scooter", "lat": 38.91565966666667, "lon": -77.02009116666666, "is_reserved": 0, "fusion_lon": 0.0}, {"rental_uris": {"ios": "https://dc.lft.to/lastmile_qr_scan", "android": "https://dc.lft.to/lastmile_qr_scan"}, "fusion_lat": 0.0, "name": "8841e74143e9f8fb5d50f8dd502f24c7", "bike_id": "8841e74143e9f8fb5d50f8dd502f24c7", "is_disabled": 0, "type": "electric_scooter", "lat": 38.902589666666664, "lon": -77.03334833333334, "is_reserved": 0, "fusion_lon": 0.0}, {"rental_uris": {"ios": "https://dc.lft.to/lastmile_qr_scan", "android": "https://dc.lft.to/lastmile_qr_scan"}, "fusion_lat": 0.0, "name": "b031c77827e97deb684b61e20ef751d1", "bike_id": "b031c77827e97deb684b61e20ef751d1", "is_disabled": 0, "type": "electric_scooter", "lat": 38.94437083333333, "lon": -77.06357816666667, "is_reserved": 0, "fusion_lon": 0.0}, {"rental_uris": {"ios": "https://dc.lft.to/lastmile_qr_scan", "android": "https://dc.lft.to/lastmile_qr_scan"}, "fusion_lat": 0.0, "name": "f63f043a932044a5db48677cd3070302", "bike_id": "f63f043a932044a5db48677cd3070302", "is_disabled": 0, "type": "electric_scooter", "lat": 38.9179525, "lon": -77.03655116666667, "is_reserved": 0, "fusion_lon": 0.0}, {"rental_uris": {"ios": "https://dc.lft.to/lastmile_qr_scan", "android": "https://dc.lft.to/lastmile_qr_scan"}, "fusion_lat": 0.0, "name": "1fe9fc5e93f69372178219e53604589f", "bike_id": "1fe9fc5e93f69372178219e53604589f", "is_disabled": 0, "type": "electric_scooter", "lat": 38.91103316666667, "lon": -77.0448055, "is_reserved": 0, "fusion_lon": 0.0}, {"rental_uris": {"ios": "https://dc.lft.to/lastmile_qr_scan", "android": "https://dc.lft.to/lastmile_qr_scan"}, "fusion_lat": 0.0, "name": "94c4b944ec00ab882133d61519e79220", "bike_id": "94c4b944ec00ab882133d61519e79220", "is_disabled": 0, "type": "electric_scooter", "lat": 38.905571333333334, "lon": -77.0347345, "is_reserved": 0, "fusion_lon": 0.0}, {"rental_uris": {"ios": "https://dc.lft.to/lastmile_qr_scan", "android": "https://dc.lft.to/lastmile_qr_scan"}, "fusion_lat": 0.0, "name": "fa96f4370eb8837d2b3f3542ccf14bc9", "bike_id": "fa96f4370eb8837d2b3f3542ccf14bc9", "is_disabled": 0, "type": "electric_scooter", "lat": 38.90368766666667, "lon": -77.04507883333333, "is_reserved": 0, "fusion_lon": 0.0}, {"rental_uris": {"ios": "https://dc.lft.to/lastmile_qr_scan", "android": "https://dc.lft.to/lastmile_qr_scan"}, "fusion_lat": 0.0, "name": "5b7a43824c6eed036b4661f43f7ad8dc", "bike_id": "5b7a43824c6eed036b4661f43f7ad8dc", "is_disabled": 0, "type": "electric_scooter", "lat": 38.9221225, "lon": -77.00386933333333, "is_reserved": 0, "fusion_lon": 0.0}, {"rental_uris": {"ios": "https://dc.lft.to/lastmile_qr_scan", "android": "https://dc.lft.to/lastmile_qr_scan"}, "fusion_lat": 0.0, "name": "747f45e3fd7795b148011f97eb8543b9", "bike_id": "747f45e3fd7795b148011f97eb8543b9", "is_disabled": 0, "type": "electric_bike", "lat": 38.91473166666667, "lon": -76.98109033333333, "is_reserved": 0, "fusion_lon": 0.0}, {"rental_uris": {"ios": "https://dc.lft.to/lastmile_qr_scan", "android": "https://dc.lft.to/lastmile_qr_scan"}, "fusion_lat": 0.0, "name": "051a2f5be88d9169d0bdba76fe178d59", "bike_id": "051a2f5be88d9169d0bdba76fe178d59", "is_disabled": 0, "type": "electric_scooter", "lat": 38.9100545, "lon": -77.04423283333334, "is_reserved": 0, "fusion_lon": 0.0}, {"rental_uris": {"ios": "https://dc.lft.to/lastmile_qr_scan", "android": "https://dc.lft.to/lastmile_qr_scan"}, "fusion_lat": 0.0, "name": "2c1ccb23084ef23255dd49b8b761e07c", "bike_id": "2c1ccb23084ef23255dd49b8b761e07c", "is_disabled": 0, "type": "electric_scooter", "lat": 38.915902333333335, "lon": -77.0296865, "is_reserved": 0, "fusion_lon": 0.0}, {"rental_uris": {"ios": "https://dc.lft.to/lastmile_qr_scan", "android": "https://dc.lft.to/lastmile_qr_scan"}, "fusion_lat": 0.0, "name": "e29f931bb2d3b81609bd8e5e7c82409f", "bike_id": "e29f931bb2d3b81609bd8e5e7c82409f", "is_disabled": 0, "type": "electric_scooter", "lat": 38.916788333333336, "lon": -77.0297145, "is_reserved": 0, "fusion_lon": 0.0}, {"rental_uris": {"ios": "https://dc.lft.to/lastmile_qr_scan", "android": "https://dc.lft.to/lastmile_qr_scan"}, "fusion_lat": 0.0, "name": "519c08dafff317dade274c2b7cd46adf", "bike_id": "519c08dafff317dade274c2b7cd46adf", "is_disabled": 0, "type": "electric_scooter", "lat": 38.9154935, "lon": -77.0366775, "is_reserved": 0, "fusion_lon": 0.0}, {"rental_uris": {"ios": "https://dc.lft.to/lastmile_qr_scan", "android": "https://dc.lft.to/lastmile_qr_scan"}, "fusion_lat": 0.0, "name": "68a7c8ef7df85c4a9ea2ba9040599e48", "bike_id": "68a7c8ef7df85c4a9ea2ba9040599e48", "is_disabled": 0, "type": "electric_scooter", "lat": 38.906194, "lon": -77.02185483333334, "is_reserved": 0, "fusion_lon": 0.0}, {"rental_uris": {"ios": "https://dc.lft.to/lastmile_qr_scan", "android": "https://dc.lft.to/lastmile_qr_scan"}, "fusion_lat": 0.0, "name": "d5f3a72f9f47850990fdde5a9ab094d4", "bike_id": "d5f3a72f9f47850990fdde5a9ab094d4", "is_disabled": 0, "type": "electric_scooter", "lat": 38.89224566666667, "lon": -77.031616, "is_reserved": 0, "fusion_lon": 0.0}, {"rental_uris": {"ios": "https://dc.lft.to/lastmile_qr_scan", "android": "https://dc.lft.to/lastmile_qr_scan"}, "fusion_lat": 0.0, "name": "b8c6ab27f10031831888ded612a906f1", "bike_id": "b8c6ab27f10031831888ded612a906f1", "is_disabled": 0, "type": "electric_scooter", "lat": 38.866956333333334, "lon": -76.9870835, "is_reserved": 0, "fusion_lon": 0.0}, {"rental_uris": {"ios": "https://dc.lft.to/lastmile_qr_scan", "android": "https://dc.lft.to/lastmile_qr_scan"}, "fusion_lat": 0.0, "name": "49ba412b5bba2f3c3dfed04d715e6a5c", "bike_id": "49ba412b5bba2f3c3dfed04d715e6a5c", "is_disabled": 0, "type": "electric_scooter", "lat": 38.902426166666665, "lon": -77.002043, "is_reserved": 0, "fusion_lon": 0.0}, {"rental_uris": {"ios": "https://dc.lft.to/lastmile_qr_scan", "android": "https://dc.lft.to/lastmile_qr_scan"}, "fusion_lat": 0.0, "name": "ed168c8c4bd3d37ac34c8cccf0575164", "bike_id": "ed168c8c4bd3d37ac34c8cccf0575164", "is_disabled": 0, "type": "electric_scooter", "lat": 38.899022333333335, "lon": -77.04044, "is_reserved": 0, "fusion_lon": 0.0}, {"rental_uris": {"ios": "https://dc.lft.to/lastmile_qr_scan", "android": "https://dc.lft.to/lastmile_qr_scan"}, "fusion_lat": 0.0, "name": "bfead4cdff242c1a8376cfbc081c7165", "bike_id": "bfead4cdff242c1a8376cfbc081c7165", "is_disabled": 0, "type": "electric_scooter", "lat": 38.91635633333333, "lon": -77.04168433333334, "is_reserved": 0, "fusion_lon": 0.0}, {"rental_uris": {"ios": "https://dc.lft.to/lastmile_qr_scan", "android": "https://dc.lft.to/lastmile_qr_scan"}, "fusion_lat": 0.0, "name": "1348f484c2eea56f84fc7a5331d21150", "bike_id": "1348f484c2eea56f84fc7a5331d21150", "is_disabled": 0, "type": "electric_scooter", "lat": 38.94764816666667, "lon": -77.07940116666667, "is_reserved": 0, "fusion_lon": 0.0}, {"rental_uris": {"ios": "https://dc.lft.to/lastmile_qr_scan", "android": "https://dc.lft.to/lastmile_qr_scan"}, "fusion_lat": 0.0, "name": "0f857fff3b2a9b4ca49f0cc4bddc2949", "bike_id": "0f857fff3b2a9b4ca49f0cc4bddc2949", "is_disabled": 0, "type": "electric_scooter", "lat": 38.9066415, "lon": -77.02701533333334, "is_reserved": 0, "fusion_lon": 0.0}, {"rental_uris": {"ios": "https://dc.lft.to/lastmile_qr_scan", "android": "https://dc.lft.to/lastmile_qr_scan"}, "fusion_lat": 0.0, "name": "3289395274dddd573971c44964623bd0", "bike_id": "3289395274dddd573971c44964623bd0", "is_disabled": 0, "type": "electric_scooter", "lat": 38.915630666666665, "lon": -77.02279333333334, "is_reserved": 0, "fusion_lon": 0.0}, {"rental_uris": {"ios": "https://dc.lft.to/lastmile_qr_scan", "android": "https://dc.lft.to/lastmile_qr_scan"}, "fusion_lat": 0.0, "name": "98bcf95a1fbf75f2cd6bc059fa823bdb", "bike_id": "98bcf95a1fbf75f2cd6bc059fa823bdb", "is_disabled": 0, "type": "electric_scooter", "lat": 38.934384666666666, "lon": -77.02983666666667, "is_reserved": 0, "fusion_lon": 0.0}, {"rental_uris": {"ios": "https://dc.lft.to/lastmile_qr_scan", "android": "https://dc.lft.to/lastmile_qr_scan"}, "fusion_lat": 0.0, "name": "6845be7457a26156fef2f27b5c78b7a0", "bike_id": "6845be7457a26156fef2f27b5c78b7a0", "is_disabled": 0, "type": "electric_scooter", "lat": 38.91715266666667, "lon": -77.03655083333334, "is_reserved": 0, "fusion_lon": 0.0}, {"rental_uris": {"ios": "https://dc.lft.to/lastmile_qr_scan", "android": "https://dc.lft.to/lastmile_qr_scan"}, "fusion_lat": 0.0, "name": "fdbcab6672bae7f35acc5f31530330ae", "bike_id": "fdbcab6672bae7f35acc5f31530330ae", "is_disabled": 0, "type": "electric_scooter", "lat": 38.913387166666666, "lon": -77.03182766666667, "is_reserved": 0, "fusion_lon": 0.0}, {"rental_uris": {"ios": "https://dc.lft.to/lastmile_qr_scan", "android": "https://dc.lft.to/lastmile_qr_scan"}, "fusion_lat": 0.0, "name": "805c78d4a72f5c993bb9e9ca59060a80", "bike_id": "805c78d4a72f5c993bb9e9ca59060a80", "is_disabled": 0, "type": "electric_scooter", "lat": 38.8922, "lon": -77.02220283333334, "is_reserved": 0, "fusion_lon": 0.0}, {"rental_uris": {"ios": "https://dc.lft.to/lastmile_qr_scan", "android": "https://dc.lft.to/lastmile_qr_scan"}, "fusion_lat": 0.0, "name": "aae703d19de94b5389ca6616eb2b933c", "bike_id": "aae703d19de94b5389ca6616eb2b933c", "is_disabled": 0, "type": "electric_scooter", "lat": 38.934862, "lon": -77.07276716666667, "is_reserved": 0, "fusion_lon": 0.0}, {"rental_uris": {"ios": "https://dc.lft.to/lastmile_qr_scan", "android": "https://dc.lft.to/lastmile_qr_scan"}, "fusion_lat": 0.0, "name": "1a065d7dfc6ffacfcbe6a5fffddf5901", "bike_id": "1a065d7dfc6ffacfcbe6a5fffddf5901", "is_disabled": 0, "type": "electric_bike", "lat": 38.84598866666666, "lon": -76.96922483333333, "is_reserved": 0, "fusion_lon": 0.0}, {"rental_uris": {"ios": "https://dc.lft.to/lastmile_qr_scan", "android": "https://dc.lft.to/lastmile_qr_scan"}, "fusion_lat": 0.0, "name": "bf4ec9094bb2614d74ed88731a433ad5", "bike_id": "bf4ec9094bb2614d74ed88731a433ad5", "is_disabled": 0, "type": "electric_scooter", "lat": 38.8989815, "lon": -77.03953383333334, "is_reserved": 0, "fusion_lon": 0.0}, {"rental_uris": {"ios": "https://dc.lft.to/lastmile_qr_scan", "android": "https://dc.lft.to/lastmile_qr_scan"}, "fusion_lat": 0.0, "name": "312de562f1b6a948c966957c79e1bee5", "bike_id": "312de562f1b6a948c966957c79e1bee5", "is_disabled": 0, "type": "electric_scooter", "lat": 38.904474666666665, "lon": -77.04848916666667, "is_reserved": 0, "fusion_lon": 0.0}, {"rental_uris": {"ios": "https://dc.lft.to/lastmile_qr_scan", "android": "https://dc.lft.to/lastmile_qr_scan"}, "fusion_lat": 0.0, "name": "9cf17cf3479b0406572de51655ae8376", "bike_id": "9cf17cf3479b0406572de51655ae8376", "is_disabled": 0, "type": "electric_scooter", "lat": 38.91706466666667, "lon": -77.0412445, "is_reserved": 0, "fusion_lon": 0.0}, {"rental_uris": {"ios": "https://dc.lft.to/lastmile_qr_scan", "android": "https://dc.lft.to/lastmile_qr_scan"}, "fusion_lat": 0.0, "name": "b694377e1728be90cfcbe46442e04cbd", "bike_id": "b694377e1728be90cfcbe46442e04cbd", "is_disabled": 0, "type": "electric_scooter", "lat": 38.893444333333335, "lon": -76.94933666666667, "is_reserved": 0, "fusion_lon": 0.0}, {"rental_uris": {"ios": "https://dc.lft.to/lastmile_qr_scan", "android": "https://dc.lft.to/lastmile_qr_scan"}, "fusion_lat": 0.0, "name": "c0c7c8916e74abd8ce310f93bdc9b9cd", "bike_id": "c0c7c8916e74abd8ce310f93bdc9b9cd", "is_disabled": 0, "type": "electric_scooter", "lat": 38.9038605, "lon": -77.04026683333333, "is_reserved": 0, "fusion_lon": 0.0}, {"rental_uris": {"ios": "https://dc.lft.to/lastmile_qr_scan", "android": "https://dc.lft.to/lastmile_qr_scan"}, "fusion_lat": 0.0, "name": "cb822d7ea4e96b4ed0fdb7868cb57536", "bike_id": "cb822d7ea4e96b4ed0fdb7868cb57536", "is_disabled": 0, "type": "electric_scooter", "lat": 38.92619833333333, "lon": -77.039482, "is_reserved": 0, "fusion_lon": 0.0}, {"rental_uris": {"ios": "https://dc.lft.to/lastmile_qr_scan", "android": "https://dc.lft.to/lastmile_qr_scan"}, "fusion_lat": 0.0, "name": "6e3a2ec1ad51b27c60b1cb6c2bfeb067", "bike_id": "6e3a2ec1ad51b27c60b1cb6c2bfeb067", "is_disabled": 0, "type": "electric_scooter", "lat": 38.950679, "lon": -77.0310235, "is_reserved": 0, "fusion_lon": 0.0}, {"rental_uris": {"ios": "https://dc.lft.to/lastmile_qr_scan", "android": "https://dc.lft.to/lastmile_qr_scan"}, "fusion_lat": 0.0, "name": "14e9b82533aa3560b842d70a26e8d110", "bike_id": "14e9b82533aa3560b842d70a26e8d110", "is_disabled": 0, "type": "electric_bike", "lat": 38.92412783333333, "lon": -77.0505085, "is_reserved": 0, "fusion_lon": 0.0}, {"rental_uris": {"ios": "https://dc.lft.to/lastmile_qr_scan", "android": "https://dc.lft.to/lastmile_qr_scan"}, "fusion_lat": 0.0, "name": "b1779c39cc59509b7b3c6c3969bb6962", "bike_id": "b1779c39cc59509b7b3c6c3969bb6962", "is_disabled": 0, "type": "electric_scooter", "lat": 38.9297325, "lon": -77.05511883333334, "is_reserved": 0, "fusion_lon": 0.0}, {"rental_uris": {"ios": "https://dc.lft.to/lastmile_qr_scan", "android": "https://dc.lft.to/lastmile_qr_scan"}, "fusion_lat": 0.0, "name": "c5094d1ee01678d3b588f8838dd8113a", "bike_id": "c5094d1ee01678d3b588f8838dd8113a", "is_disabled": 0, "type": "electric_scooter", "lat": 38.92590333333333, "lon": -77.0214625, "is_reserved": 0, "fusion_lon": 0.0}, {"rental_uris": {"ios": "https://dc.lft.to/lastmile_qr_scan", "android": "https://dc.lft.to/lastmile_qr_scan"}, "fusion_lat": 0.0, "name": "add8f21d6b481e85839c3edae303b853", "bike_id": "add8f21d6b481e85839c3edae303b853", "is_disabled": 0, "type": "electric_scooter", "lat": 38.905807833333334, "lon": -77.03442283333334, "is_reserved": 0, "fusion_lon": 0.0}, {"rental_uris": {"ios": "https://dc.lft.to/lastmile_qr_scan", "android": "https://dc.lft.to/lastmile_qr_scan"}, "fusion_lat": 0.0, "name": "1d6e34971658004ca11f780557ef4eb5", "bike_id": "1d6e34971658004ca11f780557ef4eb5", "is_disabled": 0, "type": "electric_scooter", "lat": 38.932987, "lon": -77.02466833333334, "is_reserved": 0, "fusion_lon": 0.0}, {"rental_uris": {"ios": "https://dc.lft.to/lastmile_qr_scan", "android": "https://dc.lft.to/lastmile_qr_scan"}, "fusion_lat": 0.0, "name": "358e3de1cd87dadc3c40db98b1de134a", "bike_id": "358e3de1cd87dadc3c40db98b1de134a", "is_disabled": 0, "type": "electric_scooter", "lat": 38.92545833333333, "lon": -77.052689, "is_reserved": 0, "fusion_lon": 0.0}, {"rental_uris": {"ios": "https://dc.lft.to/lastmile_qr_scan", "android": "https://dc.lft.to/lastmile_qr_scan"}, "fusion_lat": 0.0, "name": "ddd7006f2643c8b6eaf412234f08048f", "bike_id": "ddd7006f2643c8b6eaf412234f08048f", "is_disabled": 0, "type": "electric_scooter", "lat": 38.89297633333334, "lon": -77.04182983333334, "is_reserved": 0, "fusion_lon": 0.0}, {"rental_uris": {"ios": "https://dc.lft.to/lastmile_qr_scan", "android": "https://dc.lft.to/lastmile_qr_scan"}, "fusion_lat": 0.0, "name": "588bbee286da8d8ad9ce25a03dd05345", "bike_id": "588bbee286da8d8ad9ce25a03dd05345", "is_disabled": 0, "type": "electric_scooter", "lat": 38.8664985, "lon": -76.98891366666666, "is_reserved": 0, "fusion_lon": 0.0}, {"rental_uris": {"ios": "https://dc.lft.to/lastmile_qr_scan", "android": "https://dc.lft.to/lastmile_qr_scan"}, "fusion_lat": 0.0, "name": "c3467646a0c5d478bac874daf817e199", "bike_id": "c3467646a0c5d478bac874daf817e199", "is_disabled": 0, "type": "electric_scooter", "lat": 38.91418916666667, "lon": -77.031768, "is_reserved": 0, "fusion_lon": 0.0}, {"rental_uris": {"ios": "https://dc.lft.to/lastmile_qr_scan", "android": "https://dc.lft.to/lastmile_qr_scan"}, "fusion_lat": 0.0, "name": "a1a1ec572e024223f1ee5349cd1b99fa", "bike_id": "a1a1ec572e024223f1ee5349cd1b99fa", "is_disabled": 0, "type": "electric_scooter", "lat": 38.9038575, "lon": -77.0321515, "is_reserved": 0, "fusion_lon": 0.0}, {"rental_uris": {"ios": "https://dc.lft.to/lastmile_qr_scan", "android": "https://dc.lft.to/lastmile_qr_scan"}, "fusion_lat": 0.0, "name": "e03d0a061ad09217b27cd7bba852ae8c", "bike_id": "e03d0a061ad09217b27cd7bba852ae8c", "is_disabled": 0, "type": "electric_bike", "lat": 38.886543333333336, "lon": -77.16236716666667, "is_reserved": 0, "fusion_lon": 0.0}, {"rental_uris": {"ios": "https://dc.lft.to/lastmile_qr_scan", "android": "https://dc.lft.to/lastmile_qr_scan"}, "fusion_lat": 0.0, "name": "d5df3c6cacab3578d2ebc4b1cb5b74ca", "bike_id": "d5df3c6cacab3578d2ebc4b1cb5b74ca", "is_disabled": 0, "type": "electric_scooter", "lat": 38.91122983333333, "lon": -77.0269355, "is_reserved": 0, "fusion_lon": 0.0}, {"rental_uris": {"ios": "https://dc.lft.to/lastmile_qr_scan", "android": "https://dc.lft.to/lastmile_qr_scan"}, "fusion_lat": 0.0, "name": "80406b10bb316c73c14deef4ccc09346", "bike_id": "80406b10bb316c73c14deef4ccc09346", "is_disabled": 0, "type": "electric_scooter", "lat": 38.956385166666664, "lon": -77.03298566666666, "is_reserved": 0, "fusion_lon": 0.0}, {"rental_uris": {"ios": "https://dc.lft.to/lastmile_qr_scan", "android": "https://dc.lft.to/lastmile_qr_scan"}, "fusion_lat": 0.0, "name": "7945fd5e66c1ec79b118416deb07aa20", "bike_id": "7945fd5e66c1ec79b118416deb07aa20", "is_disabled": 0, "type": "electric_scooter", "lat": 38.911105666666664, "lon": -77.04373, "is_reserved": 0, "fusion_lon": 0.0}, {"rental_uris": {"ios": "https://dc.lft.to/lastmile_qr_scan", "android": "https://dc.lft.to/lastmile_qr_scan"}, "fusion_lat": 0.0, "name": "5dfa4f7d50c78d8eb82e30645ce16f26", "bike_id": "5dfa4f7d50c78d8eb82e30645ce16f26", "is_disabled": 0, "type": "electric_scooter", "lat": 38.919725, "lon": -77.023828, "is_reserved": 0, "fusion_lon": 0.0}, {"rental_uris": {"ios": "https://dc.lft.to/lastmile_qr_scan", "android": "https://dc.lft.to/lastmile_qr_scan"}, "fusion_lat": 0.0, "name": "8992e3bdaca5f359657e4b28b5cca4bd", "bike_id": "8992e3bdaca5f359657e4b28b5cca4bd", "is_disabled": 0, "type": "electric_bike", "lat": 38.930125833333335, "lon": -77.216481, "is_reserved": 0, "fusion_lon": 0.0}, {"rental_uris": {"ios": "https://dc.lft.to/lastmile_qr_scan", "android": "https://dc.lft.to/lastmile_qr_scan"}, "fusion_lat": 0.0, "name": "62b821d9fcc35315347a1732e402c197", "bike_id": "62b821d9fcc35315347a1732e402c197", "is_disabled": 0, "type": "electric_scooter", "lat": 38.92601666666667, "lon": -77.02155266666666, "is_reserved": 0, "fusion_lon": 0.0}, {"rental_uris": {"ios": "https://dc.lft.to/lastmile_qr_scan", "android": "https://dc.lft.to/lastmile_qr_scan"}, "fusion_lat": 0.0, "name": "d0e47b5c8ab77327df275293e8ebe85c", "bike_id": "d0e47b5c8ab77327df275293e8ebe85c", "is_disabled": 0, "type": "electric_bike", "lat": 38.884079666666665, "lon": -76.96053366666666, "is_reserved": 0, "fusion_lon": 0.0}, {"rental_uris": {"ios": "https://dc.lft.to/lastmile_qr_scan", "android": "https://dc.lft.to/lastmile_qr_scan"}, "fusion_lat": 0.0, "name": "bb9c6c8d03cbd55c5ab6a35bf570f12c", "bike_id": "bb9c6c8d03cbd55c5ab6a35bf570f12c", "is_disabled": 0, "type": "electric_bike", "lat": 38.958936333333334, "lon": -77.05875733333333, "is_reserved": 0, "fusion_lon": 0.0}, {"rental_uris": {"ios": "https://dc.lft.to/lastmile_qr_scan", "android": "https://dc.lft.to/lastmile_qr_scan"}, "fusion_lat": 0.0, "name": "9320383511aca17ec8d9f06cb5a503af", "bike_id": "9320383511aca17ec8d9f06cb5a503af", "is_disabled": 0, "type": "electric_scooter", "lat": 38.96244, "lon": -77.02979466666666, "is_reserved": 0, "fusion_lon": 0.0}, {"rental_uris": {"ios": "https://dc.lft.to/lastmile_qr_scan", "android": "https://dc.lft.to/lastmile_qr_scan"}, "fusion_lat": 0.0, "name": "01e3313a3571c4ad302c16c1fa0e7b21", "bike_id": "01e3313a3571c4ad302c16c1fa0e7b21", "is_disabled": 0, "type": "electric_scooter", "lat": 38.907145666666665, "lon": -77.047719, "is_reserved": 0, "fusion_lon": 0.0}, {"rental_uris": {"ios": "https://dc.lft.to/lastmile_qr_scan", "android": "https://dc.lft.to/lastmile_qr_scan"}, "fusion_lat": 0.0, "name": "cf3e44d420e171fc548928555263a633", "bike_id": "cf3e44d420e171fc548928555263a633", "is_disabled": 0, "type": "electric_scooter", "lat": 38.92493016666667, "lon": -77.0216075, "is_reserved": 0, "fusion_lon": 0.0}, {"rental_uris": {"ios": "https://dc.lft.to/lastmile_qr_scan", "android": "https://dc.lft.to/lastmile_qr_scan"}, "fusion_lat": 0.0, "name": "12811349cc80f2a29e2218782806d759", "bike_id": "12811349cc80f2a29e2218782806d759", "is_disabled": 0, "type": "electric_scooter", "lat": 38.90736883333334, "lon": -77.04174833333333, "is_reserved": 0, "fusion_lon": 0.0}, {"rental_uris": {"ios": "https://dc.lft.to/lastmile_qr_scan", "android": "https://dc.lft.to/lastmile_qr_scan"}, "fusion_lat": 0.0, "name": "43bd24777a9bcfab7e46946c287fb45d", "bike_id": "43bd24777a9bcfab7e46946c287fb45d", "is_disabled": 0, "type": "electric_scooter", "lat": 38.90313733333333, "lon": -77.03644833333334, "is_reserved": 0, "fusion_lon": 0.0}, {"rental_uris": {"ios": "https://dc.lft.to/lastmile_qr_scan", "android": "https://dc.lft.to/lastmile_qr_scan"}, "fusion_lat": 0.0, "name": "e36e268d1cf870aa7ab529668c3d5f45", "bike_id": "e36e268d1cf870aa7ab529668c3d5f45", "is_disabled": 0, "type": "electric_bike", "lat": 39.0037735, "lon": -77.01288116666667, "is_reserved": 0, "fusion_lon": 0.0}, {"rental_uris": {"ios": "https://dc.lft.to/lastmile_qr_scan", "android": "https://dc.lft.to/lastmile_qr_scan"}, "fusion_lat": 0.0, "name": "224589decbb809248a56ce298bbfafa2", "bike_id": "224589decbb809248a56ce298bbfafa2", "is_disabled": 0, "type": "electric_scooter", "lat": 38.9485165, "lon": -77.01943833333333, "is_reserved": 0, "fusion_lon": 0.0}, {"rental_uris": {"ios": "https://dc.lft.to/lastmile_qr_scan", "android": "https://dc.lft.to/lastmile_qr_scan"}, "fusion_lat": 0.0, "name": "0f6518cfa3105ba58632f7cee87e6190", "bike_id": "0f6518cfa3105ba58632f7cee87e6190", "is_disabled": 0, "type": "electric_scooter", "lat": 38.91581766666667, "lon": -77.0317855, "is_reserved": 0, "fusion_lon": 0.0}, {"rental_uris": {"ios": "https://dc.lft.to/lastmile_qr_scan", "android": "https://dc.lft.to/lastmile_qr_scan"}, "fusion_lat": 0.0, "name": "d08c6fe7bdc1c471fc2b47ede2464e1c", "bike_id": "d08c6fe7bdc1c471fc2b47ede2464e1c", "is_disabled": 0, "type": "electric_bike", "lat": 38.91950383333333, "lon": -76.9727355, "is_reserved": 0, "fusion_lon": 0.0}, {"rental_uris": {"ios": "https://dc.lft.to/lastmile_qr_scan", "android": "https://dc.lft.to/lastmile_qr_scan"}, "fusion_lat": 0.0, "name": "6533884c51dbd9a901b3c2bb393f4f5d", "bike_id": "6533884c51dbd9a901b3c2bb393f4f5d", "is_disabled": 0, "type": "electric_bike", "lat": 39.054959333333336, "lon": -77.04654666666667, "is_reserved": 0, "fusion_lon": 0.0}, {"rental_uris": {"ios": "https://dc.lft.to/lastmile_qr_scan", "android": "https://dc.lft.to/lastmile_qr_scan"}, "fusion_lat": 0.0, "name": "1f197136cdbf56777d7befed1cc77795", "bike_id": "1f197136cdbf56777d7befed1cc77795", "is_disabled": 0, "type": "electric_scooter", "lat": 38.934622166666664, "lon": -77.0728885, "is_reserved": 0, "fusion_lon": 0.0}, {"rental_uris": {"ios": "https://dc.lft.to/lastmile_qr_scan", "android": "https://dc.lft.to/lastmile_qr_scan"}, "fusion_lat": 0.0, "name": "a91b51d32b18e28e98d458f38d6e81f3", "bike_id": "a91b51d32b18e28e98d458f38d6e81f3", "is_disabled": 0, "type": "electric_scooter", "lat": 38.895001, "lon": -76.94875483333334, "is_reserved": 0, "fusion_lon": 0.0}, {"rental_uris": {"ios": "https://dc.lft.to/lastmile_qr_scan", "android": "https://dc.lft.to/lastmile_qr_scan"}, "fusion_lat": 0.0, "name": "c361ff95c6568202d4d9c505e199c437", "bike_id": "c361ff95c6568202d4d9c505e199c437", "is_disabled": 0, "type": "electric_scooter", "lat": 38.89839333333333, "lon": -77.03944316666667, "is_reserved": 0, "fusion_lon": 0.0}, {"rental_uris": {"ios": "https://dc.lft.to/lastmile_qr_scan", "android": "https://dc.lft.to/lastmile_qr_scan"}, "fusion_lat": 0.0, "name": "fd2a7be1c4e7e75b6befcf446807daa0", "bike_id": "fd2a7be1c4e7e75b6befcf446807daa0", "is_disabled": 0, "type": "electric_scooter", "lat": 38.92202916666667, "lon": -77.03897316666666, "is_reserved": 0, "fusion_lon": 0.0}, {"rental_uris": {"ios": "https://dc.lft.to/lastmile_qr_scan", "android": "https://dc.lft.to/lastmile_qr_scan"}, "fusion_lat": 0.0, "name": "daf61b21f4864ff914f189764b5f2f80", "bike_id": "daf61b21f4864ff914f189764b5f2f80", "is_disabled": 0, "type": "electric_bike", "lat": 38.838597, "lon": -76.99701416666667, "is_reserved": 0, "fusion_lon": 0.0}, {"rental_uris": {"ios": "https://dc.lft.to/lastmile_qr_scan", "android": "https://dc.lft.to/lastmile_qr_scan"}, "fusion_lat": 0.0, "name": "f5dd39bf288fc4070e353513b5ea346f", "bike_id": "f5dd39bf288fc4070e353513b5ea346f", "is_disabled": 0, "type": "electric_scooter", "lat": 38.9149145, "lon": -77.03464833333334, "is_reserved": 0, "fusion_lon": 0.0}, {"rental_uris": {"ios": "https://dc.lft.to/lastmile_qr_scan", "android": "https://dc.lft.to/lastmile_qr_scan"}, "fusion_lat": 0.0, "name": "1b98ff82c1bfc2e542c06190f1354ece", "bike_id": "1b98ff82c1bfc2e542c06190f1354ece", "is_disabled": 0, "type": "electric_scooter", "lat": 38.929208833333334, "lon": -77.03760283333334, "is_reserved": 0, "fusion_lon": 0.0}, {"rental_uris": {"ios": "https://dc.lft.to/lastmile_qr_scan", "android": "https://dc.lft.to/lastmile_qr_scan"}, "fusion_lat": 0.0, "name": "bedc56f8bd983cbda820c25523989b27", "bike_id": "bedc56f8bd983cbda820c25523989b27", "is_disabled": 0, "type": "electric_scooter", "lat": 38.856749, "lon": -76.9817245, "is_reserved": 0, "fusion_lon": 0.0}, {"rental_uris": {"ios": "https://dc.lft.to/lastmile_qr_scan", "android": "https://dc.lft.to/lastmile_qr_scan"}, "fusion_lat": 0.0, "name": "d609078a1c5d03320f38d01def244958", "bike_id": "d609078a1c5d03320f38d01def244958", "is_disabled": 0, "type": "electric_scooter", "lat": 38.920386, "lon": -77.04197583333334, "is_reserved": 0, "fusion_lon": 0.0}, {"rental_uris": {"ios": "https://dc.lft.to/lastmile_qr_scan", "android": "https://dc.lft.to/lastmile_qr_scan"}, "fusion_lat": 0.0, "name": "265478092e8eafa7ad1fb4dfd2450675", "bike_id": "265478092e8eafa7ad1fb4dfd2450675", "is_disabled": 0, "type": "electric_scooter", "lat": 38.90681466666667, "lon": -77.027182, "is_reserved": 0, "fusion_lon": 0.0}, {"rental_uris": {"ios": "https://dc.lft.to/lastmile_qr_scan", "android": "https://dc.lft.to/lastmile_qr_scan"}, "fusion_lat": 0.0, "name": "12dc3fd8a967790ab30379c81adc044d", "bike_id": "12dc3fd8a967790ab30379c81adc044d", "is_disabled": 0, "type": "electric_scooter", "lat": 38.917519166666665, "lon": -77.02394383333333, "is_reserved": 0, "fusion_lon": 0.0}, {"rental_uris": {"ios": "https://dc.lft.to/lastmile_qr_scan", "android": "https://dc.lft.to/lastmile_qr_scan"}, "fusion_lat": 0.0, "name": "9dfc4e8fc5e3a55ce394834fc648332b", "bike_id": "9dfc4e8fc5e3a55ce394834fc648332b", "is_disabled": 0, "type": "electric_scooter", "lat": 38.91565116666666, "lon": -77.0120085, "is_reserved": 0, "fusion_lon": 0.0}, {"rental_uris": {"ios": "https://dc.lft.to/lastmile_qr_scan", "android": "https://dc.lft.to/lastmile_qr_scan"}, "fusion_lat": 0.0, "name": "6dee574315bb4250fc8404b2139a3410", "bike_id": "6dee574315bb4250fc8404b2139a3410", "is_disabled": 0, "type": "electric_scooter", "lat": 38.93432816666667, "lon": -77.04000216666667, "is_reserved": 0, "fusion_lon": 0.0}, {"rental_uris": {"ios": "https://dc.lft.to/lastmile_qr_scan", "android": "https://dc.lft.to/lastmile_qr_scan"}, "fusion_lat": 0.0, "name": "d7373f1ceae11a1680162db301c8032c", "bike_id": "d7373f1ceae11a1680162db301c8032c", "is_disabled": 0, "type": "electric_scooter", "lat": 38.921359333333335, "lon": -77.01910766666667, "is_reserved": 0, "fusion_lon": 0.0}, {"rental_uris": {"ios": "https://dc.lft.to/lastmile_qr_scan", "android": "https://dc.lft.to/lastmile_qr_scan"}, "fusion_lat": 0.0, "name": "43b448d0b2e322c1f1849b5d6244772d", "bike_id": "43b448d0b2e322c1f1849b5d6244772d", "is_disabled": 0, "type": "electric_scooter", "lat": 38.940430666666664, "lon": -76.99632583333333, "is_reserved": 0, "fusion_lon": 0.0}, {"rental_uris": {"ios": "https://dc.lft.to/lastmile_qr_scan", "android": "https://dc.lft.to/lastmile_qr_scan"}, "fusion_lat": 0.0, "name": "b97b23b63aaf5d1fb9cb685d2f558450", "bike_id": "b97b23b63aaf5d1fb9cb685d2f558450", "is_disabled": 0, "type": "electric_scooter", "lat": 38.92001616666667, "lon": -77.03289083333334, "is_reserved": 0, "fusion_lon": 0.0}, {"rental_uris": {"ios": "https://dc.lft.to/lastmile_qr_scan", "android": "https://dc.lft.to/lastmile_qr_scan"}, "fusion_lat": 0.0, "name": "eabcca6f18a89c11e85c72202d308013", "bike_id": "eabcca6f18a89c11e85c72202d308013", "is_disabled": 0, "type": "electric_scooter", "lat": 38.927611, "lon": -77.02732366666666, "is_reserved": 0, "fusion_lon": 0.0}, {"rental_uris": {"ios": "https://dc.lft.to/lastmile_qr_scan", "android": "https://dc.lft.to/lastmile_qr_scan"}, "fusion_lat": 0.0, "name": "2e61bf0014e57235fd7e310cf9033ee2", "bike_id": "2e61bf0014e57235fd7e310cf9033ee2", "is_disabled": 0, "type": "electric_scooter", "lat": 38.923848166666666, "lon": -77.04315516666666, "is_reserved": 0, "fusion_lon": 0.0}, {"rental_uris": {"ios": "https://dc.lft.to/lastmile_qr_scan", "android": "https://dc.lft.to/lastmile_qr_scan"}, "fusion_lat": 0.0, "name": "9ef205767497bd74f9f22200adcfa561", "bike_id": "9ef205767497bd74f9f22200adcfa561", "is_disabled": 0, "type": "electric_bike", "lat": 38.879190333333334, "lon": -77.0137725, "is_reserved": 0, "fusion_lon": 0.0}, {"rental_uris": {"ios": "https://dc.lft.to/lastmile_qr_scan", "android": "https://dc.lft.to/lastmile_qr_scan"}, "fusion_lat": 0.0, "name": "122240d0e94770fa816624051509c392", "bike_id": "122240d0e94770fa816624051509c392", "is_disabled": 0, "type": "electric_scooter", "lat": 38.89881283333333, "lon": -76.931734, "is_reserved": 0, "fusion_lon": 0.0}, {"rental_uris": {"ios": "https://dc.lft.to/lastmile_qr_scan", "android": "https://dc.lft.to/lastmile_qr_scan"}, "fusion_lat": 0.0, "name": "2b75b5fac1a11f1d8c339b990f44a0e3", "bike_id": "2b75b5fac1a11f1d8c339b990f44a0e3", "is_disabled": 0, "type": "electric_scooter", "lat": 38.918750833333334, "lon": -77.035581, "is_reserved": 0, "fusion_lon": 0.0}, {"rental_uris": {"ios": "https://dc.lft.to/lastmile_qr_scan", "android": "https://dc.lft.to/lastmile_qr_scan"}, "fusion_lat": 0.0, "name": "2a4ce8c6981f4ac38c30ce71b1b3e75b", "bike_id": "2a4ce8c6981f4ac38c30ce71b1b3e75b", "is_disabled": 0, "type": "electric_bike", "lat": 38.8621195, "lon": -76.9977985, "is_reserved": 0, "fusion_lon": 0.0}, {"rental_uris": {"ios": "https://dc.lft.to/lastmile_qr_scan", "android": "https://dc.lft.to/lastmile_qr_scan"}, "fusion_lat": 0.0, "name": "436e9a3902aa95458bc7044281f5c2b0", "bike_id": "436e9a3902aa95458bc7044281f5c2b0", "is_disabled": 0, "type": "electric_scooter", "lat": 38.892280166666666, "lon": -77.0500385, "is_reserved": 0, "fusion_lon": 0.0}, {"rental_uris": {"ios": "https://dc.lft.to/lastmile_qr_scan", "android": "https://dc.lft.to/lastmile_qr_scan"}, "fusion_lat": 0.0, "name": "c72ffb87c5ec66e06e3896b060e9d8d4", "bike_id": "c72ffb87c5ec66e06e3896b060e9d8d4", "is_disabled": 0, "type": "electric_scooter", "lat": 38.91421116666667, "lon": -77.03928916666666, "is_reserved": 0, "fusion_lon": 0.0}, {"rental_uris": {"ios": "https://dc.lft.to/lastmile_qr_scan", "android": "https://dc.lft.to/lastmile_qr_scan"}, "fusion_lat": 0.0, "name": "a2a5a836099dbcb0d56a5a387a69b611", "bike_id": "a2a5a836099dbcb0d56a5a387a69b611", "is_disabled": 0, "type": "electric_scooter", "lat": 38.86651916666667, "lon": -76.9851945, "is_reserved": 0, "fusion_lon": 0.0}, {"rental_uris": {"ios": "https://dc.lft.to/lastmile_qr_scan", "android": "https://dc.lft.to/lastmile_qr_scan"}, "fusion_lat": 0.0, "name": "77855df2e913f575e78257279c95b0bc", "bike_id": "77855df2e913f575e78257279c95b0bc", "is_disabled": 0, "type": "electric_scooter", "lat": 38.9150475, "lon": -77.02194166666666, "is_reserved": 0, "fusion_lon": 0.0}, {"rental_uris": {"ios": "https://dc.lft.to/lastmile_qr_scan", "android": "https://dc.lft.to/lastmile_qr_scan"}, "fusion_lat": 0.0, "name": "1dcc4c201e1953431015e6986720ba84", "bike_id": "1dcc4c201e1953431015e6986720ba84", "is_disabled": 0, "type": "electric_scooter", "lat": 38.90288416666667, "lon": -77.04385266666667, "is_reserved": 0, "fusion_lon": 0.0}, {"rental_uris": {"ios": "https://dc.lft.to/lastmile_qr_scan", "android": "https://dc.lft.to/lastmile_qr_scan"}, "fusion_lat": 0.0, "name": "ccf3004f86e6d15f75822fe8d175b823", "bike_id": "ccf3004f86e6d15f75822fe8d175b823", "is_disabled": 0, "type": "electric_scooter", "lat": 38.8990545, "lon": -76.99494366666667, "is_reserved": 0, "fusion_lon": 0.0}, {"rental_uris": {"ios": "https://dc.lft.to/lastmile_qr_scan", "android": "https://dc.lft.to/lastmile_qr_scan"}, "fusion_lat": 0.0, "name": "465c8e3e62adb8c34a35f752d05b8fff", "bike_id": "465c8e3e62adb8c34a35f752d05b8fff", "is_disabled": 0, "type": "electric_scooter", "lat": 38.907943, "lon": -76.99729083333334, "is_reserved": 0, "fusion_lon": 0.0}, {"rental_uris": {"ios": "https://dc.lft.to/lastmile_qr_scan", "android": "https://dc.lft.to/lastmile_qr_scan"}, "fusion_lat": 0.0, "name": "65cb94815d466e377352d1cb377bf81d", "bike_id": "65cb94815d466e377352d1cb377bf81d", "is_disabled": 0, "type": "electric_scooter", "lat": 38.898428333333335, "lon": -76.94638283333333, "is_reserved": 0, "fusion_lon": 0.0}, {"rental_uris": {"ios": "https://dc.lft.to/lastmile_qr_scan", "android": "https://dc.lft.to/lastmile_qr_scan"}, "fusion_lat": 0.0, "name": "7468a90833e4940409cd7929be91893b", "bike_id": "7468a90833e4940409cd7929be91893b", "is_disabled": 0, "type": "electric_scooter", "lat": 38.938616833333334, "lon": -77.02992733333333, "is_reserved": 0, "fusion_lon": 0.0}, {"rental_uris": {"ios": "https://dc.lft.to/lastmile_qr_scan", "android": "https://dc.lft.to/lastmile_qr_scan"}, "fusion_lat": 0.0, "name": "8f49e5e8fe087c08bf421d41457ca346", "bike_id": "8f49e5e8fe087c08bf421d41457ca346", "is_disabled": 0, "type": "electric_scooter", "lat": 38.92710316666667, "lon": -77.02099733333333, "is_reserved": 0, "fusion_lon": 0.0}, {"rental_uris": {"ios": "https://dc.lft.to/lastmile_qr_scan", "android": "https://dc.lft.to/lastmile_qr_scan"}, "fusion_lat": 0.0, "name": "29baaf7b251ad0c57de99abeaf8311e6", "bike_id": "29baaf7b251ad0c57de99abeaf8311e6", "is_disabled": 0, "type": "electric_scooter", "lat": 38.963423, "lon": -77.02795983333333, "is_reserved": 0, "fusion_lon": 0.0}, {"rental_uris": {"ios": "https://dc.lft.to/lastmile_qr_scan", "android": "https://dc.lft.to/lastmile_qr_scan"}, "fusion_lat": 0.0, "name": "cdaf9c79c04b3090ebebaca760e436c7", "bike_id": "cdaf9c79c04b3090ebebaca760e436c7", "is_disabled": 0, "type": "electric_scooter", "lat": 38.89603833333334, "lon": -77.02321716666667, "is_reserved": 0, "fusion_lon": 0.0}, {"rental_uris": {"ios": "https://dc.lft.to/lastmile_qr_scan", "android": "https://dc.lft.to/lastmile_qr_scan"}, "fusion_lat": 0.0, "name": "513b54c3a5f4bf56d68fb7a55e86cea3", "bike_id": "513b54c3a5f4bf56d68fb7a55e86cea3", "is_disabled": 0, "type": "electric_scooter", "lat": 38.919323, "lon": -77.04563966666667, "is_reserved": 0, "fusion_lon": 0.0}, {"rental_uris": {"ios": "https://dc.lft.to/lastmile_qr_scan", "android": "https://dc.lft.to/lastmile_qr_scan"}, "fusion_lat": 0.0, "name": "fee559b952db3724ec245159bf7e7a2f", "bike_id": "fee559b952db3724ec245159bf7e7a2f", "is_disabled": 0, "type": "electric_scooter", "lat": 38.89822516666667, "lon": -76.94653616666666, "is_reserved": 0, "fusion_lon": 0.0}, {"rental_uris": {"ios": "https://dc.lft.to/lastmile_qr_scan", "android": "https://dc.lft.to/lastmile_qr_scan"}, "fusion_lat": 0.0, "name": "8be16a259be521ce5d65a809a5b12d73", "bike_id": "8be16a259be521ce5d65a809a5b12d73", "is_disabled": 0, "type": "electric_scooter", "lat": 38.887382333333335, "lon": -77.01532283333333, "is_reserved": 0, "fusion_lon": 0.0}, {"rental_uris": {"ios": "https://dc.lft.to/lastmile_qr_scan", "android": "https://dc.lft.to/lastmile_qr_scan"}, "fusion_lat": 0.0, "name": "020d27fcf6b194870bc88d35b109bacc", "bike_id": "020d27fcf6b194870bc88d35b109bacc", "is_disabled": 0, "type": "electric_scooter", "lat": 38.901573666666664, "lon": -77.02620383333333, "is_reserved": 0, "fusion_lon": 0.0}, {"rental_uris": {"ios": "https://dc.lft.to/lastmile_qr_scan", "android": "https://dc.lft.to/lastmile_qr_scan"}, "fusion_lat": 0.0, "name": "b3c315c130d6d120b5f25b3a2aeb822c", "bike_id": "b3c315c130d6d120b5f25b3a2aeb822c", "is_disabled": 0, "type": "electric_scooter", "lat": 38.86676633333333, "lon": -76.98493783333333, "is_reserved": 0, "fusion_lon": 0.0}, {"rental_uris": {"ios": "https://dc.lft.to/lastmile_qr_scan", "android": "https://dc.lft.to/lastmile_qr_scan"}, "fusion_lat": 0.0, "name": "b1ea435b7f3655e467595be8e07fdfb4", "bike_id": "b1ea435b7f3655e467595be8e07fdfb4", "is_disabled": 0, "type": "electric_scooter", "lat": 38.892172, "lon": -77.04686383333333, "is_reserved": 0, "fusion_lon": 0.0}, {"rental_uris": {"ios": "https://dc.lft.to/lastmile_qr_scan", "android": "https://dc.lft.to/lastmile_qr_scan"}, "fusion_lat": 0.0, "name": "5651b7a4863cc03997ab7a0176ed6b4f", "bike_id": "5651b7a4863cc03997ab7a0176ed6b4f", "is_disabled": 0, "type": "electric_scooter", "lat": 38.91694116666667, "lon": -77.03211333333333, "is_reserved": 0, "fusion_lon": 0.0}, {"rental_uris": {"ios": "https://dc.lft.to/lastmile_qr_scan", "android": "https://dc.lft.to/lastmile_qr_scan"}, "fusion_lat": 0.0, "name": "de050d30fededf474819fc66d8f3016e", "bike_id": "de050d30fededf474819fc66d8f3016e", "is_disabled": 0, "type": "electric_scooter", "lat": 38.921621333333334, "lon": -77.03841816666667, "is_reserved": 0, "fusion_lon": 0.0}, {"rental_uris": {"ios": "https://dc.lft.to/lastmile_qr_scan", "android": "https://dc.lft.to/lastmile_qr_scan"}, "fusion_lat": 0.0, "name": "8b047aac1c711ecf7d7df4d36d9ec2df", "bike_id": "8b047aac1c711ecf7d7df4d36d9ec2df", "is_disabled": 0, "type": "electric_scooter", "lat": 38.92164416666667, "lon": -76.99402833333333, "is_reserved": 0, "fusion_lon": 0.0}, {"rental_uris": {"ios": "https://dc.lft.to/lastmile_qr_scan", "android": "https://dc.lft.to/lastmile_qr_scan"}, "fusion_lat": 0.0, "name": "db69e1ec17c074c79e5fb51b7b9366d8", "bike_id": "db69e1ec17c074c79e5fb51b7b9366d8", "is_disabled": 0, "type": "electric_bike", "lat": 38.95318683333333, "lon": -77.01576866666667, "is_reserved": 0, "fusion_lon": 0.0}, {"rental_uris": {"ios": "https://dc.lft.to/lastmile_qr_scan", "android": "https://dc.lft.to/lastmile_qr_scan"}, "fusion_lat": 0.0, "name": "ecb257db4cb4f7480c13df5b164cf6a4", "bike_id": "ecb257db4cb4f7480c13df5b164cf6a4", "is_disabled": 0, "type": "electric_bike", "lat": 38.902427, "lon": -77.032577, "is_reserved": 0, "fusion_lon": 0.0}, {"rental_uris": {"ios": "https://dc.lft.to/lastmile_qr_scan", "android": "https://dc.lft.to/lastmile_qr_scan"}, "fusion_lat": 0.0, "name": "bb158308c48e8ae56f42a1089c50cd3b", "bike_id": "bb158308c48e8ae56f42a1089c50cd3b", "is_disabled": 0, "type": "electric_scooter", "lat": 38.88134516666667, "lon": -77.01670233333333, "is_reserved": 0, "fusion_lon": 0.0}, {"rental_uris": {"ios": "https://dc.lft.to/lastmile_qr_scan", "android": "https://dc.lft.to/lastmile_qr_scan"}, "fusion_lat": 0.0, "name": "1a963001eef4f22ebb3689658a0bb687", "bike_id": "1a963001eef4f22ebb3689658a0bb687", "is_disabled": 0, "type": "electric_scooter", "lat": 38.92150766666666, "lon": -77.0351325, "is_reserved": 0, "fusion_lon": 0.0}, {"rental_uris": {"ios": "https://dc.lft.to/lastmile_qr_scan", "android": "https://dc.lft.to/lastmile_qr_scan"}, "fusion_lat": 0.0, "name": "7be70c7580002defce61dffa7193e144", "bike_id": "7be70c7580002defce61dffa7193e144", "is_disabled": 0, "type": "electric_scooter", "lat": 38.87689233333333, "lon": -77.01760466666667, "is_reserved": 0, "fusion_lon": 0.0}, {"rental_uris": {"ios": "https://dc.lft.to/lastmile_qr_scan", "android": "https://dc.lft.to/lastmile_qr_scan"}, "fusion_lat": 0.0, "name": "a71d69a083bbcd796994a68792af7e39", "bike_id": "a71d69a083bbcd796994a68792af7e39", "is_disabled": 0, "type": "electric_scooter", "lat": 38.883325166666665, "lon": -77.0092775, "is_reserved": 0, "fusion_lon": 0.0}, {"rental_uris": {"ios": "https://dc.lft.to/lastmile_qr_scan", "android": "https://dc.lft.to/lastmile_qr_scan"}, "fusion_lat": 0.0, "name": "ca9e1ad67906df642d341a56c4f683db", "bike_id": "ca9e1ad67906df642d341a56c4f683db", "is_disabled": 0, "type": "electric_scooter", "lat": 38.92990316666667, "lon": -77.032656, "is_reserved": 0, "fusion_lon": 0.0}, {"rental_uris": {"ios": "https://dc.lft.to/lastmile_qr_scan", "android": "https://dc.lft.to/lastmile_qr_scan"}, "fusion_lat": 0.0, "name": "f4a480efdbe25e54ce6d92294e6633d5", "bike_id": "f4a480efdbe25e54ce6d92294e6633d5", "is_disabled": 0, "type": "electric_scooter", "lat": 38.91316466666667, "lon": -77.03199983333333, "is_reserved": 0, "fusion_lon": 0.0}, {"rental_uris": {"ios": "https://dc.lft.to/lastmile_qr_scan", "android": "https://dc.lft.to/lastmile_qr_scan"}, "fusion_lat": 0.0, "name": "5483157ab8b51bf3f81a652cdee2a2ec", "bike_id": "5483157ab8b51bf3f81a652cdee2a2ec", "is_disabled": 0, "type": "electric_bike", "lat": 38.949021333333334, "lon": -76.97238383333334, "is_reserved": 0, "fusion_lon": 0.0}, {"rental_uris": {"ios": "https://dc.lft.to/lastmile_qr_scan", "android": "https://dc.lft.to/lastmile_qr_scan"}, "fusion_lat": 0.0, "name": "7fad151eb16357297f5805f2ef2f115b", "bike_id": "7fad151eb16357297f5805f2ef2f115b", "is_disabled": 0, "type": "electric_scooter", "lat": 38.89881783333333, "lon": -77.03281466666667, "is_reserved": 0, "fusion_lon": 0.0}, {"rental_uris": {"ios": "https://dc.lft.to/lastmile_qr_scan", "android": "https://dc.lft.to/lastmile_qr_scan"}, "fusion_lat": 0.0, "name": "1572aa0091569bd608077d0884a66c56", "bike_id": "1572aa0091569bd608077d0884a66c56", "is_disabled": 0, "type": "electric_scooter", "lat": 38.93189916666667, "lon": -77.0283575, "is_reserved": 0, "fusion_lon": 0.0}, {"rental_uris": {"ios": "https://dc.lft.to/lastmile_qr_scan", "android": "https://dc.lft.to/lastmile_qr_scan"}, "fusion_lat": 0.0, "name": "e3e05948e73e54948b9e38f402e570b6", "bike_id": "e3e05948e73e54948b9e38f402e570b6", "is_disabled": 0, "type": "electric_scooter", "lat": 38.906846333333334, "lon": -77.02694316666667, "is_reserved": 0, "fusion_lon": 0.0}, {"rental_uris": {"ios": "https://dc.lft.to/lastmile_qr_scan", "android": "https://dc.lft.to/lastmile_qr_scan"}, "fusion_lat": 0.0, "name": "7c565affe45c0f9de9cee2d4f69dba70", "bike_id": "7c565affe45c0f9de9cee2d4f69dba70", "is_disabled": 0, "type": "electric_bike", "lat": 38.9649215, "lon": -77.10712733333334, "is_reserved": 0, "fusion_lon": 0.0}, {"rental_uris": {"ios": "https://dc.lft.to/lastmile_qr_scan", "android": "https://dc.lft.to/lastmile_qr_scan"}, "fusion_lat": 0.0, "name": "246deb3dc47b132896785403a4819ac0", "bike_id": "246deb3dc47b132896785403a4819ac0", "is_disabled": 0, "type": "electric_scooter", "lat": 38.90560833333333, "lon": -77.006067, "is_reserved": 0, "fusion_lon": 0.0}, {"rental_uris": {"ios": "https://dc.lft.to/lastmile_qr_scan", "android": "https://dc.lft.to/lastmile_qr_scan"}, "fusion_lat": 0.0, "name": "3d73e4c1725039d774c97024c616a56a", "bike_id": "3d73e4c1725039d774c97024c616a56a", "is_disabled": 0, "type": "electric_scooter", "lat": 38.916348166666666, "lon": -77.022393, "is_reserved": 0, "fusion_lon": 0.0}, {"rental_uris": {"ios": "https://dc.lft.to/lastmile_qr_scan", "android": "https://dc.lft.to/lastmile_qr_scan"}, "fusion_lat": 0.0, "name": "fb5ae8d1f7aaac70e2e57b63eaaec51f", "bike_id": "fb5ae8d1f7aaac70e2e57b63eaaec51f", "is_disabled": 0, "type": "electric_scooter", "lat": 38.91415633333333, "lon": -77.0317615, "is_reserved": 0, "fusion_lon": 0.0}, {"rental_uris": {"ios": "https://dc.lft.to/lastmile_qr_scan", "android": "https://dc.lft.to/lastmile_qr_scan"}, "fusion_lat": 0.0, "name": "e74029c71924616782e295c8b472e025", "bike_id": "e74029c71924616782e295c8b472e025", "is_disabled": 0, "type": "electric_bike", "lat": 38.793224333333335, "lon": -77.04020983333334, "is_reserved": 0, "fusion_lon": 0.0}, {"rental_uris": {"ios": "https://dc.lft.to/lastmile_qr_scan", "android": "https://dc.lft.to/lastmile_qr_scan"}, "fusion_lat": 0.0, "name": "7a2c6a82cf2b26a2a6f16be7d2487509", "bike_id": "7a2c6a82cf2b26a2a6f16be7d2487509", "is_disabled": 0, "type": "electric_scooter", "lat": 38.923306, "lon": -77.0430125, "is_reserved": 0, "fusion_lon": 0.0}, {"rental_uris": {"ios": "https://dc.lft.to/lastmile_qr_scan", "android": "https://dc.lft.to/lastmile_qr_scan"}, "fusion_lat": 0.0, "name": "78d5dfaf77539126b580b41a9f23e6b6", "bike_id": "78d5dfaf77539126b580b41a9f23e6b6", "is_disabled": 0, "type": "electric_scooter", "lat": 38.8815635, "lon": -77.01294316666667, "is_reserved": 0, "fusion_lon": 0.0}, {"rental_uris": {"ios": "https://dc.lft.to/lastmile_qr_scan", "android": "https://dc.lft.to/lastmile_qr_scan"}, "fusion_lat": 0.0, "name": "b6ec30c6575216e2c318880a5ec4eeb2", "bike_id": "b6ec30c6575216e2c318880a5ec4eeb2", "is_disabled": 0, "type": "electric_scooter", "lat": 38.917202333333336, "lon": -77.0366175, "is_reserved": 0, "fusion_lon": 0.0}, {"rental_uris": {"ios": "https://dc.lft.to/lastmile_qr_scan", "android": "https://dc.lft.to/lastmile_qr_scan"}, "fusion_lat": 0.0, "name": "71b240c8fe7710aa67bc7338e1f966ff", "bike_id": "71b240c8fe7710aa67bc7338e1f966ff", "is_disabled": 0, "type": "electric_scooter", "lat": 38.9096165, "lon": -77.04482483333334, "is_reserved": 0, "fusion_lon": 0.0}, {"rental_uris": {"ios": "https://dc.lft.to/lastmile_qr_scan", "android": "https://dc.lft.to/lastmile_qr_scan"}, "fusion_lat": 0.0, "name": "8b7b54acfaffb3ea4a0b0d5fca3d24d1", "bike_id": "8b7b54acfaffb3ea4a0b0d5fca3d24d1", "is_disabled": 0, "type": "electric_scooter", "lat": 38.915552166666664, "lon": -77.020515, "is_reserved": 0, "fusion_lon": 0.0}, {"rental_uris": {"ios": "https://dc.lft.to/lastmile_qr_scan", "android": "https://dc.lft.to/lastmile_qr_scan"}, "fusion_lat": 0.0, "name": "2377bb0af243200fe3b1d454bda7a881", "bike_id": "2377bb0af243200fe3b1d454bda7a881", "is_disabled": 0, "type": "electric_scooter", "lat": 38.91560116666667, "lon": -77.038666, "is_reserved": 0, "fusion_lon": 0.0}, {"rental_uris": {"ios": "https://dc.lft.to/lastmile_qr_scan", "android": "https://dc.lft.to/lastmile_qr_scan"}, "fusion_lat": 0.0, "name": "c51a242379105b537c9c71fa7049ff92", "bike_id": "c51a242379105b537c9c71fa7049ff92", "is_disabled": 0, "type": "electric_bike", "lat": 39.01569466666667, "lon": -77.04414683333333, "is_reserved": 0, "fusion_lon": 0.0}, {"rental_uris": {"ios": "https://dc.lft.to/lastmile_qr_scan", "android": "https://dc.lft.to/lastmile_qr_scan"}, "fusion_lat": 0.0, "name": "833d00227341fd43fc1ecfb893f67ecd", "bike_id": "833d00227341fd43fc1ecfb893f67ecd", "is_disabled": 0, "type": "electric_scooter", "lat": 38.892208833333335, "lon": -77.04367233333333, "is_reserved": 0, "fusion_lon": 0.0}, {"rental_uris": {"ios": "https://dc.lft.to/lastmile_qr_scan", "android": "https://dc.lft.to/lastmile_qr_scan"}, "fusion_lat": 0.0, "name": "b849539fbb54043e45082f4021d5df65", "bike_id": "b849539fbb54043e45082f4021d5df65", "is_disabled": 0, "type": "electric_scooter", "lat": 38.91771083333333, "lon": -77.02337, "is_reserved": 0, "fusion_lon": 0.0}, {"rental_uris": {"ios": "https://dc.lft.to/lastmile_qr_scan", "android": "https://dc.lft.to/lastmile_qr_scan"}, "fusion_lat": 0.0, "name": "739e2a828ee38a6176a4efbc3302779d", "bike_id": "739e2a828ee38a6176a4efbc3302779d", "is_disabled": 0, "type": "electric_scooter", "lat": 38.9324785, "lon": -77.03849533333333, "is_reserved": 0, "fusion_lon": 0.0}, {"rental_uris": {"ios": "https://dc.lft.to/lastmile_qr_scan", "android": "https://dc.lft.to/lastmile_qr_scan"}, "fusion_lat": 0.0, "name": "fdf42450a3cd9c00124824ca5621a15a", "bike_id": "fdf42450a3cd9c00124824ca5621a15a", "is_disabled": 0, "type": "electric_scooter", "lat": 38.9193535, "lon": -77.03173283333334, "is_reserved": 0, "fusion_lon": 0.0}, {"rental_uris": {"ios": "https://dc.lft.to/lastmile_qr_scan", "android": "https://dc.lft.to/lastmile_qr_scan"}, "fusion_lat": 0.0, "name": "d3e9174be14afd463c6b5b8227a26b19", "bike_id": "d3e9174be14afd463c6b5b8227a26b19", "is_disabled": 0, "type": "electric_scooter", "lat": 38.907669, "lon": -77.04248733333333, "is_reserved": 0, "fusion_lon": 0.0}, {"rental_uris": {"ios": "https://dc.lft.to/lastmile_qr_scan", "android": "https://dc.lft.to/lastmile_qr_scan"}, "fusion_lat": 0.0, "name": "62054da8ae2b8f2d75924651a0ae98f3", "bike_id": "62054da8ae2b8f2d75924651a0ae98f3", "is_disabled": 0, "type": "electric_scooter", "lat": 38.8984275, "lon": -76.94634366666666, "is_reserved": 0, "fusion_lon": 0.0}, {"rental_uris": {"ios": "https://dc.lft.to/lastmile_qr_scan", "android": "https://dc.lft.to/lastmile_qr_scan"}, "fusion_lat": 0.0, "name": "d6531d000cb5d1e099b9c2fc0e9408d9", "bike_id": "d6531d000cb5d1e099b9c2fc0e9408d9", "is_disabled": 0, "type": "electric_scooter", "lat": 38.92361866666667, "lon": -77.0296355, "is_reserved": 0, "fusion_lon": 0.0}, {"rental_uris": {"ios": "https://dc.lft.to/lastmile_qr_scan", "android": "https://dc.lft.to/lastmile_qr_scan"}, "fusion_lat": 0.0, "name": "59cb4a470ee3f906583a008dd79385fb", "bike_id": "59cb4a470ee3f906583a008dd79385fb", "is_disabled": 0, "type": "electric_bike", "lat": 38.8935205, "lon": -77.18744033333333, "is_reserved": 0, "fusion_lon": 0.0}, {"rental_uris": {"ios": "https://dc.lft.to/lastmile_qr_scan", "android": "https://dc.lft.to/lastmile_qr_scan"}, "fusion_lat": 0.0, "name": "f36af608c5aaf07440dde6cd77d044e9", "bike_id": "f36af608c5aaf07440dde6cd77d044e9", "is_disabled": 0, "type": "electric_scooter", "lat": 38.93611166666667, "lon": -77.05861866666666, "is_reserved": 0, "fusion_lon": 0.0}, {"rental_uris": {"ios": "https://dc.lft.to/lastmile_qr_scan", "android": "https://dc.lft.to/lastmile_qr_scan"}, "fusion_lat": 0.0, "name": "826474887983b741e94ec7294b8239d8", "bike_id": "826474887983b741e94ec7294b8239d8", "is_disabled": 0, "type": "electric_scooter", "lat": 38.918095, "lon": -77.02712733333334, "is_reserved": 0, "fusion_lon": 0.0}, {"rental_uris": {"ios": "https://dc.lft.to/lastmile_qr_scan", "android": "https://dc.lft.to/lastmile_qr_scan"}, "fusion_lat": 0.0, "name": "95ffddb6a7c5f9e9eac1b99f1f62ecb7", "bike_id": "95ffddb6a7c5f9e9eac1b99f1f62ecb7", "is_disabled": 0, "type": "electric_scooter", "lat": 38.887387333333336, "lon": -77.0153405, "is_reserved": 0, "fusion_lon": 0.0}, {"rental_uris": {"ios": "https://dc.lft.to/lastmile_qr_scan", "android": "https://dc.lft.to/lastmile_qr_scan"}, "fusion_lat": 0.0, "name": "2a0f07e9cef7913422eb3da336017d8f", "bike_id": "2a0f07e9cef7913422eb3da336017d8f", "is_disabled": 0, "type": "electric_scooter", "lat": 38.90677083333333, "lon": -77.02697616666667, "is_reserved": 0, "fusion_lon": 0.0}, {"rental_uris": {"ios": "https://dc.lft.to/lastmile_qr_scan", "android": "https://dc.lft.to/lastmile_qr_scan"}, "fusion_lat": 0.0, "name": "e763f56e0cc0ab642bd65a021d6fbb6e", "bike_id": "e763f56e0cc0ab642bd65a021d6fbb6e", "is_disabled": 0, "type": "electric_scooter", "lat": 38.919845, "lon": -77.02538016666666, "is_reserved": 0, "fusion_lon": 0.0}, {"rental_uris": {"ios": "https://dc.lft.to/lastmile_qr_scan", "android": "https://dc.lft.to/lastmile_qr_scan"}, "fusion_lat": 0.0, "name": "6008c1132a990256a673e23b70a870e5", "bike_id": "6008c1132a990256a673e23b70a870e5", "is_disabled": 0, "type": "electric_scooter", "lat": 38.897332666666664, "lon": -77.04338483333333, "is_reserved": 0, "fusion_lon": 0.0}, {"rental_uris": {"ios": "https://dc.lft.to/lastmile_qr_scan", "android": "https://dc.lft.to/lastmile_qr_scan"}, "fusion_lat": 0.0, "name": "90222ab9ed84dbcc022df30cf195fb5d", "bike_id": "90222ab9ed84dbcc022df30cf195fb5d", "is_disabled": 0, "type": "electric_scooter", "lat": 38.91226983333333, "lon": -77.04497133333334, "is_reserved": 0, "fusion_lon": 0.0}, {"rental_uris": {"ios": "https://dc.lft.to/lastmile_qr_scan", "android": "https://dc.lft.to/lastmile_qr_scan"}, "fusion_lat": 0.0, "name": "a998a1a26ce6ee3b998af39f3775d395", "bike_id": "a998a1a26ce6ee3b998af39f3775d395", "is_disabled": 0, "type": "electric_scooter", "lat": 38.91669316666667, "lon": -77.0238415, "is_reserved": 0, "fusion_lon": 0.0}, {"rental_uris": {"ios": "https://dc.lft.to/lastmile_qr_scan", "android": "https://dc.lft.to/lastmile_qr_scan"}, "fusion_lat": 0.0, "name": "9c9be9bfeb435b287fda66c7b74153fd", "bike_id": "9c9be9bfeb435b287fda66c7b74153fd", "is_disabled": 0, "type": "electric_scooter", "lat": 38.910406, "lon": -77.04367683333334, "is_reserved": 0, "fusion_lon": 0.0}, {"rental_uris": {"ios": "https://dc.lft.to/lastmile_qr_scan", "android": "https://dc.lft.to/lastmile_qr_scan"}, "fusion_lat": 0.0, "name": "b79adb074ffacf434035bf7ff51eb2ec", "bike_id": "b79adb074ffacf434035bf7ff51eb2ec", "is_disabled": 0, "type": "electric_scooter", "lat": 38.93749716666667, "lon": -77.034549, "is_reserved": 0, "fusion_lon": 0.0}, {"rental_uris": {"ios": "https://dc.lft.to/lastmile_qr_scan", "android": "https://dc.lft.to/lastmile_qr_scan"}, "fusion_lat": 0.0, "name": "c0535b61a99be7cb6552a8844ed966cc", "bike_id": "c0535b61a99be7cb6552a8844ed966cc", "is_disabled": 0, "type": "electric_scooter", "lat": 38.88758583333333, "lon": -77.0203315, "is_reserved": 0, "fusion_lon": 0.0}, {"rental_uris": {"ios": "https://dc.lft.to/lastmile_qr_scan", "android": "https://dc.lft.to/lastmile_qr_scan"}, "fusion_lat": 0.0, "name": "d8c4128313a6943fb697bd0376ef37ce", "bike_id": "d8c4128313a6943fb697bd0376ef37ce", "is_disabled": 0, "type": "electric_scooter", "lat": 38.933452333333335, "lon": -77.072639, "is_reserved": 0, "fusion_lon": 0.0}, {"rental_uris": {"ios": "https://dc.lft.to/lastmile_qr_scan", "android": "https://dc.lft.to/lastmile_qr_scan"}, "fusion_lat": 0.0, "name": "81979a0f3922d7946cdb60b15a137680", "bike_id": "81979a0f3922d7946cdb60b15a137680", "is_disabled": 0, "type": "electric_scooter", "lat": 38.9160725, "lon": -77.02304333333333, "is_reserved": 0, "fusion_lon": 0.0}, {"rental_uris": {"ios": "https://dc.lft.to/lastmile_qr_scan", "android": "https://dc.lft.to/lastmile_qr_scan"}, "fusion_lat": 0.0, "name": "fd11d1c88c29195c2dd6576ec5619f07", "bike_id": "fd11d1c88c29195c2dd6576ec5619f07", "is_disabled": 0, "type": "electric_scooter", "lat": 38.893549, "lon": -77.00339633333333, "is_reserved": 0, "fusion_lon": 0.0}, {"rental_uris": {"ios": "https://dc.lft.to/lastmile_qr_scan", "android": "https://dc.lft.to/lastmile_qr_scan"}, "fusion_lat": 0.0, "name": "bfde47bb5233ffe557c3efc0149bca7f", "bike_id": "bfde47bb5233ffe557c3efc0149bca7f", "is_disabled": 0, "type": "electric_bike", "lat": 38.84010983333334, "lon": -76.975317, "is_reserved": 0, "fusion_lon": 0.0}, {"rental_uris": {"ios": "https://dc.lft.to/lastmile_qr_scan", "android": "https://dc.lft.to/lastmile_qr_scan"}, "fusion_lat": 0.0, "name": "275aa276b918f6f61cd83f40285b500d", "bike_id": "275aa276b918f6f61cd83f40285b500d", "is_disabled": 0, "type": "electric_scooter", "lat": 38.86243433333333, "lon": -76.99498083333333, "is_reserved": 0, "fusion_lon": 0.0}, {"rental_uris": {"ios": "https://dc.lft.to/lastmile_qr_scan", "android": "https://dc.lft.to/lastmile_qr_scan"}, "fusion_lat": 0.0, "name": "8fbeb8a4b5a2b810944ab3192e753283", "bike_id": "8fbeb8a4b5a2b810944ab3192e753283", "is_disabled": 0, "type": "electric_scooter", "lat": 38.89731166666667, "lon": -77.04688833333333, "is_reserved": 0, "fusion_lon": 0.0}, {"rental_uris": {"ios": "https://dc.lft.to/lastmile_qr_scan", "android": "https://dc.lft.to/lastmile_qr_scan"}, "fusion_lat": 0.0, "name": "04d548598dedb8280576747f14fd99c1", "bike_id": "04d548598dedb8280576747f14fd99c1", "is_disabled": 0, "type": "electric_bike", "lat": 38.881882833333336, "lon": -76.99503166666666, "is_reserved": 0, "fusion_lon": 0.0}, {"rental_uris": {"ios": "https://dc.lft.to/lastmile_qr_scan", "android": "https://dc.lft.to/lastmile_qr_scan"}, "fusion_lat": 0.0, "name": "f77dc5fd2a47ae44ff17b1339ebe2706", "bike_id": "f77dc5fd2a47ae44ff17b1339ebe2706", "is_disabled": 0, "type": "electric_scooter", "lat": 38.9446885, "lon": -77.0234125, "is_reserved": 0, "fusion_lon": 0.0}, {"rental_uris": {"ios": "https://dc.lft.to/lastmile_qr_scan", "android": "https://dc.lft.to/lastmile_qr_scan"}, "fusion_lat": 0.0, "name": "2308b07c3b19afead9411eecf5b887db", "bike_id": "2308b07c3b19afead9411eecf5b887db", "is_disabled": 0, "type": "electric_scooter", "lat": 38.9169195, "lon": -77.03598133333334, "is_reserved": 0, "fusion_lon": 0.0}, {"rental_uris": {"ios": "https://dc.lft.to/lastmile_qr_scan", "android": "https://dc.lft.to/lastmile_qr_scan"}, "fusion_lat": 0.0, "name": "8477c664c277ce03435f49bb0c8d911f", "bike_id": "8477c664c277ce03435f49bb0c8d911f", "is_disabled": 0, "type": "electric_scooter", "lat": 38.88369333333333, "lon": -76.99511933333334, "is_reserved": 0, "fusion_lon": 0.0}, {"rental_uris": {"ios": "https://dc.lft.to/lastmile_qr_scan", "android": "https://dc.lft.to/lastmile_qr_scan"}, "fusion_lat": 0.0, "name": "5f834d70ff17ecc40ccafdb34cbe1091", "bike_id": "5f834d70ff17ecc40ccafdb34cbe1091", "is_disabled": 0, "type": "electric_scooter", "lat": 38.896076, "lon": -77.03204, "is_reserved": 0, "fusion_lon": 0.0}, {"rental_uris": {"ios": "https://dc.lft.to/lastmile_qr_scan", "android": "https://dc.lft.to/lastmile_qr_scan"}, "fusion_lat": 0.0, "name": "a88e7ba3fe9f7a1a46c14901caff7f18", "bike_id": "a88e7ba3fe9f7a1a46c14901caff7f18", "is_disabled": 0, "type": "electric_scooter", "lat": 38.9066595, "lon": -77.0270015, "is_reserved": 0, "fusion_lon": 0.0}, {"rental_uris": {"ios": "https://dc.lft.to/lastmile_qr_scan", "android": "https://dc.lft.to/lastmile_qr_scan"}, "fusion_lat": 0.0, "name": "54e064542eec1b4341350cc0dbb253b9", "bike_id": "54e064542eec1b4341350cc0dbb253b9", "is_disabled": 0, "type": "electric_scooter", "lat": 38.9204135, "lon": -77.04203633333333, "is_reserved": 0, "fusion_lon": 0.0}, {"rental_uris": {"ios": "https://dc.lft.to/lastmile_qr_scan", "android": "https://dc.lft.to/lastmile_qr_scan"}, "fusion_lat": 0.0, "name": "feb5de371d5aba6814aa5a3158a44913", "bike_id": "feb5de371d5aba6814aa5a3158a44913", "is_disabled": 0, "type": "electric_bike", "lat": 38.90666483333333, "lon": -77.0716975, "is_reserved": 0, "fusion_lon": 0.0}, {"rental_uris": {"ios": "https://dc.lft.to/lastmile_qr_scan", "android": "https://dc.lft.to/lastmile_qr_scan"}, "fusion_lat": 0.0, "name": "454051a6a291f5bf4b3a4376665cbb50", "bike_id": "454051a6a291f5bf4b3a4376665cbb50", "is_disabled": 0, "type": "electric_scooter", "lat": 38.9307785, "lon": -77.02793616666666, "is_reserved": 0, "fusion_lon": 0.0}, {"rental_uris": {"ios": "https://dc.lft.to/lastmile_qr_scan", "android": "https://dc.lft.to/lastmile_qr_scan"}, "fusion_lat": 0.0, "name": "2cbcd76f9a28839c671b80ac154c0068", "bike_id": "2cbcd76f9a28839c671b80ac154c0068", "is_disabled": 0, "type": "electric_scooter", "lat": 38.887405666666666, "lon": -77.01533683333334, "is_reserved": 0, "fusion_lon": 0.0}, {"rental_uris": {"ios": "https://dc.lft.to/lastmile_qr_scan", "android": "https://dc.lft.to/lastmile_qr_scan"}, "fusion_lat": 0.0, "name": "c9e363ae20e90fd70ca78ef1abe6838c", "bike_id": "c9e363ae20e90fd70ca78ef1abe6838c", "is_disabled": 0, "type": "electric_scooter", "lat": 38.892232166666666, "lon": -77.03163833333333, "is_reserved": 0, "fusion_lon": 0.0}, {"rental_uris": {"ios": "https://dc.lft.to/lastmile_qr_scan", "android": "https://dc.lft.to/lastmile_qr_scan"}, "fusion_lat": 0.0, "name": "9472b26e3662b4f122d4d551fd738976", "bike_id": "9472b26e3662b4f122d4d551fd738976", "is_disabled": 0, "type": "electric_scooter", "lat": 38.93607133333333, "lon": -77.058593, "is_reserved": 0, "fusion_lon": 0.0}, {"rental_uris": {"ios": "https://dc.lft.to/lastmile_qr_scan", "android": "https://dc.lft.to/lastmile_qr_scan"}, "fusion_lat": 0.0, "name": "1eeca28f6deed7ea1fb720004e80026f", "bike_id": "1eeca28f6deed7ea1fb720004e80026f", "is_disabled": 0, "type": "electric_scooter", "lat": 38.92881716666667, "lon": -77.0335845, "is_reserved": 0, "fusion_lon": 0.0}, {"rental_uris": {"ios": "https://dc.lft.to/lastmile_qr_scan", "android": "https://dc.lft.to/lastmile_qr_scan"}, "fusion_lat": 0.0, "name": "a32d6d2c57bed4811a24b0ce0bae0828", "bike_id": "a32d6d2c57bed4811a24b0ce0bae0828", "is_disabled": 0, "type": "electric_scooter", "lat": 38.895144333333334, "lon": -77.02823033333334, "is_reserved": 0, "fusion_lon": 0.0}, {"rental_uris": {"ios": "https://dc.lft.to/lastmile_qr_scan", "android": "https://dc.lft.to/lastmile_qr_scan"}, "fusion_lat": 0.0, "name": "5e5387c26daa09d0726d92f636a0267f", "bike_id": "5e5387c26daa09d0726d92f636a0267f", "is_disabled": 0, "type": "electric_scooter", "lat": 38.892220333333334, "lon": -77.03219133333333, "is_reserved": 0, "fusion_lon": 0.0}, {"rental_uris": {"ios": "https://dc.lft.to/lastmile_qr_scan", "android": "https://dc.lft.to/lastmile_qr_scan"}, "fusion_lat": 0.0, "name": "770c8a578b819b7e7cfe40cb9438ed84", "bike_id": "770c8a578b819b7e7cfe40cb9438ed84", "is_disabled": 0, "type": "electric_scooter", "lat": 38.905866, "lon": -77.065207, "is_reserved": 0, "fusion_lon": 0.0}, {"rental_uris": {"ios": "https://dc.lft.to/lastmile_qr_scan", "android": "https://dc.lft.to/lastmile_qr_scan"}, "fusion_lat": 0.0, "name": "a7368f0f40cc3eeb933ae0a9f5a1de18", "bike_id": "a7368f0f40cc3eeb933ae0a9f5a1de18", "is_disabled": 0, "type": "electric_scooter", "lat": 38.931742, "lon": -77.03636383333334, "is_reserved": 0, "fusion_lon": 0.0}, {"rental_uris": {"ios": "https://dc.lft.to/lastmile_qr_scan", "android": "https://dc.lft.to/lastmile_qr_scan"}, "fusion_lat": 0.0, "name": "ac0de95b21e6b5105ce44d9c8e80eaf2", "bike_id": "ac0de95b21e6b5105ce44d9c8e80eaf2", "is_disabled": 0, "type": "electric_scooter", "lat": 38.92838033333334, "lon": -76.99365666666667, "is_reserved": 0, "fusion_lon": 0.0}, {"rental_uris": {"ios": "https://dc.lft.to/lastmile_qr_scan", "android": "https://dc.lft.to/lastmile_qr_scan"}, "fusion_lat": 0.0, "name": "9b22da763cf31129c15dacfb5536cf49", "bike_id": "9b22da763cf31129c15dacfb5536cf49", "is_disabled": 0, "type": "electric_scooter", "lat": 38.91852516666667, "lon": -77.03187816666667, "is_reserved": 0, "fusion_lon": 0.0}, {"rental_uris": {"ios": "https://dc.lft.to/lastmile_qr_scan", "android": "https://dc.lft.to/lastmile_qr_scan"}, "fusion_lat": 0.0, "name": "175186e5bcca9db01914c9a7cfe5a280", "bike_id": "175186e5bcca9db01914c9a7cfe5a280", "is_disabled": 0, "type": "electric_scooter", "lat": 38.9013195, "lon": -76.9973635, "is_reserved": 0, "fusion_lon": 0.0}, {"rental_uris": {"ios": "https://dc.lft.to/lastmile_qr_scan", "android": "https://dc.lft.to/lastmile_qr_scan"}, "fusion_lat": 0.0, "name": "30580fbfa8f127c134104fc7d9cd711b", "bike_id": "30580fbfa8f127c134104fc7d9cd711b", "is_disabled": 0, "type": "electric_bike", "lat": 38.855192833333334, "lon": -77.12028033333333, "is_reserved": 0, "fusion_lon": 0.0}, {"rental_uris": {"ios": "https://dc.lft.to/lastmile_qr_scan", "android": "https://dc.lft.to/lastmile_qr_scan"}, "fusion_lat": 0.0, "name": "4c0577d1f0600697eab262221ffc5af5", "bike_id": "4c0577d1f0600697eab262221ffc5af5", "is_disabled": 0, "type": "electric_scooter", "lat": 38.909653, "lon": -77.02580683333333, "is_reserved": 0, "fusion_lon": 0.0}, {"rental_uris": {"ios": "https://dc.lft.to/lastmile_qr_scan", "android": "https://dc.lft.to/lastmile_qr_scan"}, "fusion_lat": 0.0, "name": "8f27beb554ebaac09b19665e6feead31", "bike_id": "8f27beb554ebaac09b19665e6feead31", "is_disabled": 0, "type": "electric_scooter", "lat": 38.89356083333333, "lon": -77.04186616666667, "is_reserved": 0, "fusion_lon": 0.0}, {"rental_uris": {"ios": "https://dc.lft.to/lastmile_qr_scan", "android": "https://dc.lft.to/lastmile_qr_scan"}, "fusion_lat": 0.0, "name": "ef8b75ec5bdd8c27ff19946ffc86220d", "bike_id": "ef8b75ec5bdd8c27ff19946ffc86220d", "is_disabled": 0, "type": "electric_scooter", "lat": 38.92327783333333, "lon": -77.021343, "is_reserved": 0, "fusion_lon": 0.0}, {"rental_uris": {"ios": "https://dc.lft.to/lastmile_qr_scan", "android": "https://dc.lft.to/lastmile_qr_scan"}, "fusion_lat": 0.0, "name": "b9aec0a87da1d856f1eb8c20f9f54fea", "bike_id": "b9aec0a87da1d856f1eb8c20f9f54fea", "is_disabled": 0, "type": "electric_scooter", "lat": 38.91659383333333, "lon": -77.032049, "is_reserved": 0, "fusion_lon": 0.0}, {"rental_uris": {"ios": "https://dc.lft.to/lastmile_qr_scan", "android": "https://dc.lft.to/lastmile_qr_scan"}, "fusion_lat": 0.0, "name": "5c009ad7742efa89891f99e7fa1d491b", "bike_id": "5c009ad7742efa89891f99e7fa1d491b", "is_disabled": 0, "type": "electric_scooter", "lat": 38.923749, "lon": -77.01912316666666, "is_reserved": 0, "fusion_lon": 0.0}, {"rental_uris": {"ios": "https://dc.lft.to/lastmile_qr_scan", "android": "https://dc.lft.to/lastmile_qr_scan"}, "fusion_lat": 0.0, "name": "fe889063f47e3754ab8fcad0f75fc3d4", "bike_id": "fe889063f47e3754ab8fcad0f75fc3d4", "is_disabled": 0, "type": "electric_scooter", "lat": 38.89756116666667, "lon": -76.94184883333334, "is_reserved": 0, "fusion_lon": 0.0}, {"rental_uris": {"ios": "https://dc.lft.to/lastmile_qr_scan", "android": "https://dc.lft.to/lastmile_qr_scan"}, "fusion_lat": 0.0, "name": "eff42b0dcc032f56970d69ff692d6f6a", "bike_id": "eff42b0dcc032f56970d69ff692d6f6a", "is_disabled": 0, "type": "electric_scooter", "lat": 38.91831883333333, "lon": -77.04033766666667, "is_reserved": 0, "fusion_lon": 0.0}, {"rental_uris": {"ios": "https://dc.lft.to/lastmile_qr_scan", "android": "https://dc.lft.to/lastmile_qr_scan"}, "fusion_lat": 0.0, "name": "cde23f15b7a0d203a352c33f56b0ad0f", "bike_id": "cde23f15b7a0d203a352c33f56b0ad0f", "is_disabled": 0, "type": "electric_scooter", "lat": 38.914020666666666, "lon": -77.04486833333333, "is_reserved": 0, "fusion_lon": 0.0}, {"rental_uris": {"ios": "https://dc.lft.to/lastmile_qr_scan", "android": "https://dc.lft.to/lastmile_qr_scan"}, "fusion_lat": 0.0, "name": "92e1c638a67d9ea1d88af7e78f483a01", "bike_id": "92e1c638a67d9ea1d88af7e78f483a01", "is_disabled": 0, "type": "electric_scooter", "lat": 38.91000666666667, "lon": -77.04006133333333, "is_reserved": 0, "fusion_lon": 0.0}, {"rental_uris": {"ios": "https://dc.lft.to/lastmile_qr_scan", "android": "https://dc.lft.to/lastmile_qr_scan"}, "fusion_lat": 0.0, "name": "c3790f34bce5cc0d5544a91448fceaf2", "bike_id": "c3790f34bce5cc0d5544a91448fceaf2", "is_disabled": 0, "type": "electric_scooter", "lat": 38.91105983333333, "lon": -77.003614, "is_reserved": 0, "fusion_lon": 0.0}, {"rental_uris": {"ios": "https://dc.lft.to/lastmile_qr_scan", "android": "https://dc.lft.to/lastmile_qr_scan"}, "fusion_lat": 0.0, "name": "d86d4a8d81463f3b5a023e0719fb21ca", "bike_id": "d86d4a8d81463f3b5a023e0719fb21ca", "is_disabled": 0, "type": "electric_scooter", "lat": 38.922415666666666, "lon": -77.034198, "is_reserved": 0, "fusion_lon": 0.0}, {"rental_uris": {"ios": "https://dc.lft.to/lastmile_qr_scan", "android": "https://dc.lft.to/lastmile_qr_scan"}, "fusion_lat": 0.0, "name": "900c8b0c161e77a908e678e1a66cb466", "bike_id": "900c8b0c161e77a908e678e1a66cb466", "is_disabled": 0, "type": "electric_bike", "lat": 38.9226205, "lon": -76.98154133333334, "is_reserved": 0, "fusion_lon": 0.0}, {"rental_uris": {"ios": "https://dc.lft.to/lastmile_qr_scan", "android": "https://dc.lft.to/lastmile_qr_scan"}, "fusion_lat": 0.0, "name": "8ca23804c58a42d43c55545eecb7da14", "bike_id": "8ca23804c58a42d43c55545eecb7da14", "is_disabled": 0, "type": "electric_scooter", "lat": 38.9069555, "lon": -77.02974633333334, "is_reserved": 0, "fusion_lon": 0.0}, {"rental_uris": {"ios": "https://dc.lft.to/lastmile_qr_scan", "android": "https://dc.lft.to/lastmile_qr_scan"}, "fusion_lat": 0.0, "name": "533444c0d6e27874a5dc451e1e0ad9c6", "bike_id": "533444c0d6e27874a5dc451e1e0ad9c6", "is_disabled": 0, "type": "electric_scooter", "lat": 38.92144416666667, "lon": -77.03504233333334, "is_reserved": 0, "fusion_lon": 0.0}, {"rental_uris": {"ios": "https://dc.lft.to/lastmile_qr_scan", "android": "https://dc.lft.to/lastmile_qr_scan"}, "fusion_lat": 0.0, "name": "251295cdd227499bcf7cc1d333d20e13", "bike_id": "251295cdd227499bcf7cc1d333d20e13", "is_disabled": 0, "type": "electric_scooter", "lat": 38.912210333333334, "lon": -77.0317765, "is_reserved": 0, "fusion_lon": 0.0}, {"rental_uris": {"ios": "https://dc.lft.to/lastmile_qr_scan", "android": "https://dc.lft.to/lastmile_qr_scan"}, "fusion_lat": 0.0, "name": "a6b4344e1db698bb15e6dddc976f0812", "bike_id": "a6b4344e1db698bb15e6dddc976f0812", "is_disabled": 0, "type": "electric_scooter", "lat": 38.943842, "lon": -77.07708883333333, "is_reserved": 0, "fusion_lon": 0.0}, {"rental_uris": {"ios": "https://dc.lft.to/lastmile_qr_scan", "android": "https://dc.lft.to/lastmile_qr_scan"}, "fusion_lat": 0.0, "name": "31828a55138fec7780051f889f5d679f", "bike_id": "31828a55138fec7780051f889f5d679f", "is_disabled": 0, "type": "electric_scooter", "lat": 38.9035345, "lon": -77.03898666666667, "is_reserved": 0, "fusion_lon": 0.0}, {"rental_uris": {"ios": "https://dc.lft.to/lastmile_qr_scan", "android": "https://dc.lft.to/lastmile_qr_scan"}, "fusion_lat": 0.0, "name": "331939b532a1e1bcf240fd5e6f83791f", "bike_id": "331939b532a1e1bcf240fd5e6f83791f", "is_disabled": 0, "type": "electric_scooter", "lat": 38.933143, "lon": -77.0327305, "is_reserved": 0, "fusion_lon": 0.0}, {"rental_uris": {"ios": "https://dc.lft.to/lastmile_qr_scan", "android": "https://dc.lft.to/lastmile_qr_scan"}, "fusion_lat": 0.0, "name": "cabf7dd563dcb1497a03ada125b04b9f", "bike_id": "cabf7dd563dcb1497a03ada125b04b9f", "is_disabled": 0, "type": "electric_bike", "lat": 39.029291666666666, "lon": -77.04927016666667, "is_reserved": 0, "fusion_lon": 0.0}, {"rental_uris": {"ios": "https://dc.lft.to/lastmile_qr_scan", "android": "https://dc.lft.to/lastmile_qr_scan"}, "fusion_lat": 0.0, "name": "6c97a86893cd8e91e5695958db19e90e", "bike_id": "6c97a86893cd8e91e5695958db19e90e", "is_disabled": 0, "type": "electric_scooter", "lat": 38.9212555, "lon": -77.04434633333334, "is_reserved": 0, "fusion_lon": 0.0}, {"rental_uris": {"ios": "https://dc.lft.to/lastmile_qr_scan", "android": "https://dc.lft.to/lastmile_qr_scan"}, "fusion_lat": 0.0, "name": "66f56953a4dcb1c85da481e0f421bdf2", "bike_id": "66f56953a4dcb1c85da481e0f421bdf2", "is_disabled": 0, "type": "electric_scooter", "lat": 38.904163, "lon": -76.9949215, "is_reserved": 0, "fusion_lon": 0.0}, {"rental_uris": {"ios": "https://dc.lft.to/lastmile_qr_scan", "android": "https://dc.lft.to/lastmile_qr_scan"}, "fusion_lat": 0.0, "name": "93395583458dacdad45cb115c260f262", "bike_id": "93395583458dacdad45cb115c260f262", "is_disabled": 0, "type": "electric_scooter", "lat": 38.9025705, "lon": -77.02809883333333, "is_reserved": 0, "fusion_lon": 0.0}, {"rental_uris": {"ios": "https://dc.lft.to/lastmile_qr_scan", "android": "https://dc.lft.to/lastmile_qr_scan"}, "fusion_lat": 0.0, "name": "c8482513370c8eaff49f8999fa8064c3", "bike_id": "c8482513370c8eaff49f8999fa8064c3", "is_disabled": 0, "type": "electric_scooter", "lat": 38.874091, "lon": -77.00063216666666, "is_reserved": 0, "fusion_lon": 0.0}, {"rental_uris": {"ios": "https://dc.lft.to/lastmile_qr_scan", "android": "https://dc.lft.to/lastmile_qr_scan"}, "fusion_lat": 0.0, "name": "ba7413be1dd9ca28c6ada1f29ba8f949", "bike_id": "ba7413be1dd9ca28c6ada1f29ba8f949", "is_disabled": 0, "type": "electric_scooter", "lat": 38.91428783333333, "lon": -77.02818566666667, "is_reserved": 0, "fusion_lon": 0.0}, {"rental_uris": {"ios": "https://dc.lft.to/lastmile_qr_scan", "android": "https://dc.lft.to/lastmile_qr_scan"}, "fusion_lat": 0.0, "name": "ca72dab2beb6eb6b55568f6c2c8458da", "bike_id": "ca72dab2beb6eb6b55568f6c2c8458da", "is_disabled": 0, "type": "electric_scooter", "lat": 38.916898833333335, "lon": -77.02599, "is_reserved": 0, "fusion_lon": 0.0}, {"rental_uris": {"ios": "https://dc.lft.to/lastmile_qr_scan", "android": "https://dc.lft.to/lastmile_qr_scan"}, "fusion_lat": 0.0, "name": "1348b8af1c199281df0de106c2a1c52f", "bike_id": "1348b8af1c199281df0de106c2a1c52f", "is_disabled": 0, "type": "electric_scooter", "lat": 38.866967, "lon": -76.98085966666666, "is_reserved": 0, "fusion_lon": 0.0}, {"rental_uris": {"ios": "https://dc.lft.to/lastmile_qr_scan", "android": "https://dc.lft.to/lastmile_qr_scan"}, "fusion_lat": 0.0, "name": "a8b0d68e55117f607de76754e1a87b14", "bike_id": "a8b0d68e55117f607de76754e1a87b14", "is_disabled": 0, "type": "electric_scooter", "lat": 38.842840333333335, "lon": -77.00149616666667, "is_reserved": 0, "fusion_lon": 0.0}, {"rental_uris": {"ios": "https://dc.lft.to/lastmile_qr_scan", "android": "https://dc.lft.to/lastmile_qr_scan"}, "fusion_lat": 0.0, "name": "ac11bc70ed6894f2e9d1f989bf0e8daa", "bike_id": "ac11bc70ed6894f2e9d1f989bf0e8daa", "is_disabled": 0, "type": "electric_scooter", "lat": 38.881283333333336, "lon": -77.01662066666667, "is_reserved": 0, "fusion_lon": 0.0}, {"rental_uris": {"ios": "https://dc.lft.to/lastmile_qr_scan", "android": "https://dc.lft.to/lastmile_qr_scan"}, "fusion_lat": 0.0, "name": "eef558bf037d4423972d601985f058df", "bike_id": "eef558bf037d4423972d601985f058df", "is_disabled": 0, "type": "electric_scooter", "lat": 38.9257845, "lon": -77.0256815, "is_reserved": 0, "fusion_lon": 0.0}, {"rental_uris": {"ios": "https://dc.lft.to/lastmile_qr_scan", "android": "https://dc.lft.to/lastmile_qr_scan"}, "fusion_lat": 0.0, "name": "c02f313fb8acf7c825a7d27bceff816d", "bike_id": "c02f313fb8acf7c825a7d27bceff816d", "is_disabled": 0, "type": "electric_scooter", "lat": 38.926963, "lon": -77.05234433333334, "is_reserved": 0, "fusion_lon": 0.0}, {"rental_uris": {"ios": "https://dc.lft.to/lastmile_qr_scan", "android": "https://dc.lft.to/lastmile_qr_scan"}, "fusion_lat": 0.0, "name": "ee7b12a8bb41ea50840213688aa31d58", "bike_id": "ee7b12a8bb41ea50840213688aa31d58", "is_disabled": 0, "type": "electric_scooter", "lat": 38.870650499999996, "lon": -76.96851133333334, "is_reserved": 0, "fusion_lon": 0.0}, {"rental_uris": {"ios": "https://dc.lft.to/lastmile_qr_scan", "android": "https://dc.lft.to/lastmile_qr_scan"}, "fusion_lat": 0.0, "name": "1e24ef3b52329c83ca5c52c16361a66f", "bike_id": "1e24ef3b52329c83ca5c52c16361a66f", "is_disabled": 0, "type": "electric_scooter", "lat": 38.9086685, "lon": -77.04617233333333, "is_reserved": 0, "fusion_lon": 0.0}, {"rental_uris": {"ios": "https://dc.lft.to/lastmile_qr_scan", "android": "https://dc.lft.to/lastmile_qr_scan"}, "fusion_lat": 0.0, "name": "0966aafd4570865ac5634807986fedd3", "bike_id": "0966aafd4570865ac5634807986fedd3", "is_disabled": 0, "type": "electric_scooter", "lat": 38.86363266666667, "lon": -76.99057766666667, "is_reserved": 0, "fusion_lon": 0.0}, {"rental_uris": {"ios": "https://dc.lft.to/lastmile_qr_scan", "android": "https://dc.lft.to/lastmile_qr_scan"}, "fusion_lat": 0.0, "name": "ca65ba80b43335211df6148f24690ff1", "bike_id": "ca65ba80b43335211df6148f24690ff1", "is_disabled": 0, "type": "electric_scooter", "lat": 38.86241316666667, "lon": -76.99491683333333, "is_reserved": 0, "fusion_lon": 0.0}, {"rental_uris": {"ios": "https://dc.lft.to/lastmile_qr_scan", "android": "https://dc.lft.to/lastmile_qr_scan"}, "fusion_lat": 0.0, "name": "92ead9a4f574b7df349858d47b3a6774", "bike_id": "92ead9a4f574b7df349858d47b3a6774", "is_disabled": 0, "type": "electric_scooter", "lat": 38.9168085, "lon": -77.02977233333333, "is_reserved": 0, "fusion_lon": 0.0}, {"rental_uris": {"ios": "https://dc.lft.to/lastmile_qr_scan", "android": "https://dc.lft.to/lastmile_qr_scan"}, "fusion_lat": 0.0, "name": "e62703e65f232ff4c766990989843d21", "bike_id": "e62703e65f232ff4c766990989843d21", "is_disabled": 0, "type": "electric_scooter", "lat": 38.898245833333334, "lon": -77.03323166666667, "is_reserved": 0, "fusion_lon": 0.0}, {"rental_uris": {"ios": "https://dc.lft.to/lastmile_qr_scan", "android": "https://dc.lft.to/lastmile_qr_scan"}, "fusion_lat": 0.0, "name": "48909cfef2d0c57f03aee925b396aa50", "bike_id": "48909cfef2d0c57f03aee925b396aa50", "is_disabled": 0, "type": "electric_scooter", "lat": 38.89034133333333, "lon": -76.9514315, "is_reserved": 0, "fusion_lon": 0.0}, {"rental_uris": {"ios": "https://dc.lft.to/lastmile_qr_scan", "android": "https://dc.lft.to/lastmile_qr_scan"}, "fusion_lat": 0.0, "name": "78df2311b279002e8c012848c1e03dfd", "bike_id": "78df2311b279002e8c012848c1e03dfd", "is_disabled": 0, "type": "electric_scooter", "lat": 38.9228155, "lon": -77.036604, "is_reserved": 0, "fusion_lon": 0.0}, {"rental_uris": {"ios": "https://dc.lft.to/lastmile_qr_scan", "android": "https://dc.lft.to/lastmile_qr_scan"}, "fusion_lat": 0.0, "name": "3228fd84a29887a9ce9b89b586570d15", "bike_id": "3228fd84a29887a9ce9b89b586570d15", "is_disabled": 0, "type": "electric_scooter", "lat": 38.91915933333333, "lon": -77.025102, "is_reserved": 0, "fusion_lon": 0.0}, {"rental_uris": {"ios": "https://dc.lft.to/lastmile_qr_scan", "android": "https://dc.lft.to/lastmile_qr_scan"}, "fusion_lat": 0.0, "name": "432adefb2fdf2ababf5a74b3e4fbb58d", "bike_id": "432adefb2fdf2ababf5a74b3e4fbb58d", "is_disabled": 0, "type": "electric_scooter", "lat": 38.902398, "lon": -77.00203633333334, "is_reserved": 0, "fusion_lon": 0.0}, {"rental_uris": {"ios": "https://dc.lft.to/lastmile_qr_scan", "android": "https://dc.lft.to/lastmile_qr_scan"}, "fusion_lat": 0.0, "name": "7c22986000d196211bd72ccbb31c3bfc", "bike_id": "7c22986000d196211bd72ccbb31c3bfc", "is_disabled": 0, "type": "electric_bike", "lat": 38.99814333333333, "lon": -76.8837285, "is_reserved": 0, "fusion_lon": 0.0}, {"rental_uris": {"ios": "https://dc.lft.to/lastmile_qr_scan", "android": "https://dc.lft.to/lastmile_qr_scan"}, "fusion_lat": 0.0, "name": "98736769855006b4229f0d448deabbfd", "bike_id": "98736769855006b4229f0d448deabbfd", "is_disabled": 0, "type": "electric_scooter", "lat": 38.929142666666664, "lon": -77.03758066666667, "is_reserved": 0, "fusion_lon": 0.0}, {"rental_uris": {"ios": "https://dc.lft.to/lastmile_qr_scan", "android": "https://dc.lft.to/lastmile_qr_scan"}, "fusion_lat": 0.0, "name": "7b1605ed73089d2d5b0fbb9d0d01835d", "bike_id": "7b1605ed73089d2d5b0fbb9d0d01835d", "is_disabled": 0, "type": "electric_scooter", "lat": 38.9388935, "lon": -77.02486716666667, "is_reserved": 0, "fusion_lon": 0.0}, {"rental_uris": {"ios": "https://dc.lft.to/lastmile_qr_scan", "android": "https://dc.lft.to/lastmile_qr_scan"}, "fusion_lat": 0.0, "name": "1e87942ec701014c877493158eb78625", "bike_id": "1e87942ec701014c877493158eb78625", "is_disabled": 0, "type": "electric_scooter", "lat": 38.90111266666667, "lon": -77.0337845, "is_reserved": 0, "fusion_lon": 0.0}, {"rental_uris": {"ios": "https://dc.lft.to/lastmile_qr_scan", "android": "https://dc.lft.to/lastmile_qr_scan"}, "fusion_lat": 0.0, "name": "8d237846526d3d7032d96ad4f6b5fdd1", "bike_id": "8d237846526d3d7032d96ad4f6b5fdd1", "is_disabled": 0, "type": "electric_scooter", "lat": 38.919531, "lon": -77.023699, "is_reserved": 0, "fusion_lon": 0.0}, {"rental_uris": {"ios": "https://dc.lft.to/lastmile_qr_scan", "android": "https://dc.lft.to/lastmile_qr_scan"}, "fusion_lat": 0.0, "name": "0419391b97e743aa73de340bd07f9c76", "bike_id": "0419391b97e743aa73de340bd07f9c76", "is_disabled": 0, "type": "electric_bike", "lat": 38.910584166666666, "lon": -77.009064, "is_reserved": 0, "fusion_lon": 0.0}, {"rental_uris": {"ios": "https://dc.lft.to/lastmile_qr_scan", "android": "https://dc.lft.to/lastmile_qr_scan"}, "fusion_lat": 0.0, "name": "c92ba5aa1ca5ad83f10d76d950b83de0", "bike_id": "c92ba5aa1ca5ad83f10d76d950b83de0", "is_disabled": 0, "type": "electric_scooter", "lat": 38.933654, "lon": -77.05715966666666, "is_reserved": 0, "fusion_lon": 0.0}, {"rental_uris": {"ios": "https://dc.lft.to/lastmile_qr_scan", "android": "https://dc.lft.to/lastmile_qr_scan"}, "fusion_lat": 0.0, "name": "f12469016998c0cc524799d2f3f5ca16", "bike_id": "f12469016998c0cc524799d2f3f5ca16", "is_disabled": 0, "type": "electric_scooter", "lat": 38.895627166666664, "lon": -77.02985983333333, "is_reserved": 0, "fusion_lon": 0.0}, {"rental_uris": {"ios": "https://dc.lft.to/lastmile_qr_scan", "android": "https://dc.lft.to/lastmile_qr_scan"}, "fusion_lat": 0.0, "name": "6af8fcd7b035109608b67a63a6a03ebb", "bike_id": "6af8fcd7b035109608b67a63a6a03ebb", "is_disabled": 0, "type": "electric_bike", "lat": 38.9491475, "lon": -76.97704566666667, "is_reserved": 0, "fusion_lon": 0.0}, {"rental_uris": {"ios": "https://dc.lft.to/lastmile_qr_scan", "android": "https://dc.lft.to/lastmile_qr_scan"}, "fusion_lat": 0.0, "name": "635f28722d0309845bac998adf226921", "bike_id": "635f28722d0309845bac998adf226921", "is_disabled": 0, "type": "electric_scooter", "lat": 38.929669833333335, "lon": -77.03766133333333, "is_reserved": 0, "fusion_lon": 0.0}, {"rental_uris": {"ios": "https://dc.lft.to/lastmile_qr_scan", "android": "https://dc.lft.to/lastmile_qr_scan"}, "fusion_lat": 0.0, "name": "575802f64dd177cdf816e15c02978ab0", "bike_id": "575802f64dd177cdf816e15c02978ab0", "is_disabled": 0, "type": "electric_scooter", "lat": 38.92747266666667, "lon": -77.03288816666667, "is_reserved": 0, "fusion_lon": 0.0}, {"rental_uris": {"ios": "https://dc.lft.to/lastmile_qr_scan", "android": "https://dc.lft.to/lastmile_qr_scan"}, "fusion_lat": 0.0, "name": "0500d450f88129509ccdfd544a9c8c38", "bike_id": "0500d450f88129509ccdfd544a9c8c38", "is_disabled": 0, "type": "electric_scooter", "lat": 38.919871666666666, "lon": -77.0329, "is_reserved": 0, "fusion_lon": 0.0}, {"rental_uris": {"ios": "https://dc.lft.to/lastmile_qr_scan", "android": "https://dc.lft.to/lastmile_qr_scan"}, "fusion_lat": 0.0, "name": "231cdd64c1d71f862da5740240631f79", "bike_id": "231cdd64c1d71f862da5740240631f79", "is_disabled": 0, "type": "electric_bike", "lat": 38.962104333333336, "lon": -77.02627783333334, "is_reserved": 0, "fusion_lon": 0.0}, {"rental_uris": {"ios": "https://dc.lft.to/lastmile_qr_scan", "android": "https://dc.lft.to/lastmile_qr_scan"}, "fusion_lat": 0.0, "name": "65b0e9fe666983667406138ec6a57120", "bike_id": "65b0e9fe666983667406138ec6a57120", "is_disabled": 0, "type": "electric_scooter", "lat": 38.871831666666665, "lon": -77.006101, "is_reserved": 0, "fusion_lon": 0.0}, {"rental_uris": {"ios": "https://dc.lft.to/lastmile_qr_scan", "android": "https://dc.lft.to/lastmile_qr_scan"}, "fusion_lat": 0.0, "name": "ce0eee44a9daf259ac48ed3c607552b8", "bike_id": "ce0eee44a9daf259ac48ed3c607552b8", "is_disabled": 0, "type": "electric_scooter", "lat": 38.910128666666665, "lon": -77.06919983333333, "is_reserved": 0, "fusion_lon": 0.0}, {"rental_uris": {"ios": "https://dc.lft.to/lastmile_qr_scan", "android": "https://dc.lft.to/lastmile_qr_scan"}, "fusion_lat": 0.0, "name": "21462b8d8a2d60cfa2aee418c8d6f1fb", "bike_id": "21462b8d8a2d60cfa2aee418c8d6f1fb", "is_disabled": 0, "type": "electric_bike", "lat": 38.899610333333335, "lon": -76.9867105, "is_reserved": 0, "fusion_lon": 0.0}, {"rental_uris": {"ios": "https://dc.lft.to/lastmile_qr_scan", "android": "https://dc.lft.to/lastmile_qr_scan"}, "fusion_lat": 0.0, "name": "9aac2ce8c78c49d570b0b4a236b94208", "bike_id": "9aac2ce8c78c49d570b0b4a236b94208", "is_disabled": 0, "type": "electric_scooter", "lat": 38.910549333333336, "lon": -77.04416816666667, "is_reserved": 0, "fusion_lon": 0.0}, {"rental_uris": {"ios": "https://dc.lft.to/lastmile_qr_scan", "android": "https://dc.lft.to/lastmile_qr_scan"}, "fusion_lat": 0.0, "name": "5e564a52aa79d1aa8ac352a2973fc330", "bike_id": "5e564a52aa79d1aa8ac352a2973fc330", "is_disabled": 0, "type": "electric_scooter", "lat": 38.916839, "lon": -77.03210916666667, "is_reserved": 0, "fusion_lon": 0.0}, {"rental_uris": {"ios": "https://dc.lft.to/lastmile_qr_scan", "android": "https://dc.lft.to/lastmile_qr_scan"}, "fusion_lat": 0.0, "name": "d9ac7cc54de90f2728c1080ffd78a800", "bike_id": "d9ac7cc54de90f2728c1080ffd78a800", "is_disabled": 0, "type": "electric_scooter", "lat": 38.9045625, "lon": -77.048653, "is_reserved": 0, "fusion_lon": 0.0}, {"rental_uris": {"ios": "https://dc.lft.to/lastmile_qr_scan", "android": "https://dc.lft.to/lastmile_qr_scan"}, "fusion_lat": 0.0, "name": "7ea086dff1e8933956d8dccdf1877ab4", "bike_id": "7ea086dff1e8933956d8dccdf1877ab4", "is_disabled": 0, "type": "electric_scooter", "lat": 38.92314433333333, "lon": -77.03412133333333, "is_reserved": 0, "fusion_lon": 0.0}, {"rental_uris": {"ios": "https://dc.lft.to/lastmile_qr_scan", "android": "https://dc.lft.to/lastmile_qr_scan"}, "fusion_lat": 0.0, "name": "428b0eb52eb4ead20e9b0877e87c3b8d", "bike_id": "428b0eb52eb4ead20e9b0877e87c3b8d", "is_disabled": 0, "type": "electric_scooter", "lat": 38.907511, "lon": -76.98331283333333, "is_reserved": 0, "fusion_lon": 0.0}, {"rental_uris": {"ios": "https://dc.lft.to/lastmile_qr_scan", "android": "https://dc.lft.to/lastmile_qr_scan"}, "fusion_lat": 0.0, "name": "cc3f16371e093391265fa3e26324b0f8", "bike_id": "cc3f16371e093391265fa3e26324b0f8", "is_disabled": 0, "type": "electric_scooter", "lat": 38.90311883333333, "lon": -77.039458, "is_reserved": 0, "fusion_lon": 0.0}, {"rental_uris": {"ios": "https://dc.lft.to/lastmile_qr_scan", "android": "https://dc.lft.to/lastmile_qr_scan"}, "fusion_lat": 0.0, "name": "5841fb031f9b46768c2b18e84c91ffdb", "bike_id": "5841fb031f9b46768c2b18e84c91ffdb", "is_disabled": 0, "type": "electric_scooter", "lat": 38.92152083333333, "lon": -77.03514566666666, "is_reserved": 0, "fusion_lon": 0.0}, {"rental_uris": {"ios": "https://dc.lft.to/lastmile_qr_scan", "android": "https://dc.lft.to/lastmile_qr_scan"}, "fusion_lat": 0.0, "name": "e2efa178ccf636b66b97288da410f13e", "bike_id": "e2efa178ccf636b66b97288da410f13e", "is_disabled": 0, "type": "electric_bike", "lat": 38.9548375, "lon": -76.98870833333334, "is_reserved": 0, "fusion_lon": 0.0}, {"rental_uris": {"ios": "https://dc.lft.to/lastmile_qr_scan", "android": "https://dc.lft.to/lastmile_qr_scan"}, "fusion_lat": 0.0, "name": "308f1565272720bf43ffb3d0b114a2c6", "bike_id": "308f1565272720bf43ffb3d0b114a2c6", "is_disabled": 0, "type": "electric_bike", "lat": 38.87064916666667, "lon": -76.97829266666666, "is_reserved": 0, "fusion_lon": 0.0}, {"rental_uris": {"ios": "https://dc.lft.to/lastmile_qr_scan", "android": "https://dc.lft.to/lastmile_qr_scan"}, "fusion_lat": 0.0, "name": "6291c8d46cec8fbd11a48546dacc3228", "bike_id": "6291c8d46cec8fbd11a48546dacc3228", "is_disabled": 0, "type": "electric_scooter", "lat": 38.90278283333333, "lon": -77.04507383333333, "is_reserved": 0, "fusion_lon": 0.0}, {"rental_uris": {"ios": "https://dc.lft.to/lastmile_qr_scan", "android": "https://dc.lft.to/lastmile_qr_scan"}, "fusion_lat": 0.0, "name": "81a578a1f690a0c7d2c44f85280345c0", "bike_id": "81a578a1f690a0c7d2c44f85280345c0", "is_disabled": 0, "type": "electric_bike", "lat": 38.89404716666667, "lon": -76.947967, "is_reserved": 0, "fusion_lon": 0.0}, {"rental_uris": {"ios": "https://dc.lft.to/lastmile_qr_scan", "android": "https://dc.lft.to/lastmile_qr_scan"}, "fusion_lat": 0.0, "name": "cc93a67ccc3f775abdddab0a2d136541", "bike_id": "cc93a67ccc3f775abdddab0a2d136541", "is_disabled": 0, "type": "electric_scooter", "lat": 38.8767395, "lon": -77.01799033333333, "is_reserved": 0, "fusion_lon": 0.0}, {"rental_uris": {"ios": "https://dc.lft.to/lastmile_qr_scan", "android": "https://dc.lft.to/lastmile_qr_scan"}, "fusion_lat": 0.0, "name": "bee8012ab8f82ae6d43eb1153e10f42d", "bike_id": "bee8012ab8f82ae6d43eb1153e10f42d", "is_disabled": 0, "type": "electric_scooter", "lat": 38.918599666666665, "lon": -77.04037966666667, "is_reserved": 0, "fusion_lon": 0.0}, {"rental_uris": {"ios": "https://dc.lft.to/lastmile_qr_scan", "android": "https://dc.lft.to/lastmile_qr_scan"}, "fusion_lat": 0.0, "name": "7927f6bc3d4bb78b501e1786e25ec133", "bike_id": "7927f6bc3d4bb78b501e1786e25ec133", "is_disabled": 0, "type": "electric_scooter", "lat": 38.906675, "lon": -77.03673166666667, "is_reserved": 0, "fusion_lon": 0.0}, {"rental_uris": {"ios": "https://dc.lft.to/lastmile_qr_scan", "android": "https://dc.lft.to/lastmile_qr_scan"}, "fusion_lat": 0.0, "name": "d17e7e3ce033801f61e1ef69a62f9e1f", "bike_id": "d17e7e3ce033801f61e1ef69a62f9e1f", "is_disabled": 0, "type": "electric_scooter", "lat": 38.916565, "lon": -77.02184833333334, "is_reserved": 0, "fusion_lon": 0.0}, {"rental_uris": {"ios": "https://dc.lft.to/lastmile_qr_scan", "android": "https://dc.lft.to/lastmile_qr_scan"}, "fusion_lat": 0.0, "name": "321f8f21f4c986074f9b90f3d60b2fe2", "bike_id": "321f8f21f4c986074f9b90f3d60b2fe2", "is_disabled": 0, "type": "electric_scooter", "lat": 38.900679833333335, "lon": -77.00201216666666, "is_reserved": 0, "fusion_lon": 0.0}, {"rental_uris": {"ios": "https://dc.lft.to/lastmile_qr_scan", "android": "https://dc.lft.to/lastmile_qr_scan"}, "fusion_lat": 0.0, "name": "47b01bd9c86264a8b7ce0fbc64dd7d9f", "bike_id": "47b01bd9c86264a8b7ce0fbc64dd7d9f", "is_disabled": 0, "type": "electric_scooter", "lat": 38.93437933333333, "lon": -77.03290733333333, "is_reserved": 0, "fusion_lon": 0.0}, {"rental_uris": {"ios": "https://dc.lft.to/lastmile_qr_scan", "android": "https://dc.lft.to/lastmile_qr_scan"}, "fusion_lat": 0.0, "name": "551f2936b02be5ac2b3742c1597adcd6", "bike_id": "551f2936b02be5ac2b3742c1597adcd6", "is_disabled": 0, "type": "electric_scooter", "lat": 38.861155833333335, "lon": -76.98373266666667, "is_reserved": 0, "fusion_lon": 0.0}, {"rental_uris": {"ios": "https://dc.lft.to/lastmile_qr_scan", "android": "https://dc.lft.to/lastmile_qr_scan"}, "fusion_lat": 0.0, "name": "10b59d40c7a4907aa93f83a507653781", "bike_id": "10b59d40c7a4907aa93f83a507653781", "is_disabled": 0, "type": "electric_scooter", "lat": 38.93969666666667, "lon": -77.03255016666667, "is_reserved": 0, "fusion_lon": 0.0}, {"rental_uris": {"ios": "https://dc.lft.to/lastmile_qr_scan", "android": "https://dc.lft.to/lastmile_qr_scan"},