{"data": {"bikes": [{"rental_uris": {"ios": "https://dc.lft.to/lastmile_qr_scan", "android": "https://dc.lft.to/lastmile_qr_scan"}, "type": "electric_scooter", "name": "a5b558596ffe2367977b09dfff22b5fc", "is_reserved": 0, "lon": -77.03976666666667, "is_disabled": 0, "fusion_lat": 0.0, "lat": 38.93152666666667, "bike_id": "a5b558596ffe2367977b09dfff22b5fc", "fusion_lon": 0.0}, {"rental_uris": {"ios": "https://dc.lft.to/lastmile_qr_scan", "android": "https://dc.lft.to/lastmile_qr_scan"}, "type": "electric_scooter", "name": "745c2c1251dce8478c84f7670cfe122e", "is_reserved": 0, "lon": -76.9959005, "is_disabled": 0, "fusion_lat": 0.0, "lat": 38.909418333333335, "bike_id": "745c2c1251dce8478c84f7670cfe122e", "fusion_lon": 0.0}, {"rental_uris": {"ios": "https://dc.lft.to/lastmile_qr_scan", "android": "https://dc.lft.to/lastmile_qr_scan"}, "type": "electric_scooter", "name": "febbd481af3ac54560ea95ff7dccc6c8", "is_reserved": 0, "lon": -77.0238565, "is_disabled": 0, "fusion_lat": 0.0, "lat": 38.908484333333334, "bike_id": "febbd481af3ac54560ea95ff7dccc6c8", "fusion_lon": 0.0}, {"rental_uris": {"ios": "https://dc.lft.to/lastmile_qr_scan", "android": "https://dc.lft.to/lastmile_qr_scan"}, "type": "electric_bike", "name": "7cfb4fd339f84d3dd6390025a503f416", "is_reserved": 0, "lon": -77.06946616666667, "is_disabled": 0, "fusion_lat": 0.0, "lat": 38.83625683333333, "bike_id": "7cfb4fd339f84d3dd6390025a503f416", "fusion_lon": 0.0}, {"rental_uris": {"ios": "https://dc.lft.to/lastmile_qr_scan", "android": "https://dc.lft.to/lastmile_qr_scan"}, "type": "electric_scooter", "name": "cfcb4e46a9577cdacf1dde73b14b1a61", "is_reserved": 0, "lon": -77.04899666666667, "is_disabled": 0, "fusion_lat": 0.0, "lat": 38.90086483333333, "bike_id": "cfcb4e46a9577cdacf1dde73b14b1a61", "fusion_lon": 0.0}, {"rental_uris": {"ios": "https://dc.lft.to/lastmile_qr_scan", "android": "https://dc.lft.to/lastmile_qr_scan"}, "type": "electric_bike", "name": "bf1de8129680e801a8d565cded89496c", "is_reserved": 0, "lon": -76.99348933333333, "is_disabled": 0, "fusion_lat": 0.0, "lat": 38.8450675, "bike_id": "bf1de8129680e801a8d565cded89496c", "fusion_lon": 0.0}, {"rental_uris": {"ios": "https://dc.lft.to/lastmile_qr_scan", "android": "https://dc.lft.to/lastmile_qr_scan"}, "type": "electric_scooter", "name": "9e10fd7a37884aa5f673765438614389", "is_reserved": 0, "lon": -77.0684335, "is_disabled": 0, "fusion_lat": 0.0, "lat": 38.9040135, "bike_id": "9e10fd7a37884aa5f673765438614389", "fusion_lon": 0.0}, {"rental_uris": {"ios": "https://dc.lft.to/lastmile_qr_scan", "android": "https://dc.lft.to/lastmile_qr_scan"}, "type": "electric_scooter", "name": "61c6fb92ad3c49d25f74cb271a4dd06a", "is_reserved": 0, "lon": -77.06087016666666, "is_disabled": 0, "fusion_lat": 0.0, "lat": 38.939963166666665, "bike_id": "61c6fb92ad3c49d25f74cb271a4dd06a", "fusion_lon": 0.0}, {"rental_uris": {"ios": "https://dc.lft.to/lastmile_qr_scan", "android": "https://dc.lft.to/lastmile_qr_scan"}, "type": "electric_scooter", "name": "032569740cfba1cdaae4664cc2ed63f6", "is_reserved": 0, "lon": -76.97327066666666, "is_disabled": 0, "fusion_lat": 0.0, "lat": 38.90409416666667, "bike_id": "032569740cfba1cdaae4664cc2ed63f6", "fusion_lon": 0.0}, {"rental_uris": {"ios": "https://dc.lft.to/lastmile_qr_scan", "android": "https://dc.lft.to/lastmile_qr_scan"}, "type": "electric_scooter", "name": "963d8397ff55a7de826fc85f552476f7", "is_reserved": 0, "lon": -77.01517933333334, "is_disabled": 0, "fusion_lat": 0.0, "lat": 38.88494983333333, "bike_id": "963d8397ff55a7de826fc85f552476f7", "fusion_lon": 0.0}, {"rental_uris": {"ios": "https://dc.lft.to/lastmile_qr_scan", "android": "https://dc.lft.to/lastmile_qr_scan"}, "type": "electric_scooter", "name": "878937800db1458149da55d3e04613df", "is_reserved": 0, "lon": -77.04819966666666, "is_disabled": 0, "fusion_lat": 0.0, "lat": 38.914890166666666, "bike_id": "878937800db1458149da55d3e04613df", "fusion_lon": 0.0}, {"rental_uris": {"ios": "https://dc.lft.to/lastmile_qr_scan", "android": "https://dc.lft.to/lastmile_qr_scan"}, "type": "electric_scooter", "name": "f0ac7425a7b221ea9a0523260691826b", "is_reserved": 0, "lon": -77.01146816666666, "is_disabled": 0, "fusion_lat": 0.0, "lat": 38.909616166666666, "bike_id": "f0ac7425a7b221ea9a0523260691826b", "fusion_lon": 0.0}, {"rental_uris": {"ios": "https://dc.lft.to/lastmile_qr_scan", "android": "https://dc.lft.to/lastmile_qr_scan"}, "type": "electric_scooter", "name": "51406d2c2050d5f7dcc28869b151d271", "is_reserved": 0, "lon": -77.02693333333333, "is_disabled": 0, "fusion_lat": 0.0, "lat": 38.905365333333336, "bike_id": "51406d2c2050d5f7dcc28869b151d271", "fusion_lon": 0.0}, {"rental_uris": {"ios": "https://dc.lft.to/lastmile_qr_scan", "android": "https://dc.lft.to/lastmile_qr_scan"}, "type": "electric_scooter", "name": "61f10b23320de82c6c9f8722a6d2b01a", "is_reserved": 0, "lon": -77.05292466666667, "is_disabled": 0, "fusion_lat": 0.0, "lat": 38.902636333333334, "bike_id": "61f10b23320de82c6c9f8722a6d2b01a", "fusion_lon": 0.0}, {"rental_uris": {"ios": "https://dc.lft.to/lastmile_qr_scan", "android": "https://dc.lft.to/lastmile_qr_scan"}, "type": "electric_scooter", "name": "d798a40d6fa9e514c214a03483bea85b", "is_reserved": 0, "lon": -77.0057635, "is_disabled": 0, "fusion_lat": 0.0, "lat": 38.879030166666666, "bike_id": "d798a40d6fa9e514c214a03483bea85b", "fusion_lon": 0.0}, {"rental_uris": {"ios": "https://dc.lft.to/lastmile_qr_scan", "android": "https://dc.lft.to/lastmile_qr_scan"}, "type": "electric_scooter", "name": "f6e74b15af38e3f37391032c6f5eb2d4", "is_reserved": 0, "lon": -77.01445633333333, "is_disabled": 0, "fusion_lat": 0.0, "lat": 38.90232666666667, "bike_id": "f6e74b15af38e3f37391032c6f5eb2d4", "fusion_lon": 0.0}, {"rental_uris": {"ios": "https://dc.lft.to/lastmile_qr_scan", "android": "https://dc.lft.to/lastmile_qr_scan"}, "type": "electric_scooter", "name": "8e298b73da36e9807e46378d230d1815", "is_reserved": 0, "lon": -77.04519216666667, "is_disabled": 0, "fusion_lat": 0.0, "lat": 38.907323833333336, "bike_id": "8e298b73da36e9807e46378d230d1815", "fusion_lon": 0.0}, {"rental_uris": {"ios": "https://dc.lft.to/lastmile_qr_scan", "android": "https://dc.lft.to/lastmile_qr_scan"}, "type": "electric_bike", "name": "e9ab3dad3720f8189fd8fd46f35c036f", "is_reserved": 0, "lon": -76.98282766666667, "is_disabled": 0, "fusion_lat": 0.0, "lat": 38.846743833333335, "bike_id": "e9ab3dad3720f8189fd8fd46f35c036f", "fusion_lon": 0.0}, {"rental_uris": {"ios": "https://dc.lft.to/lastmile_qr_scan", "android": "https://dc.lft.to/lastmile_qr_scan"}, "type": "electric_bike", "name": "fbd0d6ea7c2797523f2f3b5e2c172d3e", "is_reserved": 0, "lon": -77.0202625, "is_disabled": 0, "fusion_lat": 0.0, "lat": 38.965604, "bike_id": "fbd0d6ea7c2797523f2f3b5e2c172d3e", "fusion_lon": 0.0}, {"rental_uris": {"ios": "https://dc.lft.to/lastmile_qr_scan", "android": "https://dc.lft.to/lastmile_qr_scan"}, "type": "electric_scooter", "name": "4e12748b2a461d281192b03e07810cef", "is_reserved": 0, "lon": -77.02881583333334, "is_disabled": 0, "fusion_lat": 0.0, "lat": 38.90362533333333, "bike_id": "4e12748b2a461d281192b03e07810cef", "fusion_lon": 0.0}, {"rental_uris": {"ios": "https://dc.lft.to/lastmile_qr_scan", "android": "https://dc.lft.to/lastmile_qr_scan"}, "type": "electric_bike", "name": "0b36fd2a50f5fe642e079fbfb501c0d8", "is_reserved": 0, "lon": -77.0317985, "is_disabled": 0, "fusion_lat": 0.0, "lat": 38.92099433333333, "bike_id": "0b36fd2a50f5fe642e079fbfb501c0d8", "fusion_lon": 0.0}, {"rental_uris": {"ios": "https://dc.lft.to/lastmile_qr_scan", "android": "https://dc.lft.to/lastmile_qr_scan"}, "type": "electric_scooter", "name": "c5a2f1002f4b9a576f3f36b3ce8da6d3", "is_reserved": 0, "lon": -77.0540775, "is_disabled": 0, "fusion_lat": 0.0, "lat": 38.900738833333335, "bike_id": "c5a2f1002f4b9a576f3f36b3ce8da6d3", "fusion_lon": 0.0}, {"rental_uris": {"ios": "https://dc.lft.to/lastmile_qr_scan", "android": "https://dc.lft.to/lastmile_qr_scan"}, "type": "electric_scooter", "name": "4cdbfb8a992f2017d257ccb019bc9b64", "is_reserved": 0, "lon": -77.00596066666667, "is_disabled": 0, "fusion_lat": 0.0, "lat": 38.875677333333336, "bike_id": "4cdbfb8a992f2017d257ccb019bc9b64", "fusion_lon": 0.0}, {"rental_uris": {"ios": "https://dc.lft.to/lastmile_qr_scan", "android": "https://dc.lft.to/lastmile_qr_scan"}, "type": "electric_scooter", "name": "a2691d092f055239ddbe4e234a55657b", "is_reserved": 0, "lon": -77.04547316666667, "is_disabled": 0, "fusion_lat": 0.0, "lat": 38.91329666666667, "bike_id": "a2691d092f055239ddbe4e234a55657b", "fusion_lon": 0.0}, {"rental_uris": {"ios": "https://dc.lft.to/lastmile_qr_scan", "android": "https://dc.lft.to/lastmile_qr_scan"}, "type": "electric_scooter", "name": "8395c66aca215916b8ffe7a2ff750594", "is_reserved": 0, "lon": -77.05034133333334, "is_disabled": 0, "fusion_lat": 0.0, "lat": 38.89679483333333, "bike_id": "8395c66aca215916b8ffe7a2ff750594", "fusion_lon": 0.0}, {"rental_uris": {"ios": "https://dc.lft.to/lastmile_qr_scan", "android": "https://dc.lft.to/lastmile_qr_scan"}, "type": "electric_scooter", "name": "7233445754ead87791216ba823143cc3", "is_reserved": 0, "lon": -77.027549, "is_disabled": 0, "fusion_lat": 0.0, "lat": 38.95780383333334, "bike_id": "7233445754ead87791216ba823143cc3", "fusion_lon": 0.0}, {"rental_uris": {"ios": "https://dc.lft.to/lastmile_qr_scan", "android": "https://dc.lft.to/lastmile_qr_scan"}, "type": "electric_scooter", "name": "eb4a1fb543a8d543098c1e78c14157d3", "is_reserved": 0, "lon": -76.985348, "is_disabled": 0, "fusion_lat": 0.0, "lat": 38.912837833333334, "bike_id": "eb4a1fb543a8d543098c1e78c14157d3", "fusion_lon": 0.0}, {"rental_uris": {"ios": "https://dc.lft.to/lastmile_qr_scan", "android": "https://dc.lft.to/lastmile_qr_scan"}, "type": "electric_scooter", "name": "dce7533c88a177b62656c98d96c40ba7", "is_reserved": 0, "lon": -77.01759366666667, "is_disabled": 0, "fusion_lat": 0.0, "lat": 38.87693183333333, "bike_id": "dce7533c88a177b62656c98d96c40ba7", "fusion_lon": 0.0}, {"rental_uris": {"ios": "https://dc.lft.to/lastmile_qr_scan", "android": "https://dc.lft.to/lastmile_qr_scan"}, "type": "electric_scooter", "name": "f0eec2711ccaef5705e8036c451f8db9", "is_reserved": 0, "lon": -76.94867166666667, "is_disabled": 0, "fusion_lat": 0.0, "lat": 38.894904, "bike_id": "f0eec2711ccaef5705e8036c451f8db9", "fusion_lon": 0.0}, {"rental_uris": {"ios": "https://dc.lft.to/lastmile_qr_scan", "android": "https://dc.lft.to/lastmile_qr_scan"}, "type": "electric_scooter", "name": "4d003f649818a19d1cd40605f1397203", "is_reserved": 0, "lon": -76.92635916666667, "is_disabled": 0, "fusion_lat": 0.0, "lat": 38.883679666666666, "bike_id": "4d003f649818a19d1cd40605f1397203", "fusion_lon": 0.0}, {"rental_uris": {"ios": "https://dc.lft.to/lastmile_qr_scan", "android": "https://dc.lft.to/lastmile_qr_scan"}, "type": "electric_scooter", "name": "bfdc39282f5fe165ed289d19e142135f", "is_reserved": 0, "lon": -77.04778316666666, "is_disabled": 0, "fusion_lat": 0.0, "lat": 38.90862583333333, "bike_id": "bfdc39282f5fe165ed289d19e142135f", "fusion_lon": 0.0}, {"rental_uris": {"ios": "https://dc.lft.to/lastmile_qr_scan", "android": "https://dc.lft.to/lastmile_qr_scan"}, "type": "electric_scooter", "name": "1089207467dba5d3028403eec04114d8", "is_reserved": 0, "lon": -77.03624733333334, "is_disabled": 0, "fusion_lat": 0.0, "lat": 38.903727333333336, "bike_id": "1089207467dba5d3028403eec04114d8", "fusion_lon": 0.0}, {"rental_uris": {"ios": "https://dc.lft.to/lastmile_qr_scan", "android": "https://dc.lft.to/lastmile_qr_scan"}, "type": "electric_scooter", "name": "81cb4e2317b7b9a1c7e31cf0c268f6a8", "is_reserved": 0, "lon": -77.02478016666667, "is_disabled": 0, "fusion_lat": 0.0, "lat": 38.91814, "bike_id": "81cb4e2317b7b9a1c7e31cf0c268f6a8", "fusion_lon": 0.0}, {"rental_uris": {"ios": "https://dc.lft.to/lastmile_qr_scan", "android": "https://dc.lft.to/lastmile_qr_scan"}, "type": "electric_scooter", "name": "fc221a534a5863c0dc13bc504138c483", "is_reserved": 0, "lon": -77.0197225, "is_disabled": 0, "fusion_lat": 0.0, "lat": 38.92251016666667, "bike_id": "fc221a534a5863c0dc13bc504138c483", "fusion_lon": 0.0}, {"rental_uris": {"ios": "https://dc.lft.to/lastmile_qr_scan", "android": "https://dc.lft.to/lastmile_qr_scan"}, "type": "electric_scooter", "name": "91787263ca53f8f81ea2528accaded57", "is_reserved": 0, "lon": -76.99155733333333, "is_disabled": 0, "fusion_lat": 0.0, "lat": 38.88813666666667, "bike_id": "91787263ca53f8f81ea2528accaded57", "fusion_lon": 0.0}, {"rental_uris": {"ios": "https://dc.lft.to/lastmile_qr_scan", "android": "https://dc.lft.to/lastmile_qr_scan"}, "type": "electric_scooter", "name": "1a3014da086c359d224c7dbf31e84786", "is_reserved": 0, "lon": -77.02404416666667, "is_disabled": 0, "fusion_lat": 0.0, "lat": 38.9381475, "bike_id": "1a3014da086c359d224c7dbf31e84786", "fusion_lon": 0.0}, {"rental_uris": {"ios": "https://dc.lft.to/lastmile_qr_scan", "android": "https://dc.lft.to/lastmile_qr_scan"}, "type": "electric_scooter", "name": "0829974dd77641a32b3b344487935cf6", "is_reserved": 0, "lon": -76.99858283333333, "is_disabled": 0, "fusion_lat": 0.0, "lat": 38.900275, "bike_id": "0829974dd77641a32b3b344487935cf6", "fusion_lon": 0.0}, {"rental_uris": {"ios": "https://dc.lft.to/lastmile_qr_scan", "android": "https://dc.lft.to/lastmile_qr_scan"}, "type": "electric_scooter", "name": "4c2fecf0bbf590e3ba33ff7138ebd968", "is_reserved": 0, "lon": -77.02842766666667, "is_disabled": 0, "fusion_lat": 0.0, "lat": 38.904505, "bike_id": "4c2fecf0bbf590e3ba33ff7138ebd968", "fusion_lon": 0.0}, {"rental_uris": {"ios": "https://dc.lft.to/lastmile_qr_scan", "android": "https://dc.lft.to/lastmile_qr_scan"}, "type": "electric_scooter", "name": "293713bf91101fe9eccbb8915fb01ce6", "is_reserved": 0, "lon": -76.99869033333333, "is_disabled": 0, "fusion_lat": 0.0, "lat": 38.90034416666667, "bike_id": "293713bf91101fe9eccbb8915fb01ce6", "fusion_lon": 0.0}, {"rental_uris": {"ios": "https://dc.lft.to/lastmile_qr_scan", "android": "https://dc.lft.to/lastmile_qr_scan"}, "type": "electric_scooter", "name": "969d5e2a6b4485e17e2379e7292d4a33", "is_reserved": 0, "lon": -77.0647395, "is_disabled": 0, "fusion_lat": 0.0, "lat": 38.9270105, "bike_id": "969d5e2a6b4485e17e2379e7292d4a33", "fusion_lon": 0.0}, {"rental_uris": {"ios": "https://dc.lft.to/lastmile_qr_scan", "android": "https://dc.lft.to/lastmile_qr_scan"}, "type": "electric_scooter", "name": "9574c92a51fb5eaf8cf4ae239c254db7", "is_reserved": 0, "lon": -77.042338, "is_disabled": 0, "fusion_lat": 0.0, "lat": 38.91107816666667, "bike_id": "9574c92a51fb5eaf8cf4ae239c254db7", "fusion_lon": 0.0}, {"rental_uris": {"ios": "https://dc.lft.to/lastmile_qr_scan", "android": "https://dc.lft.to/lastmile_qr_scan"}, "type": "electric_scooter", "name": "4079b32659b4b66d2537af58033b35e0", "is_reserved": 0, "lon": -76.99171983333333, "is_disabled": 0, "fusion_lat": 0.0, "lat": 38.902595833333336, "bike_id": "4079b32659b4b66d2537af58033b35e0", "fusion_lon": 0.0}, {"rental_uris": {"ios": "https://dc.lft.to/lastmile_qr_scan", "android": "https://dc.lft.to/lastmile_qr_scan"}, "type": "electric_scooter", "name": "e7b6760adc703fa0d7f6928f2b5d79b2", "is_reserved": 0, "lon": -77.00061166666667, "is_disabled": 0, "fusion_lat": 0.0, "lat": 38.874357833333335, "bike_id": "e7b6760adc703fa0d7f6928f2b5d79b2", "fusion_lon": 0.0}, {"rental_uris": {"ios": "https://dc.lft.to/lastmile_qr_scan", "android": "https://dc.lft.to/lastmile_qr_scan"}, "type": "electric_scooter", "name": "20fd39c16206a8f7a1feafce41714875", "is_reserved": 0, "lon": -76.993754, "is_disabled": 0, "fusion_lat": 0.0, "lat": 38.8933615, "bike_id": "20fd39c16206a8f7a1feafce41714875", "fusion_lon": 0.0}, {"rental_uris": {"ios": "https://dc.lft.to/lastmile_qr_scan", "android": "https://dc.lft.to/lastmile_qr_scan"}, "type": "electric_scooter", "name": "064edc4ae8a0676691dad59e127dc57d", "is_reserved": 0, "lon": -77.045216, "is_disabled": 0, "fusion_lat": 0.0, "lat": 38.91112616666667, "bike_id": "064edc4ae8a0676691dad59e127dc57d", "fusion_lon": 0.0}, {"rental_uris": {"ios": "https://dc.lft.to/lastmile_qr_scan", "android": "https://dc.lft.to/lastmile_qr_scan"}, "type": "electric_scooter", "name": "d4fda4d9b7afb0b2f3a786dd9262a1d1", "is_reserved": 0, "lon": -77.026987, "is_disabled": 0, "fusion_lat": 0.0, "lat": 38.92486233333333, "bike_id": "d4fda4d9b7afb0b2f3a786dd9262a1d1", "fusion_lon": 0.0}, {"rental_uris": {"ios": "https://dc.lft.to/lastmile_qr_scan", "android": "https://dc.lft.to/lastmile_qr_scan"}, "type": "electric_scooter", "name": "05bf2e57a8fe4e4363b2e17ba291a2b0", "is_reserved": 0, "lon": -77.02972266666667, "is_disabled": 0, "fusion_lat": 0.0, "lat": 38.92421383333333, "bike_id": "05bf2e57a8fe4e4363b2e17ba291a2b0", "fusion_lon": 0.0}, {"rental_uris": {"ios": "https://dc.lft.to/lastmile_qr_scan", "android": "https://dc.lft.to/lastmile_qr_scan"}, "type": "electric_scooter", "name": "59aab9ab3dcfffda1e7ebe646caa6493", "is_reserved": 0, "lon": -77.01864516666667, "is_disabled": 0, "fusion_lat": 0.0, "lat": 38.951535, "bike_id": "59aab9ab3dcfffda1e7ebe646caa6493", "fusion_lon": 0.0}, {"rental_uris": {"ios": "https://dc.lft.to/lastmile_qr_scan", "android": "https://dc.lft.to/lastmile_qr_scan"}, "type": "electric_scooter", "name": "3ebd5541ec46d0dc97b4e0226acd575c", "is_reserved": 0, "lon": -77.0412645, "is_disabled": 0, "fusion_lat": 0.0, "lat": 38.91406283333333, "bike_id": "3ebd5541ec46d0dc97b4e0226acd575c", "fusion_lon": 0.0}, {"rental_uris": {"ios": "https://dc.lft.to/lastmile_qr_scan", "android": "https://dc.lft.to/lastmile_qr_scan"}, "type": "electric_scooter", "name": "3453b8992dbc3a115900786253efde50", "is_reserved": 0, "lon": -76.9904415, "is_disabled": 0, "fusion_lat": 0.0, "lat": 38.924719333333336, "bike_id": "3453b8992dbc3a115900786253efde50", "fusion_lon": 0.0}, {"rental_uris": {"ios": "https://dc.lft.to/lastmile_qr_scan", "android": "https://dc.lft.to/lastmile_qr_scan"}, "type": "electric_bike", "name": "b2a272348b7b08effe2e41a3459fbf74", "is_reserved": 0, "lon": -77.076538, "is_disabled": 0, "fusion_lat": 0.0, "lat": 38.8884955, "bike_id": "b2a272348b7b08effe2e41a3459fbf74", "fusion_lon": 0.0}, {"rental_uris": {"ios": "https://dc.lft.to/lastmile_qr_scan", "android": "https://dc.lft.to/lastmile_qr_scan"}, "type": "electric_scooter", "name": "f3e181b6a6ed5efb2b18310734aca1c4", "is_reserved": 0, "lon": -77.0282235, "is_disabled": 0, "fusion_lat": 0.0, "lat": 38.911221, "bike_id": "f3e181b6a6ed5efb2b18310734aca1c4", "fusion_lon": 0.0}, {"rental_uris": {"ios": "https://dc.lft.to/lastmile_qr_scan", "android": "https://dc.lft.to/lastmile_qr_scan"}, "type": "electric_scooter", "name": "c7778a6d428070ddcef9e85d9eae9ed7", "is_reserved": 0, "lon": -77.0345795, "is_disabled": 0, "fusion_lat": 0.0, "lat": 38.912661666666665, "bike_id": "c7778a6d428070ddcef9e85d9eae9ed7", "fusion_lon": 0.0}, {"rental_uris": {"ios": "https://dc.lft.to/lastmile_qr_scan", "android": "https://dc.lft.to/lastmile_qr_scan"}, "type": "electric_scooter", "name": "6faf914054cdcd6256f525347f05e5da", "is_reserved": 0, "lon": -77.02112316666667, "is_disabled": 0, "fusion_lat": 0.0, "lat": 38.914189, "bike_id": "6faf914054cdcd6256f525347f05e5da", "fusion_lon": 0.0}, {"rental_uris": {"ios": "https://dc.lft.to/lastmile_qr_scan", "android": "https://dc.lft.to/lastmile_qr_scan"}, "type": "electric_scooter", "name": "75469aab39828857d0cf08a26bd636dc", "is_reserved": 0, "lon": -77.03904266666666, "is_disabled": 0, "fusion_lat": 0.0, "lat": 38.914215666666664, "bike_id": "75469aab39828857d0cf08a26bd636dc", "fusion_lon": 0.0}, {"rental_uris": {"ios": "https://dc.lft.to/lastmile_qr_scan", "android": "https://dc.lft.to/lastmile_qr_scan"}, "type": "electric_scooter", "name": "78e6ae09e019f8330627eb2c7d257084", "is_reserved": 0, "lon": -77.04527633333333, "is_disabled": 0, "fusion_lat": 0.0, "lat": 38.91915316666667, "bike_id": "78e6ae09e019f8330627eb2c7d257084", "fusion_lon": 0.0}, {"rental_uris": {"ios": "https://dc.lft.to/lastmile_qr_scan", "android": "https://dc.lft.to/lastmile_qr_scan"}, "type": "electric_scooter", "name": "9f45bb17f80193b40e15d6f0b3c32eb5", "is_reserved": 0, "lon": -77.03255366666667, "is_disabled": 0, "fusion_lat": 0.0, "lat": 38.91034366666667, "bike_id": "9f45bb17f80193b40e15d6f0b3c32eb5", "fusion_lon": 0.0}, {"rental_uris": {"ios": "https://dc.lft.to/lastmile_qr_scan", "android": "https://dc.lft.to/lastmile_qr_scan"}, "type": "electric_scooter", "name": "074f011fda86716450905358984f99c2", "is_reserved": 0, "lon": -77.03177766666667, "is_disabled": 0, "fusion_lat": 0.0, "lat": 38.918330833333336, "bike_id": "074f011fda86716450905358984f99c2", "fusion_lon": 0.0}, {"rental_uris": {"ios": "https://dc.lft.to/lastmile_qr_scan", "android": "https://dc.lft.to/lastmile_qr_scan"}, "type": "electric_scooter", "name": "3858591cc95b9cfd53997691da67b213", "is_reserved": 0, "lon": -77.036334, "is_disabled": 0, "fusion_lat": 0.0, "lat": 38.92596116666667, "bike_id": "3858591cc95b9cfd53997691da67b213", "fusion_lon": 0.0}, {"rental_uris": {"ios": "https://dc.lft.to/lastmile_qr_scan", "android": "https://dc.lft.to/lastmile_qr_scan"}, "type": "electric_scooter", "name": "8342b4ffd651fbb7d3b641cdd95fe82a", "is_reserved": 0, "lon": -77.04375416666667, "is_disabled": 0, "fusion_lat": 0.0, "lat": 38.9315395, "bike_id": "8342b4ffd651fbb7d3b641cdd95fe82a", "fusion_lon": 0.0}, {"rental_uris": {"ios": "https://dc.lft.to/lastmile_qr_scan", "android": "https://dc.lft.to/lastmile_qr_scan"}, "type": "electric_scooter", "name": "d577afe79cf0ae1627b6b6f11c789745", "is_reserved": 0, "lon": -77.05633566666667, "is_disabled": 0, "fusion_lat": 0.0, "lat": 38.93600583333333, "bike_id": "d577afe79cf0ae1627b6b6f11c789745", "fusion_lon": 0.0}, {"rental_uris": {"ios": "https://dc.lft.to/lastmile_qr_scan", "android": "https://dc.lft.to/lastmile_qr_scan"}, "type": "electric_scooter", "name": "b820bbd04c9ffbc9859c1020d44b4679", "is_reserved": 0, "lon": -77.04689833333333, "is_disabled": 0, "fusion_lat": 0.0, "lat": 38.89743466666667, "bike_id": "b820bbd04c9ffbc9859c1020d44b4679", "fusion_lon": 0.0}, {"rental_uris": {"ios": "https://dc.lft.to/lastmile_qr_scan", "android": "https://dc.lft.to/lastmile_qr_scan"}, "type": "electric_scooter", "name": "b0fa4d2f5db86adee7f1c730de8ac051", "is_reserved": 0, "lon": -77.01194283333334, "is_disabled": 0, "fusion_lat": 0.0, "lat": 38.90030933333333, "bike_id": "b0fa4d2f5db86adee7f1c730de8ac051", "fusion_lon": 0.0}, {"rental_uris": {"ios": "https://dc.lft.to/lastmile_qr_scan", "android": "https://dc.lft.to/lastmile_qr_scan"}, "type": "electric_scooter", "name": "9ead7c42674db3ac81cd62798f5ecedc", "is_reserved": 0, "lon": -77.02815433333333, "is_disabled": 0, "fusion_lat": 0.0, "lat": 38.8923815, "bike_id": "9ead7c42674db3ac81cd62798f5ecedc", "fusion_lon": 0.0}, {"rental_uris": {"ios": "https://dc.lft.to/lastmile_qr_scan", "android": "https://dc.lft.to/lastmile_qr_scan"}, "type": "electric_scooter", "name": "b70753262df8c217aa9bc77a5fe75d0c", "is_reserved": 0, "lon": -77.03272533333333, "is_disabled": 0, "fusion_lat": 0.0, "lat": 38.919915, "bike_id": "b70753262df8c217aa9bc77a5fe75d0c", "fusion_lon": 0.0}, {"rental_uris": {"ios": "https://dc.lft.to/lastmile_qr_scan", "android": "https://dc.lft.to/lastmile_qr_scan"}, "type": "electric_scooter", "name": "34bdfe2388dec4d870a4767bed2a2b1f", "is_reserved": 0, "lon": -77.01308616666667, "is_disabled": 0, "fusion_lat": 0.0, "lat": 38.90190366666667, "bike_id": "34bdfe2388dec4d870a4767bed2a2b1f", "fusion_lon": 0.0}, {"rental_uris": {"ios": "https://dc.lft.to/lastmile_qr_scan", "android": "https://dc.lft.to/lastmile_qr_scan"}, "type": "electric_scooter", "name": "30ab75399aeb45d10adf199dfe5e99db", "is_reserved": 0, "lon": -77.03023366666666, "is_disabled": 0, "fusion_lat": 0.0, "lat": 38.926672, "bike_id": "30ab75399aeb45d10adf199dfe5e99db", "fusion_lon": 0.0}, {"rental_uris": {"ios": "https://dc.lft.to/lastmile_qr_scan", "android": "https://dc.lft.to/lastmile_qr_scan"}, "type": "electric_scooter", "name": "b0cb16bcafca6b73e6d05e3dbacb6cbf", "is_reserved": 0, "lon": -76.99902766666666, "is_disabled": 0, "fusion_lat": 0.0, "lat": 38.937468, "bike_id": "b0cb16bcafca6b73e6d05e3dbacb6cbf", "fusion_lon": 0.0}, {"rental_uris": {"ios": "https://dc.lft.to/lastmile_qr_scan", "android": "https://dc.lft.to/lastmile_qr_scan"}, "type": "electric_bike", "name": "f7dcf23a80e7fe95c10b5082f4dd5c40", "is_reserved": 0, "lon": -76.9868695, "is_disabled": 0, "fusion_lat": 0.0, "lat": 38.94474116666667, "bike_id": "f7dcf23a80e7fe95c10b5082f4dd5c40", "fusion_lon": 0.0}, {"rental_uris": {"ios": "https://dc.lft.to/lastmile_qr_scan", "android": "https://dc.lft.to/lastmile_qr_scan"}, "type": "electric_scooter", "name": "44f31457e947357c023197bbe4894534", "is_reserved": 0, "lon": -77.02386433333334, "is_disabled": 0, "fusion_lat": 0.0, "lat": 38.933881, "bike_id": "44f31457e947357c023197bbe4894534", "fusion_lon": 0.0}, {"rental_uris": {"ios": "https://dc.lft.to/lastmile_qr_scan", "android": "https://dc.lft.to/lastmile_qr_scan"}, "type": "electric_scooter", "name": "9fdd1bd9dd89c4a96f6d7d988ece6338", "is_reserved": 0, "lon": -77.03857733333334, "is_disabled": 0, "fusion_lat": 0.0, "lat": 38.91181183333333, "bike_id": "9fdd1bd9dd89c4a96f6d7d988ece6338", "fusion_lon": 0.0}, {"rental_uris": {"ios": "https://dc.lft.to/lastmile_qr_scan", "android": "https://dc.lft.to/lastmile_qr_scan"}, "type": "electric_scooter", "name": "ef86548fb67847f2d8fa8627246cd8db", "is_reserved": 0, "lon": -77.01348416666667, "is_disabled": 0, "fusion_lat": 0.0, "lat": 38.919164333333335, "bike_id": "ef86548fb67847f2d8fa8627246cd8db", "fusion_lon": 0.0}, {"rental_uris": {"ios": "https://dc.lft.to/lastmile_qr_scan", "android": "https://dc.lft.to/lastmile_qr_scan"}, "type": "electric_bike", "name": "a48e02fc8c5aa4dc55be9b2ffd2564c3", "is_reserved": 0, "lon": -77.09956333333334, "is_disabled": 0, "fusion_lat": 0.0, "lat": 38.857928, "bike_id": "a48e02fc8c5aa4dc55be9b2ffd2564c3", "fusion_lon": 0.0}, {"rental_uris": {"ios": "https://dc.lft.to/lastmile_qr_scan", "android": "https://dc.lft.to/lastmile_qr_scan"}, "type": "electric_scooter", "name": "a45d6171b53fd5b472adbe771a83c400", "is_reserved": 0, "lon": -77.037846, "is_disabled": 0, "fusion_lat": 0.0, "lat": 38.916913666666666, "bike_id": "a45d6171b53fd5b472adbe771a83c400", "fusion_lon": 0.0}, {"rental_uris": {"ios": "https://dc.lft.to/lastmile_qr_scan", "android": "https://dc.lft.to/lastmile_qr_scan"}, "type": "electric_scooter", "name": "9a045188feafcbc70fc0c9abd69ec636", "is_reserved": 0, "lon": -76.97330133333334, "is_disabled": 0, "fusion_lat": 0.0, "lat": 38.90409266666666, "bike_id": "9a045188feafcbc70fc0c9abd69ec636", "fusion_lon": 0.0}, {"rental_uris": {"ios": "https://dc.lft.to/lastmile_qr_scan", "android": "https://dc.lft.to/lastmile_qr_scan"}, "type": "electric_bike", "name": "90d3fcdb2b1692ad2ad162ecbebab120", "is_reserved": 0, "lon": -77.08869066666666, "is_disabled": 0, "fusion_lat": 0.0, "lat": 38.938905, "bike_id": "90d3fcdb2b1692ad2ad162ecbebab120", "fusion_lon": 0.0}, {"rental_uris": {"ios": "https://dc.lft.to/lastmile_qr_scan", "android": "https://dc.lft.to/lastmile_qr_scan"}, "type": "electric_scooter", "name": "91792c2135205d7355f7b715c7bd31cd", "is_reserved": 0, "lon": -77.0057155, "is_disabled": 0, "fusion_lat": 0.0, "lat": 38.87457583333333, "bike_id": "91792c2135205d7355f7b715c7bd31cd", "fusion_lon": 0.0}, {"rental_uris": {"ios": "https://dc.lft.to/lastmile_qr_scan", "android": "https://dc.lft.to/lastmile_qr_scan"}, "type": "electric_scooter", "name": "58d7b1c3ec9834bb57d68159222facab", "is_reserved": 0, "lon": -77.00935933333334, "is_disabled": 0, "fusion_lat": 0.0, "lat": 38.912713833333335, "bike_id": "58d7b1c3ec9834bb57d68159222facab", "fusion_lon": 0.0}, {"rental_uris": {"ios": "https://dc.lft.to/lastmile_qr_scan", "android": "https://dc.lft.to/lastmile_qr_scan"}, "type": "electric_bike", "name": "c62802a424dc2ec54d6b0914ef262ae7", "is_reserved": 0, "lon": -76.978564, "is_disabled": 0, "fusion_lat": 0.0, "lat": 38.983822, "bike_id": "c62802a424dc2ec54d6b0914ef262ae7", "fusion_lon": 0.0}, {"rental_uris": {"ios": "https://dc.lft.to/lastmile_qr_scan", "android": "https://dc.lft.to/lastmile_qr_scan"}, "type": "electric_scooter", "name": "c27d069832d7e4eb94e221427b6e13fa", "is_reserved": 0, "lon": -77.0420565, "is_disabled": 0, "fusion_lat": 0.0, "lat": 38.9170235, "bike_id": "c27d069832d7e4eb94e221427b6e13fa", "fusion_lon": 0.0}, {"rental_uris": {"ios": "https://dc.lft.to/lastmile_qr_scan", "android": "https://dc.lft.to/lastmile_qr_scan"}, "type": "electric_scooter", "name": "e1c126db88cd326a9d7c32c22ac5d639", "is_reserved": 0, "lon": -77.03274316666666, "is_disabled": 0, "fusion_lat": 0.0, "lat": 38.9199755, "bike_id": "e1c126db88cd326a9d7c32c22ac5d639", "fusion_lon": 0.0}, {"rental_uris": {"ios": "https://dc.lft.to/lastmile_qr_scan", "android": "https://dc.lft.to/lastmile_qr_scan"}, "type": "electric_scooter", "name": "ab83792d1bd37c66e8b8e88cc44b3348", "is_reserved": 0, "lon": -76.987003, "is_disabled": 0, "fusion_lat": 0.0, "lat": 38.888436666666664, "bike_id": "ab83792d1bd37c66e8b8e88cc44b3348", "fusion_lon": 0.0}, {"rental_uris": {"ios": "https://dc.lft.to/lastmile_qr_scan", "android": "https://dc.lft.to/lastmile_qr_scan"}, "type": "electric_scooter", "name": "1eda01c852e027d7ba4b54e117a36fa1", "is_reserved": 0, "lon": -76.97939033333333, "is_disabled": 0, "fusion_lat": 0.0, "lat": 38.9160035, "bike_id": "1eda01c852e027d7ba4b54e117a36fa1", "fusion_lon": 0.0}, {"rental_uris": {"ios": "https://dc.lft.to/lastmile_qr_scan", "android": "https://dc.lft.to/lastmile_qr_scan"}, "type": "electric_scooter", "name": "1f0bed8827ad74d134dbf17d326c3e1d", "is_reserved": 0, "lon": -76.98561266666667, "is_disabled": 0, "fusion_lat": 0.0, "lat": 38.900264, "bike_id": "1f0bed8827ad74d134dbf17d326c3e1d", "fusion_lon": 0.0}, {"rental_uris": {"ios": "https://dc.lft.to/lastmile_qr_scan", "android": "https://dc.lft.to/lastmile_qr_scan"}, "type": "electric_scooter", "name": "56c769c27d18c0f27ea529430ad38133", "is_reserved": 0, "lon": -77.06326483333333, "is_disabled": 0, "fusion_lat": 0.0, "lat": 38.943624, "bike_id": "56c769c27d18c0f27ea529430ad38133", "fusion_lon": 0.0}, {"rental_uris": {"ios": "https://dc.lft.to/lastmile_qr_scan", "android": "https://dc.lft.to/lastmile_qr_scan"}, "type": "electric_scooter", "name": "54e84ec78bb5bbab6c0089ab8ae64b32", "is_reserved": 0, "lon": -77.02634383333333, "is_disabled": 0, "fusion_lat": 0.0, "lat": 38.895962833333336, "bike_id": "54e84ec78bb5bbab6c0089ab8ae64b32", "fusion_lon": 0.0}, {"rental_uris": {"ios": "https://dc.lft.to/lastmile_qr_scan", "android": "https://dc.lft.to/lastmile_qr_scan"}, "type": "electric_scooter", "name": "e8022e5068ba53b44c88316c60988528", "is_reserved": 0, "lon": -77.04084016666667, "is_disabled": 0, "fusion_lat": 0.0, "lat": 38.947907, "bike_id": "e8022e5068ba53b44c88316c60988528", "fusion_lon": 0.0}, {"rental_uris": {"ios": "https://dc.lft.to/lastmile_qr_scan", "android": "https://dc.lft.to/lastmile_qr_scan"}, "type": "electric_scooter", "name": "893e94a67059c0b09473b10391f49ec5", "is_reserved": 0, "lon": -77.01956166666666, "is_disabled": 0, "fusion_lat": 0.0, "lat": 38.923275333333336, "bike_id": "893e94a67059c0b09473b10391f49ec5", "fusion_lon": 0.0}, {"rental_uris": {"ios": "https://dc.lft.to/lastmile_qr_scan", "android": "https://dc.lft.to/lastmile_qr_scan"}, "type": "electric_scooter", "name": "276b16f4cf10dea184339020418295ea", "is_reserved": 0, "lon": -77.03187216666667, "is_disabled": 0, "fusion_lat": 0.0, "lat": 38.91565383333333, "bike_id": "276b16f4cf10dea184339020418295ea", "fusion_lon": 0.0}, {"rental_uris": {"ios": "https://dc.lft.to/lastmile_qr_scan", "android": "https://dc.lft.to/lastmile_qr_scan"}, "type": "electric_scooter", "name": "cdd5a1d750fbdc9c912357c0ea41b6f4", "is_reserved": 0, "lon": -76.98152433333334, "is_disabled": 0, "fusion_lat": 0.0, "lat": 38.8993455, "bike_id": "cdd5a1d750fbdc9c912357c0ea41b6f4", "fusion_lon": 0.0}, {"rental_uris": {"ios": "https://dc.lft.to/lastmile_qr_scan", "android": "https://dc.lft.to/lastmile_qr_scan"}, "type": "electric_scooter", "name": "1df17a8e3f3832071f24c365188e22e8", "is_reserved": 0, "lon": -77.006232, "is_disabled": 0, "fusion_lat": 0.0, "lat": 38.8716975, "bike_id": "1df17a8e3f3832071f24c365188e22e8", "fusion_lon": 0.0}, {"rental_uris": {"ios": "https://dc.lft.to/lastmile_qr_scan", "android": "https://dc.lft.to/lastmile_qr_scan"}, "type": "electric_scooter", "name": "b6bc6aa0a555cfb59a6c97fb7d0a8205", "is_reserved": 0, "lon": -77.0320335, "is_disabled": 0, "fusion_lat": 0.0, "lat": 38.9219045, "bike_id": "b6bc6aa0a555cfb59a6c97fb7d0a8205", "fusion_lon": 0.0}, {"rental_uris": {"ios": "https://dc.lft.to/lastmile_qr_scan", "android": "https://dc.lft.to/lastmile_qr_scan"}, "type": "electric_scooter", "name": "6f448549e49e90f33100d37995484073", "is_reserved": 0, "lon": -77.03658933333334, "is_disabled": 0, "fusion_lat": 0.0, "lat": 38.921219666666666, "bike_id": "6f448549e49e90f33100d37995484073", "fusion_lon": 0.0}, {"rental_uris": {"ios": "https://dc.lft.to/lastmile_qr_scan", "android": "https://dc.lft.to/lastmile_qr_scan"}, "type": "electric_scooter", "name": "c267948b025f449e908780dc8d588971", "is_reserved": 0, "lon": -77.04210566666667, "is_disabled": 0, "fusion_lat": 0.0, "lat": 38.921279, "bike_id": "c267948b025f449e908780dc8d588971", "fusion_lon": 0.0}, {"rental_uris": {"ios": "https://dc.lft.to/lastmile_qr_scan", "android": "https://dc.lft.to/lastmile_qr_scan"}, "type": "electric_scooter", "name": "f7d97d393985ed9128f357e29e4d2339", "is_reserved": 0, "lon": -77.04169116666667, "is_disabled": 0, "fusion_lat": 0.0, "lat": 38.91603633333333, "bike_id": "f7d97d393985ed9128f357e29e4d2339", "fusion_lon": 0.0}, {"rental_uris": {"ios": "https://dc.lft.to/lastmile_qr_scan", "android": "https://dc.lft.to/lastmile_qr_scan"}, "type": "electric_scooter", "name": "d11c7af9280a14c76a80bd97574b287b", "is_reserved": 0, "lon": -77.04570216666667, "is_disabled": 0, "fusion_lat": 0.0, "lat": 38.92072983333333, "bike_id": "d11c7af9280a14c76a80bd97574b287b", "fusion_lon": 0.0}, {"rental_uris": {"ios": "https://dc.lft.to/lastmile_qr_scan", "android": "https://dc.lft.to/lastmile_qr_scan"}, "type": "electric_scooter", "name": "94ad1e0e8d02e7ebae0df9946eafeae8", "is_reserved": 0, "lon": -77.00557733333333, "is_disabled": 0, "fusion_lat": 0.0, "lat": 38.878561, "bike_id": "94ad1e0e8d02e7ebae0df9946eafeae8", "fusion_lon": 0.0}, {"rental_uris": {"ios": "https://dc.lft.to/lastmile_qr_scan", "android": "https://dc.lft.to/lastmile_qr_scan"}, "type": "electric_scooter", "name": "93e25a3c6cd17a53681f552e0109bcb6", "is_reserved": 0, "lon": -77.03811433333334, "is_disabled": 0, "fusion_lat": 0.0, "lat": 38.914252166666664, "bike_id": "93e25a3c6cd17a53681f552e0109bcb6", "fusion_lon": 0.0}, {"rental_uris": {"ios": "https://dc.lft.to/lastmile_qr_scan", "android": "https://dc.lft.to/lastmile_qr_scan"}, "type": "electric_scooter", "name": "7cbaf2552dbd1f12a00e21889a0a4512", "is_reserved": 0, "lon": -77.02954216666667, "is_disabled": 0, "fusion_lat": 0.0, "lat": 38.9050645, "bike_id": "7cbaf2552dbd1f12a00e21889a0a4512", "fusion_lon": 0.0}, {"rental_uris": {"ios": "https://dc.lft.to/lastmile_qr_scan", "android": "https://dc.lft.to/lastmile_qr_scan"}, "type": "electric_bike", "name": "355806e07f9950f5bc3a0f285f8e646c", "is_reserved": 0, "lon": -76.982399, "is_disabled": 0, "fusion_lat": 0.0, "lat": 38.952441, "bike_id": "355806e07f9950f5bc3a0f285f8e646c", "fusion_lon": 0.0}, {"rental_uris": {"ios": "https://dc.lft.to/lastmile_qr_scan", "android": "https://dc.lft.to/lastmile_qr_scan"}, "type": "electric_scooter", "name": "2fe714cd6622c54c7d0f660d4296f29d", "is_reserved": 0, "lon": -77.03634983333333, "is_disabled": 0, "fusion_lat": 0.0, "lat": 38.93484483333334, "bike_id": "2fe714cd6622c54c7d0f660d4296f29d", "fusion_lon": 0.0}, {"rental_uris": {"ios": "https://dc.lft.to/lastmile_qr_scan", "android": "https://dc.lft.to/lastmile_qr_scan"}, "type": "electric_bike", "name": "3405e0e1a66114ccba7d5242c1f49016", "is_reserved": 0, "lon": -76.9801755, "is_disabled": 0, "fusion_lat": 0.0, "lat": 38.853170166666665, "bike_id": "3405e0e1a66114ccba7d5242c1f49016", "fusion_lon": 0.0}, {"rental_uris": {"ios": "https://dc.lft.to/lastmile_qr_scan", "android": "https://dc.lft.to/lastmile_qr_scan"}, "type": "electric_bike", "name": "3ab0d9779d68b78361b876b873db7920", "is_reserved": 0, "lon": -77.09014333333333, "is_disabled": 0, "fusion_lat": 0.0, "lat": 38.92645233333333, "bike_id": "3ab0d9779d68b78361b876b873db7920", "fusion_lon": 0.0}, {"rental_uris": {"ios": "https://dc.lft.to/lastmile_qr_scan", "android": "https://dc.lft.to/lastmile_qr_scan"}, "type": "electric_scooter", "name": "b1a86478365ddffe3bcf34a3ed57c0a9", "is_reserved": 0, "lon": -76.98352433333334, "is_disabled": 0, "fusion_lat": 0.0, "lat": 38.887375, "bike_id": "b1a86478365ddffe3bcf34a3ed57c0a9", "fusion_lon": 0.0}, {"rental_uris": {"ios": "https://dc.lft.to/lastmile_qr_scan", "android": "https://dc.lft.to/lastmile_qr_scan"}, "type": "electric_bike", "name": "d6090a4cb04f1f376e293018726bd5ed", "is_reserved": 0, "lon": -77.12683633333333, "is_disabled": 0, "fusion_lat": 0.0, "lat": 38.89572233333333, "bike_id": "d6090a4cb04f1f376e293018726bd5ed", "fusion_lon": 0.0}, {"rental_uris": {"ios": "https://dc.lft.to/lastmile_qr_scan", "android": "https://dc.lft.to/lastmile_qr_scan"}, "type": "electric_scooter", "name": "64ca85d0f9e9362f4ba94d66d4037f73", "is_reserved": 0, "lon": -77.0261495, "is_disabled": 0, "fusion_lat": 0.0, "lat": 38.91682333333333, "bike_id": "64ca85d0f9e9362f4ba94d66d4037f73", "fusion_lon": 0.0}, {"rental_uris": {"ios": "https://dc.lft.to/lastmile_qr_scan", "android": "https://dc.lft.to/lastmile_qr_scan"}, "type": "electric_scooter", "name": "77df104e1c706ed805c506b3b965b2af", "is_reserved": 0, "lon": -77.026656, "is_disabled": 0, "fusion_lat": 0.0, "lat": 38.88488483333333, "bike_id": "77df104e1c706ed805c506b3b965b2af", "fusion_lon": 0.0}, {"rental_uris": {"ios": "https://dc.lft.to/lastmile_qr_scan", "android": "https://dc.lft.to/lastmile_qr_scan"}, "type": "electric_scooter", "name": "570749067fd62e15389bffaf9c91114e", "is_reserved": 0, "lon": -77.0228275, "is_disabled": 0, "fusion_lat": 0.0, "lat": 38.90961216666667, "bike_id": "570749067fd62e15389bffaf9c91114e", "fusion_lon": 0.0}, {"rental_uris": {"ios": "https://dc.lft.to/lastmile_qr_scan", "android": "https://dc.lft.to/lastmile_qr_scan"}, "type": "electric_scooter", "name": "3fdcebc4df27216cfc7239cd66fe6c79", "is_reserved": 0, "lon": -77.01064183333334, "is_disabled": 0, "fusion_lat": 0.0, "lat": 38.87409533333334, "bike_id": "3fdcebc4df27216cfc7239cd66fe6c79", "fusion_lon": 0.0}, {"rental_uris": {"ios": "https://dc.lft.to/lastmile_qr_scan", "android": "https://dc.lft.to/lastmile_qr_scan"}, "type": "electric_scooter", "name": "71978503d0f756e1aeda10b1e1fdceee", "is_reserved": 0, "lon": -77.02230266666666, "is_disabled": 0, "fusion_lat": 0.0, "lat": 38.8922075, "bike_id": "71978503d0f756e1aeda10b1e1fdceee", "fusion_lon": 0.0}, {"rental_uris": {"ios": "https://dc.lft.to/lastmile_qr_scan", "android": "https://dc.lft.to/lastmile_qr_scan"}, "type": "electric_scooter", "name": "c475d776510ec9cfdbfba78b9e0d762d", "is_reserved": 0, "lon": -77.04608216666666, "is_disabled": 0, "fusion_lat": 0.0, "lat": 38.905656, "bike_id": "c475d776510ec9cfdbfba78b9e0d762d", "fusion_lon": 0.0}, {"rental_uris": {"ios": "https://dc.lft.to/lastmile_qr_scan", "android": "https://dc.lft.to/lastmile_qr_scan"}, "type": "electric_scooter", "name": "7604789a538e9959c5a02242514c5ea3", "is_reserved": 0, "lon": -77.0255905, "is_disabled": 0, "fusion_lat": 0.0, "lat": 38.9385685, "bike_id": "7604789a538e9959c5a02242514c5ea3", "fusion_lon": 0.0}, {"rental_uris": {"ios": "https://dc.lft.to/lastmile_qr_scan", "android": "https://dc.lft.to/lastmile_qr_scan"}, "type": "electric_scooter", "name": "2f02f2e2546ed4639375975c428b571b", "is_reserved": 0, "lon": -76.95737933333334, "is_disabled": 0, "fusion_lat": 0.0, "lat": 38.88393766666667, "bike_id": "2f02f2e2546ed4639375975c428b571b", "fusion_lon": 0.0}, {"rental_uris": {"ios": "https://dc.lft.to/lastmile_qr_scan", "android": "https://dc.lft.to/lastmile_qr_scan"}, "type": "electric_bike", "name": "d936d4904c57642d82433d495011367e", "is_reserved": 0, "lon": -76.956984, "is_disabled": 0, "fusion_lat": 0.0, "lat": 38.8509225, "bike_id": "d936d4904c57642d82433d495011367e", "fusion_lon": 0.0}, {"rental_uris": {"ios": "https://dc.lft.to/lastmile_qr_scan", "android": "https://dc.lft.to/lastmile_qr_scan"}, "type": "electric_scooter", "name": "8db7f4a93d46a15dcaa5d9e75cdcdbc2", "is_reserved": 0, "lon": -77.007521, "is_disabled": 0, "fusion_lat": 0.0, "lat": 38.9252925, "bike_id": "8db7f4a93d46a15dcaa5d9e75cdcdbc2", "fusion_lon": 0.0}, {"rental_uris": {"ios": "https://dc.lft.to/lastmile_qr_scan", "android": "https://dc.lft.to/lastmile_qr_scan"}, "type": "electric_scooter", "name": "8af2fa01ba57c3ab3938b189f5b55e39", "is_reserved": 0, "lon": -76.9925125, "is_disabled": 0, "fusion_lat": 0.0, "lat": 38.940714, "bike_id": "8af2fa01ba57c3ab3938b189f5b55e39", "fusion_lon": 0.0}, {"rental_uris": {"ios": "https://dc.lft.to/lastmile_qr_scan", "android": "https://dc.lft.to/lastmile_qr_scan"}, "type": "electric_scooter", "name": "b2a535651d77ccf38db3287ea4afc58f", "is_reserved": 0, "lon": -77.025548, "is_disabled": 0, "fusion_lat": 0.0, "lat": 38.9539635, "bike_id": "b2a535651d77ccf38db3287ea4afc58f", "fusion_lon": 0.0}, {"rental_uris": {"ios": "https://dc.lft.to/lastmile_qr_scan", "android": "https://dc.lft.to/lastmile_qr_scan"}, "type": "electric_scooter", "name": "bdd4f656fc531d539962b72530a062cd", "is_reserved": 0, "lon": -77.04881816666666, "is_disabled": 0, "fusion_lat": 0.0, "lat": 38.90719433333334, "bike_id": "bdd4f656fc531d539962b72530a062cd", "fusion_lon": 0.0}, {"rental_uris": {"ios": "https://dc.lft.to/lastmile_qr_scan", "android": "https://dc.lft.to/lastmile_qr_scan"}, "type": "electric_bike", "name": "4145148081ea0a954e8fedadca8f17aa", "is_reserved": 0, "lon": -77.07749666666666, "is_disabled": 0, "fusion_lat": 0.0, "lat": 38.841932, "bike_id": "4145148081ea0a954e8fedadca8f17aa", "fusion_lon": 0.0}, {"rental_uris": {"ios": "https://dc.lft.to/lastmile_qr_scan", "android": "https://dc.lft.to/lastmile_qr_scan"}, "type": "electric_scooter", "name": "8ac3ed1bea9cd94b5590891b64aa1175", "is_reserved": 0, "lon": -77.04049783333333, "is_disabled": 0, "fusion_lat": 0.0, "lat": 38.90611166666667, "bike_id": "8ac3ed1bea9cd94b5590891b64aa1175", "fusion_lon": 0.0}, {"rental_uris": {"ios": "https://dc.lft.to/lastmile_qr_scan", "android": "https://dc.lft.to/lastmile_qr_scan"}, "type": "electric_scooter", "name": "f4c1e33f6c027a52a6388be41a0f0549", "is_reserved": 0, "lon": -76.96523633333334, "is_disabled": 0, "fusion_lat": 0.0, "lat": 38.87634383333334, "bike_id": "f4c1e33f6c027a52a6388be41a0f0549", "fusion_lon": 0.0}, {"rental_uris": {"ios": "https://dc.lft.to/lastmile_qr_scan", "android": "https://dc.lft.to/lastmile_qr_scan"}, "type": "electric_bike", "name": "fc0c7870099af9093743942e658a7b2d", "is_reserved": 0, "lon": -76.973146, "is_disabled": 0, "fusion_lat": 0.0, "lat": 38.917598, "bike_id": "fc0c7870099af9093743942e658a7b2d", "fusion_lon": 0.0}, {"rental_uris": {"ios": "https://dc.lft.to/lastmile_qr_scan", "android": "https://dc.lft.to/lastmile_qr_scan"}, "type": "electric_scooter", "name": "af829408deeaecf3b265b5517e3d76fb", "is_reserved": 0, "lon": -77.0345725, "is_disabled": 0, "fusion_lat": 0.0, "lat": 38.90802733333334, "bike_id": "af829408deeaecf3b265b5517e3d76fb", "fusion_lon": 0.0}, {"rental_uris": {"ios": "https://dc.lft.to/lastmile_qr_scan", "android": "https://dc.lft.to/lastmile_qr_scan"}, "type": "electric_scooter", "name": "aa46b97bf06027576a2f60a106a21251", "is_reserved": 0, "lon": -77.04444783333334, "is_disabled": 0, "fusion_lat": 0.0, "lat": 38.901380833333334, "bike_id": "aa46b97bf06027576a2f60a106a21251", "fusion_lon": 0.0}, {"rental_uris": {"ios": "https://dc.lft.to/lastmile_qr_scan", "android": "https://dc.lft.to/lastmile_qr_scan"}, "type": "electric_scooter", "name": "5ba8bc4007a97cb2a65bc78a12bed2da", "is_reserved": 0, "lon": -76.948989, "is_disabled": 0, "fusion_lat": 0.0, "lat": 38.89523533333333, "bike_id": "5ba8bc4007a97cb2a65bc78a12bed2da", "fusion_lon": 0.0}, {"rental_uris": {"ios": "https://dc.lft.to/lastmile_qr_scan", "android": "https://dc.lft.to/lastmile_qr_scan"}, "type": "electric_bike", "name": "8acc2c545d3417f746cbe9a62f139fa1", "is_reserved": 0, "lon": -76.96082183333333, "is_disabled": 0, "fusion_lat": 0.0, "lat": 38.91855133333333, "bike_id": "8acc2c545d3417f746cbe9a62f139fa1", "fusion_lon": 0.0}, {"rental_uris": {"ios": "https://dc.lft.to/lastmile_qr_scan", "android": "https://dc.lft.to/lastmile_qr_scan"}, "type": "electric_scooter", "name": "953e0c413d5b82db60c101e14759f1ec", "is_reserved": 0, "lon": -77.00528316666667, "is_disabled": 0, "fusion_lat": 0.0, "lat": 38.87924133333333, "bike_id": "953e0c413d5b82db60c101e14759f1ec", "fusion_lon": 0.0}, {"rental_uris": {"ios": "https://dc.lft.to/lastmile_qr_scan", "android": "https://dc.lft.to/lastmile_qr_scan"}, "type": "electric_scooter", "name": "23c6cc01a9bc89664e1a78dfd52fa2ff", "is_reserved": 0, "lon": -76.99967333333333, "is_disabled": 0, "fusion_lat": 0.0, "lat": 38.9085595, "bike_id": "23c6cc01a9bc89664e1a78dfd52fa2ff", "fusion_lon": 0.0}, {"rental_uris": {"ios": "https://dc.lft.to/lastmile_qr_scan", "android": "https://dc.lft.to/lastmile_qr_scan"}, "type": "electric_bike", "name": "944220017938a1be5cdc4a856ebeb1b0", "is_reserved": 0, "lon": -76.96254883333333, "is_disabled": 0, "fusion_lat": 0.0, "lat": 38.882473166666664, "bike_id": "944220017938a1be5cdc4a856ebeb1b0", "fusion_lon": 0.0}, {"rental_uris": {"ios": "https://dc.lft.to/lastmile_qr_scan", "android": "https://dc.lft.to/lastmile_qr_scan"}, "type": "electric_scooter", "name": "6c0ff4354d90dba7f889a7082bc6909e", "is_reserved": 0, "lon": -76.9975525, "is_disabled": 0, "fusion_lat": 0.0, "lat": 38.8849945, "bike_id": "6c0ff4354d90dba7f889a7082bc6909e", "fusion_lon": 0.0}, {"rental_uris": {"ios": "https://dc.lft.to/lastmile_qr_scan", "android": "https://dc.lft.to/lastmile_qr_scan"}, "type": "electric_scooter", "name": "208e1fe036545e2984e8de0ee7d1642e", "is_reserved": 0, "lon": -76.9771835, "is_disabled": 0, "fusion_lat": 0.0, "lat": 38.888203, "bike_id": "208e1fe036545e2984e8de0ee7d1642e", "fusion_lon": 0.0}, {"rental_uris": {"ios": "https://dc.lft.to/lastmile_qr_scan", "android": "https://dc.lft.to/lastmile_qr_scan"}, "type": "electric_scooter", "name": "6811887de69acf09babc306fbbb032a1", "is_reserved": 0, "lon": -77.0281145, "is_disabled": 0, "fusion_lat": 0.0, "lat": 38.90913533333333, "bike_id": "6811887de69acf09babc306fbbb032a1", "fusion_lon": 0.0}, {"rental_uris": {"ios": "https://dc.lft.to/lastmile_qr_scan", "android": "https://dc.lft.to/lastmile_qr_scan"}, "type": "electric_scooter", "name": "fa792b419493ecaf8cd3ff28dfd29e81", "is_reserved": 0, "lon": -77.0386935, "is_disabled": 0, "fusion_lat": 0.0, "lat": 38.915635333333334, "bike_id": "fa792b419493ecaf8cd3ff28dfd29e81", "fusion_lon": 0.0}, {"rental_uris": {"ios": "https://dc.lft.to/lastmile_qr_scan", "android": "https://dc.lft.to/lastmile_qr_scan"}, "type": "electric_scooter", "name": "fcb8b96b232ef9378f72b0ac1fb715cc", "is_reserved": 0, "lon": -77.04275066666666, "is_disabled": 0, "fusion_lat": 0.0, "lat": 38.9064575, "bike_id": "fcb8b96b232ef9378f72b0ac1fb715cc", "fusion_lon": 0.0}, {"rental_uris": {"ios": "https://dc.lft.to/lastmile_qr_scan", "android": "https://dc.lft.to/lastmile_qr_scan"}, "type": "electric_scooter", "name": "a6ee16723590babf21d19bdb7d3f635a", "is_reserved": 0, "lon": -77.03495666666667, "is_disabled": 0, "fusion_lat": 0.0, "lat": 38.902797666666665, "bike_id": "a6ee16723590babf21d19bdb7d3f635a", "fusion_lon": 0.0}, {"rental_uris": {"ios": "https://dc.lft.to/lastmile_qr_scan", "android": "https://dc.lft.to/lastmile_qr_scan"}, "type": "electric_scooter", "name": "ae9254278f6ca4c644d9495e2c0ca803", "is_reserved": 0, "lon": -77.0652045, "is_disabled": 0, "fusion_lat": 0.0, "lat": 38.911115833333334, "bike_id": "ae9254278f6ca4c644d9495e2c0ca803", "fusion_lon": 0.0}, {"rental_uris": {"ios": "https://dc.lft.to/lastmile_qr_scan", "android": "https://dc.lft.to/lastmile_qr_scan"}, "type": "electric_scooter", "name": "d4fb9473f38203b9bc9186a37f903601", "is_reserved": 0, "lon": -77.041043, "is_disabled": 0, "fusion_lat": 0.0, "lat": 38.92533316666667, "bike_id": "d4fb9473f38203b9bc9186a37f903601", "fusion_lon": 0.0}, {"rental_uris": {"ios": "https://dc.lft.to/lastmile_qr_scan", "android": "https://dc.lft.to/lastmile_qr_scan"}, "type": "electric_bike", "name": "565985c94d9ce187faa3da83b5ab0f1d", "is_reserved": 0, "lon": -76.9615285, "is_disabled": 0, "fusion_lat": 0.0, "lat": 38.8561965, "bike_id": "565985c94d9ce187faa3da83b5ab0f1d", "fusion_lon": 0.0}, {"rental_uris": {"ios": "https://dc.lft.to/lastmile_qr_scan", "android": "https://dc.lft.to/lastmile_qr_scan"}, "type": "electric_scooter", "name": "299f5a446900926da9786161af3de5a1", "is_reserved": 0, "lon": -77.04058283333333, "is_disabled": 0, "fusion_lat": 0.0, "lat": 38.91768833333333, "bike_id": "299f5a446900926da9786161af3de5a1", "fusion_lon": 0.0}, {"rental_uris": {"ios": "https://dc.lft.to/lastmile_qr_scan", "android": "https://dc.lft.to/lastmile_qr_scan"}, "type": "electric_scooter", "name": "8f33b69c463d0d63b41f050dc7423c45", "is_reserved": 0, "lon": -77.04099383333333, "is_disabled": 0, "fusion_lat": 0.0, "lat": 38.917245666666666, "bike_id": "8f33b69c463d0d63b41f050dc7423c45", "fusion_lon": 0.0}, {"rental_uris": {"ios": "https://dc.lft.to/lastmile_qr_scan", "android": "https://dc.lft.to/lastmile_qr_scan"}, "type": "electric_scooter", "name": "2e1dba81ffcb9d7bd273dad8f03e0d2d", "is_reserved": 0, "lon": -77.0229195, "is_disabled": 0, "fusion_lat": 0.0, "lat": 38.918360166666666, "bike_id": "2e1dba81ffcb9d7bd273dad8f03e0d2d", "fusion_lon": 0.0}, {"rental_uris": {"ios": "https://dc.lft.to/lastmile_qr_scan", "android": "https://dc.lft.to/lastmile_qr_scan"}, "type": "electric_scooter", "name": "8a41cd2d7b445be387f726f886c9a846", "is_reserved": 0, "lon": -77.061684, "is_disabled": 0, "fusion_lat": 0.0, "lat": 38.90259966666667, "bike_id": "8a41cd2d7b445be387f726f886c9a846", "fusion_lon": 0.0}, {"rental_uris": {"ios": "https://dc.lft.to/lastmile_qr_scan", "android": "https://dc.lft.to/lastmile_qr_scan"}, "type": "electric_scooter", "name": "e1a1a2ac376811c76d2f7aa3d88c79f3", "is_reserved": 0, "lon": -77.04332433333333, "is_disabled": 0, "fusion_lat": 0.0, "lat": 38.90742066666667, "bike_id": "e1a1a2ac376811c76d2f7aa3d88c79f3", "fusion_lon": 0.0}, {"rental_uris": {"ios": "https://dc.lft.to/lastmile_qr_scan", "android": "https://dc.lft.to/lastmile_qr_scan"}, "type": "electric_scooter", "name": "08142d78348377ac0146b6062cfcf327", "is_reserved": 0, "lon": -77.02633566666667, "is_disabled": 0, "fusion_lat": 0.0, "lat": 38.90720266666667, "bike_id": "08142d78348377ac0146b6062cfcf327", "fusion_lon": 0.0}, {"rental_uris": {"ios": "https://dc.lft.to/lastmile_qr_scan", "android": "https://dc.lft.to/lastmile_qr_scan"}, "type": "electric_scooter", "name": "722fe19a322ccc994c84cafcfcc7d8e1", "is_reserved": 0, "lon": -77.05981183333333, "is_disabled": 0, "fusion_lat": 0.0, "lat": 38.9023905, "bike_id": "722fe19a322ccc994c84cafcfcc7d8e1", "fusion_lon": 0.0}, {"rental_uris": {"ios": "https://dc.lft.to/lastmile_qr_scan", "android": "https://dc.lft.to/lastmile_qr_scan"}, "type": "electric_scooter", "name": "e3fccc90357bc40ddeeb2b1415880ce0", "is_reserved": 0, "lon": -77.04466033333334, "is_disabled": 0, "fusion_lat": 0.0, "lat": 38.915353333333336, "bike_id": "e3fccc90357bc40ddeeb2b1415880ce0", "fusion_lon": 0.0}, {"rental_uris": {"ios": "https://dc.lft.to/lastmile_qr_scan", "android": "https://dc.lft.to/lastmile_qr_scan"}, "type": "electric_scooter", "name": "1db04ff4e7a7bf371a3149bcd447ba5a", "is_reserved": 0, "lon": -77.016993, "is_disabled": 0, "fusion_lat": 0.0, "lat": 38.90468466666667, "bike_id": "1db04ff4e7a7bf371a3149bcd447ba5a", "fusion_lon": 0.0}, {"rental_uris": {"ios": "https://dc.lft.to/lastmile_qr_scan", "android": "https://dc.lft.to/lastmile_qr_scan"}, "type": "electric_scooter", "name": "0b051c69bb9ca111969ab73bfcb21c06", "is_reserved": 0, "lon": -77.024525, "is_disabled": 0, "fusion_lat": 0.0, "lat": 38.920413333333336, "bike_id": "0b051c69bb9ca111969ab73bfcb21c06", "fusion_lon": 0.0}, {"rental_uris": {"ios": "https://dc.lft.to/lastmile_qr_scan", "android": "https://dc.lft.to/lastmile_qr_scan"}, "type": "electric_scooter", "name": "bdaa9608fb327f530234fed31ec408b3", "is_reserved": 0, "lon": -77.0532515, "is_disabled": 0, "fusion_lat": 0.0, "lat": 38.9235755, "bike_id": "bdaa9608fb327f530234fed31ec408b3", "fusion_lon": 0.0}, {"rental_uris": {"ios": "https://dc.lft.to/lastmile_qr_scan", "android": "https://dc.lft.to/lastmile_qr_scan"}, "type": "electric_scooter", "name": "16894306f62c6a1f5133e6eb7f20029f", "is_reserved": 0, "lon": -77.01092583333333, "is_disabled": 0, "fusion_lat": 0.0, "lat": 38.90682916666667, "bike_id": "16894306f62c6a1f5133e6eb7f20029f", "fusion_lon": 0.0}, {"rental_uris": {"ios": "https://dc.lft.to/lastmile_qr_scan", "android": "https://dc.lft.to/lastmile_qr_scan"}, "type": "electric_scooter", "name": "5fbbdc86fd8bf08cb6d2765a9940e3aa", "is_reserved": 0, "lon": -77.025429, "is_disabled": 0, "fusion_lat": 0.0, "lat": 38.907251333333335, "bike_id": "5fbbdc86fd8bf08cb6d2765a9940e3aa", "fusion_lon": 0.0}, {"rental_uris": {"ios": "https://dc.lft.to/lastmile_qr_scan", "android": "https://dc.lft.to/lastmile_qr_scan"}, "type": "electric_bike", "name": "019347cce6bc5acff23baa2c23d7d2f3", "is_reserved": 0, "lon": -76.97319983333334, "is_disabled": 0, "fusion_lat": 0.0, "lat": 38.857821333333334, "bike_id": "019347cce6bc5acff23baa2c23d7d2f3", "fusion_lon": 0.0}, {"rental_uris": {"ios": "https://dc.lft.to/lastmile_qr_scan", "android": "https://dc.lft.to/lastmile_qr_scan"}, "type": "electric_scooter", "name": "c10d037310ec8ddbe213f126c80013e5", "is_reserved": 0, "lon": -76.99791966666666, "is_disabled": 0, "fusion_lat": 0.0, "lat": 38.876314666666666, "bike_id": "c10d037310ec8ddbe213f126c80013e5", "fusion_lon": 0.0}, {"rental_uris": {"ios": "https://dc.lft.to/lastmile_qr_scan", "android": "https://dc.lft.to/lastmile_qr_scan"}, "type": "electric_bike", "name": "995f71ca050c472a520fedfb99bba7e9", "is_reserved": 0, "lon": -76.99248733333333, "is_disabled": 0, "fusion_lat": 0.0, "lat": 38.9606955, "bike_id": "995f71ca050c472a520fedfb99bba7e9", "fusion_lon": 0.0}, {"rental_uris": {"ios": "https://dc.lft.to/lastmile_qr_scan", "android": "https://dc.lft.to/lastmile_qr_scan"}, "type": "electric_scooter", "name": "ffd66bff4d15caf83c7fb0b1c3a67c34", "is_reserved": 0, "lon": -77.06083666666666, "is_disabled": 0, "fusion_lat": 0.0, "lat": 38.93986833333334, "bike_id": "ffd66bff4d15caf83c7fb0b1c3a67c34", "fusion_lon": 0.0}, {"rental_uris": {"ios": "https://dc.lft.to/lastmile_qr_scan", "android": "https://dc.lft.to/lastmile_qr_scan"}, "type": "electric_scooter", "name": "bb3d3c669653ae78d601ff2b844ae178", "is_reserved": 0, "lon": -76.97564733333333, "is_disabled": 0, "fusion_lat": 0.0, "lat": 38.94422683333333, "bike_id": "bb3d3c669653ae78d601ff2b844ae178", "fusion_lon": 0.0}, {"rental_uris": {"ios": "https://dc.lft.to/lastmile_qr_scan", "android": "https://dc.lft.to/lastmile_qr_scan"}, "type": "electric_scooter", "name": "cd8199bc71aefbb7d3f1f39c6fd39c8e", "is_reserved": 0, "lon": -77.05672883333334, "is_disabled": 0, "fusion_lat": 0.0, "lat": 38.90613483333333, "bike_id": "cd8199bc71aefbb7d3f1f39c6fd39c8e", "fusion_lon": 0.0}, {"rental_uris": {"ios": "https://dc.lft.to/lastmile_qr_scan", "android": "https://dc.lft.to/lastmile_qr_scan"}, "type": "electric_scooter", "name": "182d780436edc1b893320ceccf97e568", "is_reserved": 0, "lon": -77.02314166666666, "is_disabled": 0, "fusion_lat": 0.0, "lat": 38.92075366666667, "bike_id": "182d780436edc1b893320ceccf97e568", "fusion_lon": 0.0}, {"rental_uris": {"ios": "https://dc.lft.to/lastmile_qr_scan", "android": "https://dc.lft.to/lastmile_qr_scan"}, "type": "electric_scooter", "name": "a748d5bd7ee32101f62f1c6d3d124157", "is_reserved": 0, "lon": -77.055075, "is_disabled": 0, "fusion_lat": 0.0, "lat": 38.928386833333334, "bike_id": "a748d5bd7ee32101f62f1c6d3d124157", "fusion_lon": 0.0}, {"rental_uris": {"ios": "https://dc.lft.to/lastmile_qr_scan", "android": "https://dc.lft.to/lastmile_qr_scan"}, "type": "electric_scooter", "name": "fb93a618f62ff41e8d6788916858f1ad", "is_reserved": 0, "lon": -77.0394115, "is_disabled": 0, "fusion_lat": 0.0, "lat": 38.8985985, "bike_id": "fb93a618f62ff41e8d6788916858f1ad", "fusion_lon": 0.0}, {"rental_uris": {"ios": "https://dc.lft.to/lastmile_qr_scan", "android": "https://dc.lft.to/lastmile_qr_scan"}, "type": "electric_scooter", "name": "ac7afff67b682eb482d503f67ecbbc3d", "is_reserved": 0, "lon": -77.03215066666667, "is_disabled": 0, "fusion_lat": 0.0, "lat": 38.898413833333336, "bike_id": "ac7afff67b682eb482d503f67ecbbc3d", "fusion_lon": 0.0}, {"rental_uris": {"ios": "https://dc.lft.to/lastmile_qr_scan", "android": "https://dc.lft.to/lastmile_qr_scan"}, "type": "electric_bike", "name": "499a9f96ae89aa9370c339a0239e40c5", "is_reserved": 0, "lon": -77.00134583333333, "is_disabled": 0, "fusion_lat": 0.0, "lat": 38.99500316666666, "bike_id": "499a9f96ae89aa9370c339a0239e40c5", "fusion_lon": 0.0}, {"rental_uris": {"ios": "https://dc.lft.to/lastmile_qr_scan", "android": "https://dc.lft.to/lastmile_qr_scan"}, "type": "electric_scooter", "name": "55055f0b0eee6d97543e275c74032929", "is_reserved": 0, "lon": -76.9374615, "is_disabled": 0, "fusion_lat": 0.0, "lat": 38.890058333333336, "bike_id": "55055f0b0eee6d97543e275c74032929", "fusion_lon": 0.0}, {"rental_uris": {"ios": "https://dc.lft.to/lastmile_qr_scan", "android": "https://dc.lft.to/lastmile_qr_scan"}, "type": "electric_bike", "name": "aa0fd793be9c76df3bf4b616e0aef48c", "is_reserved": 0, "lon": -76.957936, "is_disabled": 0, "fusion_lat": 0.0, "lat": 38.980438, "bike_id": "aa0fd793be9c76df3bf4b616e0aef48c", "fusion_lon": 0.0}, {"rental_uris": {"ios": "https://dc.lft.to/lastmile_qr_scan", "android": "https://dc.lft.to/lastmile_qr_scan"}, "type": "electric_scooter", "name": "679805ea91926e89ba02f8e43c2d3de7", "is_reserved": 0, "lon": -77.02382983333334, "is_disabled": 0, "fusion_lat": 0.0, "lat": 38.93538683333333, "bike_id": "679805ea91926e89ba02f8e43c2d3de7", "fusion_lon": 0.0}, {"rental_uris": {"ios": "https://dc.lft.to/lastmile_qr_scan", "android": "https://dc.lft.to/lastmile_qr_scan"}, "type": "electric_scooter", "name": "f1d5dff70a8e291a34c2b6b332888e35", "is_reserved": 0, "lon": -77.07329266666666, "is_disabled": 0, "fusion_lat": 0.0, "lat": 38.96097066666667, "bike_id": "f1d5dff70a8e291a34c2b6b332888e35", "fusion_lon": 0.0}, {"rental_uris": {"ios": "https://dc.lft.to/lastmile_qr_scan", "android": "https://dc.lft.to/lastmile_qr_scan"}, "type": "electric_scooter", "name": "0bb1d2337ec2bde7c3053c63052ab77c", "is_reserved": 0, "lon": -77.0441085, "is_disabled": 0, "fusion_lat": 0.0, "lat": 38.925842, "bike_id": "0bb1d2337ec2bde7c3053c63052ab77c", "fusion_lon": 0.0}, {"rental_uris": {"ios": "https://dc.lft.to/lastmile_qr_scan", "android": "https://dc.lft.to/lastmile_qr_scan"}, "type": "electric_scooter", "name": "fde2df8d07a2c93877677cc1608516a4", "is_reserved": 0, "lon": -77.05335416666667, "is_disabled": 0, "fusion_lat": 0.0, "lat": 38.8987655, "bike_id": "fde2df8d07a2c93877677cc1608516a4", "fusion_lon": 0.0}, {"rental_uris": {"ios": "https://dc.lft.to/lastmile_qr_scan", "android": "https://dc.lft.to/lastmile_qr_scan"}, "type": "electric_scooter", "name": "5cb3c2338f7b3e508bb93d5490803c38", "is_reserved": 0, "lon": -77.04240433333334, "is_disabled": 0, "fusion_lat": 0.0, "lat": 38.91060133333333, "bike_id": "5cb3c2338f7b3e508bb93d5490803c38", "fusion_lon": 0.0}, {"rental_uris": {"ios": "https://dc.lft.to/lastmile_qr_scan", "android": "https://dc.lft.to/lastmile_qr_scan"}, "type": "electric_bike", "name": "d64c60fb57f17a64c83fde0835005c40", "is_reserved": 0, "lon": -77.07243433333333, "is_disabled": 0, "fusion_lat": 0.0, "lat": 38.8136495, "bike_id": "d64c60fb57f17a64c83fde0835005c40", "fusion_lon": 0.0}, {"rental_uris": {"ios": "https://dc.lft.to/lastmile_qr_scan", "android": "https://dc.lft.to/lastmile_qr_scan"}, "type": "electric_scooter", "name": "1e08b0b219abfde6c7dd7e9b1dea1285", "is_reserved": 0, "lon": -76.99011783333333, "is_disabled": 0, "fusion_lat": 0.0, "lat": 38.903928, "bike_id": "1e08b0b219abfde6c7dd7e9b1dea1285", "fusion_lon": 0.0}, {"rental_uris": {"ios": "https://dc.lft.to/lastmile_qr_scan", "android": "https://dc.lft.to/lastmile_qr_scan"}, "type": "electric_scooter", "name": "cd888aa2a886ec5938eb172494b40286", "is_reserved": 0, "lon": -76.99943816666666, "is_disabled": 0, "fusion_lat": 0.0, "lat": 38.90773266666667, "bike_id": "cd888aa2a886ec5938eb172494b40286", "fusion_lon": 0.0}, {"rental_uris": {"ios": "https://dc.lft.to/lastmile_qr_scan", "android": "https://dc.lft.to/lastmile_qr_scan"}, "type": "electric_scooter", "name": "2a5ef935ef2888fc8c1d2a03aba9c197", "is_reserved": 0, "lon": -77.037164, "is_disabled": 0, "fusion_lat": 0.0, "lat": 38.92651766666667, "bike_id": "2a5ef935ef2888fc8c1d2a03aba9c197", "fusion_lon": 0.0}, {"rental_uris": {"ios": "https://dc.lft.to/lastmile_qr_scan", "android": "https://dc.lft.to/lastmile_qr_scan"}, "type": "electric_scooter", "name": "11144806b847886b7519a9b1953df387", "is_reserved": 0, "lon": -77.04233516666666, "is_disabled": 0, "fusion_lat": 0.0, "lat": 38.922752333333335, "bike_id": "11144806b847886b7519a9b1953df387", "fusion_lon": 0.0}, {"rental_uris": {"ios": "https://dc.lft.to/lastmile_qr_scan", "android": "https://dc.lft.to/lastmile_qr_scan"}, "type": "electric_scooter", "name": "3a60e3b116112d5c650e3b24ae34aa72", "is_reserved": 0, "lon": -77.02201683333334, "is_disabled": 0, "fusion_lat": 0.0, "lat": 38.9145915, "bike_id": "3a60e3b116112d5c650e3b24ae34aa72", "fusion_lon": 0.0}, {"rental_uris": {"ios": "https://dc.lft.to/lastmile_qr_scan", "android": "https://dc.lft.to/lastmile_qr_scan"}, "type": "electric_scooter", "name": "d861016c23396468e3f30645e8fdfdce", "is_reserved": 0, "lon": -77.036583, "is_disabled": 0, "fusion_lat": 0.0, "lat": 38.922856, "bike_id": "d861016c23396468e3f30645e8fdfdce", "fusion_lon": 0.0}, {"rental_uris": {"ios": "https://dc.lft.to/lastmile_qr_scan", "android": "https://dc.lft.to/lastmile_qr_scan"}, "type": "electric_scooter", "name": "243b8d8596fcae4ec11c25991354755a", "is_reserved": 0, "lon": -77.015158, "is_disabled": 0, "fusion_lat": 0.0, "lat": 38.9014945, "bike_id": "243b8d8596fcae4ec11c25991354755a", "fusion_lon": 0.0}, {"rental_uris": {"ios": "https://dc.lft.to/lastmile_qr_scan", "android": "https://dc.lft.to/lastmile_qr_scan"}, "type": "electric_scooter", "name": "81139a5cacc421bf8d83f289cc59971d", "is_reserved": 0, "lon": -77.03805283333334, "is_disabled": 0, "fusion_lat": 0.0, "lat": 38.92588933333333, "bike_id": "81139a5cacc421bf8d83f289cc59971d", "fusion_lon": 0.0}, {"rental_uris": {"ios": "https://dc.lft.to/lastmile_qr_scan", "android": "https://dc.lft.to/lastmile_qr_scan"}, "type": "electric_scooter", "name": "24165a00fc8bb0fb5846eecc740ee9af", "is_reserved": 0, "lon": -77.01915416666667, "is_disabled": 0, "fusion_lat": 0.0, "lat": 38.902517, "bike_id": "24165a00fc8bb0fb5846eecc740ee9af", "fusion_lon": 0.0}, {"rental_uris": {"ios": "https://dc.lft.to/lastmile_qr_scan", "android": "https://dc.lft.to/lastmile_qr_scan"}, "type": "electric_scooter", "name": "c2ac17f10770d4635886e7c84d52a004", "is_reserved": 0, "lon": -77.03209783333334, "is_disabled": 0, "fusion_lat": 0.0, "lat": 38.924943999999996, "bike_id": "c2ac17f10770d4635886e7c84d52a004", "fusion_lon": 0.0}, {"rental_uris": {"ios": "https://dc.lft.to/lastmile_qr_scan", "android": "https://dc.lft.to/lastmile_qr_scan"}, "type": "electric_scooter", "name": "be82f1ce2d8e27bc7736f420c2dd54de", "is_reserved": 0, "lon": -77.01508333333334, "is_disabled": 0, "fusion_lat": 0.0, "lat": 38.90978783333333, "bike_id": "be82f1ce2d8e27bc7736f420c2dd54de", "fusion_lon": 0.0}, {"rental_uris": {"ios": "https://dc.lft.to/lastmile_qr_scan", "android": "https://dc.lft.to/lastmile_qr_scan"}, "type": "electric_bike", "name": "737b42287c7f9de31e1d2dceded8f2be", "is_reserved": 0, "lon": -77.09724, "is_disabled": 0, "fusion_lat": 0.0, "lat": 38.80740933333333, "bike_id": "737b42287c7f9de31e1d2dceded8f2be", "fusion_lon": 0.0}, {"rental_uris": {"ios": "https://dc.lft.to/lastmile_qr_scan", "android": "https://dc.lft.to/lastmile_qr_scan"}, "type": "electric_scooter", "name": "5ea6b0794be1a2b78b606c984fe5a53d", "is_reserved": 0, "lon": -77.04127733333333, "is_disabled": 0, "fusion_lat": 0.0, "lat": 38.933893166666664, "bike_id": "5ea6b0794be1a2b78b606c984fe5a53d", "fusion_lon": 0.0}, {"rental_uris": {"ios": "https://dc.lft.to/lastmile_qr_scan", "android": "https://dc.lft.to/lastmile_qr_scan"}, "type": "electric_scooter", "name": "c76d6f9652165504f734045aaeab931c", "is_reserved": 0, "lon": -77.015331, "is_disabled": 0, "fusion_lat": 0.0, "lat": 38.902745, "bike_id": "c76d6f9652165504f734045aaeab931c", "fusion_lon": 0.0}, {"rental_uris": {"ios": "https://dc.lft.to/lastmile_qr_scan", "android": "https://dc.lft.to/lastmile_qr_scan"}, "type": "electric_bike", "name": "01ba27ba3457d78503547c5e47e9a83f", "is_reserved": 0, "lon": -77.06529166666667, "is_disabled": 0, "fusion_lat": 0.0, "lat": 38.99237316666667, "bike_id": "01ba27ba3457d78503547c5e47e9a83f", "fusion_lon": 0.0}, {"rental_uris": {"ios": "https://dc.lft.to/lastmile_qr_scan", "android": "https://dc.lft.to/lastmile_qr_scan"}, "type": "electric_scooter", "name": "f76e3b10cd59dac27b104bb35af57158", "is_reserved": 0, "lon": -77.05518283333333, "is_disabled": 0, "fusion_lat": 0.0, "lat": 38.928354166666665, "bike_id": "f76e3b10cd59dac27b104bb35af57158", "fusion_lon": 0.0}, {"rental_uris": {"ios": "https://dc.lft.to/lastmile_qr_scan", "android": "https://dc.lft.to/lastmile_qr_scan"}, "type": "electric_scooter", "name": "73c49f10c8f24d778b84647b021d71a8", "is_reserved": 0, "lon": -77.0260345, "is_disabled": 0, "fusion_lat": 0.0, "lat": 38.946118, "bike_id": "73c49f10c8f24d778b84647b021d71a8", "fusion_lon": 0.0}, {"rental_uris": {"ios": "https://dc.lft.to/lastmile_qr_scan", "android": "https://dc.lft.to/lastmile_qr_scan"}, "type": "electric_bike", "name": "7265e7cd6397fb813db0910639af356b", "is_reserved": 0, "lon": -77.21664816666667, "is_disabled": 0, "fusion_lat": 0.0, "lat": 38.895083666666665, "bike_id": "7265e7cd6397fb813db0910639af356b", "fusion_lon": 0.0}, {"rental_uris": {"ios": "https://dc.lft.to/lastmile_qr_scan", "android": "https://dc.lft.to/lastmile_qr_scan"}, "type": "electric_scooter", "name": "45e9070b59cd7af84435ee012c57c01d", "is_reserved": 0, "lon": -77.01563416666667, "is_disabled": 0, "fusion_lat": 0.0, "lat": 38.876521, "bike_id": "45e9070b59cd7af84435ee012c57c01d", "fusion_lon": 0.0}, {"rental_uris": {"ios": "https://dc.lft.to/lastmile_qr_scan", "android": "https://dc.lft.to/lastmile_qr_scan"}, "type": "electric_scooter", "name": "a11e6771bd2a000f8590f34bc681abb1", "is_reserved": 0, "lon": -77.02290016666667, "is_disabled": 0, "fusion_lat": 0.0, "lat": 38.91838666666666, "bike_id": "a11e6771bd2a000f8590f34bc681abb1", "fusion_lon": 0.0}, {"rental_uris": {"ios": "https://dc.lft.to/lastmile_qr_scan", "android": "https://dc.lft.to/lastmile_qr_scan"}, "type": "electric_scooter", "name": "683a510288eb429bda6a2fb82f7c6ecc", "is_reserved": 0, "lon": -76.98339566666667, "is_disabled": 0, "fusion_lat": 0.0, "lat": 38.900859, "bike_id": "683a510288eb429bda6a2fb82f7c6ecc", "fusion_lon": 0.0}, {"rental_uris": {"ios": "https://dc.lft.to/lastmile_qr_scan", "android": "https://dc.lft.to/lastmile_qr_scan"}, "type": "electric_scooter", "name": "ac40dd7c7c4dbf8b5b633275da9a8fab", "is_reserved": 0, "lon": -77.02389383333333, "is_disabled": 0, "fusion_lat": 0.0, "lat": 38.920877833333336, "bike_id": "ac40dd7c7c4dbf8b5b633275da9a8fab", "fusion_lon": 0.0}, {"rental_uris": {"ios": "https://dc.lft.to/lastmile_qr_scan", "android": "https://dc.lft.to/lastmile_qr_scan"}, "type": "electric_scooter", "name": "1bf5d766d78d31e0ca80b149e4b5148f", "is_reserved": 0, "lon": -77.0282595, "is_disabled": 0, "fusion_lat": 0.0, "lat": 38.899728, "bike_id": "1bf5d766d78d31e0ca80b149e4b5148f", "fusion_lon": 0.0}, {"rental_uris": {"ios": "https://dc.lft.to/lastmile_qr_scan", "android": "https://dc.lft.to/lastmile_qr_scan"}, "type": "electric_bike", "name": "2365d62beac3b9709b30eb14b3648b17", "is_reserved": 0, "lon": -76.9881695, "is_disabled": 0, "fusion_lat": 0.0, "lat": 38.84280066666667, "bike_id": "2365d62beac3b9709b30eb14b3648b17", "fusion_lon": 0.0}, {"rental_uris": {"ios": "https://dc.lft.to/lastmile_qr_scan", "android": "https://dc.lft.to/lastmile_qr_scan"}, "type": "electric_scooter", "name": "ab75436eb02518e519ebe1a03e8aa7fe", "is_reserved": 0, "lon": -77.01765216666666, "is_disabled": 0, "fusion_lat": 0.0, "lat": 38.8861785, "bike_id": "ab75436eb02518e519ebe1a03e8aa7fe", "fusion_lon": 0.0}, {"rental_uris": {"ios": "https://dc.lft.to/lastmile_qr_scan", "android": "https://dc.lft.to/lastmile_qr_scan"}, "type": "electric_scooter", "name": "95f52d3da5b1116a9b6fa1d08b74b79a", "is_reserved": 0, "lon": -77.0393475, "is_disabled": 0, "fusion_lat": 0.0, "lat": 38.898602833333335, "bike_id": "95f52d3da5b1116a9b6fa1d08b74b79a", "fusion_lon": 0.0}, {"rental_uris": {"ios": "https://dc.lft.to/lastmile_qr_scan", "android": "https://dc.lft.to/lastmile_qr_scan"}, "type": "electric_scooter", "name": "e9d5837778aa9c1d976d35912127b09f", "is_reserved": 0, "lon": -77.01700916666667, "is_disabled": 0, "fusion_lat": 0.0, "lat": 38.90470833333333, "bike_id": "e9d5837778aa9c1d976d35912127b09f", "fusion_lon": 0.0}, {"rental_uris": {"ios": "https://dc.lft.to/lastmile_qr_scan", "android": "https://dc.lft.to/lastmile_qr_scan"}, "type": "electric_scooter", "name": "08c398c67766c19e76456f4cf7a8c294", "is_reserved": 0, "lon": -77.02592116666666, "is_disabled": 0, "fusion_lat": 0.0, "lat": 38.914031333333334, "bike_id": "08c398c67766c19e76456f4cf7a8c294", "fusion_lon": 0.0}, {"rental_uris": {"ios": "https://dc.lft.to/lastmile_qr_scan", "android": "https://dc.lft.to/lastmile_qr_scan"}, "type": "electric_scooter", "name": "a73ba8dd5b31d19236232443eccb9ab0", "is_reserved": 0, "lon": -77.02817566666667, "is_disabled": 0, "fusion_lat": 0.0, "lat": 38.899189166666666, "bike_id": "a73ba8dd5b31d19236232443eccb9ab0", "fusion_lon": 0.0}, {"rental_uris": {"ios": "https://dc.lft.to/lastmile_qr_scan", "android": "https://dc.lft.to/lastmile_qr_scan"}, "type": "electric_scooter", "name": "3699e85c16e1259666870a7e5e2ad2bc", "is_reserved": 0, "lon": -77.045121, "is_disabled": 0, "fusion_lat": 0.0, "lat": 38.92321583333333, "bike_id": "3699e85c16e1259666870a7e5e2ad2bc", "fusion_lon": 0.0}, {"rental_uris": {"ios": "https://dc.lft.to/lastmile_qr_scan", "android": "https://dc.lft.to/lastmile_qr_scan"}, "type": "electric_scooter", "name": "51d5d4f7c237ed87490c3f7c526dae12", "is_reserved": 0, "lon": -77.03866383333333, "is_disabled": 0, "fusion_lat": 0.0, "lat": 38.921477, "bike_id": "51d5d4f7c237ed87490c3f7c526dae12", "fusion_lon": 0.0}, {"rental_uris": {"ios": "https://dc.lft.to/lastmile_qr_scan", "android": "https://dc.lft.to/lastmile_qr_scan"}, "type": "electric_scooter", "name": "7dcb8a970004a499f1343dd0a925c928", "is_reserved": 0, "lon": -77.02961816666667, "is_disabled": 0, "fusion_lat": 0.0, "lat": 38.9041435, "bike_id": "7dcb8a970004a499f1343dd0a925c928", "fusion_lon": 0.0}, {"rental_uris": {"ios": "https://dc.lft.to/lastmile_qr_scan", "android": "https://dc.lft.to/lastmile_qr_scan"}, "type": "electric_scooter", "name": "71f705638e0a9a5e3dfa441901667bfc", "is_reserved": 0, "lon": -77.03328733333333, "is_disabled": 0, "fusion_lat": 0.0, "lat": 38.91915216666666, "bike_id": "71f705638e0a9a5e3dfa441901667bfc", "fusion_lon": 0.0}, {"rental_uris": {"ios": "https://dc.lft.to/lastmile_qr_scan", "android": "https://dc.lft.to/lastmile_qr_scan"}, "type": "electric_scooter", "name": "0fff287a4d5d83d4d2e5616ea1070926", "is_reserved": 0, "lon": -77.03191066666666, "is_disabled": 0, "fusion_lat": 0.0, "lat": 38.915635, "bike_id": "0fff287a4d5d83d4d2e5616ea1070926", "fusion_lon": 0.0}, {"rental_uris": {"ios": "https://dc.lft.to/lastmile_qr_scan", "android": "https://dc.lft.to/lastmile_qr_scan"}, "type": "electric_scooter", "name": "b184d95774870be9214194dc7d49e6f2", "is_reserved": 0, "lon": -77.02111183333334, "is_disabled": 0, "fusion_lat": 0.0, "lat": 38.92691666666666, "bike_id": "b184d95774870be9214194dc7d49e6f2", "fusion_lon": 0.0}, {"rental_uris": {"ios": "https://dc.lft.to/lastmile_qr_scan", "android": "https://dc.lft.to/lastmile_qr_scan"}, "type": "electric_scooter", "name": "7deca14e9f9d8c0927fd55c1f8a81608", "is_reserved": 0, "lon": -77.03440433333333, "is_disabled": 0, "fusion_lat": 0.0, "lat": 38.918015, "bike_id": "7deca14e9f9d8c0927fd55c1f8a81608", "fusion_lon": 0.0}, {"rental_uris": {"ios": "https://dc.lft.to/lastmile_qr_scan", "android": "https://dc.lft.to/lastmile_qr_scan"}, "type": "electric_scooter", "name": "895f31af8589d72e0e051103399fa542", "is_reserved": 0, "lon": -76.98536883333334, "is_disabled": 0, "fusion_lat": 0.0, "lat": 38.912897, "bike_id": "895f31af8589d72e0e051103399fa542", "fusion_lon": 0.0}, {"rental_uris": {"ios": "https://dc.lft.to/lastmile_qr_scan", "android": "https://dc.lft.to/lastmile_qr_scan"}, "type": "electric_scooter", "name": "3e594e7da9f3f8489408107d266fd9e5", "is_reserved": 0, "lon": -77.02603433333333, "is_disabled": 0, "fusion_lat": 0.0, "lat": 38.92416, "bike_id": "3e594e7da9f3f8489408107d266fd9e5", "fusion_lon": 0.0}, {"rental_uris": {"ios": "https://dc.lft.to/lastmile_qr_scan", "android": "https://dc.lft.to/lastmile_qr_scan"}, "type": "electric_scooter", "name": "dc65fca726ad77ca513841a80e267a00", "is_reserved": 0, "lon": -77.06276833333334, "is_disabled": 0, "fusion_lat": 0.0, "lat": 38.912422166666666, "bike_id": "dc65fca726ad77ca513841a80e267a00", "fusion_lon": 0.0}, {"rental_uris": {"ios": "https://dc.lft.to/lastmile_qr_scan", "android": "https://dc.lft.to/lastmile_qr_scan"}, "type": "electric_scooter", "name": "849bc80cb9f2c48d3a3061dca05b5cd1", "is_reserved": 0, "lon": -76.95736266666667, "is_disabled": 0, "fusion_lat": 0.0, "lat": 38.883925, "bike_id": "849bc80cb9f2c48d3a3061dca05b5cd1", "fusion_lon": 0.0}, {"rental_uris": {"ios": "https://dc.lft.to/lastmile_qr_scan", "android": "https://dc.lft.to/lastmile_qr_scan"}, "type": "electric_scooter", "name": "be4d5e5d28935f427a214e6ad197714c", "is_reserved": 0, "lon": -77.033731, "is_disabled": 0, "fusion_lat": 0.0, "lat": 38.911231666666666, "bike_id": "be4d5e5d28935f427a214e6ad197714c", "fusion_lon": 0.0}, {"rental_uris": {"ios": "https://dc.lft.to/lastmile_qr_scan", "android": "https://dc.lft.to/lastmile_qr_scan"}, "type": "electric_scooter", "name": "74645213655d95dc50875bced707a5be", "is_reserved": 0, "lon": -77.00590416666667, "is_disabled": 0, "fusion_lat": 0.0, "lat": 38.905726666666666, "bike_id": "74645213655d95dc50875bced707a5be", "fusion_lon": 0.0}, {"rental_uris": {"ios": "https://dc.lft.to/lastmile_qr_scan", "android": "https://dc.lft.to/lastmile_qr_scan"}, "type": "electric_bike", "name": "ce8981798a11e83e9afa63cba1f578c8", "is_reserved": 0, "lon": -76.917997, "is_disabled": 0, "fusion_lat": 0.0, "lat": 38.99999316666667, "bike_id": "ce8981798a11e83e9afa63cba1f578c8", "fusion_lon": 0.0}, {"rental_uris": {"ios": "https://dc.lft.to/lastmile_qr_scan", "android": "https://dc.lft.to/lastmile_qr_scan"}, "type": "electric_scooter", "name": "6a784a91c7be8b68764a0e01aacfa6c0", "is_reserved": 0, "lon": -77.043596, "is_disabled": 0, "fusion_lat": 0.0, "lat": 38.92247583333334, "bike_id": "6a784a91c7be8b68764a0e01aacfa6c0", "fusion_lon": 0.0}, {"rental_uris": {"ios": "https://dc.lft.to/lastmile_qr_scan", "android": "https://dc.lft.to/lastmile_qr_scan"}, "type": "electric_bike", "name": "69ceb05f4db5c66a0e61ead61880a291", "is_reserved": 0, "lon": -77.01702933333333, "is_disabled": 0, "fusion_lat": 0.0, "lat": 38.914377, "bike_id": "69ceb05f4db5c66a0e61ead61880a291", "fusion_lon": 0.0}, {"rental_uris": {"ios": "https://dc.lft.to/lastmile_qr_scan", "android": "https://dc.lft.to/lastmile_qr_scan"}, "type": "electric_bike", "name": "6fb599dde0b7dc076cfc07b31fa171cd", "is_reserved": 0, "lon": -77.13231066666667, "is_disabled": 0, "fusion_lat": 0.0, "lat": 38.80449016666667, "bike_id": "6fb599dde0b7dc076cfc07b31fa171cd", "fusion_lon": 0.0}, {"rental_uris": {"ios": "https://dc.lft.to/lastmile_qr_scan", "android": "https://dc.lft.to/lastmile_qr_scan"}, "type": "electric_scooter", "name": "3ca5191d0eade2f7dc89a1e16aa7d48c", "is_reserved": 0, "lon": -77.03174566666667, "is_disabled": 0, "fusion_lat": 0.0, "lat": 38.913349333333336, "bike_id": "3ca5191d0eade2f7dc89a1e16aa7d48c", "fusion_lon": 0.0}, {"rental_uris": {"ios": "https://dc.lft.to/lastmile_qr_scan", "android": "https://dc.lft.to/lastmile_qr_scan"}, "type": "electric_scooter", "name": "9c738bfac18210b5b3d65ba5bf0e31b3", "is_reserved": 0, "lon": -77.03856816666666, "is_disabled": 0, "fusion_lat": 0.0, "lat": 38.926480166666664, "bike_id": "9c738bfac18210b5b3d65ba5bf0e31b3", "fusion_lon": 0.0}, {"rental_uris": {"ios": "https://dc.lft.to/lastmile_qr_scan", "android": "https://dc.lft.to/lastmile_qr_scan"}, "type": "electric_scooter", "name": "4f875c816048ac80ac6fb90056e3483e", "is_reserved": 0, "lon": -77.04165366666666, "is_disabled": 0, "fusion_lat": 0.0, "lat": 38.91189416666667, "bike_id": "4f875c816048ac80ac6fb90056e3483e", "fusion_lon": 0.0}, {"rental_uris": {"ios": "https://dc.lft.to/lastmile_qr_scan", "android": "https://dc.lft.to/lastmile_qr_scan"}, "type": "electric_scooter", "name": "ef4cd2054432e3a3059608f61ece686e", "is_reserved": 0, "lon": -77.02693366666666, "is_disabled": 0, "fusion_lat": 0.0, "lat": 38.9084205, "bike_id": "ef4cd2054432e3a3059608f61ece686e", "fusion_lon": 0.0}, {"rental_uris": {"ios": "https://dc.lft.to/lastmile_qr_scan", "android": "https://dc.lft.to/lastmile_qr_scan"}, "type": "electric_scooter", "name": "2d737115e957cd6089dfea86df446f5e", "is_reserved": 0, "lon": -77.00625716666667, "is_disabled": 0, "fusion_lat": 0.0, "lat": 38.8716845, "bike_id": "2d737115e957cd6089dfea86df446f5e", "fusion_lon": 0.0}, {"rental_uris": {"ios": "https://dc.lft.to/lastmile_qr_scan", "android": "https://dc.lft.to/lastmile_qr_scan"}, "type": "electric_scooter", "name": "36170dc3f753c92d2e7797b38108f538", "is_reserved": 0, "lon": -77.06671133333333, "is_disabled": 0, "fusion_lat": 0.0, "lat": 38.90367533333333, "bike_id": "36170dc3f753c92d2e7797b38108f538", "fusion_lon": 0.0}, {"rental_uris": {"ios": "https://dc.lft.to/lastmile_qr_scan", "android": "https://dc.lft.to/lastmile_qr_scan"}, "type": "electric_scooter", "name": "264be97f4412db5321e5d361418478c0", "is_reserved": 0, "lon": -77.01798583333333, "is_disabled": 0, "fusion_lat": 0.0, "lat": 38.886055999999996, "bike_id": "264be97f4412db5321e5d361418478c0", "fusion_lon": 0.0}, {"rental_uris": {"ios": "https://dc.lft.to/lastmile_qr_scan", "android": "https://dc.lft.to/lastmile_qr_scan"}, "type": "electric_scooter", "name": "763cde75543a1ca43df6a8b37576d200", "is_reserved": 0, "lon": -77.0262725, "is_disabled": 0, "fusion_lat": 0.0, "lat": 38.924743666666664, "bike_id": "763cde75543a1ca43df6a8b37576d200", "fusion_lon": 0.0}, {"rental_uris": {"ios": "https://dc.lft.to/lastmile_qr_scan", "android": "https://dc.lft.to/lastmile_qr_scan"}, "type": "electric_scooter", "name": "fa2ce460b901b646bd74451da976967a", "is_reserved": 0, "lon": -77.047408, "is_disabled": 0, "fusion_lat": 0.0, "lat": 38.917788, "bike_id": "fa2ce460b901b646bd74451da976967a", "fusion_lon": 0.0}, {"rental_uris": {"ios": "https://dc.lft.to/lastmile_qr_scan", "android": "https://dc.lft.to/lastmile_qr_scan"}, "type": "electric_scooter", "name": "194686eb450a49c958235294c6a3e37b", "is_reserved": 0, "lon": -77.00048633333333, "is_disabled": 0, "fusion_lat": 0.0, "lat": 38.879239166666665, "bike_id": "194686eb450a49c958235294c6a3e37b", "fusion_lon": 0.0}, {"rental_uris": {"ios": "https://dc.lft.to/lastmile_qr_scan", "android": "https://dc.lft.to/lastmile_qr_scan"}, "type": "electric_bike", "name": "89fa0c0f8070121a6fc82954a77197d3", "is_reserved": 0, "lon": -76.983406, "is_disabled": 0, "fusion_lat": 0.0, "lat": 38.86266716666667, "bike_id": "89fa0c0f8070121a6fc82954a77197d3", "fusion_lon": 0.0}, {"rental_uris": {"ios": "https://dc.lft.to/lastmile_qr_scan", "android": "https://dc.lft.to/lastmile_qr_scan"}, "type": "electric_scooter", "name": "be9cd4e9bb948299cbbf45dc62ac6140", "is_reserved": 0, "lon": -77.02315816666666, "is_disabled": 0, "fusion_lat": 0.0, "lat": 38.940091, "bike_id": "be9cd4e9bb948299cbbf45dc62ac6140", "fusion_lon": 0.0}, {"rental_uris": {"ios": "https://dc.lft.to/lastmile_qr_scan", "android": "https://dc.lft.to/lastmile_qr_scan"}, "type": "electric_scooter", "name": "e63e2034fbec8d8be1e4bd08cd9885fa", "is_reserved": 0, "lon": -77.03965383333333, "is_disabled": 0, "fusion_lat": 0.0, "lat": 38.902736, "bike_id": "e63e2034fbec8d8be1e4bd08cd9885fa", "fusion_lon": 0.0}, {"rental_uris": {"ios": "https://dc.lft.to/lastmile_qr_scan", "android": "https://dc.lft.to/lastmile_qr_scan"}, "type": "electric_scooter", "name": "fae2c9ec4c8d01893ebf9a6dce496438", "is_reserved": 0, "lon": -77.01264716666667, "is_disabled": 0, "fusion_lat": 0.0, "lat": 38.897338, "bike_id": "fae2c9ec4c8d01893ebf9a6dce496438", "fusion_lon": 0.0}, {"rental_uris": {"ios": "https://dc.lft.to/lastmile_qr_scan", "android": "https://dc.lft.to/lastmile_qr_scan"}, "type": "electric_scooter", "name": "1970e82106b57435d6038bc5ef0553ef", "is_reserved": 0, "lon": -77.05209233333333, "is_disabled": 0, "fusion_lat": 0.0, "lat": 38.90320966666667, "bike_id": "1970e82106b57435d6038bc5ef0553ef", "fusion_lon": 0.0}, {"rental_uris": {"ios": "https://dc.lft.to/lastmile_qr_scan", "android": "https://dc.lft.to/lastmile_qr_scan"}, "type": "electric_scooter", "name": "40454e462f8233de6b9d89284f4cf170", "is_reserved": 0, "lon": -77.072132, "is_disabled": 0, "fusion_lat": 0.0, "lat": 38.90684816666667, "bike_id": "40454e462f8233de6b9d89284f4cf170", "fusion_lon": 0.0}, {"rental_uris": {"ios": "https://dc.lft.to/lastmile_qr_scan", "android": "https://dc.lft.to/lastmile_qr_scan"}, "type": "electric_scooter", "name": "21c2a81d9f0c5f9ecbf504edb63e0cc1", "is_reserved": 0, "lon": -76.98655433333333, "is_disabled": 0, "fusion_lat": 0.0, "lat": 38.90617116666667, "bike_id": "21c2a81d9f0c5f9ecbf504edb63e0cc1", "fusion_lon": 0.0}, {"rental_uris": {"ios": "https://dc.lft.to/lastmile_qr_scan", "android": "https://dc.lft.to/lastmile_qr_scan"}, "type": "electric_scooter", "name": "fb890262e1f6998ce843db39a1f34bc1", "is_reserved": 0, "lon": -77.02952983333333, "is_disabled": 0, "fusion_lat": 0.0, "lat": 38.90505733333333, "bike_id": "fb890262e1f6998ce843db39a1f34bc1", "fusion_lon": 0.0}, {"rental_uris": {"ios": "https://dc.lft.to/lastmile_qr_scan", "android": "https://dc.lft.to/lastmile_qr_scan"}, "type": "electric_scooter", "name": "07e718e7f2663f02ae37d3ea31a2cd2e", "is_reserved": 0, "lon": -76.9914435, "is_disabled": 0, "fusion_lat": 0.0, "lat": 38.873422833333336, "bike_id": "07e718e7f2663f02ae37d3ea31a2cd2e", "fusion_lon": 0.0}, {"rental_uris": {"ios": "https://dc.lft.to/lastmile_qr_scan", "android": "https://dc.lft.to/lastmile_qr_scan"}, "type": "electric_scooter", "name": "625ce6846b81b9822bda74bf8d6690c1", "is_reserved": 0, "lon": -76.98538833333333, "is_disabled": 0, "fusion_lat": 0.0, "lat": 38.87966133333333, "bike_id": "625ce6846b81b9822bda74bf8d6690c1", "fusion_lon": 0.0}, {"rental_uris": {"ios": "https://dc.lft.to/lastmile_qr_scan", "android": "https://dc.lft.to/lastmile_qr_scan"}, "type": "electric_scooter", "name": "e7f1b72998a7fa848270f3d4ba47d68c", "is_reserved": 0, "lon": -77.021796, "is_disabled": 0, "fusion_lat": 0.0, "lat": 38.9283215, "bike_id": "e7f1b72998a7fa848270f3d4ba47d68c", "fusion_lon": 0.0}, {"rental_uris": {"ios": "https://dc.lft.to/lastmile_qr_scan", "android": "https://dc.lft.to/lastmile_qr_scan"}, "type": "electric_scooter", "name": "5819ddeeb79749733d62c3ed0a89b0f3", "is_reserved": 0, "lon": -77.02459766666666, "is_disabled": 0, "fusion_lat": 0.0, "lat": 38.90334516666667, "bike_id": "5819ddeeb79749733d62c3ed0a89b0f3", "fusion_lon": 0.0}, {"rental_uris": {"ios": "https://dc.lft.to/lastmile_qr_scan", "android": "https://dc.lft.to/lastmile_qr_scan"}, "type": "electric_bike", "name": "c3931f48d567730e627c342df624c4cb", "is_reserved": 0, "lon": -76.96887283333334, "is_disabled": 0, "fusion_lat": 0.0, "lat": 38.869845, "bike_id": "c3931f48d567730e627c342df624c4cb", "fusion_lon": 0.0}, {"rental_uris": {"ios": "https://dc.lft.to/lastmile_qr_scan", "android": "https://dc.lft.to/lastmile_qr_scan"}, "type": "electric_scooter", "name": "18beea5c9c069d31e18261191bcdcc3f", "is_reserved": 0, "lon": -77.06396, "is_disabled": 0, "fusion_lat": 0.0, "lat": 38.90858733333334, "bike_id": "18beea5c9c069d31e18261191bcdcc3f", "fusion_lon": 0.0}, {"rental_uris": {"ios": "https://dc.lft.to/lastmile_qr_scan", "android": "https://dc.lft.to/lastmile_qr_scan"}, "type": "electric_scooter", "name": "c467576ec279ca1ff1ba5d0159b87e2c", "is_reserved": 0, "lon": -77.0187945, "is_disabled": 0, "fusion_lat": 0.0, "lat": 38.8747175, "bike_id": "c467576ec279ca1ff1ba5d0159b87e2c", "fusion_lon": 0.0}, {"rental_uris": {"ios": "https://dc.lft.to/lastmile_qr_scan", "android": "https://dc.lft.to/lastmile_qr_scan"}, "type": "electric_bike", "name": "3d46ce78ad8b2ae21b08406853d724f8", "is_reserved": 0, "lon": -77.12906333333333, "is_disabled": 0, "fusion_lat": 0.0, "lat": 38.90607, "bike_id": "3d46ce78ad8b2ae21b08406853d724f8", "fusion_lon": 0.0}, {"rental_uris": {"ios": "https://dc.lft.to/lastmile_qr_scan", "android": "https://dc.lft.to/lastmile_qr_scan"}, "type": "electric_scooter", "name": "57e2d8da2ddae4f44efdacc7e71f3d24", "is_reserved": 0, "lon": -77.03997433333333, "is_disabled": 0, "fusion_lat": 0.0, "lat": 38.934228833333336, "bike_id": "57e2d8da2ddae4f44efdacc7e71f3d24", "fusion_lon": 0.0}, {"rental_uris": {"ios": "https://dc.lft.to/lastmile_qr_scan", "android": "https://dc.lft.to/lastmile_qr_scan"}, "type": "electric_scooter", "name": "212ed4c8b31f715696a0572b19b8312e", "is_reserved": 0, "lon": -77.00924083333334, "is_disabled": 0, "fusion_lat": 0.0, "lat": 38.89778, "bike_id": "212ed4c8b31f715696a0572b19b8312e", "fusion_lon": 0.0}, {"rental_uris": {"ios": "https://dc.lft.to/lastmile_qr_scan", "android": "https://dc.lft.to/lastmile_qr_scan"}, "type": "electric_scooter", "name": "31bc8fbc36755fecd64d7eb9adb66b45", "is_reserved": 0, "lon": -77.0237835, "is_disabled": 0, "fusion_lat": 0.0, "lat": 38.903334, "bike_id": "31bc8fbc36755fecd64d7eb9adb66b45", "fusion_lon": 0.0}, {"rental_uris": {"ios": "https://dc.lft.to/lastmile_qr_scan", "android": "https://dc.lft.to/lastmile_qr_scan"}, "type": "electric_scooter", "name": "e7677114df0e99e8312bda4e8d6c99cd", "is_reserved": 0, "lon": -77.0355425, "is_disabled": 0, "fusion_lat": 0.0, "lat": 38.927366, "bike_id": "e7677114df0e99e8312bda4e8d6c99cd", "fusion_lon": 0.0}, {"rental_uris": {"ios": "https://dc.lft.to/lastmile_qr_scan", "android": "https://dc.lft.to/lastmile_qr_scan"}, "type": "electric_scooter", "name": "0b1db269401962e0042c1f055e0999cb", "is_reserved": 0, "lon": -77.02338566666667, "is_disabled": 0, "fusion_lat": 0.0, "lat": 38.881341166666665, "bike_id": "0b1db269401962e0042c1f055e0999cb", "fusion_lon": 0.0}, {"rental_uris": {"ios": "https://dc.lft.to/lastmile_qr_scan", "android": "https://dc.lft.to/lastmile_qr_scan"}, "type": "electric_scooter", "name": "68e08baab8177b3a058fa5c08c764d30", "is_reserved": 0, "lon": -77.04128366666667, "is_disabled": 0, "fusion_lat": 0.0, "lat": 38.921219, "bike_id": "68e08baab8177b3a058fa5c08c764d30", "fusion_lon": 0.0}, {"rental_uris": {"ios": "https://dc.lft.to/lastmile_qr_scan", "android": "https://dc.lft.to/lastmile_qr_scan"}, "type": "electric_scooter", "name": "d0946392b759638573c4f3246cff1035", "is_reserved": 0, "lon": -77.016323, "is_disabled": 0, "fusion_lat": 0.0, "lat": 38.91588133333333, "bike_id": "d0946392b759638573c4f3246cff1035", "fusion_lon": 0.0}, {"rental_uris": {"ios": "https://dc.lft.to/lastmile_qr_scan", "android": "https://dc.lft.to/lastmile_qr_scan"}, "type": "electric_scooter", "name": "111ac6da88a375fc24ca54001d35e8b8", "is_reserved": 0, "lon": -77.00479416666667, "is_disabled": 0, "fusion_lat": 0.0, "lat": 38.8745375, "bike_id": "111ac6da88a375fc24ca54001d35e8b8", "fusion_lon": 0.0}, {"rental_uris": {"ios": "https://dc.lft.to/lastmile_qr_scan", "android": "https://dc.lft.to/lastmile_qr_scan"}, "type": "electric_scooter", "name": "ca02087efebf42fb43118b217e069cc0", "is_reserved": 0, "lon": -77.04605683333334, "is_disabled": 0, "fusion_lat": 0.0, "lat": 38.901343, "bike_id": "ca02087efebf42fb43118b217e069cc0", "fusion_lon": 0.0}, {"rental_uris": {"ios": "https://dc.lft.to/lastmile_qr_scan", "android": "https://dc.lft.to/lastmile_qr_scan"}, "type": "electric_scooter", "name": "ca80aab5cde67efdf7b4934ecafeee41", "is_reserved": 0, "lon": -77.0084025, "is_disabled": 0, "fusion_lat": 0.0, "lat": 38.912556, "bike_id": "ca80aab5cde67efdf7b4934ecafeee41", "fusion_lon": 0.0}, {"rental_uris": {"ios": "https://dc.lft.to/lastmile_qr_scan", "android": "https://dc.lft.to/lastmile_qr_scan"}, "type": "electric_scooter", "name": "8eb56894275a23675b16ad99613222db", "is_reserved": 0, "lon": -77.03864883333334, "is_disabled": 0, "fusion_lat": 0.0, "lat": 38.912657833333334, "bike_id": "8eb56894275a23675b16ad99613222db", "fusion_lon": 0.0}, {"rental_uris": {"ios": "https://dc.lft.to/lastmile_qr_scan", "android": "https://dc.lft.to/lastmile_qr_scan"}, "type": "electric_scooter", "name": "bda70d784c8570edd32510a9d3f1e63a", "is_reserved": 0, "lon": -77.00587133333333, "is_disabled": 0, "fusion_lat": 0.0, "lat": 38.90037916666667, "bike_id": "bda70d784c8570edd32510a9d3f1e63a", "fusion_lon": 0.0}, {"rental_uris": {"ios": "https://dc.lft.to/lastmile_qr_scan", "android": "https://dc.lft.to/lastmile_qr_scan"}, "type": "electric_scooter", "name": "d00eef7b30455ae69d0d7470099baf2e", "is_reserved": 0, "lon": -77.0252065, "is_disabled": 0, "fusion_lat": 0.0, "lat": 38.94036116666667, "bike_id": "d00eef7b30455ae69d0d7470099baf2e", "fusion_lon": 0.0}, {"rental_uris": {"ios": "https://dc.lft.to/lastmile_qr_scan", "android": "https://dc.lft.to/lastmile_qr_scan"}, "type": "electric_scooter", "name": "1823ee34a97ce8079d4d6a5f2f01c3ce", "is_reserved": 0, "lon": -77.00402633333333, "is_disabled": 0, "fusion_lat": 0.0, "lat": 38.87463266666666, "bike_id": "1823ee34a97ce8079d4d6a5f2f01c3ce", "fusion_lon": 0.0}, {"rental_uris": {"ios": "https://dc.lft.to/lastmile_qr_scan", "android": "https://dc.lft.to/lastmile_qr_scan"}, "type": "electric_scooter", "name": "c63828eb54f238b2f46481c7e026a4a0", "is_reserved": 0, "lon": -76.99028583333333, "is_disabled": 0, "fusion_lat": 0.0, "lat": 38.8886795, "bike_id": "c63828eb54f238b2f46481c7e026a4a0", "fusion_lon": 0.0}, {"rental_uris": {"ios": "https://dc.lft.to/lastmile_qr_scan", "android": "https://dc.lft.to/lastmile_qr_scan"}, "type": "electric_scooter", "name": "0f64e452419453c47ed9b41e6a53f698", "is_reserved": 0, "lon": -77.068011, "is_disabled": 0, "fusion_lat": 0.0, "lat": 38.905106333333336, "bike_id": "0f64e452419453c47ed9b41e6a53f698", "fusion_lon": 0.0}, {"rental_uris": {"ios": "https://dc.lft.to/lastmile_qr_scan", "android": "https://dc.lft.to/lastmile_qr_scan"}, "type": "electric_scooter", "name": "b4fda0f141a4e8b5903fb18f28656848", "is_reserved": 0, "lon": -77.04678516666667, "is_disabled": 0, "fusion_lat": 0.0, "lat": 38.907207, "bike_id": "b4fda0f141a4e8b5903fb18f28656848", "fusion_lon": 0.0}, {"rental_uris": {"ios": "https://dc.lft.to/lastmile_qr_scan", "android": "https://dc.lft.to/lastmile_qr_scan"}, "type": "electric_scooter", "name": "6b9a0c8525a4e681c609dd5ef2600002", "is_reserved": 0, "lon": -77.0720445, "is_disabled": 0, "fusion_lat": 0.0, "lat": 38.91261433333333, "bike_id": "6b9a0c8525a4e681c609dd5ef2600002", "fusion_lon": 0.0}, {"rental_uris": {"ios": "https://dc.lft.to/lastmile_qr_scan", "android": "https://dc.lft.to/lastmile_qr_scan"}, "type": "electric_bike", "name": "4d9e882f9043d6690c9f50e57f734df5", "is_reserved": 0, "lon": -76.99367133333334, "is_disabled": 0, "fusion_lat": 0.0, "lat": 38.9273955, "bike_id": "4d9e882f9043d6690c9f50e57f734df5", "fusion_lon": 0.0}, {"rental_uris": {"ios": "https://dc.lft.to/lastmile_qr_scan", "android": "https://dc.lft.to/lastmile_qr_scan"}, "type": "electric_bike", "name": "9035f192665e8f69529c7250c39e08f0", "is_reserved": 0, "lon": -77.02006, "is_disabled": 0, "fusion_lat": 0.0, "lat": 39.026262833333334, "bike_id": "9035f192665e8f69529c7250c39e08f0", "fusion_lon": 0.0}, {"rental_uris": {"ios": "https://dc.lft.to/lastmile_qr_scan", "android": "https://dc.lft.to/lastmile_qr_scan"}, "type": "electric_scooter", "name": "a95f2db6ef394da8e07e62acc91c32e0", "is_reserved": 0, "lon": -77.001955, "is_disabled": 0, "fusion_lat": 0.0, "lat": 38.900507833333336, "bike_id": "a95f2db6ef394da8e07e62acc91c32e0", "fusion_lon": 0.0}, {"rental_uris": {"ios": "https://dc.lft.to/lastmile_qr_scan", "android": "https://dc.lft.to/lastmile_qr_scan"}, "type": "electric_scooter", "name": "de7f51c46087953f1dd19a3253a0ce69", "is_reserved": 0, "lon": -77.087781, "is_disabled": 0, "fusion_lat": 0.0, "lat": 38.935608, "bike_id": "de7f51c46087953f1dd19a3253a0ce69", "fusion_lon": 0.0}, {"rental_uris": {"ios": "https://dc.lft.to/lastmile_qr_scan", "android": "https://dc.lft.to/lastmile_qr_scan"}, "type": "electric_scooter", "name": "57e71e632b2952ee18801634b5880a6f", "is_reserved": 0, "lon": -77.06318116666667, "is_disabled": 0, "fusion_lat": 0.0, "lat": 38.913409333333334, "bike_id": "57e71e632b2952ee18801634b5880a6f", "fusion_lon": 0.0}, {"rental_uris": {"ios": "https://dc.lft.to/lastmile_qr_scan", "android": "https://dc.lft.to/lastmile_qr_scan"}, "type": "electric_scooter", "name": "267b7fdd60e053a36b4d5bd191f239fd", "is_reserved": 0, "lon": -77.03924516666666, "is_disabled": 0, "fusion_lat": 0.0, "lat": 38.898552333333335, "bike_id": "267b7fdd60e053a36b4d5bd191f239fd", "fusion_lon": 0.0}, {"rental_uris": {"ios": "https://dc.lft.to/lastmile_qr_scan", "android": "https://dc.lft.to/lastmile_qr_scan"}, "type": "electric_scooter", "name": "7d002d1972c8cba3c0e466fef414dab7", "is_reserved": 0, "lon": -77.040298, "is_disabled": 0, "fusion_lat": 0.0, "lat": 38.9216805, "bike_id": "7d002d1972c8cba3c0e466fef414dab7", "fusion_lon": 0.0}, {"rental_uris": {"ios": "https://dc.lft.to/lastmile_qr_scan", "android": "https://dc.lft.to/lastmile_qr_scan"}, "type": "electric_scooter", "name": "6957fd0c00afba897bf90a00d5bbe0de", "is_reserved": 0, "lon": -77.008171, "is_disabled": 0, "fusion_lat": 0.0, "lat": 38.915648, "bike_id": "6957fd0c00afba897bf90a00d5bbe0de", "fusion_lon": 0.0}, {"rental_uris": {"ios": "https://dc.lft.to/lastmile_qr_scan", "android": "https://dc.lft.to/lastmile_qr_scan"}, "type": "electric_scooter", "name": "42c51ff6795df69369a291cb20c9b61d", "is_reserved": 0, "lon": -77.02181433333334, "is_disabled": 0, "fusion_lat": 0.0, "lat": 38.92915416666666, "bike_id": "42c51ff6795df69369a291cb20c9b61d", "fusion_lon": 0.0}, {"rental_uris": {"ios": "https://dc.lft.to/lastmile_qr_scan", "android": "https://dc.lft.to/lastmile_qr_scan"}, "type": "electric_bike", "name": "4dc31c6813ed82ac798aff20e107b935", "is_reserved": 0, "lon": -77.04341616666666, "is_disabled": 0, "fusion_lat": 0.0, "lat": 38.92808766666667, "bike_id": "4dc31c6813ed82ac798aff20e107b935", "fusion_lon": 0.0}, {"rental_uris": {"ios": "https://dc.lft.to/lastmile_qr_scan", "android": "https://dc.lft.to/lastmile_qr_scan"}, "type": "electric_scooter", "name": "1bb4dd1596b558d4d59669afd92eba29", "is_reserved": 0, "lon": -77.04170016666667, "is_disabled": 0, "fusion_lat": 0.0, "lat": 38.9183195, "bike_id": "1bb4dd1596b558d4d59669afd92eba29", "fusion_lon": 0.0}, {"rental_uris": {"ios": "https://dc.lft.to/lastmile_qr_scan", "android": "https://dc.lft.to/lastmile_qr_scan"}, "type": "electric_scooter", "name": "0be7db13053b61e0432f369d574827e8", "is_reserved": 0, "lon": -77.04692533333333, "is_disabled": 0, "fusion_lat": 0.0, "lat": 38.903128833333334, "bike_id": "0be7db13053b61e0432f369d574827e8", "fusion_lon": 0.0}, {"rental_uris": {"ios": "https://dc.lft.to/lastmile_qr_scan", "android": "https://dc.lft.to/lastmile_qr_scan"}, "type": "electric_scooter", "name": "bef2d48cf6dcfcf93cee64201a405f03", "is_reserved": 0, "lon": -77.06712066666667, "is_disabled": 0, "fusion_lat": 0.0, "lat": 38.95016783333333, "bike_id": "bef2d48cf6dcfcf93cee64201a405f03", "fusion_lon": 0.0}, {"rental_uris": {"ios": "https://dc.lft.to/lastmile_qr_scan", "android": "https://dc.lft.to/lastmile_qr_scan"}, "type": "electric_scooter", "name": "83af54c55c4bb472a7fb755acdcb57fa", "is_reserved": 0, "lon": -77.03799383333333, "is_disabled": 0, "fusion_lat": 0.0, "lat": 38.91042983333333, "bike_id": "83af54c55c4bb472a7fb755acdcb57fa", "fusion_lon": 0.0}, {"rental_uris": {"ios": "https://dc.lft.to/lastmile_qr_scan", "android": "https://dc.lft.to/lastmile_qr_scan"}, "type": "electric_bike", "name": "05230ff48c577fc19d72853783e807df", "is_reserved": 0, "lon": -77.127299, "is_disabled": 0, "fusion_lat": 0.0, "lat": 38.895621166666665, "bike_id": "05230ff48c577fc19d72853783e807df", "fusion_lon": 0.0}, {"rental_uris": {"ios": "https://dc.lft.to/lastmile_qr_scan", "android": "https://dc.lft.to/lastmile_qr_scan"}, "type": "electric_scooter", "name": "4c44a33318d18ea4306fb8546cd09bbf", "is_reserved": 0, "lon": -77.0325085, "is_disabled": 0, "fusion_lat": 0.0, "lat": 38.91123066666667, "bike_id": "4c44a33318d18ea4306fb8546cd09bbf", "fusion_lon": 0.0}, {"rental_uris": {"ios": "https://dc.lft.to/lastmile_qr_scan", "android": "https://dc.lft.to/lastmile_qr_scan"}, "type": "electric_scooter", "name": "785c908cdb3bf0c8798a15e55131ac8b", "is_reserved": 0, "lon": -77.04881266666666, "is_disabled": 0, "fusion_lat": 0.0, "lat": 38.90079583333333, "bike_id": "785c908cdb3bf0c8798a15e55131ac8b", "fusion_lon": 0.0}, {"rental_uris": {"ios": "https://dc.lft.to/lastmile_qr_scan", "android": "https://dc.lft.to/lastmile_qr_scan"}, "type": "electric_scooter", "name": "4b00eb33c50cd5577196752561bbdb36", "is_reserved": 0, "lon": -76.94652166666667, "is_disabled": 0, "fusion_lat": 0.0, "lat": 38.8982565, "bike_id": "4b00eb33c50cd5577196752561bbdb36", "fusion_lon": 0.0}, {"rental_uris": {"ios": "https://dc.lft.to/lastmile_qr_scan", "android": "https://dc.lft.to/lastmile_qr_scan"}, "type": "electric_scooter", "name": "46af0db35cdc675324760ba0673a0bae", "is_reserved": 0, "lon": -77.04673166666667, "is_disabled": 0, "fusion_lat": 0.0, "lat": 38.892226, "bike_id": "46af0db35cdc675324760ba0673a0bae", "fusion_lon": 0.0}, {"rental_uris": {"ios": "https://dc.lft.to/lastmile_qr_scan", "android": "https://dc.lft.to/lastmile_qr_scan"}, "type": "electric_scooter", "name": "b15a5dd582c0ccfc6d9b537299a74b69", "is_reserved": 0, "lon": -77.05296016666667, "is_disabled": 0, "fusion_lat": 0.0, "lat": 38.90264, "bike_id": "b15a5dd582c0ccfc6d9b537299a74b69", "fusion_lon": 0.0}, {"rental_uris": {"ios": "https://dc.lft.to/lastmile_qr_scan", "android": "https://dc.lft.to/lastmile_qr_scan"}, "type": "electric_scooter", "name": "84b0bf8abf4a13d10b6ade2e6d58db8d", "is_reserved": 0, "lon": -76.9292205, "is_disabled": 0, "fusion_lat": 0.0, "lat": 38.886583333333334, "bike_id": "84b0bf8abf4a13d10b6ade2e6d58db8d", "fusion_lon": 0.0}, {"rental_uris": {"ios": "https://dc.lft.to/lastmile_qr_scan", "android": "https://dc.lft.to/lastmile_qr_scan"}, "type": "electric_scooter", "name": "8fe3f17fc28de68752590d57032b88d9", "is_reserved": 0, "lon": -77.01988116666666, "is_disabled": 0, "fusion_lat": 0.0, "lat": 38.930795333333336, "bike_id": "8fe3f17fc28de68752590d57032b88d9", "fusion_lon": 0.0}, {"rental_uris": {"ios": "https://dc.lft.to/lastmile_qr_scan", "android": "https://dc.lft.to/lastmile_qr_scan"},