{"data": {"bikes": [{"fusion_lat": 0.0, "name": "8a6093db0c7964da392b24b6b9b49f97", "is_disabled": 0, "rental_uris": {"android": "https://dc.lft.to/lastmile_qr_scan", "ios": "https://dc.lft.to/lastmile_qr_scan"}, "fusion_lon": 0.0, "lat": 38.92337533333333, "bike_id": "8a6093db0c7964da392b24b6b9b49f97", "type": "electric_scooter", "is_reserved": 0, "lon": -77.00190266666667}, {"fusion_lat": 0.0, "name": "13128abaa084d6ac3de3055e94e67682", "is_disabled": 0, "rental_uris": {"android": "https://dc.lft.to/lastmile_qr_scan", "ios": "https://dc.lft.to/lastmile_qr_scan"}, "fusion_lon": 0.0, "lat": 38.90662066666667, "bike_id": "13128abaa084d6ac3de3055e94e67682", "type": "electric_scooter", "is_reserved": 0, "lon": -77.02199316666666}, {"fusion_lat": 0.0, "name": "a2360b8fbd127cfb4b83456a29d207c1", "is_disabled": 0, "rental_uris": {"android": "https://dc.lft.to/lastmile_qr_scan", "ios": "https://dc.lft.to/lastmile_qr_scan"}, "fusion_lon": 0.0, "lat": 38.9206075, "bike_id": "a2360b8fbd127cfb4b83456a29d207c1", "type": "electric_scooter", "is_reserved": 0, "lon": -76.998596}, {"fusion_lat": 0.0, "name": "ed6516baa5df5de7508275e2ff42ffab", "is_disabled": 0, "rental_uris": {"android": "https://dc.lft.to/lastmile_qr_scan", "ios": "https://dc.lft.to/lastmile_qr_scan"}, "fusion_lon": 0.0, "lat": 38.905577666666666, "bike_id": "ed6516baa5df5de7508275e2ff42ffab", "type": "electric_scooter", "is_reserved": 0, "lon": -77.005975}, {"fusion_lat": 0.0, "name": "ac3437653c710dd9a29f566a507a05d1", "is_disabled": 0, "rental_uris": {"android": "https://dc.lft.to/lastmile_qr_scan", "ios": "https://dc.lft.to/lastmile_qr_scan"}, "fusion_lon": 0.0, "lat": 38.93916183333333, "bike_id": "ac3437653c710dd9a29f566a507a05d1", "type": "electric_scooter", "is_reserved": 0, "lon": -77.027932}, {"fusion_lat": 0.0, "name": "cd9089b54f79c8c6c0e9fe1b4fb92e3e", "is_disabled": 0, "rental_uris": {"android": "https://dc.lft.to/lastmile_qr_scan", "ios": "https://dc.lft.to/lastmile_qr_scan"}, "fusion_lon": 0.0, "lat": 38.910288, "bike_id": "cd9089b54f79c8c6c0e9fe1b4fb92e3e", "type": "electric_scooter", "is_reserved": 0, "lon": -77.00764916666667}, {"fusion_lat": 0.0, "name": "aa3aaa77e605a0e4cb43bb8eff8db5f0", "is_disabled": 0, "rental_uris": {"android": "https://dc.lft.to/lastmile_qr_scan", "ios": "https://dc.lft.to/lastmile_qr_scan"}, "fusion_lon": 0.0, "lat": 38.884134333333336, "bike_id": "aa3aaa77e605a0e4cb43bb8eff8db5f0", "type": "electric_scooter", "is_reserved": 0, "lon": -77.01986}, {"fusion_lat": 0.0, "name": "1f47713bc357391bbb0617492e9829a2", "is_disabled": 0, "rental_uris": {"android": "https://dc.lft.to/lastmile_qr_scan", "ios": "https://dc.lft.to/lastmile_qr_scan"}, "fusion_lon": 0.0, "lat": 38.9003015, "bike_id": "1f47713bc357391bbb0617492e9829a2", "type": "electric_scooter", "is_reserved": 0, "lon": -76.991367}, {"fusion_lat": 0.0, "name": "a69e24ce5bc244e4897d80d1ca75b52a", "is_disabled": 0, "rental_uris": {"android": "https://dc.lft.to/lastmile_qr_scan", "ios": "https://dc.lft.to/lastmile_qr_scan"}, "fusion_lon": 0.0, "lat": 38.96142483333333, "bike_id": "a69e24ce5bc244e4897d80d1ca75b52a", "type": "electric_bike", "is_reserved": 0, "lon": -77.03233366666667}, {"fusion_lat": 0.0, "name": "8fca1dbfbc996d8f6da250430a101f16", "is_disabled": 0, "rental_uris": {"android": "https://dc.lft.to/lastmile_qr_scan", "ios": "https://dc.lft.to/lastmile_qr_scan"}, "fusion_lon": 0.0, "lat": 38.89932966666667, "bike_id": "8fca1dbfbc996d8f6da250430a101f16", "type": "electric_scooter", "is_reserved": 0, "lon": -77.00358083333333}, {"fusion_lat": 0.0, "name": "3ec9be9e963d7feed393059a29a890fc", "is_disabled": 0, "rental_uris": {"android": "https://dc.lft.to/lastmile_qr_scan", "ios": "https://dc.lft.to/lastmile_qr_scan"}, "fusion_lon": 0.0, "lat": 38.90345216666667, "bike_id": "3ec9be9e963d7feed393059a29a890fc", "type": "electric_scooter", "is_reserved": 0, "lon": -76.97474916666667}, {"fusion_lat": 0.0, "name": "bcac473f1bdef4bac951f7144a8d52c5", "is_disabled": 0, "rental_uris": {"android": "https://dc.lft.to/lastmile_qr_scan", "ios": "https://dc.lft.to/lastmile_qr_scan"}, "fusion_lon": 0.0, "lat": 38.883351166666664, "bike_id": "bcac473f1bdef4bac951f7144a8d52c5", "type": "electric_scooter", "is_reserved": 0, "lon": -77.01466266666667}, {"fusion_lat": 0.0, "name": "1da61dfd6081c43e9e17866155c1b8c5", "is_disabled": 0, "rental_uris": {"android": "https://dc.lft.to/lastmile_qr_scan", "ios": "https://dc.lft.to/lastmile_qr_scan"}, "fusion_lon": 0.0, "lat": 38.89221533333333, "bike_id": "1da61dfd6081c43e9e17866155c1b8c5", "type": "electric_scooter", "is_reserved": 0, "lon": -77.03337416666666}, {"fusion_lat": 0.0, "name": "1e102a77e2a7b83be5cc6145e6c0a7a4", "is_disabled": 0, "rental_uris": {"android": "https://dc.lft.to/lastmile_qr_scan", "ios": "https://dc.lft.to/lastmile_qr_scan"}, "fusion_lon": 0.0, "lat": 38.92588033333333, "bike_id": "1e102a77e2a7b83be5cc6145e6c0a7a4", "type": "electric_scooter", "is_reserved": 0, "lon": -77.02475666666666}, {"fusion_lat": 0.0, "name": "314569b83eb9130b2c80f49bcb6eb010", "is_disabled": 0, "rental_uris": {"android": "https://dc.lft.to/lastmile_qr_scan", "ios": "https://dc.lft.to/lastmile_qr_scan"}, "fusion_lon": 0.0, "lat": 38.900753, "bike_id": "314569b83eb9130b2c80f49bcb6eb010", "type": "electric_scooter", "is_reserved": 0, "lon": -77.04922416666666}, {"fusion_lat": 0.0, "name": "8b119e26c38f77be46e9fd4c87ca399b", "is_disabled": 0, "rental_uris": {"android": "https://dc.lft.to/lastmile_qr_scan", "ios": "https://dc.lft.to/lastmile_qr_scan"}, "fusion_lon": 0.0, "lat": 38.909279833333336, "bike_id": "8b119e26c38f77be46e9fd4c87ca399b", "type": "electric_scooter", "is_reserved": 0, "lon": -77.062524}, {"fusion_lat": 0.0, "name": "988bf4bab2b814182343c37bd589630f", "is_disabled": 0, "rental_uris": {"android": "https://dc.lft.to/lastmile_qr_scan", "ios": "https://dc.lft.to/lastmile_qr_scan"}, "fusion_lon": 0.0, "lat": 38.9345815, "bike_id": "988bf4bab2b814182343c37bd589630f", "type": "electric_scooter", "is_reserved": 0, "lon": -77.034052}, {"fusion_lat": 0.0, "name": "aa9f72e0c66f63da88a4d5dd028c10c3", "is_disabled": 0, "rental_uris": {"android": "https://dc.lft.to/lastmile_qr_scan", "ios": "https://dc.lft.to/lastmile_qr_scan"}, "fusion_lon": 0.0, "lat": 38.901001666666666, "bike_id": "aa9f72e0c66f63da88a4d5dd028c10c3", "type": "electric_scooter", "is_reserved": 0, "lon": -77.050593}, {"fusion_lat": 0.0, "name": "30ca107f77f8d9da6b8053f8f6df6262", "is_disabled": 0, "rental_uris": {"android": "https://dc.lft.to/lastmile_qr_scan", "ios": "https://dc.lft.to/lastmile_qr_scan"}, "fusion_lon": 0.0, "lat": 38.9388045, "bike_id": "30ca107f77f8d9da6b8053f8f6df6262", "type": "electric_scooter", "is_reserved": 0, "lon": -77.024694}, {"fusion_lat": 0.0, "name": "9d36f7f3f801a261a04216eee03c82f7", "is_disabled": 0, "rental_uris": {"android": "https://dc.lft.to/lastmile_qr_scan", "ios": "https://dc.lft.to/lastmile_qr_scan"}, "fusion_lon": 0.0, "lat": 38.928003, "bike_id": "9d36f7f3f801a261a04216eee03c82f7", "type": "electric_scooter", "is_reserved": 0, "lon": -77.04356116666666}, {"fusion_lat": 0.0, "name": "423ba6bcc57e7ce55d8eb195bb21fead", "is_disabled": 0, "rental_uris": {"android": "https://dc.lft.to/lastmile_qr_scan", "ios": "https://dc.lft.to/lastmile_qr_scan"}, "fusion_lon": 0.0, "lat": 38.938240666666665, "bike_id": "423ba6bcc57e7ce55d8eb195bb21fead", "type": "electric_scooter", "is_reserved": 0, "lon": -77.0264605}, {"fusion_lat": 0.0, "name": "dda1d6886b082eed17e2a3c5e27eb1aa", "is_disabled": 0, "rental_uris": {"android": "https://dc.lft.to/lastmile_qr_scan", "ios": "https://dc.lft.to/lastmile_qr_scan"}, "fusion_lon": 0.0, "lat": 38.973621666666666, "bike_id": "dda1d6886b082eed17e2a3c5e27eb1aa", "type": "electric_scooter", "is_reserved": 0, "lon": -77.012953}, {"fusion_lat": 0.0, "name": "eb0656e129945edcc153eb7c8d164140", "is_disabled": 0, "rental_uris": {"android": "https://dc.lft.to/lastmile_qr_scan", "ios": "https://dc.lft.to/lastmile_qr_scan"}, "fusion_lon": 0.0, "lat": 38.9369485, "bike_id": "eb0656e129945edcc153eb7c8d164140", "type": "electric_scooter", "is_reserved": 0, "lon": -77.02392016666667}, {"fusion_lat": 0.0, "name": "7bf02bdfaf9d3963c899927e21d06de1", "is_disabled": 0, "rental_uris": {"android": "https://dc.lft.to/lastmile_qr_scan", "ios": "https://dc.lft.to/lastmile_qr_scan"}, "fusion_lon": 0.0, "lat": 38.900741, "bike_id": "7bf02bdfaf9d3963c899927e21d06de1", "type": "electric_scooter", "is_reserved": 0, "lon": -77.0245675}, {"fusion_lat": 0.0, "name": "4eabe98dc9ce63bf8be58ba8c013a36e", "is_disabled": 0, "rental_uris": {"android": "https://dc.lft.to/lastmile_qr_scan", "ios": "https://dc.lft.to/lastmile_qr_scan"}, "fusion_lon": 0.0, "lat": 38.901215666666666, "bike_id": "4eabe98dc9ce63bf8be58ba8c013a36e", "type": "electric_scooter", "is_reserved": 0, "lon": -77.002821}, {"fusion_lat": 0.0, "name": "a7a13a716aa3d949542dd15dbbe87760", "is_disabled": 0, "rental_uris": {"android": "https://dc.lft.to/lastmile_qr_scan", "ios": "https://dc.lft.to/lastmile_qr_scan"}, "fusion_lon": 0.0, "lat": 38.90012733333333, "bike_id": "a7a13a716aa3d949542dd15dbbe87760", "type": "electric_scooter", "is_reserved": 0, "lon": -76.99773483333334}, {"fusion_lat": 0.0, "name": "318cc98abe6c7ee45525393405ed39d2", "is_disabled": 0, "rental_uris": {"android": "https://dc.lft.to/lastmile_qr_scan", "ios": "https://dc.lft.to/lastmile_qr_scan"}, "fusion_lon": 0.0, "lat": 38.9184575, "bike_id": "318cc98abe6c7ee45525393405ed39d2", "type": "electric_scooter", "is_reserved": 0, "lon": -76.965438}, {"fusion_lat": 0.0, "name": "61023da7ded0d5f6a12da062cb7debf4", "is_disabled": 0, "rental_uris": {"android": "https://dc.lft.to/lastmile_qr_scan", "ios": "https://dc.lft.to/lastmile_qr_scan"}, "fusion_lon": 0.0, "lat": 38.91353516666667, "bike_id": "61023da7ded0d5f6a12da062cb7debf4", "type": "electric_scooter", "is_reserved": 0, "lon": -77.03327366666667}, {"fusion_lat": 0.0, "name": "41ad90f5a7b211d3194c771aa533be6b", "is_disabled": 0, "rental_uris": {"android": "https://dc.lft.to/lastmile_qr_scan", "ios": "https://dc.lft.to/lastmile_qr_scan"}, "fusion_lon": 0.0, "lat": 38.984743, "bike_id": "41ad90f5a7b211d3194c771aa533be6b", "type": "electric_scooter", "is_reserved": 0, "lon": -77.02644983333333}, {"fusion_lat": 0.0, "name": "3e595b0d01514e169035be33b1df0eaa", "is_disabled": 0, "rental_uris": {"android": "https://dc.lft.to/lastmile_qr_scan", "ios": "https://dc.lft.to/lastmile_qr_scan"}, "fusion_lon": 0.0, "lat": 38.901636333333336, "bike_id": "3e595b0d01514e169035be33b1df0eaa", "type": "electric_scooter", "is_reserved": 0, "lon": -77.02576833333333}, {"fusion_lat": 0.0, "name": "b98d81888586eef57ae32b442f617fa4", "is_disabled": 0, "rental_uris": {"android": "https://dc.lft.to/lastmile_qr_scan", "ios": "https://dc.lft.to/lastmile_qr_scan"}, "fusion_lon": 0.0, "lat": 38.921377166666666, "bike_id": "b98d81888586eef57ae32b442f617fa4", "type": "electric_scooter", "is_reserved": 0, "lon": -77.01791766666666}, {"fusion_lat": 0.0, "name": "4d2da325c0509d7d45128b28a5b71a1c", "is_disabled": 0, "rental_uris": {"android": "https://dc.lft.to/lastmile_qr_scan", "ios": "https://dc.lft.to/lastmile_qr_scan"}, "fusion_lon": 0.0, "lat": 38.9165635, "bike_id": "4d2da325c0509d7d45128b28a5b71a1c", "type": "electric_scooter", "is_reserved": 0, "lon": -77.02819883333333}, {"fusion_lat": 0.0, "name": "0eeffa559692257b43f99efdca3caf66", "is_disabled": 0, "rental_uris": {"android": "https://dc.lft.to/lastmile_qr_scan", "ios": "https://dc.lft.to/lastmile_qr_scan"}, "fusion_lon": 0.0, "lat": 38.92652133333333, "bike_id": "0eeffa559692257b43f99efdca3caf66", "type": "electric_scooter", "is_reserved": 0, "lon": -77.03712}, {"fusion_lat": 0.0, "name": "250fe994f7d05ad740375600526a0cca", "is_disabled": 0, "rental_uris": {"android": "https://dc.lft.to/lastmile_qr_scan", "ios": "https://dc.lft.to/lastmile_qr_scan"}, "fusion_lon": 0.0, "lat": 38.887649, "bike_id": "250fe994f7d05ad740375600526a0cca", "type": "electric_scooter", "is_reserved": 0, "lon": -76.99472266666666}, {"fusion_lat": 0.0, "name": "7956e449fb6bf16f70312a2684e93fd8", "is_disabled": 0, "rental_uris": {"android": "https://dc.lft.to/lastmile_qr_scan", "ios": "https://dc.lft.to/lastmile_qr_scan"}, "fusion_lon": 0.0, "lat": 38.90798066666667, "bike_id": "7956e449fb6bf16f70312a2684e93fd8", "type": "electric_scooter", "is_reserved": 0, "lon": -77.043468}, {"fusion_lat": 0.0, "name": "9f22ab356f6ed74b07f9d6ad07b853f9", "is_disabled": 0, "rental_uris": {"android": "https://dc.lft.to/lastmile_qr_scan", "ios": "https://dc.lft.to/lastmile_qr_scan"}, "fusion_lon": 0.0, "lat": 38.921683, "bike_id": "9f22ab356f6ed74b07f9d6ad07b853f9", "type": "electric_scooter", "is_reserved": 0, "lon": -77.0364865}, {"fusion_lat": 0.0, "name": "7c0220796adf41d548f318ada30f6410", "is_disabled": 0, "rental_uris": {"android": "https://dc.lft.to/lastmile_qr_scan", "ios": "https://dc.lft.to/lastmile_qr_scan"}, "fusion_lon": 0.0, "lat": 38.92481433333333, "bike_id": "7c0220796adf41d548f318ada30f6410", "type": "electric_scooter", "is_reserved": 0, "lon": -77.02834333333334}, {"fusion_lat": 0.0, "name": "69d067ae5d20a517732dd2a77d2828f9", "is_disabled": 0, "rental_uris": {"android": "https://dc.lft.to/lastmile_qr_scan", "ios": "https://dc.lft.to/lastmile_qr_scan"}, "fusion_lon": 0.0, "lat": 38.89873733333334, "bike_id": "69d067ae5d20a517732dd2a77d2828f9", "type": "electric_scooter", "is_reserved": 0, "lon": -76.9318475}, {"fusion_lat": 0.0, "name": "723d0e9433e340cdd916a54e45f9155e", "is_disabled": 0, "rental_uris": {"android": "https://dc.lft.to/lastmile_qr_scan", "ios": "https://dc.lft.to/lastmile_qr_scan"}, "fusion_lon": 0.0, "lat": 38.89216616666667, "bike_id": "723d0e9433e340cdd916a54e45f9155e", "type": "electric_scooter", "is_reserved": 0, "lon": -77.02777016666667}, {"fusion_lat": 0.0, "name": "aa62700a522bb2e1d58ec45c2e5c2e2d", "is_disabled": 0, "rental_uris": {"android": "https://dc.lft.to/lastmile_qr_scan", "ios": "https://dc.lft.to/lastmile_qr_scan"}, "fusion_lon": 0.0, "lat": 38.93347466666667, "bike_id": "aa62700a522bb2e1d58ec45c2e5c2e2d", "type": "electric_scooter", "is_reserved": 0, "lon": -77.02420416666666}, {"fusion_lat": 0.0, "name": "5c229373779707dcf0904c9df2427b30", "is_disabled": 0, "rental_uris": {"android": "https://dc.lft.to/lastmile_qr_scan", "ios": "https://dc.lft.to/lastmile_qr_scan"}, "fusion_lon": 0.0, "lat": 38.89724833333333, "bike_id": "5c229373779707dcf0904c9df2427b30", "type": "electric_scooter", "is_reserved": 0, "lon": -77.02701666666667}, {"fusion_lat": 0.0, "name": "0dff7f7c8abbfd305982b1245df0ccd8", "is_disabled": 0, "rental_uris": {"android": "https://dc.lft.to/lastmile_qr_scan", "ios": "https://dc.lft.to/lastmile_qr_scan"}, "fusion_lon": 0.0, "lat": 38.93517516666667, "bike_id": "0dff7f7c8abbfd305982b1245df0ccd8", "type": "electric_scooter", "is_reserved": 0, "lon": -77.07262316666667}, {"fusion_lat": 0.0, "name": "1390b7f2e6f5dd98b012cd73467a429a", "is_disabled": 0, "rental_uris": {"android": "https://dc.lft.to/lastmile_qr_scan", "ios": "https://dc.lft.to/lastmile_qr_scan"}, "fusion_lon": 0.0, "lat": 38.8922645, "bike_id": "1390b7f2e6f5dd98b012cd73467a429a", "type": "electric_scooter", "is_reserved": 0, "lon": -77.028345}, {"fusion_lat": 0.0, "name": "43d57c5d2dc7d8773070eca1dcec189d", "is_disabled": 0, "rental_uris": {"android": "https://dc.lft.to/lastmile_qr_scan", "ios": "https://dc.lft.to/lastmile_qr_scan"}, "fusion_lon": 0.0, "lat": 38.91562533333333, "bike_id": "43d57c5d2dc7d8773070eca1dcec189d", "type": "electric_scooter", "is_reserved": 0, "lon": -77.03857483333333}, {"fusion_lat": 0.0, "name": "ad41afbd19866c8231236ec25a0ab682", "is_disabled": 0, "rental_uris": {"android": "https://dc.lft.to/lastmile_qr_scan", "ios": "https://dc.lft.to/lastmile_qr_scan"}, "fusion_lon": 0.0, "lat": 38.89435833333334, "bike_id": "ad41afbd19866c8231236ec25a0ab682", "type": "electric_scooter", "is_reserved": 0, "lon": -76.9367465}, {"fusion_lat": 0.0, "name": "dad4aa87443bc2e53134d6646c706e29", "is_disabled": 0, "rental_uris": {"android": "https://dc.lft.to/lastmile_qr_scan", "ios": "https://dc.lft.to/lastmile_qr_scan"}, "fusion_lon": 0.0, "lat": 38.89848333333333, "bike_id": "dad4aa87443bc2e53134d6646c706e29", "type": "electric_scooter", "is_reserved": 0, "lon": -76.9903285}, {"fusion_lat": 0.0, "name": "79eed2a7b2966e88202cc461523d1517", "is_disabled": 0, "rental_uris": {"android": "https://dc.lft.to/lastmile_qr_scan", "ios": "https://dc.lft.to/lastmile_qr_scan"}, "fusion_lon": 0.0, "lat": 38.84755416666667, "bike_id": "79eed2a7b2966e88202cc461523d1517", "type": "electric_scooter", "is_reserved": 0, "lon": -76.9950005}, {"fusion_lat": 0.0, "name": "0d0c0d9584e0f0d536b31a371081668f", "is_disabled": 0, "rental_uris": {"android": "https://dc.lft.to/lastmile_qr_scan", "ios": "https://dc.lft.to/lastmile_qr_scan"}, "fusion_lon": 0.0, "lat": 38.908109333333336, "bike_id": "0d0c0d9584e0f0d536b31a371081668f", "type": "electric_scooter", "is_reserved": 0, "lon": -77.03439666666667}, {"fusion_lat": 0.0, "name": "d2913c6748ee06b61f717cbf1bf17445", "is_disabled": 0, "rental_uris": {"android": "https://dc.lft.to/lastmile_qr_scan", "ios": "https://dc.lft.to/lastmile_qr_scan"}, "fusion_lon": 0.0, "lat": 39.0525175, "bike_id": "d2913c6748ee06b61f717cbf1bf17445", "type": "electric_bike", "is_reserved": 0, "lon": -77.08064633333333}, {"fusion_lat": 0.0, "name": "7eeeaf5bd63dae5786636ec340840eae", "is_disabled": 0, "rental_uris": {"android": "https://dc.lft.to/lastmile_qr_scan", "ios": "https://dc.lft.to/lastmile_qr_scan"}, "fusion_lon": 0.0, "lat": 38.89693066666667, "bike_id": "7eeeaf5bd63dae5786636ec340840eae", "type": "electric_scooter", "is_reserved": 0, "lon": -77.0238895}, {"fusion_lat": 0.0, "name": "6a7af4a5f6630f179a4b81a9fbc08c21", "is_disabled": 0, "rental_uris": {"android": "https://dc.lft.to/lastmile_qr_scan", "ios": "https://dc.lft.to/lastmile_qr_scan"}, "fusion_lon": 0.0, "lat": 38.89556266666666, "bike_id": "6a7af4a5f6630f179a4b81a9fbc08c21", "type": "electric_scooter", "is_reserved": 0, "lon": -76.99430033333333}, {"fusion_lat": 0.0, "name": "19b4748118d55ac15340e7a58645adc3", "is_disabled": 0, "rental_uris": {"android": "https://dc.lft.to/lastmile_qr_scan", "ios": "https://dc.lft.to/lastmile_qr_scan"}, "fusion_lon": 0.0, "lat": 39.014105666666666, "bike_id": "19b4748118d55ac15340e7a58645adc3", "type": "electric_bike", "is_reserved": 0, "lon": -77.04500133333333}, {"fusion_lat": 0.0, "name": "9f78aae63ff6526a9edb98facc4a3110", "is_disabled": 0, "rental_uris": {"android": "https://dc.lft.to/lastmile_qr_scan", "ios": "https://dc.lft.to/lastmile_qr_scan"}, "fusion_lon": 0.0, "lat": 38.9081065, "bike_id": "9f78aae63ff6526a9edb98facc4a3110", "type": "electric_scooter", "is_reserved": 0, "lon": -77.043269}, {"fusion_lat": 0.0, "name": "9a6dc1aaca9b305f0a04954f4c2493ae", "is_disabled": 0, "rental_uris": {"android": "https://dc.lft.to/lastmile_qr_scan", "ios": "https://dc.lft.to/lastmile_qr_scan"}, "fusion_lon": 0.0, "lat": 38.919077333333334, "bike_id": "9a6dc1aaca9b305f0a04954f4c2493ae", "type": "electric_bike", "is_reserved": 0, "lon": -77.031588}, {"fusion_lat": 0.0, "name": "34eb0b12d74c313c2938317013cfbfe6", "is_disabled": 0, "rental_uris": {"android": "https://dc.lft.to/lastmile_qr_scan", "ios": "https://dc.lft.to/lastmile_qr_scan"}, "fusion_lon": 0.0, "lat": 38.88502666666667, "bike_id": "34eb0b12d74c313c2938317013cfbfe6", "type": "electric_scooter", "is_reserved": 0, "lon": -76.99758383333334}, {"fusion_lat": 0.0, "name": "f4f4e978814922d335bff6fda40db7b3", "is_disabled": 0, "rental_uris": {"android": "https://dc.lft.to/lastmile_qr_scan", "ios": "https://dc.lft.to/lastmile_qr_scan"}, "fusion_lon": 0.0, "lat": 38.9171825, "bike_id": "f4f4e978814922d335bff6fda40db7b3", "type": "electric_scooter", "is_reserved": 0, "lon": -77.0280525}, {"fusion_lat": 0.0, "name": "df8147bb8107294c9d323d19b5701978", "is_disabled": 0, "rental_uris": {"android": "https://dc.lft.to/lastmile_qr_scan", "ios": "https://dc.lft.to/lastmile_qr_scan"}, "fusion_lon": 0.0, "lat": 38.921554, "bike_id": "df8147bb8107294c9d323d19b5701978", "type": "electric_scooter", "is_reserved": 0, "lon": -77.02092466666667}, {"fusion_lat": 0.0, "name": "85f3702d1550d97a6570962fe0700592", "is_disabled": 0, "rental_uris": {"android": "https://dc.lft.to/lastmile_qr_scan", "ios": "https://dc.lft.to/lastmile_qr_scan"}, "fusion_lon": 0.0, "lat": 38.905523333333335, "bike_id": "85f3702d1550d97a6570962fe0700592", "type": "electric_scooter", "is_reserved": 0, "lon": -77.03423783333334}, {"fusion_lat": 0.0, "name": "98ae3be9756ced679a7838e31b7b07c9", "is_disabled": 0, "rental_uris": {"android": "https://dc.lft.to/lastmile_qr_scan", "ios": "https://dc.lft.to/lastmile_qr_scan"}, "fusion_lon": 0.0, "lat": 38.929625333333334, "bike_id": "98ae3be9756ced679a7838e31b7b07c9", "type": "electric_scooter", "is_reserved": 0, "lon": -77.02016516666667}, {"fusion_lat": 0.0, "name": "259af436c014463f5516efa298ccf409", "is_disabled": 0, "rental_uris": {"android": "https://dc.lft.to/lastmile_qr_scan", "ios": "https://dc.lft.to/lastmile_qr_scan"}, "fusion_lon": 0.0, "lat": 38.8950895, "bike_id": "259af436c014463f5516efa298ccf409", "type": "electric_scooter", "is_reserved": 0, "lon": -77.02188516666666}, {"fusion_lat": 0.0, "name": "864338a1ec0f132e6f0cd79c764540f6", "is_disabled": 0, "rental_uris": {"android": "https://dc.lft.to/lastmile_qr_scan", "ios": "https://dc.lft.to/lastmile_qr_scan"}, "fusion_lon": 0.0, "lat": 38.90950933333333, "bike_id": "864338a1ec0f132e6f0cd79c764540f6", "type": "electric_scooter", "is_reserved": 0, "lon": -77.023825}, {"fusion_lat": 0.0, "name": "84516595438d2f4bff8a3ca0c1d44f66", "is_disabled": 0, "rental_uris": {"android": "https://dc.lft.to/lastmile_qr_scan", "ios": "https://dc.lft.to/lastmile_qr_scan"}, "fusion_lon": 0.0, "lat": 38.900373, "bike_id": "84516595438d2f4bff8a3ca0c1d44f66", "type": "electric_scooter", "is_reserved": 0, "lon": -77.00206816666666}, {"fusion_lat": 0.0, "name": "82902438cf250ead48f08e6e8c143d4e", "is_disabled": 0, "rental_uris": {"android": "https://dc.lft.to/lastmile_qr_scan", "ios": "https://dc.lft.to/lastmile_qr_scan"}, "fusion_lon": 0.0, "lat": 38.90935983333333, "bike_id": "82902438cf250ead48f08e6e8c143d4e", "type": "electric_scooter", "is_reserved": 0, "lon": -77.02125716666667}, {"fusion_lat": 0.0, "name": "fc5c34de0364cba946a354621a2f1add", "is_disabled": 0, "rental_uris": {"android": "https://dc.lft.to/lastmile_qr_scan", "ios": "https://dc.lft.to/lastmile_qr_scan"}, "fusion_lon": 0.0, "lat": 38.889835, "bike_id": "fc5c34de0364cba946a354621a2f1add", "type": "electric_scooter", "is_reserved": 0, "lon": -76.99631}, {"fusion_lat": 0.0, "name": "2c025faa00dce58e9385ca9b49a6da08", "is_disabled": 0, "rental_uris": {"android": "https://dc.lft.to/lastmile_qr_scan", "ios": "https://dc.lft.to/lastmile_qr_scan"}, "fusion_lon": 0.0, "lat": 38.889899166666666, "bike_id": "2c025faa00dce58e9385ca9b49a6da08", "type": "electric_scooter", "is_reserved": 0, "lon": -76.987376}, {"fusion_lat": 0.0, "name": "0e94bdb8488e6bbf5f43a3aa82e71358", "is_disabled": 0, "rental_uris": {"android": "https://dc.lft.to/lastmile_qr_scan", "ios": "https://dc.lft.to/lastmile_qr_scan"}, "fusion_lon": 0.0, "lat": 38.899415, "bike_id": "0e94bdb8488e6bbf5f43a3aa82e71358", "type": "electric_scooter", "is_reserved": 0, "lon": -77.05352566666667}, {"fusion_lat": 0.0, "name": "0635a637bb4ce16d63ec65840ff261d5", "is_disabled": 0, "rental_uris": {"android": "https://dc.lft.to/lastmile_qr_scan", "ios": "https://dc.lft.to/lastmile_qr_scan"}, "fusion_lon": 0.0, "lat": 38.939506333333334, "bike_id": "0635a637bb4ce16d63ec65840ff261d5", "type": "electric_scooter", "is_reserved": 0, "lon": -77.03322416666667}, {"fusion_lat": 0.0, "name": "d4e0be36130d36993862adee1ba0115e", "is_disabled": 0, "rental_uris": {"android": "https://dc.lft.to/lastmile_qr_scan", "ios": "https://dc.lft.to/lastmile_qr_scan"}, "fusion_lon": 0.0, "lat": 38.91735516666667, "bike_id": "d4e0be36130d36993862adee1ba0115e", "type": "electric_scooter", "is_reserved": 0, "lon": -77.04833233333333}, {"fusion_lat": 0.0, "name": "dca418661403c7c1b2ee831fef3d3cea", "is_disabled": 0, "rental_uris": {"android": "https://dc.lft.to/lastmile_qr_scan", "ios": "https://dc.lft.to/lastmile_qr_scan"}, "fusion_lon": 0.0, "lat": 38.92061533333333, "bike_id": "dca418661403c7c1b2ee831fef3d3cea", "type": "electric_scooter", "is_reserved": 0, "lon": -77.03396}, {"fusion_lat": 0.0, "name": "69d9da1dbaaaa331d41e33fb201a7e72", "is_disabled": 0, "rental_uris": {"android": "https://dc.lft.to/lastmile_qr_scan", "ios": "https://dc.lft.to/lastmile_qr_scan"}, "fusion_lon": 0.0, "lat": 38.858894666666664, "bike_id": "69d9da1dbaaaa331d41e33fb201a7e72", "type": "electric_bike", "is_reserved": 0, "lon": -77.09546516666667}, {"fusion_lat": 0.0, "name": "ef6e2e2067f8e7c496b56a3f638e8860", "is_disabled": 0, "rental_uris": {"android": "https://dc.lft.to/lastmile_qr_scan", "ios": "https://dc.lft.to/lastmile_qr_scan"}, "fusion_lon": 0.0, "lat": 38.94741333333333, "bike_id": "ef6e2e2067f8e7c496b56a3f638e8860", "type": "electric_scooter", "is_reserved": 0, "lon": -77.06534666666667}, {"fusion_lat": 0.0, "name": "76aa0dcd7d676eaad5ea3c47a04e9b53", "is_disabled": 0, "rental_uris": {"android": "https://dc.lft.to/lastmile_qr_scan", "ios": "https://dc.lft.to/lastmile_qr_scan"}, "fusion_lon": 0.0, "lat": 38.910562, "bike_id": "76aa0dcd7d676eaad5ea3c47a04e9b53", "type": "electric_scooter", "is_reserved": 0, "lon": -77.02190116666667}, {"fusion_lat": 0.0, "name": "a91280d175729f4b057752ac4a4e338f", "is_disabled": 0, "rental_uris": {"android": "https://dc.lft.to/lastmile_qr_scan", "ios": "https://dc.lft.to/lastmile_qr_scan"}, "fusion_lon": 0.0, "lat": 38.89816533333333, "bike_id": "a91280d175729f4b057752ac4a4e338f", "type": "electric_scooter", "is_reserved": 0, "lon": -77.0270205}, {"fusion_lat": 0.0, "name": "e7bc8f1978bd643091cd103716f6658c", "is_disabled": 0, "rental_uris": {"android": "https://dc.lft.to/lastmile_qr_scan", "ios": "https://dc.lft.to/lastmile_qr_scan"}, "fusion_lon": 0.0, "lat": 38.90424633333333, "bike_id": "e7bc8f1978bd643091cd103716f6658c", "type": "electric_scooter", "is_reserved": 0, "lon": -77.025518}, {"fusion_lat": 0.0, "name": "f604b1fa54370cb661d007003ff94ecb", "is_disabled": 0, "rental_uris": {"android": "https://dc.lft.to/lastmile_qr_scan", "ios": "https://dc.lft.to/lastmile_qr_scan"}, "fusion_lon": 0.0, "lat": 38.91598416666667, "bike_id": "f604b1fa54370cb661d007003ff94ecb", "type": "electric_scooter", "is_reserved": 0, "lon": -77.04465066666667}, {"fusion_lat": 0.0, "name": "7df7284a222ecee0ed02eb02edd9c7ce", "is_disabled": 0, "rental_uris": {"android": "https://dc.lft.to/lastmile_qr_scan", "ios": "https://dc.lft.to/lastmile_qr_scan"}, "fusion_lon": 0.0, "lat": 38.8575775, "bike_id": "7df7284a222ecee0ed02eb02edd9c7ce", "type": "electric_bike", "is_reserved": 0, "lon": -76.98752733333333}, {"fusion_lat": 0.0, "name": "d5a8f2b95c60319db3849220bdf05eac", "is_disabled": 0, "rental_uris": {"android": "https://dc.lft.to/lastmile_qr_scan", "ios": "https://dc.lft.to/lastmile_qr_scan"}, "fusion_lon": 0.0, "lat": 38.9089745, "bike_id": "d5a8f2b95c60319db3849220bdf05eac", "type": "electric_scooter", "is_reserved": 0, "lon": -77.04419033333333}, {"fusion_lat": 0.0, "name": "9aeba67be6647b2609bf71c217a9fa92", "is_disabled": 0, "rental_uris": {"android": "https://dc.lft.to/lastmile_qr_scan", "ios": "https://dc.lft.to/lastmile_qr_scan"}, "fusion_lon": 0.0, "lat": 38.916135833333335, "bike_id": "9aeba67be6647b2609bf71c217a9fa92", "type": "electric_scooter", "is_reserved": 0, "lon": -77.017279}, {"fusion_lat": 0.0, "name": "279293c49f8cd9d80d73dc42e8fdcf3c", "is_disabled": 0, "rental_uris": {"android": "https://dc.lft.to/lastmile_qr_scan", "ios": "https://dc.lft.to/lastmile_qr_scan"}, "fusion_lon": 0.0, "lat": 38.9051, "bike_id": "279293c49f8cd9d80d73dc42e8fdcf3c", "type": "electric_scooter", "is_reserved": 0, "lon": -77.06374333333333}, {"fusion_lat": 0.0, "name": "b89d742c09493429737e6490fbd13284", "is_disabled": 0, "rental_uris": {"android": "https://dc.lft.to/lastmile_qr_scan", "ios": "https://dc.lft.to/lastmile_qr_scan"}, "fusion_lon": 0.0, "lat": 38.895246666666665, "bike_id": "b89d742c09493429737e6490fbd13284", "type": "electric_scooter", "is_reserved": 0, "lon": -77.01098}, {"fusion_lat": 0.0, "name": "3375250da20e62c5f0d52a2a0ad800a7", "is_disabled": 0, "rental_uris": {"android": "https://dc.lft.to/lastmile_qr_scan", "ios": "https://dc.lft.to/lastmile_qr_scan"}, "fusion_lon": 0.0, "lat": 38.94082983333333, "bike_id": "3375250da20e62c5f0d52a2a0ad800a7", "type": "electric_scooter", "is_reserved": 0, "lon": -77.06184166666667}, {"fusion_lat": 0.0, "name": "1099e33a64801dc467726e8808076034", "is_disabled": 0, "rental_uris": {"android": "https://dc.lft.to/lastmile_qr_scan", "ios": "https://dc.lft.to/lastmile_qr_scan"}, "fusion_lon": 0.0, "lat": 38.883736666666664, "bike_id": "1099e33a64801dc467726e8808076034", "type": "electric_scooter", "is_reserved": 0, "lon": -76.93055}, {"fusion_lat": 0.0, "name": "f606992e67a645d1e159c2e1cf5c9eb5", "is_disabled": 0, "rental_uris": {"android": "https://dc.lft.to/lastmile_qr_scan", "ios": "https://dc.lft.to/lastmile_qr_scan"}, "fusion_lon": 0.0, "lat": 38.907726333333336, "bike_id": "f606992e67a645d1e159c2e1cf5c9eb5", "type": "electric_scooter", "is_reserved": 0, "lon": -77.03195133333334}, {"fusion_lat": 0.0, "name": "6a99c7902d52ed1f5b498b5670c16261", "is_disabled": 0, "rental_uris": {"android": "https://dc.lft.to/lastmile_qr_scan", "ios": "https://dc.lft.to/lastmile_qr_scan"}, "fusion_lon": 0.0, "lat": 38.90572316666667, "bike_id": "6a99c7902d52ed1f5b498b5670c16261", "type": "electric_scooter", "is_reserved": 0, "lon": -77.03072433333334}, {"fusion_lat": 0.0, "name": "ec78df92d16a3b1a1ccb9776bd01c788", "is_disabled": 0, "rental_uris": {"android": "https://dc.lft.to/lastmile_qr_scan", "ios": "https://dc.lft.to/lastmile_qr_scan"}, "fusion_lon": 0.0, "lat": 38.8973045, "bike_id": "ec78df92d16a3b1a1ccb9776bd01c788", "type": "electric_scooter", "is_reserved": 0, "lon": -77.0485215}, {"fusion_lat": 0.0, "name": "655647693477e17040a40d5c9c4c0dca", "is_disabled": 0, "rental_uris": {"android": "https://dc.lft.to/lastmile_qr_scan", "ios": "https://dc.lft.to/lastmile_qr_scan"}, "fusion_lon": 0.0, "lat": 38.942043, "bike_id": "655647693477e17040a40d5c9c4c0dca", "type": "electric_scooter", "is_reserved": 0, "lon": -77.02591833333334}, {"fusion_lat": 0.0, "name": "0c809e3b0c61ee0c867ca85f46770c2a", "is_disabled": 0, "rental_uris": {"android": "https://dc.lft.to/lastmile_qr_scan", "ios": "https://dc.lft.to/lastmile_qr_scan"}, "fusion_lon": 0.0, "lat": 38.959533, "bike_id": "0c809e3b0c61ee0c867ca85f46770c2a", "type": "electric_scooter", "is_reserved": 0, "lon": -77.0089705}, {"fusion_lat": 0.0, "name": "eaaba81f86c103a97c3785b2c7f50628", "is_disabled": 0, "rental_uris": {"android": "https://dc.lft.to/lastmile_qr_scan", "ios": "https://dc.lft.to/lastmile_qr_scan"}, "fusion_lon": 0.0, "lat": 38.90569383333333, "bike_id": "eaaba81f86c103a97c3785b2c7f50628", "type": "electric_scooter", "is_reserved": 0, "lon": -77.03347833333333}, {"fusion_lat": 0.0, "name": "dbf674bc23b8879ddcc4f9a4222376c2", "is_disabled": 0, "rental_uris": {"android": "https://dc.lft.to/lastmile_qr_scan", "ios": "https://dc.lft.to/lastmile_qr_scan"}, "fusion_lon": 0.0, "lat": 38.91535233333333, "bike_id": "dbf674bc23b8879ddcc4f9a4222376c2", "type": "electric_scooter", "is_reserved": 0, "lon": -77.0320325}, {"fusion_lat": 0.0, "name": "a600e0a496dd9bd867886e1ab1bf5f3f", "is_disabled": 0, "rental_uris": {"android": "https://dc.lft.to/lastmile_qr_scan", "ios": "https://dc.lft.to/lastmile_qr_scan"}, "fusion_lon": 0.0, "lat": 38.9057035, "bike_id": "a600e0a496dd9bd867886e1ab1bf5f3f", "type": "electric_scooter", "is_reserved": 0, "lon": -77.02207616666666}, {"fusion_lat": 0.0, "name": "9759569b81971594b8bb5266fefc670b", "is_disabled": 0, "rental_uris": {"android": "https://dc.lft.to/lastmile_qr_scan", "ios": "https://dc.lft.to/lastmile_qr_scan"}, "fusion_lon": 0.0, "lat": 38.86679566666667, "bike_id": "9759569b81971594b8bb5266fefc670b", "type": "electric_bike", "is_reserved": 0, "lon": -76.98238233333333}, {"fusion_lat": 0.0, "name": "446be1c5f0636caf9c1fa4ad3a36fcdf", "is_disabled": 0, "rental_uris": {"android": "https://dc.lft.to/lastmile_qr_scan", "ios": "https://dc.lft.to/lastmile_qr_scan"}, "fusion_lon": 0.0, "lat": 38.96233733333333, "bike_id": "446be1c5f0636caf9c1fa4ad3a36fcdf", "type": "electric_bike", "is_reserved": 0, "lon": -76.9276085}, {"fusion_lat": 0.0, "name": "08e357f4bb8aafda2a44951498834a66", "is_disabled": 0, "rental_uris": {"android": "https://dc.lft.to/lastmile_qr_scan", "ios": "https://dc.lft.to/lastmile_qr_scan"}, "fusion_lon": 0.0, "lat": 38.917970833333335, "bike_id": "08e357f4bb8aafda2a44951498834a66", "type": "electric_scooter", "is_reserved": 0, "lon": -77.03447616666666}, {"fusion_lat": 0.0, "name": "ef1ee32cdabbc9edb810123b21dd8154", "is_disabled": 0, "rental_uris": {"android": "https://dc.lft.to/lastmile_qr_scan", "ios": "https://dc.lft.to/lastmile_qr_scan"}, "fusion_lon": 0.0, "lat": 38.902380666666666, "bike_id": "ef1ee32cdabbc9edb810123b21dd8154", "type": "electric_scooter", "is_reserved": 0, "lon": -77.0219075}, {"fusion_lat": 0.0, "name": "46d7c0a4974525f2b3ad884b85d54f59", "is_disabled": 0, "rental_uris": {"android": "https://dc.lft.to/lastmile_qr_scan", "ios": "https://dc.lft.to/lastmile_qr_scan"}, "fusion_lon": 0.0, "lat": 38.949491333333334, "bike_id": "46d7c0a4974525f2b3ad884b85d54f59", "type": "electric_scooter", "is_reserved": 0, "lon": -77.02316233333333}, {"fusion_lat": 0.0, "name": "54405ea10b49873f96439cc8b7573930", "is_disabled": 0, "rental_uris": {"android": "https://dc.lft.to/lastmile_qr_scan", "ios": "https://dc.lft.to/lastmile_qr_scan"}, "fusion_lon": 0.0, "lat": 38.87940783333333, "bike_id": "54405ea10b49873f96439cc8b7573930", "type": "electric_scooter", "is_reserved": 0, "lon": -77.00813083333334}, {"fusion_lat": 0.0, "name": "5cf99eacfa7357dcdf3076c145d8d51e", "is_disabled": 0, "rental_uris": {"android": "https://dc.lft.to/lastmile_qr_scan", "ios": "https://dc.lft.to/lastmile_qr_scan"}, "fusion_lon": 0.0, "lat": 38.928678, "bike_id": "5cf99eacfa7357dcdf3076c145d8d51e", "type": "electric_scooter", "is_reserved": 0, "lon": -77.03292283333333}, {"fusion_lat": 0.0, "name": "c9760f93d17c158cf1ea94f533c55f60", "is_disabled": 0, "rental_uris": {"android": "https://dc.lft.to/lastmile_qr_scan", "ios": "https://dc.lft.to/lastmile_qr_scan"}, "fusion_lon": 0.0, "lat": 38.95664083333333, "bike_id": "c9760f93d17c158cf1ea94f533c55f60", "type": "electric_bike", "is_reserved": 0, "lon": -77.011271}, {"fusion_lat": 0.0, "name": "a37199b1ab5f66860ec7bf8178a49db2", "is_disabled": 0, "rental_uris": {"android": "https://dc.lft.to/lastmile_qr_scan", "ios": "https://dc.lft.to/lastmile_qr_scan"}, "fusion_lon": 0.0, "lat": 38.905938666666664, "bike_id": "a37199b1ab5f66860ec7bf8178a49db2", "type": "electric_scooter", "is_reserved": 0, "lon": -77.03329833333333}, {"fusion_lat": 0.0, "name": "7ffcf9142d4a65f0c25038a49e4a04e8", "is_disabled": 0, "rental_uris": {"android": "https://dc.lft.to/lastmile_qr_scan", "ios": "https://dc.lft.to/lastmile_qr_scan"}, "fusion_lon": 0.0, "lat": 38.90219183333333, "bike_id": "7ffcf9142d4a65f0c25038a49e4a04e8", "type": "electric_scooter", "is_reserved": 0, "lon": -77.03204766666667}, {"fusion_lat": 0.0, "name": "ea022353777377d5e0997f31df1c864d", "is_disabled": 0, "rental_uris": {"android": "https://dc.lft.to/lastmile_qr_scan", "ios": "https://dc.lft.to/lastmile_qr_scan"}, "fusion_lon": 0.0, "lat": 38.956908, "bike_id": "ea022353777377d5e0997f31df1c864d", "type": "electric_scooter", "is_reserved": 0, "lon": -77.0325395}, {"fusion_lat": 0.0, "name": "9599bf1a5b2c67803baba092ed16e1f6", "is_disabled": 0, "rental_uris": {"android": "https://dc.lft.to/lastmile_qr_scan", "ios": "https://dc.lft.to/lastmile_qr_scan"}, "fusion_lon": 0.0, "lat": 38.924102833333336, "bike_id": "9599bf1a5b2c67803baba092ed16e1f6", "type": "electric_scooter", "is_reserved": 0, "lon": -77.02260916666667}, {"fusion_lat": 0.0, "name": "7be2c676afd72baf36c5a5d68aa0bb5f", "is_disabled": 0, "rental_uris": {"android": "https://dc.lft.to/lastmile_qr_scan", "ios": "https://dc.lft.to/lastmile_qr_scan"}, "fusion_lon": 0.0, "lat": 38.917067333333335, "bike_id": "7be2c676afd72baf36c5a5d68aa0bb5f", "type": "electric_scooter", "is_reserved": 0, "lon": -77.0347215}, {"fusion_lat": 0.0, "name": "7f9f7939383292a3f6b60706ad72d12e", "is_disabled": 0, "rental_uris": {"android": "https://dc.lft.to/lastmile_qr_scan", "ios": "https://dc.lft.to/lastmile_qr_scan"}, "fusion_lon": 0.0, "lat": 38.922147, "bike_id": "7f9f7939383292a3f6b60706ad72d12e", "type": "electric_scooter", "is_reserved": 0, "lon": -77.04338066666666}, {"fusion_lat": 0.0, "name": "6dd330e8186010a2580e68d559306649", "is_disabled": 0, "rental_uris": {"android": "https://dc.lft.to/lastmile_qr_scan", "ios": "https://dc.lft.to/lastmile_qr_scan"}, "fusion_lon": 0.0, "lat": 38.902775166666665, "bike_id": "6dd330e8186010a2580e68d559306649", "type": "electric_scooter", "is_reserved": 0, "lon": -77.02270283333333}, {"fusion_lat": 0.0, "name": "2a86611a522c9fe7bb6a95b9346c0d5d", "is_disabled": 0, "rental_uris": {"android": "https://dc.lft.to/lastmile_qr_scan", "ios": "https://dc.lft.to/lastmile_qr_scan"}, "fusion_lon": 0.0, "lat": 38.907318333333336, "bike_id": "2a86611a522c9fe7bb6a95b9346c0d5d", "type": "electric_scooter", "is_reserved": 0, "lon": -77.00503983333333}, {"fusion_lat": 0.0, "name": "fcc975deb0b328b1a35066fb874ca9ae", "is_disabled": 0, "rental_uris": {"android": "https://dc.lft.to/lastmile_qr_scan", "ios": "https://dc.lft.to/lastmile_qr_scan"}, "fusion_lon": 0.0, "lat": 38.918434833333336, "bike_id": "fcc975deb0b328b1a35066fb874ca9ae", "type": "electric_scooter", "is_reserved": 0, "lon": -77.02434683333334}, {"fusion_lat": 0.0, "name": "960703d8f8349dff5b9ad73459155d9e", "is_disabled": 0, "rental_uris": {"android": "https://dc.lft.to/lastmile_qr_scan", "ios": "https://dc.lft.to/lastmile_qr_scan"}, "fusion_lon": 0.0, "lat": 38.89222933333333, "bike_id": "960703d8f8349dff5b9ad73459155d9e", "type": "electric_scooter", "is_reserved": 0, "lon": -77.0468395}, {"fusion_lat": 0.0, "name": "cce0e5ce5f835bed0d882ac8e020cf61", "is_disabled": 0, "rental_uris": {"android": "https://dc.lft.to/lastmile_qr_scan", "ios": "https://dc.lft.to/lastmile_qr_scan"}, "fusion_lon": 0.0, "lat": 38.92870583333333, "bike_id": "cce0e5ce5f835bed0d882ac8e020cf61", "type": "electric_scooter", "is_reserved": 0, "lon": -77.0325365}, {"fusion_lat": 0.0, "name": "3682ca14c0dab60dc635dead1ad26e79", "is_disabled": 0, "rental_uris": {"android": "https://dc.lft.to/lastmile_qr_scan", "ios": "https://dc.lft.to/lastmile_qr_scan"}, "fusion_lon": 0.0, "lat": 38.90464733333334, "bike_id": "3682ca14c0dab60dc635dead1ad26e79", "type": "electric_scooter", "is_reserved": 0, "lon": -77.0169835}, {"fusion_lat": 0.0, "name": "2f7482b9829058c84ed169e8bc76bc85", "is_disabled": 0, "rental_uris": {"android": "https://dc.lft.to/lastmile_qr_scan", "ios": "https://dc.lft.to/lastmile_qr_scan"}, "fusion_lon": 0.0, "lat": 38.949744, "bike_id": "2f7482b9829058c84ed169e8bc76bc85", "type": "electric_scooter", "is_reserved": 0, "lon": -77.02447883333333}, {"fusion_lat": 0.0, "name": "45d5c55b793c0544093b59a5b6abe8e6", "is_disabled": 0, "rental_uris": {"android": "https://dc.lft.to/lastmile_qr_scan", "ios": "https://dc.lft.to/lastmile_qr_scan"}, "fusion_lon": 0.0, "lat": 38.92450266666667, "bike_id": "45d5c55b793c0544093b59a5b6abe8e6", "type": "electric_scooter", "is_reserved": 0, "lon": -77.03978266666667}, {"fusion_lat": 0.0, "name": "a3388eda765ec037791e4123a574910c", "is_disabled": 0, "rental_uris": {"android": "https://dc.lft.to/lastmile_qr_scan", "ios": "https://dc.lft.to/lastmile_qr_scan"}, "fusion_lon": 0.0, "lat": 38.892240666666666, "bike_id": "a3388eda765ec037791e4123a574910c", "type": "electric_scooter", "is_reserved": 0, "lon": -77.05036483333333}, {"fusion_lat": 0.0, "name": "ea9a6f7417d0b5a79bc980241f29a570", "is_disabled": 0, "rental_uris": {"android": "https://dc.lft.to/lastmile_qr_scan", "ios": "https://dc.lft.to/lastmile_qr_scan"}, "fusion_lon": 0.0, "lat": 38.89253766666667, "bike_id": "ea9a6f7417d0b5a79bc980241f29a570", "type": "electric_scooter", "is_reserved": 0, "lon": -77.0337985}, {"fusion_lat": 0.0, "name": "0b7c03c385ee36d314b835feb60516e6", "is_disabled": 0, "rental_uris": {"android": "https://dc.lft.to/lastmile_qr_scan", "ios": "https://dc.lft.to/lastmile_qr_scan"}, "fusion_lon": 0.0, "lat": 38.88710966666667, "bike_id": "0b7c03c385ee36d314b835feb60516e6", "type": "electric_scooter", "is_reserved": 0, "lon": -76.99676883333333}, {"fusion_lat": 0.0, "name": "805144ec32f85579548e60911206aaee", "is_disabled": 0, "rental_uris": {"android": "https://dc.lft.to/lastmile_qr_scan", "ios": "https://dc.lft.to/lastmile_qr_scan"}, "fusion_lon": 0.0, "lat": 38.9095005, "bike_id": "805144ec32f85579548e60911206aaee", "type": "electric_scooter", "is_reserved": 0, "lon": -77.02715766666667}, {"fusion_lat": 0.0, "name": "bfe2bd46367dca7fa24dc61fa362b3b7", "is_disabled": 0, "rental_uris": {"android": "https://dc.lft.to/lastmile_qr_scan", "ios": "https://dc.lft.to/lastmile_qr_scan"}, "fusion_lon": 0.0, "lat": 38.90032083333333, "bike_id": "bfe2bd46367dca7fa24dc61fa362b3b7", "type": "electric_scooter", "is_reserved": 0, "lon": -76.98856533333333}, {"fusion_lat": 0.0, "name": "49f22ce1ef18be86e1614055c27f6adc", "is_disabled": 0, "rental_uris": {"android": "https://dc.lft.to/lastmile_qr_scan", "ios": "https://dc.lft.to/lastmile_qr_scan"}, "fusion_lon": 0.0, "lat": 38.80293116666667, "bike_id": "49f22ce1ef18be86e1614055c27f6adc", "type": "electric_bike", "is_reserved": 0, "lon": -77.05937366666667}, {"fusion_lat": 0.0, "name": "4b19f2972d86f0102bb9b9b61c3a17f7", "is_disabled": 0, "rental_uris": {"android": "https://dc.lft.to/lastmile_qr_scan", "ios": "https://dc.lft.to/lastmile_qr_scan"}, "fusion_lon": 0.0, "lat": 38.92792816666667, "bike_id": "4b19f2972d86f0102bb9b9b61c3a17f7", "type": "electric_scooter", "is_reserved": 0, "lon": -77.027196}, {"fusion_lat": 0.0, "name": "e29792fc353abc1d29f5365f53c94339", "is_disabled": 0, "rental_uris": {"android": "https://dc.lft.to/lastmile_qr_scan", "ios": "https://dc.lft.to/lastmile_qr_scan"}, "fusion_lon": 0.0, "lat": 38.88452783333334, "bike_id": "e29792fc353abc1d29f5365f53c94339", "type": "electric_scooter", "is_reserved": 0, "lon": -76.9984585}, {"fusion_lat": 0.0, "name": "38e41a26aa9ae15199ac8689607ab34b", "is_disabled": 0, "rental_uris": {"android": "https://dc.lft.to/lastmile_qr_scan", "ios": "https://dc.lft.to/lastmile_qr_scan"}, "fusion_lon": 0.0, "lat": 38.91119883333333, "bike_id": "38e41a26aa9ae15199ac8689607ab34b", "type": "electric_scooter", "is_reserved": 0, "lon": -77.0422335}, {"fusion_lat": 0.0, "name": "d4e3d2de756e54f00074440551059bd9", "is_disabled": 0, "rental_uris": {"android": "https://dc.lft.to/lastmile_qr_scan", "ios": "https://dc.lft.to/lastmile_qr_scan"}, "fusion_lon": 0.0, "lat": 38.900327833333336, "bike_id": "d4e3d2de756e54f00074440551059bd9", "type": "electric_scooter", "is_reserved": 0, "lon": -77.01200366666667}, {"fusion_lat": 0.0, "name": "7f500df3a9906a5c21f72ef5d2dbe414", "is_disabled": 0, "rental_uris": {"android": "https://dc.lft.to/lastmile_qr_scan", "ios": "https://dc.lft.to/lastmile_qr_scan"}, "fusion_lon": 0.0, "lat": 38.89222633333333, "bike_id": "7f500df3a9906a5c21f72ef5d2dbe414", "type": "electric_scooter", "is_reserved": 0, "lon": -77.04195916666667}, {"fusion_lat": 0.0, "name": "3735bfc4bcca3eade3fb42ef48907fa8", "is_disabled": 0, "rental_uris": {"android": "https://dc.lft.to/lastmile_qr_scan", "ios": "https://dc.lft.to/lastmile_qr_scan"}, "fusion_lon": 0.0, "lat": 38.89685716666666, "bike_id": "3735bfc4bcca3eade3fb42ef48907fa8", "type": "electric_scooter", "is_reserved": 0, "lon": -76.93713383333333}, {"fusion_lat": 0.0, "name": "d7f41d779afeb5f1ba9ea894ba82837e", "is_disabled": 0, "rental_uris": {"android": "https://dc.lft.to/lastmile_qr_scan", "ios": "https://dc.lft.to/lastmile_qr_scan"}, "fusion_lon": 0.0, "lat": 38.939257166666664, "bike_id": "d7f41d779afeb5f1ba9ea894ba82837e", "type": "electric_scooter", "is_reserved": 0, "lon": -77.07477866666666}, {"fusion_lat": 0.0, "name": "9bc3518fb96526ff389bfb30d947cec3", "is_disabled": 0, "rental_uris": {"android": "https://dc.lft.to/lastmile_qr_scan", "ios": "https://dc.lft.to/lastmile_qr_scan"}, "fusion_lon": 0.0, "lat": 38.904092166666665, "bike_id": "9bc3518fb96526ff389bfb30d947cec3", "type": "electric_scooter", "is_reserved": 0, "lon": -77.0502575}, {"fusion_lat": 0.0, "name": "04c8e78332ec0cce54cc42be51cd736a", "is_disabled": 0, "rental_uris": {"android": "https://dc.lft.to/lastmile_qr_scan", "ios": "https://dc.lft.to/lastmile_qr_scan"}, "fusion_lon": 0.0, "lat": 38.96123383333333, "bike_id": "04c8e78332ec0cce54cc42be51cd736a", "type": "electric_bike", "is_reserved": 0, "lon": -77.0327375}, {"fusion_lat": 0.0, "name": "4eeb45c8ccbd44bdbf14e9777d579f29", "is_disabled": 0, "rental_uris": {"android": "https://dc.lft.to/lastmile_qr_scan", "ios": "https://dc.lft.to/lastmile_qr_scan"}, "fusion_lon": 0.0, "lat": 38.927364833333336, "bike_id": "4eeb45c8ccbd44bdbf14e9777d579f29", "type": "electric_scooter", "is_reserved": 0, "lon": -77.042178}, {"fusion_lat": 0.0, "name": "3981c9a4b61a5e9d48361c37b7e5d816", "is_disabled": 0, "rental_uris": {"android": "https://dc.lft.to/lastmile_qr_scan", "ios": "https://dc.lft.to/lastmile_qr_scan"}, "fusion_lon": 0.0, "lat": 38.892332333333336, "bike_id": "3981c9a4b61a5e9d48361c37b7e5d816", "type": "electric_scooter", "is_reserved": 0, "lon": -77.03183066666666}, {"fusion_lat": 0.0, "name": "dd5a0bf6464dd92dda5620d8325d230d", "is_disabled": 0, "rental_uris": {"android": "https://dc.lft.to/lastmile_qr_scan", "ios": "https://dc.lft.to/lastmile_qr_scan"}, "fusion_lon": 0.0, "lat": 38.907236166666664, "bike_id": "dd5a0bf6464dd92dda5620d8325d230d", "type": "electric_scooter", "is_reserved": 0, "lon": -77.00496133333333}, {"fusion_lat": 0.0, "name": "bf4e9791ae78522213e0f2d2b4a94244", "is_disabled": 0, "rental_uris": {"android": "https://dc.lft.to/lastmile_qr_scan", "ios": "https://dc.lft.to/lastmile_qr_scan"}, "fusion_lon": 0.0, "lat": 38.92342633333333, "bike_id": "bf4e9791ae78522213e0f2d2b4a94244", "type": "electric_scooter", "is_reserved": 0, "lon": -77.05619483333334}, {"fusion_lat": 0.0, "name": "0f92fadd83c4d64a5a9d202f39d876da", "is_disabled": 0, "rental_uris": {"android": "https://dc.lft.to/lastmile_qr_scan", "ios": "https://dc.lft.to/lastmile_qr_scan"}, "fusion_lon": 0.0, "lat": 38.91334166666667, "bike_id": "0f92fadd83c4d64a5a9d202f39d876da", "type": "electric_scooter", "is_reserved": 0, "lon": -77.0428375}, {"fusion_lat": 0.0, "name": "b56d3562ecfc0ecaa5388c967adea246", "is_disabled": 0, "rental_uris": {"android": "https://dc.lft.to/lastmile_qr_scan", "ios": "https://dc.lft.to/lastmile_qr_scan"}, "fusion_lon": 0.0, "lat": 38.91716183333333, "bike_id": "b56d3562ecfc0ecaa5388c967adea246", "type": "electric_scooter", "is_reserved": 0, "lon": -77.0301385}, {"fusion_lat": 0.0, "name": "b49ca315708ac78c4d1a0b550c2b3a3b", "is_disabled": 0, "rental_uris": {"android": "https://dc.lft.to/lastmile_qr_scan", "ios": "https://dc.lft.to/lastmile_qr_scan"}, "fusion_lon": 0.0, "lat": 38.9226905, "bike_id": "b49ca315708ac78c4d1a0b550c2b3a3b", "type": "electric_scooter", "is_reserved": 0, "lon": -77.03662533333333}, {"fusion_lat": 0.0, "name": "700c03ec473890abd00784a561f3a61c", "is_disabled": 0, "rental_uris": {"android": "https://dc.lft.to/lastmile_qr_scan", "ios": "https://dc.lft.to/lastmile_qr_scan"}, "fusion_lon": 0.0, "lat": 38.95880833333333, "bike_id": "700c03ec473890abd00784a561f3a61c", "type": "electric_scooter", "is_reserved": 0, "lon": -77.01169066666667}, {"fusion_lat": 0.0, "name": "f96228af76c2a8440c2e2e2320cf40a3", "is_disabled": 0, "rental_uris": {"android": "https://dc.lft.to/lastmile_qr_scan", "ios": "https://dc.lft.to/lastmile_qr_scan"}, "fusion_lon": 0.0, "lat": 38.876596, "bike_id": "f96228af76c2a8440c2e2e2320cf40a3", "type": "electric_scooter", "is_reserved": 0, "lon": -77.0091145}, {"fusion_lat": 0.0, "name": "356b63786791d93bb6985625005730c0", "is_disabled": 0, "rental_uris": {"android": "https://dc.lft.to/lastmile_qr_scan", "ios": "https://dc.lft.to/lastmile_qr_scan"}, "fusion_lon": 0.0, "lat": 38.914762, "bike_id": "356b63786791d93bb6985625005730c0", "type": "electric_scooter", "is_reserved": 0, "lon": -77.03184183333333}, {"fusion_lat": 0.0, "name": "30b12ae13bc44ebf72f036481973ce6a", "is_disabled": 0, "rental_uris": {"android": "https://dc.lft.to/lastmile_qr_scan", "ios": "https://dc.lft.to/lastmile_qr_scan"}, "fusion_lon": 0.0, "lat": 38.887413333333335, "bike_id": "30b12ae13bc44ebf72f036481973ce6a", "type": "electric_scooter", "is_reserved": 0, "lon": -77.031518}, {"fusion_lat": 0.0, "name": "1b1c39601f973bf71067b52c39c016fe", "is_disabled": 0, "rental_uris": {"android": "https://dc.lft.to/lastmile_qr_scan", "ios": "https://dc.lft.to/lastmile_qr_scan"}, "fusion_lon": 0.0, "lat": 38.907767166666666, "bike_id": "1b1c39601f973bf71067b52c39c016fe", "type": "electric_scooter", "is_reserved": 0, "lon": -77.01862233333334}, {"fusion_lat": 0.0, "name": "5684178fc66d836b32dadb135a3c81b8", "is_disabled": 0, "rental_uris": {"android": "https://dc.lft.to/lastmile_qr_scan", "ios": "https://dc.lft.to/lastmile_qr_scan"}, "fusion_lon": 0.0, "lat": 38.847556166666664, "bike_id": "5684178fc66d836b32dadb135a3c81b8", "type": "electric_scooter", "is_reserved": 0, "lon": -76.99501716666667}, {"fusion_lat": 0.0, "name": "c4b7917a5515d321732cbd16d990dd41", "is_disabled": 0, "rental_uris": {"android": "https://dc.lft.to/lastmile_qr_scan", "ios": "https://dc.lft.to/lastmile_qr_scan"}, "fusion_lon": 0.0, "lat": 38.92345816666667, "bike_id": "c4b7917a5515d321732cbd16d990dd41", "type": "electric_scooter", "is_reserved": 0, "lon": -76.99250033333334}, {"fusion_lat": 0.0, "name": "e9953898df9a695b027cd08c029ca772", "is_disabled": 0, "rental_uris": {"android": "https://dc.lft.to/lastmile_qr_scan", "ios": "https://dc.lft.to/lastmile_qr_scan"}, "fusion_lon": 0.0, "lat": 38.899872, "bike_id": "e9953898df9a695b027cd08c029ca772", "type": "electric_scooter", "is_reserved": 0, "lon": -77.0317975}, {"fusion_lat": 0.0, "name": "298e8cd5b72c4b1ff9aef57835a6227f", "is_disabled": 0, "rental_uris": {"android": "https://dc.lft.to/lastmile_qr_scan", "ios": "https://dc.lft.to/lastmile_qr_scan"}, "fusion_lon": 0.0, "lat": 38.93670983333333, "bike_id": "298e8cd5b72c4b1ff9aef57835a6227f", "type": "electric_scooter", "is_reserved": 0, "lon": -77.03652366666667}, {"fusion_lat": 0.0, "name": "3e7251132abbb0e5bc555fb76ec40aac", "is_disabled": 0, "rental_uris": {"android": "https://dc.lft.to/lastmile_qr_scan", "ios": "https://dc.lft.to/lastmile_qr_scan"}, "fusion_lon": 0.0, "lat": 38.8898825, "bike_id": "3e7251132abbb0e5bc555fb76ec40aac", "type": "electric_scooter", "is_reserved": 0, "lon": -76.92984966666667}, {"fusion_lat": 0.0, "name": "962951829edc0c97c9694390a7aa500d", "is_disabled": 0, "rental_uris": {"android": "https://dc.lft.to/lastmile_qr_scan", "ios": "https://dc.lft.to/lastmile_qr_scan"}, "fusion_lon": 0.0, "lat": 38.93702066666667, "bike_id": "962951829edc0c97c9694390a7aa500d", "type": "electric_scooter", "is_reserved": 0, "lon": -77.06110366666667}, {"fusion_lat": 0.0, "name": "65fc8cc18ed3c88dd7ecbb73e3a3edf9", "is_disabled": 0, "rental_uris": {"android": "https://dc.lft.to/lastmile_qr_scan", "ios": "https://dc.lft.to/lastmile_qr_scan"}, "fusion_lon": 0.0, "lat": 38.884379333333335, "bike_id": "65fc8cc18ed3c88dd7ecbb73e3a3edf9", "type": "electric_scooter", "is_reserved": 0, "lon": -77.02913083333334}, {"fusion_lat": 0.0, "name": "eedd5cfabac037e2a75bce038f282513", "is_disabled": 0, "rental_uris": {"android": "https://dc.lft.to/lastmile_qr_scan", "ios": "https://dc.lft.to/lastmile_qr_scan"}, "fusion_lon": 0.0, "lat": 38.935849166666664, "bike_id": "eedd5cfabac037e2a75bce038f282513", "type": "electric_scooter", "is_reserved": 0, "lon": -77.0238595}, {"fusion_lat": 0.0, "name": "f791c8035bb935658c8beab81c4a98a1", "is_disabled": 0, "rental_uris": {"android": "https://dc.lft.to/lastmile_qr_scan", "ios": "https://dc.lft.to/lastmile_qr_scan"}, "fusion_lon": 0.0, "lat": 38.90127316666667, "bike_id": "f791c8035bb935658c8beab81c4a98a1", "type": "electric_scooter", "is_reserved": 0, "lon": -77.04019983333333}, {"fusion_lat": 0.0, "name": "f6c6ef21518419ae0323419f44732e74", "is_disabled": 0, "rental_uris": {"android": "https://dc.lft.to/lastmile_qr_scan", "ios": "https://dc.lft.to/lastmile_qr_scan"}, "fusion_lon": 0.0, "lat": 38.88756766666667, "bike_id": "f6c6ef21518419ae0323419f44732e74", "type": "electric_scooter", "is_reserved": 0, "lon": -76.9978755}, {"fusion_lat": 0.0, "name": "91fad20b8280881322824278bb2d4f2d", "is_disabled": 0, "rental_uris": {"android": "https://dc.lft.to/lastmile_qr_scan", "ios": "https://dc.lft.to/lastmile_qr_scan"}, "fusion_lon": 0.0, "lat": 38.917109333333336, "bike_id": "91fad20b8280881322824278bb2d4f2d", "type": "electric_scooter", "is_reserved": 0, "lon": -77.02747933333333}, {"fusion_lat": 0.0, "name": "213c83c562a864a1d8c5470042bf917b", "is_disabled": 0, "rental_uris": {"android": "https://dc.lft.to/lastmile_qr_scan", "ios": "https://dc.lft.to/lastmile_qr_scan"}, "fusion_lon": 0.0, "lat": 38.9211225, "bike_id": "213c83c562a864a1d8c5470042bf917b", "type": "electric_scooter", "is_reserved": 0, "lon": -77.031645}, {"fusion_lat": 0.0, "name": "89f56088c47df9c1ec6bc15d00ef648d", "is_disabled": 0, "rental_uris": {"android": "https://dc.lft.to/lastmile_qr_scan", "ios": "https://dc.lft.to/lastmile_qr_scan"}, "fusion_lon": 0.0, "lat": 38.945212, "bike_id": "89f56088c47df9c1ec6bc15d00ef648d", "type": "electric_scooter", "is_reserved": 0, "lon": -77.03887916666666}, {"fusion_lat": 0.0, "name": "4ff1beb07ab88d85c397f709e1919f93", "is_disabled": 0, "rental_uris": {"android": "https://dc.lft.to/lastmile_qr_scan", "ios": "https://dc.lft.to/lastmile_qr_scan"}, "fusion_lon": 0.0, "lat": 38.9232575, "bike_id": "4ff1beb07ab88d85c397f709e1919f93", "type": "electric_scooter", "is_reserved": 0, "lon": -77.0437505}, {"fusion_lat": 0.0, "name": "76cb5e7e6d44b8ddc0ebdfbc5f13b9b7", "is_disabled": 0, "rental_uris": {"android": "https://dc.lft.to/lastmile_qr_scan", "ios": "https://dc.lft.to/lastmile_qr_scan"}, "fusion_lon": 0.0, "lat": 38.89550883333333, "bike_id": "76cb5e7e6d44b8ddc0ebdfbc5f13b9b7", "type": "electric_scooter", "is_reserved": 0, "lon": -76.998433}, {"fusion_lat": 0.0, "name": "359290903c003a9003c1c315d3f1203b", "is_disabled": 0, "rental_uris": {"android": "https://dc.lft.to/lastmile_qr_scan", "ios": "https://dc.lft.to/lastmile_qr_scan"}, "fusion_lon": 0.0, "lat": 38.91121666666667, "bike_id": "359290903c003a9003c1c315d3f1203b", "type": "electric_scooter", "is_reserved": 0, "lon": -77.03252933333333}, {"fusion_lat": 0.0, "name": "66f8bbd6d4dc55d26390837d36a6f435", "is_disabled": 0, "rental_uris": {"android": "https://dc.lft.to/lastmile_qr_scan", "ios": "https://dc.lft.to/lastmile_qr_scan"}, "fusion_lon": 0.0, "lat": 38.919050166666665, "bike_id": "66f8bbd6d4dc55d26390837d36a6f435", "type": "electric_scooter", "is_reserved": 0, "lon": -77.01452666666667}, {"fusion_lat": 0.0, "name": "5bd491293b108505d9e85195b4494745", "is_disabled": 0, "rental_uris": {"android": "https://dc.lft.to/lastmile_qr_scan", "ios": "https://dc.lft.to/lastmile_qr_scan"}, "fusion_lon": 0.0, "lat": 38.90499116666667, "bike_id": "5bd491293b108505d9e85195b4494745", "type": "electric_scooter", "is_reserved": 0, "lon": -77.02588016666667}, {"fusion_lat": 0.0, "name": "f46941681c80fe80b6f0adebf56afb17", "is_disabled": 0, "rental_uris": {"android": "https://dc.lft.to/lastmile_qr_scan", "ios": "https://dc.lft.to/lastmile_qr_scan"}, "fusion_lon": 0.0, "lat": 38.84501383333333, "bike_id": "f46941681c80fe80b6f0adebf56afb17", "type": "electric_bike", "is_reserved": 0, "lon": -76.99354533333333}, {"fusion_lat": 0.0, "name": "b3e6f5b1f61f504abbfa968c94d786f5", "is_disabled": 0, "rental_uris": {"android": "https://dc.lft.to/lastmile_qr_scan", "ios": "https://dc.lft.to/lastmile_qr_scan"}, "fusion_lon": 0.0, "lat": 38.938713166666666, "bike_id": "b3e6f5b1f61f504abbfa968c94d786f5", "type": "electric_scooter", "is_reserved": 0, "lon": -77.03224833333333}, {"fusion_lat": 0.0, "name": "b85aea0b6a9ab52d74d6d5cfba8c3389", "is_disabled": 0, "rental_uris": {"android": "https://dc.lft.to/lastmile_qr_scan", "ios": "https://dc.lft.to/lastmile_qr_scan"}, "fusion_lon": 0.0, "lat": 38.93212116666667, "bike_id": "b85aea0b6a9ab52d74d6d5cfba8c3389", "type": "electric_scooter", "is_reserved": 0, "lon": -77.04407583333334}, {"fusion_lat": 0.0, "name": "8b3690fe459b4b60efe5407666d450bf", "is_disabled": 0, "rental_uris": {"android": "https://dc.lft.to/lastmile_qr_scan", "ios": "https://dc.lft.to/lastmile_qr_scan"}, "fusion_lon": 0.0, "lat": 38.9168595, "bike_id": "8b3690fe459b4b60efe5407666d450bf", "type": "electric_scooter", "is_reserved": 0, "lon": -77.02962033333333}, {"fusion_lat": 0.0, "name": "291615d024e7a70be842429e969d807e", "is_disabled": 0, "rental_uris": {"android": "https://dc.lft.to/lastmile_qr_scan", "ios": "https://dc.lft.to/lastmile_qr_scan"}, "fusion_lon": 0.0, "lat": 38.8996435, "bike_id": "291615d024e7a70be842429e969d807e", "type": "electric_scooter", "is_reserved": 0, "lon": -77.0403655}, {"fusion_lat": 0.0, "name": "99a37b11e42d52bde18f63ecbb98d164", "is_disabled": 0, "rental_uris": {"android": "https://dc.lft.to/lastmile_qr_scan", "ios": "https://dc.lft.to/lastmile_qr_scan"}, "fusion_lon": 0.0, "lat": 38.908193, "bike_id": "99a37b11e42d52bde18f63ecbb98d164", "type": "electric_scooter", "is_reserved": 0, "lon": -77.04335816666666}, {"fusion_lat": 0.0, "name": "67b31d4848d5de6b575695ab7f88ebeb", "is_disabled": 0, "rental_uris": {"android": "https://dc.lft.to/lastmile_qr_scan", "ios": "https://dc.lft.to/lastmile_qr_scan"}, "fusion_lon": 0.0, "lat": 38.90000916666666, "bike_id": "67b31d4848d5de6b575695ab7f88ebeb", "type": "electric_scooter", "is_reserved": 0, "lon": -77.05495066666667}, {"fusion_lat": 0.0, "name": "2adb73ba12f9d3fcdf8498caa8a36297", "is_disabled": 0, "rental_uris": {"android": "https://dc.lft.to/lastmile_qr_scan", "ios": "https://dc.lft.to/lastmile_qr_scan"}, "fusion_lon": 0.0, "lat": 38.91035016666667, "bike_id": "2adb73ba12f9d3fcdf8498caa8a36297", "type": "electric_scooter", "is_reserved": 0, "lon": -77.033369}, {"fusion_lat": 0.0, "name": "76b4362469d2bed9d1d810518e89075b", "is_disabled": 0, "rental_uris": {"android": "https://dc.lft.to/lastmile_qr_scan", "ios": "https://dc.lft.to/lastmile_qr_scan"}, "fusion_lon": 0.0, "lat": 38.916371166666664, "bike_id": "76b4362469d2bed9d1d810518e89075b", "type": "electric_scooter", "is_reserved": 0, "lon": -77.04795033333333}, {"fusion_lat": 0.0, "name": "1c3926cafce829b15f42807380c11caf", "is_disabled": 0, "rental_uris": {"android": "https://dc.lft.to/lastmile_qr_scan", "ios": "https://dc.lft.to/lastmile_qr_scan"}, "fusion_lon": 0.0, "lat": 39.036077, "bike_id": "1c3926cafce829b15f42807380c11caf", "type": "electric_bike", "is_reserved": 0, "lon": -77.055556}, {"fusion_lat": 0.0, "name": "cd60e9805da9a967b711acb412fd35b5", "is_disabled": 0, "rental_uris": {"android": "https://dc.lft.to/lastmile_qr_scan", "ios": "https://dc.lft.to/lastmile_qr_scan"}, "fusion_lon": 0.0, "lat": 38.910397333333336, "bike_id": "cd60e9805da9a967b711acb412fd35b5", "type": "electric_scooter", "is_reserved": 0, "lon": -77.03827916666667}, {"fusion_lat": 0.0, "name": "51fab53c00f36584ab2ab781b851f18d", "is_disabled": 0, "rental_uris": {"android": "https://dc.lft.to/lastmile_qr_scan", "ios": "https://dc.lft.to/lastmile_qr_scan"}, "fusion_lon": 0.0, "lat": 38.91481683333333, "bike_id": "51fab53c00f36584ab2ab781b851f18d", "type": "electric_scooter", "is_reserved": 0, "lon": -77.04279716666667}, {"fusion_lat": 0.0, "name": "14957c410babe1a31d0f3b706076ad28", "is_disabled": 0, "rental_uris": {"android": "https://dc.lft.to/lastmile_qr_scan", "ios": "https://dc.lft.to/lastmile_qr_scan"}, "fusion_lon": 0.0, "lat": 38.9008305, "bike_id": "14957c410babe1a31d0f3b706076ad28", "type": "electric_bike", "is_reserved": 0, "lon": -77.03926433333334}, {"fusion_lat": 0.0, "name": "8ac1971e7b891bfa3f3a6bea797443b3", "is_disabled": 0, "rental_uris": {"android": "https://dc.lft.to/lastmile_qr_scan", "ios": "https://dc.lft.to/lastmile_qr_scan"}, "fusion_lon": 0.0, "lat": 38.92639116666667, "bike_id": "8ac1971e7b891bfa3f3a6bea797443b3", "type": "electric_scooter", "is_reserved": 0, "lon": -77.03856}, {"fusion_lat": 0.0, "name": "2ab9ad1e6724fd13967abef66b1d4723", "is_disabled": 0, "rental_uris": {"android": "https://dc.lft.to/lastmile_qr_scan", "ios": "https://dc.lft.to/lastmile_qr_scan"}, "fusion_lon": 0.0, "lat": 38.92071883333333, "bike_id": "2ab9ad1e6724fd13967abef66b1d4723", "type": "electric_scooter", "is_reserved": 0, "lon": -77.02302}, {"fusion_lat": 0.0, "name": "2bcd5ff337621a5c83aa8907d8da11db", "is_disabled": 0, "rental_uris": {"android": "https://dc.lft.to/lastmile_qr_scan", "ios": "https://dc.lft.to/lastmile_qr_scan"}, "fusion_lon": 0.0, "lat": 38.8919565, "bike_id": "2bcd5ff337621a5c83aa8907d8da11db", "type": "electric_scooter", "is_reserved": 0, "lon": -77.02228433333333}, {"fusion_lat": 0.0, "name": "d6bf7c22f095532ef479719c2807455d", "is_disabled": 0, "rental_uris": {"android": "https://dc.lft.to/lastmile_qr_scan", "ios": "https://dc.lft.to/lastmile_qr_scan"}, "fusion_lon": 0.0, "lat": 38.88302483333333, "bike_id": "d6bf7c22f095532ef479719c2807455d", "type": "electric_scooter", "is_reserved": 0, "lon": -76.94857916666666}, {"fusion_lat": 0.0, "name": "53c0d28850cf3806cf3e1b97f17b8168", "is_disabled": 0, "rental_uris": {"android": "https://dc.lft.to/lastmile_qr_scan", "ios": "https://dc.lft.to/lastmile_qr_scan"}, "fusion_lon": 0.0, "lat": 38.92196, "bike_id": "53c0d28850cf3806cf3e1b97f17b8168", "type": "electric_scooter", "is_reserved": 0, "lon": -77.04231633333333}, {"fusion_lat": 0.0, "name": "055ef474ccb0cb8928b81e8ee05e5bfa", "is_disabled": 0, "rental_uris": {"android": "https://dc.lft.to/lastmile_qr_scan", "ios": "https://dc.lft.to/lastmile_qr_scan"}, "fusion_lon": 0.0, "lat": 38.90599533333334, "bike_id": "055ef474ccb0cb8928b81e8ee05e5bfa", "type": "electric_scooter", "is_reserved": 0, "lon": -77.0342025}, {"fusion_lat": 0.0, "name": "d3c6f5b7d5480d8970274995c6917173", "is_disabled": 0, "rental_uris": {"android": "https://dc.lft.to/lastmile_qr_scan", "ios": "https://dc.lft.to/lastmile_qr_scan"}, "fusion_lon": 0.0, "lat": 38.92533866666667, "bike_id": "d3c6f5b7d5480d8970274995c6917173", "type": "electric_scooter", "is_reserved": 0, "lon": -77.00751316666667}, {"fusion_lat": 0.0, "name": "21bb70eae400f0ecf3de7436b36ddb2e", "is_disabled": 0, "rental_uris": {"android": "https://dc.lft.to/lastmile_qr_scan", "ios": "https://dc.lft.to/lastmile_qr_scan"}, "fusion_lon": 0.0, "lat": 38.81906166666667, "bike_id": "21bb70eae400f0ecf3de7436b36ddb2e", "type": "electric_bike", "is_reserved": 0, "lon": -77.04793983333333}, {"fusion_lat": 0.0, "name": "d04addeb9897958c06f6ddf48053b083", "is_disabled": 0, "rental_uris": {"android": "https://dc.lft.to/lastmile_qr_scan", "ios": "https://dc.lft.to/lastmile_qr_scan"}, "fusion_lon": 0.0, "lat": 38.903401, "bike_id": "d04addeb9897958c06f6ddf48053b083", "type": "electric_scooter", "is_reserved": 0, "lon": -76.93370266666666}, {"fusion_lat": 0.0, "name": "897f4796fe7188fd71064cb6d23b40ab", "is_disabled": 0, "rental_uris": {"android": "https://dc.lft.to/lastmile_qr_scan", "ios": "https://dc.lft.to/lastmile_qr_scan"}, "fusion_lon": 0.0, "lat": 38.90720916666667, "bike_id": "897f4796fe7188fd71064cb6d23b40ab", "type": "electric_scooter", "is_reserved": 0, "lon": -77.04752666666667}, {"fusion_lat": 0.0, "name": "0f824010b0805ae6d14b3e53ba019fe5", "is_disabled": 0, "rental_uris": {"android": "https://dc.lft.to/lastmile_qr_scan", "ios": "https://dc.lft.to/lastmile_qr_scan"}, "fusion_lon": 0.0, "lat": 38.90032983333333, "bike_id": "0f824010b0805ae6d14b3e53ba019fe5", "type": "electric_scooter", "is_reserved": 0, "lon": -77.01114566666666}, {"fusion_lat": 0.0, "name": "a1f2815dd0b538a257ba06819a4e188c", "is_disabled": 0, "rental_uris": {"android": "https://dc.lft.to/lastmile_qr_scan", "ios": "https://dc.lft.to/lastmile_qr_scan"}, "fusion_lon": 0.0, "lat": 38.89964233333333, "bike_id": "a1f2815dd0b538a257ba06819a4e188c", "type": "electric_scooter", "is_reserved": 0, "lon": -77.03362216666666}, {"fusion_lat": 0.0, "name": "120cfc3546f994e23ce20fbc8364f67d", "is_disabled": 0, "rental_uris": {"android": "https://dc.lft.to/lastmile_qr_scan", "ios": "https://dc.lft.to/lastmile_qr_scan"}, "fusion_lon": 0.0, "lat": 38.9267725, "bike_id": "120cfc3546f994e23ce20fbc8364f67d", "type": "electric_scooter", "is_reserved": 0, "lon": -77.0307615}, {"fusion_lat": 0.0, "name": "22fc0633ac69694b8ca02ef1823c01e8", "is_disabled": 0, "rental_uris": {"android": "https://dc.lft.to/lastmile_qr_scan", "ios": "https://dc.lft.to/lastmile_qr_scan"}, "fusion_lon": 0.0, "lat": 38.807114166666665, "bike_id": "22fc0633ac69694b8ca02ef1823c01e8", "type": "electric_bike", "is_reserved": 0, "lon": -77.0616815}, {"fusion_lat": 0.0, "name": "47a9332ac0b90104202ab1c3ce55c19a", "is_disabled": 0, "rental_uris": {"android": "https://dc.lft.to/lastmile_qr_scan", "ios": "https://dc.lft.to/lastmile_qr_scan"}, "fusion_lon": 0.0, "lat": 38.9177185, "bike_id": "47a9332ac0b90104202ab1c3ce55c19a", "type": "electric_scooter", "is_reserved": 0, "lon": -77.01455233333333}, {"fusion_lat": 0.0, "name": "e0bbcddeedf54d7e9e82012939e90778", "is_disabled": 0, "rental_uris": {"android": "https://dc.lft.to/lastmile_qr_scan", "ios": "https://dc.lft.to/lastmile_qr_scan"}, "fusion_lon": 0.0, "lat": 38.921072833333334, "bike_id": "e0bbcddeedf54d7e9e82012939e90778", "type": "electric_scooter", "is_reserved": 0, "lon": -77.04689516666667}, {"fusion_lat": 0.0, "name": "1640fb26f7468f6db874b07ff9493e11", "is_disabled": 0, "rental_uris": {"android": "https://dc.lft.to/lastmile_qr_scan", "ios": "https://dc.lft.to/lastmile_qr_scan"}, "fusion_lon": 0.0, "lat": 38.9168725, "bike_id": "1640fb26f7468f6db874b07ff9493e11", "type": "electric_scooter", "is_reserved": 0, "lon": -77.0377605}, {"fusion_lat": 0.0, "name": "b01be2bad59a42631867b4289802b43c", "is_disabled": 0, "rental_uris": {"android": "https://dc.lft.to/lastmile_qr_scan", "ios": "https://dc.lft.to/lastmile_qr_scan"}, "fusion_lon": 0.0, "lat": 38.940532166666664, "bike_id": "b01be2bad59a42631867b4289802b43c", "type": "electric_bike", "is_reserved": 0, "lon": -76.904223}, {"fusion_lat": 0.0, "name": "eec7b3d6c47a57347dc0cb3741373c8a", "is_disabled": 0, "rental_uris": {"android": "https://dc.lft.to/lastmile_qr_scan", "ios": "https://dc.lft.to/lastmile_qr_scan"}, "fusion_lon": 0.0, "lat": 38.901721, "bike_id": "eec7b3d6c47a57347dc0cb3741373c8a", "type": "electric_scooter", "is_reserved": 0, "lon": -76.98067633333334}, {"fusion_lat": 0.0, "name": "a28eff23f7807279406bda8a860674b6", "is_disabled": 0, "rental_uris": {"android": "https://dc.lft.to/lastmile_qr_scan", "ios": "https://dc.lft.to/lastmile_qr_scan"}, "fusion_lon": 0.0, "lat": 38.979565666666666, "bike_id": "a28eff23f7807279406bda8a860674b6", "type": "electric_scooter", "is_reserved": 0, "lon": -77.026123}, {"fusion_lat": 0.0, "name": "183965970307d374637910b7f88170b6", "is_disabled": 0, "rental_uris": {"android": "https://dc.lft.to/lastmile_qr_scan", "ios": "https://dc.lft.to/lastmile_qr_scan"}, "fusion_lon": 0.0, "lat": 38.903030666666666, "bike_id": "183965970307d374637910b7f88170b6", "type": "electric_scooter", "is_reserved": 0, "lon": -76.9765115}, {"fusion_lat": 0.0, "name": "540c8321a53c76e4c7c8c6af731445b3", "is_disabled": 0, "rental_uris": {"android": "https://dc.lft.to/lastmile_qr_scan", "ios": "https://dc.lft.to/lastmile_qr_scan"}, "fusion_lon": 0.0, "lat": 38.94373866666667, "bike_id": "540c8321a53c76e4c7c8c6af731445b3", "type": "electric_scooter", "is_reserved": 0, "lon": -77.02611133333333}, {"fusion_lat": 0.0, "name": "f67dc814132aa9eb4ad99da228e36d04", "is_disabled": 0, "rental_uris": {"android": "https://dc.lft.to/lastmile_qr_scan", "ios": "https://dc.lft.to/lastmile_qr_scan"}, "fusion_lon": 0.0, "lat": 38.92668533333333, "bike_id": "f67dc814132aa9eb4ad99da228e36d04", "type": "electric_scooter", "is_reserved": 0, "lon": -77.03228816666666}, {"fusion_lat": 0.0, "name": "9c78be3ccf3eed1ef705587e5c0e3dfd", "is_disabled": 0, "rental_uris": {"android": "https://dc.lft.to/lastmile_qr_scan", "ios": "https://dc.lft.to/lastmile_qr_scan"}, "fusion_lon": 0.0, "lat": 38.886602, "bike_id": "9c78be3ccf3eed1ef705587e5c0e3dfd", "type": "electric_scooter", "is_reserved": 0, "lon": -77.0282545}, {"fusion_lat": 0.0, "name": "e500dea112312a73a297639353c77b80", "is_disabled": 0, "rental_uris": {"android": "https://dc.lft.to/lastmile_qr_scan", "ios": "https://dc.lft.to/lastmile_qr_scan"}, "fusion_lon": 0.0, "lat": 38.9320325, "bike_id": "e500dea112312a73a297639353c77b80", "type": "electric_scooter", "is_reserved": 0, "lon": -77.037481}, {"fusion_lat": 0.0, "name": "e33bfe66f15d7a4b28f5d23b09fdad69", "is_disabled": 0, "rental_uris": {"android": "https://dc.lft.to/lastmile_qr_scan", "ios": "https://dc.lft.to/lastmile_qr_scan"}, "fusion_lon": 0.0, "lat": 38.994400666666664, "bike_id": "e33bfe66f15d7a4b28f5d23b09fdad69", "type": "electric_bike", "is_reserved": 0, "lon": -76.99585966666666}, {"fusion_lat": 0.0, "name": "1f75c8f843e42ea7b111e2602f14cb43", "is_disabled": 0, "rental_uris": {"android": "https://dc.lft.to/lastmile_qr_scan", "ios": "https://dc.lft.to/lastmile_qr_scan"}, "fusion_lon": 0.0, "lat": 38.9805855, "bike_id": "1f75c8f843e42ea7b111e2602f14cb43", "type": "electric_bike", "is_reserved": 0, "lon": -77.02639016666667}, {"fusion_lat": 0.0, "name": "1750ff49cf991e7082b0456e34f69ce6", "is_disabled": 0, "rental_uris": {"android": "https://dc.lft.to/lastmile_qr_scan", "ios": "https://dc.lft.to/lastmile_qr_scan"}, "fusion_lon": 0.0, "lat": 38.883789666666665, "bike_id": "1750ff49cf991e7082b0456e34f69ce6", "type": "electric_scooter", "is_reserved": 0, "lon": -76.93054883333333}, {"fusion_lat": 0.0, "name": "c0253df854efbfad27291a021e9924a6", "is_disabled": 0, "rental_uris": {"android": "https://dc.lft.to/lastmile_qr_scan", "ios": "https://dc.lft.to/lastmile_qr_scan"}, "fusion_lon": 0.0, "lat": 38.911045666666666, "bike_id": "c0253df854efbfad27291a021e9924a6", "type": "electric_scooter", "is_reserved": 0, "lon": -77.02791}, {"fusion_lat": 0.0, "name": "695e0c9eebb5bee7f2fb9e56fbf24e3b", "is_disabled": 0, "rental_uris": {"android": "https://dc.lft.to/lastmile_qr_scan", "ios": "https://dc.lft.to/lastmile_qr_scan"}, "fusion_lon": 0.0, "lat": 38.90975133333333, "bike_id": "695e0c9eebb5bee7f2fb9e56fbf24e3b", "type": "electric_scooter", "is_reserved": 0, "lon": -77.05470366666667}, {"fusion_lat": 0.0, "name": "6ead84644724312d721633e043b5bc3e", "is_disabled": 0, "rental_uris": {"android": "https://dc.lft.to/lastmile_qr_scan", "ios": "https://dc.lft.to/lastmile_qr_scan"}, "fusion_lon": 0.0, "lat": 38.90381933333333, "bike_id": "6ead84644724312d721633e043b5bc3e", "type": "electric_scooter", "is_reserved": 0, "lon": -77.0671225}, {"fusion_lat": 0.0, "name": "951ea407fedc2078e62ce060fdc34eb9", "is_disabled": 0, "rental_uris": {"android": "https://dc.lft.to/lastmile_qr_scan", "ios": "https://dc.lft.to/lastmile_qr_scan"}, "fusion_lon": 0.0, "lat": 38.90307833333333, "bike_id": "951ea407fedc2078e62ce060fdc34eb9", "type": "electric_scooter", "is_reserved": 0, "lon": -77.05331216666667}, {"fusion_lat": 0.0, "name": "442e8be27ad016c3b08683ccc2999e3b", "is_disabled": 0, "rental_uris": {"android": "https://dc.lft.to/lastmile_qr_scan", "ios": "https://dc.lft.to/lastmile_qr_scan"}, "fusion_lon": 0.0, "lat": 38.8829275, "bike_id": "442e8be27ad016c3b08683ccc2999e3b", "type": "electric_scooter", "is_reserved": 0, "lon": -77.0138755}, {"fusion_lat": 0.0, "name": "7cc26cb2b181d7f004efcd2e4454b3b3", "is_disabled": 0, "rental_uris": {"android": "https://dc.lft.to/lastmile_qr_scan", "ios": "https://dc.lft.to/lastmile_qr_scan"}, "fusion_lon": 0.0, "lat": 38.92219516666667, "bike_id": "7cc26cb2b181d7f004efcd2e4454b3b3", "type": "electric_scooter", "is_reserved": 0, "lon": -77.0351705}, {"fusion_lat": 0.0, "name": "8e221b6f43e2f30d5c90e215cf80b1b8", "is_disabled": 0, "rental_uris": {"android": "https://dc.lft.to/lastmile_qr_scan", "ios": "https://dc.lft.to/lastmile_qr_scan"}, "fusion_lon": 0.0, "lat": 38.98782583333333, "bike_id": "8e221b6f43e2f30d5c90e215cf80b1b8", "type": "electric_bike", "is_reserved": 0, "lon": -77.14102116666666}, {"fusion_lat": 0.0, "name": "2087a3aafdbbe71e38a51ce005ca5510", "is_disabled": 0, "rental_uris": {"android": "https://dc.lft.to/lastmile_qr_scan", "ios": "https://dc.lft.to/lastmile_qr_scan"}, "fusion_lon": 0.0, "lat": 38.92968483333333, "bike_id": "2087a3aafdbbe71e38a51ce005ca5510", "type": "electric_scooter", "is_reserved": 0, "lon": -77.03141416666666}, {"fusion_lat": 0.0, "name": "5d39ced0755ef4b8cdd8c075d49be0c3", "is_disabled": 0, "rental_uris": {"android": "https://dc.lft.to/lastmile_qr_scan", "ios": "https://dc.lft.to/lastmile_qr_scan"}, "fusion_lon": 0.0, "lat": 38.902165333333336, "bike_id": "5d39ced0755ef4b8cdd8c075d49be0c3", "type": "electric_scooter", "is_reserved": 0, "lon": -77.05989633333333}, {"fusion_lat": 0.0, "name": "2c06833b040249e8724664262606b0cf", "is_disabled": 0, "rental_uris": {"android": "https://dc.lft.to/lastmile_qr_scan", "ios": "https://dc.lft.to/lastmile_qr_scan"}, "fusion_lon": 0.0, "lat": 38.892166333333336, "bike_id": "2c06833b040249e8724664262606b0cf", "type": "electric_scooter", "is_reserved": 0, "lon": -77.02414316666666}, {"fusion_lat": 0.0, "name": "df9b11cbe9c4dee81be2a1ebfeeba922", "is_disabled": 0, "rental_uris": {"android": "https://dc.lft.to/lastmile_qr_scan", "ios": "https://dc.lft.to/lastmile_qr_scan"}, "fusion_lon": 0.0, "lat": 38.91703783333333, "bike_id": "df9b11cbe9c4dee81be2a1ebfeeba922", "type": "electric_scooter", "is_reserved": 0, "lon": -77.0087015}, {"fusion_lat": 0.0, "name": "650d4e2a900b718856f4bce86bfdb779", "is_disabled": 0, "rental_uris": {"android": "https://dc.lft.to/lastmile_qr_scan", "ios": "https://dc.lft.to/lastmile_qr_scan"}, "fusion_lon": 0.0, "lat": 38.94167983333333, "bike_id": "650d4e2a900b718856f4bce86bfdb779", "type": "electric_bike", "is_reserved": 0, "lon": -76.9665255}, {"fusion_lat": 0.0, "name": "2f32c767ef1149f35d5c789262b0d291", "is_disabled": 0, "rental_uris": {"android": "https://dc.lft.to/lastmile_qr_scan", "ios": "https://dc.lft.to/lastmile_qr_scan"}, "fusion_lon": 0.0, "lat": 38.907208, "bike_id": "2f32c767ef1149f35d5c789262b0d291", "type": "electric_scooter", "is_reserved": 0, "lon": -77.025034}, {"fusion_lat": 0.0, "name": "c7d5d7a930433db4b486f5a5dff7b4e7", "is_disabled": 0, "rental_uris": {"android": "https://dc.lft.to/lastmile_qr_scan", "ios": "https://dc.lft.to/lastmile_qr_scan"}, "fusion_lon": 0.0, "lat": 38.8850755, "bike_id": "c7d5d7a930433db4b486f5a5dff7b4e7", "type": "electric_scooter", "is_reserved": 0, "lon": -76.997668}, {"fusion_lat": 0.0, "name": "773189369a822e264de665d94b4faad5", "is_disabled": 0, "rental_uris": {"android": "https://dc.lft.to/lastmile_qr_scan", "ios": "https://dc.lft.to/lastmile_qr_scan"}, "fusion_lon": 0.0, "lat": 38.941491, "bike_id": "773189369a822e264de665d94b4faad5", "type": "electric_bike", "is_reserved": 0, "lon": -77.0019685}, {"fusion_lat": 0.0, "name": "faa5fb8b939005869f788dfc561bb2fa", "is_disabled": 0, "rental_uris": {"android": "https://dc.lft.to/lastmile_qr_scan", "ios": "https://dc.lft.to/lastmile_qr_scan"}, "fusion_lon": 0.0, "lat": 38.905213333333336, "bike_id": "faa5fb8b939005869f788dfc561bb2fa", "type": "electric_scooter", "is_reserved": 0, "lon": -77.0515805}, {"fusion_lat": 0.0, "name": "c80aef1c7bbbdc45a616cf5270f31b63", "is_disabled": 0, "rental_uris": {"android": "https://dc.lft.to/lastmile_qr_scan", "ios": "https://dc.lft.to/lastmile_qr_scan"}, "fusion_lon": 0.0, "lat": 38.9353875, "bike_id": "c80aef1c7bbbdc45a616cf5270f31b63", "type": "electric_scooter", "is_reserved": 0, "lon": -77.03100516666667}, {"fusion_lat": 0.0, "name": "9bc807131ed69f29cdbfb93613f66f98", "is_disabled": 0, "rental_uris": {"android": "https://dc.lft.to/lastmile_qr_scan", "ios": "https://dc.lft.to/lastmile_qr_scan"}, "fusion_lon": 0.0, "lat": 38.930815333333335, "bike_id": "9bc807131ed69f29cdbfb93613f66f98", "type": "electric_scooter", "is_reserved": 0, "lon": -77.0362705}, {"fusion_lat": 0.0, "name": "91714800df7c79a58c386937ecb24ec1", "is_disabled": 0, "rental_uris": {"android": "https://dc.lft.to/lastmile_qr_scan", "ios": "https://dc.lft.to/lastmile_qr_scan"}, "fusion_lon": 0.0, "lat": 38.96435183333333, "bike_id": "91714800df7c79a58c386937ecb24ec1", "type": "electric_scooter", "is_reserved": 0, "lon": -77.02061566666667}, {"fusion_lat": 0.0, "name": "43b162b41681499072b8cdd2c039c55b", "is_disabled": 0, "rental_uris": {"android": "https://dc.lft.to/lastmile_qr_scan", "ios": "https://dc.lft.to/lastmile_qr_scan"}, "fusion_lon": 0.0, "lat": 38.9218655, "bike_id": "43b162b41681499072b8cdd2c039c55b", "type": "electric_scooter", "is_reserved": 0, "lon": -77.042317}, {"fusion_lat": 0.0, "name": "d107ce980f52524dc8fadf462ffc420b", "is_disabled": 0, "rental_uris": {"android": "https://dc.lft.to/lastmile_qr_scan", "ios": "https://dc.lft.to/lastmile_qr_scan"}, "fusion_lon": 0.0, "lat": 38.8889, "bike_id": "d107ce980f52524dc8fadf462ffc420b", "type": "electric_bike", "is_reserved": 0, "lon": -77.11528716666666}, {"fusion_lat": 0.0, "name": "dbe3486444ea4fce9163a5b0eaa92f05", "is_disabled": 0, "rental_uris": {"android": "https://dc.lft.to/lastmile_qr_scan", "ios": "https://dc.lft.to/lastmile_qr_scan"}, "fusion_lon": 0.0, "lat": 38.89732166666667, "bike_id": "dbe3486444ea4fce9163a5b0eaa92f05", "type": "electric_scooter", "is_reserved": 0, "lon": -77.02704466666667}, {"fusion_lat": 0.0, "name": "dc2e8812bca0fa3e9f42893d07301f30", "is_disabled": 0, "rental_uris": {"android": "https://dc.lft.to/lastmile_qr_scan", "ios": "https://dc.lft.to/lastmile_qr_scan"}, "fusion_lon": 0.0, "lat": 38.90108516666667, "bike_id": "dc2e8812bca0fa3e9f42893d07301f30", "type": "electric_scooter", "is_reserved": 0, "lon": -77.0338525}, {"fusion_lat": 0.0, "name": "8c7d5add0cbdb2cc9770372160501b3f", "is_disabled": 0, "rental_uris": {"android": "https://dc.lft.to/lastmile_qr_scan", "ios": "https://dc.lft.to/lastmile_qr_scan"}, "fusion_lon": 0.0, "lat": 38.925106, "bike_id": "8c7d5add0cbdb2cc9770372160501b3f", "type": "electric_scooter", "is_reserved": 0, "lon": -77.03819666666666}, {"fusion_lat": 0.0, "name": "47a4255c1585a3ef51bdb02eacc208b5", "is_disabled": 0, "rental_uris": {"android": "https://dc.lft.to/lastmile_qr_scan", "ios": "https://dc.lft.to/lastmile_qr_scan"}, "fusion_lon": 0.0, "lat": 38.9181255, "bike_id": "47a4255c1585a3ef51bdb02eacc208b5", "type": "electric_scooter", "is_reserved": 0, "lon": -77.0281675}, {"fusion_lat": 0.0, "name": "b942e8969a47d895b1eb98adb4da6dd0", "is_disabled": 0, "rental_uris": {"android": "https://dc.lft.to/lastmile_qr_scan", "ios": "https://dc.lft.to/lastmile_qr_scan"}, "fusion_lon": 0.0, "lat": 38.898525166666666, "bike_id": "b942e8969a47d895b1eb98adb4da6dd0", "type": "electric_scooter", "is_reserved": 0, "lon": -76.99272783333333}, {"fusion_lat": 0.0, "name": "451f9bd53d06f871dd371d56119bd5d7", "is_disabled": 0, "rental_uris": {"android": "https://dc.lft.to/lastmile_qr_scan", "ios": "https://dc.lft.to/lastmile_qr_scan"}, "fusion_lon": 0.0, "lat": 38.89220433333333, "bike_id": "451f9bd53d06f871dd371d56119bd5d7", "type": "electric_scooter", "is_reserved": 0, "lon": -77.03139316666666}, {"fusion_lat": 0.0, "name": "3c4bcb5e191100991c0d8901bdc8cfbd", "is_disabled": 0, "rental_uris": {"android": "https://dc.lft.to/lastmile_qr_scan", "ios": "https://dc.lft.to/lastmile_qr_scan"}, "fusion_lon": 0.0, "lat": 38.92232816666667, "bike_id": "3c4bcb5e191100991c0d8901bdc8cfbd", "type": "electric_scooter", "is_reserved": 0, "lon": -77.03522116666667}, {"fusion_lat": 0.0, "name": "1257baa2f2b58d7e22513cb42621ca83", "is_disabled": 0, "rental_uris": {"android": "https://dc.lft.to/lastmile_qr_scan", "ios": "https://dc.lft.to/lastmile_qr_scan"}, "fusion_lon": 0.0, "lat": 38.92603916666667, "bike_id": "1257baa2f2b58d7e22513cb42621ca83", "type": "electric_scooter", "is_reserved": 0, "lon": -77.02209366666666}, {"fusion_lat": 0.0, "name": "f7f26a3370a334e138c089cee9234e05", "is_disabled": 0, "rental_uris": {"android": "https://dc.lft.to/lastmile_qr_scan", "ios": "https://dc.lft.to/lastmile_qr_scan"}, "fusion_lon": 0.0, "lat": 38.91320566666667, "bike_id": "f7f26a3370a334e138c089cee9234e05", "type": "electric_scooter", "is_reserved": 0, "lon": -77.04717266666667}, {"fusion_lat": 0.0, "name": "3d67a099e13c4876a246bf25decc1a54", "is_disabled": 0, "rental_uris": {"android": "https://dc.lft.to/lastmile_qr_scan", "ios": "https://dc.lft.to/lastmile_qr_scan"}, "fusion_lon": 0.0, "lat": 38.88756683333333, "bike_id": "3d67a099e13c4876a246bf25decc1a54", "type": "electric_scooter", "is_reserved": 0, "lon": -77.00170866666667}, {"fusion_lat": 0.0, "name": "880abb1bc931363d2b3c4d60dc72fcca", "is_disabled": 0, "rental_uris": {"android": "https://dc.lft.to/lastmile_qr_scan", "ios": "https://dc.lft.to/lastmile_qr_scan"}, "fusion_lon": 0.0, "lat": 38.911166333333334, "bike_id": "880abb1bc931363d2b3c4d60dc72fcca", "type": "electric_scooter", "is_reserved": 0, "lon": -77.03441866666667}, {"fusion_lat": 0.0, "name": "593bdd7e77535fa140203e01e0df70b0", "is_disabled": 0, "rental_uris": {"android": "https://dc.lft.to/lastmile_qr_scan", "ios": "https://dc.lft.to/lastmile_qr_scan"}, "fusion_lon": 0.0, "lat": 38.917159166666664, "bike_id": "593bdd7e77535fa140203e01e0df70b0", "type": "electric_scooter", "is_reserved": 0, "lon": -76.96870666666666}, {"fusion_lat": 0.0, "name": "6d82513bfad1f01fc151616424c53d67", "is_disabled": 0, "rental_uris": {"android": "https://dc.lft.to/lastmile_qr_scan", "ios": "https://dc.lft.to/lastmile_qr_scan"}, "fusion_lon": 0.0, "lat": 38.92075466666667, "bike_id": "6d82513bfad1f01fc151616424c53d67", "type": "electric_scooter", "is_reserved": 0, "lon": -77.0230445}, {"fusion_lat": 0.0, "name": "9ea8f82e036fdebe1542d15b99015717", "is_disabled": 0, "rental_uris": {"android": "https://dc.lft.to/lastmile_qr_scan", "ios": "https://dc.lft.to/lastmile_qr_scan"}, "fusion_lon": 0.0, "lat": 38.940213, "bike_id": "9ea8f82e036fdebe1542d15b99015717", "type": "electric_scooter", "is_reserved": 0, "lon": -77.0277185}, {"fusion_lat": 0.0, "name": "c6f4497825ccc122b368041b23b831c3", "is_disabled": 0, "rental_uris": {"android": "https://dc.lft.to/lastmile_qr_scan", "ios": "https://dc.lft.to/lastmile_qr_scan"}, "fusion_lon": 0.0, "lat": 38.91027066666667, "bike_id": "c6f4497825ccc122b368041b23b831c3", "type": "electric_scooter", "is_reserved": 0, "lon": -77.00760633333333}, {"fusion_lat": 0.0, "name": "1f86d614a9a9d475a8db4498e9d257e1", "is_disabled": 0, "rental_uris": {"android": "https://dc.lft.to/lastmile_qr_scan", "ios": "https://dc.lft.to/lastmile_qr_scan"}, "fusion_lon": 0.0, "lat": 38.90955966666667, "bike_id": "1f86d614a9a9d475a8db4498e9d257e1", "type": "electric_scooter", "is_reserved": 0, "lon": -77.0445935}, {"fusion_lat": 0.0, "name": "d119772c7571383a541bfd89e126a647", "is_disabled": 0, "rental_uris": {"android": "https://dc.lft.to/lastmile_qr_scan", "ios": "https://dc.lft.to/lastmile_qr_scan"}, "fusion_lon": 0.0, "lat": 38.8762475, "bike_id": "d119772c7571383a541bfd89e126a647", "type": "electric_scooter", "is_reserved": 0, "lon": -77.01639683333333}, {"fusion_lat": 0.0, "name": "f68da04bbb25521f9fac85904bce39c7", "is_disabled": 0, "rental_uris": {"android": "https://dc.lft.to/lastmile_qr_scan", "ios": "https://dc.lft.to/lastmile_qr_scan"}, "fusion_lon": 0.0, "lat": 38.892194333333336, "bike_id": "f68da04bbb25521f9fac85904bce39c7", "type": "electric_scooter", "is_reserved": 0, "lon": -77.043757}, {"fusion_lat": 0.0, "name": "de4960d4d6dc676983d9651a3a2d479d", "is_disabled": 0, "rental_uris": {"android": "https://dc.lft.to/lastmile_qr_scan", "ios": "https://dc.lft.to/lastmile_qr_scan"}, "fusion_lon": 0.0, "lat": 38.90575283333333, "bike_id": "de4960d4d6dc676983d9651a3a2d479d", "type": "electric_scooter", "is_reserved": 0, "lon": -77.02201633333334}, {"fusion_lat": 0.0, "name": "e8fcd2522326a8ad6c10a426c73e65c0", "is_disabled": 0, "rental_uris": {"android": "https://dc.lft.to/lastmile_qr_scan", "ios": "https://dc.lft.to/lastmile_qr_scan"}, "fusion_lon": 0.0, "lat": 38.839354, "bike_id": "e8fcd2522326a8ad6c10a426c73e65c0", "type": "electric_bike", "is_reserved": 0, "lon": -77.0790335}, {"fusion_lat": 0.0, "name": "bc2da352a3ad7d6fd24be13e9ba0737b", "is_disabled": 0, "rental_uris": {"android": "https://dc.lft.to/lastmile_qr_scan", "ios": "https://dc.lft.to/lastmile_qr_scan"}, "fusion_lon": 0.0, "lat": 38.93369083333333, "bike_id": "bc2da352a3ad7d6fd24be13e9ba0737b", "type": "electric_scooter", "is_reserved": 0, "lon": -77.03879616666667}, {"fusion_lat": 0.0, "name": "176d9399fb4e34b17f9dda8767c1bd59", "is_disabled": 0, "rental_uris": {"android": "https://dc.lft.to/lastmile_qr_scan", "ios": "https://dc.lft.to/lastmile_qr_scan"}, "fusion_lon": 0.0, "lat": 38.8973135, "bike_id": "176d9399fb4e34b17f9dda8767c1bd59", "type": "electric_scooter", "is_reserved": 0, "lon": -77.03215}, {"fusion_lat": 0.0, "name": "91afa37ca904c1c2fa58ec934a61b1a7", "is_disabled": 0, "rental_uris": {"android": "https://dc.lft.to/lastmile_qr_scan", "ios": "https://dc.lft.to/lastmile_qr_scan"}, "fusion_lon": 0.0, "lat": 38.94133883333333, "bike_id": "91afa37ca904c1c2fa58ec934a61b1a7", "type": "electric_scooter", "is_reserved": 0, "lon": -77.0060925}, {"fusion_lat": 0.0, "name": "426a2a0bb727b3ca909b0a380d25d1e4", "is_disabled": 0, "rental_uris": {"android": "https://dc.lft.to/lastmile_qr_scan", "ios": "https://dc.lft.to/lastmile_qr_scan"}, "fusion_lon": 0.0, "lat": 38.92691766666667, "bike_id": "426a2a0bb727b3ca909b0a380d25d1e4", "type": "electric_scooter", "is_reserved": 0, "lon": -77.02787866666667}, {"fusion_lat": 0.0, "name": "a123c15ea6f45d74620d4b39e6d00738", "is_disabled": 0, "rental_uris": {"android": "https://dc.lft.to/lastmile_qr_scan", "ios": "https://dc.lft.to/lastmile_qr_scan"}, "fusion_lon": 0.0, "lat": 38.909722333333335, "bike_id": "a123c15ea6f45d74620d4b39e6d00738", "type": "electric_scooter", "is_reserved": 0, "lon": -77.00895583333333}, {"fusion_lat": 0.0, "name": "9fb924cdd68fd7bdfd97f78146d15731", "is_disabled": 0, "rental_uris": {"android": "https://dc.lft.to/lastmile_qr_scan", "ios": "https://dc.lft.to/lastmile_qr_scan"}, "fusion_lon": 0.0, "lat": 38.90104933333333, "bike_id": "9fb924cdd68fd7bdfd97f78146d15731", "type": "electric_scooter", "is_reserved": 0, "lon": -77.05160916666667}, {"fusion_lat": 0.0, "name": "eb11950814f2c3483c17a64a35231885", "is_disabled": 0, "rental_uris": {"android": "https://dc.lft.to/lastmile_qr_scan", "ios": "https://dc.lft.to/lastmile_qr_scan"}, "fusion_lon": 0.0, "lat": 38.90347916666666, "bike_id": "eb11950814f2c3483c17a64a35231885", "type": "electric_scooter", "is_reserved": 0, "lon": -76.97236616666666}, {"fusion_lat": 0.0, "name": "400c100942f18a222a1319c4efd465e0", "is_disabled": 0, "rental_uris": {"android": "https://dc.lft.to/lastmile_qr_scan", "ios": "https://dc.lft.to/lastmile_qr_scan"}, "fusion_lon": 0.0, "lat": 38.8963145, "bike_id": "400c100942f18a222a1319c4efd465e0", "type": "electric_scooter", "is_reserved": 0, "lon": -77.03218266666667}, {"fusion_lat": 0.0, "name": "90a98b3d3695bc3ce01784d0b5b9ee36", "is_disabled": 0, "rental_uris": {"android": "https://dc.lft.to/lastmile_qr_scan", "ios": "https://dc.lft.to/lastmile_qr_scan"}, "fusion_lon": 0.0, "lat": 38.855588166666664, "bike_id": "90a98b3d3695bc3ce01784d0b5b9ee36", "type": "electric_bike", "is_reserved": 0, "lon": -77.1131665}, {"fusion_lat": 0.0, "name": "8ebd27edc7ef3d278ac51b1b6e346e24", "is_disabled": 0, "rental_uris": {"android": "https://dc.lft.to/lastmile_qr_scan", "ios": "https://dc.lft.to/lastmile_qr_scan"}, "fusion_lon": 0.0, "lat": 38.904474, "bike_id": "8ebd27edc7ef3d278ac51b1b6e346e24", "type": "electric_bike", "is_reserved": 0, "lon": -76.97423566666667}, {"fusion_lat": 0.0, "name": "59a0b29b3b3ffb65e06d5f0b0b63d8fa", "is_disabled": 0, "rental_uris": {"android": "https://dc.lft.to/lastmile_qr_scan", "ios": "https://dc.lft.to/lastmile_qr_scan"}, "fusion_lon": 0.0, "lat": 38.960701666666665, "bike_id": "59a0b29b3b3ffb65e06d5f0b0b63d8fa", "type": "electric_scooter", "is_reserved": 0, "lon": -77.00099416666667}, {"fusion_lat": 0.0, "name": "f98f8afe1bd2d8ba9691f87e8c10b777", "is_disabled": 0, "rental_uris": {"android": "https://dc.lft.to/lastmile_qr_scan", "ios": "https://dc.lft.to/lastmile_qr_scan"}, "fusion_lon": 0.0, "lat": 38.9050675, "bike_id": "f98f8afe1bd2d8ba9691f87e8c10b777", "type": "electric_scooter", "is_reserved": 0, "lon": -77.02943116666667}, {"fusion_lat": 0.0, "name": "fc4150da474dfd5a7e5554188e4c23fb", "is_disabled": 0, "rental_uris": {"android": "https://dc.lft.to/lastmile_qr_scan", "ios": "https://dc.lft.to/lastmile_qr_scan"}, "fusion_lon": 0.0, "lat": 38.91031, "bike_id": "fc4150da474dfd5a7e5554188e4c23fb", "type": "electric_scooter", "is_reserved": 0, "lon": -77.01288116666667}, {"fusion_lat": 0.0, "name": "3359310f190adb7f898efe1900f3c53b", "is_disabled": 0, "rental_uris": {"android": "https://dc.lft.to/lastmile_qr_scan", "ios": "https://dc.lft.to/lastmile_qr_scan"}, "fusion_lon": 0.0, "lat": 38.8984595, "bike_id": "3359310f190adb7f898efe1900f3c53b", "type": "electric_bike", "is_reserved": 0, "lon": -77.0246145}, {"fusion_lat": 0.0, "name": "a8dd63e2437088fd8055bc80299d8d87", "is_disabled": 0, "rental_uris": {"android": "https://dc.lft.to/lastmile_qr_scan", "ios": "https://dc.lft.to/lastmile_qr_scan"}, "fusion_lon": 0.0, "lat": 38.9163015, "bike_id": "a8dd63e2437088fd8055bc80299d8d87", "type": "electric_scooter", "is_reserved": 0, "lon": -77.02306483333334}, {"fusion_lat": 0.0, "name": "7cdb2be51707a0a44664ba81b612d716", "is_disabled": 0, "rental_uris": {"android": "https://dc.lft.to/lastmile_qr_scan", "ios": "https://dc.lft.to/lastmile_qr_scan"}, "fusion_lon": 0.0, "lat": 38.897250166666666, "bike_id": "7cdb2be51707a0a44664ba81b612d716", "type": "electric_scooter", "is_reserved": 0, "lon": -76.94700216666666}, {"fusion_lat": 0.0, "name": "72536f2ac87dd386fc0e88cbae036773", "is_disabled": 0, "rental_uris": {"android": "https://dc.lft.to/lastmile_qr_scan", "ios": "https://dc.lft.to/lastmile_qr_scan"}, "fusion_lon": 0.0, "lat": 38.925421666666665, "bike_id": "72536f2ac87dd386fc0e88cbae036773", "type": "electric_scooter", "is_reserved": 0, "lon": -77.05122016666667}, {"fusion_lat": 0.0, "name": "a680d5ffa369020af03264c693002667", "is_disabled": 0, "rental_uris": {"android": "https://dc.lft.to/lastmile_qr_scan", "ios": "https://dc.lft.to/lastmile_qr_scan"}, "fusion_lon": 0.0, "lat": 38.92250833333333, "bike_id": "a680d5ffa369020af03264c693002667", "type": "electric_scooter", "is_reserved": 0, "lon": -77.05084916666667}, {"fusion_lat": 0.0, "name": "f33a09ae0d5e4bf57175fa533fe7b556", "is_disabled": 0, "rental_uris": {"android": "https://dc.lft.to/lastmile_qr_scan", "ios": "https://dc.lft.to/lastmile_qr_scan"}, "fusion_lon": 0.0, "lat": 38.92903283333333, "bike_id": "f33a09ae0d5e4bf57175fa533fe7b556", "type": "electric_scooter", "is_reserved": 0, "lon": -77.05462816666666}, {"fusion_lat": 0.0, "name": "1409029b0b96f273e67c4d25bb9f1aba", "is_disabled": 0, "rental_uris": {"android": "https://dc.lft.to/lastmile_qr_scan", "ios": "https://dc.lft.to/lastmile_qr_scan"}, "fusion_lon": 0.0, "lat": 38.91706466666667, "bike_id": "1409029b0b96f273e67c4d25bb9f1aba", "type": "electric_scooter", "is_reserved": 0, "lon": -77.02901633333333}, {"fusion_lat": 0.0, "name": "2c01697f278c237c002484109677d89b", "is_disabled": 0, "rental_uris": {"android": "https://dc.lft.to/lastmile_qr_scan", "ios": "https://dc.lft.to/lastmile_qr_scan"}, "fusion_lon": 0.0, "lat": 38.876301833333336, "bike_id": "2c01697f278c237c002484109677d89b", "type": "electric_scooter", "is_reserved": 0, "lon": -77.01645266666667}, {"fusion_lat": 0.0, "name": "bf514a78e8ee730b7a3e6618eaf75946", "is_disabled": 0, "rental_uris": {"android": "https://dc.lft.to/lastmile_qr_scan", "ios": "https://dc.lft.to/lastmile_qr_scan"}, "fusion_lon": 0.0, "lat": 38.887524666666664, "bike_id": "bf514a78e8ee730b7a3e6618eaf75946", "type": "electric_scooter", "is_reserved": 0, "lon": -77.002597}, {"fusion_lat": 0.0, "name": "d9c04e17aa9f4bfb81f4339a64f383b4", "is_disabled": 0, "rental_uris": {"android": "https://dc.lft.to/lastmile_qr_scan", "ios": "https://dc.lft.to/lastmile_qr_scan"}, "fusion_lon": 0.0, "lat": 38.931913, "bike_id": "d9c04e17aa9f4bfb81f4339a64f383b4", "type": "electric_scooter", "is_reserved": 0, "lon": -77.04299466666667}, {"fusion_lat": 0.0, "name": "de0f935b2f37af53c4d53551cd0fef1e", "is_disabled": 0, "rental_uris": {"android": "https://dc.lft.to/lastmile_qr_scan", "ios": "https://dc.lft.to/lastmile_qr_scan"}, "fusion_lon": 0.0, "lat": 38.905617, "bike_id": "de0f935b2f37af53c4d53551cd0fef1e", "type": "electric_scooter", "is_reserved": 0, "lon": -77.046732}, {"fusion_lat": 0.0, "name": "5b2f3ec572df499a9513d906ca297833", "is_disabled": 0, "rental_uris": {"android": "https://dc.lft.to/lastmile_qr_scan", "ios": "https://dc.lft.to/lastmile_qr_scan"}, "fusion_lon": 0.0, "lat": 38.88447033333333, "bike_id": "5b2f3ec572df499a9513d906ca297833", "type": "electric_scooter", "is_reserved": 0, "lon": -77.02547083333333}, {"fusion_lat": 0.0, "name": "b56713bd012ed36e228dbbf72d905f49", "is_disabled": 0, "rental_uris": {"android": "https://dc.lft.to/lastmile_qr_scan", "ios": "https://dc.lft.to/lastmile_qr_scan"}, "fusion_lon": 0.0, "lat": 38.8872485, "bike_id": "b56713bd012ed36e228dbbf72d905f49", "type": "electric_scooter", "is_reserved": 0, "lon": -76.983571}, {"fusion_lat": 0.0, "name": "e068bd628842694555581f99ae9d6c11", "is_disabled": 0, "rental_uris": {"android": "https://dc.lft.to/lastmile_qr_scan", "ios": "https://dc.lft.to/lastmile_qr_scan"}, "fusion_lon": 0.0, "lat": 38.841322, "bike_id": "e068bd628842694555581f99ae9d6c11", "type": "electric_bike", "is_reserved": 0, "lon": -76.94760683333334}, {"fusion_lat": 0.0, "name": "764b0c3d132d69b8a1104f4b484b20a7", "is_disabled": 0, "rental_uris": {"android": "https://dc.lft.to/lastmile_qr_scan", "ios": "https://dc.lft.to/lastmile_qr_scan"}, "fusion_lon": 0.0, "lat": 38.905666333333336, "bike_id": "764b0c3d132d69b8a1104f4b484b20a7", "type": "electric_scooter", "is_reserved": 0, "lon": -77.06258666666666}, {"fusion_lat": 0.0, "name": "508fc0ea853c0818509029e1aebae40a", "is_disabled": 0, "rental_uris": {"android": "https://dc.lft.to/lastmile_qr_scan", "ios": "https://dc.lft.to/lastmile_qr_scan"}, "fusion_lon": 0.0, "lat": 38.919718833333334, "bike_id": "508fc0ea853c0818509029e1aebae40a", "type": "electric_scooter", "is_reserved": 0, "lon": -77.07114633333333}, {"fusion_lat": 0.0, "name": "3f60367d082f84deaf969ca90d9e0a00", "is_disabled": 0, "rental_uris": {"android": "https://dc.lft.to/lastmile_qr_scan", "ios": "https://dc.lft.to/lastmile_qr_scan"}, "fusion_lon": 0.0, "lat": 38.90397083333333, "bike_id": "3f60367d082f84deaf969ca90d9e0a00", "type": "electric_scooter", "is_reserved": 0, "lon": -77.05036116666666}, {"fusion_lat": 0.0, "name": "d774eecb33a1473f9684086d467ef965", "is_disabled": 0, "rental_uris": {"android": "https://dc.lft.to/lastmile_qr_scan", "ios": "https://dc.lft.to/lastmile_qr_scan"}, "fusion_lon": 0.0, "lat": 38.918202, "bike_id": "d774eecb33a1473f9684086d467ef965", "type": "electric_scooter", "is_reserved": 0, "lon": -77.0452475}, {"fusion_lat": 0.0, "name": "afed5eaf0c1075c7223e060e5d14fc1e", "is_disabled": 0, "rental_uris": {"android": "https://dc.lft.to/lastmile_qr_scan", "ios": "https://dc.lft.to/lastmile_qr_scan"}, "fusion_lon": 0.0, "lat": 38.93702783333333, "bike_id": "afed5eaf0c1075c7223e060e5d14fc1e", "type": "electric_scooter", "is_reserved": 0, "lon": -77.060973}, {"fusion_lat": 0.0, "name": "96c0d06d1aaf29adc88388fc902719f2", "is_disabled": 0, "rental_uris": {"android": "https://dc.lft.to/lastmile_qr_scan", "ios": "https://dc.lft.to/lastmile_qr_scan"}, "fusion_lon": 0.0, "lat": 38.92424366666667, "bike_id": "96c0d06d1aaf29adc88388fc902719f2", "type": "electric_scooter", "is_reserved": 0, "lon": -76.985947}, {"fusion_lat": 0.0, "name": "192e8aaba1e91df5d228900cdd1cf3f1", "is_disabled": 0, "rental_uris": {"android": "https://dc.lft.to/lastmile_qr_scan", "ios": "https://dc.lft.to/lastmile_qr_scan"}, "fusion_lon": 0.0, "lat": 38.882530333333335, "bike_id": "192e8aaba1e91df5d228900cdd1cf3f1", "type": "electric_scooter", "is_reserved": 0, "lon": -76.99032433333333}, {"fusion_lat": 0.0, "name": "5771d09c448dc7114e89801a13a1ab12", "is_disabled": 0, "rental_uris": {"android": "https://dc.lft.to/lastmile_qr_scan", "ios": "https://dc.lft.to/lastmile_qr_scan"}, "fusion_lon": 0.0, "lat": 38.88871366666667, "bike_id": "5771d09c448dc7114e89801a13a1ab12", "type": "electric_scooter", "is_reserved": 0, "lon": -76.98456166666666}, {"fusion_lat": 0.0, "name": "335240ec23fbec2d045a727788b5162d", "is_disabled": 0, "rental_uris": {"android": "https://dc.lft.to/lastmile_qr_scan", "ios": "https://dc.lft.to/lastmile_qr_scan"}, "fusion_lon": 0.0, "lat": 38.892252, "bike_id": "335240ec23fbec2d045a727788b5162d", "type": "electric_scooter", "is_reserved": 0, "lon": -77.046335}, {"fusion_lat": 0.0, "name": "a439b41b9a112c6bba79b3e4f967b00a", "is_disabled": 0, "rental_uris": {"android": "https://dc.lft.to/lastmile_qr_scan", "ios": "https://dc.lft.to/lastmile_qr_scan"}, "fusion_lon": 0.0, "lat": 38.894794166666664, "bike_id": "a439b41b9a112c6bba79b3e4f967b00a", "type": "electric_scooter", "is_reserved": 0, "lon": -76.9974265}, {"fusion_lat": 0.0, "name": "d5912a316863aafdd3a4a432655b5ead", "is_disabled": 0, "rental_uris": {"android": "https://dc.lft.to/lastmile_qr_scan", "ios": "https://dc.lft.to/lastmile_qr_scan"}, "fusion_lon": 0.0, "lat": 38.90511716666666, "bike_id": "d5912a316863aafdd3a4a432655b5ead", "type": "electric_scooter", "is_reserved": 0, "lon": -77.0171305}, {"fusion_lat": 0.0, "name": "33946dff91059ec11629db21f886d725", "is_disabled": 0, "rental_uris": {"android": "https://dc.lft.to/lastmile_qr_scan", "ios": "https://dc.lft.to/lastmile_qr_scan"}, "fusion_lon": 0.0, "lat": 38.901187, "bike_id": "33946dff91059ec11629db21f886d725", "type": "electric_scooter", "is_reserved": 0, "lon": -77.05145766666666}, {"fusion_lat": 0.0, "name": "9b945d10422192b3c23350738e4da72f", "is_disabled": 0, "rental_uris": {"android": "https://dc.lft.to/lastmile_qr_scan", "ios": "https://dc.lft.to/lastmile_qr_scan"}, "fusion_lon": 0.0, "lat": 38.891778333333335, "bike_id": "9b945d10422192b3c23350738e4da72f", "type": "electric_scooter", "is_reserved": 0, "lon": -77.0217965}, {"fusion_lat": 0.0, "name": "29452960a7f39759c78d63dc180fe6fc", "is_disabled": 0, "rental_uris": {"android": "https://dc.lft.to/lastmile_qr_scan", "ios": "https://dc.lft.to/lastmile_qr_scan"}, "fusion_lon": 0.0, "lat": 38.920805666666666, "bike_id": "29452960a7f39759c78d63dc180fe6fc", "type": "electric_scooter", "is_reserved": 0, "lon": -77.02399516666667}, {"fusion_lat": 0.0, "name": "39ec5ea912a78b0d6e266a6ad41e2d12", "is_disabled": 0, "rental_uris": {"android": "https://dc.lft.to/lastmile_qr_scan", "ios": "https://dc.lft.to/lastmile_qr_scan"}, "fusion_lon": 0.0, "lat": 38.904708666666664, "bike_id": "39ec5ea912a78b0d6e266a6ad41e2d12", "type": "electric_scooter", "is_reserved": 0, "lon": -76.95201166666666}, {"fusion_lat": 0.0, "name": "976509fd9ed1eacdbeca457d2eb50ff0", "is_disabled": 0, "rental_uris": {"android": "https://dc.lft.to/lastmile_qr_scan", "ios": "https://dc.lft.to/lastmile_qr_scan"}, "fusion_lon": 0.0, "lat": 38.949087166666665, "bike_id": "976509fd9ed1eacdbeca457d2eb50ff0", "type": "electric_bike", "is_reserved": 0, "lon": -77.0380645}, {"fusion_lat": 0.0, "name": "10de356ad0f57d9f306149ebf27445ce", "is_disabled": 0, "rental_uris": {"android": "https://dc.lft.to/lastmile_qr_scan", "ios": "https://dc.lft.to/lastmile_qr_scan"},