{"data": {"bikes": [{"lon": -77.018877, "bike_id": "65d94c29433b9c70496975664f3103ca", "lat": 38.903194, "fusion_lon": 0.0, "fusion_lat": 0.0, "type": "electric_scooter", "name": "65d94c29433b9c70496975664f3103ca", "is_disabled": 0, "rental_uris": {"ios": "https://dc.lft.to/lastmile_qr_scan", "android": "https://dc.lft.to/lastmile_qr_scan"}, "is_reserved": 0}, {"lon": -77.03964833333333, "bike_id": "fe6707563d7208c15f0fd1aecbc59930", "lat": 38.892223666666666, "fusion_lon": 0.0, "fusion_lat": 0.0, "type": "electric_scooter", "name": "fe6707563d7208c15f0fd1aecbc59930", "is_disabled": 0, "rental_uris": {"ios": "https://dc.lft.to/lastmile_qr_scan", "android": "https://dc.lft.to/lastmile_qr_scan"}, "is_reserved": 0}, {"lon": -77.037423, "bike_id": "dc862fcee64448686cdccd06b3c3530b", "lat": 38.918063, "fusion_lon": 0.0, "fusion_lat": 0.0, "type": "electric_scooter", "name": "dc862fcee64448686cdccd06b3c3530b", "is_disabled": 0, "rental_uris": {"ios": "https://dc.lft.to/lastmile_qr_scan", "android": "https://dc.lft.to/lastmile_qr_scan"}, "is_reserved": 0}, {"lon": -77.03236816666667, "bike_id": "69796a418c7ceea0d32b206bee2b7897", "lat": 38.90548783333333, "fusion_lon": 0.0, "fusion_lat": 0.0, "type": "electric_scooter", "name": "69796a418c7ceea0d32b206bee2b7897", "is_disabled": 0, "rental_uris": {"ios": "https://dc.lft.to/lastmile_qr_scan", "android": "https://dc.lft.to/lastmile_qr_scan"}, "is_reserved": 0}, {"lon": -77.04335983333333, "bike_id": "bff637f40adcc174e443ab9198f8e723", "lat": 38.89223666666667, "fusion_lon": 0.0, "fusion_lat": 0.0, "type": "electric_scooter", "name": "bff637f40adcc174e443ab9198f8e723", "is_disabled": 0, "rental_uris": {"ios": "https://dc.lft.to/lastmile_qr_scan", "android": "https://dc.lft.to/lastmile_qr_scan"}, "is_reserved": 0}, {"lon": -77.01986416666666, "bike_id": "300d94ac32df6e8503b1bcd704631df7", "lat": 38.883894, "fusion_lon": 0.0, "fusion_lat": 0.0, "type": "electric_scooter", "name": "300d94ac32df6e8503b1bcd704631df7", "is_disabled": 0, "rental_uris": {"ios": "https://dc.lft.to/lastmile_qr_scan", "android": "https://dc.lft.to/lastmile_qr_scan"}, "is_reserved": 0}, {"lon": -76.99004266666667, "bike_id": "756ef0c2313d377559639a6d80eb90d9", "lat": 38.865112, "fusion_lon": 0.0, "fusion_lat": 0.0, "type": "electric_scooter", "name": "756ef0c2313d377559639a6d80eb90d9", "is_disabled": 0, "rental_uris": {"ios": "https://dc.lft.to/lastmile_qr_scan", "android": "https://dc.lft.to/lastmile_qr_scan"}, "is_reserved": 0}, {"lon": -76.993727, "bike_id": "09a3089d522f40c4917fcfb57d929b37", "lat": 38.879745, "fusion_lon": 0.0, "fusion_lat": 0.0, "type": "electric_scooter", "name": "09a3089d522f40c4917fcfb57d929b37", "is_disabled": 0, "rental_uris": {"ios": "https://dc.lft.to/lastmile_qr_scan", "android": "https://dc.lft.to/lastmile_qr_scan"}, "is_reserved": 0}, {"lon": -77.03704616666667, "bike_id": "d5526dc268e7602aaae8b9aa3aa0559a", "lat": 38.935293, "fusion_lon": 0.0, "fusion_lat": 0.0, "type": "electric_scooter", "name": "d5526dc268e7602aaae8b9aa3aa0559a", "is_disabled": 0, "rental_uris": {"ios": "https://dc.lft.to/lastmile_qr_scan", "android": "https://dc.lft.to/lastmile_qr_scan"}, "is_reserved": 0}, {"lon": -76.99807466666667, "bike_id": "c3aa2a1132fbf93ef4e9fb0f3792a1ce", "lat": 38.8999435, "fusion_lon": 0.0, "fusion_lat": 0.0, "type": "electric_scooter", "name": "c3aa2a1132fbf93ef4e9fb0f3792a1ce", "is_disabled": 0, "rental_uris": {"ios": "https://dc.lft.to/lastmile_qr_scan", "android": "https://dc.lft.to/lastmile_qr_scan"}, "is_reserved": 0}, {"lon": -76.98903466666667, "bike_id": "81b74e984b8a50b6e53e0c142f864e73", "lat": 38.86667283333333, "fusion_lon": 0.0, "fusion_lat": 0.0, "type": "electric_scooter", "name": "81b74e984b8a50b6e53e0c142f864e73", "is_disabled": 0, "rental_uris": {"ios": "https://dc.lft.to/lastmile_qr_scan", "android": "https://dc.lft.to/lastmile_qr_scan"}, "is_reserved": 0}, {"lon": -77.00919833333333, "bike_id": "20d389956ded2dfb9219c1b4f30e2c59", "lat": 38.896077, "fusion_lon": 0.0, "fusion_lat": 0.0, "type": "electric_scooter", "name": "20d389956ded2dfb9219c1b4f30e2c59", "is_disabled": 0, "rental_uris": {"ios": "https://dc.lft.to/lastmile_qr_scan", "android": "https://dc.lft.to/lastmile_qr_scan"}, "is_reserved": 0}, {"lon": -77.02718383333334, "bike_id": "385e72212476be66f5f165c41634eb35", "lat": 38.89714816666667, "fusion_lon": 0.0, "fusion_lat": 0.0, "type": "electric_scooter", "name": "385e72212476be66f5f165c41634eb35", "is_disabled": 0, "rental_uris": {"ios": "https://dc.lft.to/lastmile_qr_scan", "android": "https://dc.lft.to/lastmile_qr_scan"}, "is_reserved": 0}, {"lon": -77.031238, "bike_id": "907467bd89a8288f228a61eba7a7217b", "lat": 38.923869333333336, "fusion_lon": 0.0, "fusion_lat": 0.0, "type": "electric_scooter", "name": "907467bd89a8288f228a61eba7a7217b", "is_disabled": 0, "rental_uris": {"ios": "https://dc.lft.to/lastmile_qr_scan", "android": "https://dc.lft.to/lastmile_qr_scan"}, "is_reserved": 0}, {"lon": -77.02906983333334, "bike_id": "e16645f86ab248aec7b86a8a15f450c0", "lat": 38.9169925, "fusion_lon": 0.0, "fusion_lat": 0.0, "type": "electric_bike", "name": "e16645f86ab248aec7b86a8a15f450c0", "is_disabled": 0, "rental_uris": {"ios": "https://dc.lft.to/lastmile_qr_scan", "android": "https://dc.lft.to/lastmile_qr_scan"}, "is_reserved": 0}, {"lon": -77.0211985, "bike_id": "088d0da5581df35367159ef98d10ac99", "lat": 38.91589716666667, "fusion_lon": 0.0, "fusion_lat": 0.0, "type": "electric_scooter", "name": "088d0da5581df35367159ef98d10ac99", "is_disabled": 0, "rental_uris": {"ios": "https://dc.lft.to/lastmile_qr_scan", "android": "https://dc.lft.to/lastmile_qr_scan"}, "is_reserved": 0}, {"lon": -76.93060183333333, "bike_id": "62ba55ae2f4c33191b2bb19830c00a9f", "lat": 38.90152533333333, "fusion_lon": 0.0, "fusion_lat": 0.0, "type": "electric_scooter", "name": "62ba55ae2f4c33191b2bb19830c00a9f", "is_disabled": 0, "rental_uris": {"ios": "https://dc.lft.to/lastmile_qr_scan", "android": "https://dc.lft.to/lastmile_qr_scan"}, "is_reserved": 0}, {"lon": -76.99492116666667, "bike_id": "5056d7b60b5dd9d9d642acaefb9e87ce", "lat": 38.8624585, "fusion_lon": 0.0, "fusion_lat": 0.0, "type": "electric_scooter", "name": "5056d7b60b5dd9d9d642acaefb9e87ce", "is_disabled": 0, "rental_uris": {"ios": "https://dc.lft.to/lastmile_qr_scan", "android": "https://dc.lft.to/lastmile_qr_scan"}, "is_reserved": 0}, {"lon": -76.976295, "bike_id": "e20c5a1534cb073a977b7ef05a996592", "lat": 38.905739833333335, "fusion_lon": 0.0, "fusion_lat": 0.0, "type": "electric_scooter", "name": "e20c5a1534cb073a977b7ef05a996592", "is_disabled": 0, "rental_uris": {"ios": "https://dc.lft.to/lastmile_qr_scan", "android": "https://dc.lft.to/lastmile_qr_scan"}, "is_reserved": 0}, {"lon": -77.03830416666666, "bike_id": "3358939c07d950951b978f01032eca24", "lat": 38.910425333333336, "fusion_lon": 0.0, "fusion_lat": 0.0, "type": "electric_scooter", "name": "3358939c07d950951b978f01032eca24", "is_disabled": 0, "rental_uris": {"ios": "https://dc.lft.to/lastmile_qr_scan", "android": "https://dc.lft.to/lastmile_qr_scan"}, "is_reserved": 0}, {"lon": -77.01939533333334, "bike_id": "e953cc98573328dba56a4d68cbef545b", "lat": 38.9369135, "fusion_lon": 0.0, "fusion_lat": 0.0, "type": "electric_scooter", "name": "e953cc98573328dba56a4d68cbef545b", "is_disabled": 0, "rental_uris": {"ios": "https://dc.lft.to/lastmile_qr_scan", "android": "https://dc.lft.to/lastmile_qr_scan"}, "is_reserved": 0}, {"lon": -76.98545, "bike_id": "f4222f9db6332232cf3c63b9eb965949", "lat": 38.8965985, "fusion_lon": 0.0, "fusion_lat": 0.0, "type": "electric_scooter", "name": "f4222f9db6332232cf3c63b9eb965949", "is_disabled": 0, "rental_uris": {"ios": "https://dc.lft.to/lastmile_qr_scan", "android": "https://dc.lft.to/lastmile_qr_scan"}, "is_reserved": 0}, {"lon": -77.04163766666667, "bike_id": "282b2feb66a59621a9647279b9d8ec84", "lat": 38.91251033333333, "fusion_lon": 0.0, "fusion_lat": 0.0, "type": "electric_scooter", "name": "282b2feb66a59621a9647279b9d8ec84", "is_disabled": 0, "rental_uris": {"ios": "https://dc.lft.to/lastmile_qr_scan", "android": "https://dc.lft.to/lastmile_qr_scan"}, "is_reserved": 0}, {"lon": -77.03299116666666, "bike_id": "8c6891a515b5a85e8d1734ae70541f99", "lat": 38.92553316666667, "fusion_lon": 0.0, "fusion_lat": 0.0, "type": "electric_scooter", "name": "8c6891a515b5a85e8d1734ae70541f99", "is_disabled": 0, "rental_uris": {"ios": "https://dc.lft.to/lastmile_qr_scan", "android": "https://dc.lft.to/lastmile_qr_scan"}, "is_reserved": 0}, {"lon": -77.04766616666667, "bike_id": "efbcd82d9e4c6f0cb7c85c3642a5b495", "lat": 38.92136683333333, "fusion_lon": 0.0, "fusion_lat": 0.0, "type": "electric_scooter", "name": "efbcd82d9e4c6f0cb7c85c3642a5b495", "is_disabled": 0, "rental_uris": {"ios": "https://dc.lft.to/lastmile_qr_scan", "android": "https://dc.lft.to/lastmile_qr_scan"}, "is_reserved": 0}, {"lon": -77.01053283333333, "bike_id": "bd0cb3a86c26becb7ec1170366a6a3e5", "lat": 38.878661, "fusion_lon": 0.0, "fusion_lat": 0.0, "type": "electric_scooter", "name": "bd0cb3a86c26becb7ec1170366a6a3e5", "is_disabled": 0, "rental_uris": {"ios": "https://dc.lft.to/lastmile_qr_scan", "android": "https://dc.lft.to/lastmile_qr_scan"}, "is_reserved": 0}, {"lon": -77.02649966666667, "bike_id": "c786f2b27b13bee499027cfea12a1b0f", "lat": 38.938650833333334, "fusion_lon": 0.0, "fusion_lat": 0.0, "type": "electric_scooter", "name": "c786f2b27b13bee499027cfea12a1b0f", "is_disabled": 0, "rental_uris": {"ios": "https://dc.lft.to/lastmile_qr_scan", "android": "https://dc.lft.to/lastmile_qr_scan"}, "is_reserved": 0}, {"lon": -77.02235416666667, "bike_id": "384ec4f8d8b7974dd3211aa9dd98a194", "lat": 38.920077166666665, "fusion_lon": 0.0, "fusion_lat": 0.0, "type": "electric_scooter", "name": "384ec4f8d8b7974dd3211aa9dd98a194", "is_disabled": 0, "rental_uris": {"ios": "https://dc.lft.to/lastmile_qr_scan", "android": "https://dc.lft.to/lastmile_qr_scan"}, "is_reserved": 0}, {"lon": -76.99357333333333, "bike_id": "a74a92217eb1d803fa6925c80aa9c4fe", "lat": 38.84507283333333, "fusion_lon": 0.0, "fusion_lat": 0.0, "type": "electric_bike", "name": "a74a92217eb1d803fa6925c80aa9c4fe", "is_disabled": 0, "rental_uris": {"ios": "https://dc.lft.to/lastmile_qr_scan", "android": "https://dc.lft.to/lastmile_qr_scan"}, "is_reserved": 0}, {"lon": -77.031097, "bike_id": "5b0072e7131bee6048b5f7b3e4d2b6b7", "lat": 38.91565816666667, "fusion_lon": 0.0, "fusion_lat": 0.0, "type": "electric_scooter", "name": "5b0072e7131bee6048b5f7b3e4d2b6b7", "is_disabled": 0, "rental_uris": {"ios": "https://dc.lft.to/lastmile_qr_scan", "android": "https://dc.lft.to/lastmile_qr_scan"}, "is_reserved": 0}, {"lon": -76.983639, "bike_id": "0dd4ca02135543553094c139fbf16fa4", "lat": 38.91535433333333, "fusion_lon": 0.0, "fusion_lat": 0.0, "type": "electric_scooter", "name": "0dd4ca02135543553094c139fbf16fa4", "is_disabled": 0, "rental_uris": {"ios": "https://dc.lft.to/lastmile_qr_scan", "android": "https://dc.lft.to/lastmile_qr_scan"}, "is_reserved": 0}, {"lon": -77.0252295, "bike_id": "478affec45e4c3d2cc4cd222ef2ec458", "lat": 38.916888166666666, "fusion_lon": 0.0, "fusion_lat": 0.0, "type": "electric_bike", "name": "478affec45e4c3d2cc4cd222ef2ec458", "is_disabled": 0, "rental_uris": {"ios": "https://dc.lft.to/lastmile_qr_scan", "android": "https://dc.lft.to/lastmile_qr_scan"}, "is_reserved": 0}, {"lon": -76.99887, "bike_id": "bd22c62067415b60e93066b4b46a36f8", "lat": 38.920552, "fusion_lon": 0.0, "fusion_lat": 0.0, "type": "electric_scooter", "name": "bd22c62067415b60e93066b4b46a36f8", "is_disabled": 0, "rental_uris": {"ios": "https://dc.lft.to/lastmile_qr_scan", "android": "https://dc.lft.to/lastmile_qr_scan"}, "is_reserved": 0}, {"lon": -77.0534945, "bike_id": "9568295ead6991ed57b6253aea348260", "lat": 38.902666833333335, "fusion_lon": 0.0, "fusion_lat": 0.0, "type": "electric_scooter", "name": "9568295ead6991ed57b6253aea348260", "is_disabled": 0, "rental_uris": {"ios": "https://dc.lft.to/lastmile_qr_scan", "android": "https://dc.lft.to/lastmile_qr_scan"}, "is_reserved": 0}, {"lon": -77.03356883333333, "bike_id": "4c17f1ab5d8f509bed2010a95836fa94", "lat": 38.928889, "fusion_lon": 0.0, "fusion_lat": 0.0, "type": "electric_scooter", "name": "4c17f1ab5d8f509bed2010a95836fa94", "is_disabled": 0, "rental_uris": {"ios": "https://dc.lft.to/lastmile_qr_scan", "android": "https://dc.lft.to/lastmile_qr_scan"}, "is_reserved": 0}, {"lon": -76.9732975, "bike_id": "2f5bd1bd65a0d4888cf732a4657755ee", "lat": 38.904096333333335, "fusion_lon": 0.0, "fusion_lat": 0.0, "type": "electric_scooter", "name": "2f5bd1bd65a0d4888cf732a4657755ee", "is_disabled": 0, "rental_uris": {"ios": "https://dc.lft.to/lastmile_qr_scan", "android": "https://dc.lft.to/lastmile_qr_scan"}, "is_reserved": 0}, {"lon": -77.03465966666667, "bike_id": "25566216661c3c2fc9e3e90f9312f827", "lat": 38.9072445, "fusion_lon": 0.0, "fusion_lat": 0.0, "type": "electric_scooter", "name": "25566216661c3c2fc9e3e90f9312f827", "is_disabled": 0, "rental_uris": {"ios": "https://dc.lft.to/lastmile_qr_scan", "android": "https://dc.lft.to/lastmile_qr_scan"}, "is_reserved": 0}, {"lon": -77.032758, "bike_id": "e435cbe6bb16f55f125dd9bb199d81c3", "lat": 38.914055833333336, "fusion_lon": 0.0, "fusion_lat": 0.0, "type": "electric_scooter", "name": "e435cbe6bb16f55f125dd9bb199d81c3", "is_disabled": 0, "rental_uris": {"ios": "https://dc.lft.to/lastmile_qr_scan", "android": "https://dc.lft.to/lastmile_qr_scan"}, "is_reserved": 0}, {"lon": -76.98767083333334, "bike_id": "3551624a4aa6dab4490cae259047e2dd", "lat": 38.86630066666667, "fusion_lon": 0.0, "fusion_lat": 0.0, "type": "electric_bike", "name": "3551624a4aa6dab4490cae259047e2dd", "is_disabled": 0, "rental_uris": {"ios": "https://dc.lft.to/lastmile_qr_scan", "android": "https://dc.lft.to/lastmile_qr_scan"}, "is_reserved": 0}, {"lon": -77.0387225, "bike_id": "61aec8a45656778505d81d19d3772a13", "lat": 38.91269716666667, "fusion_lon": 0.0, "fusion_lat": 0.0, "type": "electric_scooter", "name": "61aec8a45656778505d81d19d3772a13", "is_disabled": 0, "rental_uris": {"ios": "https://dc.lft.to/lastmile_qr_scan", "android": "https://dc.lft.to/lastmile_qr_scan"}, "is_reserved": 0}, {"lon": -77.04155916666667, "bike_id": "e2c62bed05a7f8bac558e1f0154c8a5b", "lat": 38.91813, "fusion_lon": 0.0, "fusion_lat": 0.0, "type": "electric_scooter", "name": "e2c62bed05a7f8bac558e1f0154c8a5b", "is_disabled": 0, "rental_uris": {"ios": "https://dc.lft.to/lastmile_qr_scan", "android": "https://dc.lft.to/lastmile_qr_scan"}, "is_reserved": 0}, {"lon": -76.94208683333333, "bike_id": "1f6b24e1fd0368139f5cac3694badb53", "lat": 38.893173166666664, "fusion_lon": 0.0, "fusion_lat": 0.0, "type": "electric_bike", "name": "1f6b24e1fd0368139f5cac3694badb53", "is_disabled": 0, "rental_uris": {"ios": "https://dc.lft.to/lastmile_qr_scan", "android": "https://dc.lft.to/lastmile_qr_scan"}, "is_reserved": 0}, {"lon": -77.0132565, "bike_id": "c245eef00f2b6ace4a94413808c62e17", "lat": 38.90021266666667, "fusion_lon": 0.0, "fusion_lat": 0.0, "type": "electric_scooter", "name": "c245eef00f2b6ace4a94413808c62e17", "is_disabled": 0, "rental_uris": {"ios": "https://dc.lft.to/lastmile_qr_scan", "android": "https://dc.lft.to/lastmile_qr_scan"}, "is_reserved": 0}, {"lon": -77.06859333333334, "bike_id": "32045cead11051accca971ec2f37636a", "lat": 38.93814, "fusion_lon": 0.0, "fusion_lat": 0.0, "type": "electric_bike", "name": "32045cead11051accca971ec2f37636a", "is_disabled": 0, "rental_uris": {"ios": "https://dc.lft.to/lastmile_qr_scan", "android": "https://dc.lft.to/lastmile_qr_scan"}, "is_reserved": 0}, {"lon": -76.98527416666667, "bike_id": "70b5eb81e3089eabde7755522ca0442e", "lat": 38.86687383333334, "fusion_lon": 0.0, "fusion_lat": 0.0, "type": "electric_scooter", "name": "70b5eb81e3089eabde7755522ca0442e", "is_disabled": 0, "rental_uris": {"ios": "https://dc.lft.to/lastmile_qr_scan", "android": "https://dc.lft.to/lastmile_qr_scan"}, "is_reserved": 0}, {"lon": -77.035124, "bike_id": "9958d0afee184ec7ab64a2104c4a1339", "lat": 38.92326583333333, "fusion_lon": 0.0, "fusion_lat": 0.0, "type": "electric_scooter", "name": "9958d0afee184ec7ab64a2104c4a1339", "is_disabled": 0, "rental_uris": {"ios": "https://dc.lft.to/lastmile_qr_scan", "android": "https://dc.lft.to/lastmile_qr_scan"}, "is_reserved": 0}, {"lon": -77.03303683333333, "bike_id": "cb828249e34fba53c3563bcc28d5a71a", "lat": 38.92629133333333, "fusion_lon": 0.0, "fusion_lat": 0.0, "type": "electric_bike", "name": "cb828249e34fba53c3563bcc28d5a71a", "is_disabled": 0, "rental_uris": {"ios": "https://dc.lft.to/lastmile_qr_scan", "android": "https://dc.lft.to/lastmile_qr_scan"}, "is_reserved": 0}, {"lon": -76.927674, "bike_id": "fef0447b74171b295654fe0e27a3ef48", "lat": 38.900889666666664, "fusion_lon": 0.0, "fusion_lat": 0.0, "type": "electric_scooter", "name": "fef0447b74171b295654fe0e27a3ef48", "is_disabled": 0, "rental_uris": {"ios": "https://dc.lft.to/lastmile_qr_scan", "android": "https://dc.lft.to/lastmile_qr_scan"}, "is_reserved": 0}, {"lon": -77.00210366666667, "bike_id": "54518fc7e4cef54105672f598ecfedfc", "lat": 38.900161833333335, "fusion_lon": 0.0, "fusion_lat": 0.0, "type": "electric_scooter", "name": "54518fc7e4cef54105672f598ecfedfc", "is_disabled": 0, "rental_uris": {"ios": "https://dc.lft.to/lastmile_qr_scan", "android": "https://dc.lft.to/lastmile_qr_scan"}, "is_reserved": 0}, {"lon": -77.002032, "bike_id": "89d1c5a58450abaa05ed1dcb02d3dc0e", "lat": 38.9884985, "fusion_lon": 0.0, "fusion_lat": 0.0, "type": "electric_bike", "name": "89d1c5a58450abaa05ed1dcb02d3dc0e", "is_disabled": 0, "rental_uris": {"ios": "https://dc.lft.to/lastmile_qr_scan", "android": "https://dc.lft.to/lastmile_qr_scan"}, "is_reserved": 0}, {"lon": -76.9791085, "bike_id": "b8834ebf0debcff99cdc3ad49ef9bb41", "lat": 38.8636215, "fusion_lon": 0.0, "fusion_lat": 0.0, "type": "electric_scooter", "name": "b8834ebf0debcff99cdc3ad49ef9bb41", "is_disabled": 0, "rental_uris": {"ios": "https://dc.lft.to/lastmile_qr_scan", "android": "https://dc.lft.to/lastmile_qr_scan"}, "is_reserved": 0}, {"lon": -76.98716066666667, "bike_id": "3058a951654b89833f469ba57013e3b1", "lat": 38.86628266666666, "fusion_lon": 0.0, "fusion_lat": 0.0, "type": "electric_scooter", "name": "3058a951654b89833f469ba57013e3b1", "is_disabled": 0, "rental_uris": {"ios": "https://dc.lft.to/lastmile_qr_scan", "android": "https://dc.lft.to/lastmile_qr_scan"}, "is_reserved": 0}, {"lon": -76.98883116666667, "bike_id": "9faa6d0722d1057a0060b8236166f565", "lat": 38.866579333333334, "fusion_lon": 0.0, "fusion_lat": 0.0, "type": "electric_scooter", "name": "9faa6d0722d1057a0060b8236166f565", "is_disabled": 0, "rental_uris": {"ios": "https://dc.lft.to/lastmile_qr_scan", "android": "https://dc.lft.to/lastmile_qr_scan"}, "is_reserved": 0}, {"lon": -77.0250255, "bike_id": "b81646e02b138455317ebf7d0e162b34", "lat": 38.92071133333334, "fusion_lon": 0.0, "fusion_lat": 0.0, "type": "electric_scooter", "name": "b81646e02b138455317ebf7d0e162b34", "is_disabled": 0, "rental_uris": {"ios": "https://dc.lft.to/lastmile_qr_scan", "android": "https://dc.lft.to/lastmile_qr_scan"}, "is_reserved": 0}, {"lon": -76.994713, "bike_id": "b04530d8cf2cb7835f88026f6e5a6ab2", "lat": 38.862266, "fusion_lon": 0.0, "fusion_lat": 0.0, "type": "electric_scooter", "name": "b04530d8cf2cb7835f88026f6e5a6ab2", "is_disabled": 0, "rental_uris": {"ios": "https://dc.lft.to/lastmile_qr_scan", "android": "https://dc.lft.to/lastmile_qr_scan"}, "is_reserved": 0}, {"lon": -77.03660133333334, "bike_id": "c206bd5f21a475bcda93ad0d83c59f3a", "lat": 38.917772666666664, "fusion_lon": 0.0, "fusion_lat": 0.0, "type": "electric_scooter", "name": "c206bd5f21a475bcda93ad0d83c59f3a", "is_disabled": 0, "rental_uris": {"ios": "https://dc.lft.to/lastmile_qr_scan", "android": "https://dc.lft.to/lastmile_qr_scan"}, "is_reserved": 0}, {"lon": -77.0372435, "bike_id": "ec1963f9c67a610ca14e803dab19bd04", "lat": 38.93187616666667, "fusion_lon": 0.0, "fusion_lat": 0.0, "type": "electric_scooter", "name": "ec1963f9c67a610ca14e803dab19bd04", "is_disabled": 0, "rental_uris": {"ios": "https://dc.lft.to/lastmile_qr_scan", "android": "https://dc.lft.to/lastmile_qr_scan"}, "is_reserved": 0}, {"lon": -77.03057566666666, "bike_id": "0e158e1c8046115c3302468752487149", "lat": 38.887657, "fusion_lon": 0.0, "fusion_lat": 0.0, "type": "electric_scooter", "name": "0e158e1c8046115c3302468752487149", "is_disabled": 0, "rental_uris": {"ios": "https://dc.lft.to/lastmile_qr_scan", "android": "https://dc.lft.to/lastmile_qr_scan"}, "is_reserved": 0}, {"lon": -76.92769616666666, "bike_id": "3930c30d7a4c87a75ab0e6ddb67a3bdd", "lat": 38.96923983333333, "fusion_lon": 0.0, "fusion_lat": 0.0, "type": "electric_bike", "name": "3930c30d7a4c87a75ab0e6ddb67a3bdd", "is_disabled": 0, "rental_uris": {"ios": "https://dc.lft.to/lastmile_qr_scan", "android": "https://dc.lft.to/lastmile_qr_scan"}, "is_reserved": 0}, {"lon": -77.01716516666667, "bike_id": "135f679873c14dc47d93d56da55907e8", "lat": 38.90972216666667, "fusion_lon": 0.0, "fusion_lat": 0.0, "type": "electric_scooter", "name": "135f679873c14dc47d93d56da55907e8", "is_disabled": 0, "rental_uris": {"ios": "https://dc.lft.to/lastmile_qr_scan", "android": "https://dc.lft.to/lastmile_qr_scan"}, "is_reserved": 0}, {"lon": -77.00135983333334, "bike_id": "a7675cf902d6fbafd0a990dd9ef0f00e", "lat": 38.894723166666665, "fusion_lon": 0.0, "fusion_lat": 0.0, "type": "electric_scooter", "name": "a7675cf902d6fbafd0a990dd9ef0f00e", "is_disabled": 0, "rental_uris": {"ios": "https://dc.lft.to/lastmile_qr_scan", "android": "https://dc.lft.to/lastmile_qr_scan"}, "is_reserved": 0}, {"lon": -76.926728, "bike_id": "ac04d7b4cf0be0874ed623a3db189388", "lat": 38.880424, "fusion_lon": 0.0, "fusion_lat": 0.0, "type": "electric_scooter", "name": "ac04d7b4cf0be0874ed623a3db189388", "is_disabled": 0, "rental_uris": {"ios": "https://dc.lft.to/lastmile_qr_scan", "android": "https://dc.lft.to/lastmile_qr_scan"}, "is_reserved": 0}, {"lon": -76.99925483333334, "bike_id": "4da998154dd93a4786818242ab87e6eb", "lat": 38.90920116666667, "fusion_lon": 0.0, "fusion_lat": 0.0, "type": "electric_scooter", "name": "4da998154dd93a4786818242ab87e6eb", "is_disabled": 0, "rental_uris": {"ios": "https://dc.lft.to/lastmile_qr_scan", "android": "https://dc.lft.to/lastmile_qr_scan"}, "is_reserved": 0}, {"lon": -77.02981766666667, "bike_id": "726f6f8c12b899f9bc9320939d428f1b", "lat": 38.924502333333336, "fusion_lon": 0.0, "fusion_lat": 0.0, "type": "electric_scooter", "name": "726f6f8c12b899f9bc9320939d428f1b", "is_disabled": 0, "rental_uris": {"ios": "https://dc.lft.to/lastmile_qr_scan", "android": "https://dc.lft.to/lastmile_qr_scan"}, "is_reserved": 0}, {"lon": -76.93744666666667, "bike_id": "c5eb54b8cd965a91e10ca326716b9dab", "lat": 38.890186666666665, "fusion_lon": 0.0, "fusion_lat": 0.0, "type": "electric_scooter", "name": "c5eb54b8cd965a91e10ca326716b9dab", "is_disabled": 0, "rental_uris": {"ios": "https://dc.lft.to/lastmile_qr_scan", "android": "https://dc.lft.to/lastmile_qr_scan"}, "is_reserved": 0}, {"lon": -77.03453483333334, "bike_id": "794f0a8dc4a3af7301688c8d710864c5", "lat": 38.908113666666665, "fusion_lon": 0.0, "fusion_lat": 0.0, "type": "electric_scooter", "name": "794f0a8dc4a3af7301688c8d710864c5", "is_disabled": 0, "rental_uris": {"ios": "https://dc.lft.to/lastmile_qr_scan", "android": "https://dc.lft.to/lastmile_qr_scan"}, "is_reserved": 0}, {"lon": -77.0385105, "bike_id": "26a265a0ea1a0d3e6136bc639f72f9f2", "lat": 38.91551066666667, "fusion_lon": 0.0, "fusion_lat": 0.0, "type": "electric_scooter", "name": "26a265a0ea1a0d3e6136bc639f72f9f2", "is_disabled": 0, "rental_uris": {"ios": "https://dc.lft.to/lastmile_qr_scan", "android": "https://dc.lft.to/lastmile_qr_scan"}, "is_reserved": 0}, {"lon": -76.99267316666666, "bike_id": "7338519b9b9146003ac197f06c6e262e", "lat": 38.897665333333336, "fusion_lon": 0.0, "fusion_lat": 0.0, "type": "electric_scooter", "name": "7338519b9b9146003ac197f06c6e262e", "is_disabled": 0, "rental_uris": {"ios": "https://dc.lft.to/lastmile_qr_scan", "android": "https://dc.lft.to/lastmile_qr_scan"}, "is_reserved": 0}, {"lon": -77.03473983333333, "bike_id": "b902ebc0545ed91299a4bae5d8ab04e6", "lat": 38.91711683333333, "fusion_lon": 0.0, "fusion_lat": 0.0, "type": "electric_scooter", "name": "b902ebc0545ed91299a4bae5d8ab04e6", "is_disabled": 0, "rental_uris": {"ios": "https://dc.lft.to/lastmile_qr_scan", "android": "https://dc.lft.to/lastmile_qr_scan"}, "is_reserved": 0}, {"lon": -77.044993, "bike_id": "02e69eabf057f4a12c9d3818c07340fb", "lat": 38.90370866666667, "fusion_lon": 0.0, "fusion_lat": 0.0, "type": "electric_scooter", "name": "02e69eabf057f4a12c9d3818c07340fb", "is_disabled": 0, "rental_uris": {"ios": "https://dc.lft.to/lastmile_qr_scan", "android": "https://dc.lft.to/lastmile_qr_scan"}, "is_reserved": 0}, {"lon": -77.0343985, "bike_id": "0505dd2cfeed498a773f8872c1342aad", "lat": 38.90864216666667, "fusion_lon": 0.0, "fusion_lat": 0.0, "type": "electric_scooter", "name": "0505dd2cfeed498a773f8872c1342aad", "is_disabled": 0, "rental_uris": {"ios": "https://dc.lft.to/lastmile_qr_scan", "android": "https://dc.lft.to/lastmile_qr_scan"}, "is_reserved": 0}, {"lon": -77.04487816666666, "bike_id": "b035fe86ba440e0c752ef1f04841fe87", "lat": 38.91355133333333, "fusion_lon": 0.0, "fusion_lat": 0.0, "type": "electric_scooter", "name": "b035fe86ba440e0c752ef1f04841fe87", "is_disabled": 0, "rental_uris": {"ios": "https://dc.lft.to/lastmile_qr_scan", "android": "https://dc.lft.to/lastmile_qr_scan"}, "is_reserved": 0}, {"lon": -77.01897966666667, "bike_id": "668da88fb432eb99ce52a905788e773a", "lat": 38.908938, "fusion_lon": 0.0, "fusion_lat": 0.0, "type": "electric_scooter", "name": "668da88fb432eb99ce52a905788e773a", "is_disabled": 0, "rental_uris": {"ios": "https://dc.lft.to/lastmile_qr_scan", "android": "https://dc.lft.to/lastmile_qr_scan"}, "is_reserved": 0}, {"lon": -77.02515083333333, "bike_id": "50d978c21fa9345b238f34b289c49a23", "lat": 38.91267716666667, "fusion_lon": 0.0, "fusion_lat": 0.0, "type": "electric_scooter", "name": "50d978c21fa9345b238f34b289c49a23", "is_disabled": 0, "rental_uris": {"ios": "https://dc.lft.to/lastmile_qr_scan", "android": "https://dc.lft.to/lastmile_qr_scan"}, "is_reserved": 0}, {"lon": -77.04176983333333, "bike_id": "97e2042c90b36759becaf18c3950d076", "lat": 38.9197975, "fusion_lon": 0.0, "fusion_lat": 0.0, "type": "electric_scooter", "name": "97e2042c90b36759becaf18c3950d076", "is_disabled": 0, "rental_uris": {"ios": "https://dc.lft.to/lastmile_qr_scan", "android": "https://dc.lft.to/lastmile_qr_scan"}, "is_reserved": 0}, {"lon": -76.96527066666667, "bike_id": "791c3cfaf317ba0ed291a498fb563c05", "lat": 38.87627233333333, "fusion_lon": 0.0, "fusion_lat": 0.0, "type": "electric_scooter", "name": "791c3cfaf317ba0ed291a498fb563c05", "is_disabled": 0, "rental_uris": {"ios": "https://dc.lft.to/lastmile_qr_scan", "android": "https://dc.lft.to/lastmile_qr_scan"}, "is_reserved": 0}, {"lon": -77.00599966666667, "bike_id": "c10093e80a1e1ae4bafabcdc731c7d59", "lat": 38.8718525, "fusion_lon": 0.0, "fusion_lat": 0.0, "type": "electric_scooter", "name": "c10093e80a1e1ae4bafabcdc731c7d59", "is_disabled": 0, "rental_uris": {"ios": "https://dc.lft.to/lastmile_qr_scan", "android": "https://dc.lft.to/lastmile_qr_scan"}, "is_reserved": 0}, {"lon": -77.05025683333334, "bike_id": "19873135b85ee37536f689095f03344b", "lat": 38.91573016666667, "fusion_lon": 0.0, "fusion_lat": 0.0, "type": "electric_scooter", "name": "19873135b85ee37536f689095f03344b", "is_disabled": 0, "rental_uris": {"ios": "https://dc.lft.to/lastmile_qr_scan", "android": "https://dc.lft.to/lastmile_qr_scan"}, "is_reserved": 0}, {"lon": -77.02176766666666, "bike_id": "27dd5f3541996c7a3bbf52bf0197c7bf", "lat": 38.887227333333335, "fusion_lon": 0.0, "fusion_lat": 0.0, "type": "electric_scooter", "name": "27dd5f3541996c7a3bbf52bf0197c7bf", "is_disabled": 0, "rental_uris": {"ios": "https://dc.lft.to/lastmile_qr_scan", "android": "https://dc.lft.to/lastmile_qr_scan"}, "is_reserved": 0}, {"lon": -76.98497383333333, "bike_id": "a1d28671ea954373c083c08601431005", "lat": 38.87837916666667, "fusion_lon": 0.0, "fusion_lat": 0.0, "type": "electric_scooter", "name": "a1d28671ea954373c083c08601431005", "is_disabled": 0, "rental_uris": {"ios": "https://dc.lft.to/lastmile_qr_scan", "android": "https://dc.lft.to/lastmile_qr_scan"}, "is_reserved": 0}, {"lon": -77.03321566666666, "bike_id": "9c80444856e7c73e7b09bee643e36c37", "lat": 38.92885666666667, "fusion_lon": 0.0, "fusion_lat": 0.0, "type": "electric_scooter", "name": "9c80444856e7c73e7b09bee643e36c37", "is_disabled": 0, "rental_uris": {"ios": "https://dc.lft.to/lastmile_qr_scan", "android": "https://dc.lft.to/lastmile_qr_scan"}, "is_reserved": 0}, {"lon": -77.02361683333334, "bike_id": "9161ed17084495383c47bf552974869c", "lat": 38.89221166666667, "fusion_lon": 0.0, "fusion_lat": 0.0, "type": "electric_scooter", "name": "9161ed17084495383c47bf552974869c", "is_disabled": 0, "rental_uris": {"ios": "https://dc.lft.to/lastmile_qr_scan", "android": "https://dc.lft.to/lastmile_qr_scan"}, "is_reserved": 0}, {"lon": -77.06009283333333, "bike_id": "83befdfd4ee3c85df3efb913d68ecfe0", "lat": 38.901161333333334, "fusion_lon": 0.0, "fusion_lat": 0.0, "type": "electric_scooter", "name": "83befdfd4ee3c85df3efb913d68ecfe0", "is_disabled": 0, "rental_uris": {"ios": "https://dc.lft.to/lastmile_qr_scan", "android": "https://dc.lft.to/lastmile_qr_scan"}, "is_reserved": 0}, {"lon": -77.00803766666667, "bike_id": "d479540bec95a58589463f4f534539b8", "lat": 38.905917333333335, "fusion_lon": 0.0, "fusion_lat": 0.0, "type": "electric_scooter", "name": "d479540bec95a58589463f4f534539b8", "is_disabled": 0, "rental_uris": {"ios": "https://dc.lft.to/lastmile_qr_scan", "android": "https://dc.lft.to/lastmile_qr_scan"}, "is_reserved": 0}, {"lon": -76.989055, "bike_id": "5c2d58d15496931668b6fb07eab70984", "lat": 38.8667215, "fusion_lon": 0.0, "fusion_lat": 0.0, "type": "electric_scooter", "name": "5c2d58d15496931668b6fb07eab70984", "is_disabled": 0, "rental_uris": {"ios": "https://dc.lft.to/lastmile_qr_scan", "android": "https://dc.lft.to/lastmile_qr_scan"}, "is_reserved": 0}, {"lon": -77.05912866666667, "bike_id": "0c903031c3af2e7b452316890077fb09", "lat": 38.90383166666667, "fusion_lon": 0.0, "fusion_lat": 0.0, "type": "electric_bike", "name": "0c903031c3af2e7b452316890077fb09", "is_disabled": 0, "rental_uris": {"ios": "https://dc.lft.to/lastmile_qr_scan", "android": "https://dc.lft.to/lastmile_qr_scan"}, "is_reserved": 0}, {"lon": -77.0319095, "bike_id": "cea54790c169d4ef3dbc2e0523ce173f", "lat": 38.916265, "fusion_lon": 0.0, "fusion_lat": 0.0, "type": "electric_scooter", "name": "cea54790c169d4ef3dbc2e0523ce173f", "is_disabled": 0, "rental_uris": {"ios": "https://dc.lft.to/lastmile_qr_scan", "android": "https://dc.lft.to/lastmile_qr_scan"}, "is_reserved": 0}, {"lon": -77.03266116666667, "bike_id": "b9f12c2d7fa5ea9a74975c7e2c313b2c", "lat": 38.937728666666665, "fusion_lon": 0.0, "fusion_lat": 0.0, "type": "electric_scooter", "name": "b9f12c2d7fa5ea9a74975c7e2c313b2c", "is_disabled": 0, "rental_uris": {"ios": "https://dc.lft.to/lastmile_qr_scan", "android": "https://dc.lft.to/lastmile_qr_scan"}, "is_reserved": 0}, {"lon": -77.0319545, "bike_id": "4f46dd44bf07bcebcf2f632bdc283b9e", "lat": 38.92868883333333, "fusion_lon": 0.0, "fusion_lat": 0.0, "type": "electric_scooter", "name": "4f46dd44bf07bcebcf2f632bdc283b9e", "is_disabled": 0, "rental_uris": {"ios": "https://dc.lft.to/lastmile_qr_scan", "android": "https://dc.lft.to/lastmile_qr_scan"}, "is_reserved": 0}, {"lon": -77.07081216666667, "bike_id": "886a7419816c1d076039278001f3a79a", "lat": 38.932656, "fusion_lon": 0.0, "fusion_lat": 0.0, "type": "electric_scooter", "name": "886a7419816c1d076039278001f3a79a", "is_disabled": 0, "rental_uris": {"ios": "https://dc.lft.to/lastmile_qr_scan", "android": "https://dc.lft.to/lastmile_qr_scan"}, "is_reserved": 0}, {"lon": -77.01701566666667, "bike_id": "79e06703aa300b07aa8e6b8f52847e09", "lat": 38.87921766666667, "fusion_lon": 0.0, "fusion_lat": 0.0, "type": "electric_scooter", "name": "79e06703aa300b07aa8e6b8f52847e09", "is_disabled": 0, "rental_uris": {"ios": "https://dc.lft.to/lastmile_qr_scan", "android": "https://dc.lft.to/lastmile_qr_scan"}, "is_reserved": 0}, {"lon": -77.038366, "bike_id": "8971ec8cf907d853d7dc98ec4da22257", "lat": 38.91719233333333, "fusion_lon": 0.0, "fusion_lat": 0.0, "type": "electric_scooter", "name": "8971ec8cf907d853d7dc98ec4da22257", "is_disabled": 0, "rental_uris": {"ios": "https://dc.lft.to/lastmile_qr_scan", "android": "https://dc.lft.to/lastmile_qr_scan"}, "is_reserved": 0}, {"lon": -76.97333316666666, "bike_id": "88118472d39dbb8283dc69099843a701", "lat": 38.86517516666667, "fusion_lon": 0.0, "fusion_lat": 0.0, "type": "electric_bike", "name": "88118472d39dbb8283dc69099843a701", "is_disabled": 0, "rental_uris": {"ios": "https://dc.lft.to/lastmile_qr_scan", "android": "https://dc.lft.to/lastmile_qr_scan"}, "is_reserved": 0}, {"lon": -77.0289555, "bike_id": "4296c81757d29242b56117ac581880f1", "lat": 38.91727233333334, "fusion_lon": 0.0, "fusion_lat": 0.0, "type": "electric_scooter", "name": "4296c81757d29242b56117ac581880f1", "is_disabled": 0, "rental_uris": {"ios": "https://dc.lft.to/lastmile_qr_scan", "android": "https://dc.lft.to/lastmile_qr_scan"}, "is_reserved": 0}, {"lon": -77.03071866666667, "bike_id": "56bcb7ecc712d8099610a329b2e7e2c0", "lat": 38.917075, "fusion_lon": 0.0, "fusion_lat": 0.0, "type": "electric_scooter", "name": "56bcb7ecc712d8099610a329b2e7e2c0", "is_disabled": 0, "rental_uris": {"ios": "https://dc.lft.to/lastmile_qr_scan", "android": "https://dc.lft.to/lastmile_qr_scan"}, "is_reserved": 0}, {"lon": -77.03349233333333, "bike_id": "40b7591a818a929b34f22855f7079cf6", "lat": 38.8989835, "fusion_lon": 0.0, "fusion_lat": 0.0, "type": "electric_scooter", "name": "40b7591a818a929b34f22855f7079cf6", "is_disabled": 0, "rental_uris": {"ios": "https://dc.lft.to/lastmile_qr_scan", "android": "https://dc.lft.to/lastmile_qr_scan"}, "is_reserved": 0}, {"lon": -77.035195, "bike_id": "d486560f91517abc3080bf47509d684c", "lat": 38.921369166666665, "fusion_lon": 0.0, "fusion_lat": 0.0, "type": "electric_scooter", "name": "d486560f91517abc3080bf47509d684c", "is_disabled": 0, "rental_uris": {"ios": "https://dc.lft.to/lastmile_qr_scan", "android": "https://dc.lft.to/lastmile_qr_scan"}, "is_reserved": 0}, {"lon": -76.98085066666667, "bike_id": "71339d7d6dac1e967dbb00c6be7b0a01", "lat": 38.884243833333336, "fusion_lon": 0.0, "fusion_lat": 0.0, "type": "electric_scooter", "name": "71339d7d6dac1e967dbb00c6be7b0a01", "is_disabled": 0, "rental_uris": {"ios": "https://dc.lft.to/lastmile_qr_scan", "android": "https://dc.lft.to/lastmile_qr_scan"}, "is_reserved": 0}, {"lon": -77.034987, "bike_id": "d09a10d29f13c4e1722212a8c28d05e5", "lat": 38.921434166666664, "fusion_lon": 0.0, "fusion_lat": 0.0, "type": "electric_scooter", "name": "d09a10d29f13c4e1722212a8c28d05e5", "is_disabled": 0, "rental_uris": {"ios": "https://dc.lft.to/lastmile_qr_scan", "android": "https://dc.lft.to/lastmile_qr_scan"}, "is_reserved": 0}, {"lon": -76.98557616666666, "bike_id": "bcf71e2cadc941c63fb02644eaf291d3", "lat": 38.9091685, "fusion_lon": 0.0, "fusion_lat": 0.0, "type": "electric_scooter", "name": "bcf71e2cadc941c63fb02644eaf291d3", "is_disabled": 0, "rental_uris": {"ios": "https://dc.lft.to/lastmile_qr_scan", "android": "https://dc.lft.to/lastmile_qr_scan"}, "is_reserved": 0}, {"lon": -77.03840333333333, "bike_id": "53ebfb18a139a284edc0c4e46cc5bc21", "lat": 38.910415666666665, "fusion_lon": 0.0, "fusion_lat": 0.0, "type": "electric_scooter", "name": "53ebfb18a139a284edc0c4e46cc5bc21", "is_disabled": 0, "rental_uris": {"ios": "https://dc.lft.to/lastmile_qr_scan", "android": "https://dc.lft.to/lastmile_qr_scan"}, "is_reserved": 0}, {"lon": -77.04853183333333, "bike_id": "01cc4d7726016435a6ced1be50c96df4", "lat": 38.91518716666667, "fusion_lon": 0.0, "fusion_lat": 0.0, "type": "electric_scooter", "name": "01cc4d7726016435a6ced1be50c96df4", "is_disabled": 0, "rental_uris": {"ios": "https://dc.lft.to/lastmile_qr_scan", "android": "https://dc.lft.to/lastmile_qr_scan"}, "is_reserved": 0}, {"lon": -77.0257115, "bike_id": "ef260f30d405429697fe67a33179d632", "lat": 38.882957166666664, "fusion_lon": 0.0, "fusion_lat": 0.0, "type": "electric_scooter", "name": "ef260f30d405429697fe67a33179d632", "is_disabled": 0, "rental_uris": {"ios": "https://dc.lft.to/lastmile_qr_scan", "android": "https://dc.lft.to/lastmile_qr_scan"}, "is_reserved": 0}, {"lon": -77.0239515, "bike_id": "7561af8e2b761603ddb51bf51edf3a34", "lat": 38.8813445, "fusion_lon": 0.0, "fusion_lat": 0.0, "type": "electric_scooter", "name": "7561af8e2b761603ddb51bf51edf3a34", "is_disabled": 0, "rental_uris": {"ios": "https://dc.lft.to/lastmile_qr_scan", "android": "https://dc.lft.to/lastmile_qr_scan"}, "is_reserved": 0}, {"lon": -77.03995283333333, "bike_id": "3a82d601d73634be6002959f8f69ef06", "lat": 38.933398833333335, "fusion_lon": 0.0, "fusion_lat": 0.0, "type": "electric_scooter", "name": "3a82d601d73634be6002959f8f69ef06", "is_disabled": 0, "rental_uris": {"ios": "https://dc.lft.to/lastmile_qr_scan", "android": "https://dc.lft.to/lastmile_qr_scan"}, "is_reserved": 0}, {"lon": -77.03292083333334, "bike_id": "f01a166cfb39f0dbd925f39df1ede0e8", "lat": 38.956514166666665, "fusion_lon": 0.0, "fusion_lat": 0.0, "type": "electric_scooter", "name": "f01a166cfb39f0dbd925f39df1ede0e8", "is_disabled": 0, "rental_uris": {"ios": "https://dc.lft.to/lastmile_qr_scan", "android": "https://dc.lft.to/lastmile_qr_scan"}, "is_reserved": 0}, {"lon": -76.9979255, "bike_id": "5321b23527d5e065b327060c739e08b9", "lat": 38.95643233333333, "fusion_lon": 0.0, "fusion_lat": 0.0, "type": "electric_bike", "name": "5321b23527d5e065b327060c739e08b9", "is_disabled": 0, "rental_uris": {"ios": "https://dc.lft.to/lastmile_qr_scan", "android": "https://dc.lft.to/lastmile_qr_scan"}, "is_reserved": 0}, {"lon": -77.0161235, "bike_id": "f3dffdacd31cf8032147dbd0ccbea2c7", "lat": 38.89963216666666, "fusion_lon": 0.0, "fusion_lat": 0.0, "type": "electric_scooter", "name": "f3dffdacd31cf8032147dbd0ccbea2c7", "is_disabled": 0, "rental_uris": {"ios": "https://dc.lft.to/lastmile_qr_scan", "android": "https://dc.lft.to/lastmile_qr_scan"}, "is_reserved": 0}, {"lon": -77.01999233333333, "bike_id": "7fb1ec88214dcb41a2237087a66ea3e4", "lat": 38.915393333333334, "fusion_lon": 0.0, "fusion_lat": 0.0, "type": "electric_scooter", "name": "7fb1ec88214dcb41a2237087a66ea3e4", "is_disabled": 0, "rental_uris": {"ios": "https://dc.lft.to/lastmile_qr_scan", "android": "https://dc.lft.to/lastmile_qr_scan"}, "is_reserved": 0}, {"lon": -77.058604, "bike_id": "7fb95adc8fc153f9a2aa88363541b660", "lat": 38.93546533333333, "fusion_lon": 0.0, "fusion_lat": 0.0, "type": "electric_scooter", "name": "7fb95adc8fc153f9a2aa88363541b660", "is_disabled": 0, "rental_uris": {"ios": "https://dc.lft.to/lastmile_qr_scan", "android": "https://dc.lft.to/lastmile_qr_scan"}, "is_reserved": 0}, {"lon": -77.04189783333334, "bike_id": "8c22842f6f4d81611358abc20d970da8", "lat": 38.8998105, "fusion_lon": 0.0, "fusion_lat": 0.0, "type": "electric_scooter", "name": "8c22842f6f4d81611358abc20d970da8", "is_disabled": 0, "rental_uris": {"ios": "https://dc.lft.to/lastmile_qr_scan", "android": "https://dc.lft.to/lastmile_qr_scan"}, "is_reserved": 0}, {"lon": -76.973306, "bike_id": "a6232259cc97789211dc9533786a0be6", "lat": 38.904829166666666, "fusion_lon": 0.0, "fusion_lat": 0.0, "type": "electric_bike", "name": "a6232259cc97789211dc9533786a0be6", "is_disabled": 0, "rental_uris": {"ios": "https://dc.lft.to/lastmile_qr_scan", "android": "https://dc.lft.to/lastmile_qr_scan"}, "is_reserved": 0}, {"lon": -77.02213866666666, "bike_id": "d0c826b74969f0934ee50323f625f9a3", "lat": 38.887284666666666, "fusion_lon": 0.0, "fusion_lat": 0.0, "type": "electric_scooter", "name": "d0c826b74969f0934ee50323f625f9a3", "is_disabled": 0, "rental_uris": {"ios": "https://dc.lft.to/lastmile_qr_scan", "android": "https://dc.lft.to/lastmile_qr_scan"}, "is_reserved": 0}, {"lon": -77.0418155, "bike_id": "4550e1dea6233aaf67770e095e65b69a", "lat": 38.91978816666666, "fusion_lon": 0.0, "fusion_lat": 0.0, "type": "electric_scooter", "name": "4550e1dea6233aaf67770e095e65b69a", "is_disabled": 0, "rental_uris": {"ios": "https://dc.lft.to/lastmile_qr_scan", "android": "https://dc.lft.to/lastmile_qr_scan"}, "is_reserved": 0}, {"lon": -77.03283633333334, "bike_id": "ec3bc6c3e85d1c9861b8b356703f8742", "lat": 38.93618633333333, "fusion_lon": 0.0, "fusion_lat": 0.0, "type": "electric_scooter", "name": "ec3bc6c3e85d1c9861b8b356703f8742", "is_disabled": 0, "rental_uris": {"ios": "https://dc.lft.to/lastmile_qr_scan", "android": "https://dc.lft.to/lastmile_qr_scan"}, "is_reserved": 0}, {"lon": -77.00202716666666, "bike_id": "3e6c6c4b7a92d4b817f5f43bf511dc82", "lat": 38.90238866666667, "fusion_lon": 0.0, "fusion_lat": 0.0, "type": "electric_scooter", "name": "3e6c6c4b7a92d4b817f5f43bf511dc82", "is_disabled": 0, "rental_uris": {"ios": "https://dc.lft.to/lastmile_qr_scan", "android": "https://dc.lft.to/lastmile_qr_scan"}, "is_reserved": 0}, {"lon": -77.0134265, "bike_id": "912ecf4cd6605c48f8364a3557010de6", "lat": 38.87815533333333, "fusion_lon": 0.0, "fusion_lat": 0.0, "type": "electric_scooter", "name": "912ecf4cd6605c48f8364a3557010de6", "is_disabled": 0, "rental_uris": {"ios": "https://dc.lft.to/lastmile_qr_scan", "android": "https://dc.lft.to/lastmile_qr_scan"}, "is_reserved": 0}, {"lon": -77.049304, "bike_id": "83eca707a47c90964e082e14151ff56d", "lat": 38.90211033333333, "fusion_lon": 0.0, "fusion_lat": 0.0, "type": "electric_scooter", "name": "83eca707a47c90964e082e14151ff56d", "is_disabled": 0, "rental_uris": {"ios": "https://dc.lft.to/lastmile_qr_scan", "android": "https://dc.lft.to/lastmile_qr_scan"}, "is_reserved": 0}, {"lon": -77.02095633333333, "bike_id": "f2dbbb2a0b8c00a6e44b15a384d9617f", "lat": 38.881899, "fusion_lon": 0.0, "fusion_lat": 0.0, "type": "electric_scooter", "name": "f2dbbb2a0b8c00a6e44b15a384d9617f", "is_disabled": 0, "rental_uris": {"ios": "https://dc.lft.to/lastmile_qr_scan", "android": "https://dc.lft.to/lastmile_qr_scan"}, "is_reserved": 0}, {"lon": -76.98194166666667, "bike_id": "c13e5562ec832cc05b55d1e10f2038fb", "lat": 38.967441, "fusion_lon": 0.0, "fusion_lat": 0.0, "type": "electric_bike", "name": "c13e5562ec832cc05b55d1e10f2038fb", "is_disabled": 0, "rental_uris": {"ios": "https://dc.lft.to/lastmile_qr_scan", "android": "https://dc.lft.to/lastmile_qr_scan"}, "is_reserved": 0}, {"lon": -77.02282366666667, "bike_id": "cced0efda19a9a418da539b64a7ccbc6", "lat": 38.9078265, "fusion_lon": 0.0, "fusion_lat": 0.0, "type": "electric_scooter", "name": "cced0efda19a9a418da539b64a7ccbc6", "is_disabled": 0, "rental_uris": {"ios": "https://dc.lft.to/lastmile_qr_scan", "android": "https://dc.lft.to/lastmile_qr_scan"}, "is_reserved": 0}, {"lon": -77.02526716666667, "bike_id": "0058a83599aa5ae3b8eb5242722bbb3a", "lat": 38.92901166666667, "fusion_lon": 0.0, "fusion_lat": 0.0, "type": "electric_scooter", "name": "0058a83599aa5ae3b8eb5242722bbb3a", "is_disabled": 0, "rental_uris": {"ios": "https://dc.lft.to/lastmile_qr_scan", "android": "https://dc.lft.to/lastmile_qr_scan"}, "is_reserved": 0}, {"lon": -77.02974116666667, "bike_id": "087ff13a034cb37227a9b90abb60ee82", "lat": 38.914565333333336, "fusion_lon": 0.0, "fusion_lat": 0.0, "type": "electric_scooter", "name": "087ff13a034cb37227a9b90abb60ee82", "is_disabled": 0, "rental_uris": {"ios": "https://dc.lft.to/lastmile_qr_scan", "android": "https://dc.lft.to/lastmile_qr_scan"}, "is_reserved": 0}, {"lon": -77.02872933333333, "bike_id": "a7e959ece3694670225b96543dfb72b2", "lat": 38.9169045, "fusion_lon": 0.0, "fusion_lat": 0.0, "type": "electric_scooter", "name": "a7e959ece3694670225b96543dfb72b2", "is_disabled": 0, "rental_uris": {"ios": "https://dc.lft.to/lastmile_qr_scan", "android": "https://dc.lft.to/lastmile_qr_scan"}, "is_reserved": 0}, {"lon": -77.02481216666666, "bike_id": "50cc17473b1d434cabba3875c605d862", "lat": 38.918729666666664, "fusion_lon": 0.0, "fusion_lat": 0.0, "type": "electric_scooter", "name": "50cc17473b1d434cabba3875c605d862", "is_disabled": 0, "rental_uris": {"ios": "https://dc.lft.to/lastmile_qr_scan", "android": "https://dc.lft.to/lastmile_qr_scan"}, "is_reserved": 0}, {"lon": -76.9851195, "bike_id": "f11635ea8501a370c5339d095fa5169c", "lat": 38.88084533333333, "fusion_lon": 0.0, "fusion_lat": 0.0, "type": "electric_scooter", "name": "f11635ea8501a370c5339d095fa5169c", "is_disabled": 0, "rental_uris": {"ios": "https://dc.lft.to/lastmile_qr_scan", "android": "https://dc.lft.to/lastmile_qr_scan"}, "is_reserved": 0}, {"lon": -77.0376135, "bike_id": "2d02d3b518cf43cce51593d28f168687", "lat": 38.9077515, "fusion_lon": 0.0, "fusion_lat": 0.0, "type": "electric_scooter", "name": "2d02d3b518cf43cce51593d28f168687", "is_disabled": 0, "rental_uris": {"ios": "https://dc.lft.to/lastmile_qr_scan", "android": "https://dc.lft.to/lastmile_qr_scan"}, "is_reserved": 0}, {"lon": -77.06643283333334, "bike_id": "4972e840e2fe1059886a8ecca7e79b9d", "lat": 38.9059535, "fusion_lon": 0.0, "fusion_lat": 0.0, "type": "electric_scooter", "name": "4972e840e2fe1059886a8ecca7e79b9d", "is_disabled": 0, "rental_uris": {"ios": "https://dc.lft.to/lastmile_qr_scan", "android": "https://dc.lft.to/lastmile_qr_scan"}, "is_reserved": 0}, {"lon": -77.02849766666667, "bike_id": "650e5aa1de2533b1599462d72cd8d743", "lat": 38.93417816666667, "fusion_lon": 0.0, "fusion_lat": 0.0, "type": "electric_scooter", "name": "650e5aa1de2533b1599462d72cd8d743", "is_disabled": 0, "rental_uris": {"ios": "https://dc.lft.to/lastmile_qr_scan", "android": "https://dc.lft.to/lastmile_qr_scan"}, "is_reserved": 0}, {"lon": -77.03082966666666, "bike_id": "575cb7a9c2aa5ca9e773310b225ac4f8", "lat": 38.920277666666664, "fusion_lon": 0.0, "fusion_lat": 0.0, "type": "electric_scooter", "name": "575cb7a9c2aa5ca9e773310b225ac4f8", "is_disabled": 0, "rental_uris": {"ios": "https://dc.lft.to/lastmile_qr_scan", "android": "https://dc.lft.to/lastmile_qr_scan"}, "is_reserved": 0}, {"lon": -77.02294933333333, "bike_id": "67129bebdf48ef491d2b6f36adefc915", "lat": 38.917845666666665, "fusion_lon": 0.0, "fusion_lat": 0.0, "type": "electric_scooter", "name": "67129bebdf48ef491d2b6f36adefc915", "is_disabled": 0, "rental_uris": {"ios": "https://dc.lft.to/lastmile_qr_scan", "android": "https://dc.lft.to/lastmile_qr_scan"}, "is_reserved": 0}, {"lon": -77.0762365, "bike_id": "540057bb3da17a4a5d179510c5ec0a1a", "lat": 38.96576566666667, "fusion_lon": 0.0, "fusion_lat": 0.0, "type": "electric_bike", "name": "540057bb3da17a4a5d179510c5ec0a1a", "is_disabled": 0, "rental_uris": {"ios": "https://dc.lft.to/lastmile_qr_scan", "android": "https://dc.lft.to/lastmile_qr_scan"}, "is_reserved": 0}, {"lon": -77.02244433333334, "bike_id": "62229afe535038333858df57e4597f14", "lat": 38.927343666666665, "fusion_lon": 0.0, "fusion_lat": 0.0, "type": "electric_scooter", "name": "62229afe535038333858df57e4597f14", "is_disabled": 0, "rental_uris": {"ios": "https://dc.lft.to/lastmile_qr_scan", "android": "https://dc.lft.to/lastmile_qr_scan"}, "is_reserved": 0}, {"lon": -77.0302465, "bike_id": "826762d52b43568c356b695c292ed58c", "lat": 38.88446833333333, "fusion_lon": 0.0, "fusion_lat": 0.0, "type": "electric_scooter", "name": "826762d52b43568c356b695c292ed58c", "is_disabled": 0, "rental_uris": {"ios": "https://dc.lft.to/lastmile_qr_scan", "android": "https://dc.lft.to/lastmile_qr_scan"}, "is_reserved": 0}, {"lon": -77.0319695, "bike_id": "6a0ec15bcc14f3ac54022ce321646253", "lat": 38.90699166666667, "fusion_lon": 0.0, "fusion_lat": 0.0, "type": "electric_scooter", "name": "6a0ec15bcc14f3ac54022ce321646253", "is_disabled": 0, "rental_uris": {"ios": "https://dc.lft.to/lastmile_qr_scan", "android": "https://dc.lft.to/lastmile_qr_scan"}, "is_reserved": 0}, {"lon": -77.02330166666667, "bike_id": "85048b3988cad943fec17b2e8447d07e", "lat": 38.8950685, "fusion_lon": 0.0, "fusion_lat": 0.0, "type": "electric_scooter", "name": "85048b3988cad943fec17b2e8447d07e", "is_disabled": 0, "rental_uris": {"ios": "https://dc.lft.to/lastmile_qr_scan", "android": "https://dc.lft.to/lastmile_qr_scan"}, "is_reserved": 0}, {"lon": -77.11708116666667, "bike_id": "6052cf24ac31bffc77b4ab55dd5a1c15", "lat": 38.867467, "fusion_lon": 0.0, "fusion_lat": 0.0, "type": "electric_bike", "name": "6052cf24ac31bffc77b4ab55dd5a1c15", "is_disabled": 0, "rental_uris": {"ios": "https://dc.lft.to/lastmile_qr_scan", "android": "https://dc.lft.to/lastmile_qr_scan"}, "is_reserved": 0}, {"lon": -77.017563, "bike_id": "a94f4c53d79b7326978fabb5bf0b27a0", "lat": 38.903913333333335, "fusion_lon": 0.0, "fusion_lat": 0.0, "type": "electric_scooter", "name": "a94f4c53d79b7326978fabb5bf0b27a0", "is_disabled": 0, "rental_uris": {"ios": "https://dc.lft.to/lastmile_qr_scan", "android": "https://dc.lft.to/lastmile_qr_scan"}, "is_reserved": 0}, {"lon": -76.957501, "bike_id": "807a0ee66c1b90e37c176d9e799977c2", "lat": 38.884297833333335, "fusion_lon": 0.0, "fusion_lat": 0.0, "type": "electric_scooter", "name": "807a0ee66c1b90e37c176d9e799977c2", "is_disabled": 0, "rental_uris": {"ios": "https://dc.lft.to/lastmile_qr_scan", "android": "https://dc.lft.to/lastmile_qr_scan"}, "is_reserved": 0}, {"lon": -77.034278, "bike_id": "11aa333041c7406541dec08b5e6f907b", "lat": 38.96535816666667, "fusion_lon": 0.0, "fusion_lat": 0.0, "type": "electric_bike", "name": "11aa333041c7406541dec08b5e6f907b", "is_disabled": 0, "rental_uris": {"ios": "https://dc.lft.to/lastmile_qr_scan", "android": "https://dc.lft.to/lastmile_qr_scan"}, "is_reserved": 0}, {"lon": -76.99807816666667, "bike_id": "a51fad01c753f55149cb3b14f19d659f", "lat": 38.8291625, "fusion_lon": 0.0, "fusion_lat": 0.0, "type": "electric_bike", "name": "a51fad01c753f55149cb3b14f19d659f", "is_disabled": 0, "rental_uris": {"ios": "https://dc.lft.to/lastmile_qr_scan", "android": "https://dc.lft.to/lastmile_qr_scan"}, "is_reserved": 0}, {"lon": -77.04194033333333, "bike_id": "a1b2e108fab3d9081d23cc2587a23b0f", "lat": 38.89977533333333, "fusion_lon": 0.0, "fusion_lat": 0.0, "type": "electric_scooter", "name": "a1b2e108fab3d9081d23cc2587a23b0f", "is_disabled": 0, "rental_uris": {"ios": "https://dc.lft.to/lastmile_qr_scan", "android": "https://dc.lft.to/lastmile_qr_scan"}, "is_reserved": 0}, {"lon": -76.94068033333333, "bike_id": "cd15df4cb1d6b6cd24926e0e30991553", "lat": 38.89322583333333, "fusion_lon": 0.0, "fusion_lat": 0.0, "type": "electric_scooter", "name": "cd15df4cb1d6b6cd24926e0e30991553", "is_disabled": 0, "rental_uris": {"ios": "https://dc.lft.to/lastmile_qr_scan", "android": "https://dc.lft.to/lastmile_qr_scan"}, "is_reserved": 0}, {"lon": -77.03608833333334, "bike_id": "45f661d3948729f64eb5d46a0ee96f4a", "lat": 38.93680366666667, "fusion_lon": 0.0, "fusion_lat": 0.0, "type": "electric_scooter", "name": "45f661d3948729f64eb5d46a0ee96f4a", "is_disabled": 0, "rental_uris": {"ios": "https://dc.lft.to/lastmile_qr_scan", "android": "https://dc.lft.to/lastmile_qr_scan"}, "is_reserved": 0}, {"lon": -77.02839266666666, "bike_id": "9e900540540a455207006cd172b1e827", "lat": 38.932789666666665, "fusion_lon": 0.0, "fusion_lat": 0.0, "type": "electric_scooter", "name": "9e900540540a455207006cd172b1e827", "is_disabled": 0, "rental_uris": {"ios": "https://dc.lft.to/lastmile_qr_scan", "android": "https://dc.lft.to/lastmile_qr_scan"}, "is_reserved": 0}, {"lon": -77.071241, "bike_id": "642f14b3dcf4356bd912e90f104c5c54", "lat": 38.919702666666666, "fusion_lon": 0.0, "fusion_lat": 0.0, "type": "electric_scooter", "name": "642f14b3dcf4356bd912e90f104c5c54", "is_disabled": 0, "rental_uris": {"ios": "https://dc.lft.to/lastmile_qr_scan", "android": "https://dc.lft.to/lastmile_qr_scan"}, "is_reserved": 0}, {"lon": -77.0181045, "bike_id": "2322fac7de206c3ec33b6c933c723eff", "lat": 38.92126433333333, "fusion_lon": 0.0, "fusion_lat": 0.0, "type": "electric_scooter", "name": "2322fac7de206c3ec33b6c933c723eff", "is_disabled": 0, "rental_uris": {"ios": "https://dc.lft.to/lastmile_qr_scan", "android": "https://dc.lft.to/lastmile_qr_scan"}, "is_reserved": 0}, {"lon": -77.02895566666666, "bike_id": "302573b44684d711e48a4c86afc7fba9", "lat": 38.91683616666667, "fusion_lon": 0.0, "fusion_lat": 0.0, "type": "electric_scooter", "name": "302573b44684d711e48a4c86afc7fba9", "is_disabled": 0, "rental_uris": {"ios": "https://dc.lft.to/lastmile_qr_scan", "android": "https://dc.lft.to/lastmile_qr_scan"}, "is_reserved": 0}, {"lon": -76.9950125, "bike_id": "feb9161959c2655af599403865dedf69", "lat": 38.932459333333334, "fusion_lon": 0.0, "fusion_lat": 0.0, "type": "electric_scooter", "name": "feb9161959c2655af599403865dedf69", "is_disabled": 0, "rental_uris": {"ios": "https://dc.lft.to/lastmile_qr_scan", "android": "https://dc.lft.to/lastmile_qr_scan"}, "is_reserved": 0}, {"lon": -77.079242, "bike_id": "c256c9048853806774826a04ba055d1a", "lat": 38.93087, "fusion_lon": 0.0, "fusion_lat": 0.0, "type": "electric_scooter", "name": "c256c9048853806774826a04ba055d1a", "is_disabled": 0, "rental_uris": {"ios": "https://dc.lft.to/lastmile_qr_scan", "android": "https://dc.lft.to/lastmile_qr_scan"}, "is_reserved": 0}, {"lon": -77.03113033333334, "bike_id": "ac31c1884739259ad5b2d4519539dc69", "lat": 38.915666333333334, "fusion_lon": 0.0, "fusion_lat": 0.0, "type": "electric_scooter", "name": "ac31c1884739259ad5b2d4519539dc69", "is_disabled": 0, "rental_uris": {"ios": "https://dc.lft.to/lastmile_qr_scan", "android": "https://dc.lft.to/lastmile_qr_scan"}, "is_reserved": 0}, {"lon": -76.98154133333334, "bike_id": "61a93bb0f05c7e2f037dcde6d917858c", "lat": 38.903238, "fusion_lon": 0.0, "fusion_lat": 0.0, "type": "electric_scooter", "name": "61a93bb0f05c7e2f037dcde6d917858c", "is_disabled": 0, "rental_uris": {"ios": "https://dc.lft.to/lastmile_qr_scan", "android": "https://dc.lft.to/lastmile_qr_scan"}, "is_reserved": 0}, {"lon": -77.03063983333334, "bike_id": "c71c7d833d816c3a7edc17a381fe256e", "lat": 38.9225655, "fusion_lon": 0.0, "fusion_lat": 0.0, "type": "electric_scooter", "name": "c71c7d833d816c3a7edc17a381fe256e", "is_disabled": 0, "rental_uris": {"ios": "https://dc.lft.to/lastmile_qr_scan", "android": "https://dc.lft.to/lastmile_qr_scan"}, "is_reserved": 0}, {"lon": -77.02926266666667, "bike_id": "d7ee072a0503e42c221111cdd190d9f4", "lat": 38.93456783333333, "fusion_lon": 0.0, "fusion_lat": 0.0, "type": "electric_scooter", "name": "d7ee072a0503e42c221111cdd190d9f4", "is_disabled": 0, "rental_uris": {"ios": "https://dc.lft.to/lastmile_qr_scan", "android": "https://dc.lft.to/lastmile_qr_scan"}, "is_reserved": 0}, {"lon": -77.02950466666667, "bike_id": "8a141fbfd858919d849ccbd63bbd578c", "lat": 38.91676, "fusion_lon": 0.0, "fusion_lat": 0.0, "type": "electric_scooter", "name": "8a141fbfd858919d849ccbd63bbd578c", "is_disabled": 0, "rental_uris": {"ios": "https://dc.lft.to/lastmile_qr_scan", "android": "https://dc.lft.to/lastmile_qr_scan"}, "is_reserved": 0}, {"lon": -77.04553616666666, "bike_id": "915c0ada08d561f19f60209cd6e2c681", "lat": 38.912836166666665, "fusion_lon": 0.0, "fusion_lat": 0.0, "type": "electric_scooter", "name": "915c0ada08d561f19f60209cd6e2c681", "is_disabled": 0, "rental_uris": {"ios": "https://dc.lft.to/lastmile_qr_scan", "android": "https://dc.lft.to/lastmile_qr_scan"}, "is_reserved": 0}, {"lon": -76.9886755, "bike_id": "9ca974c8f9bb5606c05f26ff43a8830b", "lat": 38.8917305, "fusion_lon": 0.0, "fusion_lat": 0.0, "type": "electric_scooter", "name": "9ca974c8f9bb5606c05f26ff43a8830b", "is_disabled": 0, "rental_uris": {"ios": "https://dc.lft.to/lastmile_qr_scan", "android": "https://dc.lft.to/lastmile_qr_scan"}, "is_reserved": 0}, {"lon": -77.038271, "bike_id": "7a13193cc29b122d8ba1718c675dbd0b", "lat": 38.906712166666665, "fusion_lon": 0.0, "fusion_lat": 0.0, "type": "electric_scooter", "name": "7a13193cc29b122d8ba1718c675dbd0b", "is_disabled": 0, "rental_uris": {"ios": "https://dc.lft.to/lastmile_qr_scan", "android": "https://dc.lft.to/lastmile_qr_scan"}, "is_reserved": 0}, {"lon": -76.97675616666666, "bike_id": "128d77768f22e1469783588a23c23b2a", "lat": 38.95245466666667, "fusion_lon": 0.0, "fusion_lat": 0.0, "type": "electric_bike", "name": "128d77768f22e1469783588a23c23b2a", "is_disabled": 0, "rental_uris": {"ios": "https://dc.lft.to/lastmile_qr_scan", "android": "https://dc.lft.to/lastmile_qr_scan"}, "is_reserved": 0}, {"lon": -76.9880625, "bike_id": "3f8effdd289024231f200bac0f569f12", "lat": 38.867222166666664, "fusion_lon": 0.0, "fusion_lat": 0.0, "type": "electric_scooter", "name": "3f8effdd289024231f200bac0f569f12", "is_disabled": 0, "rental_uris": {"ios": "https://dc.lft.to/lastmile_qr_scan", "android": "https://dc.lft.to/lastmile_qr_scan"}, "is_reserved": 0}, {"lon": -77.03601533333334, "bike_id": "cae95fff89a1619fb2e756d6597ac6b1", "lat": 38.928520666666664, "fusion_lon": 0.0, "fusion_lat": 0.0, "type": "electric_scooter", "name": "cae95fff89a1619fb2e756d6597ac6b1", "is_disabled": 0, "rental_uris": {"ios": "https://dc.lft.to/lastmile_qr_scan", "android": "https://dc.lft.to/lastmile_qr_scan"}, "is_reserved": 0}, {"lon": -77.048726, "bike_id": "c3904e3953a0213415b93d54b061d24c", "lat": 38.916214, "fusion_lon": 0.0, "fusion_lat": 0.0, "type": "electric_scooter", "name": "c3904e3953a0213415b93d54b061d24c", "is_disabled": 0, "rental_uris": {"ios": "https://dc.lft.to/lastmile_qr_scan", "android": "https://dc.lft.to/lastmile_qr_scan"}, "is_reserved": 0}, {"lon": -76.94975566666666, "bike_id": "50ccd293995f72401fa7fa70d43168db", "lat": 38.8937915, "fusion_lon": 0.0, "fusion_lat": 0.0, "type": "electric_scooter", "name": "50ccd293995f72401fa7fa70d43168db", "is_disabled": 0, "rental_uris": {"ios": "https://dc.lft.to/lastmile_qr_scan", "android": "https://dc.lft.to/lastmile_qr_scan"}, "is_reserved": 0}, {"lon": -77.03826633333334, "bike_id": "76bbee6d5cee332823b46d554c4f9c24", "lat": 38.9105345, "fusion_lon": 0.0, "fusion_lat": 0.0, "type": "electric_scooter", "name": "76bbee6d5cee332823b46d554c4f9c24", "is_disabled": 0, "rental_uris": {"ios": "https://dc.lft.to/lastmile_qr_scan", "android": "https://dc.lft.to/lastmile_qr_scan"}, "is_reserved": 0}, {"lon": -77.0005915, "bike_id": "efb30b6ba0d34b123faddd02f3dfb34b", "lat": 38.89997833333334, "fusion_lon": 0.0, "fusion_lat": 0.0, "type": "electric_scooter", "name": "efb30b6ba0d34b123faddd02f3dfb34b", "is_disabled": 0, "rental_uris": {"ios": "https://dc.lft.to/lastmile_qr_scan", "android": "https://dc.lft.to/lastmile_qr_scan"}, "is_reserved": 0}, {"lon": -77.02366916666666, "bike_id": "f6059ae2a0648cd3dde13d6712186b81", "lat": 38.90730533333333, "fusion_lon": 0.0, "fusion_lat": 0.0, "type": "electric_scooter", "name": "f6059ae2a0648cd3dde13d6712186b81", "is_disabled": 0, "rental_uris": {"ios": "https://dc.lft.to/lastmile_qr_scan", "android": "https://dc.lft.to/lastmile_qr_scan"}, "is_reserved": 0}, {"lon": -77.04378983333334, "bike_id": "e6f8b4de1ad6eaf6b51face7248b9336", "lat": 38.91872716666666, "fusion_lon": 0.0, "fusion_lat": 0.0, "type": "electric_scooter", "name": "e6f8b4de1ad6eaf6b51face7248b9336", "is_disabled": 0, "rental_uris": {"ios": "https://dc.lft.to/lastmile_qr_scan", "android": "https://dc.lft.to/lastmile_qr_scan"}, "is_reserved": 0}, {"lon": -76.98355216666667, "bike_id": "2dc3b2712efbf093a960986bfacf7973", "lat": 38.8626895, "fusion_lon": 0.0, "fusion_lat": 0.0, "type": "electric_bike", "name": "2dc3b2712efbf093a960986bfacf7973", "is_disabled": 0, "rental_uris": {"ios": "https://dc.lft.to/lastmile_qr_scan", "android": "https://dc.lft.to/lastmile_qr_scan"}, "is_reserved": 0}, {"lon": -77.0365875, "bike_id": "6125958c42d94885b0bb9d2fa54eff3b", "lat": 38.92285316666667, "fusion_lon": 0.0, "fusion_lat": 0.0, "type": "electric_scooter", "name": "6125958c42d94885b0bb9d2fa54eff3b", "is_disabled": 0, "rental_uris": {"ios": "https://dc.lft.to/lastmile_qr_scan", "android": "https://dc.lft.to/lastmile_qr_scan"}, "is_reserved": 0}, {"lon": -77.0294985, "bike_id": "e2ef8c4597d6097be5f6173e82428ade", "lat": 38.90500933333333, "fusion_lon": 0.0, "fusion_lat": 0.0, "type": "electric_bike", "name": "e2ef8c4597d6097be5f6173e82428ade", "is_disabled": 0, "rental_uris": {"ios": "https://dc.lft.to/lastmile_qr_scan", "android": "https://dc.lft.to/lastmile_qr_scan"}, "is_reserved": 0}, {"lon": -77.02623166666666, "bike_id": "58c1ec704efdf1080911df3a9cc537d2", "lat": 38.90070933333333, "fusion_lon": 0.0, "fusion_lat": 0.0, "type": "electric_scooter", "name": "58c1ec704efdf1080911df3a9cc537d2", "is_disabled": 0, "rental_uris": {"ios": "https://dc.lft.to/lastmile_qr_scan", "android": "https://dc.lft.to/lastmile_qr_scan"}, "is_reserved": 0}, {"lon": -77.0120355, "bike_id": "a0989580f67d54c8a76ee9d32e1fecbe", "lat": 38.885552, "fusion_lon": 0.0, "fusion_lat": 0.0, "type": "electric_scooter", "name": "a0989580f67d54c8a76ee9d32e1fecbe", "is_disabled": 0, "rental_uris": {"ios": "https://dc.lft.to/lastmile_qr_scan", "android": "https://dc.lft.to/lastmile_qr_scan"}, "is_reserved": 0}, {"lon": -77.037902, "bike_id": "2ca3aaf876d65491b97fd1cc573754b5", "lat": 38.996693, "fusion_lon": 0.0, "fusion_lat": 0.0, "type": "electric_bike", "name": "2ca3aaf876d65491b97fd1cc573754b5", "is_disabled": 0, "rental_uris": {"ios": "https://dc.lft.to/lastmile_qr_scan", "android": "https://dc.lft.to/lastmile_qr_scan"}, "is_reserved": 0}, {"lon": -77.34412583333334, "bike_id": "0939b22e709096478893a3f7a81855da", "lat": 38.945928333333335, "fusion_lon": 0.0, "fusion_lat": 0.0, "type": "electric_bike", "name": "0939b22e709096478893a3f7a81855da", "is_disabled": 0, "rental_uris": {"ios": "https://dc.lft.to/lastmile_qr_scan", "android": "https://dc.lft.to/lastmile_qr_scan"}, "is_reserved": 0}, {"lon": -77.05306766666666, "bike_id": "4f5e9ac0618f0ccb667bce90aaacafc9", "lat": 38.89889566666667, "fusion_lon": 0.0, "fusion_lat": 0.0, "type": "electric_scooter", "name": "4f5e9ac0618f0ccb667bce90aaacafc9", "is_disabled": 0, "rental_uris": {"ios": "https://dc.lft.to/lastmile_qr_scan", "android": "https://dc.lft.to/lastmile_qr_scan"}, "is_reserved": 0}, {"lon": -77.02656766666666, "bike_id": "88b08d1bb72ab6fef48a7b99c7faf8f0", "lat": 38.92611433333333, "fusion_lon": 0.0, "fusion_lat": 0.0, "type": "electric_scooter", "name": "88b08d1bb72ab6fef48a7b99c7faf8f0", "is_disabled": 0, "rental_uris": {"ios": "https://dc.lft.to/lastmile_qr_scan", "android": "https://dc.lft.to/lastmile_qr_scan"}, "is_reserved": 0}, {"lon": -77.02023533333333, "bike_id": "c49f0c27408019731ced91dbb06e8224", "lat": 38.924370333333336, "fusion_lon": 0.0, "fusion_lat": 0.0, "type": "electric_scooter", "name": "c49f0c27408019731ced91dbb06e8224", "is_disabled": 0, "rental_uris": {"ios": "https://dc.lft.to/lastmile_qr_scan", "android": "https://dc.lft.to/lastmile_qr_scan"}, "is_reserved": 0}, {"lon": -77.0408635, "bike_id": "258318c2a8ff23496b7b3ecf8d6409ce", "lat": 38.9170045, "fusion_lon": 0.0, "fusion_lat": 0.0, "type": "electric_scooter", "name": "258318c2a8ff23496b7b3ecf8d6409ce", "is_disabled": 0, "rental_uris": {"ios": "https://dc.lft.to/lastmile_qr_scan", "android": "https://dc.lft.to/lastmile_qr_scan"}, "is_reserved": 0}, {"lon": -77.02174283333333, "bike_id": "7c5b32d04e8b9be51d67a4bb1c07228b", "lat": 38.94296933333333, "fusion_lon": 0.0, "fusion_lat": 0.0, "type": "electric_scooter", "name": "7c5b32d04e8b9be51d67a4bb1c07228b", "is_disabled": 0, "rental_uris": {"ios": "https://dc.lft.to/lastmile_qr_scan", "android": "https://dc.lft.to/lastmile_qr_scan"}, "is_reserved": 0}, {"lon": -77.027003, "bike_id": "87bfa4fc1ff9cff31779f91fa7c99e26", "lat": 38.906687, "fusion_lon": 0.0, "fusion_lat": 0.0, "type": "electric_scooter", "name": "87bfa4fc1ff9cff31779f91fa7c99e26", "is_disabled": 0, "rental_uris": {"ios": "https://dc.lft.to/lastmile_qr_scan", "android": "https://dc.lft.to/lastmile_qr_scan"}, "is_reserved": 0}, {"lon": -76.99779783333334, "bike_id": "59423a05017ee06645e1aeb4f9f58d4a", "lat": 38.84426416666667, "fusion_lon": 0.0, "fusion_lat": 0.0, "type": "electric_scooter", "name": "59423a05017ee06645e1aeb4f9f58d4a", "is_disabled": 0, "rental_uris": {"ios": "https://dc.lft.to/lastmile_qr_scan", "android": "https://dc.lft.to/lastmile_qr_scan"}, "is_reserved": 0}, {"lon": -77.0238935, "bike_id": "faae25a008eaebae85a24892d6137dbc", "lat": 38.928028, "fusion_lon": 0.0, "fusion_lat": 0.0, "type": "electric_scooter", "name": "faae25a008eaebae85a24892d6137dbc", "is_disabled": 0, "rental_uris": {"ios": "https://dc.lft.to/lastmile_qr_scan", "android": "https://dc.lft.to/lastmile_qr_scan"}, "is_reserved": 0}, {"lon": -76.94720833333334, "bike_id": "70e359d83ed88694755fcd946f46348f", "lat": 38.89738883333333, "fusion_lon": 0.0, "fusion_lat": 0.0, "type": "electric_scooter", "name": "70e359d83ed88694755fcd946f46348f", "is_disabled": 0, "rental_uris": {"ios": "https://dc.lft.to/lastmile_qr_scan", "android": "https://dc.lft.to/lastmile_qr_scan"}, "is_reserved": 0}, {"lon": -76.97703533333333, "bike_id": "c2e55251db1aa9b7efcf825d4d7b8b4a", "lat": 38.9491345, "fusion_lon": 0.0, "fusion_lat": 0.0, "type": "electric_bike", "name": "c2e55251db1aa9b7efcf825d4d7b8b4a", "is_disabled": 0, "rental_uris": {"ios": "https://dc.lft.to/lastmile_qr_scan", "android": "https://dc.lft.to/lastmile_qr_scan"}, "is_reserved": 0}, {"lon": -77.032788, "bike_id": "0d06cf4dd8295987fd2467c2d61beb4b", "lat": 38.94096166666667, "fusion_lon": 0.0, "fusion_lat": 0.0, "type": "electric_scooter", "name": "0d06cf4dd8295987fd2467c2d61beb4b", "is_disabled": 0, "rental_uris": {"ios": "https://dc.lft.to/lastmile_qr_scan", "android": "https://dc.lft.to/lastmile_qr_scan"}, "is_reserved": 0}, {"lon": -77.02234533333333, "bike_id": "73dbb336aa6db69c7fa7fc385c4badee", "lat": 38.90871033333333, "fusion_lon": 0.0, "fusion_lat": 0.0, "type": "electric_scooter", "name": "73dbb336aa6db69c7fa7fc385c4badee", "is_disabled": 0, "rental_uris": {"ios": "https://dc.lft.to/lastmile_qr_scan", "android": "https://dc.lft.to/lastmile_qr_scan"}, "is_reserved": 0}, {"lon": -77.01223683333333, "bike_id": "b17995d3dda4e25c799629b631f9a669", "lat": 38.9154385, "fusion_lon": 0.0, "fusion_lat": 0.0, "type": "electric_scooter", "name": "b17995d3dda4e25c799629b631f9a669", "is_disabled": 0, "rental_uris": {"ios": "https://dc.lft.to/lastmile_qr_scan", "android": "https://dc.lft.to/lastmile_qr_scan"}, "is_reserved": 0}, {"lon": -77.0256925, "bike_id": "483f80c162a1bd8727995ac1561e1a55", "lat": 38.913401, "fusion_lon": 0.0, "fusion_lat": 0.0, "type": "electric_scooter", "name": "483f80c162a1bd8727995ac1561e1a55", "is_disabled": 0, "rental_uris": {"ios": "https://dc.lft.to/lastmile_qr_scan", "android": "https://dc.lft.to/lastmile_qr_scan"}, "is_reserved": 0}, {"lon": -76.98777383333334, "bike_id": "60dfee84e1c4eb2e48160dc413aad3d2", "lat": 38.86609333333333, "fusion_lon": 0.0, "fusion_lat": 0.0, "type": "electric_bike", "name": "60dfee84e1c4eb2e48160dc413aad3d2", "is_disabled": 0, "rental_uris": {"ios": "https://dc.lft.to/lastmile_qr_scan", "android": "https://dc.lft.to/lastmile_qr_scan"}, "is_reserved": 0}, {"lon": -77.02550233333334, "bike_id": "7572dfa7190bdf780f51ec9d3444eed4", "lat": 38.941034333333334, "fusion_lon": 0.0, "fusion_lat": 0.0, "type": "electric_scooter", "name": "7572dfa7190bdf780f51ec9d3444eed4", "is_disabled": 0, "rental_uris": {"ios": "https://dc.lft.to/lastmile_qr_scan", "android": "https://dc.lft.to/lastmile_qr_scan"}, "is_reserved": 0}, {"lon": -77.04323083333334, "bike_id": "c9a04a642f0a5ea289bf97e742e55b9b", "lat": 38.922534666666664, "fusion_lon": 0.0, "fusion_lat": 0.0, "type": "electric_scooter", "name": "c9a04a642f0a5ea289bf97e742e55b9b", "is_disabled": 0, "rental_uris": {"ios": "https://dc.lft.to/lastmile_qr_scan", "android": "https://dc.lft.to/lastmile_qr_scan"}, "is_reserved": 0}, {"lon": -77.0393525, "bike_id": "4648d730fa8001701c3d2e6cdd313531", "lat": 38.899002, "fusion_lon": 0.0, "fusion_lat": 0.0, "type": "electric_scooter", "name": "4648d730fa8001701c3d2e6cdd313531", "is_disabled": 0, "rental_uris": {"ios": "https://dc.lft.to/lastmile_qr_scan", "android": "https://dc.lft.to/lastmile_qr_scan"}, "is_reserved": 0}, {"lon": -76.99034, "bike_id": "5a203a4a342d689217bfa04972157fb6", "lat": 38.898781666666665, "fusion_lon": 0.0, "fusion_lat": 0.0, "type": "electric_scooter", "name": "5a203a4a342d689217bfa04972157fb6", "is_disabled": 0, "rental_uris": {"ios": "https://dc.lft.to/lastmile_qr_scan", "android": "https://dc.lft.to/lastmile_qr_scan"}, "is_reserved": 0}, {"lon": -77.024709, "bike_id": "cc87d6eaaad837e3037a1015b4c56615", "lat": 38.9182255, "fusion_lon": 0.0, "fusion_lat": 0.0, "type": "electric_scooter", "name": "cc87d6eaaad837e3037a1015b4c56615", "is_disabled": 0, "rental_uris": {"ios": "https://dc.lft.to/lastmile_qr_scan", "android": "https://dc.lft.to/lastmile_qr_scan"}, "is_reserved": 0}, {"lon": -76.984082, "bike_id": "aa98dbf1a37d71e2e59f96418954b424", "lat": 38.9063015, "fusion_lon": 0.0, "fusion_lat": 0.0, "type": "electric_scooter", "name": "aa98dbf1a37d71e2e59f96418954b424", "is_disabled": 0, "rental_uris": {"ios": "https://dc.lft.to/lastmile_qr_scan", "android": "https://dc.lft.to/lastmile_qr_scan"}, "is_reserved": 0}, {"lon": -77.01852033333333, "bike_id": "85b752010887322743d1ae8e1a7f5fe1", "lat": 38.97369116666667, "fusion_lon": 0.0, "fusion_lat": 0.0, "type": "electric_scooter", "name": "85b752010887322743d1ae8e1a7f5fe1", "is_disabled": 0, "rental_uris": {"ios": "https://dc.lft.to/lastmile_qr_scan", "android": "https://dc.lft.to/lastmile_qr_scan"}, "is_reserved": 0}, {"lon": -77.03968466666667, "bike_id": "81288917164b158665fed583d920a534", "lat": 38.91633316666667, "fusion_lon": 0.0, "fusion_lat": 0.0, "type": "electric_scooter", "name": "81288917164b158665fed583d920a534", "is_disabled": 0, "rental_uris": {"ios": "https://dc.lft.to/lastmile_qr_scan", "android": "https://dc.lft.to/lastmile_qr_scan"}, "is_reserved": 0}, {"lon": -77.04213566666667, "bike_id": "68f270f3dffdfebfd4e74b9c3dbe6e71", "lat": 38.92130216666666, "fusion_lon": 0.0, "fusion_lat": 0.0, "type": "electric_scooter", "name": "68f270f3dffdfebfd4e74b9c3dbe6e71", "is_disabled": 0, "rental_uris": {"ios": "https://dc.lft.to/lastmile_qr_scan", "android": "https://dc.lft.to/lastmile_qr_scan"}, "is_reserved": 0}, {"lon": -76.9926745, "bike_id": "3109780ae91c7aefce5620d1304377be", "lat": 38.86026783333333, "fusion_lon": 0.0, "fusion_lat": 0.0, "type": "electric_scooter", "name": "3109780ae91c7aefce5620d1304377be", "is_disabled": 0, "rental_uris": {"ios": "https://dc.lft.to/lastmile_qr_scan", "android": "https://dc.lft.to/lastmile_qr_scan"}, "is_reserved": 0}, {"lon": -76.9720695, "bike_id": "0104beabdd07de2a141664fb0d14915e", "lat": 38.892912333333335, "fusion_lon": 0.0, "fusion_lat": 0.0, "type": "electric_bike", "name": "0104beabdd07de2a141664fb0d14915e", "is_disabled": 0, "rental_uris": {"ios": "https://dc.lft.to/lastmile_qr_scan", "android": "https://dc.lft.to/lastmile_qr_scan"}, "is_reserved": 0}, {"lon": -77.04495466666667, "bike_id": "ef955f867ab1b712313cf6986e73f670", "lat": 38.913305333333334, "fusion_lon": 0.0, "fusion_lat": 0.0, "type": "electric_scooter", "name": "ef955f867ab1b712313cf6986e73f670", "is_disabled": 0, "rental_uris": {"ios": "https://dc.lft.to/lastmile_qr_scan", "android": "https://dc.lft.to/lastmile_qr_scan"}, "is_reserved": 0}, {"lon": -76.98838733333334, "bike_id": "f70ec254a2b84d6795104d86c5de13cd", "lat": 38.896684, "fusion_lon": 0.0, "fusion_lat": 0.0, "type": "electric_scooter", "name": "f70ec254a2b84d6795104d86c5de13cd", "is_disabled": 0, "rental_uris": {"ios": "https://dc.lft.to/lastmile_qr_scan", "android": "https://dc.lft.to/lastmile_qr_scan"}, "is_reserved": 0}, {"lon": -77.0776445, "bike_id": "0a2e537620571e196792f4c2e3c11c56", "lat": 38.9577395, "fusion_lon": 0.0, "fusion_lat": 0.0, "type": "electric_scooter", "name": "0a2e537620571e196792f4c2e3c11c56", "is_disabled": 0, "rental_uris": {"ios": "https://dc.lft.to/lastmile_qr_scan", "android": "https://dc.lft.to/lastmile_qr_scan"}, "is_reserved": 0}, {"lon": -77.02215433333333, "bike_id": "5f87e8c48b089df0f10211d3e8e47be9", "lat": 38.89353, "fusion_lon": 0.0, "fusion_lat": 0.0, "type": "electric_scooter", "name": "5f87e8c48b089df0f10211d3e8e47be9", "is_disabled": 0, "rental_uris": {"ios": "https://dc.lft.to/lastmile_qr_scan", "android": "https://dc.lft.to/lastmile_qr_scan"}, "is_reserved": 0}, {"lon": -77.13921616666667, "bike_id": "9a95276018da902630267f2c1fb4e9e0", "lat": 38.87299816666667, "fusion_lon": 0.0, "fusion_lat": 0.0, "type": "electric_bike", "name": "9a95276018da902630267f2c1fb4e9e0", "is_disabled": 0, "rental_uris": {"ios": "https://dc.lft.to/lastmile_qr_scan", "android": "https://dc.lft.to/lastmile_qr_scan"}, "is_reserved": 0}, {"lon": -76.98358116666667, "bike_id": "101c41765b3bede68d1f128c0516ab9a", "lat": 38.88743616666667, "fusion_lon": 0.0, "fusion_lat": 0.0, "type": "electric_scooter", "name": "101c41765b3bede68d1f128c0516ab9a", "is_disabled": 0, "rental_uris": {"ios": "https://dc.lft.to/lastmile_qr_scan", "android": "https://dc.lft.to/lastmile_qr_scan"}, "is_reserved": 0}, {"lon": -77.03820433333334, "bike_id": "ec0375b54def0be767d37fc932e873a8", "lat": 38.930993, "fusion_lon": 0.0, "fusion_lat": 0.0, "type": "electric_scooter", "name": "ec0375b54def0be767d37fc932e873a8", "is_disabled": 0, "rental_uris": {"ios": "https://dc.lft.to/lastmile_qr_scan", "android": "https://dc.lft.to/lastmile_qr_scan"}, "is_reserved": 0}, {"lon": -77.00875016666667, "bike_id": "a15590b9e5e401e81ad49fac89a479f9", "lat": 38.825411333333335, "fusion_lon": 0.0, "fusion_lat": 0.0, "type": "electric_scooter", "name": "a15590b9e5e401e81ad49fac89a479f9", "is_disabled": 0, "rental_uris": {"ios": "https://dc.lft.to/lastmile_qr_scan", "android": "https://dc.lft.to/lastmile_qr_scan"}, "is_reserved": 0}, {"lon": -77.05576916666666, "bike_id": "f7e4cdf7952fa75724ba9c18de459a8c", "lat": 38.93055666666667, "fusion_lon": 0.0, "fusion_lat": 0.0, "type": "electric_scooter", "name": "f7e4cdf7952fa75724ba9c18de459a8c", "is_disabled": 0, "rental_uris": {"ios": "https://dc.lft.to/lastmile_qr_scan", "android": "https://dc.lft.to/lastmile_qr_scan"}, "is_reserved": 0}, {"lon": -77.12433583333333, "bike_id": "0a9bd577ea88a668668b72535df24151", "lat": 38.853797, "fusion_lon": 0.0, "fusion_lat": 0.0, "type": "electric_bike", "name": "0a9bd577ea88a668668b72535df24151", "is_disabled": 0, "rental_uris": {"ios": "https://dc.lft.to/lastmile_qr_scan", "android": "https://dc.lft.to/lastmile_qr_scan"}, "is_reserved": 0}, {"lon": -77.04178, "bike_id": "98703e91a0fce8b07041dd2716407cb7", "lat": 38.91553733333333, "fusion_lon": 0.0, "fusion_lat": 0.0, "type": "electric_scooter", "name": "98703e91a0fce8b07041dd2716407cb7", "is_disabled": 0, "rental_uris": {"ios": "https://dc.lft.to/lastmile_qr_scan", "android": "https://dc.lft.to/lastmile_qr_scan"}, "is_reserved": 0}, {"lon": -77.02949383333333, "bike_id": "22ea57c7232b49718e5a41c09e30c57f", "lat": 38.9049995, "fusion_lon": 0.0, "fusion_lat": 0.0, "type": "electric_scooter", "name": "22ea57c7232b49718e5a41c09e30c57f", "is_disabled": 0, "rental_uris": {"ios": "https://dc.lft.to/lastmile_qr_scan", "android": "https://dc.lft.to/lastmile_qr_scan"}, "is_reserved": 0}, {"lon": -77.027055, "bike_id": "62ffe5e3a602ecc9e0b8377af92e92e7", "lat": 38.94989183333333, "fusion_lon": 0.0, "fusion_lat": 0.0, "type": "electric_scooter", "name": "62ffe5e3a602ecc9e0b8377af92e92e7", "is_disabled": 0, "rental_uris": {"ios": "https://dc.lft.to/lastmile_qr_scan", "android": "https://dc.lft.to/lastmile_qr_scan"}, "is_reserved": 0}, {"lon": -77.0326345, "bike_id": "4821ec7b22175dbbd5c3abc281ef6094", "lat": 38.9377445, "fusion_lon": 0.0, "fusion_lat": 0.0, "type": "electric_scooter", "name": "4821ec7b22175dbbd5c3abc281ef6094", "is_disabled": 0, "rental_uris": {"ios": "https://dc.lft.to/lastmile_qr_scan", "android": "https://dc.lft.to/lastmile_qr_scan"}, "is_reserved": 0}, {"lon": -77.03261083333334, "bike_id": "90e48c7b57319bb4047bd1af60104741", "lat": 38.929868, "fusion_lon": 0.0, "fusion_lat": 0.0, "type": "electric_scooter", "name": "90e48c7b57319bb4047bd1af60104741", "is_disabled": 0, "rental_uris": {"ios": "https://dc.lft.to/lastmile_qr_scan", "android": "https://dc.lft.to/lastmile_qr_scan"}, "is_reserved": 0}, {"lon": -77.04673616666666, "bike_id": "83e7edea1e50875f6046b9e66a8b810e", "lat": 38.89231566666667, "fusion_lon": 0.0, "fusion_lat": 0.0, "type": "electric_scooter", "name": "83e7edea1e50875f6046b9e66a8b810e", "is_disabled": 0, "rental_uris": {"ios": "https://dc.lft.to/lastmile_qr_scan", "android": "https://dc.lft.to/lastmile_qr_scan"}, "is_reserved": 0}, {"lon": -77.04472483333333, "bike_id": "e69e6700c30f20449183a834854eecea", "lat": 38.9053935, "fusion_lon": 0.0, "fusion_lat": 0.0, "type": "electric_scooter", "name": "e69e6700c30f20449183a834854eecea", "is_disabled": 0, "rental_uris": {"ios": "https://dc.lft.to/lastmile_qr_scan", "android": "https://dc.lft.to/lastmile_qr_scan"}, "is_reserved": 0}, {"lon": -77.03856516666667, "bike_id": "87142993164aab248bafda1257788ead", "lat": 38.932450333333335, "fusion_lon": 0.0, "fusion_lat": 0.0, "type": "electric_scooter", "name": "87142993164aab248bafda1257788ead", "is_disabled": 0, "rental_uris": {"ios": "https://dc.lft.to/lastmile_qr_scan", "android": "https://dc.lft.to/lastmile_qr_scan"}, "is_reserved": 0}, {"lon": -77.01575066666666, "bike_id": "efb0c50c7ae8d3ec3053165ea01af4df", "lat": 38.8829055, "fusion_lon": 0.0, "fusion_lat": 0.0, "type": "electric_scooter", "name": "efb0c50c7ae8d3ec3053165ea01af4df", "is_disabled": 0, "rental_uris": {"ios": "https://dc.lft.to/lastmile_qr_scan", "android": "https://dc.lft.to/lastmile_qr_scan"}, "is_reserved": 0}, {"lon": -77.0504465, "bike_id": "38cbfb543d01ea62b266f1cbd2eda145", "lat": 38.92362816666667, "fusion_lon": 0.0, "fusion_lat": 0.0, "type": "electric_scooter", "name": "38cbfb543d01ea62b266f1cbd2eda145", "is_disabled": 0, "rental_uris": {"ios": "https://dc.lft.to/lastmile_qr_scan", "android": "https://dc.lft.to/lastmile_qr_scan"}, "is_reserved": 0}, {"lon": -76.97560516666667, "bike_id": "bf59eed53034745181237982043c5228", "lat": 38.92459516666667, "fusion_lon": 0.0, "fusion_lat": 0.0, "type": "electric_bike", "name": "bf59eed53034745181237982043c5228", "is_disabled": 0, "rental_uris": {"ios": "https://dc.lft.to/lastmile_qr_scan", "android": "https://dc.lft.to/lastmile_qr_scan"}, "is_reserved": 0}, {"lon": -76.99599616666667, "bike_id": "4990b7fcdc69753caa01169325f85f6f", "lat": 38.95073983333333, "fusion_lon": 0.0, "fusion_lat": 0.0, "type": "electric_bike", "name": "4990b7fcdc69753caa01169325f85f6f", "is_disabled": 0, "rental_uris": {"ios": "https://dc.lft.to/lastmile_qr_scan", "android": "https://dc.lft.to/lastmile_qr_scan"}, "is_reserved": 0}, {"lon": -77.0329495, "bike_id": "036f78f648f027d7857179ecc64cfebd", "lat": 38.910498, "fusion_lon": 0.0, "fusion_lat": 0.0, "type": "electric_scooter", "name": "036f78f648f027d7857179ecc64cfebd", "is_disabled": 0, "rental_uris": {"ios": "https://dc.lft.to/lastmile_qr_scan", "android": "https://dc.lft.to/lastmile_qr_scan"}, "is_reserved": 0}, {"lon": -76.9786065, "bike_id": "63f470d9fcaba36f82d6bf62e846d9cb", "lat": 38.907227166666665, "fusion_lon": 0.0, "fusion_lat": 0.0, "type": "electric_scooter", "name": "63f470d9fcaba36f82d6bf62e846d9cb", "is_disabled": 0, "rental_uris": {"ios": "https://dc.lft.to/lastmile_qr_scan", "android": "https://dc.lft.to/lastmile_qr_scan"}, "is_reserved": 0}, {"lon": -76.94998033333333, "bike_id": "280843dcc19cb7de4980cda9bad13fab", "lat": 38.893825166666666, "fusion_lon": 0.0, "fusion_lat": 0.0, "type": "electric_scooter", "name": "280843dcc19cb7de4980cda9bad13fab", "is_disabled": 0, "rental_uris": {"ios": "https://dc.lft.to/lastmile_qr_scan", "android": "https://dc.lft.to/lastmile_qr_scan"}, "is_reserved": 0}, {"lon": -77.03559983333334, "bike_id": "0a0ed9f3defc36d4bf43b603ec91bf95", "lat": 38.93382483333333, "fusion_lon": 0.0, "fusion_lat": 0.0, "type": "electric_scooter", "name": "0a0ed9f3defc36d4bf43b603ec91bf95", "is_disabled": 0, "rental_uris": {"ios": "https://dc.lft.to/lastmile_qr_scan", "android": "https://dc.lft.to/lastmile_qr_scan"}, "is_reserved": 0}, {"lon": -77.02090016666666, "bike_id": "e9a187e226a7301c561e8ad5d64c8fe1", "lat": 38.9290905, "fusion_lon": 0.0, "fusion_lat": 0.0, "type": "electric_scooter", "name": "e9a187e226a7301c561e8ad5d64c8fe1", "is_disabled": 0, "rental_uris": {"ios": "https://dc.lft.to/lastmile_qr_scan", "android": "https://dc.lft.to/lastmile_qr_scan"}, "is_reserved": 0}, {"lon": -77.0500495, "bike_id": "07886a07ff2a533a2fd473b149eb011a", "lat": 38.89197816666667, "fusion_lon": 0.0, "fusion_lat": 0.0, "type": "electric_scooter", "name": "07886a07ff2a533a2fd473b149eb011a", "is_disabled": 0, "rental_uris": {"ios": "https://dc.lft.to/lastmile_qr_scan", "android": "https://dc.lft.to/lastmile_qr_scan"}, "is_reserved": 0}, {"lon": -77.02792333333333, "bike_id": "a1b2cb3e9f9734824d2d228028403bd1", "lat": 38.954196, "fusion_lon": 0.0, "fusion_lat": 0.0, "type": "electric_scooter", "name": "a1b2cb3e9f9734824d2d228028403bd1", "is_disabled": 0, "rental_uris": {"ios": "https://dc.lft.to/lastmile_qr_scan", "android": "https://dc.lft.to/lastmile_qr_scan"}, "is_reserved": 0}, {"lon": -77.22798083333333, "bike_id": "49a8a53504226f14c528f98ec2691a46", "lat": 38.910136666666666, "fusion_lon": 0.0, "fusion_lat": 0.0, "type": "electric_bike", "name": "49a8a53504226f14c528f98ec2691a46", "is_disabled": 0, "rental_uris": {"ios": "https://dc.lft.to/lastmile_qr_scan", "android": "https://dc.lft.to/lastmile_qr_scan"}, "is_reserved": 0}, {"lon": -77.03127183333334, "bike_id": "f00069b16db268630775a2a4c33591da", "lat": 38.988282166666664, "fusion_lon": 0.0, "fusion_lat": 0.0, "type": "electric_scooter", "name": "f00069b16db268630775a2a4c33591da", "is_disabled": 0, "rental_uris": {"ios": "https://dc.lft.to/lastmile_qr_scan", "android": "https://dc.lft.to/lastmile_qr_scan"}, "is_reserved": 0}, {"lon": -77.05318616666666, "bike_id": "fdf72b438836b70d493a887558ad675c", "lat": 38.941057666666666, "fusion_lon": 0.0, "fusion_lat": 0.0, "type": "electric_bike", "name": "fdf72b438836b70d493a887558ad675c", "is_disabled": 0, "rental_uris": {"ios": "https://dc.lft.to/lastmile_qr_scan", "android": "https://dc.lft.to/lastmile_qr_scan"}, "is_reserved": 0}, {"lon": -77.02090933333334, "bike_id": "b9c514c5c7b30c3f343b931fbfd5cde2", "lat": 38.929130666666666, "fusion_lon": 0.0, "fusion_lat": 0.0, "type": "electric_scooter", "name": "b9c514c5c7b30c3f343b931fbfd5cde2", "is_disabled": 0, "rental_uris": {"ios": "https://dc.lft.to/lastmile_qr_scan", "android": "https://dc.lft.to/lastmile_qr_scan"}, "is_reserved": 0}, {"lon": -77.00742033333333, "bike_id": "efc339519a0bac24f54c3285e0366a01", "lat": 38.925346166666664, "fusion_lon": 0.0, "fusion_lat": 0.0, "type": "electric_scooter", "name": "efc339519a0bac24f54c3285e0366a01", "is_disabled": 0, "rental_uris": {"ios": "https://dc.lft.to/lastmile_qr_scan", "android": "https://dc.lft.to/lastmile_qr_scan"}, "is_reserved": 0}, {"lon": -77.031608, "bike_id": "14b5a59ddc7bd302352a804b08368bf9", "lat": 38.92375233333333, "fusion_lon": 0.0, "fusion_lat": 0.0, "type": "electric_scooter", "name": "14b5a59ddc7bd302352a804b08368bf9", "is_disabled": 0, "rental_uris": {"ios": "https://dc.lft.to/lastmile_qr_scan", "android": "https://dc.lft.to/lastmile_qr_scan"}, "is_reserved": 0}, {"lon": -77.028014, "bike_id": "f6fa4fe822c927eaeb164c67c870c45b", "lat": 38.91222533333333, "fusion_lon": 0.0, "fusion_lat": 0.0, "type": "electric_scooter", "name": "f6fa4fe822c927eaeb164c67c870c45b", "is_disabled": 0, "rental_uris": {"ios": "https://dc.lft.to/lastmile_qr_scan", "android": "https://dc.lft.to/lastmile_qr_scan"}, "is_reserved": 0}, {"lon": -77.02375083333334, "bike_id": "c47c5b7c699eb15443fe9d3c7e60e392", "lat": 38.916290833333335, "fusion_lon": 0.0, "fusion_lat": 0.0, "type": "electric_scooter", "name": "c47c5b7c699eb15443fe9d3c7e60e392", "is_disabled": 0, "rental_uris": {"ios": "https://dc.lft.to/lastmile_qr_scan", "android": "https://dc.lft.to/lastmile_qr_scan"}, "is_reserved": 0}, {"lon": -76.96394633333334, "bike_id": "1db92416cd9aa4ab693df7aa88999974", "lat": 38.9518295, "fusion_lon": 0.0, "fusion_lat": 0.0, "type": "electric_bike", "name": "1db92416cd9aa4ab693df7aa88999974", "is_disabled": 0, "rental_uris": {"ios": "https://dc.lft.to/lastmile_qr_scan", "android": "https://dc.lft.to/lastmile_qr_scan"}, "is_reserved": 0}, {"lon": -77.05875783333333, "bike_id": "4ece7a6b51ecfd41805881a611021f9a", "lat": 38.93555516666667, "fusion_lon": 0.0, "fusion_lat": 0.0, "type": "electric_scooter", "name": "4ece7a6b51ecfd41805881a611021f9a", "is_disabled": 0, "rental_uris": {"ios": "https://dc.lft.to/lastmile_qr_scan", "android": "https://dc.lft.to/lastmile_qr_scan"}, "is_reserved": 0}, {"lon": -77.00454366666666, "bike_id": "5e058a70d3f380a19fe18fbe734bb9aa", "lat": 38.91198383333333, "fusion_lon": 0.0, "fusion_lat": 0.0, "type": "electric_scooter", "name": "5e058a70d3f380a19fe18fbe734bb9aa", "is_disabled": 0, "rental_uris": {"ios": "https://dc.lft.to/lastmile_qr_scan", "android": "https://dc.lft.to/lastmile_qr_scan"}, "is_reserved": 0}, {"lon": -77.01411433333334, "bike_id": "7b3b0ccb93d3dfd1ab6e482551bfd74b", "lat": 38.92904166666667, "fusion_lon": 0.0, "fusion_lat": 0.0, "type": "electric_scooter", "name": "7b3b0ccb93d3dfd1ab6e482551bfd74b", "is_disabled": 0, "rental_uris": {"ios": "https://dc.lft.to/lastmile_qr_scan", "android": "https://dc.lft.to/lastmile_qr_scan"}, "is_reserved": 0}, {"lon": -77.04023366666667, "bike_id": "83de06cf89577235340efc7d8cdf18fe", "lat": 38.911197666666666, "fusion_lon": 0.0, "fusion_lat": 0.0, "type": "electric_scooter", "name": "83de06cf89577235340efc7d8cdf18fe", "is_disabled": 0, "rental_uris": {"ios": "https://dc.lft.to/lastmile_qr_scan", "android": "https://dc.lft.to/lastmile_qr_scan"}, "is_reserved": 0}, {"lon": -77.032735, "bike_id": "69a5e4ecd93b30aa9703c274d2554cd3", "lat": 38.919985, "fusion_lon": 0.0, "fusion_lat": 0.0, "type": "electric_scooter", "name": "69a5e4ecd93b30aa9703c274d2554cd3", "is_disabled": 0, "rental_uris": {"ios": "https://dc.lft.to/lastmile_qr_scan", "android": "https://dc.lft.to/lastmile_qr_scan"}, "is_reserved": 0}, {"lon": -76.9299935, "bike_id": "e464af307e9a58997a647640cfd42736", "lat": 38.90189633333333, "fusion_lon": 0.0, "fusion_lat": 0.0, "type": "electric_scooter", "name": "e464af307e9a58997a647640cfd42736", "is_disabled": 0, "rental_uris": {"ios": "https://dc.lft.to/lastmile_qr_scan", "android": "https://dc.lft.to/lastmile_qr_scan"}, "is_reserved": 0}, {"lon": -77.02225533333333, "bike_id": "2778d616b9e0d4e0a3b01dbd650619c0", "lat": 38.93553766666667, "fusion_lon": 0.0, "fusion_lat": 0.0, "type": "electric_scooter", "name": "2778d616b9e0d4e0a3b01dbd650619c0", "is_disabled": 0, "rental_uris": {"ios": "https://dc.lft.to/lastmile_qr_scan", "android": "https://dc.lft.to/lastmile_qr_scan"}, "is_reserved": 0}, {"lon": -77.07371233333333, "bike_id": "01b02f54216eecbb29ea720a8c69ee05", "lat": 38.96188333333333, "fusion_lon": 0.0, "fusion_lat": 0.0, "type": "electric_bike", "name": "01b02f54216eecbb29ea720a8c69ee05", "is_disabled": 0, "rental_uris": {"ios": "https://dc.lft.to/lastmile_qr_scan", "android": "https://dc.lft.to/lastmile_qr_scan"}, "is_reserved": 0}, {"lon": -77.021431, "bike_id": "c581b07602cecec7efc0ba6fff56db9f", "lat": 38.89710183333333, "fusion_lon": 0.0, "fusion_lat": 0.0, "type": "electric_scooter", "name": "c581b07602cecec7efc0ba6fff56db9f", "is_disabled": 0, "rental_uris": {"ios": "https://dc.lft.to/lastmile_qr_scan", "android": "https://dc.lft.to/lastmile_qr_scan"}, "is_reserved": 0}, {"lon": -77.06709233333333, "bike_id": "2d44ebe5a1aed2363777eb7f89cedb10", "lat": 38.9144405, "fusion_lon": 0.0, "fusion_lat": 0.0, "type": "electric_scooter", "name": "2d44ebe5a1aed2363777eb7f89cedb10", "is_disabled": 0, "rental_uris": {"ios": "https://dc.lft.to/lastmile_qr_scan", "android": "https://dc.lft.to/lastmile_qr_scan"}, "is_reserved": 0}, {"lon": -77.02844666666667, "bike_id": "12cc949671912b42ac885c193a9903b5", "lat": 38.92578783333333, "fusion_lon": 0.0, "fusion_lat": 0.0, "type": "electric_scooter", "name": "12cc949671912b42ac885c193a9903b5", "is_disabled": 0, "rental_uris": {"ios": "https://dc.lft.to/lastmile_qr_scan", "android": "https://dc.lft.to/lastmile_qr_scan"}, "is_reserved": 0}, {"lon": -77.02765883333333, "bike_id": "e6cc8ed97122cf95a154a16c50ac84c2", "lat": 38.904381, "fusion_lon": 0.0, "fusion_lat": 0.0, "type": "electric_bike", "name": "e6cc8ed97122cf95a154a16c50ac84c2", "is_disabled": 0, "rental_uris": {"ios": "https://dc.lft.to/lastmile_qr_scan", "android": "https://dc.lft.to/lastmile_qr_scan"}, "is_reserved": 0}, {"lon": -77.03229033333334, "bike_id": "09c287a07f806422672c4c7bc9da483e", "lat": 38.8964595, "fusion_lon": 0.0, "fusion_lat": 0.0, "type": "electric_scooter", "name": "09c287a07f806422672c4c7bc9da483e", "is_disabled": 0, "rental_uris": {"ios": "https://dc.lft.to/lastmile_qr_scan", "android": "https://dc.lft.to/lastmile_qr_scan"}, "is_reserved": 0}, {"lon": -77.05446016666667, "bike_id": "9e2396bdbaca219297c38119c8911f80", "lat": 38.93523833333333, "fusion_lon": 0.0, "fusion_lat": 0.0, "type": "electric_bike", "name": "9e2396bdbaca219297c38119c8911f80", "is_disabled": 0, "rental_uris": {"ios": "https://dc.lft.to/lastmile_qr_scan", "android": "https://dc.lft.to/lastmile_qr_scan"}, "is_reserved": 0}, {"lon": -77.03860933333333, "bike_id": "d318112630bdc891bbb58f5f9458bca2", "lat": 38.906609, "fusion_lon": 0.0, "fusion_lat": 0.0, "type": "electric_scooter", "name": "d318112630bdc891bbb58f5f9458bca2", "is_disabled": 0, "rental_uris": {"ios": "https://dc.lft.to/lastmile_qr_scan", "android": "https://dc.lft.to/lastmile_qr_scan"}, "is_reserved": 0}, {"lon": -77.03582866666666, "bike_id": "ae4bfe0e5937e7647ee8eb6bdab8ea33", "lat": 38.917804, "fusion_lon": 0.0, "fusion_lat": 0.0, "type": "electric_scooter", "name": "ae4bfe0e5937e7647ee8eb6bdab8ea33", "is_disabled": 0, "rental_uris": {"ios": "https://dc.lft.to/lastmile_qr_scan", "android": "https://dc.lft.to/lastmile_qr_scan"}, "is_reserved": 0}, {"lon": -77.02971266666667, "bike_id": "2fc3421fe9088e7848d1ab50e4f1774f", "lat": 38.907304333333336, "fusion_lon": 0.0, "fusion_lat": 0.0, "type": "electric_scooter", "name": "2fc3421fe9088e7848d1ab50e4f1774f", "is_disabled": 0, "rental_uris": {"ios": "https://dc.lft.to/lastmile_qr_scan", "android": "https://dc.lft.to/lastmile_qr_scan"}, "is_reserved": 0}, {"lon": -77.00201583333333, "bike_id": "11cbec453d8ac624da56b5df4f62e29d", "lat": 38.902382333333335, "fusion_lon": 0.0, "fusion_lat": 0.0, "type": "electric_scooter", "name": "11cbec453d8ac624da56b5df4f62e29d", "is_disabled": 0, "rental_uris": {"ios": "https://dc.lft.to/lastmile_qr_scan", "android": "https://dc.lft.to/lastmile_qr_scan"}, "is_reserved": 0}, {"lon": -77.044823, "bike_id": "0d44a9bfac5526307159b2aac8b8b829", "lat": 38.924243, "fusion_lon": 0.0, "fusion_lat": 0.0, "type": "electric_scooter", "name": "0d44a9bfac5526307159b2aac8b8b829", "is_disabled": 0, "rental_uris": {"ios": "https://dc.lft.to/lastmile_qr_scan", "android": "https://dc.lft.to/lastmile_qr_scan"}, "is_reserved": 0}, {"lon": -77.03389516666667, "bike_id": "166ea89619080b423ccefdb8a8443049", "lat": 38.902716, "fusion_lon": 0.0, "fusion_lat": 0.0, "type": "electric_scooter", "name": "166ea89619080b423ccefdb8a8443049", "is_disabled": 0, "rental_uris": {"ios": "https://dc.lft.to/lastmile_qr_scan", "android": "https://dc.lft.to/lastmile_qr_scan"}, "is_reserved": 0}, {"lon": -77.04268066666667, "bike_id": "4e3c847f46515f6aa97d3294de2aa31d", "lat": 38.8996215, "fusion_lon": 0.0, "fusion_lat": 0.0, "type": "electric_scooter", "name": "4e3c847f46515f6aa97d3294de2aa31d", "is_disabled": 0, "rental_uris": {"ios": "https://dc.lft.to/lastmile_qr_scan", "android": "https://dc.lft.to/lastmile_qr_scan"}, "is_reserved": 0}, {"lon": -77.026534, "bike_id": "1bd9851f37be34bb4b8a6e23b31ce624", "lat": 38.90248483333333, "fusion_lon": 0.0, "fusion_lat": 0.0, "type": "electric_scooter", "name": "1bd9851f37be34bb4b8a6e23b31ce624", "is_disabled": 0, "rental_uris": {"ios": "https://dc.lft.to/lastmile_qr_scan", "android": "https://dc.lft.to/lastmile_qr_scan"}, "is_reserved": 0}, {"lon": -77.01117416666666, "bike_id": "6f4e1cfb4252a2f655714e56485508bd", "lat": 38.9116785, "fusion_lon": 0.0, "fusion_lat": 0.0, "type": "electric_bike", "name": "6f4e1cfb4252a2f655714e56485508bd", "is_disabled": 0, "rental_uris": {"ios": "https://dc.lft.to/lastmile_qr_scan", "android": "https://dc.lft.to/lastmile_qr_scan"}, "is_reserved": 0}, {"lon": -77.03178283333334, "bike_id": "e2e0ca14f1fcc2b8c54f09b90bf0a492", "lat": 38.89199283333333, "fusion_lon": 0.0, "fusion_lat": 0.0, "type": "electric_scooter", "name": "e2e0ca14f1fcc2b8c54f09b90bf0a492", "is_disabled": 0, "rental_uris": {"ios": "https://dc.lft.to/lastmile_qr_scan", "android": "https://dc.lft.to/lastmile_qr_scan"}, "is_reserved": 0}, {"lon": -77.04701066666667, "bike_id": "eba933d3eebd89a5193476cdd53f04c4", "lat": 38.921377166666666, "fusion_lon": 0.0, "fusion_lat": 0.0, "type": "electric_scooter", "name": "eba933d3eebd89a5193476cdd53f04c4", "is_disabled": 0, "rental_uris": {"ios": "https://dc.lft.to/lastmile_qr_scan", "android": "https://dc.lft.to/lastmile_qr_scan"}, "is_reserved": 0}, {"lon": -77.05148416666667, "bike_id": "dff1b70e6b8c2e680351d85ea9fd1a7e", "lat": 38.923728, "fusion_lon": 0.0, "fusion_lat": 0.0, "type": "electric_scooter", "name": "dff1b70e6b8c2e680351d85ea9fd1a7e", "is_disabled": 0, "rental_uris": {"ios": "https://dc.lft.to/lastmile_qr_scan", "android": "https://dc.lft.to/lastmile_qr_scan"}, "is_reserved": 0}, {"lon": -77.02442633333334, "bike_id": "23f72a7d8764a8e515c92a34c602a912", "lat": 38.920534333333336, "fusion_lon": 0.0, "fusion_lat": 0.0, "type": "electric_scooter", "name": "23f72a7d8764a8e515c92a34c602a912", "is_disabled": 0, "rental_uris": {"ios": "https://dc.lft.to/lastmile_qr_scan", "android": "https://dc.lft.to/lastmile_qr_scan"}, "is_reserved": 0}, {"lon": -77.033735, "bike_id": "97a972a4e8d5e62b5f5b0585d331de8b", "lat": 38.89965183333333, "fusion_lon": 0.0, "fusion_lat": 0.0, "type": "electric_scooter", "name": "97a972a4e8d5e62b5f5b0585d331de8b", "is_disabled": 0, "rental_uris": {"ios": "https://dc.lft.to/lastmile_qr_scan", "android": "https://dc.lft.to/lastmile_qr_scan"}, "is_reserved": 0}, {"lon": -77.05466116666666, "bike_id": "a9602394e287b8774f18813368f06462", "lat": 38.90437466666667, "fusion_lon": 0.0, "fusion_lat": 0.0, "type": "electric_scooter", "name": "a9602394e287b8774f18813368f06462", "is_disabled": 0, "rental_uris": {"ios": "https://dc.lft.to/lastmile_qr_scan", "android": "https://dc.lft.to/lastmile_qr_scan"}, "is_reserved": 0}, {"lon": -76.9723795, "bike_id": "7476e0a746fb1e4bf68b19055b44968d", "lat": 38.90344116666667, "fusion_lon": 0.0, "fusion_lat": 0.0, "type": "electric_scooter", "name": "7476e0a746fb1e4bf68b19055b44968d", "is_disabled": 0, "rental_uris": {"ios": "https://dc.lft.to/lastmile_qr_scan", "android": "https://dc.lft.to/lastmile_qr_scan"}, "is_reserved": 0}, {"lon": -77.075926, "bike_id": "8a8888bc5730415a0cd8f3db2a2a2fd6", "lat": 38.912163666666665, "fusion_lon": 0.0, "fusion_lat": 0.0, "type": "electric_scooter", "name": "8a8888bc5730415a0cd8f3db2a2a2fd6", "is_disabled": 0, "rental_uris": {"ios": "https://dc.lft.to/lastmile_qr_scan", "android": "https://dc.lft.to/lastmile_qr_scan"}, "is_reserved": 0}, {"lon": -76.9883585, "bike_id": "4f74c935afa170c121b5ed24c1c6f1f0", "lat": 38.8427385, "fusion_lon": 0.0, "fusion_lat": 0.0, "type": "electric_bike", "name": "4f74c935afa170c121b5ed24c1c6f1f0", "is_disabled": 0, "rental_uris": {"ios": "https://dc.lft.to/lastmile_qr_scan", "android": "https://dc.lft.to/lastmile_qr_scan"}, "is_reserved": 0}, {"lon": -77.03329716666667, "bike_id": "88266282e3cdc5b273c0151a8807e8bf", "lat": 38.9254915, "fusion_lon": 0.0, "fusion_lat": 0.0, "type": "electric_scooter", "name": "88266282e3cdc5b273c0151a8807e8bf", "is_disabled": 0, "rental_uris": {"ios": "https://dc.lft.to/lastmile_qr_scan", "android": "https://dc.lft.to/lastmile_qr_scan"}, "is_reserved": 0}, {"lon": -77.0328675, "bike_id": "e912dd682a7093bbd5d5f1a9ecdd6763", "lat": 38.93763933333334, "fusion_lon": 0.0, "fusion_lat": 0.0, "type": "electric_scooter", "name": "e912dd682a7093bbd5d5f1a9ecdd6763", "is_disabled": 0, "rental_uris": {"ios": "https://dc.lft.to/lastmile_qr_scan", "android": "https://dc.lft.to/lastmile_qr_scan"}, "is_reserved": 0}, {"lon": -76.99455633333334, "bike_id": "f08b7909e6cfd93dda3cedca6fa41181", "lat": 38.90367716666667, "fusion_lon": 0.0, "fusion_lat": 0.0, "type": "electric_scooter", "name": "f08b7909e6cfd93dda3cedca6fa41181", "is_disabled": 0, "rental_uris": {"ios": "https://dc.lft.to/lastmile_qr_scan", "android": "https://dc.lft.to/lastmile_qr_scan"}, "is_reserved": 0}, {"lon": -77.07236916666666, "bike_id": "f05c5af17a2374022028a047f4d45339", "lat": 38.898874, "fusion_lon": 0.0, "fusion_lat": 0.0, "type": "electric_scooter", "name": "f05c5af17a2374022028a047f4d45339", "is_disabled": 0, "rental_uris": {"ios": "https://dc.lft.to/lastmile_qr_scan", "android": "https://dc.lft.to/lastmile_qr_scan"}, "is_reserved": 0}, {"lon": -76.985249, "bike_id": "a52aaf2f6a86b4cc3e253d746a839748", "lat": 38.86686516666666, "fusion_lon": 0.0, "fusion_lat": 0.0, "type": "electric_scooter", "name": "a52aaf2f6a86b4cc3e253d746a839748", "is_disabled": 0, "rental_uris": {"ios": "https://dc.lft.to/lastmile_qr_scan", "android": "https://dc.lft.to/lastmile_qr_scan"}, "is_reserved": 0}, {"lon": -77.038705, "bike_id": "5f90a1a01002adb64fe057a41037a14e", "lat": 38.9126935, "fusion_lon": 0.0, "fusion_lat": 0.0, "type": "electric_scooter", "name": "5f90a1a01002adb64fe057a41037a14e", "is_disabled": 0, "rental_uris": {"ios": "https://dc.lft.to/lastmile_qr_scan", "android": "https://dc.lft.to/lastmile_qr_scan"}, "is_reserved": 0}, {"lon": -77.01460083333333, "bike_id": "a1a746a8c5318cab55c0037ea30c299c", "lat": 38.9192575, "fusion_lon": 0.0, "fusion_lat": 0.0, "type": "electric_scooter", "name": "a1a746a8c5318cab55c0037ea30c299c", "is_disabled": 0, "rental_uris": {"ios": "https://dc.lft.to/lastmile_qr_scan", "android": "https://dc.lft.to/lastmile_qr_scan"}, "is_reserved": 0}, {"lon": -77.03220666666667, "bike_id": "5213c4bdcd442d69788fff5ed23c4ada", "lat": 38.8922315, "fusion_lon": 0.0, "fusion_lat": 0.0, "type": "electric_scooter", "name": "5213c4bdcd442d69788fff5ed23c4ada", "is_disabled": 0, "rental_uris": {"ios": "https://dc.lft.to/lastmile_qr_scan", "android": "https://dc.lft.to/lastmile_qr_scan"}, "is_reserved": 0}, {"lon": -77.02809816666667, "bike_id": "6720a29560ac8598f48cd74b17dc6ba1", "lat": 38.91424583333333, "fusion_lon": 0.0, "fusion_lat": 0.0, "type": "electric_scooter", "name": "6720a29560ac8598f48cd74b17dc6ba1", "is_disabled": 0, "rental_uris": {"ios": "https://dc.lft.to/lastmile_qr_scan", "android": "https://dc.lft.to/lastmile_qr_scan"}, "is_reserved": 0}, {"lon": -77.03347083333334, "bike_id": "0ef376cba9acd41c964afb01c038fb9a", "lat": 38.892426, "fusion_lon": 0.0, "fusion_lat": 0.0, "type": "electric_scooter", "name": "0ef376cba9acd41c964afb01c038fb9a", "is_disabled": 0, "rental_uris": {"ios": "https://dc.lft.to/lastmile_qr_scan", "android": "https://dc.lft.to/lastmile_qr_scan"}, "is_reserved": 0}, {"lon": -77.02172566666667, "bike_id": "8b959363efb072349cc32f1eab00b4b8", "lat": 38.908505166666664, "fusion_lon": 0.0, "fusion_lat": 0.0, "type": "electric_scooter", "name": "8b959363efb072349cc32f1eab00b4b8", "is_disabled": 0, "rental_uris": {"ios": "https://dc.lft.to/lastmile_qr_scan", "android": "https://dc.lft.to/lastmile_qr_scan"}, "is_reserved": 0}, {"lon": -77.04160433333334, "bike_id": "ab02721aefb60db4b75e285a51e52996", "lat": 38.912496, "fusion_lon": 0.0, "fusion_lat": 0.0, "type": "electric_scooter", "name": "ab02721aefb60db4b75e285a51e52996", "is_disabled": 0, "rental_uris": {"ios": "https://dc.lft.to/lastmile_qr_scan", "android": "https://dc.lft.to/lastmile_qr_scan"}, "is_reserved": 0},