{"data": {"bikes": [{"bike_id": "95f62b0c49c0cce70b6fcc0e62c84b0c", "is_reserved": 0, "fusion_lon": 0.0, "lat": 38.89845366666667, "is_disabled": 0, "name": "95f62b0c49c0cce70b6fcc0e62c84b0c", "fusion_lat": 0.0, "rental_uris": {"ios": "https://dc.lft.to/lastmile_qr_scan", "android": "https://dc.lft.to/lastmile_qr_scan"}, "lon": -77.00739616666667, "type": "electric_scooter"}, {"bike_id": "9f0653356d7de2a4c6c2a8431568debc", "is_reserved": 0, "fusion_lon": 0.0, "lat": 38.903457833333334, "is_disabled": 0, "name": "9f0653356d7de2a4c6c2a8431568debc", "fusion_lat": 0.0, "rental_uris": {"ios": "https://dc.lft.to/lastmile_qr_scan", "android": "https://dc.lft.to/lastmile_qr_scan"}, "lon": -77.0664815, "type": "electric_scooter"}, {"bike_id": "7520e2c84237dbfe6513ed3ae86adf62", "is_reserved": 0, "fusion_lon": 0.0, "lat": 38.941695333333335, "is_disabled": 0, "name": "7520e2c84237dbfe6513ed3ae86adf62", "fusion_lat": 0.0, "rental_uris": {"ios": "https://dc.lft.to/lastmile_qr_scan", "android": "https://dc.lft.to/lastmile_qr_scan"}, "lon": -77.0412895, "type": "electric_scooter"}, {"bike_id": "37f9bb44a34063a4358b979ef9d504dd", "is_reserved": 0, "fusion_lon": 0.0, "lat": 38.892204, "is_disabled": 0, "name": "37f9bb44a34063a4358b979ef9d504dd", "fusion_lat": 0.0, "rental_uris": {"ios": "https://dc.lft.to/lastmile_qr_scan", "android": "https://dc.lft.to/lastmile_qr_scan"}, "lon": -77.04364233333334, "type": "electric_scooter"}, {"bike_id": "9577f7ba46772bcc6ac205e356415fbb", "is_reserved": 0, "fusion_lon": 0.0, "lat": 38.916910333333334, "is_disabled": 0, "name": "9577f7ba46772bcc6ac205e356415fbb", "fusion_lat": 0.0, "rental_uris": {"ios": "https://dc.lft.to/lastmile_qr_scan", "android": "https://dc.lft.to/lastmile_qr_scan"}, "lon": -77.01207966666666, "type": "electric_scooter"}, {"bike_id": "5bc076383393deed7eb9eb9fa541043c", "is_reserved": 0, "fusion_lon": 0.0, "lat": 38.95782966666667, "is_disabled": 0, "name": "5bc076383393deed7eb9eb9fa541043c", "fusion_lat": 0.0, "rental_uris": {"ios": "https://dc.lft.to/lastmile_qr_scan", "android": "https://dc.lft.to/lastmile_qr_scan"}, "lon": -76.97668933333334, "type": "electric_bike"}, {"bike_id": "1e336f55f11f9837f586ff5b80028607", "is_reserved": 0, "fusion_lon": 0.0, "lat": 38.86389, "is_disabled": 0, "name": "1e336f55f11f9837f586ff5b80028607", "fusion_lat": 0.0, "rental_uris": {"ios": "https://dc.lft.to/lastmile_qr_scan", "android": "https://dc.lft.to/lastmile_qr_scan"}, "lon": -76.98990266666667, "type": "electric_bike"}, {"bike_id": "f7dff9a6aebade2bfebf83a7b79f77c5", "is_reserved": 0, "fusion_lon": 0.0, "lat": 38.998191, "is_disabled": 0, "name": "f7dff9a6aebade2bfebf83a7b79f77c5", "fusion_lat": 0.0, "rental_uris": {"ios": "https://dc.lft.to/lastmile_qr_scan", "android": "https://dc.lft.to/lastmile_qr_scan"}, "lon": -76.88372633333333, "type": "electric_bike"}, {"bike_id": "4496bc57d56dede956b59453da46fa3d", "is_reserved": 0, "fusion_lon": 0.0, "lat": 38.8987625, "is_disabled": 0, "name": "4496bc57d56dede956b59453da46fa3d", "fusion_lat": 0.0, "rental_uris": {"ios": "https://dc.lft.to/lastmile_qr_scan", "android": "https://dc.lft.to/lastmile_qr_scan"}, "lon": -76.93158216666667, "type": "electric_scooter"}, {"bike_id": "c29303b5c00e590fe75387ff5845a513", "is_reserved": 0, "fusion_lon": 0.0, "lat": 38.90675933333333, "is_disabled": 0, "name": "c29303b5c00e590fe75387ff5845a513", "fusion_lat": 0.0, "rental_uris": {"ios": "https://dc.lft.to/lastmile_qr_scan", "android": "https://dc.lft.to/lastmile_qr_scan"}, "lon": -77.0627085, "type": "electric_bike"}, {"bike_id": "e3f899dbe9fcb7ed814432f269e4b271", "is_reserved": 0, "fusion_lon": 0.0, "lat": 38.928986333333334, "is_disabled": 0, "name": "e3f899dbe9fcb7ed814432f269e4b271", "fusion_lat": 0.0, "rental_uris": {"ios": "https://dc.lft.to/lastmile_qr_scan", "android": "https://dc.lft.to/lastmile_qr_scan"}, "lon": -77.05451733333334, "type": "electric_scooter"}, {"bike_id": "ce4c6487c2fa8866d51a87e0a10e1c4d", "is_reserved": 0, "fusion_lon": 0.0, "lat": 38.908629, "is_disabled": 0, "name": "ce4c6487c2fa8866d51a87e0a10e1c4d", "fusion_lat": 0.0, "rental_uris": {"ios": "https://dc.lft.to/lastmile_qr_scan", "android": "https://dc.lft.to/lastmile_qr_scan"}, "lon": -77.04499933333334, "type": "electric_scooter"}, {"bike_id": "c5cc6383960648dda59f02a2180f7d7a", "is_reserved": 0, "fusion_lon": 0.0, "lat": 38.92140833333333, "is_disabled": 0, "name": "c5cc6383960648dda59f02a2180f7d7a", "fusion_lat": 0.0, "rental_uris": {"ios": "https://dc.lft.to/lastmile_qr_scan", "android": "https://dc.lft.to/lastmile_qr_scan"}, "lon": -77.03485533333334, "type": "electric_scooter"}, {"bike_id": "bea203240f22182833a595ac71fb166b", "is_reserved": 0, "fusion_lon": 0.0, "lat": 38.903792833333334, "is_disabled": 0, "name": "bea203240f22182833a595ac71fb166b", "fusion_lat": 0.0, "rental_uris": {"ios": "https://dc.lft.to/lastmile_qr_scan", "android": "https://dc.lft.to/lastmile_qr_scan"}, "lon": -77.01097116666666, "type": "electric_scooter"}, {"bike_id": "9bf799fe16c1dc32b3d509b8a00f08d0", "is_reserved": 0, "fusion_lon": 0.0, "lat": 38.903272333333334, "is_disabled": 0, "name": "9bf799fe16c1dc32b3d509b8a00f08d0", "fusion_lat": 0.0, "rental_uris": {"ios": "https://dc.lft.to/lastmile_qr_scan", "android": "https://dc.lft.to/lastmile_qr_scan"}, "lon": -77.03331083333333, "type": "electric_scooter"}, {"bike_id": "4f190dada47e78af4a4459b75f62e6c5", "is_reserved": 0, "fusion_lon": 0.0, "lat": 38.88489383333334, "is_disabled": 0, "name": "4f190dada47e78af4a4459b75f62e6c5", "fusion_lat": 0.0, "rental_uris": {"ios": "https://dc.lft.to/lastmile_qr_scan", "android": "https://dc.lft.to/lastmile_qr_scan"}, "lon": -77.0072575, "type": "electric_scooter"}, {"bike_id": "6f1b15b06e822bc136ef05fbc14c0257", "is_reserved": 0, "fusion_lon": 0.0, "lat": 38.839323666666665, "is_disabled": 0, "name": "6f1b15b06e822bc136ef05fbc14c0257", "fusion_lat": 0.0, "rental_uris": {"ios": "https://dc.lft.to/lastmile_qr_scan", "android": "https://dc.lft.to/lastmile_qr_scan"}, "lon": -77.07898483333334, "type": "electric_bike"}, {"bike_id": "21e28198fba56f9c881df4f5382f8f11", "is_reserved": 0, "fusion_lon": 0.0, "lat": 38.903717666666665, "is_disabled": 0, "name": "21e28198fba56f9c881df4f5382f8f11", "fusion_lat": 0.0, "rental_uris": {"ios": "https://dc.lft.to/lastmile_qr_scan", "android": "https://dc.lft.to/lastmile_qr_scan"}, "lon": -77.03192816666666, "type": "electric_scooter"}, {"bike_id": "4c53af1450daff7f658da18c4ed03242", "is_reserved": 0, "fusion_lon": 0.0, "lat": 38.872837, "is_disabled": 0, "name": "4c53af1450daff7f658da18c4ed03242", "fusion_lat": 0.0, "rental_uris": {"ios": "https://dc.lft.to/lastmile_qr_scan", "android": "https://dc.lft.to/lastmile_qr_scan"}, "lon": -76.9772945, "type": "electric_scooter"}, {"bike_id": "1df79603df522089c0a88c37f4d29cec", "is_reserved": 0, "fusion_lon": 0.0, "lat": 38.898268, "is_disabled": 0, "name": "1df79603df522089c0a88c37f4d29cec", "fusion_lat": 0.0, "rental_uris": {"ios": "https://dc.lft.to/lastmile_qr_scan", "android": "https://dc.lft.to/lastmile_qr_scan"}, "lon": -77.0334895, "type": "electric_scooter"}, {"bike_id": "2a414de04f22d633c179d4284fc4ac21", "is_reserved": 0, "fusion_lon": 0.0, "lat": 38.917197333333334, "is_disabled": 0, "name": "2a414de04f22d633c179d4284fc4ac21", "fusion_lat": 0.0, "rental_uris": {"ios": "https://dc.lft.to/lastmile_qr_scan", "android": "https://dc.lft.to/lastmile_qr_scan"}, "lon": -77.03177516666666, "type": "electric_scooter"}, {"bike_id": "2a36cc36f1bffbf7fd34af7370055321", "is_reserved": 0, "fusion_lon": 0.0, "lat": 38.84273483333333, "is_disabled": 0, "name": "2a36cc36f1bffbf7fd34af7370055321", "fusion_lat": 0.0, "rental_uris": {"ios": "https://dc.lft.to/lastmile_qr_scan", "android": "https://dc.lft.to/lastmile_qr_scan"}, "lon": -76.98842533333334, "type": "electric_bike"}, {"bike_id": "97250db39d514027057c13cda3c5aaf0", "is_reserved": 0, "fusion_lon": 0.0, "lat": 38.892247833333336, "is_disabled": 0, "name": "97250db39d514027057c13cda3c5aaf0", "fusion_lat": 0.0, "rental_uris": {"ios": "https://dc.lft.to/lastmile_qr_scan", "android": "https://dc.lft.to/lastmile_qr_scan"}, "lon": -77.02206033333333, "type": "electric_scooter"}, {"bike_id": "b05bd98e6d959f1c0902b2f84a5e4606", "is_reserved": 0, "fusion_lon": 0.0, "lat": 38.89821833333333, "is_disabled": 0, "name": "b05bd98e6d959f1c0902b2f84a5e4606", "fusion_lat": 0.0, "rental_uris": {"ios": "https://dc.lft.to/lastmile_qr_scan", "android": "https://dc.lft.to/lastmile_qr_scan"}, "lon": -77.03314683333333, "type": "electric_scooter"}, {"bike_id": "873d77ee526315fd3533d3627cef5c98", "is_reserved": 0, "fusion_lon": 0.0, "lat": 38.90248716666667, "is_disabled": 0, "name": "873d77ee526315fd3533d3627cef5c98", "fusion_lat": 0.0, "rental_uris": {"ios": "https://dc.lft.to/lastmile_qr_scan", "android": "https://dc.lft.to/lastmile_qr_scan"}, "lon": -77.0300355, "type": "electric_scooter"}, {"bike_id": "75cc8b0c6a953502f9f6cec682ff6d7c", "is_reserved": 0, "fusion_lon": 0.0, "lat": 38.948274833333336, "is_disabled": 0, "name": "75cc8b0c6a953502f9f6cec682ff6d7c", "fusion_lat": 0.0, "rental_uris": {"ios": "https://dc.lft.to/lastmile_qr_scan", "android": "https://dc.lft.to/lastmile_qr_scan"}, "lon": -77.02432033333334, "type": "electric_scooter"}, {"bike_id": "2e98116bb214619f3814ef61853f92ea", "is_reserved": 0, "fusion_lon": 0.0, "lat": 38.907204, "is_disabled": 0, "name": "2e98116bb214619f3814ef61853f92ea", "fusion_lat": 0.0, "rental_uris": {"ios": "https://dc.lft.to/lastmile_qr_scan", "android": "https://dc.lft.to/lastmile_qr_scan"}, "lon": -77.03916616666666, "type": "electric_scooter"}, {"bike_id": "e27bc508221eb3741bd18e5a2026d9bc", "is_reserved": 0, "fusion_lon": 0.0, "lat": 38.9213185, "is_disabled": 0, "name": "e27bc508221eb3741bd18e5a2026d9bc", "fusion_lat": 0.0, "rental_uris": {"ios": "https://dc.lft.to/lastmile_qr_scan", "android": "https://dc.lft.to/lastmile_qr_scan"}, "lon": -77.04576016666667, "type": "electric_scooter"}, {"bike_id": "9047f91aab78e6b765e55568abe94f2a", "is_reserved": 0, "fusion_lon": 0.0, "lat": 38.90390033333333, "is_disabled": 0, "name": "9047f91aab78e6b765e55568abe94f2a", "fusion_lat": 0.0, "rental_uris": {"ios": "https://dc.lft.to/lastmile_qr_scan", "android": "https://dc.lft.to/lastmile_qr_scan"}, "lon": -77.04051566666666, "type": "electric_scooter"}, {"bike_id": "d955de3cae7a94d86df4aaa8c884f0fa", "is_reserved": 0, "fusion_lon": 0.0, "lat": 38.923656666666666, "is_disabled": 0, "name": "d955de3cae7a94d86df4aaa8c884f0fa", "fusion_lat": 0.0, "rental_uris": {"ios": "https://dc.lft.to/lastmile_qr_scan", "android": "https://dc.lft.to/lastmile_qr_scan"}, "lon": -77.05228616666666, "type": "electric_scooter"}, {"bike_id": "35406e6463499d7fb5991f50dff0a232", "is_reserved": 0, "fusion_lon": 0.0, "lat": 38.92850983333334, "is_disabled": 0, "name": "35406e6463499d7fb5991f50dff0a232", "fusion_lat": 0.0, "rental_uris": {"ios": "https://dc.lft.to/lastmile_qr_scan", "android": "https://dc.lft.to/lastmile_qr_scan"}, "lon": -77.10678316666667, "type": "electric_bike"}, {"bike_id": "4c7179047bd079abcbc75f4bd3aa9058", "is_reserved": 0, "fusion_lon": 0.0, "lat": 38.89531783333334, "is_disabled": 0, "name": "4c7179047bd079abcbc75f4bd3aa9058", "fusion_lat": 0.0, "rental_uris": {"ios": "https://dc.lft.to/lastmile_qr_scan", "android": "https://dc.lft.to/lastmile_qr_scan"}, "lon": -76.948877, "type": "electric_scooter"}, {"bike_id": "71a166a7b14199c8f8d2b86072b34d49", "is_reserved": 0, "fusion_lon": 0.0, "lat": 38.92402933333334, "is_disabled": 0, "name": "71a166a7b14199c8f8d2b86072b34d49", "fusion_lat": 0.0, "rental_uris": {"ios": "https://dc.lft.to/lastmile_qr_scan", "android": "https://dc.lft.to/lastmile_qr_scan"}, "lon": -77.05258366666666, "type": "electric_scooter"}, {"bike_id": "d9d7258c71dcceb7ac3ec0c22f6dffc8", "is_reserved": 0, "fusion_lon": 0.0, "lat": 38.9061655, "is_disabled": 0, "name": "d9d7258c71dcceb7ac3ec0c22f6dffc8", "fusion_lat": 0.0, "rental_uris": {"ios": "https://dc.lft.to/lastmile_qr_scan", "android": "https://dc.lft.to/lastmile_qr_scan"}, "lon": -77.06519433333334, "type": "electric_scooter"}, {"bike_id": "e60a6801400c70ce0b41a6158b049172", "is_reserved": 0, "fusion_lon": 0.0, "lat": 38.88365966666667, "is_disabled": 0, "name": "e60a6801400c70ce0b41a6158b049172", "fusion_lat": 0.0, "rental_uris": {"ios": "https://dc.lft.to/lastmile_qr_scan", "android": "https://dc.lft.to/lastmile_qr_scan"}, "lon": -77.02477716666667, "type": "electric_scooter"}, {"bike_id": "9930456ca10b3d6296d3b457b4c16608", "is_reserved": 0, "fusion_lon": 0.0, "lat": 38.92562, "is_disabled": 0, "name": "9930456ca10b3d6296d3b457b4c16608", "fusion_lat": 0.0, "rental_uris": {"ios": "https://dc.lft.to/lastmile_qr_scan", "android": "https://dc.lft.to/lastmile_qr_scan"}, "lon": -77.0405075, "type": "electric_scooter"}, {"bike_id": "893bfffc6d0487301b218f1dcd053e7e", "is_reserved": 0, "fusion_lon": 0.0, "lat": 38.88766866666667, "is_disabled": 0, "name": "893bfffc6d0487301b218f1dcd053e7e", "fusion_lat": 0.0, "rental_uris": {"ios": "https://dc.lft.to/lastmile_qr_scan", "android": "https://dc.lft.to/lastmile_qr_scan"}, "lon": -77.03016483333333, "type": "electric_scooter"}, {"bike_id": "3a0f653f9fd212fc8448bff77106b14d", "is_reserved": 0, "fusion_lon": 0.0, "lat": 38.9153285, "is_disabled": 0, "name": "3a0f653f9fd212fc8448bff77106b14d", "fusion_lat": 0.0, "rental_uris": {"ios": "https://dc.lft.to/lastmile_qr_scan", "android": "https://dc.lft.to/lastmile_qr_scan"}, "lon": -77.044679, "type": "electric_scooter"}, {"bike_id": "60870ccb8bae7c6d22a7e72ff3c3c336", "is_reserved": 0, "fusion_lon": 0.0, "lat": 38.922864833333335, "is_disabled": 0, "name": "60870ccb8bae7c6d22a7e72ff3c3c336", "fusion_lat": 0.0, "rental_uris": {"ios": "https://dc.lft.to/lastmile_qr_scan", "android": "https://dc.lft.to/lastmile_qr_scan"}, "lon": -77.036585, "type": "electric_scooter"}, {"bike_id": "84a5bc72d7bcf14905253ef83a38b36b", "is_reserved": 0, "fusion_lon": 0.0, "lat": 38.9092255, "is_disabled": 0, "name": "84a5bc72d7bcf14905253ef83a38b36b", "fusion_lat": 0.0, "rental_uris": {"ios": "https://dc.lft.to/lastmile_qr_scan", "android": "https://dc.lft.to/lastmile_qr_scan"}, "lon": -77.08007633333334, "type": "electric_scooter"}, {"bike_id": "dab76512fba4533ca14776c4ea4fdc51", "is_reserved": 0, "fusion_lon": 0.0, "lat": 38.920238, "is_disabled": 0, "name": "dab76512fba4533ca14776c4ea4fdc51", "fusion_lat": 0.0, "rental_uris": {"ios": "https://dc.lft.to/lastmile_qr_scan", "android": "https://dc.lft.to/lastmile_qr_scan"}, "lon": -77.0279795, "type": "electric_scooter"}, {"bike_id": "6a416a21495f87a5a11e3d30b10a45d7", "is_reserved": 0, "fusion_lon": 0.0, "lat": 38.9044175, "is_disabled": 0, "name": "6a416a21495f87a5a11e3d30b10a45d7", "fusion_lat": 0.0, "rental_uris": {"ios": "https://dc.lft.to/lastmile_qr_scan", "android": "https://dc.lft.to/lastmile_qr_scan"}, "lon": -76.98876766666666, "type": "electric_scooter"}, {"bike_id": "b69b172cc6eceb1c8bfb83f753c5a727", "is_reserved": 0, "fusion_lon": 0.0, "lat": 38.899989, "is_disabled": 0, "name": "b69b172cc6eceb1c8bfb83f753c5a727", "fusion_lat": 0.0, "rental_uris": {"ios": "https://dc.lft.to/lastmile_qr_scan", "android": "https://dc.lft.to/lastmile_qr_scan"}, "lon": -77.02706216666667, "type": "electric_scooter"}, {"bike_id": "1f709584be2b3fec5867005a043af333", "is_reserved": 0, "fusion_lon": 0.0, "lat": 38.90857666666667, "is_disabled": 0, "name": "1f709584be2b3fec5867005a043af333", "fusion_lat": 0.0, "rental_uris": {"ios": "https://dc.lft.to/lastmile_qr_scan", "android": "https://dc.lft.to/lastmile_qr_scan"}, "lon": -77.02729483333333, "type": "electric_scooter"}, {"bike_id": "449a40a1c867fbd8a8419f51e618a265", "is_reserved": 0, "fusion_lon": 0.0, "lat": 38.892188, "is_disabled": 0, "name": "449a40a1c867fbd8a8419f51e618a265", "fusion_lat": 0.0, "rental_uris": {"ios": "https://dc.lft.to/lastmile_qr_scan", "android": "https://dc.lft.to/lastmile_qr_scan"}, "lon": -77.10780983333333, "type": "electric_bike"}, {"bike_id": "ed2bfdecae04048e5b0903d101f771fe", "is_reserved": 0, "fusion_lon": 0.0, "lat": 38.91481616666667, "is_disabled": 0, "name": "ed2bfdecae04048e5b0903d101f771fe", "fusion_lat": 0.0, "rental_uris": {"ios": "https://dc.lft.to/lastmile_qr_scan", "android": "https://dc.lft.to/lastmile_qr_scan"}, "lon": -77.02172933333334, "type": "electric_scooter"}, {"bike_id": "6c8d2f3c3e86098f2f6efa9cf0381d09", "is_reserved": 0, "fusion_lon": 0.0, "lat": 38.89227016666667, "is_disabled": 0, "name": "6c8d2f3c3e86098f2f6efa9cf0381d09", "fusion_lat": 0.0, "rental_uris": {"ios": "https://dc.lft.to/lastmile_qr_scan", "android": "https://dc.lft.to/lastmile_qr_scan"}, "lon": -77.0220495, "type": "electric_scooter"}, {"bike_id": "70d079eb3312e292f0f4f510fd04aba3", "is_reserved": 0, "fusion_lon": 0.0, "lat": 38.903644166666666, "is_disabled": 0, "name": "70d079eb3312e292f0f4f510fd04aba3", "fusion_lat": 0.0, "rental_uris": {"ios": "https://dc.lft.to/lastmile_qr_scan", "android": "https://dc.lft.to/lastmile_qr_scan"}, "lon": -77.03757633333333, "type": "electric_scooter"}, {"bike_id": "5b80308bedecf8ba07ea3a649ef37000", "is_reserved": 0, "fusion_lon": 0.0, "lat": 38.9126565, "is_disabled": 0, "name": "5b80308bedecf8ba07ea3a649ef37000", "fusion_lat": 0.0, "rental_uris": {"ios": "https://dc.lft.to/lastmile_qr_scan", "android": "https://dc.lft.to/lastmile_qr_scan"}, "lon": -77.0256275, "type": "electric_scooter"}, {"bike_id": "8382fe9c3ea7cbd24caf9a4e4863d9f3", "is_reserved": 0, "fusion_lon": 0.0, "lat": 38.916742, "is_disabled": 0, "name": "8382fe9c3ea7cbd24caf9a4e4863d9f3", "fusion_lat": 0.0, "rental_uris": {"ios": "https://dc.lft.to/lastmile_qr_scan", "android": "https://dc.lft.to/lastmile_qr_scan"}, "lon": -77.02383133333333, "type": "electric_scooter"}, {"bike_id": "95f81278fbb3bd3b53bb9303c6cfbb3d", "is_reserved": 0, "fusion_lon": 0.0, "lat": 38.892158333333334, "is_disabled": 0, "name": "95f81278fbb3bd3b53bb9303c6cfbb3d", "fusion_lat": 0.0, "rental_uris": {"ios": "https://dc.lft.to/lastmile_qr_scan", "android": "https://dc.lft.to/lastmile_qr_scan"}, "lon": -77.03217583333333, "type": "electric_scooter"}, {"bike_id": "77d1b7cf3d099b2435c7115d9a11d49e", "is_reserved": 0, "fusion_lon": 0.0, "lat": 38.89715616666667, "is_disabled": 0, "name": "77d1b7cf3d099b2435c7115d9a11d49e", "fusion_lat": 0.0, "rental_uris": {"ios": "https://dc.lft.to/lastmile_qr_scan", "android": "https://dc.lft.to/lastmile_qr_scan"}, "lon": -77.04884733333333, "type": "electric_scooter"}, {"bike_id": "675daa61734da12e4e6a2aace5fea5ce", "is_reserved": 0, "fusion_lon": 0.0, "lat": 38.906436166666666, "is_disabled": 0, "name": "675daa61734da12e4e6a2aace5fea5ce", "fusion_lat": 0.0, "rental_uris": {"ios": "https://dc.lft.to/lastmile_qr_scan", "android": "https://dc.lft.to/lastmile_qr_scan"}, "lon": -77.046581, "type": "electric_scooter"}, {"bike_id": "c6d894b57e399b85773d1b0358620c76", "is_reserved": 0, "fusion_lon": 0.0, "lat": 38.923665666666665, "is_disabled": 0, "name": "c6d894b57e399b85773d1b0358620c76", "fusion_lat": 0.0, "rental_uris": {"ios": "https://dc.lft.to/lastmile_qr_scan", "android": "https://dc.lft.to/lastmile_qr_scan"}, "lon": -77.041325, "type": "electric_scooter"}, {"bike_id": "e9427ae063e09e2270b672968c2d9256", "is_reserved": 0, "fusion_lon": 0.0, "lat": 38.88027116666667, "is_disabled": 0, "name": "e9427ae063e09e2270b672968c2d9256", "fusion_lat": 0.0, "rental_uris": {"ios": "https://dc.lft.to/lastmile_qr_scan", "android": "https://dc.lft.to/lastmile_qr_scan"}, "lon": -77.00241016666666, "type": "electric_scooter"}, {"bike_id": "054436c2d13651b10f727e19c3194cab", "is_reserved": 0, "fusion_lon": 0.0, "lat": 38.892271, "is_disabled": 0, "name": "054436c2d13651b10f727e19c3194cab", "fusion_lat": 0.0, "rental_uris": {"ios": "https://dc.lft.to/lastmile_qr_scan", "android": "https://dc.lft.to/lastmile_qr_scan"}, "lon": -77.02176783333333, "type": "electric_scooter"}, {"bike_id": "16a8b4fa76cba9ac1e899e8064760ea0", "is_reserved": 0, "fusion_lon": 0.0, "lat": 38.89623383333333, "is_disabled": 0, "name": "16a8b4fa76cba9ac1e899e8064760ea0", "fusion_lat": 0.0, "rental_uris": {"ios": "https://dc.lft.to/lastmile_qr_scan", "android": "https://dc.lft.to/lastmile_qr_scan"}, "lon": -76.99850766666667, "type": "electric_scooter"}, {"bike_id": "19422f1f45d073504a8a25b50f45ab27", "is_reserved": 0, "fusion_lon": 0.0, "lat": 38.88434, "is_disabled": 0, "name": "19422f1f45d073504a8a25b50f45ab27", "fusion_lat": 0.0, "rental_uris": {"ios": "https://dc.lft.to/lastmile_qr_scan", "android": "https://dc.lft.to/lastmile_qr_scan"}, "lon": -77.02599716666667, "type": "electric_scooter"}, {"bike_id": "322b6c867c8da5c35d078bc4db50b0a5", "is_reserved": 0, "fusion_lon": 0.0, "lat": 38.917150166666666, "is_disabled": 0, "name": "322b6c867c8da5c35d078bc4db50b0a5", "fusion_lat": 0.0, "rental_uris": {"ios": "https://dc.lft.to/lastmile_qr_scan", "android": "https://dc.lft.to/lastmile_qr_scan"}, "lon": -77.03192383333334, "type": "electric_scooter"}, {"bike_id": "d9ac2aa971d71921cc0fa18e19811285", "is_reserved": 0, "fusion_lon": 0.0, "lat": 38.86827366666667, "is_disabled": 0, "name": "d9ac2aa971d71921cc0fa18e19811285", "fusion_lat": 0.0, "rental_uris": {"ios": "https://dc.lft.to/lastmile_qr_scan", "android": "https://dc.lft.to/lastmile_qr_scan"}, "lon": -76.986112, "type": "electric_scooter"}, {"bike_id": "a27a5fb5f71a3fcdeea10201e1700071", "is_reserved": 0, "fusion_lon": 0.0, "lat": 38.8953105, "is_disabled": 0, "name": "a27a5fb5f71a3fcdeea10201e1700071", "fusion_lat": 0.0, "rental_uris": {"ios": "https://dc.lft.to/lastmile_qr_scan", "android": "https://dc.lft.to/lastmile_qr_scan"}, "lon": -77.03350416666666, "type": "electric_scooter"}, {"bike_id": "3565d577b788ba6d10203fb30936d66f", "is_reserved": 0, "fusion_lon": 0.0, "lat": 38.945411666666665, "is_disabled": 0, "name": "3565d577b788ba6d10203fb30936d66f", "fusion_lat": 0.0, "rental_uris": {"ios": "https://dc.lft.to/lastmile_qr_scan", "android": "https://dc.lft.to/lastmile_qr_scan"}, "lon": -77.022145, "type": "electric_scooter"}, {"bike_id": "98f053fe6ce8e1849fae54a4488daecb", "is_reserved": 0, "fusion_lon": 0.0, "lat": 39.0563515, "is_disabled": 0, "name": "98f053fe6ce8e1849fae54a4488daecb", "fusion_lat": 0.0, "rental_uris": {"ios": "https://dc.lft.to/lastmile_qr_scan", "android": "https://dc.lft.to/lastmile_qr_scan"}, "lon": -77.12527133333333, "type": "electric_bike"}, {"bike_id": "fc451020cb8542b75f21febf76e95748", "is_reserved": 0, "fusion_lon": 0.0, "lat": 38.90645716666667, "is_disabled": 0, "name": "fc451020cb8542b75f21febf76e95748", "fusion_lat": 0.0, "rental_uris": {"ios": "https://dc.lft.to/lastmile_qr_scan", "android": "https://dc.lft.to/lastmile_qr_scan"}, "lon": -77.01139516666667, "type": "electric_scooter"}, {"bike_id": "994ca939299b77699aee4851363519c3", "is_reserved": 0, "fusion_lon": 0.0, "lat": 38.90856983333333, "is_disabled": 0, "name": "994ca939299b77699aee4851363519c3", "fusion_lat": 0.0, "rental_uris": {"ios": "https://dc.lft.to/lastmile_qr_scan", "android": "https://dc.lft.to/lastmile_qr_scan"}, "lon": -77.04290866666666, "type": "electric_scooter"}, {"bike_id": "bdc26f012a26436e8ae9f79cd136f73a", "is_reserved": 0, "fusion_lon": 0.0, "lat": 39.01591466666667, "is_disabled": 0, "name": "bdc26f012a26436e8ae9f79cd136f73a", "fusion_lat": 0.0, "rental_uris": {"ios": "https://dc.lft.to/lastmile_qr_scan", "android": "https://dc.lft.to/lastmile_qr_scan"}, "lon": -77.04425733333333, "type": "electric_bike"}, {"bike_id": "70bd7ffc0339547e29dbb368863281cd", "is_reserved": 0, "fusion_lon": 0.0, "lat": 38.922633, "is_disabled": 0, "name": "70bd7ffc0339547e29dbb368863281cd", "fusion_lat": 0.0, "rental_uris": {"ios": "https://dc.lft.to/lastmile_qr_scan", "android": "https://dc.lft.to/lastmile_qr_scan"}, "lon": -77.04209733333333, "type": "electric_scooter"}, {"bike_id": "1e6e7adf75a0c62c26ad97cb7d3df25f", "is_reserved": 0, "fusion_lon": 0.0, "lat": 38.900795333333335, "is_disabled": 0, "name": "1e6e7adf75a0c62c26ad97cb7d3df25f", "fusion_lat": 0.0, "rental_uris": {"ios": "https://dc.lft.to/lastmile_qr_scan", "android": "https://dc.lft.to/lastmile_qr_scan"}, "lon": -77.0476615, "type": "electric_scooter"}, {"bike_id": "c30e6b27f9aaec05a11bc7452c38b68e", "is_reserved": 0, "fusion_lon": 0.0, "lat": 38.887466833333335, "is_disabled": 0, "name": "c30e6b27f9aaec05a11bc7452c38b68e", "fusion_lat": 0.0, "rental_uris": {"ios": "https://dc.lft.to/lastmile_qr_scan", "android": "https://dc.lft.to/lastmile_qr_scan"}, "lon": -77.02570766666666, "type": "electric_scooter"}, {"bike_id": "ad4bad588968c54cdd089f6c2910aec7", "is_reserved": 0, "fusion_lon": 0.0, "lat": 38.90296416666666, "is_disabled": 0, "name": "ad4bad588968c54cdd089f6c2910aec7", "fusion_lat": 0.0, "rental_uris": {"ios": "https://dc.lft.to/lastmile_qr_scan", "android": "https://dc.lft.to/lastmile_qr_scan"}, "lon": -76.944417, "type": "electric_bike"}, {"bike_id": "e0ee03bf453e0ef1debb1dba79a5b488", "is_reserved": 0, "fusion_lon": 0.0, "lat": 38.87499233333333, "is_disabled": 0, "name": "e0ee03bf453e0ef1debb1dba79a5b488", "fusion_lat": 0.0, "rental_uris": {"ios": "https://dc.lft.to/lastmile_qr_scan", "android": "https://dc.lft.to/lastmile_qr_scan"}, "lon": -77.02584816666666, "type": "electric_bike"}, {"bike_id": "b90f30ac539e7883d5712e1adfc0c318", "is_reserved": 0, "fusion_lon": 0.0, "lat": 38.906622, "is_disabled": 0, "name": "b90f30ac539e7883d5712e1adfc0c318", "fusion_lat": 0.0, "rental_uris": {"ios": "https://dc.lft.to/lastmile_qr_scan", "android": "https://dc.lft.to/lastmile_qr_scan"}, "lon": -77.03862083333334, "type": "electric_scooter"}, {"bike_id": "d4a5492aa9e2ed1ebe5b19cae20d8892", "is_reserved": 0, "fusion_lon": 0.0, "lat": 38.92068833333333, "is_disabled": 0, "name": "d4a5492aa9e2ed1ebe5b19cae20d8892", "fusion_lat": 0.0, "rental_uris": {"ios": "https://dc.lft.to/lastmile_qr_scan", "android": "https://dc.lft.to/lastmile_qr_scan"}, "lon": -77.03464883333334, "type": "electric_scooter"}, {"bike_id": "7c255cbf093e7c43e58dbdf3267fc563", "is_reserved": 0, "fusion_lon": 0.0, "lat": 38.938909333333335, "is_disabled": 0, "name": "7c255cbf093e7c43e58dbdf3267fc563", "fusion_lat": 0.0, "rental_uris": {"ios": "https://dc.lft.to/lastmile_qr_scan", "android": "https://dc.lft.to/lastmile_qr_scan"}, "lon": -77.029616, "type": "electric_scooter"}, {"bike_id": "ca8e3c9a64057e8d03707731007f914a", "is_reserved": 0, "fusion_lon": 0.0, "lat": 38.92240016666667, "is_disabled": 0, "name": "ca8e3c9a64057e8d03707731007f914a", "fusion_lat": 0.0, "rental_uris": {"ios": "https://dc.lft.to/lastmile_qr_scan", "android": "https://dc.lft.to/lastmile_qr_scan"}, "lon": -77.0308005, "type": "electric_scooter"}, {"bike_id": "d3a3f1e19debdc5465095a48ea1bb9cb", "is_reserved": 0, "fusion_lon": 0.0, "lat": 38.906636166666665, "is_disabled": 0, "name": "d3a3f1e19debdc5465095a48ea1bb9cb", "fusion_lat": 0.0, "rental_uris": {"ios": "https://dc.lft.to/lastmile_qr_scan", "android": "https://dc.lft.to/lastmile_qr_scan"}, "lon": -77.03865183333333, "type": "electric_scooter"}, {"bike_id": "7bf191a5d2dcdcd33f7c9805685801ee", "is_reserved": 0, "fusion_lon": 0.0, "lat": 38.92389, "is_disabled": 0, "name": "7bf191a5d2dcdcd33f7c9805685801ee", "fusion_lat": 0.0, "rental_uris": {"ios": "https://dc.lft.to/lastmile_qr_scan", "android": "https://dc.lft.to/lastmile_qr_scan"}, "lon": -77.03543433333333, "type": "electric_scooter"}, {"bike_id": "ffaa972e9e0b71c9bbc2487d91729c03", "is_reserved": 0, "fusion_lon": 0.0, "lat": 38.928498, "is_disabled": 0, "name": "ffaa972e9e0b71c9bbc2487d91729c03", "fusion_lat": 0.0, "rental_uris": {"ios": "https://dc.lft.to/lastmile_qr_scan", "android": "https://dc.lft.to/lastmile_qr_scan"}, "lon": -77.05424216666667, "type": "electric_scooter"}, {"bike_id": "7f38f7878dbbbdeacb544a632c4cbfa0", "is_reserved": 0, "fusion_lon": 0.0, "lat": 38.8616545, "is_disabled": 0, "name": "7f38f7878dbbbdeacb544a632c4cbfa0", "fusion_lat": 0.0, "rental_uris": {"ios": "https://dc.lft.to/lastmile_qr_scan", "android": "https://dc.lft.to/lastmile_qr_scan"}, "lon": -76.95063166666667, "type": "electric_bike"}, {"bike_id": "5e018cb3c8b704e68277fbee8c63b1f6", "is_reserved": 0, "fusion_lon": 0.0, "lat": 38.90455516666667, "is_disabled": 0, "name": "5e018cb3c8b704e68277fbee8c63b1f6", "fusion_lat": 0.0, "rental_uris": {"ios": "https://dc.lft.to/lastmile_qr_scan", "android": "https://dc.lft.to/lastmile_qr_scan"}, "lon": -77.05322933333333, "type": "electric_scooter"}, {"bike_id": "9c61f45356751e0e69ded6c5aef4bbf3", "is_reserved": 0, "fusion_lon": 0.0, "lat": 38.89390183333333, "is_disabled": 0, "name": "9c61f45356751e0e69ded6c5aef4bbf3", "fusion_lat": 0.0, "rental_uris": {"ios": "https://dc.lft.to/lastmile_qr_scan", "android": "https://dc.lft.to/lastmile_qr_scan"}, "lon": -77.04674966666667, "type": "electric_scooter"}, {"bike_id": "70645f71bf8814e80dc4b3e251bc8789", "is_reserved": 0, "fusion_lon": 0.0, "lat": 38.923378666666665, "is_disabled": 0, "name": "70645f71bf8814e80dc4b3e251bc8789", "fusion_lat": 0.0, "rental_uris": {"ios": "https://dc.lft.to/lastmile_qr_scan", "android": "https://dc.lft.to/lastmile_qr_scan"}, "lon": -77.04132916666667, "type": "electric_scooter"}, {"bike_id": "36e5ce4b83352f7c3a9d4e3843117e71", "is_reserved": 0, "fusion_lon": 0.0, "lat": 38.901398, "is_disabled": 0, "name": "36e5ce4b83352f7c3a9d4e3843117e71", "fusion_lat": 0.0, "rental_uris": {"ios": "https://dc.lft.to/lastmile_qr_scan", "android": "https://dc.lft.to/lastmile_qr_scan"}, "lon": -77.04465116666667, "type": "electric_scooter"}, {"bike_id": "5f22e44220b95e29db1734675b3f6980", "is_reserved": 0, "fusion_lon": 0.0, "lat": 38.9170775, "is_disabled": 0, "name": "5f22e44220b95e29db1734675b3f6980", "fusion_lat": 0.0, "rental_uris": {"ios": "https://dc.lft.to/lastmile_qr_scan", "android": "https://dc.lft.to/lastmile_qr_scan"}, "lon": -77.03678133333334, "type": "electric_scooter"}, {"bike_id": "9c437eb06e8499b6889f34fccf296f36", "is_reserved": 0, "fusion_lon": 0.0, "lat": 38.923367666666664, "is_disabled": 0, "name": "9c437eb06e8499b6889f34fccf296f36", "fusion_lat": 0.0, "rental_uris": {"ios": "https://dc.lft.to/lastmile_qr_scan", "android": "https://dc.lft.to/lastmile_qr_scan"}, "lon": -77.038901, "type": "electric_scooter"}, {"bike_id": "ac71953d29c927685eaec06e276077ff", "is_reserved": 0, "fusion_lon": 0.0, "lat": 38.9232065, "is_disabled": 0, "name": "ac71953d29c927685eaec06e276077ff", "fusion_lat": 0.0, "rental_uris": {"ios": "https://dc.lft.to/lastmile_qr_scan", "android": "https://dc.lft.to/lastmile_qr_scan"}, "lon": -77.04486166666666, "type": "electric_scooter"}, {"bike_id": "1d6e79a5774198279b5537419d022030", "is_reserved": 0, "fusion_lon": 0.0, "lat": 38.9032645, "is_disabled": 0, "name": "1d6e79a5774198279b5537419d022030", "fusion_lat": 0.0, "rental_uris": {"ios": "https://dc.lft.to/lastmile_qr_scan", "android": "https://dc.lft.to/lastmile_qr_scan"}, "lon": -77.04336033333334, "type": "electric_scooter"}, {"bike_id": "d7fda3fbbe24e4e7591a233ccc81cb6a", "is_reserved": 0, "fusion_lon": 0.0, "lat": 38.89557383333333, "is_disabled": 0, "name": "d7fda3fbbe24e4e7591a233ccc81cb6a", "fusion_lat": 0.0, "rental_uris": {"ios": "https://dc.lft.to/lastmile_qr_scan", "android": "https://dc.lft.to/lastmile_qr_scan"}, "lon": -77.04674633333333, "type": "electric_scooter"}, {"bike_id": "04edf95712f8621d9b8578b4c71e2b5c", "is_reserved": 0, "fusion_lon": 0.0, "lat": 38.919944, "is_disabled": 0, "name": "04edf95712f8621d9b8578b4c71e2b5c", "fusion_lat": 0.0, "rental_uris": {"ios": "https://dc.lft.to/lastmile_qr_scan", "android": "https://dc.lft.to/lastmile_qr_scan"}, "lon": -77.03233233333333, "type": "electric_scooter"}, {"bike_id": "ef53552c4e7aafc05baec90453129d05", "is_reserved": 0, "fusion_lon": 0.0, "lat": 38.8874955, "is_disabled": 0, "name": "ef53552c4e7aafc05baec90453129d05", "fusion_lat": 0.0, "rental_uris": {"ios": "https://dc.lft.to/lastmile_qr_scan", "android": "https://dc.lft.to/lastmile_qr_scan"}, "lon": -77.03151683333333, "type": "electric_scooter"}, {"bike_id": "ba57c6a9bb700c2dbc07717677c1c85e", "is_reserved": 0, "fusion_lon": 0.0, "lat": 38.948024, "is_disabled": 0, "name": "ba57c6a9bb700c2dbc07717677c1c85e", "fusion_lat": 0.0, "rental_uris": {"ios": "https://dc.lft.to/lastmile_qr_scan", "android": "https://dc.lft.to/lastmile_qr_scan"}, "lon": -77.07905383333333, "type": "electric_scooter"}, {"bike_id": "87c4d517111a8e6984cd33b162f43306", "is_reserved": 0, "fusion_lon": 0.0, "lat": 38.905120833333335, "is_disabled": 0, "name": "87c4d517111a8e6984cd33b162f43306", "fusion_lat": 0.0, "rental_uris": {"ios": "https://dc.lft.to/lastmile_qr_scan", "android": "https://dc.lft.to/lastmile_qr_scan"}, "lon": -77.0568775, "type": "electric_bike"}, {"bike_id": "6fd8d6a3a9ed9765351f3729ecf0d2ab", "is_reserved": 0, "fusion_lon": 0.0, "lat": 38.89364233333333, "is_disabled": 0, "name": "6fd8d6a3a9ed9765351f3729ecf0d2ab", "fusion_lat": 0.0, "rental_uris": {"ios": "https://dc.lft.to/lastmile_qr_scan", "android": "https://dc.lft.to/lastmile_qr_scan"}, "lon": -77.04786166666666, "type": "electric_scooter"}, {"bike_id": "780965d557fa5768f4f5354334aabea7", "is_reserved": 0, "fusion_lon": 0.0, "lat": 38.9309295, "is_disabled": 0, "name": "780965d557fa5768f4f5354334aabea7", "fusion_lat": 0.0, "rental_uris": {"ios": "https://dc.lft.to/lastmile_qr_scan", "android": "https://dc.lft.to/lastmile_qr_scan"}, "lon": -77.03141316666667, "type": "electric_scooter"}, {"bike_id": "1e25d7e2a01b5c996159ce0f3a0bb3d0", "is_reserved": 0, "fusion_lon": 0.0, "lat": 38.8600305, "is_disabled": 0, "name": "1e25d7e2a01b5c996159ce0f3a0bb3d0", "fusion_lat": 0.0, "rental_uris": {"ios": "https://dc.lft.to/lastmile_qr_scan", "android": "https://dc.lft.to/lastmile_qr_scan"}, "lon": -77.05770683333333, "type": "electric_bike"}, {"bike_id": "15c0ae2dfc5f37776428a0a5c8d90f16", "is_reserved": 0, "fusion_lon": 0.0, "lat": 38.86620216666667, "is_disabled": 0, "name": "15c0ae2dfc5f37776428a0a5c8d90f16", "fusion_lat": 0.0, "rental_uris": {"ios": "https://dc.lft.to/lastmile_qr_scan", "android": "https://dc.lft.to/lastmile_qr_scan"}, "lon": -76.9457035, "type": "electric_bike"}, {"bike_id": "516ba76ef7e891c56380fbd625b8d4c3", "is_reserved": 0, "fusion_lon": 0.0, "lat": 38.90377266666667, "is_disabled": 0, "name": "516ba76ef7e891c56380fbd625b8d4c3", "fusion_lat": 0.0, "rental_uris": {"ios": "https://dc.lft.to/lastmile_qr_scan", "android": "https://dc.lft.to/lastmile_qr_scan"}, "lon": -77.04505733333333, "type": "electric_scooter"}, {"bike_id": "f09c9953927f96f7e6fbb5ac4373fe41", "is_reserved": 0, "fusion_lon": 0.0, "lat": 38.9007875, "is_disabled": 0, "name": "f09c9953927f96f7e6fbb5ac4373fe41", "fusion_lat": 0.0, "rental_uris": {"ios": "https://dc.lft.to/lastmile_qr_scan", "android": "https://dc.lft.to/lastmile_qr_scan"}, "lon": -76.93876516666667, "type": "electric_scooter"}, {"bike_id": "257e64255c75557698841e6e230cfb74", "is_reserved": 0, "fusion_lon": 0.0, "lat": 38.902934333333334, "is_disabled": 0, "name": "257e64255c75557698841e6e230cfb74", "fusion_lat": 0.0, "rental_uris": {"ios": "https://dc.lft.to/lastmile_qr_scan", "android": "https://dc.lft.to/lastmile_qr_scan"}, "lon": -76.990379, "type": "electric_scooter"}, {"bike_id": "ffb4d0571c40ab2174703e01b5155f44", "is_reserved": 0, "fusion_lon": 0.0, "lat": 38.90370716666666, "is_disabled": 0, "name": "ffb4d0571c40ab2174703e01b5155f44", "fusion_lat": 0.0, "rental_uris": {"ios": "https://dc.lft.to/lastmile_qr_scan", "android": "https://dc.lft.to/lastmile_qr_scan"}, "lon": -77.044908, "type": "electric_scooter"}, {"bike_id": "9ad84e26558c1df1dcdb529ea095c106", "is_reserved": 0, "fusion_lon": 0.0, "lat": 38.89732166666667, "is_disabled": 0, "name": "9ad84e26558c1df1dcdb529ea095c106", "fusion_lat": 0.0, "rental_uris": {"ios": "https://dc.lft.to/lastmile_qr_scan", "android": "https://dc.lft.to/lastmile_qr_scan"}, "lon": -77.05570133333333, "type": "electric_scooter"}, {"bike_id": "4a230f7da62a6a36e321e791bd8f8748", "is_reserved": 0, "fusion_lon": 0.0, "lat": 38.9497005, "is_disabled": 0, "name": "4a230f7da62a6a36e321e791bd8f8748", "fusion_lat": 0.0, "rental_uris": {"ios": "https://dc.lft.to/lastmile_qr_scan", "android": "https://dc.lft.to/lastmile_qr_scan"}, "lon": -76.97280333333333, "type": "electric_bike"}, {"bike_id": "1924fb52ca977c8a715fa582752d9655", "is_reserved": 0, "fusion_lon": 0.0, "lat": 38.88847033333333, "is_disabled": 0, "name": "1924fb52ca977c8a715fa582752d9655", "fusion_lat": 0.0, "rental_uris": {"ios": "https://dc.lft.to/lastmile_qr_scan", "android": "https://dc.lft.to/lastmile_qr_scan"}, "lon": -76.92680883333334, "type": "electric_scooter"}, {"bike_id": "69bac70e05054097f04e2bed50281211", "is_reserved": 0, "fusion_lon": 0.0, "lat": 38.8971355, "is_disabled": 0, "name": "69bac70e05054097f04e2bed50281211", "fusion_lat": 0.0, "rental_uris": {"ios": "https://dc.lft.to/lastmile_qr_scan", "android": "https://dc.lft.to/lastmile_qr_scan"}, "lon": -77.02679483333333, "type": "electric_scooter"}, {"bike_id": "021d5c9ec21ea33cb8f267384b05b47d", "is_reserved": 0, "fusion_lon": 0.0, "lat": 38.88493583333333, "is_disabled": 0, "name": "021d5c9ec21ea33cb8f267384b05b47d", "fusion_lat": 0.0, "rental_uris": {"ios": "https://dc.lft.to/lastmile_qr_scan", "android": "https://dc.lft.to/lastmile_qr_scan"}, "lon": -77.00712083333333, "type": "electric_scooter"}, {"bike_id": "c29843eca2c4c85f83fec8cbef3895dd", "is_reserved": 0, "fusion_lon": 0.0, "lat": 38.99676633333333, "is_disabled": 0, "name": "c29843eca2c4c85f83fec8cbef3895dd", "fusion_lat": 0.0, "rental_uris": {"ios": "https://dc.lft.to/lastmile_qr_scan", "android": "https://dc.lft.to/lastmile_qr_scan"}, "lon": -77.03810833333333, "type": "electric_bike"}, {"bike_id": "9b85140810dccfb8d1e13a0ba594863b", "is_reserved": 0, "fusion_lon": 0.0, "lat": 38.89167716666667, "is_disabled": 0, "name": "9b85140810dccfb8d1e13a0ba594863b", "fusion_lat": 0.0, "rental_uris": {"ios": "https://dc.lft.to/lastmile_qr_scan", "android": "https://dc.lft.to/lastmile_qr_scan"}, "lon": -77.0154405, "type": "electric_scooter"}, {"bike_id": "2a9f10cd25301b90ed3f95dcef890668", "is_reserved": 0, "fusion_lon": 0.0, "lat": 38.922149166666664, "is_disabled": 0, "name": "2a9f10cd25301b90ed3f95dcef890668", "fusion_lat": 0.0, "rental_uris": {"ios": "https://dc.lft.to/lastmile_qr_scan", "android": "https://dc.lft.to/lastmile_qr_scan"}, "lon": -77.03658566666667, "type": "electric_scooter"}, {"bike_id": "bd13c6f1e03ea485355ab32140e503b8", "is_reserved": 0, "fusion_lon": 0.0, "lat": 38.87639133333333, "is_disabled": 0, "name": "bd13c6f1e03ea485355ab32140e503b8", "fusion_lat": 0.0, "rental_uris": {"ios": "https://dc.lft.to/lastmile_qr_scan", "android": "https://dc.lft.to/lastmile_qr_scan"}, "lon": -76.99587416666667, "type": "electric_scooter"}, {"bike_id": "ad93252e152f3ead83d30f1e2a445a44", "is_reserved": 0, "fusion_lon": 0.0, "lat": 38.89817333333333, "is_disabled": 0, "name": "ad93252e152f3ead83d30f1e2a445a44", "fusion_lat": 0.0, "rental_uris": {"ios": "https://dc.lft.to/lastmile_qr_scan", "android": "https://dc.lft.to/lastmile_qr_scan"}, "lon": -77.03313916666667, "type": "electric_scooter"}, {"bike_id": "c87d5109385ef10146dc3d067b3c36df", "is_reserved": 0, "fusion_lon": 0.0, "lat": 38.91845433333334, "is_disabled": 0, "name": "c87d5109385ef10146dc3d067b3c36df", "fusion_lat": 0.0, "rental_uris": {"ios": "https://dc.lft.to/lastmile_qr_scan", "android": "https://dc.lft.to/lastmile_qr_scan"}, "lon": -77.0390005, "type": "electric_scooter"}, {"bike_id": "c6db26e56f81b7537c88620a5cc6d840", "is_reserved": 0, "fusion_lon": 0.0, "lat": 38.93426183333333, "is_disabled": 0, "name": "c6db26e56f81b7537c88620a5cc6d840", "fusion_lat": 0.0, "rental_uris": {"ios": "https://dc.lft.to/lastmile_qr_scan", "android": "https://dc.lft.to/lastmile_qr_scan"}, "lon": -76.9650575, "type": "electric_scooter"}, {"bike_id": "d42ab35a96eec08eac220aaa6a45956f", "is_reserved": 0, "fusion_lon": 0.0, "lat": 38.90708716666666, "is_disabled": 0, "name": "d42ab35a96eec08eac220aaa6a45956f", "fusion_lat": 0.0, "rental_uris": {"ios": "https://dc.lft.to/lastmile_qr_scan", "android": "https://dc.lft.to/lastmile_qr_scan"}, "lon": -77.02383666666667, "type": "electric_scooter"}, {"bike_id": "02b06ca193e2ca20d8c8e7cebe73d3cd", "is_reserved": 0, "fusion_lon": 0.0, "lat": 38.92651516666667, "is_disabled": 0, "name": "02b06ca193e2ca20d8c8e7cebe73d3cd", "fusion_lat": 0.0, "rental_uris": {"ios": "https://dc.lft.to/lastmile_qr_scan", "android": "https://dc.lft.to/lastmile_qr_scan"}, "lon": -77.009644, "type": "electric_scooter"}, {"bike_id": "4fac3786f5a772127a454b8a793c9f50", "is_reserved": 0, "fusion_lon": 0.0, "lat": 38.89722366666667, "is_disabled": 0, "name": "4fac3786f5a772127a454b8a793c9f50", "fusion_lat": 0.0, "rental_uris": {"ios": "https://dc.lft.to/lastmile_qr_scan", "android": "https://dc.lft.to/lastmile_qr_scan"}, "lon": -77.0273975, "type": "electric_scooter"}, {"bike_id": "5ff895556561754f01018866e0cdb00e", "is_reserved": 0, "fusion_lon": 0.0, "lat": 38.8954585, "is_disabled": 0, "name": "5ff895556561754f01018866e0cdb00e", "fusion_lat": 0.0, "rental_uris": {"ios": "https://dc.lft.to/lastmile_qr_scan", "android": "https://dc.lft.to/lastmile_qr_scan"}, "lon": -77.01887983333333, "type": "electric_scooter"}, {"bike_id": "6269a7321751761a5d14c5a594aaa5bb", "is_reserved": 0, "fusion_lon": 0.0, "lat": 38.905732666666665, "is_disabled": 0, "name": "6269a7321751761a5d14c5a594aaa5bb", "fusion_lat": 0.0, "rental_uris": {"ios": "https://dc.lft.to/lastmile_qr_scan", "android": "https://dc.lft.to/lastmile_qr_scan"}, "lon": -77.03621716666666, "type": "electric_scooter"}, {"bike_id": "9acd9e4cc055dfb6136d57c67dfdc6dd", "is_reserved": 0, "fusion_lon": 0.0, "lat": 38.92853733333333, "is_disabled": 0, "name": "9acd9e4cc055dfb6136d57c67dfdc6dd", "fusion_lat": 0.0, "rental_uris": {"ios": "https://dc.lft.to/lastmile_qr_scan", "android": "https://dc.lft.to/lastmile_qr_scan"}, "lon": -77.01389366666666, "type": "electric_scooter"}, {"bike_id": "f4b0b99059875db6101704eeb68b9a25", "is_reserved": 0, "fusion_lon": 0.0, "lat": 38.911954, "is_disabled": 0, "name": "f4b0b99059875db6101704eeb68b9a25", "fusion_lat": 0.0, "rental_uris": {"ios": "https://dc.lft.to/lastmile_qr_scan", "android": "https://dc.lft.to/lastmile_qr_scan"}, "lon": -77.06091283333333, "type": "electric_scooter"}, {"bike_id": "817e82088c7bf119b7c201c8fbc1ef16", "is_reserved": 0, "fusion_lon": 0.0, "lat": 38.95958383333333, "is_disabled": 0, "name": "817e82088c7bf119b7c201c8fbc1ef16", "fusion_lat": 0.0, "rental_uris": {"ios": "https://dc.lft.to/lastmile_qr_scan", "android": "https://dc.lft.to/lastmile_qr_scan"}, "lon": -77.1008855, "type": "electric_bike"}, {"bike_id": "a75a35a0542192563856c6feb8877203", "is_reserved": 0, "fusion_lon": 0.0, "lat": 38.871803166666666, "is_disabled": 0, "name": "a75a35a0542192563856c6feb8877203", "fusion_lat": 0.0, "rental_uris": {"ios": "https://dc.lft.to/lastmile_qr_scan", "android": "https://dc.lft.to/lastmile_qr_scan"}, "lon": -77.006088, "type": "electric_scooter"}, {"bike_id": "6de9accb3215f2e24af56c80e4ec6789", "is_reserved": 0, "fusion_lon": 0.0, "lat": 38.88495283333334, "is_disabled": 0, "name": "6de9accb3215f2e24af56c80e4ec6789", "fusion_lat": 0.0, "rental_uris": {"ios": "https://dc.lft.to/lastmile_qr_scan", "android": "https://dc.lft.to/lastmile_qr_scan"}, "lon": -77.0072605, "type": "electric_scooter"}, {"bike_id": "d4b303f12c4306832bd05ead9da26cee", "is_reserved": 0, "fusion_lon": 0.0, "lat": 38.9195445, "is_disabled": 0, "name": "d4b303f12c4306832bd05ead9da26cee", "fusion_lat": 0.0, "rental_uris": {"ios": "https://dc.lft.to/lastmile_qr_scan", "android": "https://dc.lft.to/lastmile_qr_scan"}, "lon": -77.02462583333333, "type": "electric_scooter"}, {"bike_id": "f323bd412abdd650d8ca04477e529a8a", "is_reserved": 0, "fusion_lon": 0.0, "lat": 38.900638, "is_disabled": 0, "name": "f323bd412abdd650d8ca04477e529a8a", "fusion_lat": 0.0, "rental_uris": {"ios": "https://dc.lft.to/lastmile_qr_scan", "android": "https://dc.lft.to/lastmile_qr_scan"}, "lon": -77.04574466666666, "type": "electric_bike"}, {"bike_id": "0e1433c313e2d3d5477dc22cbd5a0896", "is_reserved": 0, "fusion_lon": 0.0, "lat": 38.9047125, "is_disabled": 0, "name": "0e1433c313e2d3d5477dc22cbd5a0896", "fusion_lat": 0.0, "rental_uris": {"ios": "https://dc.lft.to/lastmile_qr_scan", "android": "https://dc.lft.to/lastmile_qr_scan"}, "lon": -77.03944583333333, "type": "electric_scooter"}, {"bike_id": "db1a4d5b71ff1abfa54e782f1f88f507", "is_reserved": 0, "fusion_lon": 0.0, "lat": 38.90257233333333, "is_disabled": 0, "name": "db1a4d5b71ff1abfa54e782f1f88f507", "fusion_lat": 0.0, "rental_uris": {"ios": "https://dc.lft.to/lastmile_qr_scan", "android": "https://dc.lft.to/lastmile_qr_scan"}, "lon": -77.03338833333333, "type": "electric_scooter"}, {"bike_id": "661d5e0f3c5fa6779b65b065e093f169", "is_reserved": 0, "fusion_lon": 0.0, "lat": 38.903907833333335, "is_disabled": 0, "name": "661d5e0f3c5fa6779b65b065e093f169", "fusion_lat": 0.0, "rental_uris": {"ios": "https://dc.lft.to/lastmile_qr_scan", "android": "https://dc.lft.to/lastmile_qr_scan"}, "lon": -77.0419165, "type": "electric_scooter"}, {"bike_id": "dfbaa988b7e9a6e5ac03e40e99ccbe88", "is_reserved": 0, "fusion_lon": 0.0, "lat": 38.896253, "is_disabled": 0, "name": "dfbaa988b7e9a6e5ac03e40e99ccbe88", "fusion_lat": 0.0, "rental_uris": {"ios": "https://dc.lft.to/lastmile_qr_scan", "android": "https://dc.lft.to/lastmile_qr_scan"}, "lon": -76.9849575, "type": "electric_scooter"}, {"bike_id": "5d3885520a36f2bfd065f8ab057e2a7b", "is_reserved": 0, "fusion_lon": 0.0, "lat": 38.90244966666667, "is_disabled": 0, "name": "5d3885520a36f2bfd065f8ab057e2a7b", "fusion_lat": 0.0, "rental_uris": {"ios": "https://dc.lft.to/lastmile_qr_scan", "android": "https://dc.lft.to/lastmile_qr_scan"}, "lon": -77.0269215, "type": "electric_scooter"}, {"bike_id": "9b2c0a30d4760e534593ef797aaeb75c", "is_reserved": 0, "fusion_lon": 0.0, "lat": 38.844237166666666, "is_disabled": 0, "name": "9b2c0a30d4760e534593ef797aaeb75c", "fusion_lat": 0.0, "rental_uris": {"ios": "https://dc.lft.to/lastmile_qr_scan", "android": "https://dc.lft.to/lastmile_qr_scan"}, "lon": -76.9977955, "type": "electric_scooter"}, {"bike_id": "fe82c7dce2370017d3e68b4971c6a7f6", "is_reserved": 0, "fusion_lon": 0.0, "lat": 38.90377133333333, "is_disabled": 0, "name": "fe82c7dce2370017d3e68b4971c6a7f6", "fusion_lat": 0.0, "rental_uris": {"ios": "https://dc.lft.to/lastmile_qr_scan", "android": "https://dc.lft.to/lastmile_qr_scan"}, "lon": -77.0436555, "type": "electric_scooter"}, {"bike_id": "5446f0d2b34899e9f7ecb28462d0a375", "is_reserved": 0, "fusion_lon": 0.0, "lat": 38.90686316666667, "is_disabled": 0, "name": "5446f0d2b34899e9f7ecb28462d0a375", "fusion_lat": 0.0, "rental_uris": {"ios": "https://dc.lft.to/lastmile_qr_scan", "android": "https://dc.lft.to/lastmile_qr_scan"}, "lon": -76.95182933333334, "type": "electric_bike"}, {"bike_id": "5a6d177021991885ca8314fb7dc0e70c", "is_reserved": 0, "fusion_lon": 0.0, "lat": 38.90244466666667, "is_disabled": 0, "name": "5a6d177021991885ca8314fb7dc0e70c", "fusion_lat": 0.0, "rental_uris": {"ios": "https://dc.lft.to/lastmile_qr_scan", "android": "https://dc.lft.to/lastmile_qr_scan"}, "lon": -77.00360666666667, "type": "electric_scooter"}, {"bike_id": "3827de5e83b21f32637d95959df70c3f", "is_reserved": 0, "fusion_lon": 0.0, "lat": 38.9076415, "is_disabled": 0, "name": "3827de5e83b21f32637d95959df70c3f", "fusion_lat": 0.0, "rental_uris": {"ios": "https://dc.lft.to/lastmile_qr_scan", "android": "https://dc.lft.to/lastmile_qr_scan"}, "lon": -77.02061066666667, "type": "electric_scooter"}, {"bike_id": "18ebe304da1de99cb32a038582719a0f", "is_reserved": 0, "fusion_lon": 0.0, "lat": 38.92959183333333, "is_disabled": 0, "name": "18ebe304da1de99cb32a038582719a0f", "fusion_lat": 0.0, "rental_uris": {"ios": "https://dc.lft.to/lastmile_qr_scan", "android": "https://dc.lft.to/lastmile_qr_scan"}, "lon": -77.0551585, "type": "electric_scooter"}, {"bike_id": "5ab7154a4c0a491a1a4a73f53e0d5c0f", "is_reserved": 0, "fusion_lon": 0.0, "lat": 38.958823, "is_disabled": 0, "name": "5ab7154a4c0a491a1a4a73f53e0d5c0f", "fusion_lat": 0.0, "rental_uris": {"ios": "https://dc.lft.to/lastmile_qr_scan", "android": "https://dc.lft.to/lastmile_qr_scan"}, "lon": -77.0103485, "type": "electric_bike"}, {"bike_id": "353303ce77ad1829ce469d2f30799759", "is_reserved": 0, "fusion_lon": 0.0, "lat": 38.901079333333335, "is_disabled": 0, "name": "353303ce77ad1829ce469d2f30799759", "fusion_lat": 0.0, "rental_uris": {"ios": "https://dc.lft.to/lastmile_qr_scan", "android": "https://dc.lft.to/lastmile_qr_scan"}, "lon": -77.0487265, "type": "electric_bike"}, {"bike_id": "3dbc910feaa13c01b99254492039c3d4", "is_reserved": 0, "fusion_lon": 0.0, "lat": 38.86622716666667, "is_disabled": 0, "name": "3dbc910feaa13c01b99254492039c3d4", "fusion_lat": 0.0, "rental_uris": {"ios": "https://dc.lft.to/lastmile_qr_scan", "android": "https://dc.lft.to/lastmile_qr_scan"}, "lon": -76.9865375, "type": "electric_scooter"}, {"bike_id": "9260e0624e8f60ce1c7ff5d5f39bbfed", "is_reserved": 0, "fusion_lon": 0.0, "lat": 38.844264333333335, "is_disabled": 0, "name": "9260e0624e8f60ce1c7ff5d5f39bbfed", "fusion_lat": 0.0, "rental_uris": {"ios": "https://dc.lft.to/lastmile_qr_scan", "android": "https://dc.lft.to/lastmile_qr_scan"}, "lon": -76.997787, "type": "electric_scooter"}, {"bike_id": "c1cbe9f5d555b80acba479ae97d3d4bf", "is_reserved": 0, "fusion_lon": 0.0, "lat": 38.894889, "is_disabled": 0, "name": "c1cbe9f5d555b80acba479ae97d3d4bf", "fusion_lat": 0.0, "rental_uris": {"ios": "https://dc.lft.to/lastmile_qr_scan", "android": "https://dc.lft.to/lastmile_qr_scan"}, "lon": -77.02301533333333, "type": "electric_scooter"}, {"bike_id": "0b8987a8f955237cb36070e11cddc847", "is_reserved": 0, "fusion_lon": 0.0, "lat": 38.80225883333333, "is_disabled": 0, "name": "0b8987a8f955237cb36070e11cddc847", "fusion_lat": 0.0, "rental_uris": {"ios": "https://dc.lft.to/lastmile_qr_scan", "android": "https://dc.lft.to/lastmile_qr_scan"}, "lon": -77.07916933333334, "type": "electric_bike"}, {"bike_id": "f4690bed4f5b45f8527a40c1b54f08e7", "is_reserved": 0, "fusion_lon": 0.0, "lat": 38.90410333333333, "is_disabled": 0, "name": "f4690bed4f5b45f8527a40c1b54f08e7", "fusion_lat": 0.0, "rental_uris": {"ios": "https://dc.lft.to/lastmile_qr_scan", "android": "https://dc.lft.to/lastmile_qr_scan"}, "lon": -77.034689, "type": "electric_scooter"}, {"bike_id": "7875268b2c3b1b263d46f4fdc123b801", "is_reserved": 0, "fusion_lon": 0.0, "lat": 38.94412583333333, "is_disabled": 0, "name": "7875268b2c3b1b263d46f4fdc123b801", "fusion_lat": 0.0, "rental_uris": {"ios": "https://dc.lft.to/lastmile_qr_scan", "android": "https://dc.lft.to/lastmile_qr_scan"}, "lon": -77.05514416666666, "type": "electric_scooter"}, {"bike_id": "899ea69795e7dcb5dff1c7fc9abec60d", "is_reserved": 0, "fusion_lon": 0.0, "lat": 38.93192766666667, "is_disabled": 0, "name": "899ea69795e7dcb5dff1c7fc9abec60d", "fusion_lat": 0.0, "rental_uris": {"ios": "https://dc.lft.to/lastmile_qr_scan", "android": "https://dc.lft.to/lastmile_qr_scan"}, "lon": -77.02506266666667, "type": "electric_scooter"}, {"bike_id": "94297965e07adaa5cacf24f9e0f23e6c", "is_reserved": 0, "fusion_lon": 0.0, "lat": 38.865069, "is_disabled": 0, "name": "94297965e07adaa5cacf24f9e0f23e6c", "fusion_lat": 0.0, "rental_uris": {"ios": "https://dc.lft.to/lastmile_qr_scan", "android": "https://dc.lft.to/lastmile_qr_scan"}, "lon": -76.9897375, "type": "electric_scooter"}, {"bike_id": "b89a442205affec6269826691a859459", "is_reserved": 0, "fusion_lon": 0.0, "lat": 38.883687333333334, "is_disabled": 0, "name": "b89a442205affec6269826691a859459", "fusion_lat": 0.0, "rental_uris": {"ios": "https://dc.lft.to/lastmile_qr_scan", "android": "https://dc.lft.to/lastmile_qr_scan"}, "lon": -76.99528983333333, "type": "electric_scooter"}, {"bike_id": "1d6706a6405d5fcfbfb6b213e206dafe", "is_reserved": 0, "fusion_lon": 0.0, "lat": 38.926021, "is_disabled": 0, "name": "1d6706a6405d5fcfbfb6b213e206dafe", "fusion_lat": 0.0, "rental_uris": {"ios": "https://dc.lft.to/lastmile_qr_scan", "android": "https://dc.lft.to/lastmile_qr_scan"}, "lon": -77.02157383333333, "type": "electric_scooter"}, {"bike_id": "d14b6b1441ea96b301ec4e7f885e71a3", "is_reserved": 0, "fusion_lon": 0.0, "lat": 38.874609, "is_disabled": 0, "name": "d14b6b1441ea96b301ec4e7f885e71a3", "fusion_lat": 0.0, "rental_uris": {"ios": "https://dc.lft.to/lastmile_qr_scan", "android": "https://dc.lft.to/lastmile_qr_scan"}, "lon": -77.003104, "type": "electric_scooter"}, {"bike_id": "7d75523faf6b3d71c9122afc808bfc82", "is_reserved": 0, "fusion_lon": 0.0, "lat": 38.896084333333334, "is_disabled": 0, "name": "7d75523faf6b3d71c9122afc808bfc82", "fusion_lat": 0.0, "rental_uris": {"ios": "https://dc.lft.to/lastmile_qr_scan", "android": "https://dc.lft.to/lastmile_qr_scan"}, "lon": -77.04503133333333, "type": "electric_scooter"}, {"bike_id": "4c01fdbe59ab43177f420762a43dbc32", "is_reserved": 0, "fusion_lon": 0.0, "lat": 38.96822216666666, "is_disabled": 0, "name": "4c01fdbe59ab43177f420762a43dbc32", "fusion_lat": 0.0, "rental_uris": {"ios": "https://dc.lft.to/lastmile_qr_scan", "android": "https://dc.lft.to/lastmile_qr_scan"}, "lon": -77.01786783333333, "type": "electric_scooter"}, {"bike_id": "58fadfff2b5ed695fba005aafb3dcd8c", "is_reserved": 0, "fusion_lon": 0.0, "lat": 38.90530483333333, "is_disabled": 0, "name": "58fadfff2b5ed695fba005aafb3dcd8c", "fusion_lat": 0.0, "rental_uris": {"ios": "https://dc.lft.to/lastmile_qr_scan", "android": "https://dc.lft.to/lastmile_qr_scan"}, "lon": -77.050365, "type": "electric_scooter"}, {"bike_id": "e3a3f7bf7ae16b9e13ff222bfea80174", "is_reserved": 0, "fusion_lon": 0.0, "lat": 38.926098833333334, "is_disabled": 0, "name": "e3a3f7bf7ae16b9e13ff222bfea80174", "fusion_lat": 0.0, "rental_uris": {"ios": "https://dc.lft.to/lastmile_qr_scan", "android": "https://dc.lft.to/lastmile_qr_scan"}, "lon": -77.03958216666666, "type": "electric_scooter"}, {"bike_id": "a45319a081b884f0928f4ce96abed4fc", "is_reserved": 0, "fusion_lon": 0.0, "lat": 38.869596333333334, "is_disabled": 0, "name": "a45319a081b884f0928f4ce96abed4fc", "fusion_lat": 0.0, "rental_uris": {"ios": "https://dc.lft.to/lastmile_qr_scan", "android": "https://dc.lft.to/lastmile_qr_scan"}, "lon": -77.013763, "type": "electric_scooter"}, {"bike_id": "b0b9c905714b9b0736188c62a15e70b6", "is_reserved": 0, "fusion_lon": 0.0, "lat": 38.905052166666664, "is_disabled": 0, "name": "b0b9c905714b9b0736188c62a15e70b6", "fusion_lat": 0.0, "rental_uris": {"ios": "https://dc.lft.to/lastmile_qr_scan", "android": "https://dc.lft.to/lastmile_qr_scan"}, "lon": -77.0601855, "type": "electric_bike"}, {"bike_id": "bbd815e925273a5565dd1aac4f984d9d", "is_reserved": 0, "fusion_lon": 0.0, "lat": 38.904593166666665, "is_disabled": 0, "name": "bbd815e925273a5565dd1aac4f984d9d", "fusion_lat": 0.0, "rental_uris": {"ios": "https://dc.lft.to/lastmile_qr_scan", "android": "https://dc.lft.to/lastmile_qr_scan"}, "lon": -76.9950175, "type": "electric_scooter"}, {"bike_id": "75d6a9a13989972a92b1be495ea1c41f", "is_reserved": 0, "fusion_lon": 0.0, "lat": 38.903588166666665, "is_disabled": 0, "name": "75d6a9a13989972a92b1be495ea1c41f", "fusion_lat": 0.0, "rental_uris": {"ios": "https://dc.lft.to/lastmile_qr_scan", "android": "https://dc.lft.to/lastmile_qr_scan"}, "lon": -77.04008883333333, "type": "electric_scooter"}, {"bike_id": "a0e99a222b248b72e1a298d7b732978b", "is_reserved": 0, "fusion_lon": 0.0, "lat": 38.904503166666665, "is_disabled": 0, "name": "a0e99a222b248b72e1a298d7b732978b", "fusion_lat": 0.0, "rental_uris": {"ios": "https://dc.lft.to/lastmile_qr_scan", "android": "https://dc.lft.to/lastmile_qr_scan"}, "lon": -77.0490175, "type": "electric_scooter"}, {"bike_id": "01f3778e06d3e2d4b229a480aeaaeed6", "is_reserved": 0, "fusion_lon": 0.0, "lat": 38.884314, "is_disabled": 0, "name": "01f3778e06d3e2d4b229a480aeaaeed6", "fusion_lat": 0.0, "rental_uris": {"ios": "https://dc.lft.to/lastmile_qr_scan", "android": "https://dc.lft.to/lastmile_qr_scan"}, "lon": -76.9575505, "type": "electric_scooter"}, {"bike_id": "2b1319b482544ca888a53afdb35cf7e9", "is_reserved": 0, "fusion_lon": 0.0, "lat": 38.92607616666667, "is_disabled": 0, "name": "2b1319b482544ca888a53afdb35cf7e9", "fusion_lat": 0.0, "rental_uris": {"ios": "https://dc.lft.to/lastmile_qr_scan", "android": "https://dc.lft.to/lastmile_qr_scan"}, "lon": -77.00536916666667, "type": "electric_scooter"}, {"bike_id": "b2637d58c6fdd45215b80c57e9103bd7", "is_reserved": 0, "fusion_lon": 0.0, "lat": 38.897569833333336, "is_disabled": 0, "name": "b2637d58c6fdd45215b80c57e9103bd7", "fusion_lat": 0.0, "rental_uris": {"ios": "https://dc.lft.to/lastmile_qr_scan", "android": "https://dc.lft.to/lastmile_qr_scan"}, "lon": -76.94183, "type": "electric_scooter"}, {"bike_id": "aeee0d57cb1c424c98b55655f0536eb5", "is_reserved": 0, "fusion_lon": 0.0, "lat": 38.91707516666666, "is_disabled": 0, "name": "aeee0d57cb1c424c98b55655f0536eb5", "fusion_lat": 0.0, "rental_uris": {"ios": "https://dc.lft.to/lastmile_qr_scan", "android": "https://dc.lft.to/lastmile_qr_scan"}, "lon": -77.0246195, "type": "electric_scooter"}, {"bike_id": "03a9afa942a7acd72f797a518e9b7d3f", "is_reserved": 0, "fusion_lon": 0.0, "lat": 38.89529133333333, "is_disabled": 0, "name": "03a9afa942a7acd72f797a518e9b7d3f", "fusion_lat": 0.0, "rental_uris": {"ios": "https://dc.lft.to/lastmile_qr_scan", "android": "https://dc.lft.to/lastmile_qr_scan"}, "lon": -77.04182916666667, "type": "electric_scooter"}, {"bike_id": "bf4a092a63b87eb4145e0859d961d2b6", "is_reserved": 0, "fusion_lon": 0.0, "lat": 38.9206595, "is_disabled": 0, "name": "bf4a092a63b87eb4145e0859d961d2b6", "fusion_lat": 0.0, "rental_uris": {"ios": "https://dc.lft.to/lastmile_qr_scan", "android": "https://dc.lft.to/lastmile_qr_scan"}, "lon": -77.04250866666666, "type": "electric_scooter"}, {"bike_id": "c961d2aa7bba3f30b2795bfebbad951b", "is_reserved": 0, "fusion_lon": 0.0, "lat": 38.900096, "is_disabled": 0, "name": "c961d2aa7bba3f30b2795bfebbad951b", "fusion_lat": 0.0, "rental_uris": {"ios": "https://dc.lft.to/lastmile_qr_scan", "android": "https://dc.lft.to/lastmile_qr_scan"}, "lon": -77.04034183333333, "type": "electric_scooter"}, {"bike_id": "8241a9aee982f946a68364d65d885dd2", "is_reserved": 0, "fusion_lon": 0.0, "lat": 38.916771833333335, "is_disabled": 0, "name": "8241a9aee982f946a68364d65d885dd2", "fusion_lat": 0.0, "rental_uris": {"ios": "https://dc.lft.to/lastmile_qr_scan", "android": "https://dc.lft.to/lastmile_qr_scan"}, "lon": -77.031859, "type": "electric_scooter"}, {"bike_id": "58028e3e27cd1c9188f1bfb31c2d8879", "is_reserved": 0, "fusion_lon": 0.0, "lat": 38.954821833333334, "is_disabled": 0, "name": "58028e3e27cd1c9188f1bfb31c2d8879", "fusion_lat": 0.0, "rental_uris": {"ios": "https://dc.lft.to/lastmile_qr_scan", "android": "https://dc.lft.to/lastmile_qr_scan"}, "lon": -77.082415, "type": "electric_bike"}, {"bike_id": "7bd37a53db34c945f3977676b3832069", "is_reserved": 0, "fusion_lon": 0.0, "lat": 38.90351966666667, "is_disabled": 0, "name": "7bd37a53db34c945f3977676b3832069", "fusion_lat": 0.0, "rental_uris": {"ios": "https://dc.lft.to/lastmile_qr_scan", "android": "https://dc.lft.to/lastmile_qr_scan"}, "lon": -77.051396, "type": "electric_bike"}, {"bike_id": "9ebcd1138be4f661e1bd35f4c6d2fbaa", "is_reserved": 0, "fusion_lon": 0.0, "lat": 38.9592255, "is_disabled": 0, "name": "9ebcd1138be4f661e1bd35f4c6d2fbaa", "fusion_lat": 0.0, "rental_uris": {"ios": "https://dc.lft.to/lastmile_qr_scan", "android": "https://dc.lft.to/lastmile_qr_scan"}, "lon": -77.03324583333334, "type": "electric_scooter"}, {"bike_id": "ca452249c1634eb28c82a122a5979d3b", "is_reserved": 0, "fusion_lon": 0.0, "lat": 38.90377466666666, "is_disabled": 0, "name": "ca452249c1634eb28c82a122a5979d3b", "fusion_lat": 0.0, "rental_uris": {"ios": "https://dc.lft.to/lastmile_qr_scan", "android": "https://dc.lft.to/lastmile_qr_scan"}, "lon": -77.04359733333334, "type": "electric_scooter"}, {"bike_id": "9106b3d3e885aadcd8d2640de29f79c3", "is_reserved": 0, "fusion_lon": 0.0, "lat": 38.902633, "is_disabled": 0, "name": "9106b3d3e885aadcd8d2640de29f79c3", "fusion_lat": 0.0, "rental_uris": {"ios": "https://dc.lft.to/lastmile_qr_scan", "android": "https://dc.lft.to/lastmile_qr_scan"}, "lon": -77.0175295, "type": "electric_scooter"}, {"bike_id": "d40acba755695f4c906997acaa483fa8", "is_reserved": 0, "fusion_lon": 0.0, "lat": 38.865607833333335, "is_disabled": 0, "name": "d40acba755695f4c906997acaa483fa8", "fusion_lat": 0.0, "rental_uris": {"ios": "https://dc.lft.to/lastmile_qr_scan", "android": "https://dc.lft.to/lastmile_qr_scan"}, "lon": -76.989508, "type": "electric_scooter"}, {"bike_id": "8e99cebf993e7cf2f90970c3071e784d", "is_reserved": 0, "fusion_lon": 0.0, "lat": 38.90059383333333, "is_disabled": 0, "name": "8e99cebf993e7cf2f90970c3071e784d", "fusion_lat": 0.0, "rental_uris": {"ios": "https://dc.lft.to/lastmile_qr_scan", "android": "https://dc.lft.to/lastmile_qr_scan"}, "lon": -77.002146, "type": "electric_scooter"}, {"bike_id": "71b8a9f13cb1e7aa8fe1b65942b8aabb", "is_reserved": 0, "fusion_lon": 0.0, "lat": 38.90564533333333, "is_disabled": 0, "name": "71b8a9f13cb1e7aa8fe1b65942b8aabb", "fusion_lat": 0.0, "rental_uris": {"ios": "https://dc.lft.to/lastmile_qr_scan", "android": "https://dc.lft.to/lastmile_qr_scan"}, "lon": -77.02490333333333, "type": "electric_scooter"}, {"bike_id": "342a8756efd1900797ad691d8d0d5c16", "is_reserved": 0, "fusion_lon": 0.0, "lat": 38.892757333333336, "is_disabled": 0, "name": "342a8756efd1900797ad691d8d0d5c16", "fusion_lat": 0.0, "rental_uris": {"ios": "https://dc.lft.to/lastmile_qr_scan", "android": "https://dc.lft.to/lastmile_qr_scan"}, "lon": -77.02590416666666, "type": "electric_scooter"}, {"bike_id": "e4e0078472235cf67868d2d74f921a7c", "is_reserved": 0, "fusion_lon": 0.0, "lat": 38.892204, "is_disabled": 0, "name": "e4e0078472235cf67868d2d74f921a7c", "fusion_lat": 0.0, "rental_uris": {"ios": "https://dc.lft.to/lastmile_qr_scan", "android": "https://dc.lft.to/lastmile_qr_scan"}, "lon": -77.04869183333334, "type": "electric_scooter"}, {"bike_id": "36d6c9d0576f4c4bbcf447581225a77b", "is_reserved": 0, "fusion_lon": 0.0, "lat": 38.940841166666665, "is_disabled": 0, "name": "36d6c9d0576f4c4bbcf447581225a77b", "fusion_lat": 0.0, "rental_uris": {"ios": "https://dc.lft.to/lastmile_qr_scan", "android": "https://dc.lft.to/lastmile_qr_scan"}, "lon": -77.06190333333333, "type": "electric_scooter"}, {"bike_id": "8ddae34cd65473dc10acbbac9536743d", "is_reserved": 0, "fusion_lon": 0.0, "lat": 38.9048635, "is_disabled": 0, "name": "8ddae34cd65473dc10acbbac9536743d", "fusion_lat": 0.0, "rental_uris": {"ios": "https://dc.lft.to/lastmile_qr_scan", "android": "https://dc.lft.to/lastmile_qr_scan"}, "lon": -77.04660083333333, "type": "electric_scooter"}, {"bike_id": "2fb03c0ee3c69f6371250fc9ec40fc1b", "is_reserved": 0, "fusion_lon": 0.0, "lat": 38.86518316666667, "is_disabled": 0, "name": "2fb03c0ee3c69f6371250fc9ec40fc1b", "fusion_lat": 0.0, "rental_uris": {"ios": "https://dc.lft.to/lastmile_qr_scan", "android": "https://dc.lft.to/lastmile_qr_scan"}, "lon": -76.990289, "type": "electric_scooter"}, {"bike_id": "b91faaf26b5337b14b26eeaacbdb26bb", "is_reserved": 0, "fusion_lon": 0.0, "lat": 38.851748666666666, "is_disabled": 0, "name": "b91faaf26b5337b14b26eeaacbdb26bb", "fusion_lat": 0.0, "rental_uris": {"ios": "https://dc.lft.to/lastmile_qr_scan", "android": "https://dc.lft.to/lastmile_qr_scan"}, "lon": -76.9957965, "type": "electric_scooter"}, {"bike_id": "8df50b9e2b013e72cecfa59164f12dd6", "is_reserved": 0, "fusion_lon": 0.0, "lat": 38.89724283333334, "is_disabled": 0, "name": "8df50b9e2b013e72cecfa59164f12dd6", "fusion_lat": 0.0, "rental_uris": {"ios": "https://dc.lft.to/lastmile_qr_scan", "android": "https://dc.lft.to/lastmile_qr_scan"}, "lon": -77.04607633333333, "type": "electric_scooter"}, {"bike_id": "a6225e68bb443e74565d48d1eb3624b3", "is_reserved": 0, "fusion_lon": 0.0, "lat": 38.91252816666667, "is_disabled": 0, "name": "a6225e68bb443e74565d48d1eb3624b3", "fusion_lat": 0.0, "rental_uris": {"ios": "https://dc.lft.to/lastmile_qr_scan", "android": "https://dc.lft.to/lastmile_qr_scan"}, "lon": -77.036228, "type": "electric_scooter"}, {"bike_id": "89ca52556e3bb48044dff5cbf52b4a73", "is_reserved": 0, "fusion_lon": 0.0, "lat": 38.885910833333334, "is_disabled": 0, "name": "89ca52556e3bb48044dff5cbf52b4a73", "fusion_lat": 0.0, "rental_uris": {"ios": "https://dc.lft.to/lastmile_qr_scan", "android": "https://dc.lft.to/lastmile_qr_scan"}, "lon": -77.0176755, "type": "electric_scooter"}, {"bike_id": "4e325cc51cfd3125ae8fc4fae9657307", "is_reserved": 0, "fusion_lon": 0.0, "lat": 38.863694833333334, "is_disabled": 0, "name": "4e325cc51cfd3125ae8fc4fae9657307", "fusion_lat": 0.0, "rental_uris": {"ios": "https://dc.lft.to/lastmile_qr_scan", "android": "https://dc.lft.to/lastmile_qr_scan"}, "lon": -76.99046566666667, "type": "electric_scooter"}, {"bike_id": "89a8bcd16e4580a0bc96162b738bc375", "is_reserved": 0, "fusion_lon": 0.0, "lat": 38.9518605, "is_disabled": 0, "name": "89a8bcd16e4580a0bc96162b738bc375", "fusion_lat": 0.0, "rental_uris": {"ios": "https://dc.lft.to/lastmile_qr_scan", "android": "https://dc.lft.to/lastmile_qr_scan"}, "lon": -76.93543283333334, "type": "electric_bike"}, {"bike_id": "4eb7195244d11ede6223f8d60fb8e414", "is_reserved": 0, "fusion_lon": 0.0, "lat": 38.919153, "is_disabled": 0, "name": "4eb7195244d11ede6223f8d60fb8e414", "fusion_lat": 0.0, "rental_uris": {"ios": "https://dc.lft.to/lastmile_qr_scan", "android": "https://dc.lft.to/lastmile_qr_scan"}, "lon": -77.03108833333333, "type": "electric_scooter"}, {"bike_id": "92aebfee5f73cd17f33c419aefe65dc2", "is_reserved": 0, "fusion_lon": 0.0, "lat": 38.91376733333333, "is_disabled": 0, "name": "92aebfee5f73cd17f33c419aefe65dc2", "fusion_lat": 0.0, "rental_uris": {"ios": "https://dc.lft.to/lastmile_qr_scan", "android": "https://dc.lft.to/lastmile_qr_scan"}, "lon": -77.00827033333333, "type": "electric_scooter"}, {"bike_id": "002d7db847d8406d89c0b9cba9213d21", "is_reserved": 0, "fusion_lon": 0.0, "lat": 38.903565, "is_disabled": 0, "name": "002d7db847d8406d89c0b9cba9213d21", "fusion_lat": 0.0, "rental_uris": {"ios": "https://dc.lft.to/lastmile_qr_scan", "android": "https://dc.lft.to/lastmile_qr_scan"}, "lon": -77.03216416666666, "type": "electric_scooter"}, {"bike_id": "6ff4d1a1dda51b08a0ea10f394c4e653", "is_reserved": 0, "fusion_lon": 0.0, "lat": 38.924794166666665, "is_disabled": 0, "name": "6ff4d1a1dda51b08a0ea10f394c4e653", "fusion_lat": 0.0, "rental_uris": {"ios": "https://dc.lft.to/lastmile_qr_scan", "android": "https://dc.lft.to/lastmile_qr_scan"}, "lon": -77.02241166666667, "type": "electric_scooter"}, {"bike_id": "1cc0542a380ca76d7ede23925c4ccd40", "is_reserved": 0, "fusion_lon": 0.0, "lat": 38.892332333333336, "is_disabled": 0, "name": "1cc0542a380ca76d7ede23925c4ccd40", "fusion_lat": 0.0, "rental_uris": {"ios": "https://dc.lft.to/lastmile_qr_scan", "android": "https://dc.lft.to/lastmile_qr_scan"}, "lon": -77.0500245, "type": "electric_scooter"}, {"bike_id": "10344fcbb6de2efb0fa6394080fbf28b", "is_reserved": 0, "fusion_lon": 0.0, "lat": 38.8923325, "is_disabled": 0, "name": "10344fcbb6de2efb0fa6394080fbf28b", "fusion_lat": 0.0, "rental_uris": {"ios": "https://dc.lft.to/lastmile_qr_scan", "android": "https://dc.lft.to/lastmile_qr_scan"}, "lon": -77.0280075, "type": "electric_scooter"}, {"bike_id": "80fdda8e59513909d85781acb72ca622", "is_reserved": 0, "fusion_lon": 0.0, "lat": 38.88931816666667, "is_disabled": 0, "name": "80fdda8e59513909d85781acb72ca622", "fusion_lat": 0.0, "rental_uris": {"ios": "https://dc.lft.to/lastmile_qr_scan", "android": "https://dc.lft.to/lastmile_qr_scan"}, "lon": -76.93615433333333, "type": "electric_scooter"}, {"bike_id": "7bf61afc8ee592e8f27ef5a87fa86b62", "is_reserved": 0, "fusion_lon": 0.0, "lat": 38.91772983333333, "is_disabled": 0, "name": "7bf61afc8ee592e8f27ef5a87fa86b62", "fusion_lat": 0.0, "rental_uris": {"ios": "https://dc.lft.to/lastmile_qr_scan", "android": "https://dc.lft.to/lastmile_qr_scan"}, "lon": -77.023153, "type": "electric_scooter"}, {"bike_id": "4c480c21b1da6e0279d6327f8e1cc2f5", "is_reserved": 0, "fusion_lon": 0.0, "lat": 38.927448, "is_disabled": 0, "name": "4c480c21b1da6e0279d6327f8e1cc2f5", "fusion_lat": 0.0, "rental_uris": {"ios": "https://dc.lft.to/lastmile_qr_scan", "android": "https://dc.lft.to/lastmile_qr_scan"}, "lon": -77.025365, "type": "electric_scooter"}, {"bike_id": "4965936fff4704e3fd8025d03edc0c47", "is_reserved": 0, "fusion_lon": 0.0, "lat": 38.883608833333334, "is_disabled": 0, "name": "4965936fff4704e3fd8025d03edc0c47", "fusion_lat": 0.0, "rental_uris": {"ios": "https://dc.lft.to/lastmile_qr_scan", "android": "https://dc.lft.to/lastmile_qr_scan"}, "lon": -77.031735, "type": "electric_scooter"}, {"bike_id": "f92b81604845bf6a309130849ba6d274", "is_reserved": 0, "fusion_lon": 0.0, "lat": 38.8987605, "is_disabled": 0, "name": "f92b81604845bf6a309130849ba6d274", "fusion_lat": 0.0, "rental_uris": {"ios": "https://dc.lft.to/lastmile_qr_scan", "android": "https://dc.lft.to/lastmile_qr_scan"}, "lon": -76.93186166666666, "type": "electric_scooter"}, {"bike_id": "9608003d77cd0856717a6d250e31f2e5", "is_reserved": 0, "fusion_lon": 0.0, "lat": 38.933864666666665, "is_disabled": 0, "name": "9608003d77cd0856717a6d250e31f2e5", "fusion_lat": 0.0, "rental_uris": {"ios": "https://dc.lft.to/lastmile_qr_scan", "android": "https://dc.lft.to/lastmile_qr_scan"}, "lon": -77.02904516666666, "type": "electric_scooter"}, {"bike_id": "64e1ff69c4f5f0e18e7a4f1b8c57522e", "is_reserved": 0, "fusion_lon": 0.0, "lat": 38.90848533333333, "is_disabled": 0, "name": "64e1ff69c4f5f0e18e7a4f1b8c57522e", "fusion_lat": 0.0, "rental_uris": {"ios": "https://dc.lft.to/lastmile_qr_scan", "android": "https://dc.lft.to/lastmile_qr_scan"}, "lon": -77.085234, "type": "electric_scooter"}, {"bike_id": "86790d540008bbd64362b6c5ce97306c", "is_reserved": 0, "fusion_lon": 0.0, "lat": 38.92611133333333, "is_disabled": 0, "name": "86790d540008bbd64362b6c5ce97306c", "fusion_lat": 0.0, "rental_uris": {"ios": "https://dc.lft.to/lastmile_qr_scan", "android": "https://dc.lft.to/lastmile_qr_scan"}, "lon": -77.04415166666666, "type": "electric_scooter"}, {"bike_id": "e20d8d292d0a21f45ee4f97f930d4c06", "is_reserved": 0, "fusion_lon": 0.0, "lat": 38.870712833333336, "is_disabled": 0, "name": "e20d8d292d0a21f45ee4f97f930d4c06", "fusion_lat": 0.0, "rental_uris": {"ios": "https://dc.lft.to/lastmile_qr_scan", "android": "https://dc.lft.to/lastmile_qr_scan"}, "lon": -76.9823705, "type": "electric_scooter"}, {"bike_id": "d419f363ae696731b6b4d86ef8d759c2", "is_reserved": 0, "fusion_lon": 0.0, "lat": 38.905288166666665, "is_disabled": 0, "name": "d419f363ae696731b6b4d86ef8d759c2", "fusion_lat": 0.0, "rental_uris": {"ios": "https://dc.lft.to/lastmile_qr_scan", "android": "https://dc.lft.to/lastmile_qr_scan"}, "lon": -77.05764066666667, "type": "electric_bike"}, {"bike_id": "3742e988d10f696881db0c3eafa7df7e", "is_reserved": 0, "fusion_lon": 0.0, "lat": 38.921964, "is_disabled": 0, "name": "3742e988d10f696881db0c3eafa7df7e", "fusion_lat": 0.0, "rental_uris": {"ios": "https://dc.lft.to/lastmile_qr_scan", "android": "https://dc.lft.to/lastmile_qr_scan"}, "lon": -77.04230983333333, "type": "electric_scooter"}, {"bike_id": "172968c5618c5b29e4950be98d40947a", "is_reserved": 0, "fusion_lon": 0.0, "lat": 38.92468433333333, "is_disabled": 0, "name": "172968c5618c5b29e4950be98d40947a", "fusion_lat": 0.0, "rental_uris": {"ios": "https://dc.lft.to/lastmile_qr_scan", "android": "https://dc.lft.to/lastmile_qr_scan"}, "lon": -77.02713166666666, "type": "electric_scooter"}, {"bike_id": "6e3b895053591b0a067d1bc031f85d67", "is_reserved": 0, "fusion_lon": 0.0, "lat": 38.90773816666667, "is_disabled": 0, "name": "6e3b895053591b0a067d1bc031f85d67", "fusion_lat": 0.0, "rental_uris": {"ios": "https://dc.lft.to/lastmile_qr_scan", "android": "https://dc.lft.to/lastmile_qr_scan"}, "lon": -77.03839716666667, "type": "electric_scooter"}, {"bike_id": "85ac0c5535120ca860a2c9262497b668", "is_reserved": 0, "fusion_lon": 0.0, "lat": 38.94437516666667, "is_disabled": 0, "name": "85ac0c5535120ca860a2c9262497b668", "fusion_lat": 0.0, "rental_uris": {"ios": "https://dc.lft.to/lastmile_qr_scan", "android": "https://dc.lft.to/lastmile_qr_scan"}, "lon": -77.06350083333334, "type": "electric_scooter"}, {"bike_id": "998542ed730c48d275dd21ebeed97234", "is_reserved": 0, "fusion_lon": 0.0, "lat": 38.90061883333333, "is_disabled": 0, "name": "998542ed730c48d275dd21ebeed97234", "fusion_lat": 0.0, "rental_uris": {"ios": "https://dc.lft.to/lastmile_qr_scan", "android": "https://dc.lft.to/lastmile_qr_scan"}, "lon": -77.0021105, "type": "electric_scooter"}, {"bike_id": "63ecc306b798795d9e2e925184b28069", "is_reserved": 0, "fusion_lon": 0.0, "lat": 38.91977833333333, "is_disabled": 0, "name": "63ecc306b798795d9e2e925184b28069", "fusion_lat": 0.0, "rental_uris": {"ios": "https://dc.lft.to/lastmile_qr_scan", "android": "https://dc.lft.to/lastmile_qr_scan"}, "lon": -77.04438333333333, "type": "electric_scooter"}, {"bike_id": "b225c809d035ef45bd6686471025a169", "is_reserved": 0, "fusion_lon": 0.0, "lat": 38.91335433333333, "is_disabled": 0, "name": "b225c809d035ef45bd6686471025a169", "fusion_lat": 0.0, "rental_uris": {"ios": "https://dc.lft.to/lastmile_qr_scan", "android": "https://dc.lft.to/lastmile_qr_scan"}, "lon": -77.04822016666667, "type": "electric_scooter"}, {"bike_id": "bc3b478f08a35031f1a383ed499850c1", "is_reserved": 0, "fusion_lon": 0.0, "lat": 38.8792195, "is_disabled": 0, "name": "bc3b478f08a35031f1a383ed499850c1", "fusion_lat": 0.0, "rental_uris": {"ios": "https://dc.lft.to/lastmile_qr_scan", "android": "https://dc.lft.to/lastmile_qr_scan"}, "lon": -76.99250783333333, "type": "electric_scooter"}, {"bike_id": "527a78f989477f608082a69c1e8f3417", "is_reserved": 0, "fusion_lon": 0.0, "lat": 38.89830466666667, "is_disabled": 0, "name": "527a78f989477f608082a69c1e8f3417", "fusion_lat": 0.0, "rental_uris": {"ios": "https://dc.lft.to/lastmile_qr_scan", "android": "https://dc.lft.to/lastmile_qr_scan"}, "lon": -77.05024616666667, "type": "electric_scooter"}, {"bike_id": "947cecc12c3a9abcc38a82491d30dfda", "is_reserved": 0, "fusion_lon": 0.0, "lat": 38.934947, "is_disabled": 0, "name": "947cecc12c3a9abcc38a82491d30dfda", "fusion_lat": 0.0, "rental_uris": {"ios": "https://dc.lft.to/lastmile_qr_scan", "android": "https://dc.lft.to/lastmile_qr_scan"}, "lon": -77.0284405, "type": "electric_scooter"}, {"bike_id": "1c866387579dc9d77245138aaf4cc465", "is_reserved": 0, "fusion_lon": 0.0, "lat": 38.8774475, "is_disabled": 0, "name": "1c866387579dc9d77245138aaf4cc465", "fusion_lat": 0.0, "rental_uris": {"ios": "https://dc.lft.to/lastmile_qr_scan", "android": "https://dc.lft.to/lastmile_qr_scan"}, "lon": -76.98053566666667, "type": "electric_bike"}, {"bike_id": "89e44068fed32be1fc2a45acf8c4c8a1", "is_reserved": 0, "fusion_lon": 0.0, "lat": 38.854301166666666, "is_disabled": 0, "name": "89e44068fed32be1fc2a45acf8c4c8a1", "fusion_lat": 0.0, "rental_uris": {"ios": "https://dc.lft.to/lastmile_qr_scan", "android": "https://dc.lft.to/lastmile_qr_scan"}, "lon": -76.90979766666666, "type": "electric_bike"}, {"bike_id": "7489293f6521cd3b542d4d5609bde1cf", "is_reserved": 0, "fusion_lon": 0.0, "lat": 38.90336333333333, "is_disabled": 0, "name": "7489293f6521cd3b542d4d5609bde1cf", "fusion_lat": 0.0, "rental_uris": {"ios": "https://dc.lft.to/lastmile_qr_scan", "android": "https://dc.lft.to/lastmile_qr_scan"}, "lon": -77.03338216666667, "type": "electric_scooter"}, {"bike_id": "062b8f6c88595ad7aa9cb257f5e1cb57", "is_reserved": 0, "fusion_lon": 0.0, "lat": 38.88601533333333, "is_disabled": 0, "name": "062b8f6c88595ad7aa9cb257f5e1cb57", "fusion_lat": 0.0, "rental_uris": {"ios": "https://dc.lft.to/lastmile_qr_scan", "android": "https://dc.lft.to/lastmile_qr_scan"}, "lon": -77.0056715, "type": "electric_scooter"}, {"bike_id": "bdbffdedf4d487ec940415afa80375b4", "is_reserved": 0, "fusion_lon": 0.0, "lat": 38.8104825, "is_disabled": 0, "name": "bdbffdedf4d487ec940415afa80375b4", "fusion_lat": 0.0, "rental_uris": {"ios": "https://dc.lft.to/lastmile_qr_scan", "android": "https://dc.lft.to/lastmile_qr_scan"}, "lon": -77.08508516666667, "type": "electric_bike"}, {"bike_id": "6372050a8d4519635033c5e90e5fafea", "is_reserved": 0, "fusion_lon": 0.0, "lat": 38.84423983333333, "is_disabled": 0, "name": "6372050a8d4519635033c5e90e5fafea", "fusion_lat": 0.0, "rental_uris": {"ios": "https://dc.lft.to/lastmile_qr_scan", "android": "https://dc.lft.to/lastmile_qr_scan"}, "lon": -76.99778566666667, "type": "electric_scooter"}, {"bike_id": "d0c5dc522dc9baa4a9b090fd6732c123", "is_reserved": 0, "fusion_lon": 0.0, "lat": 38.90238383333333, "is_disabled": 0, "name": "d0c5dc522dc9baa4a9b090fd6732c123", "fusion_lat": 0.0, "rental_uris": {"ios": "https://dc.lft.to/lastmile_qr_scan", "android": "https://dc.lft.to/lastmile_qr_scan"}, "lon": -77.001984, "type": "electric_scooter"}, {"bike_id": "b8ee10dd45c1f78e490e1a18c43e5316", "is_reserved": 0, "fusion_lon": 0.0, "lat": 38.8921975, "is_disabled": 0, "name": "b8ee10dd45c1f78e490e1a18c43e5316", "fusion_lat": 0.0, "rental_uris": {"ios": "https://dc.lft.to/lastmile_qr_scan", "android": "https://dc.lft.to/lastmile_qr_scan"}, "lon": -77.04861583333333, "type": "electric_scooter"}, {"bike_id": "61f8faa4e729e26cf5435e24876261d4", "is_reserved": 0, "fusion_lon": 0.0, "lat": 38.90381383333333, "is_disabled": 0, "name": "61f8faa4e729e26cf5435e24876261d4", "fusion_lat": 0.0, "rental_uris": {"ios": "https://dc.lft.to/lastmile_qr_scan", "android": "https://dc.lft.to/lastmile_qr_scan"}, "lon": -77.053085, "type": "electric_scooter"}, {"bike_id": "bb4c6cb4e7ae1449d0e89b9e1b9661d2", "is_reserved": 0, "fusion_lon": 0.0, "lat": 38.89964116666667, "is_disabled": 0, "name": "bb4c6cb4e7ae1449d0e89b9e1b9661d2", "fusion_lat": 0.0, "rental_uris": {"ios": "https://dc.lft.to/lastmile_qr_scan", "android": "https://dc.lft.to/lastmile_qr_scan"}, "lon": -77.03190083333334, "type": "electric_scooter"}, {"bike_id": "06dd7ad5f6169361a7b4c7cfd4b8218e", "is_reserved": 0, "fusion_lon": 0.0, "lat": 38.895442833333334, "is_disabled": 0, "name": "06dd7ad5f6169361a7b4c7cfd4b8218e", "fusion_lat": 0.0, "rental_uris": {"ios": "https://dc.lft.to/lastmile_qr_scan", "android": "https://dc.lft.to/lastmile_qr_scan"}, "lon": -76.983378, "type": "electric_scooter"}, {"bike_id": "7cdf1bd9cb52f2056f6cb11c0beb0bc4", "is_reserved": 0, "fusion_lon": 0.0, "lat": 38.90517166666667, "is_disabled": 0, "name": "7cdf1bd9cb52f2056f6cb11c0beb0bc4", "fusion_lat": 0.0, "rental_uris": {"ios": "https://dc.lft.to/lastmile_qr_scan", "android": "https://dc.lft.to/lastmile_qr_scan"}, "lon": -77.06534116666667, "type": "electric_scooter"}, {"bike_id": "9812aa8bb9b4625bca1b819645ad38c7", "is_reserved": 0, "fusion_lon": 0.0, "lat": 38.884047, "is_disabled": 0, "name": "9812aa8bb9b4625bca1b819645ad38c7", "fusion_lat": 0.0, "rental_uris": {"ios": "https://dc.lft.to/lastmile_qr_scan", "android": "https://dc.lft.to/lastmile_qr_scan"}, "lon": -77.01782666666666, "type": "electric_scooter"}, {"bike_id": "b78315c254b7deee1017ba19db035545", "is_reserved": 0, "fusion_lon": 0.0, "lat": 38.92041583333334, "is_disabled": 0, "name": "b78315c254b7deee1017ba19db035545", "fusion_lat": 0.0, "rental_uris": {"ios": "https://dc.lft.to/lastmile_qr_scan", "android": "https://dc.lft.to/lastmile_qr_scan"}, "lon": -77.017555, "type": "electric_scooter"}, {"bike_id": "d79920cd8f6ad4b1b0e939e3123840ce", "is_reserved": 0, "fusion_lon": 0.0, "lat": 38.89782433333333, "is_disabled": 0, "name": "d79920cd8f6ad4b1b0e939e3123840ce", "fusion_lat": 0.0, "rental_uris": {"ios": "https://dc.lft.to/lastmile_qr_scan", "android": "https://dc.lft.to/lastmile_qr_scan"}, "lon": -77.03182133333334, "type": "electric_scooter"}, {"bike_id": "49f9f1e6d9fadb31b6be36d0ad40d394", "is_reserved": 0, "fusion_lon": 0.0, "lat": 38.91708533333333, "is_disabled": 0, "name": "49f9f1e6d9fadb31b6be36d0ad40d394", "fusion_lat": 0.0, "rental_uris": {"ios": "https://dc.lft.to/lastmile_qr_scan", "android": "https://dc.lft.to/lastmile_qr_scan"}, "lon": -77.03675966666667, "type": "electric_scooter"}, {"bike_id": "d1ff6cdd9262e73a4e548b5c1192e4c6", "is_reserved": 0, "fusion_lon": 0.0, "lat": 38.90727666666667, "is_disabled": 0, "name": "d1ff6cdd9262e73a4e548b5c1192e4c6", "fusion_lat": 0.0, "rental_uris": {"ios": "https://dc.lft.to/lastmile_qr_scan", "android": "https://dc.lft.to/lastmile_qr_scan"}, "lon": -77.03052766666667, "type": "electric_scooter"}, {"bike_id": "32d22b01aa000c64cc0ca480735c926e", "is_reserved": 0, "fusion_lon": 0.0, "lat": 38.9001625, "is_disabled": 0, "name": "32d22b01aa000c64cc0ca480735c926e", "fusion_lat": 0.0, "rental_uris": {"ios": "https://dc.lft.to/lastmile_qr_scan", "android": "https://dc.lft.to/lastmile_qr_scan"}, "lon": -77.03015283333333, "type": "electric_scooter"}, {"bike_id": "9945e31d409f1ed29948800fd5fdb5b0", "is_reserved": 0, "fusion_lon": 0.0, "lat": 38.86288033333334, "is_disabled": 0, "name": "9945e31d409f1ed29948800fd5fdb5b0", "fusion_lat": 0.0, "rental_uris": {"ios": "https://dc.lft.to/lastmile_qr_scan", "android": "https://dc.lft.to/lastmile_qr_scan"}, "lon": -76.99231816666666, "type": "electric_scooter"}, {"bike_id": "f3cc502801765b5e7a332f88512795c0", "is_reserved": 0, "fusion_lon": 0.0, "lat": 38.905085, "is_disabled": 0, "name": "f3cc502801765b5e7a332f88512795c0", "fusion_lat": 0.0, "rental_uris": {"ios": "https://dc.lft.to/lastmile_qr_scan", "android": "https://dc.lft.to/lastmile_qr_scan"}, "lon": -77.059525, "type": "electric_bike"}, {"bike_id": "eaa307e909cdd025e4544457544ce950", "is_reserved": 0, "fusion_lon": 0.0, "lat": 38.9241725, "is_disabled": 0, "name": "eaa307e909cdd025e4544457544ce950", "fusion_lat": 0.0, "rental_uris": {"ios": "https://dc.lft.to/lastmile_qr_scan", "android": "https://dc.lft.to/lastmile_qr_scan"}, "lon": -77.0194365, "type": "electric_scooter"}, {"bike_id": "d96574e24f92c4256284aba1e2a14f09", "is_reserved": 0, "fusion_lon": 0.0, "lat": 38.941831, "is_disabled": 0, "name": "d96574e24f92c4256284aba1e2a14f09", "fusion_lat": 0.0, "rental_uris": {"ios": "https://dc.lft.to/lastmile_qr_scan", "android": "https://dc.lft.to/lastmile_qr_scan"}, "lon": -77.02528733333334, "type": "electric_scooter"}, {"bike_id": "d998d4ab13acc35f471d319e7732e8d4", "is_reserved": 0, "fusion_lon": 0.0, "lat": 38.9235375, "is_disabled": 0, "name": "d998d4ab13acc35f471d319e7732e8d4", "fusion_lat": 0.0, "rental_uris": {"ios": "https://dc.lft.to/lastmile_qr_scan", "android": "https://dc.lft.to/lastmile_qr_scan"}, "lon": -77.05243816666666, "type": "electric_scooter"}, {"bike_id": "e561c56948645baf50599de14cb0591d", "is_reserved": 0, "fusion_lon": 0.0, "lat": 38.906125, "is_disabled": 0, "name": "e561c56948645baf50599de14cb0591d", "fusion_lat": 0.0, "rental_uris": {"ios": "https://dc.lft.to/lastmile_qr_scan", "android": "https://dc.lft.to/lastmile_qr_scan"}, "lon": -77.07488766666667, "type": "electric_scooter"}, {"bike_id": "2d2fd0c8eb3233c280286c7ee7eb2789", "is_reserved": 0, "fusion_lon": 0.0, "lat": 39.03883483333333, "is_disabled": 0, "name": "2d2fd0c8eb3233c280286c7ee7eb2789", "fusion_lat": 0.0, "rental_uris": {"ios": "https://dc.lft.to/lastmile_qr_scan", "android": "https://dc.lft.to/lastmile_qr_scan"}, "lon": -76.99042416666667, "type": "electric_bike"}, {"bike_id": "bd758de31a3db5e369a3d81c2a4190b9", "is_reserved": 0, "fusion_lon": 0.0, "lat": 38.88769666666666, "is_disabled": 0, "name": "bd758de31a3db5e369a3d81c2a4190b9", "fusion_lat": 0.0, "rental_uris": {"ios": "https://dc.lft.to/lastmile_qr_scan", "android": "https://dc.lft.to/lastmile_qr_scan"}, "lon": -77.030166, "type": "electric_scooter"}, {"bike_id": "ab4bab4f77324b5a0b162ac76a57a1e8", "is_reserved": 0, "fusion_lon": 0.0, "lat": 38.89219383333333, "is_disabled": 0, "name": "ab4bab4f77324b5a0b162ac76a57a1e8", "fusion_lat": 0.0, "rental_uris": {"ios": "https://dc.lft.to/lastmile_qr_scan", "android": "https://dc.lft.to/lastmile_qr_scan"}, "lon": -77.02444433333334, "type": "electric_scooter"}, {"bike_id": "f4fdda23acc8b4ed0e7529a2a982c9e3", "is_reserved": 0, "fusion_lon": 0.0, "lat": 38.858077333333334, "is_disabled": 0, "name": "f4fdda23acc8b4ed0e7529a2a982c9e3", "fusion_lat": 0.0, "rental_uris": {"ios": "https://dc.lft.to/lastmile_qr_scan", "android": "https://dc.lft.to/lastmile_qr_scan"}, "lon": -76.98652433333334, "type": "electric_scooter"}, {"bike_id": "34899ad9e5301d9a1cb2954f61cb9bc7", "is_reserved": 0, "fusion_lon": 0.0, "lat": 38.904919, "is_disabled": 0, "name": "34899ad9e5301d9a1cb2954f61cb9bc7", "fusion_lat": 0.0, "rental_uris": {"ios": "https://dc.lft.to/lastmile_qr_scan", "android": "https://dc.lft.to/lastmile_qr_scan"}, "lon": -77.06018433333334, "type": "electric_scooter"}, {"bike_id": "cbc4ea24cd694ea19ccc5961c36a9b87", "is_reserved": 0, "fusion_lon": 0.0, "lat": 38.90959133333333, "is_disabled": 0, "name": "cbc4ea24cd694ea19ccc5961c36a9b87", "fusion_lat": 0.0, "rental_uris": {"ios": "https://dc.lft.to/lastmile_qr_scan", "android": "https://dc.lft.to/lastmile_qr_scan"}, "lon": -77.04863216666666, "type": "electric_scooter"}, {"bike_id": "27f29f50393eb5399b660715b0a139e4", "is_reserved": 0, "fusion_lon": 0.0, "lat": 38.88834216666667, "is_disabled": 0, "name": "27f29f50393eb5399b660715b0a139e4", "fusion_lat": 0.0, "rental_uris": {"ios": "https://dc.lft.to/lastmile_qr_scan", "android": "https://dc.lft.to/lastmile_qr_scan"}, "lon": -76.97731116666667, "type": "electric_scooter"}, {"bike_id": "207c13bb7823f7ccebe8a7d63b99c0eb", "is_reserved": 0, "fusion_lon": 0.0, "lat": 38.90574866666667, "is_disabled": 0, "name": "207c13bb7823f7ccebe8a7d63b99c0eb", "fusion_lat": 0.0, "rental_uris": {"ios": "https://dc.lft.to/lastmile_qr_scan", "android": "https://dc.lft.to/lastmile_qr_scan"}, "lon": -77.04053866666666, "type": "electric_scooter"}, {"bike_id": "af49e98580461a10b47e7592667cf6d5", "is_reserved": 0, "fusion_lon": 0.0, "lat": 38.90294033333333, "is_disabled": 0, "name": "af49e98580461a10b47e7592667cf6d5", "fusion_lat": 0.0, "rental_uris": {"ios": "https://dc.lft.to/lastmile_qr_scan", "android": "https://dc.lft.to/lastmile_qr_scan"}, "lon": -77.04585133333333, "type": "electric_scooter"}, {"bike_id": "119454f0373902ebd10e998c31a94dc1", "is_reserved": 0, "fusion_lon": 0.0, "lat": 38.928570666666666, "is_disabled": 0, "name": "119454f0373902ebd10e998c31a94dc1", "fusion_lat": 0.0, "rental_uris": {"ios": "https://dc.lft.to/lastmile_qr_scan", "android": "https://dc.lft.to/lastmile_qr_scan"}, "lon": -77.22208566666667, "type": "electric_bike"}, {"bike_id": "21db998291777db2459c32b5f4eee118", "is_reserved": 0, "fusion_lon": 0.0, "lat": 38.95339516666667, "is_disabled": 0, "name": "21db998291777db2459c32b5f4eee118", "fusion_lat": 0.0, "rental_uris": {"ios": "https://dc.lft.to/lastmile_qr_scan", "android": "https://dc.lft.to/lastmile_qr_scan"}, "lon": -77.00958, "type": "electric_bike"}, {"bike_id": "01583423a0df18838910d898dcadd8b9", "is_reserved": 0, "fusion_lon": 0.0, "lat": 39.08857716666667, "is_disabled": 0, "name": "01583423a0df18838910d898dcadd8b9", "fusion_lat": 0.0, "rental_uris": {"ios": "https://dc.lft.to/lastmile_qr_scan", "android": "https://dc.lft.to/lastmile_qr_scan"}, "lon": -77.17842566666667, "type": "electric_bike"}, {"bike_id": "67cd9956a6abb52965484345496c8d87", "is_reserved": 0, "fusion_lon": 0.0, "lat": 38.92353466666667, "is_disabled": 0, "name": "67cd9956a6abb52965484345496c8d87", "fusion_lat": 0.0, "rental_uris": {"ios": "https://dc.lft.to/lastmile_qr_scan", "android": "https://dc.lft.to/lastmile_qr_scan"}, "lon": -77.041535, "type": "electric_scooter"}, {"bike_id": "c8b9d8b74baa5fadcd4a6473ee82b694", "is_reserved": 0, "fusion_lon": 0.0, "lat": 38.915397, "is_disabled": 0, "name": "c8b9d8b74baa5fadcd4a6473ee82b694", "fusion_lat": 0.0, "rental_uris": {"ios": "https://dc.lft.to/lastmile_qr_scan", "android": "https://dc.lft.to/lastmile_qr_scan"}, "lon": -77.02204066666667, "type": "electric_scooter"}, {"bike_id": "64b2b8c4da76dc54796b3de6aef559f8", "is_reserved": 0, "fusion_lon": 0.0, "lat": 38.905856, "is_disabled": 0, "name": "64b2b8c4da76dc54796b3de6aef559f8", "fusion_lat": 0.0, "rental_uris": {"ios": "https://dc.lft.to/lastmile_qr_scan", "android": "https://dc.lft.to/lastmile_qr_scan"}, "lon": -77.00931916666667, "type": "electric_bike"}, {"bike_id": "d32a972f31d73533f49131c00e60a6e9", "is_reserved": 0, "fusion_lon": 0.0, "lat": 38.919227166666666, "is_disabled": 0, "name": "d32a972f31d73533f49131c00e60a6e9", "fusion_lat": 0.0, "rental_uris": {"ios": "https://dc.lft.to/lastmile_qr_scan", "android": "https://dc.lft.to/lastmile_qr_scan"}, "lon": -77.03174416666667, "type": "electric_scooter"}, {"bike_id": "6153f8724e082bb2d6403910c8f87ef1", "is_reserved": 0, "fusion_lon": 0.0, "lat": 38.9093545, "is_disabled": 0, "name": "6153f8724e082bb2d6403910c8f87ef1", "fusion_lat": 0.0, "rental_uris": {"ios": "https://dc.lft.to/lastmile_qr_scan", "android": "https://dc.lft.to/lastmile_qr_scan"}, "lon": -77.04882333333333, "type": "electric_scooter"}, {"bike_id": "3703686bda9189f7d65bbc777394f20f", "is_reserved": 0, "fusion_lon": 0.0, "lat": 38.95651333333333, "is_disabled": 0, "name": "3703686bda9189f7d65bbc777394f20f", "fusion_lat": 0.0, "rental_uris": {"ios": "https://dc.lft.to/lastmile_qr_scan", "android": "https://dc.lft.to/lastmile_qr_scan"}, "lon": -77.01967516666667, "type": "electric_scooter"}, {"bike_id": "6d17f3f966309f297fd77e54bc1642a6", "is_reserved": 0, "fusion_lon": 0.0, "lat": 38.95749033333333, "is_disabled": 0, "name": "6d17f3f966309f297fd77e54bc1642a6", "fusion_lat": 0.0, "rental_uris": {"ios": "https://dc.lft.to/lastmile_qr_scan", "android": "https://dc.lft.to/lastmile_qr_scan"}, "lon": -77.02414816666666, "type": "electric_scooter"}, {"bike_id": "24a14472fbd85cda19f3bf9dca052259", "is_reserved": 0, "fusion_lon": 0.0, "lat": 38.898427166666664, "is_disabled": 0, "name": "24a14472fbd85cda19f3bf9dca052259", "fusion_lat": 0.0, "rental_uris": {"ios": "https://dc.lft.to/lastmile_qr_scan", "android": "https://dc.lft.to/lastmile_qr_scan"}, "lon": -77.01732833333334, "type": "electric_bike"}, {"bike_id": "17444f12df5c88f685a16493963383c0", "is_reserved": 0, "fusion_lon": 0.0, "lat": 38.9171375, "is_disabled": 0, "name": "17444f12df5c88f685a16493963383c0", "fusion_lat": 0.0, "rental_uris": {"ios": "https://dc.lft.to/lastmile_qr_scan", "android": "https://dc.lft.to/lastmile_qr_scan"}, "lon": -77.02307933333333, "type": "electric_scooter"}, {"bike_id": "2b77b5d9f236f95f95b0b47ef37a6a3d", "is_reserved": 0, "fusion_lon": 0.0, "lat": 38.92184433333333, "is_disabled": 0, "name": "2b77b5d9f236f95f95b0b47ef37a6a3d", "fusion_lat": 0.0, "rental_uris": {"ios": "https://dc.lft.to/lastmile_qr_scan", "android": "https://dc.lft.to/lastmile_qr_scan"}, "lon": -77.04293966666667, "type": "electric_scooter"}, {"bike_id": "3e28744c528defcb412926b26de20737", "is_reserved": 0, "fusion_lon": 0.0, "lat": 38.924822166666665, "is_disabled": 0, "name": "3e28744c528defcb412926b26de20737", "fusion_lat": 0.0, "rental_uris": {"ios": "https://dc.lft.to/lastmile_qr_scan", "android": "https://dc.lft.to/lastmile_qr_scan"}, "lon": -77.0213245, "type": "electric_scooter"}, {"bike_id": "1fe5798846c9c5cb7a09545133ea3cac", "is_reserved": 0, "fusion_lon": 0.0, "lat": 38.90146383333333, "is_disabled": 0, "name": "1fe5798846c9c5cb7a09545133ea3cac", "fusion_lat": 0.0, "rental_uris": {"ios": "https://dc.lft.to/lastmile_qr_scan", "android": "https://dc.lft.to/lastmile_qr_scan"}, "lon": -77.04302516666667, "type": "electric_scooter"}, {"bike_id": "1f54c644ceea9d2bcded9608167cd57b", "is_reserved": 0, "fusion_lon": 0.0, "lat": 38.940845, "is_disabled": 0, "name": "1f54c644ceea9d2bcded9608167cd57b", "fusion_lat": 0.0, "rental_uris": {"ios": "https://dc.lft.to/lastmile_qr_scan", "android": "https://dc.lft.to/lastmile_qr_scan"}, "lon": -77.02720383333333, "type": "electric_scooter"}, {"bike_id": "2c2e64a2cd3d62f1d4040c992f36aaf6", "is_reserved": 0, "fusion_lon": 0.0, "lat": 38.9024, "is_disabled": 0, "name": "2c2e64a2cd3d62f1d4040c992f36aaf6", "fusion_lat": 0.0, "rental_uris": {"ios": "https://dc.lft.to/lastmile_qr_scan", "android": "https://dc.lft.to/lastmile_qr_scan"}, "lon": -77.00580966666666, "type": "electric_scooter"}, {"bike_id": "793a184c74f212787509ea6b09990041", "is_reserved": 0, "fusion_lon": 0.0, "lat": 38.90712833333333, "is_disabled": 0, "name": "793a184c74f212787509ea6b09990041", "fusion_lat": 0.0, "rental_uris": {"ios": "https://dc.lft.to/lastmile_qr_scan", "android": "https://dc.lft.to/lastmile_qr_scan"}, "lon": -77.03205083333333, "type": "electric_scooter"}, {"bike_id": "827f048a97b77b6f0251daba9b9d96d6", "is_reserved": 0, "fusion_lon": 0.0, "lat": 38.950882, "is_disabled": 0, "name": "827f048a97b77b6f0251daba9b9d96d6", "fusion_lat": 0.0, "rental_uris": {"ios": "https://dc.lft.to/lastmile_qr_scan", "android": "https://dc.lft.to/lastmile_qr_scan"}, "lon": -77.0282945, "type": "electric_scooter"}, {"bike_id": "c42b9366ebe70f309a36a0c105f3eac7", "is_reserved": 0, "fusion_lon": 0.0, "lat": 38.918246, "is_disabled": 0, "name": "c42b9366ebe70f309a36a0c105f3eac7", "fusion_lat": 0.0, "rental_uris": {"ios": "https://dc.lft.to/lastmile_qr_scan", "android": "https://dc.lft.to/lastmile_qr_scan"}, "lon": -77.03524183333333, "type": "electric_scooter"}, {"bike_id": "e4d077e0a28b5888e00de26721a43fd8", "is_reserved": 0, "fusion_lon": 0.0, "lat": 38.89841216666667, "is_disabled": 0, "name": "e4d077e0a28b5888e00de26721a43fd8", "fusion_lat": 0.0, "rental_uris": {"ios": "https://dc.lft.to/lastmile_qr_scan", "android": "https://dc.lft.to/lastmile_qr_scan"}, "lon": -77.03328066666667, "type": "electric_scooter"}, {"bike_id": "77ec9dbc768875ba4d1e29fe29a74c6d", "is_reserved": 0, "fusion_lon": 0.0, "lat": 38.820863333333335, "is_disabled": 0, "name": "77ec9dbc768875ba4d1e29fe29a74c6d", "fusion_lat": 0.0, "rental_uris": {"ios": "https://dc.lft.to/lastmile_qr_scan", "android": "https://dc.lft.to/lastmile_qr_scan"}, "lon": -77.05365183333333, "type": "electric_bike"}, {"bike_id": "dfc4b9e889c564d45709322d68d15c2b", "is_reserved": 0, "fusion_lon": 0.0, "lat": 38.8922875, "is_disabled": 0, "name": "dfc4b9e889c564d45709322d68d15c2b", "fusion_lat": 0.0, "rental_uris": {"ios": "https://dc.lft.to/lastmile_qr_scan", "android": "https://dc.lft.to/lastmile_qr_scan"}, "lon": -77.02175466666667, "type": "electric_scooter"}, {"bike_id": "4280aba4626989495dc5ec0a3feebc1e", "is_reserved": 0, "fusion_lon": 0.0, "lat": 38.921933333333335, "is_disabled": 0, "name": "4280aba4626989495dc5ec0a3feebc1e", "fusion_lat": 0.0, "rental_uris": {"ios": "https://dc.lft.to/lastmile_qr_scan", "android": "https://dc.lft.to/lastmile_qr_scan"}, "lon": -77.04247366666667, "type": "electric_scooter"}, {"bike_id": "aa096b9a334de23bf23a392f4cdeefe0", "is_reserved": 0, "fusion_lon": 0.0, "lat": 38.935328166666665, "is_disabled": 0, "name": "aa096b9a334de23bf23a392f4cdeefe0", "fusion_lat": 0.0, "rental_uris": {"ios": "https://dc.lft.to/lastmile_qr_scan", "android": "https://dc.lft.to/lastmile_qr_scan"}, "lon": -77.0235005, "type": "electric_scooter"}, {"bike_id": "44d15093ba13f0b75db53428520e0d72", "is_reserved": 0, "fusion_lon": 0.0, "lat": 38.909144833333336, "is_disabled": 0, "name": "44d15093ba13f0b75db53428520e0d72", "fusion_lat": 0.0, "rental_uris": {"ios": "https://dc.lft.to/lastmile_qr_scan", "android": "https://dc.lft.to/lastmile_qr_scan"}, "lon": -77.03138366666667, "type": "electric_scooter"}, {"bike_id": "a8ede79b9979d91d7141cec356416171", "is_reserved": 0, "fusion_lon": 0.0, "lat": 38.9024455, "is_disabled": 0, "name": "a8ede79b9979d91d7141cec356416171", "fusion_lat": 0.0, "rental_uris": {"ios": "https://dc.lft.to/lastmile_qr_scan", "android": "https://dc.lft.to/lastmile_qr_scan"}, "lon": -77.02691366666667, "type": "electric_scooter"}, {"bike_id": "61bff0c40f6474d7b2c12590f069b768", "is_reserved": 0, "fusion_lon": 0.0, "lat": 38.89648533333333, "is_disabled": 0, "name": "61bff0c40f6474d7b2c12590f069b768", "fusion_lat": 0.0, "rental_uris": {"ios": "https://dc.lft.to/lastmile_qr_scan", "android": "https://dc.lft.to/lastmile_qr_scan"}, "lon": -77.0434055, "type": "electric_scooter"}, {"bike_id": "aff75ba1a32c04984164d214c2bd38e0", "is_reserved": 0, "fusion_lon": 0.0, "lat": 38.9036035, "is_disabled": 0, "name": "aff75ba1a32c04984164d214c2bd38e0", "fusion_lat": 0.0, "rental_uris": {"ios": "https://dc.lft.to/lastmile_qr_scan", "android": "https://dc.lft.to/lastmile_qr_scan"}, "lon": -77.03786166666667, "type": "electric_scooter"}, {"bike_id": "8d4c0d6c3ca60e664eee2ffd4d0ecd1a", "is_reserved": 0, "fusion_lon": 0.0, "lat": 38.90960466666667, "is_disabled": 0, "name": "8d4c0d6c3ca60e664eee2ffd4d0ecd1a", "fusion_lat": 0.0, "rental_uris": {"ios": "https://dc.lft.to/lastmile_qr_scan", "android": "https://dc.lft.to/lastmile_qr_scan"}, "lon": -77.03164683333334, "type": "electric_scooter"}, {"bike_id": "730f530f966c498436fb1ad13577e7b9", "is_reserved": 0, "fusion_lon": 0.0, "lat": 38.90187233333333, "is_disabled": 0, "name": "730f530f966c498436fb1ad13577e7b9", "fusion_lat": 0.0, "rental_uris": {"ios": "https://dc.lft.to/lastmile_qr_scan", "android": "https://dc.lft.to/lastmile_qr_scan"}, "lon": -77.02086933333334, "type": "electric_scooter"}, {"bike_id": "9cfd85cb6d0b5848064b76ef4de46c43", "is_reserved": 0, "fusion_lon": 0.0, "lat": 38.918623, "is_disabled": 0, "name": "9cfd85cb6d0b5848064b76ef4de46c43", "fusion_lat": 0.0, "rental_uris": {"ios": "https://dc.lft.to/lastmile_qr_scan", "android": "https://dc.lft.to/lastmile_qr_scan"}, "lon": -77.04365983333334, "type": "electric_scooter"}, {"bike_id": "46a2805e481349e6f2ae87fbef0cf390", "is_reserved": 0, "fusion_lon": 0.0, "lat": 38.905735666666665, "is_disabled": 0, "name": "46a2805e481349e6f2ae87fbef0cf390", "fusion_lat": 0.0, "rental_uris": {"ios": "https://dc.lft.to/lastmile_qr_scan", "android": "https://dc.lft.to/lastmile_qr_scan"}, "lon": -77.03832016666667, "type": "electric_scooter"}, {"bike_id": "e7c6c288cbbd3a7e80224e172d8c4465", "is_reserved": 0, "fusion_lon": 0.0, "lat": 38.89219666666666, "is_disabled": 0, "name": "e7c6c288cbbd3a7e80224e172d8c4465", "fusion_lat": 0.0, "rental_uris": {"ios": "https://dc.lft.to/lastmile_qr_scan", "android": "https://dc.lft.to/lastmile_qr_scan"}, "lon": -77.03979016666666, "type": "electric_scooter"}, {"bike_id": "19f553df62ef91c1076e62c8875eaa0a", "is_reserved": 0, "fusion_lon": 0.0, "lat": 38.9267195, "is_disabled": 0, "name": "19f553df62ef91c1076e62c8875eaa0a", "fusion_lat": 0.0, "rental_uris": {"ios": "https://dc.lft.to/lastmile_qr_scan", "android": "https://dc.lft.to/lastmile_qr_scan"}, "lon": -77.09547366666666, "type": "electric_scooter"}, {"bike_id": "373a1dd620ba5f30f724dcedfd0114b4", "is_reserved": 0, "fusion_lon": 0.0, "lat": 38.89194, "is_disabled": 0, "name": "373a1dd620ba5f30f724dcedfd0114b4", "fusion_lat": 0.0, "rental_uris": {"ios": "https://dc.lft.to/lastmile_qr_scan", "android": "https://dc.lft.to/lastmile_qr_scan"}, "lon": -77.02218683333334, "type": "electric_scooter"}, {"bike_id": "865e600eb87b6c7100f54327753a99a3", "is_reserved": 0, "fusion_lon": 0.0, "lat": 38.915714333333334, "is_disabled": 0, "name": "865e600eb87b6c7100f54327753a99a3", "fusion_lat": 0.0, "rental_uris": {"ios": "https://dc.lft.to/lastmile_qr_scan", "android": "https://dc.lft.to/lastmile_qr_scan"}, "lon": -77.03847816666666, "type": "electric_scooter"}, {"bike_id": "4e4aec356324dfd971f8705f0ebf74f0", "is_reserved": 0, "fusion_lon": 0.0, "lat": 38.908615, "is_disabled": 0, "name": "4e4aec356324dfd971f8705f0ebf74f0", "fusion_lat": 0.0, "rental_uris": {"ios": "https://dc.lft.to/lastmile_qr_scan", "android": "https://dc.lft.to/lastmile_qr_scan"}, "lon": -76.940049, "type": "electric_bike"}, {"bike_id": "42e0641f463a58adbdda009a15f842b6", "is_reserved": 0, "fusion_lon": 0.0, "lat": 38.93603433333333, "is_disabled": 0, "name": "42e0641f463a58adbdda009a15f842b6", "fusion_lat": 0.0, "rental_uris": {"ios": "https://dc.lft.to/lastmile_qr_scan", "android": "https://dc.lft.to/lastmile_qr_scan"}, "lon": -77.05590833333333, "type": "electric_scooter"},