{"data": {"bikes": [{"rental_uris": {"ios": "https://dc.lft.to/lastmile_qr_scan", "android": "https://dc.lft.to/lastmile_qr_scan"}, "type": "electric_scooter", "name": "733ced0866939e6dd374ddade341bb0e", "is_reserved": 0, "lon": -77.0654735, "is_disabled": 0, "fusion_lat": 0.0, "lat": 38.905197333333334, "bike_id": "733ced0866939e6dd374ddade341bb0e", "fusion_lon": 0.0}, {"rental_uris": {"ios": "https://dc.lft.to/lastmile_qr_scan", "android": "https://dc.lft.to/lastmile_qr_scan"}, "type": "electric_scooter", "name": "25cfb59825295a9f99f701aa69c10db2", "is_reserved": 0, "lon": -77.01991166666667, "is_disabled": 0, "fusion_lat": 0.0, "lat": 38.901603333333334, "bike_id": "25cfb59825295a9f99f701aa69c10db2", "fusion_lon": 0.0}, {"rental_uris": {"ios": "https://dc.lft.to/lastmile_qr_scan", "android": "https://dc.lft.to/lastmile_qr_scan"}, "type": "electric_scooter", "name": "b8000906f585370eff91c39ab1f551ba", "is_reserved": 0, "lon": -77.0501525, "is_disabled": 0, "fusion_lat": 0.0, "lat": 38.91047066666667, "bike_id": "b8000906f585370eff91c39ab1f551ba", "fusion_lon": 0.0}, {"rental_uris": {"ios": "https://dc.lft.to/lastmile_qr_scan", "android": "https://dc.lft.to/lastmile_qr_scan"}, "type": "electric_scooter", "name": "87fd7d13d8f3ba54e033e03ea00e1286", "is_reserved": 0, "lon": -77.01978483333333, "is_disabled": 0, "fusion_lat": 0.0, "lat": 38.952124833333336, "bike_id": "87fd7d13d8f3ba54e033e03ea00e1286", "fusion_lon": 0.0}, {"rental_uris": {"ios": "https://dc.lft.to/lastmile_qr_scan", "android": "https://dc.lft.to/lastmile_qr_scan"}, "type": "electric_scooter", "name": "c9a01c6e32d45a62dbf642cd01a33a27", "is_reserved": 0, "lon": -77.046711, "is_disabled": 0, "fusion_lat": 0.0, "lat": 38.89235133333333, "bike_id": "c9a01c6e32d45a62dbf642cd01a33a27", "fusion_lon": 0.0}, {"rental_uris": {"ios": "https://dc.lft.to/lastmile_qr_scan", "android": "https://dc.lft.to/lastmile_qr_scan"}, "type": "electric_scooter", "name": "2fd7ffb3579f81be5a21c4ef358e0578", "is_reserved": 0, "lon": -77.02587816666667, "is_disabled": 0, "fusion_lat": 0.0, "lat": 38.920381166666665, "bike_id": "2fd7ffb3579f81be5a21c4ef358e0578", "fusion_lon": 0.0}, {"rental_uris": {"ios": "https://dc.lft.to/lastmile_qr_scan", "android": "https://dc.lft.to/lastmile_qr_scan"}, "type": "electric_scooter", "name": "cd2363915960f8de1c546deb7202aa7b", "is_reserved": 0, "lon": -77.01946, "is_disabled": 0, "fusion_lat": 0.0, "lat": 38.923158, "bike_id": "cd2363915960f8de1c546deb7202aa7b", "fusion_lon": 0.0}, {"rental_uris": {"ios": "https://dc.lft.to/lastmile_qr_scan", "android": "https://dc.lft.to/lastmile_qr_scan"}, "type": "electric_scooter", "name": "be4f610a99e014858b26261b7acd3679", "is_reserved": 0, "lon": -77.0272015, "is_disabled": 0, "fusion_lat": 0.0, "lat": 38.8973165, "bike_id": "be4f610a99e014858b26261b7acd3679", "fusion_lon": 0.0}, {"rental_uris": {"ios": "https://dc.lft.to/lastmile_qr_scan", "android": "https://dc.lft.to/lastmile_qr_scan"}, "type": "electric_scooter", "name": "9bf53703c3a9f2320a9b64ec2d8686d2", "is_reserved": 0, "lon": -77.0395655, "is_disabled": 0, "fusion_lat": 0.0, "lat": 38.892502666666665, "bike_id": "9bf53703c3a9f2320a9b64ec2d8686d2", "fusion_lon": 0.0}, {"rental_uris": {"ios": "https://dc.lft.to/lastmile_qr_scan", "android": "https://dc.lft.to/lastmile_qr_scan"}, "type": "electric_scooter", "name": "e1d1460725c42465880a737138cce6f4", "is_reserved": 0, "lon": -77.00207283333333, "is_disabled": 0, "fusion_lat": 0.0, "lat": 38.90046616666667, "bike_id": "e1d1460725c42465880a737138cce6f4", "fusion_lon": 0.0}, {"rental_uris": {"ios": "https://dc.lft.to/lastmile_qr_scan", "android": "https://dc.lft.to/lastmile_qr_scan"}, "type": "electric_scooter", "name": "df09d8f209a1000c1136dbe60201ac39", "is_reserved": 0, "lon": -77.01991233333334, "is_disabled": 0, "fusion_lat": 0.0, "lat": 38.90053866666667, "bike_id": "df09d8f209a1000c1136dbe60201ac39", "fusion_lon": 0.0}, {"rental_uris": {"ios": "https://dc.lft.to/lastmile_qr_scan", "android": "https://dc.lft.to/lastmile_qr_scan"}, "type": "electric_scooter", "name": "cfe21f6c9253faaf2c240521bb6113b7", "is_reserved": 0, "lon": -77.04107916666666, "is_disabled": 0, "fusion_lat": 0.0, "lat": 38.934677, "bike_id": "cfe21f6c9253faaf2c240521bb6113b7", "fusion_lon": 0.0}, {"rental_uris": {"ios": "https://dc.lft.to/lastmile_qr_scan", "android": "https://dc.lft.to/lastmile_qr_scan"}, "type": "electric_scooter", "name": "f7ce04aa564ee27f98d5937076b575b8", "is_reserved": 0, "lon": -77.049685, "is_disabled": 0, "fusion_lat": 0.0, "lat": 38.91329783333333, "bike_id": "f7ce04aa564ee27f98d5937076b575b8", "fusion_lon": 0.0}, {"rental_uris": {"ios": "https://dc.lft.to/lastmile_qr_scan", "android": "https://dc.lft.to/lastmile_qr_scan"}, "type": "electric_scooter", "name": "fdb34ef30601f7f18d6983ffa1e1455d", "is_reserved": 0, "lon": -77.026204, "is_disabled": 0, "fusion_lat": 0.0, "lat": 38.89728783333333, "bike_id": "fdb34ef30601f7f18d6983ffa1e1455d", "fusion_lon": 0.0}, {"rental_uris": {"ios": "https://dc.lft.to/lastmile_qr_scan", "android": "https://dc.lft.to/lastmile_qr_scan"}, "type": "electric_scooter", "name": "b1a68f553aa91231c195ca3d5df7614b", "is_reserved": 0, "lon": -76.980256, "is_disabled": 0, "fusion_lat": 0.0, "lat": 38.916846166666666, "bike_id": "b1a68f553aa91231c195ca3d5df7614b", "fusion_lon": 0.0}, {"rental_uris": {"ios": "https://dc.lft.to/lastmile_qr_scan", "android": "https://dc.lft.to/lastmile_qr_scan"}, "type": "electric_scooter", "name": "b46a94aeb272db7f381da0047261973d", "is_reserved": 0, "lon": -77.01622633333334, "is_disabled": 0, "fusion_lat": 0.0, "lat": 38.89964666666667, "bike_id": "b46a94aeb272db7f381da0047261973d", "fusion_lon": 0.0}, {"rental_uris": {"ios": "https://dc.lft.to/lastmile_qr_scan", "android": "https://dc.lft.to/lastmile_qr_scan"}, "type": "electric_bike", "name": "718dc072d1f3712e02820b2c8c43ef65", "is_reserved": 0, "lon": -76.94166766666666, "is_disabled": 0, "fusion_lat": 0.0, "lat": 38.86558466666666, "bike_id": "718dc072d1f3712e02820b2c8c43ef65", "fusion_lon": 0.0}, {"rental_uris": {"ios": "https://dc.lft.to/lastmile_qr_scan", "android": "https://dc.lft.to/lastmile_qr_scan"}, "type": "electric_scooter", "name": "c4b49b9ba8697b5e3da959904b9e1b0a", "is_reserved": 0, "lon": -77.03864533333333, "is_disabled": 0, "fusion_lat": 0.0, "lat": 38.912584, "bike_id": "c4b49b9ba8697b5e3da959904b9e1b0a", "fusion_lon": 0.0}, {"rental_uris": {"ios": "https://dc.lft.to/lastmile_qr_scan", "android": "https://dc.lft.to/lastmile_qr_scan"}, "type": "electric_scooter", "name": "01501c7f971f996d1b22b46b0b3fd4b2", "is_reserved": 0, "lon": -77.039534, "is_disabled": 0, "fusion_lat": 0.0, "lat": 38.92466533333333, "bike_id": "01501c7f971f996d1b22b46b0b3fd4b2", "fusion_lon": 0.0}, {"rental_uris": {"ios": "https://dc.lft.to/lastmile_qr_scan", "android": "https://dc.lft.to/lastmile_qr_scan"}, "type": "electric_scooter", "name": "26f36a61d07016db26c6e573c71fe31c", "is_reserved": 0, "lon": -77.031825, "is_disabled": 0, "fusion_lat": 0.0, "lat": 38.892271, "bike_id": "26f36a61d07016db26c6e573c71fe31c", "fusion_lon": 0.0}, {"rental_uris": {"ios": "https://dc.lft.to/lastmile_qr_scan", "android": "https://dc.lft.to/lastmile_qr_scan"}, "type": "electric_scooter", "name": "f24ddfc905a4b8148d2f5be57dae1373", "is_reserved": 0, "lon": -77.0267515, "is_disabled": 0, "fusion_lat": 0.0, "lat": 38.984370166666665, "bike_id": "f24ddfc905a4b8148d2f5be57dae1373", "fusion_lon": 0.0}, {"rental_uris": {"ios": "https://dc.lft.to/lastmile_qr_scan", "android": "https://dc.lft.to/lastmile_qr_scan"}, "type": "electric_scooter", "name": "059fe91271fd325c41745c976ef5cc57", "is_reserved": 0, "lon": -76.9997045, "is_disabled": 0, "fusion_lat": 0.0, "lat": 38.8866005, "bike_id": "059fe91271fd325c41745c976ef5cc57", "fusion_lon": 0.0}, {"rental_uris": {"ios": "https://dc.lft.to/lastmile_qr_scan", "android": "https://dc.lft.to/lastmile_qr_scan"}, "type": "electric_scooter", "name": "36c747946a5f779dbab69bf2994797f9", "is_reserved": 0, "lon": -77.0403775, "is_disabled": 0, "fusion_lat": 0.0, "lat": 38.92316, "bike_id": "36c747946a5f779dbab69bf2994797f9", "fusion_lon": 0.0}, {"rental_uris": {"ios": "https://dc.lft.to/lastmile_qr_scan", "android": "https://dc.lft.to/lastmile_qr_scan"}, "type": "electric_scooter", "name": "24c2ba1692d8e800f8022d91c1699700", "is_reserved": 0, "lon": -76.99609633333333, "is_disabled": 0, "fusion_lat": 0.0, "lat": 38.909125333333336, "bike_id": "24c2ba1692d8e800f8022d91c1699700", "fusion_lon": 0.0}, {"rental_uris": {"ios": "https://dc.lft.to/lastmile_qr_scan", "android": "https://dc.lft.to/lastmile_qr_scan"}, "type": "electric_scooter", "name": "13a24650278fa497e9adece9a18c77ea", "is_reserved": 0, "lon": -76.971503, "is_disabled": 0, "fusion_lat": 0.0, "lat": 38.916201, "bike_id": "13a24650278fa497e9adece9a18c77ea", "fusion_lon": 0.0}, {"rental_uris": {"ios": "https://dc.lft.to/lastmile_qr_scan", "android": "https://dc.lft.to/lastmile_qr_scan"}, "type": "electric_scooter", "name": "cdab1ef152b97eb898e490c75a4d7483", "is_reserved": 0, "lon": -77.04197083333334, "is_disabled": 0, "fusion_lat": 0.0, "lat": 38.907464833333336, "bike_id": "cdab1ef152b97eb898e490c75a4d7483", "fusion_lon": 0.0}, {"rental_uris": {"ios": "https://dc.lft.to/lastmile_qr_scan", "android": "https://dc.lft.to/lastmile_qr_scan"}, "type": "electric_scooter", "name": "311238d2de636b81968a8d1c321614b1", "is_reserved": 0, "lon": -77.01258466666667, "is_disabled": 0, "fusion_lat": 0.0, "lat": 38.89716816666667, "bike_id": "311238d2de636b81968a8d1c321614b1", "fusion_lon": 0.0}, {"rental_uris": {"ios": "https://dc.lft.to/lastmile_qr_scan", "android": "https://dc.lft.to/lastmile_qr_scan"}, "type": "electric_scooter", "name": "cbc4f32443750399d72a0476a78361c2", "is_reserved": 0, "lon": -77.03767516666667, "is_disabled": 0, "fusion_lat": 0.0, "lat": 38.923262, "bike_id": "cbc4f32443750399d72a0476a78361c2", "fusion_lon": 0.0}, {"rental_uris": {"ios": "https://dc.lft.to/lastmile_qr_scan", "android": "https://dc.lft.to/lastmile_qr_scan"}, "type": "electric_scooter", "name": "d359ac3e8115712b84817f716668357b", "is_reserved": 0, "lon": -77.02979633333334, "is_disabled": 0, "fusion_lat": 0.0, "lat": 38.92249133333333, "bike_id": "d359ac3e8115712b84817f716668357b", "fusion_lon": 0.0}, {"rental_uris": {"ios": "https://dc.lft.to/lastmile_qr_scan", "android": "https://dc.lft.to/lastmile_qr_scan"}, "type": "electric_scooter", "name": "dfc3b992cedf12076cba7df32a1a2e42", "is_reserved": 0, "lon": -77.02982966666667, "is_disabled": 0, "fusion_lat": 0.0, "lat": 38.9155715, "bike_id": "dfc3b992cedf12076cba7df32a1a2e42", "fusion_lon": 0.0}, {"rental_uris": {"ios": "https://dc.lft.to/lastmile_qr_scan", "android": "https://dc.lft.to/lastmile_qr_scan"}, "type": "electric_scooter", "name": "b2b38e649d6188cb6689b44568aa1c8b", "is_reserved": 0, "lon": -76.96506516666666, "is_disabled": 0, "fusion_lat": 0.0, "lat": 38.876472, "bike_id": "b2b38e649d6188cb6689b44568aa1c8b", "fusion_lon": 0.0}, {"rental_uris": {"ios": "https://dc.lft.to/lastmile_qr_scan", "android": "https://dc.lft.to/lastmile_qr_scan"}, "type": "electric_scooter", "name": "770e6d77d489d1029ef0ca2d8b1264e3", "is_reserved": 0, "lon": -77.03767016666667, "is_disabled": 0, "fusion_lat": 0.0, "lat": 38.9258195, "bike_id": "770e6d77d489d1029ef0ca2d8b1264e3", "fusion_lon": 0.0}, {"rental_uris": {"ios": "https://dc.lft.to/lastmile_qr_scan", "android": "https://dc.lft.to/lastmile_qr_scan"}, "type": "electric_scooter", "name": "839009207dafbafadb4e0b60f68a2e1e", "is_reserved": 0, "lon": -77.04954816666667, "is_disabled": 0, "fusion_lat": 0.0, "lat": 38.90545083333333, "bike_id": "839009207dafbafadb4e0b60f68a2e1e", "fusion_lon": 0.0}, {"rental_uris": {"ios": "https://dc.lft.to/lastmile_qr_scan", "android": "https://dc.lft.to/lastmile_qr_scan"}, "type": "electric_scooter", "name": "844390b8c7acc4d3120fa75a5a54eada", "is_reserved": 0, "lon": -77.0456465, "is_disabled": 0, "fusion_lat": 0.0, "lat": 38.9177825, "bike_id": "844390b8c7acc4d3120fa75a5a54eada", "fusion_lon": 0.0}, {"rental_uris": {"ios": "https://dc.lft.to/lastmile_qr_scan", "android": "https://dc.lft.to/lastmile_qr_scan"}, "type": "electric_scooter", "name": "55b6e28334ca4041d02df69326129e2c", "is_reserved": 0, "lon": -77.03835333333333, "is_disabled": 0, "fusion_lat": 0.0, "lat": 38.93112683333333, "bike_id": "55b6e28334ca4041d02df69326129e2c", "fusion_lon": 0.0}, {"rental_uris": {"ios": "https://dc.lft.to/lastmile_qr_scan", "android": "https://dc.lft.to/lastmile_qr_scan"}, "type": "electric_scooter", "name": "c006a75c832beab4cb0f64fc9db68d82", "is_reserved": 0, "lon": -77.03211333333333, "is_disabled": 0, "fusion_lat": 0.0, "lat": 38.90898983333334, "bike_id": "c006a75c832beab4cb0f64fc9db68d82", "fusion_lon": 0.0}, {"rental_uris": {"ios": "https://dc.lft.to/lastmile_qr_scan", "android": "https://dc.lft.to/lastmile_qr_scan"}, "type": "electric_scooter", "name": "6d55bcfaf1a710a792963e95e297a8ad", "is_reserved": 0, "lon": -77.04673283333334, "is_disabled": 0, "fusion_lat": 0.0, "lat": 38.892330666666666, "bike_id": "6d55bcfaf1a710a792963e95e297a8ad", "fusion_lon": 0.0}, {"rental_uris": {"ios": "https://dc.lft.to/lastmile_qr_scan", "android": "https://dc.lft.to/lastmile_qr_scan"}, "type": "electric_scooter", "name": "f9eb73a93ea4d63abbb6a0a561ee9a90", "is_reserved": 0, "lon": -77.02814316666667, "is_disabled": 0, "fusion_lat": 0.0, "lat": 38.90617066666667, "bike_id": "f9eb73a93ea4d63abbb6a0a561ee9a90", "fusion_lon": 0.0}, {"rental_uris": {"ios": "https://dc.lft.to/lastmile_qr_scan", "android": "https://dc.lft.to/lastmile_qr_scan"}, "type": "electric_scooter", "name": "582c531620032046b2fce0ff711ee419", "is_reserved": 0, "lon": -77.02761616666666, "is_disabled": 0, "fusion_lat": 0.0, "lat": 38.91208233333333, "bike_id": "582c531620032046b2fce0ff711ee419", "fusion_lon": 0.0}, {"rental_uris": {"ios": "https://dc.lft.to/lastmile_qr_scan", "android": "https://dc.lft.to/lastmile_qr_scan"}, "type": "electric_scooter", "name": "4661a16aef8eb01af6b914729fb5afac", "is_reserved": 0, "lon": -77.02003733333333, "is_disabled": 0, "fusion_lat": 0.0, "lat": 38.898831333333334, "bike_id": "4661a16aef8eb01af6b914729fb5afac", "fusion_lon": 0.0}, {"rental_uris": {"ios": "https://dc.lft.to/lastmile_qr_scan", "android": "https://dc.lft.to/lastmile_qr_scan"}, "type": "electric_scooter", "name": "44a4c9da7f84cf29369fbf443f4c7022", "is_reserved": 0, "lon": -77.00208883333333, "is_disabled": 0, "fusion_lat": 0.0, "lat": 38.8933015, "bike_id": "44a4c9da7f84cf29369fbf443f4c7022", "fusion_lon": 0.0}, {"rental_uris": {"ios": "https://dc.lft.to/lastmile_qr_scan", "android": "https://dc.lft.to/lastmile_qr_scan"}, "type": "electric_scooter", "name": "c7f4a50d8867effa601dcfd1456244d0", "is_reserved": 0, "lon": -77.0174455, "is_disabled": 0, "fusion_lat": 0.0, "lat": 38.892305666666665, "bike_id": "c7f4a50d8867effa601dcfd1456244d0", "fusion_lon": 0.0}, {"rental_uris": {"ios": "https://dc.lft.to/lastmile_qr_scan", "android": "https://dc.lft.to/lastmile_qr_scan"}, "type": "electric_scooter", "name": "585dd1ed9ac7be021e35ba44b1d32a99", "is_reserved": 0, "lon": -77.05056133333333, "is_disabled": 0, "fusion_lat": 0.0, "lat": 38.900795333333335, "bike_id": "585dd1ed9ac7be021e35ba44b1d32a99", "fusion_lon": 0.0}, {"rental_uris": {"ios": "https://dc.lft.to/lastmile_qr_scan", "android": "https://dc.lft.to/lastmile_qr_scan"}, "type": "electric_scooter", "name": "d802a37a6108f150b19f45beb27cadd7", "is_reserved": 0, "lon": -76.979396, "is_disabled": 0, "fusion_lat": 0.0, "lat": 38.906644666666665, "bike_id": "d802a37a6108f150b19f45beb27cadd7", "fusion_lon": 0.0}, {"rental_uris": {"ios": "https://dc.lft.to/lastmile_qr_scan", "android": "https://dc.lft.to/lastmile_qr_scan"}, "type": "electric_scooter", "name": "0309771d55c27abd018ee162d94e9445", "is_reserved": 0, "lon": -77.03655233333333, "is_disabled": 0, "fusion_lat": 0.0, "lat": 38.922835166666665, "bike_id": "0309771d55c27abd018ee162d94e9445", "fusion_lon": 0.0}, {"rental_uris": {"ios": "https://dc.lft.to/lastmile_qr_scan", "android": "https://dc.lft.to/lastmile_qr_scan"}, "type": "electric_bike", "name": "16c15345f62f66f737554a3cbc5be363", "is_reserved": 0, "lon": -76.96915916666667, "is_disabled": 0, "fusion_lat": 0.0, "lat": 38.846165, "bike_id": "16c15345f62f66f737554a3cbc5be363", "fusion_lon": 0.0}, {"rental_uris": {"ios": "https://dc.lft.to/lastmile_qr_scan", "android": "https://dc.lft.to/lastmile_qr_scan"}, "type": "electric_scooter", "name": "33649b49f4483c9fdd805562cdb5179f", "is_reserved": 0, "lon": -77.00915333333333, "is_disabled": 0, "fusion_lat": 0.0, "lat": 38.89880933333333, "bike_id": "33649b49f4483c9fdd805562cdb5179f", "fusion_lon": 0.0}, {"rental_uris": {"ios": "https://dc.lft.to/lastmile_qr_scan", "android": "https://dc.lft.to/lastmile_qr_scan"}, "type": "electric_scooter", "name": "085af428d078c63d42275361b9bb974f", "is_reserved": 0, "lon": -77.02155183333333, "is_disabled": 0, "fusion_lat": 0.0, "lat": 38.926041166666664, "bike_id": "085af428d078c63d42275361b9bb974f", "fusion_lon": 0.0}, {"rental_uris": {"ios": "https://dc.lft.to/lastmile_qr_scan", "android": "https://dc.lft.to/lastmile_qr_scan"}, "type": "electric_scooter", "name": "90194aefbca6f26d62ce882753eb43a7", "is_reserved": 0, "lon": -77.0522075, "is_disabled": 0, "fusion_lat": 0.0, "lat": 38.900186833333336, "bike_id": "90194aefbca6f26d62ce882753eb43a7", "fusion_lon": 0.0}, {"rental_uris": {"ios": "https://dc.lft.to/lastmile_qr_scan", "android": "https://dc.lft.to/lastmile_qr_scan"}, "type": "electric_scooter", "name": "5b7c4a7f1c2d4d6596b0ffea13e5b644", "is_reserved": 0, "lon": -77.06475816666666, "is_disabled": 0, "fusion_lat": 0.0, "lat": 38.91025283333333, "bike_id": "5b7c4a7f1c2d4d6596b0ffea13e5b644", "fusion_lon": 0.0}, {"rental_uris": {"ios": "https://dc.lft.to/lastmile_qr_scan", "android": "https://dc.lft.to/lastmile_qr_scan"}, "type": "electric_scooter", "name": "7cf6acab02269c4bb765a59dfcbdfdda", "is_reserved": 0, "lon": -77.04348683333333, "is_disabled": 0, "fusion_lat": 0.0, "lat": 38.9081225, "bike_id": "7cf6acab02269c4bb765a59dfcbdfdda", "fusion_lon": 0.0}, {"rental_uris": {"ios": "https://dc.lft.to/lastmile_qr_scan", "android": "https://dc.lft.to/lastmile_qr_scan"}, "type": "electric_bike", "name": "8233638d17bd3041e6e557244ad1f8c7", "is_reserved": 0, "lon": -77.00135466666667, "is_disabled": 0, "fusion_lat": 0.0, "lat": 38.995062833333336, "bike_id": "8233638d17bd3041e6e557244ad1f8c7", "fusion_lon": 0.0}, {"rental_uris": {"ios": "https://dc.lft.to/lastmile_qr_scan", "android": "https://dc.lft.to/lastmile_qr_scan"}, "type": "electric_scooter", "name": "4149b160976d8471dc6442475b91b072", "is_reserved": 0, "lon": -77.00416766666666, "is_disabled": 0, "fusion_lat": 0.0, "lat": 38.90568416666667, "bike_id": "4149b160976d8471dc6442475b91b072", "fusion_lon": 0.0}, {"rental_uris": {"ios": "https://dc.lft.to/lastmile_qr_scan", "android": "https://dc.lft.to/lastmile_qr_scan"}, "type": "electric_scooter", "name": "90154f6c72bf7f2b175f92d18f9db725", "is_reserved": 0, "lon": -77.0383035, "is_disabled": 0, "fusion_lat": 0.0, "lat": 38.910405833333336, "bike_id": "90154f6c72bf7f2b175f92d18f9db725", "fusion_lon": 0.0}, {"rental_uris": {"ios": "https://dc.lft.to/lastmile_qr_scan", "android": "https://dc.lft.to/lastmile_qr_scan"}, "type": "electric_scooter", "name": "dbecae30298a0769a8ec8dd953a07c45", "is_reserved": 0, "lon": -77.02111966666666, "is_disabled": 0, "fusion_lat": 0.0, "lat": 38.91247116666667, "bike_id": "dbecae30298a0769a8ec8dd953a07c45", "fusion_lon": 0.0}, {"rental_uris": {"ios": "https://dc.lft.to/lastmile_qr_scan", "android": "https://dc.lft.to/lastmile_qr_scan"}, "type": "electric_scooter", "name": "f86fc665679adca73f9ccef4e8412a35", "is_reserved": 0, "lon": -76.99596633333333, "is_disabled": 0, "fusion_lat": 0.0, "lat": 38.9003135, "bike_id": "f86fc665679adca73f9ccef4e8412a35", "fusion_lon": 0.0}, {"rental_uris": {"ios": "https://dc.lft.to/lastmile_qr_scan", "android": "https://dc.lft.to/lastmile_qr_scan"}, "type": "electric_scooter", "name": "b9c5074ee0d651aa60297bd8bdba1b86", "is_reserved": 0, "lon": -77.04537733333333, "is_disabled": 0, "fusion_lat": 0.0, "lat": 38.90728466666667, "bike_id": "b9c5074ee0d651aa60297bd8bdba1b86", "fusion_lon": 0.0}, {"rental_uris": {"ios": "https://dc.lft.to/lastmile_qr_scan", "android": "https://dc.lft.to/lastmile_qr_scan"}, "type": "electric_scooter", "name": "65efe0b6eea1f86d62dcbd797d03c9e9", "is_reserved": 0, "lon": -77.03031466666667, "is_disabled": 0, "fusion_lat": 0.0, "lat": 38.92253, "bike_id": "65efe0b6eea1f86d62dcbd797d03c9e9", "fusion_lon": 0.0}, {"rental_uris": {"ios": "https://dc.lft.to/lastmile_qr_scan", "android": "https://dc.lft.to/lastmile_qr_scan"}, "type": "electric_scooter", "name": "475d07a88e8323749d49063da69a81f6", "is_reserved": 0, "lon": -77.01358616666667, "is_disabled": 0, "fusion_lat": 0.0, "lat": 38.8959565, "bike_id": "475d07a88e8323749d49063da69a81f6", "fusion_lon": 0.0}, {"rental_uris": {"ios": "https://dc.lft.to/lastmile_qr_scan", "android": "https://dc.lft.to/lastmile_qr_scan"}, "type": "electric_scooter", "name": "448eb6b9bb59fb1056abf222c1b277b3", "is_reserved": 0, "lon": -77.04270533333333, "is_disabled": 0, "fusion_lat": 0.0, "lat": 38.904245333333336, "bike_id": "448eb6b9bb59fb1056abf222c1b277b3", "fusion_lon": 0.0}, {"rental_uris": {"ios": "https://dc.lft.to/lastmile_qr_scan", "android": "https://dc.lft.to/lastmile_qr_scan"}, "type": "electric_bike", "name": "8900069565ab9f11159c715b0bbf43cf", "is_reserved": 0, "lon": -76.99655783333333, "is_disabled": 0, "fusion_lat": 0.0, "lat": 38.9324635, "bike_id": "8900069565ab9f11159c715b0bbf43cf", "fusion_lon": 0.0}, {"rental_uris": {"ios": "https://dc.lft.to/lastmile_qr_scan", "android": "https://dc.lft.to/lastmile_qr_scan"}, "type": "electric_scooter", "name": "5fc7f9ddd7dedd7ec3cd6f8df15262ab", "is_reserved": 0, "lon": -76.95205983333334, "is_disabled": 0, "fusion_lat": 0.0, "lat": 38.905087333333334, "bike_id": "5fc7f9ddd7dedd7ec3cd6f8df15262ab", "fusion_lon": 0.0}, {"rental_uris": {"ios": "https://dc.lft.to/lastmile_qr_scan", "android": "https://dc.lft.to/lastmile_qr_scan"}, "type": "electric_scooter", "name": "e417e2becb29c387fecffa0c683e4b96", "is_reserved": 0, "lon": -77.03044116666666, "is_disabled": 0, "fusion_lat": 0.0, "lat": 38.92471533333333, "bike_id": "e417e2becb29c387fecffa0c683e4b96", "fusion_lon": 0.0}, {"rental_uris": {"ios": "https://dc.lft.to/lastmile_qr_scan", "android": "https://dc.lft.to/lastmile_qr_scan"}, "type": "electric_scooter", "name": "35a56cda90b99424d3e84fab4b8d2ad8", "is_reserved": 0, "lon": -77.02055583333333, "is_disabled": 0, "fusion_lat": 0.0, "lat": 38.923923333333335, "bike_id": "35a56cda90b99424d3e84fab4b8d2ad8", "fusion_lon": 0.0}, {"rental_uris": {"ios": "https://dc.lft.to/lastmile_qr_scan", "android": "https://dc.lft.to/lastmile_qr_scan"}, "type": "electric_scooter", "name": "675890c5ce5b2646aa3e3a49c863b00f", "is_reserved": 0, "lon": -76.9992945, "is_disabled": 0, "fusion_lat": 0.0, "lat": 38.9575795, "bike_id": "675890c5ce5b2646aa3e3a49c863b00f", "fusion_lon": 0.0}, {"rental_uris": {"ios": "https://dc.lft.to/lastmile_qr_scan", "android": "https://dc.lft.to/lastmile_qr_scan"}, "type": "electric_scooter", "name": "292876aa8c9d003d6bf6a3b840937582", "is_reserved": 0, "lon": -77.05537683333333, "is_disabled": 0, "fusion_lat": 0.0, "lat": 38.89983616666667, "bike_id": "292876aa8c9d003d6bf6a3b840937582", "fusion_lon": 0.0}, {"rental_uris": {"ios": "https://dc.lft.to/lastmile_qr_scan", "android": "https://dc.lft.to/lastmile_qr_scan"}, "type": "electric_scooter", "name": "091a1bf763566f2f3b21d3a35ddeefaa", "is_reserved": 0, "lon": -77.029402, "is_disabled": 0, "fusion_lat": 0.0, "lat": 38.90004066666667, "bike_id": "091a1bf763566f2f3b21d3a35ddeefaa", "fusion_lon": 0.0}, {"rental_uris": {"ios": "https://dc.lft.to/lastmile_qr_scan", "android": "https://dc.lft.to/lastmile_qr_scan"}, "type": "electric_scooter", "name": "d6fbc7c3a12ef545fbd1a837af42ae3a", "is_reserved": 0, "lon": -77.00774916666667, "is_disabled": 0, "fusion_lat": 0.0, "lat": 38.897361, "bike_id": "d6fbc7c3a12ef545fbd1a837af42ae3a", "fusion_lon": 0.0}, {"rental_uris": {"ios": "https://dc.lft.to/lastmile_qr_scan", "android": "https://dc.lft.to/lastmile_qr_scan"}, "type": "electric_scooter", "name": "0e313669ecc094c0dfa951f982075ba6", "is_reserved": 0, "lon": -77.04400533333333, "is_disabled": 0, "fusion_lat": 0.0, "lat": 38.929502, "bike_id": "0e313669ecc094c0dfa951f982075ba6", "fusion_lon": 0.0}, {"rental_uris": {"ios": "https://dc.lft.to/lastmile_qr_scan", "android": "https://dc.lft.to/lastmile_qr_scan"}, "type": "electric_scooter", "name": "7d790d4efcb1df52f5ccb5eba183037e", "is_reserved": 0, "lon": -77.0124465, "is_disabled": 0, "fusion_lat": 0.0, "lat": 38.912656, "bike_id": "7d790d4efcb1df52f5ccb5eba183037e", "fusion_lon": 0.0}, {"rental_uris": {"ios": "https://dc.lft.to/lastmile_qr_scan", "android": "https://dc.lft.to/lastmile_qr_scan"}, "type": "electric_scooter", "name": "a22c672f0520949db2a3fc446e985023", "is_reserved": 0, "lon": -77.03855933333334, "is_disabled": 0, "fusion_lat": 0.0, "lat": 38.91281266666667, "bike_id": "a22c672f0520949db2a3fc446e985023", "fusion_lon": 0.0}, {"rental_uris": {"ios": "https://dc.lft.to/lastmile_qr_scan", "android": "https://dc.lft.to/lastmile_qr_scan"}, "type": "electric_scooter", "name": "f72acff563cd67d293ab5b6a06c65d6a", "is_reserved": 0, "lon": -77.042244, "is_disabled": 0, "fusion_lat": 0.0, "lat": 38.911182333333336, "bike_id": "f72acff563cd67d293ab5b6a06c65d6a", "fusion_lon": 0.0}, {"rental_uris": {"ios": "https://dc.lft.to/lastmile_qr_scan", "android": "https://dc.lft.to/lastmile_qr_scan"}, "type": "electric_scooter", "name": "19e2d6c27ed838abf0a4e6979ae751d3", "is_reserved": 0, "lon": -77.03254433333333, "is_disabled": 0, "fusion_lat": 0.0, "lat": 38.915569, "bike_id": "19e2d6c27ed838abf0a4e6979ae751d3", "fusion_lon": 0.0}, {"rental_uris": {"ios": "https://dc.lft.to/lastmile_qr_scan", "android": "https://dc.lft.to/lastmile_qr_scan"}, "type": "electric_scooter", "name": "548119c891b81a76c53a40c65d15e794", "is_reserved": 0, "lon": -77.0074905, "is_disabled": 0, "fusion_lat": 0.0, "lat": 38.91105433333333, "bike_id": "548119c891b81a76c53a40c65d15e794", "fusion_lon": 0.0}, {"rental_uris": {"ios": "https://dc.lft.to/lastmile_qr_scan", "android": "https://dc.lft.to/lastmile_qr_scan"}, "type": "electric_scooter", "name": "408e070b63b404c755eff86d6acc7ed6", "is_reserved": 0, "lon": -77.04083466666667, "is_disabled": 0, "fusion_lat": 0.0, "lat": 38.94789566666667, "bike_id": "408e070b63b404c755eff86d6acc7ed6", "fusion_lon": 0.0}, {"rental_uris": {"ios": "https://dc.lft.to/lastmile_qr_scan", "android": "https://dc.lft.to/lastmile_qr_scan"}, "type": "electric_bike", "name": "efd255e0404db56bbee83d167c3638bc", "is_reserved": 0, "lon": -76.98017216666666, "is_disabled": 0, "fusion_lat": 0.0, "lat": 38.8531265, "bike_id": "efd255e0404db56bbee83d167c3638bc", "fusion_lon": 0.0}, {"rental_uris": {"ios": "https://dc.lft.to/lastmile_qr_scan", "android": "https://dc.lft.to/lastmile_qr_scan"}, "type": "electric_scooter", "name": "b647f14947f74eab8ad98b75c13a4fe6", "is_reserved": 0, "lon": -77.05197583333333, "is_disabled": 0, "fusion_lat": 0.0, "lat": 38.90259916666667, "bike_id": "b647f14947f74eab8ad98b75c13a4fe6", "fusion_lon": 0.0}, {"rental_uris": {"ios": "https://dc.lft.to/lastmile_qr_scan", "android": "https://dc.lft.to/lastmile_qr_scan"}, "type": "electric_scooter", "name": "a616d5cc50e2d8fd9fb2e7530b9c13b9", "is_reserved": 0, "lon": -77.0195515, "is_disabled": 0, "fusion_lat": 0.0, "lat": 38.92323116666667, "bike_id": "a616d5cc50e2d8fd9fb2e7530b9c13b9", "fusion_lon": 0.0}, {"rental_uris": {"ios": "https://dc.lft.to/lastmile_qr_scan", "android": "https://dc.lft.to/lastmile_qr_scan"}, "type": "electric_scooter", "name": "58a6c3bd664cf2418ad7dfcbe5e7e6da", "is_reserved": 0, "lon": -77.01915566666666, "is_disabled": 0, "fusion_lat": 0.0, "lat": 38.89727533333333, "bike_id": "58a6c3bd664cf2418ad7dfcbe5e7e6da", "fusion_lon": 0.0}, {"rental_uris": {"ios": "https://dc.lft.to/lastmile_qr_scan", "android": "https://dc.lft.to/lastmile_qr_scan"}, "type": "electric_bike", "name": "dd54c015008b69ba123511858ac2a05c", "is_reserved": 0, "lon": -77.01840016666667, "is_disabled": 0, "fusion_lat": 0.0, "lat": 38.90935266666666, "bike_id": "dd54c015008b69ba123511858ac2a05c", "fusion_lon": 0.0}, {"rental_uris": {"ios": "https://dc.lft.to/lastmile_qr_scan", "android": "https://dc.lft.to/lastmile_qr_scan"}, "type": "electric_scooter", "name": "f4b12181650d219358a6beeb4026ae91", "is_reserved": 0, "lon": -77.04865333333333, "is_disabled": 0, "fusion_lat": 0.0, "lat": 38.8921895, "bike_id": "f4b12181650d219358a6beeb4026ae91", "fusion_lon": 0.0}, {"rental_uris": {"ios": "https://dc.lft.to/lastmile_qr_scan", "android": "https://dc.lft.to/lastmile_qr_scan"}, "type": "electric_scooter", "name": "63d63a7ae16162f142ac3f26bfd5e50b", "is_reserved": 0, "lon": -77.03880466666666, "is_disabled": 0, "fusion_lat": 0.0, "lat": 38.90358833333333, "bike_id": "63d63a7ae16162f142ac3f26bfd5e50b", "fusion_lon": 0.0}, {"rental_uris": {"ios": "https://dc.lft.to/lastmile_qr_scan", "android": "https://dc.lft.to/lastmile_qr_scan"}, "type": "electric_scooter", "name": "13d3dcf73e24e239f4d513d55ce7253a", "is_reserved": 0, "lon": -77.03711966666667, "is_disabled": 0, "fusion_lat": 0.0, "lat": 38.9265455, "bike_id": "13d3dcf73e24e239f4d513d55ce7253a", "fusion_lon": 0.0}, {"rental_uris": {"ios": "https://dc.lft.to/lastmile_qr_scan", "android": "https://dc.lft.to/lastmile_qr_scan"}, "type": "electric_scooter", "name": "90b3a3aa571c5a20a31b85a5d8faeb18", "is_reserved": 0, "lon": -77.034497, "is_disabled": 0, "fusion_lat": 0.0, "lat": 38.90739766666667, "bike_id": "90b3a3aa571c5a20a31b85a5d8faeb18", "fusion_lon": 0.0}, {"rental_uris": {"ios": "https://dc.lft.to/lastmile_qr_scan", "android": "https://dc.lft.to/lastmile_qr_scan"}, "type": "electric_scooter", "name": "05da36c60988275dffbc7045d4386d57", "is_reserved": 0, "lon": -77.04299716666667, "is_disabled": 0, "fusion_lat": 0.0, "lat": 38.923255, "bike_id": "05da36c60988275dffbc7045d4386d57", "fusion_lon": 0.0}, {"rental_uris": {"ios": "https://dc.lft.to/lastmile_qr_scan", "android": "https://dc.lft.to/lastmile_qr_scan"}, "type": "electric_scooter", "name": "e8d0b15c4c723881f6d15ca39b70be29", "is_reserved": 0, "lon": -77.03778433333333, "is_disabled": 0, "fusion_lat": 0.0, "lat": 38.915723, "bike_id": "e8d0b15c4c723881f6d15ca39b70be29", "fusion_lon": 0.0}, {"rental_uris": {"ios": "https://dc.lft.to/lastmile_qr_scan", "android": "https://dc.lft.to/lastmile_qr_scan"}, "type": "electric_scooter", "name": "17b99e345a28b8caa2621311454d7bcf", "is_reserved": 0, "lon": -77.04428116666666, "is_disabled": 0, "fusion_lat": 0.0, "lat": 38.89743033333333, "bike_id": "17b99e345a28b8caa2621311454d7bcf", "fusion_lon": 0.0}, {"rental_uris": {"ios": "https://dc.lft.to/lastmile_qr_scan", "android": "https://dc.lft.to/lastmile_qr_scan"}, "type": "electric_scooter", "name": "91c0a26d0b88c6ec1fe364b375054820", "is_reserved": 0, "lon": -77.03344666666666, "is_disabled": 0, "fusion_lat": 0.0, "lat": 38.8973525, "bike_id": "91c0a26d0b88c6ec1fe364b375054820", "fusion_lon": 0.0}, {"rental_uris": {"ios": "https://dc.lft.to/lastmile_qr_scan", "android": "https://dc.lft.to/lastmile_qr_scan"}, "type": "electric_scooter", "name": "69346b268f00b8a889f916d2a44bfb99", "is_reserved": 0, "lon": -77.04044166666667, "is_disabled": 0, "fusion_lat": 0.0, "lat": 38.93006966666667, "bike_id": "69346b268f00b8a889f916d2a44bfb99", "fusion_lon": 0.0}, {"rental_uris": {"ios": "https://dc.lft.to/lastmile_qr_scan", "android": "https://dc.lft.to/lastmile_qr_scan"}, "type": "electric_scooter", "name": "98f9a7363617aedbfd9d231c9e8762d1", "is_reserved": 0, "lon": -77.057354, "is_disabled": 0, "fusion_lat": 0.0, "lat": 38.933396333333334, "bike_id": "98f9a7363617aedbfd9d231c9e8762d1", "fusion_lon": 0.0}, {"rental_uris": {"ios": "https://dc.lft.to/lastmile_qr_scan", "android": "https://dc.lft.to/lastmile_qr_scan"}, "type": "electric_scooter", "name": "2ffc3201efad49ee074ea2c959141a9f", "is_reserved": 0, "lon": -77.031873, "is_disabled": 0, "fusion_lat": 0.0, "lat": 38.93064483333333, "bike_id": "2ffc3201efad49ee074ea2c959141a9f", "fusion_lon": 0.0}, {"rental_uris": {"ios": "https://dc.lft.to/lastmile_qr_scan", "android": "https://dc.lft.to/lastmile_qr_scan"}, "type": "electric_scooter", "name": "4748b30d725728033eec0e6ee06b4acd", "is_reserved": 0, "lon": -77.00426366666667, "is_disabled": 0, "fusion_lat": 0.0, "lat": 38.885062, "bike_id": "4748b30d725728033eec0e6ee06b4acd", "fusion_lon": 0.0}, {"rental_uris": {"ios": "https://dc.lft.to/lastmile_qr_scan", "android": "https://dc.lft.to/lastmile_qr_scan"}, "type": "electric_scooter", "name": "77f90a14c4c26b5deaa47ebc41784775", "is_reserved": 0, "lon": -76.995059, "is_disabled": 0, "fusion_lat": 0.0, "lat": 38.9033015, "bike_id": "77f90a14c4c26b5deaa47ebc41784775", "fusion_lon": 0.0}, {"rental_uris": {"ios": "https://dc.lft.to/lastmile_qr_scan", "android": "https://dc.lft.to/lastmile_qr_scan"}, "type": "electric_scooter", "name": "3a4324b6b928026022432ec632d90a48", "is_reserved": 0, "lon": -77.05323383333334, "is_disabled": 0, "fusion_lat": 0.0, "lat": 38.90457716666667, "bike_id": "3a4324b6b928026022432ec632d90a48", "fusion_lon": 0.0}, {"rental_uris": {"ios": "https://dc.lft.to/lastmile_qr_scan", "android": "https://dc.lft.to/lastmile_qr_scan"}, "type": "electric_scooter", "name": "841385e13eb335b4aa349b21d3d3254e", "is_reserved": 0, "lon": -77.03550733333333, "is_disabled": 0, "fusion_lat": 0.0, "lat": 38.90717033333333, "bike_id": "841385e13eb335b4aa349b21d3d3254e", "fusion_lon": 0.0}, {"rental_uris": {"ios": "https://dc.lft.to/lastmile_qr_scan", "android": "https://dc.lft.to/lastmile_qr_scan"}, "type": "electric_scooter", "name": "3e02e940bce0957b083ed285bab7d080", "is_reserved": 0, "lon": -77.03656616666666, "is_disabled": 0, "fusion_lat": 0.0, "lat": 38.922891, "bike_id": "3e02e940bce0957b083ed285bab7d080", "fusion_lon": 0.0}, {"rental_uris": {"ios": "https://dc.lft.to/lastmile_qr_scan", "android": "https://dc.lft.to/lastmile_qr_scan"}, "type": "electric_scooter", "name": "3ede168ea9e960573b35d160238d4f4f", "is_reserved": 0, "lon": -77.0404415, "is_disabled": 0, "fusion_lat": 0.0, "lat": 38.930112333333334, "bike_id": "3ede168ea9e960573b35d160238d4f4f", "fusion_lon": 0.0}, {"rental_uris": {"ios": "https://dc.lft.to/lastmile_qr_scan", "android": "https://dc.lft.to/lastmile_qr_scan"}, "type": "electric_scooter", "name": "e2d849f896f2ec0be7b00d9257ca5de4", "is_reserved": 0, "lon": -77.02280633333334, "is_disabled": 0, "fusion_lat": 0.0, "lat": 38.916880666666664, "bike_id": "e2d849f896f2ec0be7b00d9257ca5de4", "fusion_lon": 0.0}, {"rental_uris": {"ios": "https://dc.lft.to/lastmile_qr_scan", "android": "https://dc.lft.to/lastmile_qr_scan"}, "type": "electric_scooter", "name": "6cbf508a5dd50187fdd631feff9e069d", "is_reserved": 0, "lon": -77.0487115, "is_disabled": 0, "fusion_lat": 0.0, "lat": 38.9102325, "bike_id": "6cbf508a5dd50187fdd631feff9e069d", "fusion_lon": 0.0}, {"rental_uris": {"ios": "https://dc.lft.to/lastmile_qr_scan", "android": "https://dc.lft.to/lastmile_qr_scan"}, "type": "electric_scooter", "name": "26acef79e3ba13f00e259b142b27ec72", "is_reserved": 0, "lon": -77.025482, "is_disabled": 0, "fusion_lat": 0.0, "lat": 38.95174466666667, "bike_id": "26acef79e3ba13f00e259b142b27ec72", "fusion_lon": 0.0}, {"rental_uris": {"ios": "https://dc.lft.to/lastmile_qr_scan", "android": "https://dc.lft.to/lastmile_qr_scan"}, "type": "electric_scooter", "name": "6a8d334905d92057ed7a0224980c3178", "is_reserved": 0, "lon": -77.05221, "is_disabled": 0, "fusion_lat": 0.0, "lat": 38.909718166666664, "bike_id": "6a8d334905d92057ed7a0224980c3178", "fusion_lon": 0.0}, {"rental_uris": {"ios": "https://dc.lft.to/lastmile_qr_scan", "android": "https://dc.lft.to/lastmile_qr_scan"}, "type": "electric_scooter", "name": "93ef9400d3528c40f42694813a0cfc11", "is_reserved": 0, "lon": -77.02216133333333, "is_disabled": 0, "fusion_lat": 0.0, "lat": 38.924702833333335, "bike_id": "93ef9400d3528c40f42694813a0cfc11", "fusion_lon": 0.0}, {"rental_uris": {"ios": "https://dc.lft.to/lastmile_qr_scan", "android": "https://dc.lft.to/lastmile_qr_scan"}, "type": "electric_scooter", "name": "2210d9a709d8a5a2e1229900b1eb5803", "is_reserved": 0, "lon": -77.04130833333333, "is_disabled": 0, "fusion_lat": 0.0, "lat": 38.90567733333334, "bike_id": "2210d9a709d8a5a2e1229900b1eb5803", "fusion_lon": 0.0}, {"rental_uris": {"ios": "https://dc.lft.to/lastmile_qr_scan", "android": "https://dc.lft.to/lastmile_qr_scan"}, "type": "electric_scooter", "name": "5e7ea3d6fc3f5629e0528dab8f843428", "is_reserved": 0, "lon": -77.03957066666666, "is_disabled": 0, "fusion_lat": 0.0, "lat": 38.892390166666665, "bike_id": "5e7ea3d6fc3f5629e0528dab8f843428", "fusion_lon": 0.0}, {"rental_uris": {"ios": "https://dc.lft.to/lastmile_qr_scan", "android": "https://dc.lft.to/lastmile_qr_scan"}, "type": "electric_scooter", "name": "0b577e2e17285a16855d5a9b7ccc3445", "is_reserved": 0, "lon": -77.00826766666667, "is_disabled": 0, "fusion_lat": 0.0, "lat": 38.91372233333333, "bike_id": "0b577e2e17285a16855d5a9b7ccc3445", "fusion_lon": 0.0}, {"rental_uris": {"ios": "https://dc.lft.to/lastmile_qr_scan", "android": "https://dc.lft.to/lastmile_qr_scan"}, "type": "electric_scooter", "name": "b745d3965a775caaac85a78cbac8ac09", "is_reserved": 0, "lon": -77.02407733333334, "is_disabled": 0, "fusion_lat": 0.0, "lat": 38.9067425, "bike_id": "b745d3965a775caaac85a78cbac8ac09", "fusion_lon": 0.0}, {"rental_uris": {"ios": "https://dc.lft.to/lastmile_qr_scan", "android": "https://dc.lft.to/lastmile_qr_scan"}, "type": "electric_scooter", "name": "a9d86e102a8f886773ae03b92e83a097", "is_reserved": 0, "lon": -77.05625866666666, "is_disabled": 0, "fusion_lat": 0.0, "lat": 38.9068535, "bike_id": "a9d86e102a8f886773ae03b92e83a097", "fusion_lon": 0.0}, {"rental_uris": {"ios": "https://dc.lft.to/lastmile_qr_scan", "android": "https://dc.lft.to/lastmile_qr_scan"}, "type": "electric_scooter", "name": "cfbd3662eff770fd6048e7fad765a0a6", "is_reserved": 0, "lon": -77.05317166666667, "is_disabled": 0, "fusion_lat": 0.0, "lat": 38.9027145, "bike_id": "cfbd3662eff770fd6048e7fad765a0a6", "fusion_lon": 0.0}, {"rental_uris": {"ios": "https://dc.lft.to/lastmile_qr_scan", "android": "https://dc.lft.to/lastmile_qr_scan"}, "type": "electric_scooter", "name": "3e1913919e2cd794d7bf5dcf27dca1d1", "is_reserved": 0, "lon": -76.99623866666667, "is_disabled": 0, "fusion_lat": 0.0, "lat": 38.885237833333335, "bike_id": "3e1913919e2cd794d7bf5dcf27dca1d1", "fusion_lon": 0.0}, {"rental_uris": {"ios": "https://dc.lft.to/lastmile_qr_scan", "android": "https://dc.lft.to/lastmile_qr_scan"}, "type": "electric_scooter", "name": "362d94fff82a314647212ce242b8ccc6", "is_reserved": 0, "lon": -77.02231233333333, "is_disabled": 0, "fusion_lat": 0.0, "lat": 38.892209, "bike_id": "362d94fff82a314647212ce242b8ccc6", "fusion_lon": 0.0}, {"rental_uris": {"ios": "https://dc.lft.to/lastmile_qr_scan", "android": "https://dc.lft.to/lastmile_qr_scan"}, "type": "electric_scooter", "name": "1e9088f24b32e48c8e9b2c45efa4fbec", "is_reserved": 0, "lon": -77.03976833333333, "is_disabled": 0, "fusion_lat": 0.0, "lat": 38.903058333333334, "bike_id": "1e9088f24b32e48c8e9b2c45efa4fbec", "fusion_lon": 0.0}, {"rental_uris": {"ios": "https://dc.lft.to/lastmile_qr_scan", "android": "https://dc.lft.to/lastmile_qr_scan"}, "type": "electric_scooter", "name": "aeeab5ce59ec6b7cb80a64178275a251", "is_reserved": 0, "lon": -77.02478933333333, "is_disabled": 0, "fusion_lat": 0.0, "lat": 38.918124166666665, "bike_id": "aeeab5ce59ec6b7cb80a64178275a251", "fusion_lon": 0.0}, {"rental_uris": {"ios": "https://dc.lft.to/lastmile_qr_scan", "android": "https://dc.lft.to/lastmile_qr_scan"}, "type": "electric_scooter", "name": "b9241e061c707d0675b344ff1d88c1be", "is_reserved": 0, "lon": -77.02177233333333, "is_disabled": 0, "fusion_lat": 0.0, "lat": 38.9101, "bike_id": "b9241e061c707d0675b344ff1d88c1be", "fusion_lon": 0.0}, {"rental_uris": {"ios": "https://dc.lft.to/lastmile_qr_scan", "android": "https://dc.lft.to/lastmile_qr_scan"}, "type": "electric_scooter", "name": "66bbed08ec6908d224ff5ea2a7397a1d", "is_reserved": 0, "lon": -76.99233866666667, "is_disabled": 0, "fusion_lat": 0.0, "lat": 38.887515666666665, "bike_id": "66bbed08ec6908d224ff5ea2a7397a1d", "fusion_lon": 0.0}, {"rental_uris": {"ios": "https://dc.lft.to/lastmile_qr_scan", "android": "https://dc.lft.to/lastmile_qr_scan"}, "type": "electric_scooter", "name": "53f2cb49af1f8788cb0dda74b168887f", "is_reserved": 0, "lon": -77.01761883333333, "is_disabled": 0, "fusion_lat": 0.0, "lat": 38.90245733333333, "bike_id": "53f2cb49af1f8788cb0dda74b168887f", "fusion_lon": 0.0}, {"rental_uris": {"ios": "https://dc.lft.to/lastmile_qr_scan", "android": "https://dc.lft.to/lastmile_qr_scan"}, "type": "electric_scooter", "name": "34f47a3a29fba82af17367c61f912ac9", "is_reserved": 0, "lon": -77.03177366666667, "is_disabled": 0, "fusion_lat": 0.0, "lat": 38.88739916666667, "bike_id": "34f47a3a29fba82af17367c61f912ac9", "fusion_lon": 0.0}, {"rental_uris": {"ios": "https://dc.lft.to/lastmile_qr_scan", "android": "https://dc.lft.to/lastmile_qr_scan"}, "type": "electric_scooter", "name": "8d9d108894d082dd24c53d6b0914c2d4", "is_reserved": 0, "lon": -77.02198616666666, "is_disabled": 0, "fusion_lat": 0.0, "lat": 38.90366316666667, "bike_id": "8d9d108894d082dd24c53d6b0914c2d4", "fusion_lon": 0.0}, {"rental_uris": {"ios": "https://dc.lft.to/lastmile_qr_scan", "android": "https://dc.lft.to/lastmile_qr_scan"}, "type": "electric_bike", "name": "bfd2f9954a29ed758cc608d88e78814a", "is_reserved": 0, "lon": -76.90735133333334, "is_disabled": 0, "fusion_lat": 0.0, "lat": 38.896151, "bike_id": "bfd2f9954a29ed758cc608d88e78814a", "fusion_lon": 0.0}, {"rental_uris": {"ios": "https://dc.lft.to/lastmile_qr_scan", "android": "https://dc.lft.to/lastmile_qr_scan"}, "type": "electric_scooter", "name": "59b3009780efa3a87ab373850e67708f", "is_reserved": 0, "lon": -77.025514, "is_disabled": 0, "fusion_lat": 0.0, "lat": 38.951793, "bike_id": "59b3009780efa3a87ab373850e67708f", "fusion_lon": 0.0}, {"rental_uris": {"ios": "https://dc.lft.to/lastmile_qr_scan", "android": "https://dc.lft.to/lastmile_qr_scan"}, "type": "electric_scooter", "name": "b316e9eadd4c01ce32898e1e59eb0cfc", "is_reserved": 0, "lon": -77.005818, "is_disabled": 0, "fusion_lat": 0.0, "lat": 38.880334833333336, "bike_id": "b316e9eadd4c01ce32898e1e59eb0cfc", "fusion_lon": 0.0}, {"rental_uris": {"ios": "https://dc.lft.to/lastmile_qr_scan", "android": "https://dc.lft.to/lastmile_qr_scan"}, "type": "electric_scooter", "name": "9a650eb73a30aa14b812c2270c097da2", "is_reserved": 0, "lon": -76.95284816666667, "is_disabled": 0, "fusion_lat": 0.0, "lat": 38.885251, "bike_id": "9a650eb73a30aa14b812c2270c097da2", "fusion_lon": 0.0}, {"rental_uris": {"ios": "https://dc.lft.to/lastmile_qr_scan", "android": "https://dc.lft.to/lastmile_qr_scan"}, "type": "electric_scooter", "name": "917a49f2ed9748cb8d9986447296c8eb", "is_reserved": 0, "lon": -77.0272675, "is_disabled": 0, "fusion_lat": 0.0, "lat": 38.896218833333336, "bike_id": "917a49f2ed9748cb8d9986447296c8eb", "fusion_lon": 0.0}, {"rental_uris": {"ios": "https://dc.lft.to/lastmile_qr_scan", "android": "https://dc.lft.to/lastmile_qr_scan"}, "type": "electric_scooter", "name": "6b4cf7aed96462fc7f72ba192dbad593", "is_reserved": 0, "lon": -77.032508, "is_disabled": 0, "fusion_lat": 0.0, "lat": 38.9198785, "bike_id": "6b4cf7aed96462fc7f72ba192dbad593", "fusion_lon": 0.0}, {"rental_uris": {"ios": "https://dc.lft.to/lastmile_qr_scan", "android": "https://dc.lft.to/lastmile_qr_scan"}, "type": "electric_scooter", "name": "34c50768c658620691c2aec32e925c63", "is_reserved": 0, "lon": -76.940665, "is_disabled": 0, "fusion_lat": 0.0, "lat": 38.88591133333333, "bike_id": "34c50768c658620691c2aec32e925c63", "fusion_lon": 0.0}, {"rental_uris": {"ios": "https://dc.lft.to/lastmile_qr_scan", "android": "https://dc.lft.to/lastmile_qr_scan"}, "type": "electric_scooter", "name": "26cae8fb51b4dc12692e0d10c46a3cc1", "is_reserved": 0, "lon": -77.019491, "is_disabled": 0, "fusion_lat": 0.0, "lat": 38.92423183333333, "bike_id": "26cae8fb51b4dc12692e0d10c46a3cc1", "fusion_lon": 0.0}, {"rental_uris": {"ios": "https://dc.lft.to/lastmile_qr_scan", "android": "https://dc.lft.to/lastmile_qr_scan"}, "type": "electric_scooter", "name": "656253a720f3759bdd175052a050e6eb", "is_reserved": 0, "lon": -76.99508466666667, "is_disabled": 0, "fusion_lat": 0.0, "lat": 38.9097475, "bike_id": "656253a720f3759bdd175052a050e6eb", "fusion_lon": 0.0}, {"rental_uris": {"ios": "https://dc.lft.to/lastmile_qr_scan", "android": "https://dc.lft.to/lastmile_qr_scan"}, "type": "electric_scooter", "name": "ca43198ab6aa7639f7625e1429e8e7e3", "is_reserved": 0, "lon": -77.03350033333334, "is_disabled": 0, "fusion_lat": 0.0, "lat": 38.892356, "bike_id": "ca43198ab6aa7639f7625e1429e8e7e3", "fusion_lon": 0.0}, {"rental_uris": {"ios": "https://dc.lft.to/lastmile_qr_scan", "android": "https://dc.lft.to/lastmile_qr_scan"}, "type": "electric_scooter", "name": "0d26c0a6a7d695a0c436426443486132", "is_reserved": 0, "lon": -77.0221845, "is_disabled": 0, "fusion_lat": 0.0, "lat": 38.903056166666666, "bike_id": "0d26c0a6a7d695a0c436426443486132", "fusion_lon": 0.0}, {"rental_uris": {"ios": "https://dc.lft.to/lastmile_qr_scan", "android": "https://dc.lft.to/lastmile_qr_scan"}, "type": "electric_scooter", "name": "495c4a0ba0bc155b4d988ce6a1c4ff08", "is_reserved": 0, "lon": -77.03351016666667, "is_disabled": 0, "fusion_lat": 0.0, "lat": 38.922352833333335, "bike_id": "495c4a0ba0bc155b4d988ce6a1c4ff08", "fusion_lon": 0.0}, {"rental_uris": {"ios": "https://dc.lft.to/lastmile_qr_scan", "android": "https://dc.lft.to/lastmile_qr_scan"}, "type": "electric_scooter", "name": "7a294a3d00653a807c4359994a642a95", "is_reserved": 0, "lon": -77.046057, "is_disabled": 0, "fusion_lat": 0.0, "lat": 38.9095975, "bike_id": "7a294a3d00653a807c4359994a642a95", "fusion_lon": 0.0}, {"rental_uris": {"ios": "https://dc.lft.to/lastmile_qr_scan", "android": "https://dc.lft.to/lastmile_qr_scan"}, "type": "electric_scooter", "name": "64c730563d98fae85220a98862e7642b", "is_reserved": 0, "lon": -77.04501333333333, "is_disabled": 0, "fusion_lat": 0.0, "lat": 38.8922015, "bike_id": "64c730563d98fae85220a98862e7642b", "fusion_lon": 0.0}, {"rental_uris": {"ios": "https://dc.lft.to/lastmile_qr_scan", "android": "https://dc.lft.to/lastmile_qr_scan"}, "type": "electric_scooter", "name": "0820749e5cb3dfb7155b2c5f7d392513", "is_reserved": 0, "lon": -77.02992066666667, "is_disabled": 0, "fusion_lat": 0.0, "lat": 38.91685666666667, "bike_id": "0820749e5cb3dfb7155b2c5f7d392513", "fusion_lon": 0.0}, {"rental_uris": {"ios": "https://dc.lft.to/lastmile_qr_scan", "android": "https://dc.lft.to/lastmile_qr_scan"}, "type": "electric_scooter", "name": "e9114c68bcdef89418680558e725e416", "is_reserved": 0, "lon": -77.02421283333334, "is_disabled": 0, "fusion_lat": 0.0, "lat": 38.89897166666667, "bike_id": "e9114c68bcdef89418680558e725e416", "fusion_lon": 0.0}, {"rental_uris": {"ios": "https://dc.lft.to/lastmile_qr_scan", "android": "https://dc.lft.to/lastmile_qr_scan"}, "type": "electric_scooter", "name": "f3c1404cb16b01be0a511a4ac3b93f06", "is_reserved": 0, "lon": -76.988372, "is_disabled": 0, "fusion_lat": 0.0, "lat": 38.89497933333333, "bike_id": "f3c1404cb16b01be0a511a4ac3b93f06", "fusion_lon": 0.0}, {"rental_uris": {"ios": "https://dc.lft.to/lastmile_qr_scan", "android": "https://dc.lft.to/lastmile_qr_scan"}, "type": "electric_bike", "name": "eb42ac8d9ed31cc60a381c7ef29accef", "is_reserved": 0, "lon": -76.99012966666666, "is_disabled": 0, "fusion_lat": 0.0, "lat": 38.954813333333334, "bike_id": "eb42ac8d9ed31cc60a381c7ef29accef", "fusion_lon": 0.0}, {"rental_uris": {"ios": "https://dc.lft.to/lastmile_qr_scan", "android": "https://dc.lft.to/lastmile_qr_scan"}, "type": "electric_scooter", "name": "22abbb8546973984b156dca8f9773047", "is_reserved": 0, "lon": -77.01761066666667, "is_disabled": 0, "fusion_lat": 0.0, "lat": 38.9026435, "bike_id": "22abbb8546973984b156dca8f9773047", "fusion_lon": 0.0}, {"rental_uris": {"ios": "https://dc.lft.to/lastmile_qr_scan", "android": "https://dc.lft.to/lastmile_qr_scan"}, "type": "electric_scooter", "name": "741ee3a9cf9222e60019549bacb9a1cb", "is_reserved": 0, "lon": -77.00191483333333, "is_disabled": 0, "fusion_lat": 0.0, "lat": 38.90034883333333, "bike_id": "741ee3a9cf9222e60019549bacb9a1cb", "fusion_lon": 0.0}, {"rental_uris": {"ios": "https://dc.lft.to/lastmile_qr_scan", "android": "https://dc.lft.to/lastmile_qr_scan"}, "type": "electric_bike", "name": "eaf344ed69d562deea5cdb54a86d40b9", "is_reserved": 0, "lon": -76.98773016666667, "is_disabled": 0, "fusion_lat": 0.0, "lat": 38.85771166666667, "bike_id": "eaf344ed69d562deea5cdb54a86d40b9", "fusion_lon": 0.0}, {"rental_uris": {"ios": "https://dc.lft.to/lastmile_qr_scan", "android": "https://dc.lft.to/lastmile_qr_scan"}, "type": "electric_scooter", "name": "c46f48a29d867b5e14bbdf14ba029dac", "is_reserved": 0, "lon": -77.03776933333333, "is_disabled": 0, "fusion_lat": 0.0, "lat": 38.915726666666664, "bike_id": "c46f48a29d867b5e14bbdf14ba029dac", "fusion_lon": 0.0}, {"rental_uris": {"ios": "https://dc.lft.to/lastmile_qr_scan", "android": "https://dc.lft.to/lastmile_qr_scan"}, "type": "electric_bike", "name": "cdd0a8a94a95b68997dbf65402e2d105", "is_reserved": 0, "lon": -77.01224033333334, "is_disabled": 0, "fusion_lat": 0.0, "lat": 38.871916, "bike_id": "cdd0a8a94a95b68997dbf65402e2d105", "fusion_lon": 0.0}, {"rental_uris": {"ios": "https://dc.lft.to/lastmile_qr_scan", "android": "https://dc.lft.to/lastmile_qr_scan"}, "type": "electric_bike", "name": "1c6362579bd7a2b1dad37e4ce3b804e7", "is_reserved": 0, "lon": -77.06529733333333, "is_disabled": 0, "fusion_lat": 0.0, "lat": 38.992354166666665, "bike_id": "1c6362579bd7a2b1dad37e4ce3b804e7", "fusion_lon": 0.0}, {"rental_uris": {"ios": "https://dc.lft.to/lastmile_qr_scan", "android": "https://dc.lft.to/lastmile_qr_scan"}, "type": "electric_bike", "name": "f2025b5a3d8b0b4018b261c645d45297", "is_reserved": 0, "lon": -77.09721083333334, "is_disabled": 0, "fusion_lat": 0.0, "lat": 38.80738616666667, "bike_id": "f2025b5a3d8b0b4018b261c645d45297", "fusion_lon": 0.0}, {"rental_uris": {"ios": "https://dc.lft.to/lastmile_qr_scan", "android": "https://dc.lft.to/lastmile_qr_scan"}, "type": "electric_scooter", "name": "bad4b57f04a3b1c1930cd6448f71313a", "is_reserved": 0, "lon": -77.039086, "is_disabled": 0, "fusion_lat": 0.0, "lat": 38.908370166666664, "bike_id": "bad4b57f04a3b1c1930cd6448f71313a", "fusion_lon": 0.0}, {"rental_uris": {"ios": "https://dc.lft.to/lastmile_qr_scan", "android": "https://dc.lft.to/lastmile_qr_scan"}, "type": "electric_scooter", "name": "b1fad007620c18f8cd825fae2743bb78", "is_reserved": 0, "lon": -77.03481433333333, "is_disabled": 0, "fusion_lat": 0.0, "lat": 38.93110166666666, "bike_id": "b1fad007620c18f8cd825fae2743bb78", "fusion_lon": 0.0}, {"rental_uris": {"ios": "https://dc.lft.to/lastmile_qr_scan", "android": "https://dc.lft.to/lastmile_qr_scan"}, "type": "electric_scooter", "name": "ddf6a60f1ec44834f43015713974c73b", "is_reserved": 0, "lon": -77.0259515, "is_disabled": 0, "fusion_lat": 0.0, "lat": 38.916904, "bike_id": "ddf6a60f1ec44834f43015713974c73b", "fusion_lon": 0.0}, {"rental_uris": {"ios": "https://dc.lft.to/lastmile_qr_scan", "android": "https://dc.lft.to/lastmile_qr_scan"}, "type": "electric_scooter", "name": "bf3f56ad668c07aa45ee959a31231c24", "is_reserved": 0, "lon": -77.005505, "is_disabled": 0, "fusion_lat": 0.0, "lat": 38.879206833333335, "bike_id": "bf3f56ad668c07aa45ee959a31231c24", "fusion_lon": 0.0}, {"rental_uris": {"ios": "https://dc.lft.to/lastmile_qr_scan", "android": "https://dc.lft.to/lastmile_qr_scan"}, "type": "electric_scooter", "name": "1cec65b3db4fa829b694b287227d567e", "is_reserved": 0, "lon": -77.0550275, "is_disabled": 0, "fusion_lat": 0.0, "lat": 38.9283565, "bike_id": "1cec65b3db4fa829b694b287227d567e", "fusion_lon": 0.0}, {"rental_uris": {"ios": "https://dc.lft.to/lastmile_qr_scan", "android": "https://dc.lft.to/lastmile_qr_scan"}, "type": "electric_bike", "name": "b2b8202d41e4a23c59e52547009f8fb1", "is_reserved": 0, "lon": -77.21662016666667, "is_disabled": 0, "fusion_lat": 0.0, "lat": 38.8950705, "bike_id": "b2b8202d41e4a23c59e52547009f8fb1", "fusion_lon": 0.0}, {"rental_uris": {"ios": "https://dc.lft.to/lastmile_qr_scan", "android": "https://dc.lft.to/lastmile_qr_scan"}, "type": "electric_scooter", "name": "9669a78a5a2697fb3b3b71d7f2f926c7", "is_reserved": 0, "lon": -77.07721233333334, "is_disabled": 0, "fusion_lat": 0.0, "lat": 38.94293783333333, "bike_id": "9669a78a5a2697fb3b3b71d7f2f926c7", "fusion_lon": 0.0}, {"rental_uris": {"ios": "https://dc.lft.to/lastmile_qr_scan", "android": "https://dc.lft.to/lastmile_qr_scan"}, "type": "electric_scooter", "name": "9993c09d869097e9f3669f1ade103a83", "is_reserved": 0, "lon": -76.99883483333333, "is_disabled": 0, "fusion_lat": 0.0, "lat": 38.920565833333335, "bike_id": "9993c09d869097e9f3669f1ade103a83", "fusion_lon": 0.0}, {"rental_uris": {"ios": "https://dc.lft.to/lastmile_qr_scan", "android": "https://dc.lft.to/lastmile_qr_scan"}, "type": "electric_scooter", "name": "4484426bc3b5b2723aeff7ab42f23040", "is_reserved": 0, "lon": -77.03079783333334, "is_disabled": 0, "fusion_lat": 0.0, "lat": 38.93880166666667, "bike_id": "4484426bc3b5b2723aeff7ab42f23040", "fusion_lon": 0.0}, {"rental_uris": {"ios": "https://dc.lft.to/lastmile_qr_scan", "android": "https://dc.lft.to/lastmile_qr_scan"}, "type": "electric_scooter", "name": "8b1268882be309e3b4a8799e3ff5719b", "is_reserved": 0, "lon": -77.0317265, "is_disabled": 0, "fusion_lat": 0.0, "lat": 38.9191935, "bike_id": "8b1268882be309e3b4a8799e3ff5719b", "fusion_lon": 0.0}, {"rental_uris": {"ios": "https://dc.lft.to/lastmile_qr_scan", "android": "https://dc.lft.to/lastmile_qr_scan"}, "type": "electric_scooter", "name": "2f4773798f9d7d8e522c24ca288a141d", "is_reserved": 0, "lon": -77.02865083333333, "is_disabled": 0, "fusion_lat": 0.0, "lat": 38.89852583333333, "bike_id": "2f4773798f9d7d8e522c24ca288a141d", "fusion_lon": 0.0}, {"rental_uris": {"ios": "https://dc.lft.to/lastmile_qr_scan", "android": "https://dc.lft.to/lastmile_qr_scan"}, "type": "electric_scooter", "name": "8dd8a837bc011dedd34235c1aec56211", "is_reserved": 0, "lon": -77.0218735, "is_disabled": 0, "fusion_lat": 0.0, "lat": 38.91534633333333, "bike_id": "8dd8a837bc011dedd34235c1aec56211", "fusion_lon": 0.0}, {"rental_uris": {"ios": "https://dc.lft.to/lastmile_qr_scan", "android": "https://dc.lft.to/lastmile_qr_scan"}, "type": "electric_scooter", "name": "50e2e3b37f8f30596e6911824348772c", "is_reserved": 0, "lon": -77.0241745, "is_disabled": 0, "fusion_lat": 0.0, "lat": 38.89755816666667, "bike_id": "50e2e3b37f8f30596e6911824348772c", "fusion_lon": 0.0}, {"rental_uris": {"ios": "https://dc.lft.to/lastmile_qr_scan", "android": "https://dc.lft.to/lastmile_qr_scan"}, "type": "electric_scooter", "name": "d2b6924e363dda6d2a0715a5b5478368", "is_reserved": 0, "lon": -77.02298833333333, "is_disabled": 0, "fusion_lat": 0.0, "lat": 38.9162275, "bike_id": "d2b6924e363dda6d2a0715a5b5478368", "fusion_lon": 0.0}, {"rental_uris": {"ios": "https://dc.lft.to/lastmile_qr_scan", "android": "https://dc.lft.to/lastmile_qr_scan"}, "type": "electric_scooter", "name": "fdb67b69d4618ae52e4cfcc896cb24c8", "is_reserved": 0, "lon": -77.04892783333334, "is_disabled": 0, "fusion_lat": 0.0, "lat": 38.899068666666665, "bike_id": "fdb67b69d4618ae52e4cfcc896cb24c8", "fusion_lon": 0.0}, {"rental_uris": {"ios": "https://dc.lft.to/lastmile_qr_scan", "android": "https://dc.lft.to/lastmile_qr_scan"}, "type": "electric_scooter", "name": "aae9ae8339c9a7f1871eab7c37d1bb7c", "is_reserved": 0, "lon": -77.0322025, "is_disabled": 0, "fusion_lat": 0.0, "lat": 38.90448666666666, "bike_id": "aae9ae8339c9a7f1871eab7c37d1bb7c", "fusion_lon": 0.0}, {"rental_uris": {"ios": "https://dc.lft.to/lastmile_qr_scan", "android": "https://dc.lft.to/lastmile_qr_scan"}, "type": "electric_bike", "name": "8ee045b671bf4ac61b6194948934c6a3", "is_reserved": 0, "lon": -76.9752795, "is_disabled": 0, "fusion_lat": 0.0, "lat": 38.903303, "bike_id": "8ee045b671bf4ac61b6194948934c6a3", "fusion_lon": 0.0}, {"rental_uris": {"ios": "https://dc.lft.to/lastmile_qr_scan", "android": "https://dc.lft.to/lastmile_qr_scan"}, "type": "electric_scooter", "name": "fa4365dba6b1a073f8fb3edbb2ceef1a", "is_reserved": 0, "lon": -77.03260783333333, "is_disabled": 0, "fusion_lat": 0.0, "lat": 38.938833833333334, "bike_id": "fa4365dba6b1a073f8fb3edbb2ceef1a", "fusion_lon": 0.0}, {"rental_uris": {"ios": "https://dc.lft.to/lastmile_qr_scan", "android": "https://dc.lft.to/lastmile_qr_scan"}, "type": "electric_scooter", "name": "af24b215d165b49ca6898d9869e19a2f", "is_reserved": 0, "lon": -76.99386433333333, "is_disabled": 0, "fusion_lat": 0.0, "lat": 38.91011, "bike_id": "af24b215d165b49ca6898d9869e19a2f", "fusion_lon": 0.0}, {"rental_uris": {"ios": "https://dc.lft.to/lastmile_qr_scan", "android": "https://dc.lft.to/lastmile_qr_scan"}, "type": "electric_scooter", "name": "de2f5edcfa4aca08acbf1f7a83d0a43e", "is_reserved": 0, "lon": -76.99851683333333, "is_disabled": 0, "fusion_lat": 0.0, "lat": 38.90032716666666, "bike_id": "de2f5edcfa4aca08acbf1f7a83d0a43e", "fusion_lon": 0.0}, {"rental_uris": {"ios": "https://dc.lft.to/lastmile_qr_scan", "android": "https://dc.lft.to/lastmile_qr_scan"}, "type": "electric_scooter", "name": "f91a3f3775a3cd69cea9244e2cb9c68f", "is_reserved": 0, "lon": -77.03711, "is_disabled": 0, "fusion_lat": 0.0, "lat": 38.92650616666667, "bike_id": "f91a3f3775a3cd69cea9244e2cb9c68f", "fusion_lon": 0.0}, {"rental_uris": {"ios": "https://dc.lft.to/lastmile_qr_scan", "android": "https://dc.lft.to/lastmile_qr_scan"}, "type": "electric_scooter", "name": "85e85d19156813f097d9c00aa88897a8", "is_reserved": 0, "lon": -77.018215, "is_disabled": 0, "fusion_lat": 0.0, "lat": 38.9110355, "bike_id": "85e85d19156813f097d9c00aa88897a8", "fusion_lon": 0.0}, {"rental_uris": {"ios": "https://dc.lft.to/lastmile_qr_scan", "android": "https://dc.lft.to/lastmile_qr_scan"}, "type": "electric_scooter", "name": "b6e2cc3421ea8fe1faeed021449b34b3", "is_reserved": 0, "lon": -77.05680633333333, "is_disabled": 0, "fusion_lat": 0.0, "lat": 38.933919333333336, "bike_id": "b6e2cc3421ea8fe1faeed021449b34b3", "fusion_lon": 0.0}, {"rental_uris": {"ios": "https://dc.lft.to/lastmile_qr_scan", "android": "https://dc.lft.to/lastmile_qr_scan"}, "type": "electric_scooter", "name": "1266a5f87baedb18e8a38e5ae31daf0a", "is_reserved": 0, "lon": -77.02628683333333, "is_disabled": 0, "fusion_lat": 0.0, "lat": 38.89218833333334, "bike_id": "1266a5f87baedb18e8a38e5ae31daf0a", "fusion_lon": 0.0}, {"rental_uris": {"ios": "https://dc.lft.to/lastmile_qr_scan", "android": "https://dc.lft.to/lastmile_qr_scan"}, "type": "electric_scooter", "name": "0716634ae216fccdb91fea663173ee6d", "is_reserved": 0, "lon": -77.00401316666667, "is_disabled": 0, "fusion_lat": 0.0, "lat": 38.874622, "bike_id": "0716634ae216fccdb91fea663173ee6d", "fusion_lon": 0.0}, {"rental_uris": {"ios": "https://dc.lft.to/lastmile_qr_scan", "android": "https://dc.lft.to/lastmile_qr_scan"}, "type": "electric_scooter", "name": "4256d1c1a96263dbe4f6c6dbe3f7ca2f", "is_reserved": 0, "lon": -77.02169333333333, "is_disabled": 0, "fusion_lat": 0.0, "lat": 38.91980266666667, "bike_id": "4256d1c1a96263dbe4f6c6dbe3f7ca2f", "fusion_lon": 0.0}, {"rental_uris": {"ios": "https://dc.lft.to/lastmile_qr_scan", "android": "https://dc.lft.to/lastmile_qr_scan"}, "type": "electric_scooter", "name": "d467b86284c076f829ed1668108b059a", "is_reserved": 0, "lon": -77.01900316666666, "is_disabled": 0, "fusion_lat": 0.0, "lat": 38.923377, "bike_id": "d467b86284c076f829ed1668108b059a", "fusion_lon": 0.0}, {"rental_uris": {"ios": "https://dc.lft.to/lastmile_qr_scan", "android": "https://dc.lft.to/lastmile_qr_scan"}, "type": "electric_scooter", "name": "610ae9f9d09183100563fcd1c5aaf92a", "is_reserved": 0, "lon": -77.03338066666667, "is_disabled": 0, "fusion_lat": 0.0, "lat": 38.9033215, "bike_id": "610ae9f9d09183100563fcd1c5aaf92a", "fusion_lon": 0.0}, {"rental_uris": {"ios": "https://dc.lft.to/lastmile_qr_scan", "android": "https://dc.lft.to/lastmile_qr_scan"}, "type": "electric_scooter", "name": "c939ffe4a6e846ebffd7da56c84a3e5a", "is_reserved": 0, "lon": -76.98100483333333, "is_disabled": 0, "fusion_lat": 0.0, "lat": 38.89785366666667, "bike_id": "c939ffe4a6e846ebffd7da56c84a3e5a", "fusion_lon": 0.0}, {"rental_uris": {"ios": "https://dc.lft.to/lastmile_qr_scan", "android": "https://dc.lft.to/lastmile_qr_scan"}, "type": "electric_scooter", "name": "073fa04e13e4e3e8cbafbc5b50dbf487", "is_reserved": 0, "lon": -77.01144183333334, "is_disabled": 0, "fusion_lat": 0.0, "lat": 38.914439, "bike_id": "073fa04e13e4e3e8cbafbc5b50dbf487", "fusion_lon": 0.0}, {"rental_uris": {"ios": "https://dc.lft.to/lastmile_qr_scan", "android": "https://dc.lft.to/lastmile_qr_scan"}, "type": "electric_scooter", "name": "4996fd6c489653873dc365c5f8dd5d97", "is_reserved": 0, "lon": -77.01756166666667, "is_disabled": 0, "fusion_lat": 0.0, "lat": 38.87719, "bike_id": "4996fd6c489653873dc365c5f8dd5d97", "fusion_lon": 0.0}, {"rental_uris": {"ios": "https://dc.lft.to/lastmile_qr_scan", "android": "https://dc.lft.to/lastmile_qr_scan"}, "type": "electric_scooter", "name": "e1c344dd6ae81ed0dd2a718d7aa502de", "is_reserved": 0, "lon": -77.01768433333334, "is_disabled": 0, "fusion_lat": 0.0, "lat": 38.921116166666664, "bike_id": "e1c344dd6ae81ed0dd2a718d7aa502de", "fusion_lon": 0.0}, {"rental_uris": {"ios": "https://dc.lft.to/lastmile_qr_scan", "android": "https://dc.lft.to/lastmile_qr_scan"}, "type": "electric_bike", "name": "1728f5ba42206a22f90f264851a3d260", "is_reserved": 0, "lon": -76.97537983333334, "is_disabled": 0, "fusion_lat": 0.0, "lat": 38.903303333333334, "bike_id": "1728f5ba42206a22f90f264851a3d260", "fusion_lon": 0.0}, {"rental_uris": {"ios": "https://dc.lft.to/lastmile_qr_scan", "android": "https://dc.lft.to/lastmile_qr_scan"}, "type": "electric_scooter", "name": "e587d56b5ef13d9b9222a9fb6bf268d5", "is_reserved": 0, "lon": -77.03446883333334, "is_disabled": 0, "fusion_lat": 0.0, "lat": 38.91026016666667, "bike_id": "e587d56b5ef13d9b9222a9fb6bf268d5", "fusion_lon": 0.0}, {"rental_uris": {"ios": "https://dc.lft.to/lastmile_qr_scan", "android": "https://dc.lft.to/lastmile_qr_scan"}, "type": "electric_scooter", "name": "3e2bde2652cdd9e82e84d0ac826d26d6", "is_reserved": 0, "lon": -76.95700616666667, "is_disabled": 0, "fusion_lat": 0.0, "lat": 38.891982166666665, "bike_id": "3e2bde2652cdd9e82e84d0ac826d26d6", "fusion_lon": 0.0}, {"rental_uris": {"ios": "https://dc.lft.to/lastmile_qr_scan", "android": "https://dc.lft.to/lastmile_qr_scan"}, "type": "electric_scooter", "name": "17de97ec5ba577060b33750432ff746f", "is_reserved": 0, "lon": -77.053157, "is_disabled": 0, "fusion_lat": 0.0, "lat": 38.90507983333333, "bike_id": "17de97ec5ba577060b33750432ff746f", "fusion_lon": 0.0}, {"rental_uris": {"ios": "https://dc.lft.to/lastmile_qr_scan", "android": "https://dc.lft.to/lastmile_qr_scan"}, "type": "electric_scooter", "name": "1cde97770977b02e21c34742874c0fda", "is_reserved": 0, "lon": -76.990288, "is_disabled": 0, "fusion_lat": 0.0, "lat": 38.8887225, "bike_id": "1cde97770977b02e21c34742874c0fda", "fusion_lon": 0.0}, {"rental_uris": {"ios": "https://dc.lft.to/lastmile_qr_scan", "android": "https://dc.lft.to/lastmile_qr_scan"}, "type": "electric_scooter", "name": "8387f1c78db827a18cf7e3b025b791b4", "is_reserved": 0, "lon": -77.00733016666666, "is_disabled": 0, "fusion_lat": 0.0, "lat": 38.87625116666667, "bike_id": "8387f1c78db827a18cf7e3b025b791b4", "fusion_lon": 0.0}, {"rental_uris": {"ios": "https://dc.lft.to/lastmile_qr_scan", "android": "https://dc.lft.to/lastmile_qr_scan"}, "type": "electric_scooter", "name": "059dcc325a642f070f2b841ae8e19833", "is_reserved": 0, "lon": -77.04355033333333, "is_disabled": 0, "fusion_lat": 0.0, "lat": 38.9011185, "bike_id": "059dcc325a642f070f2b841ae8e19833", "fusion_lon": 0.0}, {"rental_uris": {"ios": "https://dc.lft.to/lastmile_qr_scan", "android": "https://dc.lft.to/lastmile_qr_scan"}, "type": "electric_scooter", "name": "884106c629c15728188fbf01a5960482", "is_reserved": 0, "lon": -77.00928416666666, "is_disabled": 0, "fusion_lat": 0.0, "lat": 38.91255783333333, "bike_id": "884106c629c15728188fbf01a5960482", "fusion_lon": 0.0}, {"rental_uris": {"ios": "https://dc.lft.to/lastmile_qr_scan", "android": "https://dc.lft.to/lastmile_qr_scan"}, "type": "electric_scooter", "name": "65152c14cb94094b5393fb386ef071a8", "is_reserved": 0, "lon": -77.00197333333334, "is_disabled": 0, "fusion_lat": 0.0, "lat": 38.902409, "bike_id": "65152c14cb94094b5393fb386ef071a8", "fusion_lon": 0.0}, {"rental_uris": {"ios": "https://dc.lft.to/lastmile_qr_scan", "android": "https://dc.lft.to/lastmile_qr_scan"}, "type": "electric_scooter", "name": "c67f8b8157330daa7d9b2bc17e101e03", "is_reserved": 0, "lon": -77.03325433333333, "is_disabled": 0, "fusion_lat": 0.0, "lat": 38.91803316666667, "bike_id": "c67f8b8157330daa7d9b2bc17e101e03", "fusion_lon": 0.0}, {"rental_uris": {"ios": "https://dc.lft.to/lastmile_qr_scan", "android": "https://dc.lft.to/lastmile_qr_scan"}, "type": "electric_scooter", "name": "3f06b8161b4c0acfecb99ab4b4d30417", "is_reserved": 0, "lon": -77.02508666666667, "is_disabled": 0, "fusion_lat": 0.0, "lat": 38.897492166666666, "bike_id": "3f06b8161b4c0acfecb99ab4b4d30417", "fusion_lon": 0.0}, {"rental_uris": {"ios": "https://dc.lft.to/lastmile_qr_scan", "android": "https://dc.lft.to/lastmile_qr_scan"}, "type": "electric_scooter", "name": "9537e64ccf30486ed76537cff0800b0c", "is_reserved": 0, "lon": -77.03853266666667, "is_disabled": 0, "fusion_lat": 0.0, "lat": 38.9319855, "bike_id": "9537e64ccf30486ed76537cff0800b0c", "fusion_lon": 0.0}, {"rental_uris": {"ios": "https://dc.lft.to/lastmile_qr_scan", "android": "https://dc.lft.to/lastmile_qr_scan"}, "type": "electric_scooter", "name": "9295e9868d0a5ebb38453fc219215d87", "is_reserved": 0, "lon": -77.047645, "is_disabled": 0, "fusion_lat": 0.0, "lat": 38.91865333333333, "bike_id": "9295e9868d0a5ebb38453fc219215d87", "fusion_lon": 0.0}, {"rental_uris": {"ios": "https://dc.lft.to/lastmile_qr_scan", "android": "https://dc.lft.to/lastmile_qr_scan"}, "type": "electric_scooter", "name": "27a2b3ec22fcadf70fb619013a816520", "is_reserved": 0, "lon": -77.0526375, "is_disabled": 0, "fusion_lat": 0.0, "lat": 38.92568383333333, "bike_id": "27a2b3ec22fcadf70fb619013a816520", "fusion_lon": 0.0}, {"rental_uris": {"ios": "https://dc.lft.to/lastmile_qr_scan", "android": "https://dc.lft.to/lastmile_qr_scan"}, "type": "electric_scooter", "name": "7837973d672212fb9a510e9bfd565afb", "is_reserved": 0, "lon": -77.03935666666666, "is_disabled": 0, "fusion_lat": 0.0, "lat": 38.9014655, "bike_id": "7837973d672212fb9a510e9bfd565afb", "fusion_lon": 0.0}, {"rental_uris": {"ios": "https://dc.lft.to/lastmile_qr_scan", "android": "https://dc.lft.to/lastmile_qr_scan"}, "type": "electric_scooter", "name": "61810318e53602833fdab88413d80b9b", "is_reserved": 0, "lon": -77.0319485, "is_disabled": 0, "fusion_lat": 0.0, "lat": 38.898514, "bike_id": "61810318e53602833fdab88413d80b9b", "fusion_lon": 0.0}, {"rental_uris": {"ios": "https://dc.lft.to/lastmile_qr_scan", "android": "https://dc.lft.to/lastmile_qr_scan"}, "type": "electric_scooter", "name": "031b16d81c0c4da72c52e94b4e835b8e", "is_reserved": 0, "lon": -77.01197033333334, "is_disabled": 0, "fusion_lat": 0.0, "lat": 38.9168515, "bike_id": "031b16d81c0c4da72c52e94b4e835b8e", "fusion_lon": 0.0}, {"rental_uris": {"ios": "https://dc.lft.to/lastmile_qr_scan", "android": "https://dc.lft.to/lastmile_qr_scan"}, "type": "electric_bike", "name": "63f68e7d1ffa516efd9eccb476ac4f0e", "is_reserved": 0, "lon": -77.046859, "is_disabled": 0, "fusion_lat": 0.0, "lat": 38.907304, "bike_id": "63f68e7d1ffa516efd9eccb476ac4f0e", "fusion_lon": 0.0}, {"rental_uris": {"ios": "https://dc.lft.to/lastmile_qr_scan", "android": "https://dc.lft.to/lastmile_qr_scan"}, "type": "electric_scooter", "name": "6209455e1486073a0711703f6a4e043d", "is_reserved": 0, "lon": -77.0481545, "is_disabled": 0, "fusion_lat": 0.0, "lat": 38.897507833333336, "bike_id": "6209455e1486073a0711703f6a4e043d", "fusion_lon": 0.0}, {"rental_uris": {"ios": "https://dc.lft.to/lastmile_qr_scan", "android": "https://dc.lft.to/lastmile_qr_scan"}, "type": "electric_scooter", "name": "0030be2fbcb8dfd6fdfa657a56fd7fce", "is_reserved": 0, "lon": -77.021769, "is_disabled": 0, "fusion_lat": 0.0, "lat": 38.894887, "bike_id": "0030be2fbcb8dfd6fdfa657a56fd7fce", "fusion_lon": 0.0}, {"rental_uris": {"ios": "https://dc.lft.to/lastmile_qr_scan", "android": "https://dc.lft.to/lastmile_qr_scan"}, "type": "electric_scooter", "name": "b6181e14a4889162c8b6edf67d73a4a2", "is_reserved": 0, "lon": -77.038347, "is_disabled": 0, "fusion_lat": 0.0, "lat": 38.907644, "bike_id": "b6181e14a4889162c8b6edf67d73a4a2", "fusion_lon": 0.0}, {"rental_uris": {"ios": "https://dc.lft.to/lastmile_qr_scan", "android": "https://dc.lft.to/lastmile_qr_scan"}, "type": "electric_scooter", "name": "1bc1b8dfcf13e60d4b3f0e7936b43a91", "is_reserved": 0, "lon": -76.94914816666666, "is_disabled": 0, "fusion_lat": 0.0, "lat": 38.8954035, "bike_id": "1bc1b8dfcf13e60d4b3f0e7936b43a91", "fusion_lon": 0.0}, {"rental_uris": {"ios": "https://dc.lft.to/lastmile_qr_scan", "android": "https://dc.lft.to/lastmile_qr_scan"}, "type": "electric_scooter", "name": "4ce946b3156f5008999839359a3320ae", "is_reserved": 0, "lon": -77.04273616666667, "is_disabled": 0, "fusion_lat": 0.0, "lat": 38.9177935, "bike_id": "4ce946b3156f5008999839359a3320ae", "fusion_lon": 0.0}, {"rental_uris": {"ios": "https://dc.lft.to/lastmile_qr_scan", "android": "https://dc.lft.to/lastmile_qr_scan"}, "type": "electric_scooter", "name": "f40746cada4d52bddf572f145256e242", "is_reserved": 0, "lon": -77.08163616666667, "is_disabled": 0, "fusion_lat": 0.0, "lat": 38.91950333333333, "bike_id": "f40746cada4d52bddf572f145256e242", "fusion_lon": 0.0}, {"rental_uris": {"ios": "https://dc.lft.to/lastmile_qr_scan", "android": "https://dc.lft.to/lastmile_qr_scan"}, "type": "electric_scooter", "name": "2ed8c909c124aca975ba2350d8f069e6", "is_reserved": 0, "lon": -77.0333795, "is_disabled": 0, "fusion_lat": 0.0, "lat": 38.9140515, "bike_id": "2ed8c909c124aca975ba2350d8f069e6", "fusion_lon": 0.0}, {"rental_uris": {"ios": "https://dc.lft.to/lastmile_qr_scan", "android": "https://dc.lft.to/lastmile_qr_scan"}, "type": "electric_scooter", "name": "953ca3f13ced6436226278a529d045b9", "is_reserved": 0, "lon": -76.9821065, "is_disabled": 0, "fusion_lat": 0.0, "lat": 38.89542316666667, "bike_id": "953ca3f13ced6436226278a529d045b9", "fusion_lon": 0.0}, {"rental_uris": {"ios": "https://dc.lft.to/lastmile_qr_scan", "android": "https://dc.lft.to/lastmile_qr_scan"}, "type": "electric_scooter", "name": "6088d4421734f92ce574d852662a1482", "is_reserved": 0, "lon": -77.03346616666667, "is_disabled": 0, "fusion_lat": 0.0, "lat": 38.95475366666667, "bike_id": "6088d4421734f92ce574d852662a1482", "fusion_lon": 0.0}, {"rental_uris": {"ios": "https://dc.lft.to/lastmile_qr_scan", "android": "https://dc.lft.to/lastmile_qr_scan"}, "type": "electric_scooter", "name": "27c8ca8e9f1aa247f4c060b7ea23c890", "is_reserved": 0, "lon": -77.03865366666666, "is_disabled": 0, "fusion_lat": 0.0, "lat": 38.911199, "bike_id": "27c8ca8e9f1aa247f4c060b7ea23c890", "fusion_lon": 0.0}, {"rental_uris": {"ios": "https://dc.lft.to/lastmile_qr_scan", "android": "https://dc.lft.to/lastmile_qr_scan"}, "type": "electric_scooter", "name": "bb1476fc8558c6472065c866c96663c6", "is_reserved": 0, "lon": -77.03844866666667, "is_disabled": 0, "fusion_lat": 0.0, "lat": 38.90391733333333, "bike_id": "bb1476fc8558c6472065c866c96663c6", "fusion_lon": 0.0}, {"rental_uris": {"ios": "https://dc.lft.to/lastmile_qr_scan", "android": "https://dc.lft.to/lastmile_qr_scan"}, "type": "electric_scooter", "name": "371bea3500bd7d4f122883fa01d30a6b", "is_reserved": 0, "lon": -77.02476116666666, "is_disabled": 0, "fusion_lat": 0.0, "lat": 38.91814766666667, "bike_id": "371bea3500bd7d4f122883fa01d30a6b", "fusion_lon": 0.0}, {"rental_uris": {"ios": "https://dc.lft.to/lastmile_qr_scan", "android": "https://dc.lft.to/lastmile_qr_scan"}, "type": "electric_scooter", "name": "8149da46b8c1b09dc4b492b5f919674c", "is_reserved": 0, "lon": -76.99692183333333, "is_disabled": 0, "fusion_lat": 0.0, "lat": 38.922003, "bike_id": "8149da46b8c1b09dc4b492b5f919674c", "fusion_lon": 0.0}, {"rental_uris": {"ios": "https://dc.lft.to/lastmile_qr_scan", "android": "https://dc.lft.to/lastmile_qr_scan"}, "type": "electric_scooter", "name": "1fa48cd788f82dc8f38eeddd69bbc311", "is_reserved": 0, "lon": -77.04407116666667, "is_disabled": 0, "fusion_lat": 0.0, "lat": 38.90141166666667, "bike_id": "1fa48cd788f82dc8f38eeddd69bbc311", "fusion_lon": 0.0}, {"rental_uris": {"ios": "https://dc.lft.to/lastmile_qr_scan", "android": "https://dc.lft.to/lastmile_qr_scan"}, "type": "electric_scooter", "name": "279810531d265b18bbe413c528b077a0", "is_reserved": 0, "lon": -77.040416, "is_disabled": 0, "fusion_lat": 0.0, "lat": 38.90450333333333, "bike_id": "279810531d265b18bbe413c528b077a0", "fusion_lon": 0.0}, {"rental_uris": {"ios": "https://dc.lft.to/lastmile_qr_scan", "android": "https://dc.lft.to/lastmile_qr_scan"}, "type": "electric_scooter", "name": "f05494e8785cd15d1483b648cbd7d1fc", "is_reserved": 0, "lon": -77.03145283333333, "is_disabled": 0, "fusion_lat": 0.0, "lat": 38.90128433333334, "bike_id": "f05494e8785cd15d1483b648cbd7d1fc", "fusion_lon": 0.0}, {"rental_uris": {"ios": "https://dc.lft.to/lastmile_qr_scan", "android": "https://dc.lft.to/lastmile_qr_scan"}, "type": "electric_scooter", "name": "94b52a57b696dbbaabd6b1d969339317", "is_reserved": 0, "lon": -77.067524, "is_disabled": 0, "fusion_lat": 0.0, "lat": 38.905178666666664, "bike_id": "94b52a57b696dbbaabd6b1d969339317", "fusion_lon": 0.0}, {"rental_uris": {"ios": "https://dc.lft.to/lastmile_qr_scan", "android": "https://dc.lft.to/lastmile_qr_scan"}, "type": "electric_scooter", "name": "24d1a36d374d4798e078e1253da0b2dd", "is_reserved": 0, "lon": -77.013592, "is_disabled": 0, "fusion_lat": 0.0, "lat": 38.919268833333334, "bike_id": "24d1a36d374d4798e078e1253da0b2dd", "fusion_lon": 0.0}, {"rental_uris": {"ios": "https://dc.lft.to/lastmile_qr_scan", "android": "https://dc.lft.to/lastmile_qr_scan"}, "type": "electric_scooter", "name": "83aafcb1cebb4e9f2f570db86da596d2", "is_reserved": 0, "lon": -77.02637983333334, "is_disabled": 0, "fusion_lat": 0.0, "lat": 38.89623066666667, "bike_id": "83aafcb1cebb4e9f2f570db86da596d2", "fusion_lon": 0.0}, {"rental_uris": {"ios": "https://dc.lft.to/lastmile_qr_scan", "android": "https://dc.lft.to/lastmile_qr_scan"}, "type": "electric_scooter", "name": "538e474999dca770ac4a98c3a4c0501c", "is_reserved": 0, "lon": -77.005782, "is_disabled": 0, "fusion_lat": 0.0, "lat": 38.90565316666667, "bike_id": "538e474999dca770ac4a98c3a4c0501c", "fusion_lon": 0.0}, {"rental_uris": {"ios": "https://dc.lft.to/lastmile_qr_scan", "android": "https://dc.lft.to/lastmile_qr_scan"}, "type": "electric_scooter", "name": "f83577d03905fd8170c690a9d4a14976", "is_reserved": 0, "lon": -77.03377783333333, "is_disabled": 0, "fusion_lat": 0.0, "lat": 38.90265216666667, "bike_id": "f83577d03905fd8170c690a9d4a14976", "fusion_lon": 0.0}, {"rental_uris": {"ios": "https://dc.lft.to/lastmile_qr_scan", "android": "https://dc.lft.to/lastmile_qr_scan"}, "type": "electric_scooter", "name": "6ee5ec57f019ef51fff3dd1b6928e0cd", "is_reserved": 0, "lon": -77.02480516666667, "is_disabled": 0, "fusion_lat": 0.0, "lat": 38.9024185, "bike_id": "6ee5ec57f019ef51fff3dd1b6928e0cd", "fusion_lon": 0.0}, {"rental_uris": {"ios": "https://dc.lft.to/lastmile_qr_scan", "android": "https://dc.lft.to/lastmile_qr_scan"}, "type": "electric_bike", "name": "95d6b5547211365d23d4468b98675410", "is_reserved": 0, "lon": -76.95256683333334, "is_disabled": 0, "fusion_lat": 0.0, "lat": 38.9069255, "bike_id": "95d6b5547211365d23d4468b98675410", "fusion_lon": 0.0}, {"rental_uris": {"ios": "https://dc.lft.to/lastmile_qr_scan", "android": "https://dc.lft.to/lastmile_qr_scan"}, "type": "electric_scooter", "name": "d0f5bd23b554aaf5f739bcaa5f4248ae", "is_reserved": 0, "lon": -77.03890766666666, "is_disabled": 0, "fusion_lat": 0.0, "lat": 38.903656, "bike_id": "d0f5bd23b554aaf5f739bcaa5f4248ae", "fusion_lon": 0.0}, {"rental_uris": {"ios": "https://dc.lft.to/lastmile_qr_scan", "android": "https://dc.lft.to/lastmile_qr_scan"}, "type": "electric_scooter", "name": "23c440e93d71ed418787756ee774aa97", "is_reserved": 0, "lon": -77.05328383333334, "is_disabled": 0, "fusion_lat": 0.0, "lat": 38.906501, "bike_id": "23c440e93d71ed418787756ee774aa97", "fusion_lon": 0.0}, {"rental_uris": {"ios": "https://dc.lft.to/lastmile_qr_scan", "android": "https://dc.lft.to/lastmile_qr_scan"}, "type": "electric_scooter", "name": "7cd0dca95ce45e996e0fdd7f20a3a073", "is_reserved": 0, "lon": -77.02334633333334, "is_disabled": 0, "fusion_lat": 0.0, "lat": 38.92230433333334, "bike_id": "7cd0dca95ce45e996e0fdd7f20a3a073", "fusion_lon": 0.0}, {"rental_uris": {"ios": "https://dc.lft.to/lastmile_qr_scan", "android": "https://dc.lft.to/lastmile_qr_scan"}, "type": "electric_scooter", "name": "da214124b3816e509e8c5003d6d9523f", "is_reserved": 0, "lon": -77.03493766666666, "is_disabled": 0, "fusion_lat": 0.0, "lat": 38.901389, "bike_id": "da214124b3816e509e8c5003d6d9523f", "fusion_lon": 0.0}, {"rental_uris": {"ios": "https://dc.lft.to/lastmile_qr_scan", "android": "https://dc.lft.to/lastmile_qr_scan"}, "type": "electric_scooter", "name": "33c22a961e6de351ea66cc1796fef5f1", "is_reserved": 0, "lon": -77.00322783333333, "is_disabled": 0, "fusion_lat": 0.0, "lat": 38.918971, "bike_id": "33c22a961e6de351ea66cc1796fef5f1", "fusion_lon": 0.0}, {"rental_uris": {"ios": "https://dc.lft.to/lastmile_qr_scan", "android": "https://dc.lft.to/lastmile_qr_scan"}, "type": "electric_scooter", "name": "a0147910d6af570af379d8947a396bcc", "is_reserved": 0, "lon": -77.03213983333333, "is_disabled": 0, "fusion_lat": 0.0, "lat": 38.8871025, "bike_id": "a0147910d6af570af379d8947a396bcc", "fusion_lon": 0.0}, {"rental_uris": {"ios": "https://dc.lft.to/lastmile_qr_scan", "android": "https://dc.lft.to/lastmile_qr_scan"}, "type": "electric_scooter", "name": "ae13cd5ade5d50d68e0a7616e40dc797", "is_reserved": 0, "lon": -76.981075, "is_disabled": 0, "fusion_lat": 0.0, "lat": 38.90248366666667, "bike_id": "ae13cd5ade5d50d68e0a7616e40dc797", "fusion_lon": 0.0}, {"rental_uris": {"ios": "https://dc.lft.to/lastmile_qr_scan", "android": "https://dc.lft.to/lastmile_qr_scan"}, "type": "electric_scooter", "name": "3e9608ed4d3ab6a58941e08599d96e91", "is_reserved": 0, "lon": -77.009313, "is_disabled": 0, "fusion_lat": 0.0, "lat": 38.914792, "bike_id": "3e9608ed4d3ab6a58941e08599d96e91", "fusion_lon": 0.0}, {"rental_uris": {"ios": "https://dc.lft.to/lastmile_qr_scan", "android": "https://dc.lft.to/lastmile_qr_scan"}, "type": "electric_scooter", "name": "9e7bfe0918feebb025a475fb1a12e5af", "is_reserved": 0, "lon": -77.04632333333333, "is_disabled": 0, "fusion_lat": 0.0, "lat": 38.897289, "bike_id": "9e7bfe0918feebb025a475fb1a12e5af", "fusion_lon": 0.0}, {"rental_uris": {"ios": "https://dc.lft.to/lastmile_qr_scan", "android": "https://dc.lft.to/lastmile_qr_scan"}, "type": "electric_scooter", "name": "78e15672fac2ca09753a51c374d9d55a", "is_reserved": 0, "lon": -76.99345566666666, "is_disabled": 0, "fusion_lat": 0.0, "lat": 38.8769185, "bike_id": "78e15672fac2ca09753a51c374d9d55a", "fusion_lon": 0.0}, {"rental_uris": {"ios": "https://dc.lft.to/lastmile_qr_scan", "android": "https://dc.lft.to/lastmile_qr_scan"}, "type": "electric_scooter", "name": "aec870748e6e0e00f06865c2ce4eb8df", "is_reserved": 0, "lon": -77.0176245, "is_disabled": 0, "fusion_lat": 0.0, "lat": 38.9003755, "bike_id": "aec870748e6e0e00f06865c2ce4eb8df", "fusion_lon": 0.0}, {"rental_uris": {"ios": "https://dc.lft.to/lastmile_qr_scan", "android": "https://dc.lft.to/lastmile_qr_scan"}, "type": "electric_scooter", "name": "5768f6a329a86e6bbab6a7ae790ad2e5", "is_reserved": 0, "lon": -76.98929583333333, "is_disabled": 0, "fusion_lat": 0.0, "lat": 38.87863933333333, "bike_id": "5768f6a329a86e6bbab6a7ae790ad2e5", "fusion_lon": 0.0}, {"rental_uris": {"ios": "https://dc.lft.to/lastmile_qr_scan", "android": "https://dc.lft.to/lastmile_qr_scan"}, "type": "electric_scooter", "name": "7b1afa5b3f9d7f7cae49a3b91d3c3c1b", "is_reserved": 0, "lon": -77.0312435, "is_disabled": 0, "fusion_lat": 0.0, "lat": 38.91555966666667, "bike_id": "7b1afa5b3f9d7f7cae49a3b91d3c3c1b", "fusion_lon": 0.0}, {"rental_uris": {"ios": "https://dc.lft.to/lastmile_qr_scan", "android": "https://dc.lft.to/lastmile_qr_scan"}, "type": "electric_scooter", "name": "f2359efe3f28a8aa9652580d9e1070d7", "is_reserved": 0, "lon": -77.03834216666667, "is_disabled": 0, "fusion_lat": 0.0, "lat": 38.91166483333333, "bike_id": "f2359efe3f28a8aa9652580d9e1070d7", "fusion_lon": 0.0}, {"rental_uris": {"ios": "https://dc.lft.to/lastmile_qr_scan", "android": "https://dc.lft.to/lastmile_qr_scan"}, "type": "electric_bike", "name": "504165cc259e260585045d221b2f3f33", "is_reserved": 0, "lon": -77.11355433333334, "is_disabled": 0, "fusion_lat": 0.0, "lat": 38.84195583333333, "bike_id": "504165cc259e260585045d221b2f3f33", "fusion_lon": 0.0}, {"rental_uris": {"ios": "https://dc.lft.to/lastmile_qr_scan", "android": "https://dc.lft.to/lastmile_qr_scan"}, "type": "electric_bike", "name": "ccfc66f365af176a0ae1191a02e207a3", "is_reserved": 0, "lon": -77.05031916666667, "is_disabled": 0, "fusion_lat": 0.0, "lat": 39.039068, "bike_id": "ccfc66f365af176a0ae1191a02e207a3", "fusion_lon": 0.0}, {"rental_uris": {"ios": "https://dc.lft.to/lastmile_qr_scan", "android": "https://dc.lft.to/lastmile_qr_scan"}, "type": "electric_scooter", "name": "ef47421280685caa6586ffe623df4e22", "is_reserved": 0, "lon": -77.042593, "is_disabled": 0, "fusion_lat": 0.0, "lat": 38.907228333333336, "bike_id": "ef47421280685caa6586ffe623df4e22", "fusion_lon": 0.0}, {"rental_uris": {"ios": "https://dc.lft.to/lastmile_qr_scan", "android": "https://dc.lft.to/lastmile_qr_scan"}, "type": "electric_scooter", "name": "8d27295800495482e8d201d1bbda2308", "is_reserved": 0, "lon": -77.05620366666666, "is_disabled": 0, "fusion_lat": 0.0, "lat": 38.906875, "bike_id": "8d27295800495482e8d201d1bbda2308", "fusion_lon": 0.0}, {"rental_uris": {"ios": "https://dc.lft.to/lastmile_qr_scan", "android": "https://dc.lft.to/lastmile_qr_scan"}, "type": "electric_scooter", "name": "2e1135fdd57789b1fa8c9af8566a60d4", "is_reserved": 0, "lon": -77.0082895, "is_disabled": 0, "fusion_lat": 0.0, "lat": 38.87946616666667, "bike_id": "2e1135fdd57789b1fa8c9af8566a60d4", "fusion_lon": 0.0}, {"rental_uris": {"ios": "https://dc.lft.to/lastmile_qr_scan", "android": "https://dc.lft.to/lastmile_qr_scan"}, "type": "electric_scooter", "name": "192c855116766ee9c3141251083ce1d6", "is_reserved": 0, "lon": -77.04136533333333, "is_disabled": 0, "fusion_lat": 0.0, "lat": 38.93275883333333, "bike_id": "192c855116766ee9c3141251083ce1d6", "fusion_lon": 0.0}, {"rental_uris": {"ios": "https://dc.lft.to/lastmile_qr_scan", "android": "https://dc.lft.to/lastmile_qr_scan"}, "type": "electric_bike", "name": "e2958d6cf2417bd44fcb36b888038a48", "is_reserved": 0, "lon": -76.98468733333333, "is_disabled": 0, "fusion_lat": 0.0, "lat": 38.90967783333333, "bike_id": "e2958d6cf2417bd44fcb36b888038a48", "fusion_lon": 0.0}, {"rental_uris": {"ios": "https://dc.lft.to/lastmile_qr_scan", "android": "https://dc.lft.to/lastmile_qr_scan"}, "type": "electric_scooter", "name": "0710c2433af6016a7208d9d5c687f602", "is_reserved": 0, "lon": -77.03252583333334, "is_disabled": 0, "fusion_lat": 0.0, "lat": 38.90962116666667, "bike_id": "0710c2433af6016a7208d9d5c687f602", "fusion_lon": 0.0}, {"rental_uris": {"ios": "https://dc.lft.to/lastmile_qr_scan", "android": "https://dc.lft.to/lastmile_qr_scan"}, "type": "electric_scooter", "name": "b350804358d7c386f6f4859ab16d11e7", "is_reserved": 0, "lon": -77.00933416666666, "is_disabled": 0, "fusion_lat": 0.0, "lat": 38.8998155, "bike_id": "b350804358d7c386f6f4859ab16d11e7", "fusion_lon": 0.0}, {"rental_uris": {"ios": "https://dc.lft.to/lastmile_qr_scan", "android": "https://dc.lft.to/lastmile_qr_scan"}, "type": "electric_scooter", "name": "16f6214207ba77014819a14c36609720", "is_reserved": 0, "lon": -77.016972, "is_disabled": 0, "fusion_lat": 0.0, "lat": 38.902503333333335, "bike_id": "16f6214207ba77014819a14c36609720", "fusion_lon": 0.0}, {"rental_uris": {"ios": "https://dc.lft.to/lastmile_qr_scan", "android": "https://dc.lft.to/lastmile_qr_scan"}, "type": "electric_scooter", "name": "124a5a237b47b5b57f263bc3aa5f8ce5", "is_reserved": 0, "lon": -77.04696216666666, "is_disabled": 0, "fusion_lat": 0.0, "lat": 38.921609, "bike_id": "124a5a237b47b5b57f263bc3aa5f8ce5", "fusion_lon": 0.0}, {"rental_uris": {"ios": "https://dc.lft.to/lastmile_qr_scan", "android": "https://dc.lft.to/lastmile_qr_scan"}, "type": "electric_scooter", "name": "1b06fcad4abb0ccd34765685ac5e9d67", "is_reserved": 0, "lon": -77.00358483333333, "is_disabled": 0, "fusion_lat": 0.0, "lat": 38.89910183333333, "bike_id": "1b06fcad4abb0ccd34765685ac5e9d67", "fusion_lon": 0.0}, {"rental_uris": {"ios": "https://dc.lft.to/lastmile_qr_scan", "android": "https://dc.lft.to/lastmile_qr_scan"}, "type": "electric_scooter", "name": "0d29cc313e4702b1659a33ae1363ddf0", "is_reserved": 0, "lon": -77.03246716666666, "is_disabled": 0, "fusion_lat": 0.0, "lat": 38.905415833333336, "bike_id": "0d29cc313e4702b1659a33ae1363ddf0", "fusion_lon": 0.0}, {"rental_uris": {"ios": "https://dc.lft.to/lastmile_qr_scan", "android": "https://dc.lft.to/lastmile_qr_scan"}, "type": "electric_scooter", "name": "346aad04dba7f3043d8063a31691dd0a", "is_reserved": 0, "lon": -77.03131433333333, "is_disabled": 0, "fusion_lat": 0.0, "lat": 38.923725166666664, "bike_id": "346aad04dba7f3043d8063a31691dd0a", "fusion_lon": 0.0}, {"rental_uris": {"ios": "https://dc.lft.to/lastmile_qr_scan", "android": "https://dc.lft.to/lastmile_qr_scan"}, "type": "electric_scooter", "name": "c55e3fd7815491ea9c1a4f78276baa13", "is_reserved": 0, "lon": -77.04445533333333, "is_disabled": 0, "fusion_lat": 0.0, "lat": 38.9013415, "bike_id": "c55e3fd7815491ea9c1a4f78276baa13", "fusion_lon": 0.0}, {"rental_uris": {"ios": "https://dc.lft.to/lastmile_qr_scan", "android": "https://dc.lft.to/lastmile_qr_scan"}, "type": "electric_scooter", "name": "eecb73b7011d829c814a08a51ffd53be", "is_reserved": 0, "lon": -77.0378135, "is_disabled": 0, "fusion_lat": 0.0, "lat": 38.939705333333336, "bike_id": "eecb73b7011d829c814a08a51ffd53be", "fusion_lon": 0.0}, {"rental_uris": {"ios": "https://dc.lft.to/lastmile_qr_scan", "android": "https://dc.lft.to/lastmile_qr_scan"}, "type": "electric_scooter", "name": "af16f21f351da10461ce3a68eacda70c", "is_reserved": 0, "lon": -77.03201466666667, "is_disabled": 0, "fusion_lat": 0.0, "lat": 38.914232, "bike_id": "af16f21f351da10461ce3a68eacda70c", "fusion_lon": 0.0}, {"rental_uris": {"ios": "https://dc.lft.to/lastmile_qr_scan", "android": "https://dc.lft.to/lastmile_qr_scan"}, "type": "electric_scooter", "name": "2cf574d7ba074088ca45faacb77586f7", "is_reserved": 0, "lon": -77.02170583333333, "is_disabled": 0, "fusion_lat": 0.0, "lat": 38.89491533333333, "bike_id": "2cf574d7ba074088ca45faacb77586f7", "fusion_lon": 0.0}, {"rental_uris": {"ios": "https://dc.lft.to/lastmile_qr_scan", "android": "https://dc.lft.to/lastmile_qr_scan"}, "type": "electric_scooter", "name": "1befb7447027094c932087af035796d0", "is_reserved": 0, "lon": -76.98495566666666, "is_disabled": 0, "fusion_lat": 0.0, "lat": 38.9200375, "bike_id": "1befb7447027094c932087af035796d0", "fusion_lon": 0.0}, {"rental_uris": {"ios": "https://dc.lft.to/lastmile_qr_scan", "android": "https://dc.lft.to/lastmile_qr_scan"}, "type": "electric_scooter", "name": "b53e82c09cca8a6117f47dc05ca47351", "is_reserved": 0, "lon": -77.020613, "is_disabled": 0, "fusion_lat": 0.0, "lat": 38.9239985, "bike_id": "b53e82c09cca8a6117f47dc05ca47351", "fusion_lon": 0.0}, {"rental_uris": {"ios": "https://dc.lft.to/lastmile_qr_scan", "android": "https://dc.lft.to/lastmile_qr_scan"}, "type": "electric_scooter", "name": "5bc9eed4abeb1afc563072ef4240e5dd", "is_reserved": 0, "lon": -77.03043083333333, "is_disabled": 0, "fusion_lat": 0.0, "lat": 38.884283333333336, "bike_id": "5bc9eed4abeb1afc563072ef4240e5dd", "fusion_lon": 0.0}, {"rental_uris": {"ios": "https://dc.lft.to/lastmile_qr_scan", "android": "https://dc.lft.to/lastmile_qr_scan"}, "type": "electric_scooter", "name": "69fe4b27a745d701cf8c33ceb08984a6", "is_reserved": 0, "lon": -77.0158705, "is_disabled": 0, "fusion_lat": 0.0, "lat": 38.872221833333334, "bike_id": "69fe4b27a745d701cf8c33ceb08984a6", "fusion_lon": 0.0}, {"rental_uris": {"ios": "https://dc.lft.to/lastmile_qr_scan", "android": "https://dc.lft.to/lastmile_qr_scan"}, "type": "electric_scooter", "name": "998df3694af8b21c7a38e35862608f7b", "is_reserved": 0, "lon": -77.03956183333334, "is_disabled": 0, "fusion_lat": 0.0, "lat": 38.8924835, "bike_id": "998df3694af8b21c7a38e35862608f7b", "fusion_lon": 0.0}, {"rental_uris": {"ios": "https://dc.lft.to/lastmile_qr_scan", "android": "https://dc.lft.to/lastmile_qr_scan"}, "type": "electric_scooter", "name": "f58fe7c4f3f258b59aaf53569cc503da", "is_reserved": 0, "lon": -77.0759715, "is_disabled": 0, "fusion_lat": 0.0, "lat": 38.937543, "bike_id": "f58fe7c4f3f258b59aaf53569cc503da", "fusion_lon": 0.0}, {"rental_uris": {"ios": "https://dc.lft.to/lastmile_qr_scan", "android": "https://dc.lft.to/lastmile_qr_scan"}, "type": "electric_scooter", "name": "4fe886b5977e22f236f5c74d09f2ada2", "is_reserved": 0, "lon": -76.92946716666667, "is_disabled": 0, "fusion_lat": 0.0, "lat": 38.903331666666666, "bike_id": "4fe886b5977e22f236f5c74d09f2ada2", "fusion_lon": 0.0}, {"rental_uris": {"ios": "https://dc.lft.to/lastmile_qr_scan", "android": "https://dc.lft.to/lastmile_qr_scan"}, "type": "electric_scooter", "name": "cd34a68405dc1fa9f491a0c97e3f585a", "is_reserved": 0, "lon": -77.03062216666666, "is_disabled": 0, "fusion_lat": 0.0, "lat": 38.9225565, "bike_id": "cd34a68405dc1fa9f491a0c97e3f585a", "fusion_lon": 0.0}, {"rental_uris": {"ios": "https://dc.lft.to/lastmile_qr_scan", "android": "https://dc.lft.to/lastmile_qr_scan"}, "type": "electric_scooter", "name": "203eceff90ad6115316b8561629ad3a3", "is_reserved": 0, "lon": -77.04021816666666, "is_disabled": 0, "fusion_lat": 0.0, "lat": 38.92251516666666, "bike_id": "203eceff90ad6115316b8561629ad3a3", "fusion_lon": 0.0}, {"rental_uris": {"ios": "https://dc.lft.to/lastmile_qr_scan", "android": "https://dc.lft.to/lastmile_qr_scan"}, "type": "electric_scooter", "name": "1413b18668939c2b231d684dc6c2081a", "is_reserved": 0, "lon": -77.03210583333333, "is_disabled": 0, "fusion_lat": 0.0, "lat": 38.9082935, "bike_id": "1413b18668939c2b231d684dc6c2081a", "fusion_lon": 0.0}, {"rental_uris": {"ios": "https://dc.lft.to/lastmile_qr_scan", "android": "https://dc.lft.to/lastmile_qr_scan"}, "type": "electric_scooter", "name": "51d114dbaa7456d4a794adbfc768c527", "is_reserved": 0, "lon": -77.03176016666667, "is_disabled": 0, "fusion_lat": 0.0, "lat": 38.91930416666667, "bike_id": "51d114dbaa7456d4a794adbfc768c527", "fusion_lon": 0.0}, {"rental_uris": {"ios": "https://dc.lft.to/lastmile_qr_scan", "android": "https://dc.lft.to/lastmile_qr_scan"}, "type": "electric_scooter", "name": "2e6f9c503b7ac17d9ba696db33523901", "is_reserved": 0, "lon": -77.0021285, "is_disabled": 0, "fusion_lat": 0.0, "lat": 38.907917833333336, "bike_id": "2e6f9c503b7ac17d9ba696db33523901", "fusion_lon": 0.0}, {"rental_uris": {"ios": "https://dc.lft.to/lastmile_qr_scan", "android": "https://dc.lft.to/lastmile_qr_scan"}, "type": "electric_scooter", "name": "2d2d3e8bd8262896487cfca8c3b1f4c9", "is_reserved": 0, "lon": -77.04150966666667, "is_disabled": 0, "fusion_lat": 0.0, "lat": 38.923510666666665, "bike_id": "2d2d3e8bd8262896487cfca8c3b1f4c9", "fusion_lon": 0.0}, {"rental_uris": {"ios": "https://dc.lft.to/lastmile_qr_scan", "android": "https://dc.lft.to/lastmile_qr_scan"}, "type": "electric_scooter", "name": "4ee6b45ad348519c66b55a5f5580c441", "is_reserved": 0, "lon": -77.04497966666666, "is_disabled": 0, "fusion_lat": 0.0, "lat": 38.90019783333334, "bike_id": "4ee6b45ad348519c66b55a5f5580c441", "fusion_lon": 0.0}, {"rental_uris": {"ios": "https://dc.lft.to/lastmile_qr_scan", "android": "https://dc.lft.to/lastmile_qr_scan"}, "type": "electric_scooter", "name": "fdb5eaeae486834ff288913d6db3bd52", "is_reserved": 0, "lon": -77.030734, "is_disabled": 0, "fusion_lat": 0.0, "lat": 38.93454116666667, "bike_id": "fdb5eaeae486834ff288913d6db3bd52", "fusion_lon": 0.0}, {"rental_uris": {"ios": "https://dc.lft.to/lastmile_qr_scan", "android": "https://dc.lft.to/lastmile_qr_scan"}, "type": "electric_scooter", "name": "b65d193b6895515c537522039f53fb71", "is_reserved": 0, "lon": -77.038461, "is_disabled": 0, "fusion_lat": 0.0, "lat": 38.911781833333336, "bike_id": "b65d193b6895515c537522039f53fb71", "fusion_lon": 0.0}, {"rental_uris": {"ios": "https://dc.lft.to/lastmile_qr_scan", "android": "https://dc.lft.to/lastmile_qr_scan"}, "type": "electric_scooter", "name": "47bd51675095e906a5fdc364c44e431e", "is_reserved": 0, "lon": -77.00980883333334, "is_disabled": 0, "fusion_lat": 0.0, "lat": 38.90561316666667, "bike_id": "47bd51675095e906a5fdc364c44e431e", "fusion_lon": 0.0}, {"rental_uris": {"ios": "https://dc.lft.to/lastmile_qr_scan", "android": "https://dc.lft.to/lastmile_qr_scan"}, "type": "electric_scooter", "name": "8244edd15d9ada894bcc3d18605d36d3", "is_reserved": 0, "lon": -77.00555183333333, "is_disabled": 0, "fusion_lat": 0.0, "lat": 38.8746715, "bike_id": "8244edd15d9ada894bcc3d18605d36d3", "fusion_lon": 0.0}, {"rental_uris": {"ios": "https://dc.lft.to/lastmile_qr_scan", "android": "https://dc.lft.to/lastmile_qr_scan"}, "type": "electric_scooter", "name": "ec1bb93f29019b6f30e184175d873cd4", "is_reserved": 0, "lon": -76.92896166666667, "is_disabled": 0, "fusion_lat": 0.0, "lat": 38.87943383333333, "bike_id": "ec1bb93f29019b6f30e184175d873cd4", "fusion_lon": 0.0}, {"rental_uris": {"ios": "https://dc.lft.to/lastmile_qr_scan", "android": "https://dc.lft.to/lastmile_qr_scan"}, "type": "electric_scooter", "name": "dd87657d04932c8f196fe54964807c5b", "is_reserved": 0, "lon": -77.01824916666666, "is_disabled": 0, "fusion_lat": 0.0, "lat": 38.90521783333333, "bike_id": "dd87657d04932c8f196fe54964807c5b", "fusion_lon": 0.0}, {"rental_uris": {"ios": "https://dc.lft.to/lastmile_qr_scan", "android": "https://dc.lft.to/lastmile_qr_scan"}, "type": "electric_scooter", "name": "4636867c1b2407e365599a958d362ca6", "is_reserved": 0, "lon": -77.0317105, "is_disabled": 0, "fusion_lat": 0.0, "lat": 38.920029666666665, "bike_id": "4636867c1b2407e365599a958d362ca6", "fusion_lon": 0.0}, {"rental_uris": {"ios": "https://dc.lft.to/lastmile_qr_scan", "android": "https://dc.lft.to/lastmile_qr_scan"}, "type": "electric_scooter", "name": "2c861e9a444cc148984666d4080f411a", "is_reserved": 0, "lon": -76.99421283333334, "is_disabled": 0, "fusion_lat": 0.0, "lat": 38.916869166666665, "bike_id": "2c861e9a444cc148984666d4080f411a", "fusion_lon": 0.0}, {"rental_uris": {"ios": "https://dc.lft.to/lastmile_qr_scan", "android": "https://dc.lft.to/lastmile_qr_scan"}, "type": "electric_scooter", "name": "ea45429280852072757481ac7d8e9efc", "is_reserved": 0, "lon": -77.02480166666666, "is_disabled": 0, "fusion_lat": 0.0, "lat": 38.9181625, "bike_id": "ea45429280852072757481ac7d8e9efc", "fusion_lon": 0.0}, {"rental_uris": {"ios": "https://dc.lft.to/lastmile_qr_scan", "android": "https://dc.lft.to/lastmile_qr_scan"}, "type": "electric_scooter", "name": "a97f8b0d5a0529fca713beecce343cd9", "is_reserved": 0, "lon": -77.02837966666667, "is_disabled": 0, "fusion_lat": 0.0, "lat": 38.9383635, "bike_id": "a97f8b0d5a0529fca713beecce343cd9", "fusion_lon": 0.0}, {"rental_uris": {"ios": "https://dc.lft.to/lastmile_qr_scan", "android": "https://dc.lft.to/lastmile_qr_scan"}, "type": "electric_scooter", "name": "504cdbfefa4adbf69d26723a78225467", "is_reserved": 0, "lon": -77.03222583333333, "is_disabled": 0, "fusion_lat": 0.0, "lat": 38.90965683333334, "bike_id": "504cdbfefa4adbf69d26723a78225467", "fusion_lon": 0.0}, {"rental_uris": {"ios": "https://dc.lft.to/lastmile_qr_scan", "android": "https://dc.lft.to/lastmile_qr_scan"}, "type": "electric_scooter", "name": "c7e8546a8d2b83d735eb3064b7deaeb9", "is_reserved": 0, "lon": -77.02087333333333, "is_disabled": 0, "fusion_lat": 0.0, "lat": 38.929133, "bike_id": "c7e8546a8d2b83d735eb3064b7deaeb9", "fusion_lon": 0.0}, {"rental_uris": {"ios": "https://dc.lft.to/lastmile_qr_scan", "android": "https://dc.lft.to/lastmile_qr_scan"}, "type": "electric_scooter", "name": "195aa67effff54fffc351211241bdda5", "is_reserved": 0, "lon": -77.04729366666666, "is_disabled": 0, "fusion_lat": 0.0, "lat": 38.89554483333333, "bike_id": "195aa67effff54fffc351211241bdda5", "fusion_lon": 0.0}, {"rental_uris": {"ios": "https://dc.lft.to/lastmile_qr_scan", "android": "https://dc.lft.to/lastmile_qr_scan"}, "type": "electric_scooter", "name": "5e1a05f161b2c35742b20fbbb6c7e27f", "is_reserved": 0, "lon": -77.02605533333333, "is_disabled": 0, "fusion_lat": 0.0, "lat": 38.893079, "bike_id": "5e1a05f161b2c35742b20fbbb6c7e27f", "fusion_lon": 0.0}, {"rental_uris": {"ios": "https://dc.lft.to/lastmile_qr_scan", "android": "https://dc.lft.to/lastmile_qr_scan"}, "type": "electric_scooter", "name": "e57d27be5bee8fa0483fc8eef7cbd309", "is_reserved": 0, "lon": -77.04513183333333, "is_disabled": 0, "fusion_lat": 0.0, "lat": 38.918124166666665, "bike_id": "e57d27be5bee8fa0483fc8eef7cbd309", "fusion_lon": 0.0}, {"rental_uris": {"ios": "https://dc.lft.to/lastmile_qr_scan", "android": "https://dc.lft.to/lastmile_qr_scan"}, "type": "electric_scooter", "name": "725b94a900b0d77a3d31555a65989113", "is_reserved": 0, "lon": -76.99857, "is_disabled": 0, "fusion_lat": 0.0, "lat": 38.90025116666666, "bike_id": "725b94a900b0d77a3d31555a65989113", "fusion_lon": 0.0}, {"rental_uris": {"ios": "https://dc.lft.to/lastmile_qr_scan", "android": "https://dc.lft.to/lastmile_qr_scan"}, "type": "electric_scooter", "name": "241bd587bbf1c9bd37db756676ee0ef1", "is_reserved": 0, "lon": -77.022071, "is_disabled": 0, "fusion_lat": 0.0, "lat": 38.915626333333336, "bike_id": "241bd587bbf1c9bd37db756676ee0ef1", "fusion_lon": 0.0}, {"rental_uris": {"ios": "https://dc.lft.to/lastmile_qr_scan", "android": "https://dc.lft.to/lastmile_qr_scan"}, "type": "electric_bike", "name": "4235e9be7fea65f57e2f14722e220bc6", "is_reserved": 0, "lon": -76.985432, "is_disabled": 0, "fusion_lat": 0.0, "lat": 38.892504833333334, "bike_id": "4235e9be7fea65f57e2f14722e220bc6", "fusion_lon": 0.0}, {"rental_uris": {"ios": "https://dc.lft.to/lastmile_qr_scan", "android": "https://dc.lft.to/lastmile_qr_scan"}, "type": "electric_scooter", "name": "b94a376c8975699549779746ceaf0e08", "is_reserved": 0, "lon": -76.99477183333333, "is_disabled": 0, "fusion_lat": 0.0, "lat": 38.8621125, "bike_id": "b94a376c8975699549779746ceaf0e08", "fusion_lon": 0.0}, {"rental_uris": {"ios": "https://dc.lft.to/lastmile_qr_scan", "android": "https://dc.lft.to/lastmile_qr_scan"}, "type": "electric_scooter", "name": "507af9fbbaf94916349ac513577d3569", "is_reserved": 0, "lon": -77.03055183333333, "is_disabled": 0, "fusion_lat": 0.0, "lat": 38.90827066666667, "bike_id": "507af9fbbaf94916349ac513577d3569", "fusion_lon": 0.0}, {"rental_uris": {"ios": "https://dc.lft.to/lastmile_qr_scan", "android": "https://dc.lft.to/lastmile_qr_scan"}, "type": "electric_scooter", "name": "b04b34db1e0e135e28a781065e123d8c", "is_reserved": 0, "lon": -77.02412066666666, "is_disabled": 0, "fusion_lat": 0.0, "lat": 38.89831733333333, "bike_id": "b04b34db1e0e135e28a781065e123d8c", "fusion_lon": 0.0}, {"rental_uris": {"ios": "https://dc.lft.to/lastmile_qr_scan", "android": "https://dc.lft.to/lastmile_qr_scan"},