{"data": {"bikes": [{"is_disabled": 0, "fusion_lon": 0.0, "fusion_lat": 0.0, "lat": 38.898451666666666, "type": "electric_scooter", "lon": -77.00740583333334, "bike_id": "bbe5ab194b12c8281bee12a16160bc11", "rental_uris": {"android": "https://dc.lft.to/lastmile_qr_scan", "ios": "https://dc.lft.to/lastmile_qr_scan"}, "name": "bbe5ab194b12c8281bee12a16160bc11", "is_reserved": 0}, {"is_disabled": 0, "fusion_lon": 0.0, "fusion_lat": 0.0, "lat": 38.89921566666666, "type": "electric_scooter", "lon": -77.03949016666667, "bike_id": "63a3378788f7b760f3447a0b6a5a2980", "rental_uris": {"android": "https://dc.lft.to/lastmile_qr_scan", "ios": "https://dc.lft.to/lastmile_qr_scan"}, "name": "63a3378788f7b760f3447a0b6a5a2980", "is_reserved": 0}, {"is_disabled": 0, "fusion_lon": 0.0, "fusion_lat": 0.0, "lat": 38.86356166666667, "type": "electric_scooter", "lon": -76.9906555, "bike_id": "787bee6e42885320726ce1e6316b24ea", "rental_uris": {"android": "https://dc.lft.to/lastmile_qr_scan", "ios": "https://dc.lft.to/lastmile_qr_scan"}, "name": "787bee6e42885320726ce1e6316b24ea", "is_reserved": 0}, {"is_disabled": 0, "fusion_lon": 0.0, "fusion_lat": 0.0, "lat": 38.914217666666666, "type": "electric_scooter", "lon": -77.03583583333334, "bike_id": "5fe345cefb73200ef9391db50dcbdf23", "rental_uris": {"android": "https://dc.lft.to/lastmile_qr_scan", "ios": "https://dc.lft.to/lastmile_qr_scan"}, "name": "5fe345cefb73200ef9391db50dcbdf23", "is_reserved": 0}, {"is_disabled": 0, "fusion_lon": 0.0, "fusion_lat": 0.0, "lat": 38.92642433333333, "type": "electric_bike", "lon": -77.03332683333333, "bike_id": "ccadd0a0290df4f744d439294860bc68", "rental_uris": {"android": "https://dc.lft.to/lastmile_qr_scan", "ios": "https://dc.lft.to/lastmile_qr_scan"}, "name": "ccadd0a0290df4f744d439294860bc68", "is_reserved": 0}, {"is_disabled": 0, "fusion_lon": 0.0, "fusion_lat": 0.0, "lat": 38.981404, "type": "electric_bike", "lon": -77.00772816666667, "bike_id": "6fdaa4ab78869aa9e278978e007f2b6e", "rental_uris": {"android": "https://dc.lft.to/lastmile_qr_scan", "ios": "https://dc.lft.to/lastmile_qr_scan"}, "name": "6fdaa4ab78869aa9e278978e007f2b6e", "is_reserved": 0}, {"is_disabled": 0, "fusion_lon": 0.0, "fusion_lat": 0.0, "lat": 38.931008166666665, "type": "electric_scooter", "lon": -77.0247255, "bike_id": "de804ad8aab9f1431ec7effeac27ce1b", "rental_uris": {"android": "https://dc.lft.to/lastmile_qr_scan", "ios": "https://dc.lft.to/lastmile_qr_scan"}, "name": "de804ad8aab9f1431ec7effeac27ce1b", "is_reserved": 0}, {"is_disabled": 0, "fusion_lon": 0.0, "fusion_lat": 0.0, "lat": 38.905745833333334, "type": "electric_scooter", "lon": -77.05136283333333, "bike_id": "74a2064ac6afab7e2582b8f5498ad31b", "rental_uris": {"android": "https://dc.lft.to/lastmile_qr_scan", "ios": "https://dc.lft.to/lastmile_qr_scan"}, "name": "74a2064ac6afab7e2582b8f5498ad31b", "is_reserved": 0}, {"is_disabled": 0, "fusion_lon": 0.0, "fusion_lat": 0.0, "lat": 38.93548783333333, "type": "electric_scooter", "lon": -77.05811483333333, "bike_id": "891da2507aa33e57ecb4f077000a7f69", "rental_uris": {"android": "https://dc.lft.to/lastmile_qr_scan", "ios": "https://dc.lft.to/lastmile_qr_scan"}, "name": "891da2507aa33e57ecb4f077000a7f69", "is_reserved": 0}, {"is_disabled": 0, "fusion_lon": 0.0, "fusion_lat": 0.0, "lat": 38.8777465, "type": "electric_scooter", "lon": -77.0144, "bike_id": "9eab8f47d7a8fc8b0e8765642f6db990", "rental_uris": {"android": "https://dc.lft.to/lastmile_qr_scan", "ios": "https://dc.lft.to/lastmile_qr_scan"}, "name": "9eab8f47d7a8fc8b0e8765642f6db990", "is_reserved": 0}, {"is_disabled": 0, "fusion_lon": 0.0, "fusion_lat": 0.0, "lat": 38.8489545, "type": "electric_scooter", "lon": -77.005128, "bike_id": "daf95fa620718e1c2fa33685509e30eb", "rental_uris": {"android": "https://dc.lft.to/lastmile_qr_scan", "ios": "https://dc.lft.to/lastmile_qr_scan"}, "name": "daf95fa620718e1c2fa33685509e30eb", "is_reserved": 0}, {"is_disabled": 0, "fusion_lon": 0.0, "fusion_lat": 0.0, "lat": 38.90509616666667, "type": "electric_scooter", "lon": -77.02515683333333, "bike_id": "6a73cb9960b3424e3562f4fb8796eaf9", "rental_uris": {"android": "https://dc.lft.to/lastmile_qr_scan", "ios": "https://dc.lft.to/lastmile_qr_scan"}, "name": "6a73cb9960b3424e3562f4fb8796eaf9", "is_reserved": 0}, {"is_disabled": 0, "fusion_lon": 0.0, "fusion_lat": 0.0, "lat": 38.9156165, "type": "electric_scooter", "lon": -77.01026466666667, "bike_id": "d4db4064a0fc9f029df7d4bad1fc8a81", "rental_uris": {"android": "https://dc.lft.to/lastmile_qr_scan", "ios": "https://dc.lft.to/lastmile_qr_scan"}, "name": "d4db4064a0fc9f029df7d4bad1fc8a81", "is_reserved": 0}, {"is_disabled": 0, "fusion_lon": 0.0, "fusion_lat": 0.0, "lat": 38.91807933333333, "type": "electric_scooter", "lon": -77.03220583333334, "bike_id": "a63463d14fc5fc41e25fd95738f3081a", "rental_uris": {"android": "https://dc.lft.to/lastmile_qr_scan", "ios": "https://dc.lft.to/lastmile_qr_scan"}, "name": "a63463d14fc5fc41e25fd95738f3081a", "is_reserved": 0}, {"is_disabled": 0, "fusion_lon": 0.0, "fusion_lat": 0.0, "lat": 38.98491283333333, "type": "electric_bike", "lon": -76.98179766666667, "bike_id": "d4c34636921a4ec944cc56bf3bb17aa9", "rental_uris": {"android": "https://dc.lft.to/lastmile_qr_scan", "ios": "https://dc.lft.to/lastmile_qr_scan"}, "name": "d4c34636921a4ec944cc56bf3bb17aa9", "is_reserved": 0}, {"is_disabled": 0, "fusion_lon": 0.0, "fusion_lat": 0.0, "lat": 38.917039, "type": "electric_scooter", "lon": -77.00113866666666, "bike_id": "d0b113bdd4b3555f75b594b3d9607df6", "rental_uris": {"android": "https://dc.lft.to/lastmile_qr_scan", "ios": "https://dc.lft.to/lastmile_qr_scan"}, "name": "d0b113bdd4b3555f75b594b3d9607df6", "is_reserved": 0}, {"is_disabled": 0, "fusion_lon": 0.0, "fusion_lat": 0.0, "lat": 38.917986666666664, "type": "electric_scooter", "lon": -77.0239395, "bike_id": "c651643ca2f82abe8aa828ddd6a7d3cc", "rental_uris": {"android": "https://dc.lft.to/lastmile_qr_scan", "ios": "https://dc.lft.to/lastmile_qr_scan"}, "name": "c651643ca2f82abe8aa828ddd6a7d3cc", "is_reserved": 0}, {"is_disabled": 0, "fusion_lon": 0.0, "fusion_lat": 0.0, "lat": 38.90485283333334, "type": "electric_scooter", "lon": -76.97332933333334, "bike_id": "89695009e44bfabaa32b52cfa6bce98d", "rental_uris": {"android": "https://dc.lft.to/lastmile_qr_scan", "ios": "https://dc.lft.to/lastmile_qr_scan"}, "name": "89695009e44bfabaa32b52cfa6bce98d", "is_reserved": 0}, {"is_disabled": 0, "fusion_lon": 0.0, "fusion_lat": 0.0, "lat": 38.9092545, "type": "electric_scooter", "lon": -77.0229865, "bike_id": "b8e976375fc3a1f686243b39f677aab3", "rental_uris": {"android": "https://dc.lft.to/lastmile_qr_scan", "ios": "https://dc.lft.to/lastmile_qr_scan"}, "name": "b8e976375fc3a1f686243b39f677aab3", "is_reserved": 0}, {"is_disabled": 0, "fusion_lon": 0.0, "fusion_lat": 0.0, "lat": 38.90371416666667, "type": "electric_scooter", "lon": -77.03206883333333, "bike_id": "c882c83b57e02ef374ece3c44efc5c44", "rental_uris": {"android": "https://dc.lft.to/lastmile_qr_scan", "ios": "https://dc.lft.to/lastmile_qr_scan"}, "name": "c882c83b57e02ef374ece3c44efc5c44", "is_reserved": 0}, {"is_disabled": 0, "fusion_lon": 0.0, "fusion_lat": 0.0, "lat": 38.87827216666667, "type": "electric_scooter", "lon": -76.9631605, "bike_id": "28a84c75a8094d75d9a03dbd96637bf9", "rental_uris": {"android": "https://dc.lft.to/lastmile_qr_scan", "ios": "https://dc.lft.to/lastmile_qr_scan"}, "name": "28a84c75a8094d75d9a03dbd96637bf9", "is_reserved": 0}, {"is_disabled": 0, "fusion_lon": 0.0, "fusion_lat": 0.0, "lat": 38.950062833333334, "type": "electric_bike", "lon": -77.35307083333333, "bike_id": "b65962cdfe12570a8ebc9f0a93cc5218", "rental_uris": {"android": "https://dc.lft.to/lastmile_qr_scan", "ios": "https://dc.lft.to/lastmile_qr_scan"}, "name": "b65962cdfe12570a8ebc9f0a93cc5218", "is_reserved": 0}, {"is_disabled": 0, "fusion_lon": 0.0, "fusion_lat": 0.0, "lat": 38.8767335, "type": "electric_scooter", "lon": -76.93192716666667, "bike_id": "e11ca2f7bdeafc997c355fc21b39819b", "rental_uris": {"android": "https://dc.lft.to/lastmile_qr_scan", "ios": "https://dc.lft.to/lastmile_qr_scan"}, "name": "e11ca2f7bdeafc997c355fc21b39819b", "is_reserved": 0}, {"is_disabled": 0, "fusion_lon": 0.0, "fusion_lat": 0.0, "lat": 38.9126635, "type": "electric_scooter", "lon": -77.033635, "bike_id": "c7380ce2b382d2f601d84503b8c6830a", "rental_uris": {"android": "https://dc.lft.to/lastmile_qr_scan", "ios": "https://dc.lft.to/lastmile_qr_scan"}, "name": "c7380ce2b382d2f601d84503b8c6830a", "is_reserved": 0}, {"is_disabled": 0, "fusion_lon": 0.0, "fusion_lat": 0.0, "lat": 38.94975916666667, "type": "electric_scooter", "lon": -77.09435983333333, "bike_id": "578faf91dfe35aa98eb7a9c903ad457e", "rental_uris": {"android": "https://dc.lft.to/lastmile_qr_scan", "ios": "https://dc.lft.to/lastmile_qr_scan"}, "name": "578faf91dfe35aa98eb7a9c903ad457e", "is_reserved": 0}, {"is_disabled": 0, "fusion_lon": 0.0, "fusion_lat": 0.0, "lat": 38.93027583333333, "type": "electric_scooter", "lon": -77.0344765, "bike_id": "b1b1bd0b43d05854e6f7666288c18a92", "rental_uris": {"android": "https://dc.lft.to/lastmile_qr_scan", "ios": "https://dc.lft.to/lastmile_qr_scan"}, "name": "b1b1bd0b43d05854e6f7666288c18a92", "is_reserved": 0}, {"is_disabled": 0, "fusion_lon": 0.0, "fusion_lat": 0.0, "lat": 38.89834033333333, "type": "electric_scooter", "lon": -76.946339, "bike_id": "bd093ee4bebdb6c69ee17bf5193140b7", "rental_uris": {"android": "https://dc.lft.to/lastmile_qr_scan", "ios": "https://dc.lft.to/lastmile_qr_scan"}, "name": "bd093ee4bebdb6c69ee17bf5193140b7", "is_reserved": 0}, {"is_disabled": 0, "fusion_lon": 0.0, "fusion_lat": 0.0, "lat": 38.827849666666665, "type": "electric_bike", "lon": -77.11088966666667, "bike_id": "95901869eafc82a5446d5072c0d5cda4", "rental_uris": {"android": "https://dc.lft.to/lastmile_qr_scan", "ios": "https://dc.lft.to/lastmile_qr_scan"}, "name": "95901869eafc82a5446d5072c0d5cda4", "is_reserved": 0}, {"is_disabled": 0, "fusion_lon": 0.0, "fusion_lat": 0.0, "lat": 38.92375716666667, "type": "electric_scooter", "lon": -77.03026066666666, "bike_id": "a54e6c6eb7bdad04b355f813a687d38f", "rental_uris": {"android": "https://dc.lft.to/lastmile_qr_scan", "ios": "https://dc.lft.to/lastmile_qr_scan"}, "name": "a54e6c6eb7bdad04b355f813a687d38f", "is_reserved": 0}, {"is_disabled": 0, "fusion_lon": 0.0, "fusion_lat": 0.0, "lat": 38.962652166666665, "type": "electric_scooter", "lon": -77.02899883333333, "bike_id": "06bcb04a635c615251734bcf912fd28d", "rental_uris": {"android": "https://dc.lft.to/lastmile_qr_scan", "ios": "https://dc.lft.to/lastmile_qr_scan"}, "name": "06bcb04a635c615251734bcf912fd28d", "is_reserved": 0}, {"is_disabled": 0, "fusion_lon": 0.0, "fusion_lat": 0.0, "lat": 38.907863, "type": "electric_scooter", "lon": -77.03053266666667, "bike_id": "c71d73bff4a1dfb94651c7d92d2ffc9d", "rental_uris": {"android": "https://dc.lft.to/lastmile_qr_scan", "ios": "https://dc.lft.to/lastmile_qr_scan"}, "name": "c71d73bff4a1dfb94651c7d92d2ffc9d", "is_reserved": 0}, {"is_disabled": 0, "fusion_lon": 0.0, "fusion_lat": 0.0, "lat": 38.88538783333333, "type": "electric_scooter", "lon": -76.92706183333334, "bike_id": "cf9ed3bbc1dcbcf9f5782b72f5f26bcd", "rental_uris": {"android": "https://dc.lft.to/lastmile_qr_scan", "ios": "https://dc.lft.to/lastmile_qr_scan"}, "name": "cf9ed3bbc1dcbcf9f5782b72f5f26bcd", "is_reserved": 0}, {"is_disabled": 0, "fusion_lon": 0.0, "fusion_lat": 0.0, "lat": 38.904785333333336, "type": "electric_bike", "lon": -76.95050233333333, "bike_id": "970eeb576bc0ddcdca7f495a57920656", "rental_uris": {"android": "https://dc.lft.to/lastmile_qr_scan", "ios": "https://dc.lft.to/lastmile_qr_scan"}, "name": "970eeb576bc0ddcdca7f495a57920656", "is_reserved": 0}, {"is_disabled": 0, "fusion_lon": 0.0, "fusion_lat": 0.0, "lat": 38.93969083333333, "type": "electric_scooter", "lon": -77.03281, "bike_id": "84bb2510ccaf670f0fb7596758c96c6b", "rental_uris": {"android": "https://dc.lft.to/lastmile_qr_scan", "ios": "https://dc.lft.to/lastmile_qr_scan"}, "name": "84bb2510ccaf670f0fb7596758c96c6b", "is_reserved": 0}, {"is_disabled": 0, "fusion_lon": 0.0, "fusion_lat": 0.0, "lat": 38.905326, "type": "electric_scooter", "lon": -77.056429, "bike_id": "bd3bc5a04e37c9095a25c897f042c25e", "rental_uris": {"android": "https://dc.lft.to/lastmile_qr_scan", "ios": "https://dc.lft.to/lastmile_qr_scan"}, "name": "bd3bc5a04e37c9095a25c897f042c25e", "is_reserved": 0}, {"is_disabled": 0, "fusion_lon": 0.0, "fusion_lat": 0.0, "lat": 38.923735, "type": "electric_scooter", "lon": -77.05023416666667, "bike_id": "701ecb0c3beaa200811cfdc7f19067b6", "rental_uris": {"android": "https://dc.lft.to/lastmile_qr_scan", "ios": "https://dc.lft.to/lastmile_qr_scan"}, "name": "701ecb0c3beaa200811cfdc7f19067b6", "is_reserved": 0}, {"is_disabled": 0, "fusion_lon": 0.0, "fusion_lat": 0.0, "lat": 38.91273566666667, "type": "electric_scooter", "lon": -77.02562716666667, "bike_id": "57206e5478fdeea244a9163d14f3a876", "rental_uris": {"android": "https://dc.lft.to/lastmile_qr_scan", "ios": "https://dc.lft.to/lastmile_qr_scan"}, "name": "57206e5478fdeea244a9163d14f3a876", "is_reserved": 0}, {"is_disabled": 0, "fusion_lon": 0.0, "fusion_lat": 0.0, "lat": 38.9304625, "type": "electric_scooter", "lon": -76.99632116666666, "bike_id": "1f7d2310ca1a5754918693e4aa607476", "rental_uris": {"android": "https://dc.lft.to/lastmile_qr_scan", "ios": "https://dc.lft.to/lastmile_qr_scan"}, "name": "1f7d2310ca1a5754918693e4aa607476", "is_reserved": 0}, {"is_disabled": 0, "fusion_lon": 0.0, "fusion_lat": 0.0, "lat": 38.922610666666664, "type": "electric_scooter", "lon": -77.0712815, "bike_id": "5461cb771ccece958a0f5508141acc4a", "rental_uris": {"android": "https://dc.lft.to/lastmile_qr_scan", "ios": "https://dc.lft.to/lastmile_qr_scan"}, "name": "5461cb771ccece958a0f5508141acc4a", "is_reserved": 0}, {"is_disabled": 0, "fusion_lon": 0.0, "fusion_lat": 0.0, "lat": 38.91150833333333, "type": "electric_scooter", "lon": -76.98500166666666, "bike_id": "d93ddf1f15b85e732d7f10cec0f97993", "rental_uris": {"android": "https://dc.lft.to/lastmile_qr_scan", "ios": "https://dc.lft.to/lastmile_qr_scan"}, "name": "d93ddf1f15b85e732d7f10cec0f97993", "is_reserved": 0}, {"is_disabled": 0, "fusion_lon": 0.0, "fusion_lat": 0.0, "lat": 38.9046475, "type": "electric_scooter", "lon": -76.9921455, "bike_id": "ff7554748c099cd1a9f4b2a0cb854331", "rental_uris": {"android": "https://dc.lft.to/lastmile_qr_scan", "ios": "https://dc.lft.to/lastmile_qr_scan"}, "name": "ff7554748c099cd1a9f4b2a0cb854331", "is_reserved": 0}, {"is_disabled": 0, "fusion_lon": 0.0, "fusion_lat": 0.0, "lat": 38.935472833333336, "type": "electric_scooter", "lon": -77.0340915, "bike_id": "47859452b9cace5afe2842cf2d8d3f07", "rental_uris": {"android": "https://dc.lft.to/lastmile_qr_scan", "ios": "https://dc.lft.to/lastmile_qr_scan"}, "name": "47859452b9cace5afe2842cf2d8d3f07", "is_reserved": 0}, {"is_disabled": 0, "fusion_lon": 0.0, "fusion_lat": 0.0, "lat": 38.89736633333333, "type": "electric_scooter", "lon": -77.046801, "bike_id": "c73fa5478fe0e82c0c6c239098d70344", "rental_uris": {"android": "https://dc.lft.to/lastmile_qr_scan", "ios": "https://dc.lft.to/lastmile_qr_scan"}, "name": "c73fa5478fe0e82c0c6c239098d70344", "is_reserved": 0}, {"is_disabled": 0, "fusion_lon": 0.0, "fusion_lat": 0.0, "lat": 38.892351833333336, "type": "electric_scooter", "lon": -77.04674833333333, "bike_id": "a68a6abbe1943b036f07c63ecdab43a6", "rental_uris": {"android": "https://dc.lft.to/lastmile_qr_scan", "ios": "https://dc.lft.to/lastmile_qr_scan"}, "name": "a68a6abbe1943b036f07c63ecdab43a6", "is_reserved": 0}, {"is_disabled": 0, "fusion_lon": 0.0, "fusion_lat": 0.0, "lat": 38.903688833333334, "type": "electric_scooter", "lon": -77.01732266666667, "bike_id": "2c6540ba513b8f38e02038a0699b3c51", "rental_uris": {"android": "https://dc.lft.to/lastmile_qr_scan", "ios": "https://dc.lft.to/lastmile_qr_scan"}, "name": "2c6540ba513b8f38e02038a0699b3c51", "is_reserved": 0}, {"is_disabled": 0, "fusion_lon": 0.0, "fusion_lat": 0.0, "lat": 38.9027385, "type": "electric_scooter", "lon": -77.053241, "bike_id": "97c8152c6effc3a1dc96f188ed4255c5", "rental_uris": {"android": "https://dc.lft.to/lastmile_qr_scan", "ios": "https://dc.lft.to/lastmile_qr_scan"}, "name": "97c8152c6effc3a1dc96f188ed4255c5", "is_reserved": 0}, {"is_disabled": 0, "fusion_lon": 0.0, "fusion_lat": 0.0, "lat": 38.911266833333336, "type": "electric_scooter", "lon": -77.059329, "bike_id": "f19b553c030f7a7081dd7f8b5b8605d7", "rental_uris": {"android": "https://dc.lft.to/lastmile_qr_scan", "ios": "https://dc.lft.to/lastmile_qr_scan"}, "name": "f19b553c030f7a7081dd7f8b5b8605d7", "is_reserved": 0}, {"is_disabled": 0, "fusion_lon": 0.0, "fusion_lat": 0.0, "lat": 38.8847465, "type": "electric_scooter", "lon": -76.92976766666666, "bike_id": "a7a3ddbaf99c8d4fce708f09a951129d", "rental_uris": {"android": "https://dc.lft.to/lastmile_qr_scan", "ios": "https://dc.lft.to/lastmile_qr_scan"}, "name": "a7a3ddbaf99c8d4fce708f09a951129d", "is_reserved": 0}, {"is_disabled": 0, "fusion_lon": 0.0, "fusion_lat": 0.0, "lat": 38.8965695, "type": "electric_scooter", "lon": -77.01188333333333, "bike_id": "dd2460e7f5ed95b4299667fdd082c97b", "rental_uris": {"android": "https://dc.lft.to/lastmile_qr_scan", "ios": "https://dc.lft.to/lastmile_qr_scan"}, "name": "dd2460e7f5ed95b4299667fdd082c97b", "is_reserved": 0}, {"is_disabled": 0, "fusion_lon": 0.0, "fusion_lat": 0.0, "lat": 38.87285, "type": "electric_scooter", "lon": -77.009862, "bike_id": "b3779d1a466a241281c6cf53fb2a18f9", "rental_uris": {"android": "https://dc.lft.to/lastmile_qr_scan", "ios": "https://dc.lft.to/lastmile_qr_scan"}, "name": "b3779d1a466a241281c6cf53fb2a18f9", "is_reserved": 0}, {"is_disabled": 0, "fusion_lon": 0.0, "fusion_lat": 0.0, "lat": 38.90999733333334, "type": "electric_scooter", "lon": -77.03732, "bike_id": "9a26bf504e411f91775a0886f12479f4", "rental_uris": {"android": "https://dc.lft.to/lastmile_qr_scan", "ios": "https://dc.lft.to/lastmile_qr_scan"}, "name": "9a26bf504e411f91775a0886f12479f4", "is_reserved": 0}, {"is_disabled": 0, "fusion_lon": 0.0, "fusion_lat": 0.0, "lat": 38.921584333333335, "type": "electric_scooter", "lon": -77.034035, "bike_id": "8b83eae1ae1e9a90129e06b6febabaaa", "rental_uris": {"android": "https://dc.lft.to/lastmile_qr_scan", "ios": "https://dc.lft.to/lastmile_qr_scan"}, "name": "8b83eae1ae1e9a90129e06b6febabaaa", "is_reserved": 0}, {"is_disabled": 0, "fusion_lon": 0.0, "fusion_lat": 0.0, "lat": 38.9053575, "type": "electric_scooter", "lon": -77.0058335, "bike_id": "246fae6811858267c8ccab1f84da755d", "rental_uris": {"android": "https://dc.lft.to/lastmile_qr_scan", "ios": "https://dc.lft.to/lastmile_qr_scan"}, "name": "246fae6811858267c8ccab1f84da755d", "is_reserved": 0}, {"is_disabled": 0, "fusion_lon": 0.0, "fusion_lat": 0.0, "lat": 38.911107333333334, "type": "electric_scooter", "lon": -77.03553583333333, "bike_id": "591cfd5cb0c06278c45bd79975f55a17", "rental_uris": {"android": "https://dc.lft.to/lastmile_qr_scan", "ios": "https://dc.lft.to/lastmile_qr_scan"}, "name": "591cfd5cb0c06278c45bd79975f55a17", "is_reserved": 0}, {"is_disabled": 0, "fusion_lon": 0.0, "fusion_lat": 0.0, "lat": 38.9065525, "type": "electric_scooter", "lon": -77.04525883333334, "bike_id": "0990bb5167d804531c7f94126f4dbd87", "rental_uris": {"android": "https://dc.lft.to/lastmile_qr_scan", "ios": "https://dc.lft.to/lastmile_qr_scan"}, "name": "0990bb5167d804531c7f94126f4dbd87", "is_reserved": 0}, {"is_disabled": 0, "fusion_lon": 0.0, "fusion_lat": 0.0, "lat": 38.900726666666664, "type": "electric_scooter", "lon": -77.04919883333334, "bike_id": "f11942db27f15d4223dfffe957d295f0", "rental_uris": {"android": "https://dc.lft.to/lastmile_qr_scan", "ios": "https://dc.lft.to/lastmile_qr_scan"}, "name": "f11942db27f15d4223dfffe957d295f0", "is_reserved": 0}, {"is_disabled": 0, "fusion_lon": 0.0, "fusion_lat": 0.0, "lat": 38.91928933333333, "type": "electric_scooter", "lon": -77.0309025, "bike_id": "f271783ebe28df6d1c2dcc8245874314", "rental_uris": {"android": "https://dc.lft.to/lastmile_qr_scan", "ios": "https://dc.lft.to/lastmile_qr_scan"}, "name": "f271783ebe28df6d1c2dcc8245874314", "is_reserved": 0}, {"is_disabled": 0, "fusion_lon": 0.0, "fusion_lat": 0.0, "lat": 38.9051725, "type": "electric_scooter", "lon": -76.98253583333333, "bike_id": "e49a65fd0cb8482906e2fadf2989ec37", "rental_uris": {"android": "https://dc.lft.to/lastmile_qr_scan", "ios": "https://dc.lft.to/lastmile_qr_scan"}, "name": "e49a65fd0cb8482906e2fadf2989ec37", "is_reserved": 0}, {"is_disabled": 0, "fusion_lon": 0.0, "fusion_lat": 0.0, "lat": 39.007866, "type": "electric_bike", "lon": -76.99564633333334, "bike_id": "9b0cc0634eb777ac776df012187a368d", "rental_uris": {"android": "https://dc.lft.to/lastmile_qr_scan", "ios": "https://dc.lft.to/lastmile_qr_scan"}, "name": "9b0cc0634eb777ac776df012187a368d", "is_reserved": 0}, {"is_disabled": 0, "fusion_lon": 0.0, "fusion_lat": 0.0, "lat": 38.916941666666666, "type": "electric_scooter", "lon": -77.025999, "bike_id": "89159e364205d7f37339dd2b14690432", "rental_uris": {"android": "https://dc.lft.to/lastmile_qr_scan", "ios": "https://dc.lft.to/lastmile_qr_scan"}, "name": "89159e364205d7f37339dd2b14690432", "is_reserved": 0}, {"is_disabled": 0, "fusion_lon": 0.0, "fusion_lat": 0.0, "lat": 38.923352, "type": "electric_scooter", "lon": -77.03577533333333, "bike_id": "92e3c948afa239ba817186d8bbbaede8", "rental_uris": {"android": "https://dc.lft.to/lastmile_qr_scan", "ios": "https://dc.lft.to/lastmile_qr_scan"}, "name": "92e3c948afa239ba817186d8bbbaede8", "is_reserved": 0}, {"is_disabled": 0, "fusion_lon": 0.0, "fusion_lat": 0.0, "lat": 38.8343125, "type": "electric_bike", "lon": -77.10355683333333, "bike_id": "51b6488cc26fe2fe304f2f870159c47f", "rental_uris": {"android": "https://dc.lft.to/lastmile_qr_scan", "ios": "https://dc.lft.to/lastmile_qr_scan"}, "name": "51b6488cc26fe2fe304f2f870159c47f", "is_reserved": 0}, {"is_disabled": 0, "fusion_lon": 0.0, "fusion_lat": 0.0, "lat": 39.088428, "type": "electric_bike", "lon": -77.1780235, "bike_id": "993dc4024b21f28aa49f418a826e9bfc", "rental_uris": {"android": "https://dc.lft.to/lastmile_qr_scan", "ios": "https://dc.lft.to/lastmile_qr_scan"}, "name": "993dc4024b21f28aa49f418a826e9bfc", "is_reserved": 0}, {"is_disabled": 0, "fusion_lon": 0.0, "fusion_lat": 0.0, "lat": 38.91103016666667, "type": "electric_scooter", "lon": -77.0660705, "bike_id": "61644d411617af4da7f2dac4b686452f", "rental_uris": {"android": "https://dc.lft.to/lastmile_qr_scan", "ios": "https://dc.lft.to/lastmile_qr_scan"}, "name": "61644d411617af4da7f2dac4b686452f", "is_reserved": 0}, {"is_disabled": 0, "fusion_lon": 0.0, "fusion_lat": 0.0, "lat": 38.9237565, "type": "electric_scooter", "lon": -77.028029, "bike_id": "398d6d7bcc2434ab7d0fecd915140d41", "rental_uris": {"android": "https://dc.lft.to/lastmile_qr_scan", "ios": "https://dc.lft.to/lastmile_qr_scan"}, "name": "398d6d7bcc2434ab7d0fecd915140d41", "is_reserved": 0}, {"is_disabled": 0, "fusion_lon": 0.0, "fusion_lat": 0.0, "lat": 38.923830333333335, "type": "electric_scooter", "lon": -77.03131566666667, "bike_id": "330a6bff17e10430a8091d3129256435", "rental_uris": {"android": "https://dc.lft.to/lastmile_qr_scan", "ios": "https://dc.lft.to/lastmile_qr_scan"}, "name": "330a6bff17e10430a8091d3129256435", "is_reserved": 0}, {"is_disabled": 0, "fusion_lon": 0.0, "fusion_lat": 0.0, "lat": 38.917047, "type": "electric_scooter", "lon": -77.031144, "bike_id": "e98fc00ffb3ae25cc226b88bf2b5cbe1", "rental_uris": {"android": "https://dc.lft.to/lastmile_qr_scan", "ios": "https://dc.lft.to/lastmile_qr_scan"}, "name": "e98fc00ffb3ae25cc226b88bf2b5cbe1", "is_reserved": 0}, {"is_disabled": 0, "fusion_lon": 0.0, "fusion_lat": 0.0, "lat": 38.88408616666667, "type": "electric_scooter", "lon": -76.954151, "bike_id": "ae3ed0360b8b937b18d8a05cb8740320", "rental_uris": {"android": "https://dc.lft.to/lastmile_qr_scan", "ios": "https://dc.lft.to/lastmile_qr_scan"}, "name": "ae3ed0360b8b937b18d8a05cb8740320", "is_reserved": 0}, {"is_disabled": 0, "fusion_lon": 0.0, "fusion_lat": 0.0, "lat": 38.89209366666667, "type": "electric_scooter", "lon": -76.988051, "bike_id": "1474ce63385fa5718c0e0e6adbf14c31", "rental_uris": {"android": "https://dc.lft.to/lastmile_qr_scan", "ios": "https://dc.lft.to/lastmile_qr_scan"}, "name": "1474ce63385fa5718c0e0e6adbf14c31", "is_reserved": 0}, {"is_disabled": 0, "fusion_lon": 0.0, "fusion_lat": 0.0, "lat": 38.914797666666665, "type": "electric_scooter", "lon": -77.0347065, "bike_id": "b845ce718fab6a253b2fe3030b98774b", "rental_uris": {"android": "https://dc.lft.to/lastmile_qr_scan", "ios": "https://dc.lft.to/lastmile_qr_scan"}, "name": "b845ce718fab6a253b2fe3030b98774b", "is_reserved": 0}, {"is_disabled": 0, "fusion_lon": 0.0, "fusion_lat": 0.0, "lat": 38.907918333333335, "type": "electric_scooter", "lon": -77.04084033333334, "bike_id": "f645862effa32e0c8b59b89915898660", "rental_uris": {"android": "https://dc.lft.to/lastmile_qr_scan", "ios": "https://dc.lft.to/lastmile_qr_scan"}, "name": "f645862effa32e0c8b59b89915898660", "is_reserved": 0}, {"is_disabled": 0, "fusion_lon": 0.0, "fusion_lat": 0.0, "lat": 38.900326166666666, "type": "electric_scooter", "lon": -76.98314133333334, "bike_id": "d931320dcc28528e9e0d304de9d6c8be", "rental_uris": {"android": "https://dc.lft.to/lastmile_qr_scan", "ios": "https://dc.lft.to/lastmile_qr_scan"}, "name": "d931320dcc28528e9e0d304de9d6c8be", "is_reserved": 0}, {"is_disabled": 0, "fusion_lon": 0.0, "fusion_lat": 0.0, "lat": 38.912552833333336, "type": "electric_scooter", "lon": -77.00927883333334, "bike_id": "a41878e83624a6bda217980ed7d21c5c", "rental_uris": {"android": "https://dc.lft.to/lastmile_qr_scan", "ios": "https://dc.lft.to/lastmile_qr_scan"}, "name": "a41878e83624a6bda217980ed7d21c5c", "is_reserved": 0}, {"is_disabled": 0, "fusion_lon": 0.0, "fusion_lat": 0.0, "lat": 38.903137, "type": "electric_scooter", "lon": -76.98241783333333, "bike_id": "20a1faaf7a74b32b4671976bda0c8ba0", "rental_uris": {"android": "https://dc.lft.to/lastmile_qr_scan", "ios": "https://dc.lft.to/lastmile_qr_scan"}, "name": "20a1faaf7a74b32b4671976bda0c8ba0", "is_reserved": 0}, {"is_disabled": 0, "fusion_lon": 0.0, "fusion_lat": 0.0, "lat": 38.8983865, "type": "electric_scooter", "lon": -76.946355, "bike_id": "8f29546aa5ccd43c542ca876c24d4b9d", "rental_uris": {"android": "https://dc.lft.to/lastmile_qr_scan", "ios": "https://dc.lft.to/lastmile_qr_scan"}, "name": "8f29546aa5ccd43c542ca876c24d4b9d", "is_reserved": 0}, {"is_disabled": 0, "fusion_lon": 0.0, "fusion_lat": 0.0, "lat": 38.8734005, "type": "electric_bike", "lon": -77.01853833333334, "bike_id": "1101a64f1ccc9da198607380d63b09ce", "rental_uris": {"android": "https://dc.lft.to/lastmile_qr_scan", "ios": "https://dc.lft.to/lastmile_qr_scan"}, "name": "1101a64f1ccc9da198607380d63b09ce", "is_reserved": 0}, {"is_disabled": 0, "fusion_lon": 0.0, "fusion_lat": 0.0, "lat": 38.9279305, "type": "electric_scooter", "lon": -77.03149533333334, "bike_id": "0313f9212be4f4a5b90890a8f291c282", "rental_uris": {"android": "https://dc.lft.to/lastmile_qr_scan", "ios": "https://dc.lft.to/lastmile_qr_scan"}, "name": "0313f9212be4f4a5b90890a8f291c282", "is_reserved": 0}, {"is_disabled": 0, "fusion_lon": 0.0, "fusion_lat": 0.0, "lat": 38.950838833333336, "type": "electric_bike", "lon": -76.96562166666666, "bike_id": "5428c89c90e765fcfa28f84126611029", "rental_uris": {"android": "https://dc.lft.to/lastmile_qr_scan", "ios": "https://dc.lft.to/lastmile_qr_scan"}, "name": "5428c89c90e765fcfa28f84126611029", "is_reserved": 0}, {"is_disabled": 0, "fusion_lon": 0.0, "fusion_lat": 0.0, "lat": 38.8905155, "type": "electric_scooter", "lon": -77.00145283333333, "bike_id": "3c79a9d32118a3548eb42981128f275c", "rental_uris": {"android": "https://dc.lft.to/lastmile_qr_scan", "ios": "https://dc.lft.to/lastmile_qr_scan"}, "name": "3c79a9d32118a3548eb42981128f275c", "is_reserved": 0}, {"is_disabled": 0, "fusion_lon": 0.0, "fusion_lat": 0.0, "lat": 38.9164365, "type": "electric_scooter", "lon": -77.03466166666666, "bike_id": "dea3c072719e7f947ce23fd765d7b4f3", "rental_uris": {"android": "https://dc.lft.to/lastmile_qr_scan", "ios": "https://dc.lft.to/lastmile_qr_scan"}, "name": "dea3c072719e7f947ce23fd765d7b4f3", "is_reserved": 0}, {"is_disabled": 0, "fusion_lon": 0.0, "fusion_lat": 0.0, "lat": 38.8684995, "type": "electric_bike", "lon": -77.09729916666667, "bike_id": "b66adf9db89e374bdcb33c3dd184a7ae", "rental_uris": {"android": "https://dc.lft.to/lastmile_qr_scan", "ios": "https://dc.lft.to/lastmile_qr_scan"}, "name": "b66adf9db89e374bdcb33c3dd184a7ae", "is_reserved": 0}, {"is_disabled": 0, "fusion_lon": 0.0, "fusion_lat": 0.0, "lat": 38.901577, "type": "electric_scooter", "lon": -77.03054266666666, "bike_id": "fc5283a33c5d7bf2bf06cfe062d2c63d", "rental_uris": {"android": "https://dc.lft.to/lastmile_qr_scan", "ios": "https://dc.lft.to/lastmile_qr_scan"}, "name": "fc5283a33c5d7bf2bf06cfe062d2c63d", "is_reserved": 0}, {"is_disabled": 0, "fusion_lon": 0.0, "fusion_lat": 0.0, "lat": 38.9046955, "type": "electric_scooter", "lon": -77.03797116666667, "bike_id": "4d04ede4f7dbcf970cb64f6dcc4b4813", "rental_uris": {"android": "https://dc.lft.to/lastmile_qr_scan", "ios": "https://dc.lft.to/lastmile_qr_scan"}, "name": "4d04ede4f7dbcf970cb64f6dcc4b4813", "is_reserved": 0}, {"is_disabled": 0, "fusion_lon": 0.0, "fusion_lat": 0.0, "lat": 38.88254, "type": "electric_scooter", "lon": -77.00341016666667, "bike_id": "7c0d9c15c21b357caf11d187f9a74650", "rental_uris": {"android": "https://dc.lft.to/lastmile_qr_scan", "ios": "https://dc.lft.to/lastmile_qr_scan"}, "name": "7c0d9c15c21b357caf11d187f9a74650", "is_reserved": 0}, {"is_disabled": 0, "fusion_lon": 0.0, "fusion_lat": 0.0, "lat": 38.9185455, "type": "electric_bike", "lon": -76.96091116666666, "bike_id": "44b784afcab24ab1075535db3542eda7", "rental_uris": {"android": "https://dc.lft.to/lastmile_qr_scan", "ios": "https://dc.lft.to/lastmile_qr_scan"}, "name": "44b784afcab24ab1075535db3542eda7", "is_reserved": 0}, {"is_disabled": 0, "fusion_lon": 0.0, "fusion_lat": 0.0, "lat": 38.8955515, "type": "electric_scooter", "lon": -77.01101033333333, "bike_id": "fd976c8d6c596ea99c8e9d297596ddf3", "rental_uris": {"android": "https://dc.lft.to/lastmile_qr_scan", "ios": "https://dc.lft.to/lastmile_qr_scan"}, "name": "fd976c8d6c596ea99c8e9d297596ddf3", "is_reserved": 0}, {"is_disabled": 0, "fusion_lon": 0.0, "fusion_lat": 0.0, "lat": 38.83351866666667, "type": "electric_bike", "lon": -76.96554833333333, "bike_id": "cc75ac54891cea91829e9892c8ed022f", "rental_uris": {"android": "https://dc.lft.to/lastmile_qr_scan", "ios": "https://dc.lft.to/lastmile_qr_scan"}, "name": "cc75ac54891cea91829e9892c8ed022f", "is_reserved": 0}, {"is_disabled": 0, "fusion_lon": 0.0, "fusion_lat": 0.0, "lat": 38.91731766666667, "type": "electric_scooter", "lon": -77.03646516666667, "bike_id": "5aa27823cfc9b0d9b99c5d9b82fe8804", "rental_uris": {"android": "https://dc.lft.to/lastmile_qr_scan", "ios": "https://dc.lft.to/lastmile_qr_scan"}, "name": "5aa27823cfc9b0d9b99c5d9b82fe8804", "is_reserved": 0}, {"is_disabled": 0, "fusion_lon": 0.0, "fusion_lat": 0.0, "lat": 38.895201, "type": "electric_scooter", "lon": -77.011027, "bike_id": "befdaa8f0437c2371adeb6ea43b66b67", "rental_uris": {"android": "https://dc.lft.to/lastmile_qr_scan", "ios": "https://dc.lft.to/lastmile_qr_scan"}, "name": "befdaa8f0437c2371adeb6ea43b66b67", "is_reserved": 0}, {"is_disabled": 0, "fusion_lon": 0.0, "fusion_lat": 0.0, "lat": 38.93504566666667, "type": "electric_bike", "lon": -76.949551, "bike_id": "2b53633022bd4f51315b7e1a787d31ba", "rental_uris": {"android": "https://dc.lft.to/lastmile_qr_scan", "ios": "https://dc.lft.to/lastmile_qr_scan"}, "name": "2b53633022bd4f51315b7e1a787d31ba", "is_reserved": 0}, {"is_disabled": 0, "fusion_lon": 0.0, "fusion_lat": 0.0, "lat": 38.8976865, "type": "electric_scooter", "lon": -77.0282775, "bike_id": "404e7b8d8dd1ca68dc2f80a021c91936", "rental_uris": {"android": "https://dc.lft.to/lastmile_qr_scan", "ios": "https://dc.lft.to/lastmile_qr_scan"}, "name": "404e7b8d8dd1ca68dc2f80a021c91936", "is_reserved": 0}, {"is_disabled": 0, "fusion_lon": 0.0, "fusion_lat": 0.0, "lat": 38.90792366666667, "type": "electric_scooter", "lon": -77.04983366666667, "bike_id": "87862179d55697fd372c1150125038ff", "rental_uris": {"android": "https://dc.lft.to/lastmile_qr_scan", "ios": "https://dc.lft.to/lastmile_qr_scan"}, "name": "87862179d55697fd372c1150125038ff", "is_reserved": 0}, {"is_disabled": 0, "fusion_lon": 0.0, "fusion_lat": 0.0, "lat": 38.92166016666667, "type": "electric_scooter", "lon": -77.03380566666667, "bike_id": "2dced254b2897fa14b1ff99cc15e3221", "rental_uris": {"android": "https://dc.lft.to/lastmile_qr_scan", "ios": "https://dc.lft.to/lastmile_qr_scan"}, "name": "2dced254b2897fa14b1ff99cc15e3221", "is_reserved": 0}, {"is_disabled": 0, "fusion_lon": 0.0, "fusion_lat": 0.0, "lat": 38.894652666666666, "type": "electric_scooter", "lon": -76.9949035, "bike_id": "caaadc9f68bb55a7f51e7cbe53429938", "rental_uris": {"android": "https://dc.lft.to/lastmile_qr_scan", "ios": "https://dc.lft.to/lastmile_qr_scan"}, "name": "caaadc9f68bb55a7f51e7cbe53429938", "is_reserved": 0}, {"is_disabled": 0, "fusion_lon": 0.0, "fusion_lat": 0.0, "lat": 38.90725333333334, "type": "electric_scooter", "lon": -77.02989216666667, "bike_id": "b43feaaf4c2c1c6944fe11ae885acdc2", "rental_uris": {"android": "https://dc.lft.to/lastmile_qr_scan", "ios": "https://dc.lft.to/lastmile_qr_scan"}, "name": "b43feaaf4c2c1c6944fe11ae885acdc2", "is_reserved": 0}, {"is_disabled": 0, "fusion_lon": 0.0, "fusion_lat": 0.0, "lat": 38.88631616666667, "type": "electric_scooter", "lon": -76.9985265, "bike_id": "3e3723009db112eeabbb563bffaf3b33", "rental_uris": {"android": "https://dc.lft.to/lastmile_qr_scan", "ios": "https://dc.lft.to/lastmile_qr_scan"}, "name": "3e3723009db112eeabbb563bffaf3b33", "is_reserved": 0}, {"is_disabled": 0, "fusion_lon": 0.0, "fusion_lat": 0.0, "lat": 38.83812983333333, "type": "electric_scooter", "lon": -77.00432, "bike_id": "473615574785c77107336b097ca8cd55", "rental_uris": {"android": "https://dc.lft.to/lastmile_qr_scan", "ios": "https://dc.lft.to/lastmile_qr_scan"}, "name": "473615574785c77107336b097ca8cd55", "is_reserved": 0}, {"is_disabled": 0, "fusion_lon": 0.0, "fusion_lat": 0.0, "lat": 39.0994535, "type": "electric_bike", "lon": -77.18788116666667, "bike_id": "44daee8498df003b748af1992b471d5b", "rental_uris": {"android": "https://dc.lft.to/lastmile_qr_scan", "ios": "https://dc.lft.to/lastmile_qr_scan"}, "name": "44daee8498df003b748af1992b471d5b", "is_reserved": 0}, {"is_disabled": 0, "fusion_lon": 0.0, "fusion_lat": 0.0, "lat": 38.84294033333333, "type": "electric_scooter", "lon": -76.9995065, "bike_id": "310118670164310b61ed53d5a5e9ba87", "rental_uris": {"android": "https://dc.lft.to/lastmile_qr_scan", "ios": "https://dc.lft.to/lastmile_qr_scan"}, "name": "310118670164310b61ed53d5a5e9ba87", "is_reserved": 0}, {"is_disabled": 0, "fusion_lon": 0.0, "fusion_lat": 0.0, "lat": 38.90092683333334, "type": "electric_scooter", "lon": -76.98832216666666, "bike_id": "638bd3195e6472b9b0b41be91bb7f7db", "rental_uris": {"android": "https://dc.lft.to/lastmile_qr_scan", "ios": "https://dc.lft.to/lastmile_qr_scan"}, "name": "638bd3195e6472b9b0b41be91bb7f7db", "is_reserved": 0}, {"is_disabled": 0, "fusion_lon": 0.0, "fusion_lat": 0.0, "lat": 38.83378666666667, "type": "electric_scooter", "lon": -76.99310033333333, "bike_id": "443e510997804dfb3e092f602c474dcc", "rental_uris": {"android": "https://dc.lft.to/lastmile_qr_scan", "ios": "https://dc.lft.to/lastmile_qr_scan"}, "name": "443e510997804dfb3e092f602c474dcc", "is_reserved": 0}, {"is_disabled": 0, "fusion_lon": 0.0, "fusion_lat": 0.0, "lat": 38.916201, "type": "electric_scooter", "lon": -77.04873883333333, "bike_id": "a935cb539b31b4e4ab45e3a6deade96b", "rental_uris": {"android": "https://dc.lft.to/lastmile_qr_scan", "ios": "https://dc.lft.to/lastmile_qr_scan"}, "name": "a935cb539b31b4e4ab45e3a6deade96b", "is_reserved": 0}, {"is_disabled": 0, "fusion_lon": 0.0, "fusion_lat": 0.0, "lat": 38.9168885, "type": "electric_scooter", "lon": -77.016145, "bike_id": "c3837604647463407b0ed2e5c92d3bf9", "rental_uris": {"android": "https://dc.lft.to/lastmile_qr_scan", "ios": "https://dc.lft.to/lastmile_qr_scan"}, "name": "c3837604647463407b0ed2e5c92d3bf9", "is_reserved": 0}, {"is_disabled": 0, "fusion_lon": 0.0, "fusion_lat": 0.0, "lat": 38.902607333333336, "type": "electric_scooter", "lon": -77.03317333333334, "bike_id": "01cbfef376fe8655a833c86291fac2dd", "rental_uris": {"android": "https://dc.lft.to/lastmile_qr_scan", "ios": "https://dc.lft.to/lastmile_qr_scan"}, "name": "01cbfef376fe8655a833c86291fac2dd", "is_reserved": 0}, {"is_disabled": 0, "fusion_lon": 0.0, "fusion_lat": 0.0, "lat": 38.914285666666665, "type": "electric_scooter", "lon": -77.03464983333333, "bike_id": "7d97a864cd894e7abcd36b15fc2ef2d9", "rental_uris": {"android": "https://dc.lft.to/lastmile_qr_scan", "ios": "https://dc.lft.to/lastmile_qr_scan"}, "name": "7d97a864cd894e7abcd36b15fc2ef2d9", "is_reserved": 0}, {"is_disabled": 0, "fusion_lon": 0.0, "fusion_lat": 0.0, "lat": 38.94188233333333, "type": "electric_scooter", "lon": -77.02390783333334, "bike_id": "7106915980a66e10e62927aab709b173", "rental_uris": {"android": "https://dc.lft.to/lastmile_qr_scan", "ios": "https://dc.lft.to/lastmile_qr_scan"}, "name": "7106915980a66e10e62927aab709b173", "is_reserved": 0}, {"is_disabled": 0, "fusion_lon": 0.0, "fusion_lat": 0.0, "lat": 38.89227316666667, "type": "electric_scooter", "lon": -77.03338133333334, "bike_id": "16af9d8a4319f97bbb473af918af5782", "rental_uris": {"android": "https://dc.lft.to/lastmile_qr_scan", "ios": "https://dc.lft.to/lastmile_qr_scan"}, "name": "16af9d8a4319f97bbb473af918af5782", "is_reserved": 0}, {"is_disabled": 0, "fusion_lon": 0.0, "fusion_lat": 0.0, "lat": 38.931779, "type": "electric_scooter", "lon": -77.0281615, "bike_id": "c1d5d4aed317a19b3c557f902f018f96", "rental_uris": {"android": "https://dc.lft.to/lastmile_qr_scan", "ios": "https://dc.lft.to/lastmile_qr_scan"}, "name": "c1d5d4aed317a19b3c557f902f018f96", "is_reserved": 0}, {"is_disabled": 0, "fusion_lon": 0.0, "fusion_lat": 0.0, "lat": 38.920523833333334, "type": "electric_scooter", "lon": -77.0339185, "bike_id": "605e94441bfb97ab25a07a6c7ce5e6e9", "rental_uris": {"android": "https://dc.lft.to/lastmile_qr_scan", "ios": "https://dc.lft.to/lastmile_qr_scan"}, "name": "605e94441bfb97ab25a07a6c7ce5e6e9", "is_reserved": 0}, {"is_disabled": 0, "fusion_lon": 0.0, "fusion_lat": 0.0, "lat": 38.893914, "type": "electric_scooter", "lon": -76.94995933333334, "bike_id": "5038021f845cd017aefd40342646c084", "rental_uris": {"android": "https://dc.lft.to/lastmile_qr_scan", "ios": "https://dc.lft.to/lastmile_qr_scan"}, "name": "5038021f845cd017aefd40342646c084", "is_reserved": 0}, {"is_disabled": 0, "fusion_lon": 0.0, "fusion_lat": 0.0, "lat": 38.9055055, "type": "electric_scooter", "lon": -76.98144216666667, "bike_id": "6bc5a0d9b0cc48481877b9cc4fdae6d7", "rental_uris": {"android": "https://dc.lft.to/lastmile_qr_scan", "ios": "https://dc.lft.to/lastmile_qr_scan"}, "name": "6bc5a0d9b0cc48481877b9cc4fdae6d7", "is_reserved": 0}, {"is_disabled": 0, "fusion_lon": 0.0, "fusion_lat": 0.0, "lat": 38.945878, "type": "electric_bike", "lon": -77.34413266666667, "bike_id": "4090bba64061e83b8a1e9767bdad8e02", "rental_uris": {"android": "https://dc.lft.to/lastmile_qr_scan", "ios": "https://dc.lft.to/lastmile_qr_scan"}, "name": "4090bba64061e83b8a1e9767bdad8e02", "is_reserved": 0}, {"is_disabled": 0, "fusion_lon": 0.0, "fusion_lat": 0.0, "lat": 38.900169, "type": "electric_scooter", "lon": -77.04672383333333, "bike_id": "0d7134f0e0e49ef96ea239dc5bf11c6f", "rental_uris": {"android": "https://dc.lft.to/lastmile_qr_scan", "ios": "https://dc.lft.to/lastmile_qr_scan"}, "name": "0d7134f0e0e49ef96ea239dc5bf11c6f", "is_reserved": 0}, {"is_disabled": 0, "fusion_lon": 0.0, "fusion_lat": 0.0, "lat": 38.924816, "type": "electric_scooter", "lon": -77.03775366666666, "bike_id": "53aa0bc0816b42d103fac53ba734e8a1", "rental_uris": {"android": "https://dc.lft.to/lastmile_qr_scan", "ios": "https://dc.lft.to/lastmile_qr_scan"}, "name": "53aa0bc0816b42d103fac53ba734e8a1", "is_reserved": 0}, {"is_disabled": 0, "fusion_lon": 0.0, "fusion_lat": 0.0, "lat": 39.054525, "type": "electric_bike", "lon": -77.14324783333333, "bike_id": "2a4359b193803460ea8718f09df39d71", "rental_uris": {"android": "https://dc.lft.to/lastmile_qr_scan", "ios": "https://dc.lft.to/lastmile_qr_scan"}, "name": "2a4359b193803460ea8718f09df39d71", "is_reserved": 0}, {"is_disabled": 0, "fusion_lon": 0.0, "fusion_lat": 0.0, "lat": 38.89612483333333, "type": "electric_scooter", "lon": -77.00929466666666, "bike_id": "4070afa720bffd962a5f54158da8ea1b", "rental_uris": {"android": "https://dc.lft.to/lastmile_qr_scan", "ios": "https://dc.lft.to/lastmile_qr_scan"}, "name": "4070afa720bffd962a5f54158da8ea1b", "is_reserved": 0}, {"is_disabled": 0, "fusion_lon": 0.0, "fusion_lat": 0.0, "lat": 38.90855916666667, "type": "electric_scooter", "lon": -77.05504833333333, "bike_id": "c53d9697b2afbb6e80ca0f6c89fe14de", "rental_uris": {"android": "https://dc.lft.to/lastmile_qr_scan", "ios": "https://dc.lft.to/lastmile_qr_scan"}, "name": "c53d9697b2afbb6e80ca0f6c89fe14de", "is_reserved": 0}, {"is_disabled": 0, "fusion_lon": 0.0, "fusion_lat": 0.0, "lat": 38.902644333333335, "type": "electric_scooter", "lon": -77.0033105, "bike_id": "fe0c9149ae1e5e8e2038df3a07ed54e2", "rental_uris": {"android": "https://dc.lft.to/lastmile_qr_scan", "ios": "https://dc.lft.to/lastmile_qr_scan"}, "name": "fe0c9149ae1e5e8e2038df3a07ed54e2", "is_reserved": 0}, {"is_disabled": 0, "fusion_lon": 0.0, "fusion_lat": 0.0, "lat": 38.88852583333333, "type": "electric_bike", "lon": -76.97702433333333, "bike_id": "5ffaa8166b6aa2071f1521328dfca0a2", "rental_uris": {"android": "https://dc.lft.to/lastmile_qr_scan", "ios": "https://dc.lft.to/lastmile_qr_scan"}, "name": "5ffaa8166b6aa2071f1521328dfca0a2", "is_reserved": 0}, {"is_disabled": 0, "fusion_lon": 0.0, "fusion_lat": 0.0, "lat": 38.887472, "type": "electric_scooter", "lon": -77.01432933333334, "bike_id": "c792b1bf63ab5a26eb48b99e988417e3", "rental_uris": {"android": "https://dc.lft.to/lastmile_qr_scan", "ios": "https://dc.lft.to/lastmile_qr_scan"}, "name": "c792b1bf63ab5a26eb48b99e988417e3", "is_reserved": 0}, {"is_disabled": 0, "fusion_lon": 0.0, "fusion_lat": 0.0, "lat": 38.88439566666667, "type": "electric_scooter", "lon": -77.0296585, "bike_id": "296bbf64609cd98b09afc2c284616bab", "rental_uris": {"android": "https://dc.lft.to/lastmile_qr_scan", "ios": "https://dc.lft.to/lastmile_qr_scan"}, "name": "296bbf64609cd98b09afc2c284616bab", "is_reserved": 0}, {"is_disabled": 0, "fusion_lon": 0.0, "fusion_lat": 0.0, "lat": 38.86958083333333, "type": "electric_scooter", "lon": -76.97935883333334, "bike_id": "4e7b4cfcc4f2297f48fc491c2936f97d", "rental_uris": {"android": "https://dc.lft.to/lastmile_qr_scan", "ios": "https://dc.lft.to/lastmile_qr_scan"}, "name": "4e7b4cfcc4f2297f48fc491c2936f97d", "is_reserved": 0}, {"is_disabled": 0, "fusion_lon": 0.0, "fusion_lat": 0.0, "lat": 38.92553916666667, "type": "electric_scooter", "lon": -77.02565033333333, "bike_id": "93c39b9b13c8f1f4d61095b08d3cb83c", "rental_uris": {"android": "https://dc.lft.to/lastmile_qr_scan", "ios": "https://dc.lft.to/lastmile_qr_scan"}, "name": "93c39b9b13c8f1f4d61095b08d3cb83c", "is_reserved": 0}, {"is_disabled": 0, "fusion_lon": 0.0, "fusion_lat": 0.0, "lat": 38.9180755, "type": "electric_scooter", "lon": -77.02396733333333, "bike_id": "b0238216a91973a74142d9ffe4bb19c2", "rental_uris": {"android": "https://dc.lft.to/lastmile_qr_scan", "ios": "https://dc.lft.to/lastmile_qr_scan"}, "name": "b0238216a91973a74142d9ffe4bb19c2", "is_reserved": 0}, {"is_disabled": 0, "fusion_lon": 0.0, "fusion_lat": 0.0, "lat": 38.92822833333334, "type": "electric_scooter", "lon": -77.02255483333333, "bike_id": "cb9ffbf1328dd93ecf87047d8cf06298", "rental_uris": {"android": "https://dc.lft.to/lastmile_qr_scan", "ios": "https://dc.lft.to/lastmile_qr_scan"}, "name": "cb9ffbf1328dd93ecf87047d8cf06298", "is_reserved": 0}, {"is_disabled": 0, "fusion_lon": 0.0, "fusion_lat": 0.0, "lat": 38.906702, "type": "electric_scooter", "lon": -77.02714733333333, "bike_id": "89bcedcf259555d96ef197316fca1e01", "rental_uris": {"android": "https://dc.lft.to/lastmile_qr_scan", "ios": "https://dc.lft.to/lastmile_qr_scan"}, "name": "89bcedcf259555d96ef197316fca1e01", "is_reserved": 0}, {"is_disabled": 0, "fusion_lon": 0.0, "fusion_lat": 0.0, "lat": 38.91278416666667, "type": "electric_scooter", "lon": -77.01399116666667, "bike_id": "411e5af6c1f307d6d7949085a022257b", "rental_uris": {"android": "https://dc.lft.to/lastmile_qr_scan", "ios": "https://dc.lft.to/lastmile_qr_scan"}, "name": "411e5af6c1f307d6d7949085a022257b", "is_reserved": 0}, {"is_disabled": 0, "fusion_lon": 0.0, "fusion_lat": 0.0, "lat": 38.91875983333333, "type": "electric_scooter", "lon": -77.04422766666667, "bike_id": "7ad612ac56928215300feca86748f334", "rental_uris": {"android": "https://dc.lft.to/lastmile_qr_scan", "ios": "https://dc.lft.to/lastmile_qr_scan"}, "name": "7ad612ac56928215300feca86748f334", "is_reserved": 0}, {"is_disabled": 0, "fusion_lon": 0.0, "fusion_lat": 0.0, "lat": 38.90803916666667, "type": "electric_scooter", "lon": -77.03396316666667, "bike_id": "61821e2ae1635306c4bd910ebeea74a0", "rental_uris": {"android": "https://dc.lft.to/lastmile_qr_scan", "ios": "https://dc.lft.to/lastmile_qr_scan"}, "name": "61821e2ae1635306c4bd910ebeea74a0", "is_reserved": 0}, {"is_disabled": 0, "fusion_lon": 0.0, "fusion_lat": 0.0, "lat": 38.947827333333336, "type": "electric_scooter", "lon": -77.092792, "bike_id": "531f217f890639de322f5432f3e6d8c0", "rental_uris": {"android": "https://dc.lft.to/lastmile_qr_scan", "ios": "https://dc.lft.to/lastmile_qr_scan"}, "name": "531f217f890639de322f5432f3e6d8c0", "is_reserved": 0}, {"is_disabled": 0, "fusion_lon": 0.0, "fusion_lat": 0.0, "lat": 38.90549983333333, "type": "electric_scooter", "lon": -77.04678033333333, "bike_id": "ea89e3ed511a6f7a113980c52a84eabb", "rental_uris": {"android": "https://dc.lft.to/lastmile_qr_scan", "ios": "https://dc.lft.to/lastmile_qr_scan"}, "name": "ea89e3ed511a6f7a113980c52a84eabb", "is_reserved": 0}, {"is_disabled": 0, "fusion_lon": 0.0, "fusion_lat": 0.0, "lat": 38.865851666666664, "type": "electric_scooter", "lon": -76.99031066666667, "bike_id": "4ea5e0dbe3e5a7c2c082ce0d8b1762a8", "rental_uris": {"android": "https://dc.lft.to/lastmile_qr_scan", "ios": "https://dc.lft.to/lastmile_qr_scan"}, "name": "4ea5e0dbe3e5a7c2c082ce0d8b1762a8", "is_reserved": 0}, {"is_disabled": 0, "fusion_lon": 0.0, "fusion_lat": 0.0, "lat": 38.92078583333333, "type": "electric_scooter", "lon": -77.01822783333333, "bike_id": "094f28c36eb991722652e1caf5f33ef8", "rental_uris": {"android": "https://dc.lft.to/lastmile_qr_scan", "ios": "https://dc.lft.to/lastmile_qr_scan"}, "name": "094f28c36eb991722652e1caf5f33ef8", "is_reserved": 0}, {"is_disabled": 0, "fusion_lon": 0.0, "fusion_lat": 0.0, "lat": 38.90181416666667, "type": "electric_scooter", "lon": -76.92824016666667, "bike_id": "4b36c5fad81dd25299add40d8776ee13", "rental_uris": {"android": "https://dc.lft.to/lastmile_qr_scan", "ios": "https://dc.lft.to/lastmile_qr_scan"}, "name": "4b36c5fad81dd25299add40d8776ee13", "is_reserved": 0}, {"is_disabled": 0, "fusion_lon": 0.0, "fusion_lat": 0.0, "lat": 38.9310825, "type": "electric_scooter", "lon": -77.03482316666667, "bike_id": "6fa0f472666437fec0b7f83d37ee7940", "rental_uris": {"android": "https://dc.lft.to/lastmile_qr_scan", "ios": "https://dc.lft.to/lastmile_qr_scan"}, "name": "6fa0f472666437fec0b7f83d37ee7940", "is_reserved": 0}, {"is_disabled": 0, "fusion_lon": 0.0, "fusion_lat": 0.0, "lat": 38.88713283333333, "type": "electric_scooter", "lon": -77.0283635, "bike_id": "afc709b7ce8adb274559a8c6192eb52e", "rental_uris": {"android": "https://dc.lft.to/lastmile_qr_scan", "ios": "https://dc.lft.to/lastmile_qr_scan"}, "name": "afc709b7ce8adb274559a8c6192eb52e", "is_reserved": 0}, {"is_disabled": 0, "fusion_lon": 0.0, "fusion_lat": 0.0, "lat": 38.93206683333333, "type": "electric_scooter", "lon": -77.0365285, "bike_id": "c5c155dbef577e591c90a25a6b1a361e", "rental_uris": {"android": "https://dc.lft.to/lastmile_qr_scan", "ios": "https://dc.lft.to/lastmile_qr_scan"}, "name": "c5c155dbef577e591c90a25a6b1a361e", "is_reserved": 0}, {"is_disabled": 0, "fusion_lon": 0.0, "fusion_lat": 0.0, "lat": 38.9187585, "type": "electric_bike", "lon": -76.96126783333334, "bike_id": "8921492f9d570f2e821f1d27f023b7ac", "rental_uris": {"android": "https://dc.lft.to/lastmile_qr_scan", "ios": "https://dc.lft.to/lastmile_qr_scan"}, "name": "8921492f9d570f2e821f1d27f023b7ac", "is_reserved": 0}, {"is_disabled": 0, "fusion_lon": 0.0, "fusion_lat": 0.0, "lat": 38.896196833333335, "type": "electric_scooter", "lon": -76.99634483333334, "bike_id": "82ad6e1043bd666de0fa1d18f7a5be2b", "rental_uris": {"android": "https://dc.lft.to/lastmile_qr_scan", "ios": "https://dc.lft.to/lastmile_qr_scan"}, "name": "82ad6e1043bd666de0fa1d18f7a5be2b", "is_reserved": 0}, {"is_disabled": 0, "fusion_lon": 0.0, "fusion_lat": 0.0, "lat": 38.907151666666664, "type": "electric_scooter", "lon": -77.027158, "bike_id": "e91e2223e0b88497370f02cea52fef7d", "rental_uris": {"android": "https://dc.lft.to/lastmile_qr_scan", "ios": "https://dc.lft.to/lastmile_qr_scan"}, "name": "e91e2223e0b88497370f02cea52fef7d", "is_reserved": 0}, {"is_disabled": 0, "fusion_lon": 0.0, "fusion_lat": 0.0, "lat": 38.936258333333335, "type": "electric_scooter", "lon": -77.0245705, "bike_id": "210cf99807eb3b40ae1a097e4bf60e04", "rental_uris": {"android": "https://dc.lft.to/lastmile_qr_scan", "ios": "https://dc.lft.to/lastmile_qr_scan"}, "name": "210cf99807eb3b40ae1a097e4bf60e04", "is_reserved": 0}, {"is_disabled": 0, "fusion_lon": 0.0, "fusion_lat": 0.0, "lat": 38.91661333333333, "type": "electric_scooter", "lon": -77.02793683333333, "bike_id": "e27bd614fed920b61f6cd7db427e89b3", "rental_uris": {"android": "https://dc.lft.to/lastmile_qr_scan", "ios": "https://dc.lft.to/lastmile_qr_scan"}, "name": "e27bd614fed920b61f6cd7db427e89b3", "is_reserved": 0}, {"is_disabled": 0, "fusion_lon": 0.0, "fusion_lat": 0.0, "lat": 38.84507216666667, "type": "electric_bike", "lon": -76.97212266666666, "bike_id": "b05646d409cbdb9790e95e46d0e7e37d", "rental_uris": {"android": "https://dc.lft.to/lastmile_qr_scan", "ios": "https://dc.lft.to/lastmile_qr_scan"}, "name": "b05646d409cbdb9790e95e46d0e7e37d", "is_reserved": 0}, {"is_disabled": 0, "fusion_lon": 0.0, "fusion_lat": 0.0, "lat": 38.91758883333333, "type": "electric_scooter", "lon": -77.03588583333334, "bike_id": "100de0dfb7cdd3e561978e889b567c38", "rental_uris": {"android": "https://dc.lft.to/lastmile_qr_scan", "ios": "https://dc.lft.to/lastmile_qr_scan"}, "name": "100de0dfb7cdd3e561978e889b567c38", "is_reserved": 0}, {"is_disabled": 0, "fusion_lon": 0.0, "fusion_lat": 0.0, "lat": 38.918648833333336, "type": "electric_scooter", "lon": -77.03217866666667, "bike_id": "420486fddb62f529303ef80e8ba6e6b7", "rental_uris": {"android": "https://dc.lft.to/lastmile_qr_scan", "ios": "https://dc.lft.to/lastmile_qr_scan"}, "name": "420486fddb62f529303ef80e8ba6e6b7", "is_reserved": 0}, {"is_disabled": 0, "fusion_lon": 0.0, "fusion_lat": 0.0, "lat": 38.93590416666667, "type": "electric_bike", "lon": -77.08248066666667, "bike_id": "110d8a06b2b7955f5155dcd839becaa4", "rental_uris": {"android": "https://dc.lft.to/lastmile_qr_scan", "ios": "https://dc.lft.to/lastmile_qr_scan"}, "name": "110d8a06b2b7955f5155dcd839becaa4", "is_reserved": 0}, {"is_disabled": 0, "fusion_lon": 0.0, "fusion_lat": 0.0, "lat": 38.97542, "type": "electric_bike", "lon": -76.99531583333334, "bike_id": "f29d00813281b98280713f5b6b9b25d0", "rental_uris": {"android": "https://dc.lft.to/lastmile_qr_scan", "ios": "https://dc.lft.to/lastmile_qr_scan"}, "name": "f29d00813281b98280713f5b6b9b25d0", "is_reserved": 0}, {"is_disabled": 0, "fusion_lon": 0.0, "fusion_lat": 0.0, "lat": 38.86907183333334, "type": "electric_bike", "lon": -77.13177233333333, "bike_id": "7e31cf727b377a8f003022e4efca7e46", "rental_uris": {"android": "https://dc.lft.to/lastmile_qr_scan", "ios": "https://dc.lft.to/lastmile_qr_scan"}, "name": "7e31cf727b377a8f003022e4efca7e46", "is_reserved": 0}, {"is_disabled": 0, "fusion_lon": 0.0, "fusion_lat": 0.0, "lat": 38.908405, "type": "electric_scooter", "lon": -77.02694716666667, "bike_id": "69c6ca8a3550d28c3d5d8f20cb0e2c80", "rental_uris": {"android": "https://dc.lft.to/lastmile_qr_scan", "ios": "https://dc.lft.to/lastmile_qr_scan"}, "name": "69c6ca8a3550d28c3d5d8f20cb0e2c80", "is_reserved": 0}, {"is_disabled": 0, "fusion_lon": 0.0, "fusion_lat": 0.0, "lat": 38.92287983333333, "type": "electric_scooter", "lon": -77.04231516666667, "bike_id": "8e7b627082cb70472ce8721fc547bc3d", "rental_uris": {"android": "https://dc.lft.to/lastmile_qr_scan", "ios": "https://dc.lft.to/lastmile_qr_scan"}, "name": "8e7b627082cb70472ce8721fc547bc3d", "is_reserved": 0}, {"is_disabled": 0, "fusion_lon": 0.0, "fusion_lat": 0.0, "lat": 38.9110225, "type": "electric_scooter", "lon": -77.003371, "bike_id": "5e007791d56ad78e9b0af917b406c50d", "rental_uris": {"android": "https://dc.lft.to/lastmile_qr_scan", "ios": "https://dc.lft.to/lastmile_qr_scan"}, "name": "5e007791d56ad78e9b0af917b406c50d", "is_reserved": 0}, {"is_disabled": 0, "fusion_lon": 0.0, "fusion_lat": 0.0, "lat": 38.91270266666667, "type": "electric_scooter", "lon": -77.02219016666666, "bike_id": "6e05ce9ec4a5ce0a1148395b930ab7b9", "rental_uris": {"android": "https://dc.lft.to/lastmile_qr_scan", "ios": "https://dc.lft.to/lastmile_qr_scan"}, "name": "6e05ce9ec4a5ce0a1148395b930ab7b9", "is_reserved": 0}, {"is_disabled": 0, "fusion_lon": 0.0, "fusion_lat": 0.0, "lat": 38.90036516666667, "type": "electric_scooter", "lon": -77.00192283333334, "bike_id": "14f5791f8eba325fb983c778c6d7cf41", "rental_uris": {"android": "https://dc.lft.to/lastmile_qr_scan", "ios": "https://dc.lft.to/lastmile_qr_scan"}, "name": "14f5791f8eba325fb983c778c6d7cf41", "is_reserved": 0}, {"is_disabled": 0, "fusion_lon": 0.0, "fusion_lat": 0.0, "lat": 38.901294166666666, "type": "electric_scooter", "lon": -77.01966333333333, "bike_id": "386d3e6d29ef30429df42e884d637903", "rental_uris": {"android": "https://dc.lft.to/lastmile_qr_scan", "ios": "https://dc.lft.to/lastmile_qr_scan"}, "name": "386d3e6d29ef30429df42e884d637903", "is_reserved": 0}, {"is_disabled": 0, "fusion_lon": 0.0, "fusion_lat": 0.0, "lat": 38.93564966666667, "type": "electric_scooter", "lon": -77.02214116666667, "bike_id": "596340788d95c6818b7afcea393a6ccb", "rental_uris": {"android": "https://dc.lft.to/lastmile_qr_scan", "ios": "https://dc.lft.to/lastmile_qr_scan"}, "name": "596340788d95c6818b7afcea393a6ccb", "is_reserved": 0}, {"is_disabled": 0, "fusion_lon": 0.0, "fusion_lat": 0.0, "lat": 38.93492416666667, "type": "electric_scooter", "lon": -77.03432133333334, "bike_id": "7355754273691ed4c1ba765aa3f273ca", "rental_uris": {"android": "https://dc.lft.to/lastmile_qr_scan", "ios": "https://dc.lft.to/lastmile_qr_scan"}, "name": "7355754273691ed4c1ba765aa3f273ca", "is_reserved": 0}, {"is_disabled": 0, "fusion_lon": 0.0, "fusion_lat": 0.0, "lat": 38.924625, "type": "electric_scooter", "lon": -77.02965133333333, "bike_id": "10f6fe0eda585a4f14a01a172b929c26", "rental_uris": {"android": "https://dc.lft.to/lastmile_qr_scan", "ios": "https://dc.lft.to/lastmile_qr_scan"}, "name": "10f6fe0eda585a4f14a01a172b929c26", "is_reserved": 0}, {"is_disabled": 0, "fusion_lon": 0.0, "fusion_lat": 0.0, "lat": 38.919873, "type": "electric_bike", "lon": -76.97312316666667, "bike_id": "f0a97ab10b053bb05f47da6d15cd1106", "rental_uris": {"android": "https://dc.lft.to/lastmile_qr_scan", "ios": "https://dc.lft.to/lastmile_qr_scan"}, "name": "f0a97ab10b053bb05f47da6d15cd1106", "is_reserved": 0}, {"is_disabled": 0, "fusion_lon": 0.0, "fusion_lat": 0.0, "lat": 38.9784285, "type": "electric_bike", "lon": -77.0912155, "bike_id": "1259e4eda3f2248eda4de3d5b98c18e1", "rental_uris": {"android": "https://dc.lft.to/lastmile_qr_scan", "ios": "https://dc.lft.to/lastmile_qr_scan"}, "name": "1259e4eda3f2248eda4de3d5b98c18e1", "is_reserved": 0}, {"is_disabled": 0, "fusion_lon": 0.0, "fusion_lat": 0.0, "lat": 38.904007666666665, "type": "electric_scooter", "lon": -77.03263433333333, "bike_id": "a88620dbdb3049e293cea8ccdd7c6aa7", "rental_uris": {"android": "https://dc.lft.to/lastmile_qr_scan", "ios": "https://dc.lft.to/lastmile_qr_scan"}, "name": "a88620dbdb3049e293cea8ccdd7c6aa7", "is_reserved": 0}, {"is_disabled": 0, "fusion_lon": 0.0, "fusion_lat": 0.0, "lat": 38.8963295, "type": "electric_scooter", "lon": -77.00897783333333, "bike_id": "8eba700e31d3328ef8fd02941061feae", "rental_uris": {"android": "https://dc.lft.to/lastmile_qr_scan", "ios": "https://dc.lft.to/lastmile_qr_scan"}, "name": "8eba700e31d3328ef8fd02941061feae", "is_reserved": 0}, {"is_disabled": 0, "fusion_lon": 0.0, "fusion_lat": 0.0, "lat": 38.89732883333333, "type": "electric_scooter", "lon": -77.02156583333333, "bike_id": "e1a0973acd164ed844e6c19c3b92ad3d", "rental_uris": {"android": "https://dc.lft.to/lastmile_qr_scan", "ios": "https://dc.lft.to/lastmile_qr_scan"}, "name": "e1a0973acd164ed844e6c19c3b92ad3d", "is_reserved": 0}, {"is_disabled": 0, "fusion_lon": 0.0, "fusion_lat": 0.0, "lat": 38.915901, "type": "electric_bike", "lon": -76.9715065, "bike_id": "3d74905941f66fe87eae3e436d1a0781", "rental_uris": {"android": "https://dc.lft.to/lastmile_qr_scan", "ios": "https://dc.lft.to/lastmile_qr_scan"}, "name": "3d74905941f66fe87eae3e436d1a0781", "is_reserved": 0}, {"is_disabled": 0, "fusion_lon": 0.0, "fusion_lat": 0.0, "lat": 38.93004033333333, "type": "electric_scooter", "lon": -77.02202016666666, "bike_id": "ec6cebcd42b70ae2897d90f831df9ae1", "rental_uris": {"android": "https://dc.lft.to/lastmile_qr_scan", "ios": "https://dc.lft.to/lastmile_qr_scan"}, "name": "ec6cebcd42b70ae2897d90f831df9ae1", "is_reserved": 0}, {"is_disabled": 0, "fusion_lon": 0.0, "fusion_lat": 0.0, "lat": 38.93376833333333, "type": "electric_scooter", "lon": -77.07248383333334, "bike_id": "86d421a33af71922b1e0cb062f64b064", "rental_uris": {"android": "https://dc.lft.to/lastmile_qr_scan", "ios": "https://dc.lft.to/lastmile_qr_scan"}, "name": "86d421a33af71922b1e0cb062f64b064", "is_reserved": 0}, {"is_disabled": 0, "fusion_lon": 0.0, "fusion_lat": 0.0, "lat": 38.92285866666667, "type": "electric_bike", "lon": -76.99774383333333, "bike_id": "65f6008485f76ec446786ec2366768cd", "rental_uris": {"android": "https://dc.lft.to/lastmile_qr_scan", "ios": "https://dc.lft.to/lastmile_qr_scan"}, "name": "65f6008485f76ec446786ec2366768cd", "is_reserved": 0}, {"is_disabled": 0, "fusion_lon": 0.0, "fusion_lat": 0.0, "lat": 38.903884833333336, "type": "electric_scooter", "lon": -77.04872566666667, "bike_id": "9994a0e930caefdedec2a4b6a7cd805c", "rental_uris": {"android": "https://dc.lft.to/lastmile_qr_scan", "ios": "https://dc.lft.to/lastmile_qr_scan"}, "name": "9994a0e930caefdedec2a4b6a7cd805c", "is_reserved": 0}, {"is_disabled": 0, "fusion_lon": 0.0, "fusion_lat": 0.0, "lat": 38.889882166666666, "type": "electric_scooter", "lon": -77.00246166666666, "bike_id": "6a9addf323a3628a366316aed5d1e163", "rental_uris": {"android": "https://dc.lft.to/lastmile_qr_scan", "ios": "https://dc.lft.to/lastmile_qr_scan"}, "name": "6a9addf323a3628a366316aed5d1e163", "is_reserved": 0}, {"is_disabled": 0, "fusion_lon": 0.0, "fusion_lat": 0.0, "lat": 38.90638783333333, "type": "electric_scooter", "lon": -76.98570816666667, "bike_id": "4806e6eb7f63632a0e34d97bacaacabe", "rental_uris": {"android": "https://dc.lft.to/lastmile_qr_scan", "ios": "https://dc.lft.to/lastmile_qr_scan"}, "name": "4806e6eb7f63632a0e34d97bacaacabe", "is_reserved": 0}, {"is_disabled": 0, "fusion_lon": 0.0, "fusion_lat": 0.0, "lat": 38.90137433333334, "type": "electric_scooter", "lon": -76.98968533333333, "bike_id": "9d137bbeb956091e66dbdfbf9a9e1013", "rental_uris": {"android": "https://dc.lft.to/lastmile_qr_scan", "ios": "https://dc.lft.to/lastmile_qr_scan"}, "name": "9d137bbeb956091e66dbdfbf9a9e1013", "is_reserved": 0}, {"is_disabled": 0, "fusion_lon": 0.0, "fusion_lat": 0.0, "lat": 38.92340733333333, "type": "electric_scooter", "lon": -77.03511933333333, "bike_id": "3809810d545901dc412a7579b9e891ff", "rental_uris": {"android": "https://dc.lft.to/lastmile_qr_scan", "ios": "https://dc.lft.to/lastmile_qr_scan"}, "name": "3809810d545901dc412a7579b9e891ff", "is_reserved": 0}, {"is_disabled": 0, "fusion_lon": 0.0, "fusion_lat": 0.0, "lat": 38.917188833333334, "type": "electric_scooter", "lon": -77.098097, "bike_id": "b42d48a3d89c2d182d442fa5f883ef12", "rental_uris": {"android": "https://dc.lft.to/lastmile_qr_scan", "ios": "https://dc.lft.to/lastmile_qr_scan"}, "name": "b42d48a3d89c2d182d442fa5f883ef12", "is_reserved": 0}, {"is_disabled": 0, "fusion_lon": 0.0, "fusion_lat": 0.0, "lat": 38.914184, "type": "electric_scooter", "lon": -77.04281333333333, "bike_id": "1accc8fc92dc33a399449348b9547eb2", "rental_uris": {"android": "https://dc.lft.to/lastmile_qr_scan", "ios": "https://dc.lft.to/lastmile_qr_scan"}, "name": "1accc8fc92dc33a399449348b9547eb2", "is_reserved": 0}, {"is_disabled": 0, "fusion_lon": 0.0, "fusion_lat": 0.0, "lat": 38.921593666666666, "type": "electric_scooter", "lon": -77.0339255, "bike_id": "9a87e85448a0435d972f89c29f8b8cf1", "rental_uris": {"android": "https://dc.lft.to/lastmile_qr_scan", "ios": "https://dc.lft.to/lastmile_qr_scan"}, "name": "9a87e85448a0435d972f89c29f8b8cf1", "is_reserved": 0}, {"is_disabled": 0, "fusion_lon": 0.0, "fusion_lat": 0.0, "lat": 39.026885666666665, "type": "electric_bike", "lon": -77.1259765, "bike_id": "2403607b39415d41254bedafa0fe3483", "rental_uris": {"android": "https://dc.lft.to/lastmile_qr_scan", "ios": "https://dc.lft.to/lastmile_qr_scan"}, "name": "2403607b39415d41254bedafa0fe3483", "is_reserved": 0}, {"is_disabled": 0, "fusion_lon": 0.0, "fusion_lat": 0.0, "lat": 38.91581083333333, "type": "electric_scooter", "lon": -76.98111666666667, "bike_id": "b9097174e4b83cd54ae1d25ab653373e", "rental_uris": {"android": "https://dc.lft.to/lastmile_qr_scan", "ios": "https://dc.lft.to/lastmile_qr_scan"}, "name": "b9097174e4b83cd54ae1d25ab653373e", "is_reserved": 0}, {"is_disabled": 0, "fusion_lon": 0.0, "fusion_lat": 0.0, "lat": 38.858101833333336, "type": "electric_scooter", "lon": -76.98654016666667, "bike_id": "891cb6d27ef582fffc574f775c62d9fa", "rental_uris": {"android": "https://dc.lft.to/lastmile_qr_scan", "ios": "https://dc.lft.to/lastmile_qr_scan"}, "name": "891cb6d27ef582fffc574f775c62d9fa", "is_reserved": 0}, {"is_disabled": 0, "fusion_lon": 0.0, "fusion_lat": 0.0, "lat": 38.99879983333334, "type": "electric_bike", "lon": -77.0286865, "bike_id": "4f39e2ec4789e8f00895a6988a0f5906", "rental_uris": {"android": "https://dc.lft.to/lastmile_qr_scan", "ios": "https://dc.lft.to/lastmile_qr_scan"}, "name": "4f39e2ec4789e8f00895a6988a0f5906", "is_reserved": 0}, {"is_disabled": 0, "fusion_lon": 0.0, "fusion_lat": 0.0, "lat": 38.928065333333336, "type": "electric_scooter", "lon": -77.01417416666666, "bike_id": "027b694be1f954bcf02ebf12846e7cae", "rental_uris": {"android": "https://dc.lft.to/lastmile_qr_scan", "ios": "https://dc.lft.to/lastmile_qr_scan"}, "name": "027b694be1f954bcf02ebf12846e7cae", "is_reserved": 0}, {"is_disabled": 0, "fusion_lon": 0.0, "fusion_lat": 0.0, "lat": 38.86316816666667, "type": "electric_scooter", "lon": -76.99040933333333, "bike_id": "2b3391fbb16e094129167bddf840fde8", "rental_uris": {"android": "https://dc.lft.to/lastmile_qr_scan", "ios": "https://dc.lft.to/lastmile_qr_scan"}, "name": "2b3391fbb16e094129167bddf840fde8", "is_reserved": 0}, {"is_disabled": 0, "fusion_lon": 0.0, "fusion_lat": 0.0, "lat": 38.9247815, "type": "electric_scooter", "lon": -77.03494166666667, "bike_id": "a4f4c874a779304a3350a6da029dff41", "rental_uris": {"android": "https://dc.lft.to/lastmile_qr_scan", "ios": "https://dc.lft.to/lastmile_qr_scan"}, "name": "a4f4c874a779304a3350a6da029dff41", "is_reserved": 0}, {"is_disabled": 0, "fusion_lon": 0.0, "fusion_lat": 0.0, "lat": 38.84601683333333, "type": "electric_bike", "lon": -76.96881516666667, "bike_id": "951f354f2562ad5c9d2ebec7ce5ddc04", "rental_uris": {"android": "https://dc.lft.to/lastmile_qr_scan", "ios": "https://dc.lft.to/lastmile_qr_scan"}, "name": "951f354f2562ad5c9d2ebec7ce5ddc04", "is_reserved": 0}, {"is_disabled": 0, "fusion_lon": 0.0, "fusion_lat": 0.0, "lat": 38.89367766666667, "type": "electric_scooter", "lon": -77.02263566666667, "bike_id": "31448b34e3cf53bce52a17b92777c49d", "rental_uris": {"android": "https://dc.lft.to/lastmile_qr_scan", "ios": "https://dc.lft.to/lastmile_qr_scan"}, "name": "31448b34e3cf53bce52a17b92777c49d", "is_reserved": 0}, {"is_disabled": 0, "fusion_lon": 0.0, "fusion_lat": 0.0, "lat": 38.96762433333333, "type": "electric_bike", "lon": -77.0916025, "bike_id": "645364ddb524a8f448c80d131264b95d", "rental_uris": {"android": "https://dc.lft.to/lastmile_qr_scan", "ios": "https://dc.lft.to/lastmile_qr_scan"}, "name": "645364ddb524a8f448c80d131264b95d", "is_reserved": 0}, {"is_disabled": 0, "fusion_lon": 0.0, "fusion_lat": 0.0, "lat": 38.9171185, "type": "electric_scooter", "lon": -77.03474983333334, "bike_id": "9888d234d3e5e0f7bf483ae5734c1949", "rental_uris": {"android": "https://dc.lft.to/lastmile_qr_scan", "ios": "https://dc.lft.to/lastmile_qr_scan"}, "name": "9888d234d3e5e0f7bf483ae5734c1949", "is_reserved": 0}, {"is_disabled": 0, "fusion_lon": 0.0, "fusion_lat": 0.0, "lat": 38.919604, "type": "electric_scooter", "lon": -77.02395083333333, "bike_id": "548cbdeeb45335b5977e978ec147a450", "rental_uris": {"android": "https://dc.lft.to/lastmile_qr_scan", "ios": "https://dc.lft.to/lastmile_qr_scan"}, "name": "548cbdeeb45335b5977e978ec147a450", "is_reserved": 0}, {"is_disabled": 0, "fusion_lon": 0.0, "fusion_lat": 0.0, "lat": 38.842028666666664, "type": "electric_bike", "lon": -77.10686766666667, "bike_id": "438490a61398e451c06629d7c4af4a81", "rental_uris": {"android": "https://dc.lft.to/lastmile_qr_scan", "ios": "https://dc.lft.to/lastmile_qr_scan"}, "name": "438490a61398e451c06629d7c4af4a81", "is_reserved": 0}, {"is_disabled": 0, "fusion_lon": 0.0, "fusion_lat": 0.0, "lat": 38.8646795, "type": "electric_scooter", "lon": -76.99609266666667, "bike_id": "1d40bc90a937353e9517e2e4e42a62b2", "rental_uris": {"android": "https://dc.lft.to/lastmile_qr_scan", "ios": "https://dc.lft.to/lastmile_qr_scan"}, "name": "1d40bc90a937353e9517e2e4e42a62b2", "is_reserved": 0}, {"is_disabled": 0, "fusion_lon": 0.0, "fusion_lat": 0.0, "lat": 38.87498033333333, "type": "electric_scooter", "lon": -76.997974, "bike_id": "3e7badb592ca95a22328d230c8ecfa79", "rental_uris": {"android": "https://dc.lft.to/lastmile_qr_scan", "ios": "https://dc.lft.to/lastmile_qr_scan"}, "name": "3e7badb592ca95a22328d230c8ecfa79", "is_reserved": 0}, {"is_disabled": 0, "fusion_lon": 0.0, "fusion_lat": 0.0, "lat": 38.921403166666664, "type": "electric_scooter", "lon": -77.00916466666666, "bike_id": "60df6c73ccd6a45f07dea7373cd3b748", "rental_uris": {"android": "https://dc.lft.to/lastmile_qr_scan", "ios": "https://dc.lft.to/lastmile_qr_scan"}, "name": "60df6c73ccd6a45f07dea7373cd3b748", "is_reserved": 0}, {"is_disabled": 0, "fusion_lon": 0.0, "fusion_lat": 0.0, "lat": 38.90730166666667, "type": "electric_scooter", "lon": -77.0241985, "bike_id": "0152b4157e9772efe21f829f802ab1e5", "rental_uris": {"android": "https://dc.lft.to/lastmile_qr_scan", "ios": "https://dc.lft.to/lastmile_qr_scan"}, "name": "0152b4157e9772efe21f829f802ab1e5", "is_reserved": 0}, {"is_disabled": 0, "fusion_lon": 0.0, "fusion_lat": 0.0, "lat": 38.919283, "type": "electric_scooter", "lon": -77.044643, "bike_id": "e1c2c60a8494d03727879fd7715aa654", "rental_uris": {"android": "https://dc.lft.to/lastmile_qr_scan", "ios": "https://dc.lft.to/lastmile_qr_scan"}, "name": "e1c2c60a8494d03727879fd7715aa654", "is_reserved": 0}, {"is_disabled": 0, "fusion_lon": 0.0, "fusion_lat": 0.0, "lat": 38.930999666666665, "type": "electric_scooter", "lon": -77.02458416666667, "bike_id": "0c582ad7708d953db0c34f390ca36078", "rental_uris": {"android": "https://dc.lft.to/lastmile_qr_scan", "ios": "https://dc.lft.to/lastmile_qr_scan"}, "name": "0c582ad7708d953db0c34f390ca36078", "is_reserved": 0}, {"is_disabled": 0, "fusion_lon": 0.0, "fusion_lat": 0.0, "lat": 38.9134455, "type": "electric_scooter", "lon": -77.04222383333334, "bike_id": "ee36ea7a344ef0cf09a55c27374c3870", "rental_uris": {"android": "https://dc.lft.to/lastmile_qr_scan", "ios": "https://dc.lft.to/lastmile_qr_scan"}, "name": "ee36ea7a344ef0cf09a55c27374c3870", "is_reserved": 0}, {"is_disabled": 0, "fusion_lon": 0.0, "fusion_lat": 0.0, "lat": 38.887202, "type": "electric_scooter", "lon": -77.02204666666667, "bike_id": "f29d44259e9e2fa0e7a6ede5cca567a1", "rental_uris": {"android": "https://dc.lft.to/lastmile_qr_scan", "ios": "https://dc.lft.to/lastmile_qr_scan"}, "name": "f29d44259e9e2fa0e7a6ede5cca567a1", "is_reserved": 0}, {"is_disabled": 0, "fusion_lon": 0.0, "fusion_lat": 0.0, "lat": 38.929232, "type": "electric_scooter", "lon": -77.0214445, "bike_id": "da2816256b33655c4a473dcceccec824", "rental_uris": {"android": "https://dc.lft.to/lastmile_qr_scan", "ios": "https://dc.lft.to/lastmile_qr_scan"}, "name": "da2816256b33655c4a473dcceccec824", "is_reserved": 0}, {"is_disabled": 0, "fusion_lon": 0.0, "fusion_lat": 0.0, "lat": 38.902558166666665, "type": "electric_scooter", "lon": -77.00015316666666, "bike_id": "78d0d24384ac0f9233439f8e769cadaa", "rental_uris": {"android": "https://dc.lft.to/lastmile_qr_scan", "ios": "https://dc.lft.to/lastmile_qr_scan"}, "name": "78d0d24384ac0f9233439f8e769cadaa", "is_reserved": 0}, {"is_disabled": 0, "fusion_lon": 0.0, "fusion_lat": 0.0, "lat": 38.93530483333333, "type": "electric_scooter", "lon": -77.02069366666667, "bike_id": "f392a439c2923bbb34e73b2deac9710a", "rental_uris": {"android": "https://dc.lft.to/lastmile_qr_scan", "ios": "https://dc.lft.to/lastmile_qr_scan"}, "name": "f392a439c2923bbb34e73b2deac9710a", "is_reserved": 0}, {"is_disabled": 0, "fusion_lon": 0.0, "fusion_lat": 0.0, "lat": 38.919235666666665, "type": "electric_scooter", "lon": -77.0240035, "bike_id": "e2fbf5931c61656f3cd97edf0b6bcc84", "rental_uris": {"android": "https://dc.lft.to/lastmile_qr_scan", "ios": "https://dc.lft.to/lastmile_qr_scan"}, "name": "e2fbf5931c61656f3cd97edf0b6bcc84", "is_reserved": 0}, {"is_disabled": 0, "fusion_lon": 0.0, "fusion_lat": 0.0, "lat": 39.000029166666664, "type": "electric_bike", "lon": -76.91801033333333, "bike_id": "fe8ef79b55e35a999b169f02b059d3c2", "rental_uris": {"android": "https://dc.lft.to/lastmile_qr_scan", "ios": "https://dc.lft.to/lastmile_qr_scan"}, "name": "fe8ef79b55e35a999b169f02b059d3c2", "is_reserved": 0}, {"is_disabled": 0, "fusion_lon": 0.0, "fusion_lat": 0.0, "lat": 38.924529666666665, "type": "electric_scooter", "lon": -76.9990255, "bike_id": "1f21abafb9c31456703b794df076c15a", "rental_uris": {"android": "https://dc.lft.to/lastmile_qr_scan", "ios": "https://dc.lft.to/lastmile_qr_scan"}, "name": "1f21abafb9c31456703b794df076c15a", "is_reserved": 0}, {"is_disabled": 0, "fusion_lon": 0.0, "fusion_lat": 0.0, "lat": 38.94197, "type": "electric_scooter", "lon": -77.025766, "bike_id": "c3767b086093dbfda66f2179631051a2", "rental_uris": {"android": "https://dc.lft.to/lastmile_qr_scan", "ios": "https://dc.lft.to/lastmile_qr_scan"}, "name": "c3767b086093dbfda66f2179631051a2", "is_reserved": 0}, {"is_disabled": 0, "fusion_lon": 0.0, "fusion_lat": 0.0, "lat": 38.914113666666665, "type": "electric_scooter", "lon": -77.04331483333333, "bike_id": "59b66740a7d2d3a3f0b14c30e6eed4e8", "rental_uris": {"android": "https://dc.lft.to/lastmile_qr_scan", "ios": "https://dc.lft.to/lastmile_qr_scan"}, "name": "59b66740a7d2d3a3f0b14c30e6eed4e8", "is_reserved": 0}, {"is_disabled": 0, "fusion_lon": 0.0, "fusion_lat": 0.0, "lat": 38.9497455, "type": "electric_scooter", "lon": -77.06763016666666, "bike_id": "6b2e525f2bcf44883cb8f57488e13d0e", "rental_uris": {"android": "https://dc.lft.to/lastmile_qr_scan", "ios": "https://dc.lft.to/lastmile_qr_scan"}, "name": "6b2e525f2bcf44883cb8f57488e13d0e", "is_reserved": 0}, {"is_disabled": 0, "fusion_lon": 0.0, "fusion_lat": 0.0, "lat": 38.93328116666667, "type": "electric_scooter", "lon": -77.02931183333334, "bike_id": "733dc87dcf7507d05d4e9958545eaf82", "rental_uris": {"android": "https://dc.lft.to/lastmile_qr_scan", "ios": "https://dc.lft.to/lastmile_qr_scan"}, "name": "733dc87dcf7507d05d4e9958545eaf82", "is_reserved": 0}, {"is_disabled": 0, "fusion_lon": 0.0, "fusion_lat": 0.0, "lat": 38.9683165, "type": "electric_scooter", "lon": -77.015157, "bike_id": "ecac1d4623e23cbdc7bbb293c39e06a2", "rental_uris": {"android": "https://dc.lft.to/lastmile_qr_scan", "ios": "https://dc.lft.to/lastmile_qr_scan"}, "name": "ecac1d4623e23cbdc7bbb293c39e06a2", "is_reserved": 0}, {"is_disabled": 0, "fusion_lon": 0.0, "fusion_lat": 0.0, "lat": 38.924072, "type": "electric_scooter", "lon": -77.05166916666667, "bike_id": "6b7892f5ecb934ba75780bf6c44c7b24", "rental_uris": {"android": "https://dc.lft.to/lastmile_qr_scan", "ios": "https://dc.lft.to/lastmile_qr_scan"}, "name": "6b7892f5ecb934ba75780bf6c44c7b24", "is_reserved": 0}, {"is_disabled": 0, "fusion_lon": 0.0, "fusion_lat": 0.0, "lat": 38.938614, "type": "electric_scooter", "lon": -77.02652283333333, "bike_id": "447b0e8a8d6cedb87a05da6971f515b1", "rental_uris": {"android": "https://dc.lft.to/lastmile_qr_scan", "ios": "https://dc.lft.to/lastmile_qr_scan"}, "name": "447b0e8a8d6cedb87a05da6971f515b1", "is_reserved": 0}, {"is_disabled": 0, "fusion_lon": 0.0, "fusion_lat": 0.0, "lat": 38.892383, "type": "electric_bike", "lon": -76.95219833333333, "bike_id": "c474c33d67291bb586c2442ce9a87040", "rental_uris": {"android": "https://dc.lft.to/lastmile_qr_scan", "ios": "https://dc.lft.to/lastmile_qr_scan"}, "name": "c474c33d67291bb586c2442ce9a87040", "is_reserved": 0}, {"is_disabled": 0, "fusion_lon": 0.0, "fusion_lat": 0.0, "lat": 38.917995166666664, "type": "electric_scooter", "lon": -77.04016116666666, "bike_id": "5059d5cecad6079d3b29b882cee520cf", "rental_uris": {"android": "https://dc.lft.to/lastmile_qr_scan", "ios": "https://dc.lft.to/lastmile_qr_scan"}, "name": "5059d5cecad6079d3b29b882cee520cf", "is_reserved": 0}, {"is_disabled": 0, "fusion_lon": 0.0, "fusion_lat": 0.0, "lat": 38.90856, "type": "electric_scooter", "lon": -77.07157916666667, "bike_id": "f32326269681f97309027a4d387f23ea", "rental_uris": {"android": "https://dc.lft.to/lastmile_qr_scan", "ios": "https://dc.lft.to/lastmile_qr_scan"}, "name": "f32326269681f97309027a4d387f23ea", "is_reserved": 0}, {"is_disabled": 0, "fusion_lon": 0.0, "fusion_lat": 0.0, "lat": 38.925936166666666, "type": "electric_bike", "lon": -76.88910666666666, "bike_id": "5efb85d3eec7afe280ba0800d6cdf59a", "rental_uris": {"android": "https://dc.lft.to/lastmile_qr_scan", "ios": "https://dc.lft.to/lastmile_qr_scan"}, "name": "5efb85d3eec7afe280ba0800d6cdf59a", "is_reserved": 0}, {"is_disabled": 0, "fusion_lon": 0.0, "fusion_lat": 0.0, "lat": 38.872914, "type": "electric_scooter", "lon": -76.97724916666667, "bike_id": "823a67dc5dae08dc51eb6bf59c8c3504", "rental_uris": {"android": "https://dc.lft.to/lastmile_qr_scan", "ios": "https://dc.lft.to/lastmile_qr_scan"}, "name": "823a67dc5dae08dc51eb6bf59c8c3504", "is_reserved": 0}, {"is_disabled": 0, "fusion_lon": 0.0, "fusion_lat": 0.0, "lat": 38.95415083333333, "type": "electric_scooter", "lon": -77.02846966666667, "bike_id": "f24eab64bbc765c4bbc3fbdd68e4abae", "rental_uris": {"android": "https://dc.lft.to/lastmile_qr_scan", "ios": "https://dc.lft.to/lastmile_qr_scan"}, "name": "f24eab64bbc765c4bbc3fbdd68e4abae", "is_reserved": 0}, {"is_disabled": 0, "fusion_lon": 0.0, "fusion_lat": 0.0, "lat": 38.97675733333333, "type": "electric_bike", "lon": -76.971695, "bike_id": "060f72c9bac1df5d478287155b480c6d", "rental_uris": {"android": "https://dc.lft.to/lastmile_qr_scan", "ios": "https://dc.lft.to/lastmile_qr_scan"}, "name": "060f72c9bac1df5d478287155b480c6d", "is_reserved": 0}, {"is_disabled": 0, "fusion_lon": 0.0, "fusion_lat": 0.0, "lat": 38.93633666666667, "type": "electric_scooter", "lon": -77.0366335, "bike_id": "b3be5c1fe6c70ef70493528307d64337", "rental_uris": {"android": "https://dc.lft.to/lastmile_qr_scan", "ios": "https://dc.lft.to/lastmile_qr_scan"}, "name": "b3be5c1fe6c70ef70493528307d64337", "is_reserved": 0}, {"is_disabled": 0, "fusion_lon": 0.0, "fusion_lat": 0.0, "lat": 38.9244395, "type": "electric_bike", "lon": -76.96836033333334, "bike_id": "9e1c2a8beaf26f89d236a8ad3865bc01", "rental_uris": {"android": "https://dc.lft.to/lastmile_qr_scan", "ios": "https://dc.lft.to/lastmile_qr_scan"}, "name": "9e1c2a8beaf26f89d236a8ad3865bc01", "is_reserved": 0}, {"is_disabled": 0, "fusion_lon": 0.0, "fusion_lat": 0.0, "lat": 38.8937435, "type": "electric_scooter", "lon": -76.9499595, "bike_id": "73e01c2ae6d10e67cc9c40346ae84af4", "rental_uris": {"android": "https://dc.lft.to/lastmile_qr_scan", "ios": "https://dc.lft.to/lastmile_qr_scan"}, "name": "73e01c2ae6d10e67cc9c40346ae84af4", "is_reserved": 0}, {"is_disabled": 0, "fusion_lon": 0.0, "fusion_lat": 0.0, "lat": 39.10565866666666, "type": "electric_bike", "lon": -77.15269316666667, "bike_id": "973ae02890f23516ad29ee473c81305c", "rental_uris": {"android": "https://dc.lft.to/lastmile_qr_scan", "ios": "https://dc.lft.to/lastmile_qr_scan"}, "name": "973ae02890f23516ad29ee473c81305c", "is_reserved": 0}, {"is_disabled": 0, "fusion_lon": 0.0, "fusion_lat": 0.0, "lat": 38.92299716666667, "type": "electric_bike", "lon": -76.99422333333334, "bike_id": "3a9d7b15a21d76a702846b5a24445f32", "rental_uris": {"android": "https://dc.lft.to/lastmile_qr_scan", "ios": "https://dc.lft.to/lastmile_qr_scan"}, "name": "3a9d7b15a21d76a702846b5a24445f32", "is_reserved": 0}, {"is_disabled": 0, "fusion_lon": 0.0, "fusion_lat": 0.0, "lat": 38.919745166666665, "type": "electric_scooter", "lon": -77.00019683333333, "bike_id": "e2799e2e7caa3de3c32b00797a2a2fef", "rental_uris": {"android": "https://dc.lft.to/lastmile_qr_scan", "ios": "https://dc.lft.to/lastmile_qr_scan"}, "name": "e2799e2e7caa3de3c32b00797a2a2fef", "is_reserved": 0}, {"is_disabled": 0, "fusion_lon": 0.0, "fusion_lat": 0.0, "lat": 38.92909983333333, "type": "electric_scooter", "lon": -77.02345733333334, "bike_id": "ee946ec7a160a9e29799dc0a2bda254e", "rental_uris": {"android": "https://dc.lft.to/lastmile_qr_scan", "ios": "https://dc.lft.to/lastmile_qr_scan"}, "name": "ee946ec7a160a9e29799dc0a2bda254e", "is_reserved": 0}, {"is_disabled": 0, "fusion_lon": 0.0, "fusion_lat": 0.0, "lat": 38.92854416666667, "type": "electric_bike", "lon": -77.02073166666666, "bike_id": "789e7b1ffefdeb27f2130c939696ba9b", "rental_uris": {"android": "https://dc.lft.to/lastmile_qr_scan", "ios": "https://dc.lft.to/lastmile_qr_scan"}, "name": "789e7b1ffefdeb27f2130c939696ba9b", "is_reserved": 0}, {"is_disabled": 0, "fusion_lon": 0.0, "fusion_lat": 0.0, "lat": 38.92895333333333, "type": "electric_scooter", "lon": -76.98457566666667, "bike_id": "84b54929cc9fb4f089116a58871c0b74", "rental_uris": {"android": "https://dc.lft.to/lastmile_qr_scan", "ios": "https://dc.lft.to/lastmile_qr_scan"}, "name": "84b54929cc9fb4f089116a58871c0b74", "is_reserved": 0}, {"is_disabled": 0, "fusion_lon": 0.0, "fusion_lat": 0.0, "lat": 38.90274433333333, "type": "electric_scooter", "lon": -77.04251483333333, "bike_id": "97e3411804e439f8d4a94158e21a45c0", "rental_uris": {"android": "https://dc.lft.to/lastmile_qr_scan", "ios": "https://dc.lft.to/lastmile_qr_scan"}, "name": "97e3411804e439f8d4a94158e21a45c0", "is_reserved": 0}, {"is_disabled": 0, "fusion_lon": 0.0, "fusion_lat": 0.0, "lat": 38.909563, "type": "electric_scooter", "lon": -77.02281933333333, "bike_id": "82809664e6ffde1e1263e3ea0e164a4d", "rental_uris": {"android": "https://dc.lft.to/lastmile_qr_scan", "ios": "https://dc.lft.to/lastmile_qr_scan"}, "name": "82809664e6ffde1e1263e3ea0e164a4d", "is_reserved": 0}, {"is_disabled": 0, "fusion_lon": 0.0, "fusion_lat": 0.0, "lat": 38.920249166666665, "type": "electric_scooter", "lon": -77.03875416666666, "bike_id": "f6fe3f9a3fe4c0e9d95204a6f4c9db74", "rental_uris": {"android": "https://dc.lft.to/lastmile_qr_scan", "ios": "https://dc.lft.to/lastmile_qr_scan"}, "name": "f6fe3f9a3fe4c0e9d95204a6f4c9db74", "is_reserved": 0}, {"is_disabled": 0, "fusion_lon": 0.0, "fusion_lat": 0.0, "lat": 38.907004, "type": "electric_scooter", "lon": -77.0269615, "bike_id": "747dde854e6c65cb8863a74e802e1d83", "rental_uris": {"android": "https://dc.lft.to/lastmile_qr_scan", "ios": "https://dc.lft.to/lastmile_qr_scan"}, "name": "747dde854e6c65cb8863a74e802e1d83", "is_reserved": 0}, {"is_disabled": 0, "fusion_lon": 0.0, "fusion_lat": 0.0, "lat": 38.9310175, "type": "electric_scooter", "lon": -77.02455916666666, "bike_id": "b68c0d49dace9f5e69ac5e809eef57c3", "rental_uris": {"android": "https://dc.lft.to/lastmile_qr_scan", "ios": "https://dc.lft.to/lastmile_qr_scan"}, "name": "b68c0d49dace9f5e69ac5e809eef57c3", "is_reserved": 0}, {"is_disabled": 0, "fusion_lon": 0.0, "fusion_lat": 0.0, "lat": 38.9203485, "type": "electric_scooter", "lon": -77.02581766666667, "bike_id": "98444b8e70bc9c6fd08d95c1f1dba480", "rental_uris": {"android": "https://dc.lft.to/lastmile_qr_scan", "ios": "https://dc.lft.to/lastmile_qr_scan"}, "name": "98444b8e70bc9c6fd08d95c1f1dba480", "is_reserved": 0}, {"is_disabled": 0, "fusion_lon": 0.0, "fusion_lat": 0.0, "lat": 38.87927333333333, "type": "electric_scooter", "lon": -77.01344616666667, "bike_id": "b2112e2a0de2fc06e29f8f6a98a989ae", "rental_uris": {"android": "https://dc.lft.to/lastmile_qr_scan", "ios": "https://dc.lft.to/lastmile_qr_scan"}, "name": "b2112e2a0de2fc06e29f8f6a98a989ae", "is_reserved": 0}, {"is_disabled": 0, "fusion_lon": 0.0, "fusion_lat": 0.0, "lat": 38.885109, "type": "electric_scooter", "lon": -76.99851916666667, "bike_id": "07abf39c589718d914a2263a0695d740", "rental_uris": {"android": "https://dc.lft.to/lastmile_qr_scan", "ios": "https://dc.lft.to/lastmile_qr_scan"}, "name": "07abf39c589718d914a2263a0695d740", "is_reserved": 0}, {"is_disabled": 0, "fusion_lon": 0.0, "fusion_lat": 0.0, "lat": 38.98825766666667, "type": "electric_bike", "lon": -76.98749066666667, "bike_id": "29a2136192b9dc0dcf58e497ce6b7798", "rental_uris": {"android": "https://dc.lft.to/lastmile_qr_scan", "ios": "https://dc.lft.to/lastmile_qr_scan"}, "name": "29a2136192b9dc0dcf58e497ce6b7798", "is_reserved": 0}, {"is_disabled": 0, "fusion_lon": 0.0, "fusion_lat": 0.0, "lat": 38.855179166666666, "type": "electric_bike", "lon": -76.95840816666667, "bike_id": "235f1b789123949dc449c59e6be6e455", "rental_uris": {"android": "https://dc.lft.to/lastmile_qr_scan", "ios": "https://dc.lft.to/lastmile_qr_scan"}, "name": "235f1b789123949dc449c59e6be6e455", "is_reserved": 0}, {"is_disabled": 0, "fusion_lon": 0.0, "fusion_lat": 0.0, "lat": 38.92108533333333, "type": "electric_scooter", "lon": -77.01760033333333, "bike_id": "6469ef5ebf3d2b71096fe04b574a1bd3", "rental_uris": {"android": "https://dc.lft.to/lastmile_qr_scan", "ios": "https://dc.lft.to/lastmile_qr_scan"}, "name": "6469ef5ebf3d2b71096fe04b574a1bd3", "is_reserved": 0}, {"is_disabled": 0, "fusion_lon": 0.0, "fusion_lat": 0.0, "lat": 38.91569883333333, "type": "electric_scooter", "lon": -77.007677, "bike_id": "febf31c5346872448b4f07c308c46c55", "rental_uris": {"android": "https://dc.lft.to/lastmile_qr_scan", "ios": "https://dc.lft.to/lastmile_qr_scan"}, "name": "febf31c5346872448b4f07c308c46c55", "is_reserved": 0}, {"is_disabled": 0, "fusion_lon": 0.0, "fusion_lat": 0.0, "lat": 38.93013116666667, "type": "electric_scooter", "lon": -77.02097133333334, "bike_id": "638ae660f84cd49f580d7e7bdfb6fe90", "rental_uris": {"android": "https://dc.lft.to/lastmile_qr_scan", "ios": "https://dc.lft.to/lastmile_qr_scan"}, "name": "638ae660f84cd49f580d7e7bdfb6fe90", "is_reserved": 0}, {"is_disabled": 0, "fusion_lon": 0.0, "fusion_lat": 0.0, "lat": 38.908516, "type": "electric_scooter", "lon": -77.02065383333333, "bike_id": "51c3c2edf9aad0a24512eb9f12028233", "rental_uris": {"android": "https://dc.lft.to/lastmile_qr_scan", "ios": "https://dc.lft.to/lastmile_qr_scan"}, "name": "51c3c2edf9aad0a24512eb9f12028233", "is_reserved": 0}, {"is_disabled": 0, "fusion_lon": 0.0, "fusion_lat": 0.0, "lat": 38.927598, "type": "electric_scooter", "lon": -77.0059485, "bike_id": "ca5faaa80f7a74bb23cb1a998ae1a03c", "rental_uris": {"android": "https://dc.lft.to/lastmile_qr_scan", "ios": "https://dc.lft.to/lastmile_qr_scan"}, "name": "ca5faaa80f7a74bb23cb1a998ae1a03c", "is_reserved": 0}, {"is_disabled": 0, "fusion_lon": 0.0, "fusion_lat": 0.0, "lat": 38.9039545, "type": "electric_scooter", "lon": -76.9900765, "bike_id": "a1b7096e17cfbca93f67ef7ff19c728f", "rental_uris": {"android": "https://dc.lft.to/lastmile_qr_scan", "ios": "https://dc.lft.to/lastmile_qr_scan"}, "name": "a1b7096e17cfbca93f67ef7ff19c728f", "is_reserved": 0}, {"is_disabled": 0, "fusion_lon": 0.0, "fusion_lat": 0.0, "lat": 38.92978166666666, "type": "electric_scooter", "lon": -77.00696533333333, "bike_id": "b5595a2be17be817226770b59560da91", "rental_uris": {"android": "https://dc.lft.to/lastmile_qr_scan", "ios": "https://dc.lft.to/lastmile_qr_scan"}, "name": "b5595a2be17be817226770b59560da91", "is_reserved": 0}, {"is_disabled": 0, "fusion_lon": 0.0, "fusion_lat": 0.0, "lat": 38.897543166666665, "type": "electric_scooter", "lon": -77.04801966666666, "bike_id": "fa68f82169e1492793ff9c7daac06024", "rental_uris": {"android": "https://dc.lft.to/lastmile_qr_scan", "ios": "https://dc.lft.to/lastmile_qr_scan"}, "name": "fa68f82169e1492793ff9c7daac06024", "is_reserved": 0}, {"is_disabled": 0, "fusion_lon": 0.0, "fusion_lat": 0.0, "lat": 38.90363833333333, "type": "electric_scooter", "lon": -77.0050085, "bike_id": "dfee03ff3172af1a0114ca2daacaf9ae", "rental_uris": {"android": "https://dc.lft.to/lastmile_qr_scan", "ios": "https://dc.lft.to/lastmile_qr_scan"}, "name": "dfee03ff3172af1a0114ca2daacaf9ae", "is_reserved": 0}, {"is_disabled": 0, "fusion_lon": 0.0, "fusion_lat": 0.0, "lat": 38.92338266666667, "type": "electric_scooter", "lon": -77.04182483333334, "bike_id": "a8f5932404fa7fe957333a171c20b010", "rental_uris": {"android": "https://dc.lft.to/lastmile_qr_scan", "ios": "https://dc.lft.to/lastmile_qr_scan"}, "name": "a8f5932404fa7fe957333a171c20b010", "is_reserved": 0}, {"is_disabled": 0, "fusion_lon": 0.0, "fusion_lat": 0.0, "lat": 38.92483933333333, "type": "electric_scooter", "lon": -77.03484733333333, "bike_id": "57062c0017187720c420b884dbdf6802", "rental_uris": {"android": "https://dc.lft.to/lastmile_qr_scan", "ios": "https://dc.lft.to/lastmile_qr_scan"}, "name": "57062c0017187720c420b884dbdf6802", "is_reserved": 0}, {"is_disabled": 0, "fusion_lon": 0.0, "fusion_lat": 0.0, "lat": 38.919411833333335, "type": "electric_scooter", "lon": -76.980698, "bike_id": "abbd333e51e3489943ff9bf311855090", "rental_uris": {"android": "https://dc.lft.to/lastmile_qr_scan", "ios": "https://dc.lft.to/lastmile_qr_scan"}, "name": "abbd333e51e3489943ff9bf311855090", "is_reserved": 0}, {"is_disabled": 0, "fusion_lon": 0.0, "fusion_lat": 0.0, "lat": 38.89663766666666, "type": "electric_scooter", "lon": -77.043382, "bike_id": "c04cffbd5091836b3d18e77b6fe46f2b", "rental_uris": {"android": "https://dc.lft.to/lastmile_qr_scan", "ios": "https://dc.lft.to/lastmile_qr_scan"}, "name": "c04cffbd5091836b3d18e77b6fe46f2b", "is_reserved": 0}, {"is_disabled": 0, "fusion_lon": 0.0, "fusion_lat": 0.0, "lat": 38.8753785, "type": "electric_scooter", "lon": -77.01382483333333, "bike_id": "d0aee57f2b1a2e739f59b57fed201249", "rental_uris": {"android": "https://dc.lft.to/lastmile_qr_scan", "ios": "https://dc.lft.to/lastmile_qr_scan"}, "name": "d0aee57f2b1a2e739f59b57fed201249", "is_reserved": 0}, {"is_disabled": 0, "fusion_lon": 0.0, "fusion_lat": 0.0, "lat": 38.996764166666665, "type": "electric_bike", "lon": -76.99140066666666, "bike_id": "e2fcaf178ee03068929fa0eddfffdf07", "rental_uris": {"android": "https://dc.lft.to/lastmile_qr_scan", "ios": "https://dc.lft.to/lastmile_qr_scan"}, "name": "e2fcaf178ee03068929fa0eddfffdf07", "is_reserved": 0}, {"is_disabled": 0, "fusion_lon": 0.0, "fusion_lat": 0.0, "lat": 38.926218, "type": "electric_scooter", "lon": -77.041955, "bike_id": "e285a37c0f7e76b28ad26479aad5c640", "rental_uris": {"android": "https://dc.lft.to/lastmile_qr_scan", "ios": "https://dc.lft.to/lastmile_qr_scan"}, "name": "e285a37c0f7e76b28ad26479aad5c640", "is_reserved": 0}, {"is_disabled": 0, "fusion_lon": 0.0, "fusion_lat": 0.0, "lat": 38.944567166666666, "type": "electric_scooter", "lon": -77.060219, "bike_id": "6718affd95e226d38b50801c8864a1f9", "rental_uris": {"android": "https://dc.lft.to/lastmile_qr_scan", "ios": "https://dc.lft.to/lastmile_qr_scan"}, "name": "6718affd95e226d38b50801c8864a1f9", "is_reserved": 0}, {"is_disabled": 0, "fusion_lon": 0.0, "fusion_lat": 0.0, "lat": 38.933514, "type": "electric_scooter", "lon": -77.07379683333333, "bike_id": "2928866aa75d0d2a84924a9171daa90a", "rental_uris": {"android": "https://dc.lft.to/lastmile_qr_scan", "ios": "https://dc.lft.to/lastmile_qr_scan"}, "name": "2928866aa75d0d2a84924a9171daa90a", "is_reserved": 0}, {"is_disabled": 0, "fusion_lon": 0.0, "fusion_lat": 0.0, "lat": 38.9054435, "type": "electric_scooter", "lon": -77.02706066666667, "bike_id": "0cbfc965ab39ea9ea236cd94e83206d0", "rental_uris": {"android": "https://dc.lft.to/lastmile_qr_scan", "ios": "https://dc.lft.to/lastmile_qr_scan"}, "name": "0cbfc965ab39ea9ea236cd94e83206d0", "is_reserved": 0}, {"is_disabled": 0, "fusion_lon": 0.0, "fusion_lat": 0.0, "lat": 38.8973815, "type": "electric_scooter", "lon": -77.04684283333333, "bike_id": "1bda13d4c98157fb1f8d283265846740", "rental_uris": {"android": "https://dc.lft.to/lastmile_qr_scan", "ios": "https://dc.lft.to/lastmile_qr_scan"}, "name": "1bda13d4c98157fb1f8d283265846740", "is_reserved": 0}, {"is_disabled": 0, "fusion_lon": 0.0, "fusion_lat": 0.0, "lat": 38.83121783333333, "type": "electric_bike", "lon": -77.04327666666667, "bike_id": "43767099debec86b85cce50851d8d9e7", "rental_uris": {"android": "https://dc.lft.to/lastmile_qr_scan", "ios": "https://dc.lft.to/lastmile_qr_scan"}, "name": "43767099debec86b85cce50851d8d9e7", "is_reserved": 0}, {"is_disabled": 0, "fusion_lon": 0.0, "fusion_lat": 0.0, "lat": 38.91778433333333, "type": "electric_scooter", "lon": -77.04353416666666, "bike_id": "abe5bc388de9689b790e078f9ed47bfc", "rental_uris": {"android": "https://dc.lft.to/lastmile_qr_scan", "ios": "https://dc.lft.to/lastmile_qr_scan"}, "name": "abe5bc388de9689b790e078f9ed47bfc", "is_reserved": 0}, {"is_disabled": 0, "fusion_lon": 0.0, "fusion_lat": 0.0, "lat": 38.94890616666667, "type": "electric_bike", "lon": -76.96380366666666, "bike_id": "a04dc3aa52cc4ff40f4491f17bf0b5bd", "rental_uris": {"android": "https://dc.lft.to/lastmile_qr_scan", "ios": "https://dc.lft.to/lastmile_qr_scan"}, "name": "a04dc3aa52cc4ff40f4491f17bf0b5bd", "is_reserved": 0}, {"is_disabled": 0, "fusion_lon": 0.0, "fusion_lat": 0.0, "lat": 38.88837516666667, "type": "electric_scooter", "lon": -76.91767316666666, "bike_id": "82639a90fdd91cd35f3b9530a5549376", "rental_uris": {"android": "https://dc.lft.to/lastmile_qr_scan", "ios": "https://dc.lft.to/lastmile_qr_scan"}, "name": "82639a90fdd91cd35f3b9530a5549376", "is_reserved": 0}, {"is_disabled": 0, "fusion_lon": 0.0, "fusion_lat": 0.0, "lat": 38.93930116666667, "type": "electric_bike", "lon": -76.99516266666667, "bike_id": "a8d05ad36cca68edde2ecb0fdca13292", "rental_uris": {"android": "https://dc.lft.to/lastmile_qr_scan", "ios": "https://dc.lft.to/lastmile_qr_scan"}, "name": "a8d05ad36cca68edde2ecb0fdca13292", "is_reserved": 0}, {"is_disabled": 0, "fusion_lon": 0.0, "fusion_lat": 0.0, "lat": 38.918212833333335, "type": "electric_scooter", "lon": -77.01213133333333, "bike_id": "85de1e02baabd914a59e037ea5c90ac4", "rental_uris": {"android": "https://dc.lft.to/lastmile_qr_scan", "ios": "https://dc.lft.to/lastmile_qr_scan"}, "name": "85de1e02baabd914a59e037ea5c90ac4", "is_reserved": 0}, {"is_disabled": 0, "fusion_lon": 0.0, "fusion_lat": 0.0, "lat": 38.932326333333336, "type": "electric_scooter", "lon": -76.99934983333333, "bike_id": "d2fb751c266a0f9a1579178f2d19f9c2", "rental_uris": {"android": "https://dc.lft.to/lastmile_qr_scan", "ios": "https://dc.lft.to/lastmile_qr_scan"}, "name": "d2fb751c266a0f9a1579178f2d19f9c2", "is_reserved": 0}, {"is_disabled": 0, "fusion_lon": 0.0, "fusion_lat": 0.0, "lat": 38.918248, "type": "electric_scooter", "lon": -77.04534233333334, "bike_id": "a3a5739f82c80f6f01dd11ab7b3ca0d3", "rental_uris": {"android": "https://dc.lft.to/lastmile_qr_scan", "ios": "https://dc.lft.to/lastmile_qr_scan"}, "name": "a3a5739f82c80f6f01dd11ab7b3ca0d3", "is_reserved": 0}, {"is_disabled": 0, "fusion_lon": 0.0, "fusion_lat": 0.0, "lat": 38.905943666666666, "type": "electric_scooter", "lon": -77.0467325, "bike_id": "57f67e1e4b293f9c082eda6185852ff5", "rental_uris": {"android": "https://dc.lft.to/lastmile_qr_scan", "ios": "https://dc.lft.to/lastmile_qr_scan"}, "name": "57f67e1e4b293f9c082eda6185852ff5", "is_reserved": 0}, {"is_disabled": 0, "fusion_lon": 0.0, "fusion_lat": 0.0, "lat": 38.899749, "type": "electric_scooter", "lon": -77.01612516666667, "bike_id": "4d70cf333e102a3cbf43bec6172dc53b", "rental_uris": {"android": "https://dc.lft.to/lastmile_qr_scan", "ios": "https://dc.lft.to/lastmile_qr_scan"}, "name": "4d70cf333e102a3cbf43bec6172dc53b", "is_reserved": 0}, {"is_disabled": 0, "fusion_lon": 0.0, "fusion_lat": 0.0, "lat": 38.93660883333333, "type": "electric_scooter", "lon": -77.03635833333334, "bike_id": "a8706ad16deb926d28c1277c52060041", "rental_uris": {"android": "https://dc.lft.to/lastmile_qr_scan", "ios": "https://dc.lft.to/lastmile_qr_scan"}, "name": "a8706ad16deb926d28c1277c52060041", "is_reserved": 0}, {"is_disabled": 0, "fusion_lon": 0.0, "fusion_lat": 0.0, "lat": 38.91691333333333, "type": "electric_scooter", "lon": -77.03476416666666, "bike_id": "fbb879d29a4e67191006b1d2f09dca7a", "rental_uris": {"android": "https://dc.lft.to/lastmile_qr_scan", "ios": "https://dc.lft.to/lastmile_qr_scan"}, "name": "fbb879d29a4e67191006b1d2f09dca7a", "is_reserved": 0}, {"is_disabled": 0, "fusion_lon": 0.0, "fusion_lat": 0.0, "lat": 38.8554505, "type": "electric_bike", "lon": -77.10729283333333, "bike_id": "ae7ac83c2744eab7ebd55f9851c739b2", "rental_uris": {"android": "https://dc.lft.to/lastmile_qr_scan", "ios": "https://dc.lft.to/lastmile_qr_scan"}, "name": "ae7ac83c2744eab7ebd55f9851c739b2", "is_reserved": 0}, {"is_disabled": 0, "fusion_lon": 0.0, "fusion_lat": 0.0, "lat": 38.916103166666666, "type": "electric_scooter", "lon": -77.0487065, "bike_id": "55657bb9a2bb86a51bbc4b0442c7c580", "rental_uris": {"android": "https://dc.lft.to/lastmile_qr_scan", "ios": "https://dc.lft.to/lastmile_qr_scan"}, "name": "55657bb9a2bb86a51bbc4b0442c7c580", "is_reserved": 0}, {"is_disabled": 0, "fusion_lon": 0.0, "fusion_lat": 0.0, "lat": 38.91938916666667, "type": "electric_scooter", "lon": -77.08134733333333, "bike_id": "5b5060686b50ce4e8b08be61584f652f", "rental_uris": {"android": "https://dc.lft.to/lastmile_qr_scan", "ios": "https://dc.lft.to/lastmile_qr_scan"}, "name": "5b5060686b50ce4e8b08be61584f652f", "is_reserved": 0}, {"is_disabled": 0, "fusion_lon": 0.0, "fusion_lat": 0.0, "lat": 38.9063555, "type": "electric_scooter", "lon": -77.0249995, "bike_id": "16c9dd8374d853bf86d49ad821482412", "rental_uris": {"android": "https://dc.lft.to/lastmile_qr_scan", "ios": "https://dc.lft.to/lastmile_qr_scan"}, "name": "16c9dd8374d853bf86d49ad821482412", "is_reserved": 0}, {"is_disabled": 0, "fusion_lon": 0.0, "fusion_lat": 0.0, "lat": 38.89503416666667, "type": "electric_scooter", "lon": -76.9487915, "bike_id": "545729823bd45745798810c1d22aa47f", "rental_uris": {"android": "https://dc.lft.to/lastmile_qr_scan", "ios": "https://dc.lft.to/lastmile_qr_scan"}, "name": "545729823bd45745798810c1d22aa47f", "is_reserved": 0}, {"is_disabled": 0, "fusion_lon": 0.0, "fusion_lat": 0.0, "lat": 38.898464833333335, "type": "electric_scooter", "lon": -76.945585, "bike_id": "cd0eca75ff502a09dc68d4f9f24d600c", "rental_uris": {"android": "https://dc.lft.to/lastmile_qr_scan", "ios": "https://dc.lft.to/lastmile_qr_scan"}, "name": "cd0eca75ff502a09dc68d4f9f24d600c", "is_reserved": 0}, {"is_disabled": 0, "fusion_lon": 0.0, "fusion_lat": 0.0, "lat": 38.8602865, "type": "electric_scooter", "lon": -76.9969665, "bike_id": "c44fd4851f97095ee8a3af980321c05e", "rental_uris": {"android": "https://dc.lft.to/lastmile_qr_scan", "ios": "https://dc.lft.to/lastmile_qr_scan"}, "name": "c44fd4851f97095ee8a3af980321c05e", "is_reserved": 0}, {"is_disabled": 0, "fusion_lon": 0.0, "fusion_lat": 0.0, "lat": 39.09595066666667, "type": "electric_bike", "lon": -77.147772, "bike_id": "b07d873856300421d3e43be2e4ee6ac7", "rental_uris": {"android": "https://dc.lft.to/lastmile_qr_scan", "ios": "https://dc.lft.to/lastmile_qr_scan"}, "name": "b07d873856300421d3e43be2e4ee6ac7", "is_reserved": 0}, {"is_disabled": 0, "fusion_lon": 0.0, "fusion_lat": 0.0, "lat": 38.99934066666667, "type": "electric_bike", "lon": -77.0012165, "bike_id": "89237826b0dcb804ccf9baf8a5efc85d", "rental_uris": {"android": "https://dc.lft.to/lastmile_qr_scan", "ios": "https://dc.lft.to/lastmile_qr_scan"}, "name": "89237826b0dcb804ccf9baf8a5efc85d", "is_reserved": 0}, {"is_disabled": 0, "fusion_lon": 0.0, "fusion_lat": 0.0, "lat": 38.897848833333335, "type": "electric_scooter", "lon": -77.04754383333334, "bike_id": "40adee0f29ab269abe2d0fe20861a835", "rental_uris": {"android": "https://dc.lft.to/lastmile_qr_scan", "ios": "https://dc.lft.to/lastmile_qr_scan"}, "name": "40adee0f29ab269abe2d0fe20861a835", "is_reserved": 0}, {"is_disabled": 0, "fusion_lon": 0.0, "fusion_lat": 0.0, "lat": 38.910382166666665, "type": "electric_scooter", "lon": -77.04262566666667, "bike_id": "c113658cd61ccac106b46741cb9632c2", "rental_uris": {"android": "https://dc.lft.to/lastmile_qr_scan", "ios": "https://dc.lft.to/lastmile_qr_scan"}, "name": "c113658cd61ccac106b46741cb9632c2", "is_reserved": 0}, {"is_disabled": 0, "fusion_lon": 0.0, "fusion_lat": 0.0, "lat": 38.923438833333336, "type": "electric_scooter", "lon": -77.03898033333333, "bike_id": "ca105b04ae83c510db6888f48f7d6f01", "rental_uris": {"android": "https://dc.lft.to/lastmile_qr_scan", "ios": "https://dc.lft.to/lastmile_qr_scan"}, "name": "ca105b04ae83c510db6888f48f7d6f01", "is_reserved": 0}, {"is_disabled": 0, "fusion_lon": 0.0, "fusion_lat": 0.0, "lat": 38.934122, "type": "electric_scooter", "lon": -77.04268066666667, "bike_id": "f9a66d2eb9e3fdcbe4d03e217b584c50", "rental_uris": {"android": "https://dc.lft.to/lastmile_qr_scan", "ios": "https://dc.lft.to/lastmile_qr_scan"}, "name": "f9a66d2eb9e3fdcbe4d03e217b584c50", "is_reserved": 0}, {"is_disabled": 0, "fusion_lon": 0.0, "fusion_lat": 0.0, "lat": 38.92048916666667, "type": "electric_scooter", "lon": -77.0344135, "bike_id": "929836aee8cc418055239a9fc96ca996", "rental_uris": {"android": "https://dc.lft.to/lastmile_qr_scan", "ios": "https://dc.lft.to/lastmile_qr_scan"}, "name": "929836aee8cc418055239a9fc96ca996", "is_reserved": 0}, {"is_disabled": 0, "fusion_lon": 0.0, "fusion_lat": 0.0, "lat": 38.89577383333334, "type": "electric_bike", "lon": -76.97619733333333, "bike_id": "5cb4185ad8f331b87e21bde237168a72", "rental_uris": {"android": "https://dc.lft.to/lastmile_qr_scan", "ios": "https://dc.lft.to/lastmile_qr_scan"}, "name": "5cb4185ad8f331b87e21bde237168a72", "is_reserved": 0}, {"is_disabled": 0, "fusion_lon": 0.0, "fusion_lat": 0.0, "lat": 38.910069666666665, "type": "electric_scooter", "lon": -77.02097583333334, "bike_id": "def9459e1e0966dfd3927e17ff593b1f", "rental_uris": {"android": "https://dc.lft.to/lastmile_qr_scan", "ios": "https://dc.lft.to/lastmile_qr_scan"}, "name": "def9459e1e0966dfd3927e17ff593b1f", "is_reserved": 0},