{"data": {"bikes": [{"lat": 38.92507766666667, "is_disabled": 0, "type": "electric_bike", "lon": -76.982251, "bike_id": "c253accdad50ea2837ca92b225487923", "fusion_lat": 0.0, "name": "c253accdad50ea2837ca92b225487923", "is_reserved": 0, "rental_uris": {"android": "https://dc.lft.to/lastmile_qr_scan", "ios": "https://dc.lft.to/lastmile_qr_scan"}, "fusion_lon": 0.0}, {"lat": 38.911745333333336, "is_disabled": 0, "type": "electric_scooter", "lon": -77.00649333333334, "bike_id": "e89f5af3574efa23d84e5d264400ce92", "fusion_lat": 0.0, "name": "e89f5af3574efa23d84e5d264400ce92", "is_reserved": 0, "rental_uris": {"android": "https://dc.lft.to/lastmile_qr_scan", "ios": "https://dc.lft.to/lastmile_qr_scan"}, "fusion_lon": 0.0}, {"lat": 38.90455433333333, "is_disabled": 0, "type": "electric_scooter", "lon": -76.99451266666667, "bike_id": "3549940c646e3876563d19177f399792", "fusion_lat": 0.0, "name": "3549940c646e3876563d19177f399792", "is_reserved": 0, "rental_uris": {"android": "https://dc.lft.to/lastmile_qr_scan", "ios": "https://dc.lft.to/lastmile_qr_scan"}, "fusion_lon": 0.0}, {"lat": 38.96927266666667, "is_disabled": 0, "type": "electric_bike", "lon": -77.0261845, "bike_id": "2952381c186766fef547a65068b61ce5", "fusion_lat": 0.0, "name": "2952381c186766fef547a65068b61ce5", "is_reserved": 0, "rental_uris": {"android": "https://dc.lft.to/lastmile_qr_scan", "ios": "https://dc.lft.to/lastmile_qr_scan"}, "fusion_lon": 0.0}, {"lat": 38.93360116666667, "is_disabled": 0, "type": "electric_scooter", "lon": -77.05754466666667, "bike_id": "0b845b567ec1e7032c33c278c5ff13da", "fusion_lat": 0.0, "name": "0b845b567ec1e7032c33c278c5ff13da", "is_reserved": 0, "rental_uris": {"android": "https://dc.lft.to/lastmile_qr_scan", "ios": "https://dc.lft.to/lastmile_qr_scan"}, "fusion_lon": 0.0}, {"lat": 38.93084416666667, "is_disabled": 0, "type": "electric_scooter", "lon": -77.0255865, "bike_id": "d1db6cac85f9aa47b8fa987ef31d8e65", "fusion_lat": 0.0, "name": "d1db6cac85f9aa47b8fa987ef31d8e65", "is_reserved": 0, "rental_uris": {"android": "https://dc.lft.to/lastmile_qr_scan", "ios": "https://dc.lft.to/lastmile_qr_scan"}, "fusion_lon": 0.0}, {"lat": 38.936413333333334, "is_disabled": 0, "type": "electric_bike", "lon": -77.033377, "bike_id": "d4d9ede5be79642048251cefab60e2ac", "fusion_lat": 0.0, "name": "d4d9ede5be79642048251cefab60e2ac", "is_reserved": 0, "rental_uris": {"android": "https://dc.lft.to/lastmile_qr_scan", "ios": "https://dc.lft.to/lastmile_qr_scan"}, "fusion_lon": 0.0}, {"lat": 38.903625, "is_disabled": 0, "type": "electric_scooter", "lon": -77.036768, "bike_id": "ae5ed3667d1faed31b6428e8aab29a1f", "fusion_lat": 0.0, "name": "ae5ed3667d1faed31b6428e8aab29a1f", "is_reserved": 0, "rental_uris": {"android": "https://dc.lft.to/lastmile_qr_scan", "ios": "https://dc.lft.to/lastmile_qr_scan"}, "fusion_lon": 0.0}, {"lat": 38.892527666666666, "is_disabled": 0, "type": "electric_scooter", "lon": -77.04894233333333, "bike_id": "adf9fee1cdb95bee04182c91194d5edf", "fusion_lat": 0.0, "name": "adf9fee1cdb95bee04182c91194d5edf", "is_reserved": 0, "rental_uris": {"android": "https://dc.lft.to/lastmile_qr_scan", "ios": "https://dc.lft.to/lastmile_qr_scan"}, "fusion_lon": 0.0}, {"lat": 38.905669333333336, "is_disabled": 0, "type": "electric_scooter", "lon": -77.02491983333333, "bike_id": "ef18381f79a5d4c138289d3fdafdba28", "fusion_lat": 0.0, "name": "ef18381f79a5d4c138289d3fdafdba28", "is_reserved": 0, "rental_uris": {"android": "https://dc.lft.to/lastmile_qr_scan", "ios": "https://dc.lft.to/lastmile_qr_scan"}, "fusion_lon": 0.0}, {"lat": 38.91553966666667, "is_disabled": 0, "type": "electric_scooter", "lon": -77.0462425, "bike_id": "410cc99d8055d7cf6a3d614f95f396f2", "fusion_lat": 0.0, "name": "410cc99d8055d7cf6a3d614f95f396f2", "is_reserved": 0, "rental_uris": {"android": "https://dc.lft.to/lastmile_qr_scan", "ios": "https://dc.lft.to/lastmile_qr_scan"}, "fusion_lon": 0.0}, {"lat": 38.89830383333333, "is_disabled": 0, "type": "electric_scooter", "lon": -76.93110483333334, "bike_id": "5f03e98a78b68ca8b2b070f72b40f191", "fusion_lat": 0.0, "name": "5f03e98a78b68ca8b2b070f72b40f191", "is_reserved": 0, "rental_uris": {"android": "https://dc.lft.to/lastmile_qr_scan", "ios": "https://dc.lft.to/lastmile_qr_scan"}, "fusion_lon": 0.0}, {"lat": 38.920967, "is_disabled": 0, "type": "electric_scooter", "lon": -77.04373266666667, "bike_id": "14769a24d67b4b67b1ab421261ab1526", "fusion_lat": 0.0, "name": "14769a24d67b4b67b1ab421261ab1526", "is_reserved": 0, "rental_uris": {"android": "https://dc.lft.to/lastmile_qr_scan", "ios": "https://dc.lft.to/lastmile_qr_scan"}, "fusion_lon": 0.0}, {"lat": 38.929724, "is_disabled": 0, "type": "electric_scooter", "lon": -77.03261583333334, "bike_id": "e12380c9a36f34f1117f714e38d511ff", "fusion_lat": 0.0, "name": "e12380c9a36f34f1117f714e38d511ff", "is_reserved": 0, "rental_uris": {"android": "https://dc.lft.to/lastmile_qr_scan", "ios": "https://dc.lft.to/lastmile_qr_scan"}, "fusion_lon": 0.0}, {"lat": 38.908304333333334, "is_disabled": 0, "type": "electric_scooter", "lon": -76.9970165, "bike_id": "88aedd269cbe1650caa17edf672db0c0", "fusion_lat": 0.0, "name": "88aedd269cbe1650caa17edf672db0c0", "is_reserved": 0, "rental_uris": {"android": "https://dc.lft.to/lastmile_qr_scan", "ios": "https://dc.lft.to/lastmile_qr_scan"}, "fusion_lon": 0.0}, {"lat": 38.91714066666667, "is_disabled": 0, "type": "electric_scooter", "lon": -77.03247116666667, "bike_id": "ab25940bc8360bf89a1182d44c5e171d", "fusion_lat": 0.0, "name": "ab25940bc8360bf89a1182d44c5e171d", "is_reserved": 0, "rental_uris": {"android": "https://dc.lft.to/lastmile_qr_scan", "ios": "https://dc.lft.to/lastmile_qr_scan"}, "fusion_lon": 0.0}, {"lat": 38.911105, "is_disabled": 0, "type": "electric_scooter", "lon": -77.00330733333334, "bike_id": "1e16877b17e209cf3ad164f452e25bef", "fusion_lat": 0.0, "name": "1e16877b17e209cf3ad164f452e25bef", "is_reserved": 0, "rental_uris": {"android": "https://dc.lft.to/lastmile_qr_scan", "ios": "https://dc.lft.to/lastmile_qr_scan"}, "fusion_lon": 0.0}, {"lat": 38.92463383333333, "is_disabled": 0, "type": "electric_bike", "lon": -77.20834216666667, "bike_id": "b07379eb5cd96bf2b3554d9e10063758", "fusion_lat": 0.0, "name": "b07379eb5cd96bf2b3554d9e10063758", "is_reserved": 0, "rental_uris": {"android": "https://dc.lft.to/lastmile_qr_scan", "ios": "https://dc.lft.to/lastmile_qr_scan"}, "fusion_lon": 0.0}, {"lat": 38.84254266666667, "is_disabled": 0, "type": "electric_bike", "lon": -77.05833466666667, "bike_id": "e8bfdf6e284252b1aa675feaa1caae9f", "fusion_lat": 0.0, "name": "e8bfdf6e284252b1aa675feaa1caae9f", "is_reserved": 0, "rental_uris": {"android": "https://dc.lft.to/lastmile_qr_scan", "ios": "https://dc.lft.to/lastmile_qr_scan"}, "fusion_lon": 0.0}, {"lat": 38.91695166666667, "is_disabled": 0, "type": "electric_scooter", "lon": -77.04273316666666, "bike_id": "262395ce8432d2df83da32744af7c925", "fusion_lat": 0.0, "name": "262395ce8432d2df83da32744af7c925", "is_reserved": 0, "rental_uris": {"android": "https://dc.lft.to/lastmile_qr_scan", "ios": "https://dc.lft.to/lastmile_qr_scan"}, "fusion_lon": 0.0}, {"lat": 38.90034883333333, "is_disabled": 0, "type": "electric_scooter", "lon": -77.0059295, "bike_id": "e2cea12d4a7163bec1dca45dcbded13c", "fusion_lat": 0.0, "name": "e2cea12d4a7163bec1dca45dcbded13c", "is_reserved": 0, "rental_uris": {"android": "https://dc.lft.to/lastmile_qr_scan", "ios": "https://dc.lft.to/lastmile_qr_scan"}, "fusion_lon": 0.0}, {"lat": 38.910032, "is_disabled": 0, "type": "electric_scooter", "lon": -77.01507716666667, "bike_id": "0d41016e0bba57b4e10363cbf412e868", "fusion_lat": 0.0, "name": "0d41016e0bba57b4e10363cbf412e868", "is_reserved": 0, "rental_uris": {"android": "https://dc.lft.to/lastmile_qr_scan", "ios": "https://dc.lft.to/lastmile_qr_scan"}, "fusion_lon": 0.0}, {"lat": 38.9068985, "is_disabled": 0, "type": "electric_scooter", "lon": -77.01010933333333, "bike_id": "1145519b44c4f3e1d48f91ef610aad35", "fusion_lat": 0.0, "name": "1145519b44c4f3e1d48f91ef610aad35", "is_reserved": 0, "rental_uris": {"android": "https://dc.lft.to/lastmile_qr_scan", "ios": "https://dc.lft.to/lastmile_qr_scan"}, "fusion_lon": 0.0}, {"lat": 38.92045483333333, "is_disabled": 0, "type": "electric_scooter", "lon": -77.03445533333333, "bike_id": "475a823b09b4e38f85788576bfb8deff", "fusion_lat": 0.0, "name": "475a823b09b4e38f85788576bfb8deff", "is_reserved": 0, "rental_uris": {"android": "https://dc.lft.to/lastmile_qr_scan", "ios": "https://dc.lft.to/lastmile_qr_scan"}, "fusion_lon": 0.0}, {"lat": 38.87870933333333, "is_disabled": 0, "type": "electric_scooter", "lon": -77.00727716666667, "bike_id": "93afa9d6a5f1c245be232d8ff435b421", "fusion_lat": 0.0, "name": "93afa9d6a5f1c245be232d8ff435b421", "is_reserved": 0, "rental_uris": {"android": "https://dc.lft.to/lastmile_qr_scan", "ios": "https://dc.lft.to/lastmile_qr_scan"}, "fusion_lon": 0.0}, {"lat": 38.90611533333333, "is_disabled": 0, "type": "electric_scooter", "lon": -77.03996816666667, "bike_id": "d2c0e0a2f1a07213db9a0ebe6968a5e3", "fusion_lat": 0.0, "name": "d2c0e0a2f1a07213db9a0ebe6968a5e3", "is_reserved": 0, "rental_uris": {"android": "https://dc.lft.to/lastmile_qr_scan", "ios": "https://dc.lft.to/lastmile_qr_scan"}, "fusion_lon": 0.0}, {"lat": 38.866760166666666, "is_disabled": 0, "type": "electric_scooter", "lon": -76.9853905, "bike_id": "46cf7468a6f866fde3122072829d5f89", "fusion_lat": 0.0, "name": "46cf7468a6f866fde3122072829d5f89", "is_reserved": 0, "rental_uris": {"android": "https://dc.lft.to/lastmile_qr_scan", "ios": "https://dc.lft.to/lastmile_qr_scan"}, "fusion_lon": 0.0}, {"lat": 38.895867333333335, "is_disabled": 0, "type": "electric_scooter", "lon": -77.02595483333333, "bike_id": "7499d0468ec602a28705ff7a8d8f7191", "fusion_lat": 0.0, "name": "7499d0468ec602a28705ff7a8d8f7191", "is_reserved": 0, "rental_uris": {"android": "https://dc.lft.to/lastmile_qr_scan", "ios": "https://dc.lft.to/lastmile_qr_scan"}, "fusion_lon": 0.0}, {"lat": 38.897410666666666, "is_disabled": 0, "type": "electric_scooter", "lon": -77.0007485, "bike_id": "36fb2e2cb4c64a119000c09fc17228c9", "fusion_lat": 0.0, "name": "36fb2e2cb4c64a119000c09fc17228c9", "is_reserved": 0, "rental_uris": {"android": "https://dc.lft.to/lastmile_qr_scan", "ios": "https://dc.lft.to/lastmile_qr_scan"}, "fusion_lon": 0.0}, {"lat": 38.917795, "is_disabled": 0, "type": "electric_scooter", "lon": -77.03655833333333, "bike_id": "419b7c08e7b0a8d96162d33e489fa8d3", "fusion_lat": 0.0, "name": "419b7c08e7b0a8d96162d33e489fa8d3", "is_reserved": 0, "rental_uris": {"android": "https://dc.lft.to/lastmile_qr_scan", "ios": "https://dc.lft.to/lastmile_qr_scan"}, "fusion_lon": 0.0}, {"lat": 38.91768716666667, "is_disabled": 0, "type": "electric_scooter", "lon": -77.02818266666667, "bike_id": "f0453719f1b632a3c752c4a71982d43f", "fusion_lat": 0.0, "name": "f0453719f1b632a3c752c4a71982d43f", "is_reserved": 0, "rental_uris": {"android": "https://dc.lft.to/lastmile_qr_scan", "ios": "https://dc.lft.to/lastmile_qr_scan"}, "fusion_lon": 0.0}, {"lat": 38.87733933333333, "is_disabled": 0, "type": "electric_bike", "lon": -76.98108983333333, "bike_id": "1e3d0dcfc128048d5f38c4a2f40e00c6", "fusion_lat": 0.0, "name": "1e3d0dcfc128048d5f38c4a2f40e00c6", "is_reserved": 0, "rental_uris": {"android": "https://dc.lft.to/lastmile_qr_scan", "ios": "https://dc.lft.to/lastmile_qr_scan"}, "fusion_lon": 0.0}, {"lat": 38.922269666666665, "is_disabled": 0, "type": "electric_scooter", "lon": -77.0401785, "bike_id": "2dcd860636b131aa873e223536dea4ef", "fusion_lat": 0.0, "name": "2dcd860636b131aa873e223536dea4ef", "is_reserved": 0, "rental_uris": {"android": "https://dc.lft.to/lastmile_qr_scan", "ios": "https://dc.lft.to/lastmile_qr_scan"}, "fusion_lon": 0.0}, {"lat": 38.9001635, "is_disabled": 0, "type": "electric_scooter", "lon": -77.01198616666667, "bike_id": "bb76d0b1bf8ad30e04b67446f97adc48", "fusion_lat": 0.0, "name": "bb76d0b1bf8ad30e04b67446f97adc48", "is_reserved": 0, "rental_uris": {"android": "https://dc.lft.to/lastmile_qr_scan", "ios": "https://dc.lft.to/lastmile_qr_scan"}, "fusion_lon": 0.0}, {"lat": 38.909768166666666, "is_disabled": 0, "type": "electric_scooter", "lon": -77.038666, "bike_id": "88e04e46d2dfd295ca4b11c889af8202", "fusion_lat": 0.0, "name": "88e04e46d2dfd295ca4b11c889af8202", "is_reserved": 0, "rental_uris": {"android": "https://dc.lft.to/lastmile_qr_scan", "ios": "https://dc.lft.to/lastmile_qr_scan"}, "fusion_lon": 0.0}, {"lat": 38.905322166666664, "is_disabled": 0, "type": "electric_scooter", "lon": -77.05711283333333, "bike_id": "a96c7540e65418e43d3f2354990b2881", "fusion_lat": 0.0, "name": "a96c7540e65418e43d3f2354990b2881", "is_reserved": 0, "rental_uris": {"android": "https://dc.lft.to/lastmile_qr_scan", "ios": "https://dc.lft.to/lastmile_qr_scan"}, "fusion_lon": 0.0}, {"lat": 38.9331775, "is_disabled": 0, "type": "electric_scooter", "lon": -77.04519016666667, "bike_id": "3950bda5ea313c31122db28be719071c", "fusion_lat": 0.0, "name": "3950bda5ea313c31122db28be719071c", "is_reserved": 0, "rental_uris": {"android": "https://dc.lft.to/lastmile_qr_scan", "ios": "https://dc.lft.to/lastmile_qr_scan"}, "fusion_lon": 0.0}, {"lat": 38.898836833333334, "is_disabled": 0, "type": "electric_scooter", "lon": -77.01997333333334, "bike_id": "a9ed2d4e5a0591c95209cfd60c1963b1", "fusion_lat": 0.0, "name": "a9ed2d4e5a0591c95209cfd60c1963b1", "is_reserved": 0, "rental_uris": {"android": "https://dc.lft.to/lastmile_qr_scan", "ios": "https://dc.lft.to/lastmile_qr_scan"}, "fusion_lon": 0.0}, {"lat": 38.907334666666664, "is_disabled": 0, "type": "electric_scooter", "lon": -76.93548833333334, "bike_id": "8f7656f60c8540ef9db2cb9b44bb669e", "fusion_lat": 0.0, "name": "8f7656f60c8540ef9db2cb9b44bb669e", "is_reserved": 0, "rental_uris": {"android": "https://dc.lft.to/lastmile_qr_scan", "ios": "https://dc.lft.to/lastmile_qr_scan"}, "fusion_lon": 0.0}, {"lat": 38.9256595, "is_disabled": 0, "type": "electric_scooter", "lon": -77.05762283333334, "bike_id": "a8c9c179f7c8524527cd858e3bd0f019", "fusion_lat": 0.0, "name": "a8c9c179f7c8524527cd858e3bd0f019", "is_reserved": 0, "rental_uris": {"android": "https://dc.lft.to/lastmile_qr_scan", "ios": "https://dc.lft.to/lastmile_qr_scan"}, "fusion_lon": 0.0}, {"lat": 38.806778, "is_disabled": 0, "type": "electric_bike", "lon": -77.08122316666666, "bike_id": "7d92df70d54e597f299f52addcb07bd9", "fusion_lat": 0.0, "name": "7d92df70d54e597f299f52addcb07bd9", "is_reserved": 0, "rental_uris": {"android": "https://dc.lft.to/lastmile_qr_scan", "ios": "https://dc.lft.to/lastmile_qr_scan"}, "fusion_lon": 0.0}, {"lat": 38.86660283333333, "is_disabled": 0, "type": "electric_scooter", "lon": -76.9888205, "bike_id": "9404cd4dc33ef7e5b5845ee787486f55", "fusion_lat": 0.0, "name": "9404cd4dc33ef7e5b5845ee787486f55", "is_reserved": 0, "rental_uris": {"android": "https://dc.lft.to/lastmile_qr_scan", "ios": "https://dc.lft.to/lastmile_qr_scan"}, "fusion_lon": 0.0}, {"lat": 38.90332033333333, "is_disabled": 0, "type": "electric_scooter", "lon": -76.97595083333333, "bike_id": "88432bf6bf88045d3a6b51abbd6eb463", "fusion_lat": 0.0, "name": "88432bf6bf88045d3a6b51abbd6eb463", "is_reserved": 0, "rental_uris": {"android": "https://dc.lft.to/lastmile_qr_scan", "ios": "https://dc.lft.to/lastmile_qr_scan"}, "fusion_lon": 0.0}, {"lat": 38.92146266666666, "is_disabled": 0, "type": "electric_scooter", "lon": -77.043508, "bike_id": "00178d739b4e07bd30e8a9b1b7414b31", "fusion_lat": 0.0, "name": "00178d739b4e07bd30e8a9b1b7414b31", "is_reserved": 0, "rental_uris": {"android": "https://dc.lft.to/lastmile_qr_scan", "ios": "https://dc.lft.to/lastmile_qr_scan"}, "fusion_lon": 0.0}, {"lat": 38.90764583333333, "is_disabled": 0, "type": "electric_scooter", "lon": -77.07025016666667, "bike_id": "9e689763165b3824888d3462a0460ccc", "fusion_lat": 0.0, "name": "9e689763165b3824888d3462a0460ccc", "is_reserved": 0, "rental_uris": {"android": "https://dc.lft.to/lastmile_qr_scan", "ios": "https://dc.lft.to/lastmile_qr_scan"}, "fusion_lon": 0.0}, {"lat": 38.91779433333333, "is_disabled": 0, "type": "electric_scooter", "lon": -77.043319, "bike_id": "7c1240ebbb7158a6cd7bff37106ac650", "fusion_lat": 0.0, "name": "7c1240ebbb7158a6cd7bff37106ac650", "is_reserved": 0, "rental_uris": {"android": "https://dc.lft.to/lastmile_qr_scan", "ios": "https://dc.lft.to/lastmile_qr_scan"}, "fusion_lon": 0.0}, {"lat": 38.92243766666667, "is_disabled": 0, "type": "electric_scooter", "lon": -77.045746, "bike_id": "43f2cf424f12fc71293db271e33d8678", "fusion_lat": 0.0, "name": "43f2cf424f12fc71293db271e33d8678", "is_reserved": 0, "rental_uris": {"android": "https://dc.lft.to/lastmile_qr_scan", "ios": "https://dc.lft.to/lastmile_qr_scan"}, "fusion_lon": 0.0}, {"lat": 38.908268, "is_disabled": 0, "type": "electric_scooter", "lon": -77.06370116666666, "bike_id": "debfcd7915b50cf6b0522a99da7c0c8c", "fusion_lat": 0.0, "name": "debfcd7915b50cf6b0522a99da7c0c8c", "is_reserved": 0, "rental_uris": {"android": "https://dc.lft.to/lastmile_qr_scan", "ios": "https://dc.lft.to/lastmile_qr_scan"}, "fusion_lon": 0.0}, {"lat": 38.9177865, "is_disabled": 0, "type": "electric_scooter", "lon": -77.04149016666666, "bike_id": "c7a2b1abbc7ad2aa3ae9ca7ec070c0e3", "fusion_lat": 0.0, "name": "c7a2b1abbc7ad2aa3ae9ca7ec070c0e3", "is_reserved": 0, "rental_uris": {"android": "https://dc.lft.to/lastmile_qr_scan", "ios": "https://dc.lft.to/lastmile_qr_scan"}, "fusion_lon": 0.0}, {"lat": 38.90428516666667, "is_disabled": 0, "type": "electric_scooter", "lon": -77.0346385, "bike_id": "84617e578dd462b88468284ff1fde1ab", "fusion_lat": 0.0, "name": "84617e578dd462b88468284ff1fde1ab", "is_reserved": 0, "rental_uris": {"android": "https://dc.lft.to/lastmile_qr_scan", "ios": "https://dc.lft.to/lastmile_qr_scan"}, "fusion_lon": 0.0}, {"lat": 38.91932383333334, "is_disabled": 0, "type": "electric_scooter", "lon": -77.02299183333334, "bike_id": "65263b8177067ea90dee9ac365711046", "fusion_lat": 0.0, "name": "65263b8177067ea90dee9ac365711046", "is_reserved": 0, "rental_uris": {"android": "https://dc.lft.to/lastmile_qr_scan", "ios": "https://dc.lft.to/lastmile_qr_scan"}, "fusion_lon": 0.0}, {"lat": 38.903517666666666, "is_disabled": 0, "type": "electric_scooter", "lon": -77.0532205, "bike_id": "db69f67e6b36ba4a773cfd63713d98a7", "fusion_lat": 0.0, "name": "db69f67e6b36ba4a773cfd63713d98a7", "is_reserved": 0, "rental_uris": {"android": "https://dc.lft.to/lastmile_qr_scan", "ios": "https://dc.lft.to/lastmile_qr_scan"}, "fusion_lon": 0.0}, {"lat": 38.897167333333336, "is_disabled": 0, "type": "electric_scooter", "lon": -77.007976, "bike_id": "125110496692234e9ea77b9702a78ae4", "fusion_lat": 0.0, "name": "125110496692234e9ea77b9702a78ae4", "is_reserved": 0, "rental_uris": {"android": "https://dc.lft.to/lastmile_qr_scan", "ios": "https://dc.lft.to/lastmile_qr_scan"}, "fusion_lon": 0.0}, {"lat": 38.9241495, "is_disabled": 0, "type": "electric_bike", "lon": -77.0504685, "bike_id": "4906406af4bbf28fa126f29697a9ffc5", "fusion_lat": 0.0, "name": "4906406af4bbf28fa126f29697a9ffc5", "is_reserved": 0, "rental_uris": {"android": "https://dc.lft.to/lastmile_qr_scan", "ios": "https://dc.lft.to/lastmile_qr_scan"}, "fusion_lon": 0.0}, {"lat": 38.89739133333333, "is_disabled": 0, "type": "electric_scooter", "lon": -77.0476205, "bike_id": "c08f3ddbc5bd86e74ae63997cea46857", "fusion_lat": 0.0, "name": "c08f3ddbc5bd86e74ae63997cea46857", "is_reserved": 0, "rental_uris": {"android": "https://dc.lft.to/lastmile_qr_scan", "ios": "https://dc.lft.to/lastmile_qr_scan"}, "fusion_lon": 0.0}, {"lat": 38.85034133333333, "is_disabled": 0, "type": "electric_bike", "lon": -76.97292216666666, "bike_id": "7a7e8afb5049c78fd97585c0a073bf2c", "fusion_lat": 0.0, "name": "7a7e8afb5049c78fd97585c0a073bf2c", "is_reserved": 0, "rental_uris": {"android": "https://dc.lft.to/lastmile_qr_scan", "ios": "https://dc.lft.to/lastmile_qr_scan"}, "fusion_lon": 0.0}, {"lat": 38.90260133333334, "is_disabled": 0, "type": "electric_scooter", "lon": -77.052584, "bike_id": "0fc5c76dd73cfa47e840727ec026f2cb", "fusion_lat": 0.0, "name": "0fc5c76dd73cfa47e840727ec026f2cb", "is_reserved": 0, "rental_uris": {"android": "https://dc.lft.to/lastmile_qr_scan", "ios": "https://dc.lft.to/lastmile_qr_scan"}, "fusion_lon": 0.0}, {"lat": 38.9099115, "is_disabled": 0, "type": "electric_scooter", "lon": -76.99738550000001, "bike_id": "f63ac602f53c89f0ddd1fe42ad19ffdd", "fusion_lat": 0.0, "name": "f63ac602f53c89f0ddd1fe42ad19ffdd", "is_reserved": 0, "rental_uris": {"android": "https://dc.lft.to/lastmile_qr_scan", "ios": "https://dc.lft.to/lastmile_qr_scan"}, "fusion_lon": 0.0}, {"lat": 38.82862633333333, "is_disabled": 0, "type": "electric_bike", "lon": -77.112265, "bike_id": "3f12a289354c3a748186bd2131dca72d", "fusion_lat": 0.0, "name": "3f12a289354c3a748186bd2131dca72d", "is_reserved": 0, "rental_uris": {"android": "https://dc.lft.to/lastmile_qr_scan", "ios": "https://dc.lft.to/lastmile_qr_scan"}, "fusion_lon": 0.0}, {"lat": 39.00476, "is_disabled": 0, "type": "electric_bike", "lon": -76.901323, "bike_id": "8cc43d8043069bf127ea5dd389f31ba9", "fusion_lat": 0.0, "name": "8cc43d8043069bf127ea5dd389f31ba9", "is_reserved": 0, "rental_uris": {"android": "https://dc.lft.to/lastmile_qr_scan", "ios": "https://dc.lft.to/lastmile_qr_scan"}, "fusion_lon": 0.0}, {"lat": 38.90074, "is_disabled": 0, "type": "electric_scooter", "lon": -77.00212716666667, "bike_id": "34414d1833feb29dde887b6dd6c178e8", "fusion_lat": 0.0, "name": "34414d1833feb29dde887b6dd6c178e8", "is_reserved": 0, "rental_uris": {"android": "https://dc.lft.to/lastmile_qr_scan", "ios": "https://dc.lft.to/lastmile_qr_scan"}, "fusion_lon": 0.0}, {"lat": 38.89399, "is_disabled": 0, "type": "electric_scooter", "lon": -77.04996283333334, "bike_id": "5016c250a29892d0426c4238de360abc", "fusion_lat": 0.0, "name": "5016c250a29892d0426c4238de360abc", "is_reserved": 0, "rental_uris": {"android": "https://dc.lft.to/lastmile_qr_scan", "ios": "https://dc.lft.to/lastmile_qr_scan"}, "fusion_lon": 0.0}, {"lat": 38.90969666666667, "is_disabled": 0, "type": "electric_scooter", "lon": -77.033688, "bike_id": "cec46450afaee75f4911192791fbf985", "fusion_lat": 0.0, "name": "cec46450afaee75f4911192791fbf985", "is_reserved": 0, "rental_uris": {"android": "https://dc.lft.to/lastmile_qr_scan", "ios": "https://dc.lft.to/lastmile_qr_scan"}, "fusion_lon": 0.0}, {"lat": 38.932888166666665, "is_disabled": 0, "type": "electric_scooter", "lon": -77.03283133333333, "bike_id": "d334c1da5380afe5136ed4568b4c265f", "fusion_lat": 0.0, "name": "d334c1da5380afe5136ed4568b4c265f", "is_reserved": 0, "rental_uris": {"android": "https://dc.lft.to/lastmile_qr_scan", "ios": "https://dc.lft.to/lastmile_qr_scan"}, "fusion_lon": 0.0}, {"lat": 38.910419166666664, "is_disabled": 0, "type": "electric_scooter", "lon": -77.03538366666666, "bike_id": "45cca9a8156d339aa17e11a1ce2a4dea", "fusion_lat": 0.0, "name": "45cca9a8156d339aa17e11a1ce2a4dea", "is_reserved": 0, "rental_uris": {"android": "https://dc.lft.to/lastmile_qr_scan", "ios": "https://dc.lft.to/lastmile_qr_scan"}, "fusion_lon": 0.0}, {"lat": 38.93014433333333, "is_disabled": 0, "type": "electric_scooter", "lon": -77.04444666666667, "bike_id": "6982484985e7dc47f948b76b27165fc0", "fusion_lat": 0.0, "name": "6982484985e7dc47f948b76b27165fc0", "is_reserved": 0, "rental_uris": {"android": "https://dc.lft.to/lastmile_qr_scan", "ios": "https://dc.lft.to/lastmile_qr_scan"}, "fusion_lon": 0.0}, {"lat": 38.92319333333333, "is_disabled": 0, "type": "electric_scooter", "lon": -77.02803733333333, "bike_id": "76cf7bd03741ae92ae3f91ae1e1b201b", "fusion_lat": 0.0, "name": "76cf7bd03741ae92ae3f91ae1e1b201b", "is_reserved": 0, "rental_uris": {"android": "https://dc.lft.to/lastmile_qr_scan", "ios": "https://dc.lft.to/lastmile_qr_scan"}, "fusion_lon": 0.0}, {"lat": 38.89914566666667, "is_disabled": 0, "type": "electric_scooter", "lon": -76.93379833333333, "bike_id": "92545c8321ecf80b0657ea86f2e0808a", "fusion_lat": 0.0, "name": "92545c8321ecf80b0657ea86f2e0808a", "is_reserved": 0, "rental_uris": {"android": "https://dc.lft.to/lastmile_qr_scan", "ios": "https://dc.lft.to/lastmile_qr_scan"}, "fusion_lon": 0.0}, {"lat": 38.955543666666664, "is_disabled": 0, "type": "electric_bike", "lon": -76.93544833333333, "bike_id": "11b5de832d82ddbe7f5e633f9c7889d2", "fusion_lat": 0.0, "name": "11b5de832d82ddbe7f5e633f9c7889d2", "is_reserved": 0, "rental_uris": {"android": "https://dc.lft.to/lastmile_qr_scan", "ios": "https://dc.lft.to/lastmile_qr_scan"}, "fusion_lon": 0.0}, {"lat": 38.922498, "is_disabled": 0, "type": "electric_scooter", "lon": -77.03074083333334, "bike_id": "71c65f0ca35f78c6eef6640ea5a9c6e3", "fusion_lat": 0.0, "name": "71c65f0ca35f78c6eef6640ea5a9c6e3", "is_reserved": 0, "rental_uris": {"android": "https://dc.lft.to/lastmile_qr_scan", "ios": "https://dc.lft.to/lastmile_qr_scan"}, "fusion_lon": 0.0}, {"lat": 38.90681933333333, "is_disabled": 0, "type": "electric_scooter", "lon": -77.02715416666666, "bike_id": "19b7fc6e1884349db92a288dd1e34f7c", "fusion_lat": 0.0, "name": "19b7fc6e1884349db92a288dd1e34f7c", "is_reserved": 0, "rental_uris": {"android": "https://dc.lft.to/lastmile_qr_scan", "ios": "https://dc.lft.to/lastmile_qr_scan"}, "fusion_lon": 0.0}, {"lat": 38.8987985, "is_disabled": 0, "type": "electric_scooter", "lon": -77.053395, "bike_id": "78c957d47316dbcfae0832134318db2d", "fusion_lat": 0.0, "name": "78c957d47316dbcfae0832134318db2d", "is_reserved": 0, "rental_uris": {"android": "https://dc.lft.to/lastmile_qr_scan", "ios": "https://dc.lft.to/lastmile_qr_scan"}, "fusion_lon": 0.0}, {"lat": 38.86345883333333, "is_disabled": 0, "type": "electric_scooter", "lon": -76.98999416666666, "bike_id": "717a421b1da23aab4a622fe579cfc2b9", "fusion_lat": 0.0, "name": "717a421b1da23aab4a622fe579cfc2b9", "is_reserved": 0, "rental_uris": {"android": "https://dc.lft.to/lastmile_qr_scan", "ios": "https://dc.lft.to/lastmile_qr_scan"}, "fusion_lon": 0.0}, {"lat": 38.94836733333333, "is_disabled": 0, "type": "electric_bike", "lon": -77.038839, "bike_id": "df29c64ffaef17e45c79b63bc6cfe95e", "fusion_lat": 0.0, "name": "df29c64ffaef17e45c79b63bc6cfe95e", "is_reserved": 0, "rental_uris": {"android": "https://dc.lft.to/lastmile_qr_scan", "ios": "https://dc.lft.to/lastmile_qr_scan"}, "fusion_lon": 0.0}, {"lat": 38.95562666666667, "is_disabled": 0, "type": "electric_scooter", "lon": -77.0223545, "bike_id": "c58c09384bf4f13d6cba7af1b737b0d3", "fusion_lat": 0.0, "name": "c58c09384bf4f13d6cba7af1b737b0d3", "is_reserved": 0, "rental_uris": {"android": "https://dc.lft.to/lastmile_qr_scan", "ios": "https://dc.lft.to/lastmile_qr_scan"}, "fusion_lon": 0.0}, {"lat": 38.907691, "is_disabled": 0, "type": "electric_scooter", "lon": -76.983055, "bike_id": "eed85f0602edb2ab642c33f39edb0184", "fusion_lat": 0.0, "name": "eed85f0602edb2ab642c33f39edb0184", "is_reserved": 0, "rental_uris": {"android": "https://dc.lft.to/lastmile_qr_scan", "ios": "https://dc.lft.to/lastmile_qr_scan"}, "fusion_lon": 0.0}, {"lat": 38.865606166666666, "is_disabled": 0, "type": "electric_scooter", "lon": -76.98952233333333, "bike_id": "3bc07b8660cdac9edb5cbc829e8bfade", "fusion_lat": 0.0, "name": "3bc07b8660cdac9edb5cbc829e8bfade", "is_reserved": 0, "rental_uris": {"android": "https://dc.lft.to/lastmile_qr_scan", "ios": "https://dc.lft.to/lastmile_qr_scan"}, "fusion_lon": 0.0}, {"lat": 38.9334145, "is_disabled": 0, "type": "electric_scooter", "lon": -76.99304283333333, "bike_id": "45814449eb5679d6205378555cf9eec7", "fusion_lat": 0.0, "name": "45814449eb5679d6205378555cf9eec7", "is_reserved": 0, "rental_uris": {"android": "https://dc.lft.to/lastmile_qr_scan", "ios": "https://dc.lft.to/lastmile_qr_scan"}, "fusion_lon": 0.0}, {"lat": 38.93140366666667, "is_disabled": 0, "type": "electric_scooter", "lon": -77.02145516666667, "bike_id": "c7701c587fcb6593b1ff68b22a0b0d66", "fusion_lat": 0.0, "name": "c7701c587fcb6593b1ff68b22a0b0d66", "is_reserved": 0, "rental_uris": {"android": "https://dc.lft.to/lastmile_qr_scan", "ios": "https://dc.lft.to/lastmile_qr_scan"}, "fusion_lon": 0.0}, {"lat": 38.899385333333335, "is_disabled": 0, "type": "electric_scooter", "lon": -77.00357633333333, "bike_id": "69f3c13e71f9f686b399405e2bb3ba66", "fusion_lat": 0.0, "name": "69f3c13e71f9f686b399405e2bb3ba66", "is_reserved": 0, "rental_uris": {"android": "https://dc.lft.to/lastmile_qr_scan", "ios": "https://dc.lft.to/lastmile_qr_scan"}, "fusion_lon": 0.0}, {"lat": 38.909612833333334, "is_disabled": 0, "type": "electric_scooter", "lon": -77.02159, "bike_id": "c21a9e7f5a707be7afce3d9b41225d3b", "fusion_lat": 0.0, "name": "c21a9e7f5a707be7afce3d9b41225d3b", "is_reserved": 0, "rental_uris": {"android": "https://dc.lft.to/lastmile_qr_scan", "ios": "https://dc.lft.to/lastmile_qr_scan"}, "fusion_lon": 0.0}, {"lat": 38.916843166666666, "is_disabled": 0, "type": "electric_scooter", "lon": -77.0286745, "bike_id": "8524effcce91cd63dcb8831db497828d", "fusion_lat": 0.0, "name": "8524effcce91cd63dcb8831db497828d", "is_reserved": 0, "rental_uris": {"android": "https://dc.lft.to/lastmile_qr_scan", "ios": "https://dc.lft.to/lastmile_qr_scan"}, "fusion_lon": 0.0}, {"lat": 38.915575, "is_disabled": 0, "type": "electric_scooter", "lon": -77.0317345, "bike_id": "2538d82474717212b79aabbab79e1d09", "fusion_lat": 0.0, "name": "2538d82474717212b79aabbab79e1d09", "is_reserved": 0, "rental_uris": {"android": "https://dc.lft.to/lastmile_qr_scan", "ios": "https://dc.lft.to/lastmile_qr_scan"}, "fusion_lon": 0.0}, {"lat": 38.91680983333333, "is_disabled": 0, "type": "electric_scooter", "lon": -77.02383083333334, "bike_id": "1f40d23d874a6cbdb4b3b4384d485b78", "fusion_lat": 0.0, "name": "1f40d23d874a6cbdb4b3b4384d485b78", "is_reserved": 0, "rental_uris": {"android": "https://dc.lft.to/lastmile_qr_scan", "ios": "https://dc.lft.to/lastmile_qr_scan"}, "fusion_lon": 0.0}, {"lat": 38.91552683333333, "is_disabled": 0, "type": "electric_bike", "lon": -77.03173133333334, "bike_id": "2e3566ccb1e7034cf5399bc0bdbabaae", "fusion_lat": 0.0, "name": "2e3566ccb1e7034cf5399bc0bdbabaae", "is_reserved": 0, "rental_uris": {"android": "https://dc.lft.to/lastmile_qr_scan", "ios": "https://dc.lft.to/lastmile_qr_scan"}, "fusion_lon": 0.0}, {"lat": 38.922412666666666, "is_disabled": 0, "type": "electric_scooter", "lon": -77.04244466666667, "bike_id": "01cb94df9fc3fc9d9062c74c54fc0f1b", "fusion_lat": 0.0, "name": "01cb94df9fc3fc9d9062c74c54fc0f1b", "is_reserved": 0, "rental_uris": {"android": "https://dc.lft.to/lastmile_qr_scan", "ios": "https://dc.lft.to/lastmile_qr_scan"}, "fusion_lon": 0.0}, {"lat": 38.900090166666665, "is_disabled": 0, "type": "electric_scooter", "lon": -76.92235316666667, "bike_id": "b8b0d7148c728acd74f2c04449eb056b", "fusion_lat": 0.0, "name": "b8b0d7148c728acd74f2c04449eb056b", "is_reserved": 0, "rental_uris": {"android": "https://dc.lft.to/lastmile_qr_scan", "ios": "https://dc.lft.to/lastmile_qr_scan"}, "fusion_lon": 0.0}, {"lat": 38.904124, "is_disabled": 0, "type": "electric_scooter", "lon": -77.02040816666667, "bike_id": "056e29c355d8add6e6b4ca4ea961ac20", "fusion_lat": 0.0, "name": "056e29c355d8add6e6b4ca4ea961ac20", "is_reserved": 0, "rental_uris": {"android": "https://dc.lft.to/lastmile_qr_scan", "ios": "https://dc.lft.to/lastmile_qr_scan"}, "fusion_lon": 0.0}, {"lat": 38.91448283333333, "is_disabled": 0, "type": "electric_scooter", "lon": -77.02969183333333, "bike_id": "34e9ce14db5bd1e796ac58ad14025322", "fusion_lat": 0.0, "name": "34e9ce14db5bd1e796ac58ad14025322", "is_reserved": 0, "rental_uris": {"android": "https://dc.lft.to/lastmile_qr_scan", "ios": "https://dc.lft.to/lastmile_qr_scan"}, "fusion_lon": 0.0}, {"lat": 38.913495833333336, "is_disabled": 0, "type": "electric_scooter", "lon": -77.03367583333333, "bike_id": "ebafe2e0af79de9c632db5c4149f716e", "fusion_lat": 0.0, "name": "ebafe2e0af79de9c632db5c4149f716e", "is_reserved": 0, "rental_uris": {"android": "https://dc.lft.to/lastmile_qr_scan", "ios": "https://dc.lft.to/lastmile_qr_scan"}, "fusion_lon": 0.0}, {"lat": 38.90491516666667, "is_disabled": 0, "type": "electric_scooter", "lon": -77.04873566666667, "bike_id": "f3fd1121b7eee23f1af548e815da46f1", "fusion_lat": 0.0, "name": "f3fd1121b7eee23f1af548e815da46f1", "is_reserved": 0, "rental_uris": {"android": "https://dc.lft.to/lastmile_qr_scan", "ios": "https://dc.lft.to/lastmile_qr_scan"}, "fusion_lon": 0.0}, {"lat": 38.914406, "is_disabled": 0, "type": "electric_scooter", "lon": -77.04483183333333, "bike_id": "96f8ab154de8bd93f4eb2f25b6f6dd51", "fusion_lat": 0.0, "name": "96f8ab154de8bd93f4eb2f25b6f6dd51", "is_reserved": 0, "rental_uris": {"android": "https://dc.lft.to/lastmile_qr_scan", "ios": "https://dc.lft.to/lastmile_qr_scan"}, "fusion_lon": 0.0}, {"lat": 38.90221966666667, "is_disabled": 0, "type": "electric_scooter", "lon": -77.05900733333333, "bike_id": "c4fdc2bc052b43e2ae5e02a49b979bea", "fusion_lat": 0.0, "name": "c4fdc2bc052b43e2ae5e02a49b979bea", "is_reserved": 0, "rental_uris": {"android": "https://dc.lft.to/lastmile_qr_scan", "ios": "https://dc.lft.to/lastmile_qr_scan"}, "fusion_lon": 0.0}, {"lat": 38.917526333333335, "is_disabled": 0, "type": "electric_scooter", "lon": -77.03597266666667, "bike_id": "dc48d6ee09861740878a941a233fe5cc", "fusion_lat": 0.0, "name": "dc48d6ee09861740878a941a233fe5cc", "is_reserved": 0, "rental_uris": {"android": "https://dc.lft.to/lastmile_qr_scan", "ios": "https://dc.lft.to/lastmile_qr_scan"}, "fusion_lon": 0.0}, {"lat": 38.865087833333334, "is_disabled": 0, "type": "electric_scooter", "lon": -76.99005083333333, "bike_id": "16177e5a86b5b38c26cd47783a383251", "fusion_lat": 0.0, "name": "16177e5a86b5b38c26cd47783a383251", "is_reserved": 0, "rental_uris": {"android": "https://dc.lft.to/lastmile_qr_scan", "ios": "https://dc.lft.to/lastmile_qr_scan"}, "fusion_lon": 0.0}, {"lat": 38.89222933333333, "is_disabled": 0, "type": "electric_scooter", "lon": -76.932969, "bike_id": "3deba6f12513f8c6b2685335bd54f709", "fusion_lat": 0.0, "name": "3deba6f12513f8c6b2685335bd54f709", "is_reserved": 0, "rental_uris": {"android": "https://dc.lft.to/lastmile_qr_scan", "ios": "https://dc.lft.to/lastmile_qr_scan"}, "fusion_lon": 0.0}, {"lat": 38.90032216666667, "is_disabled": 0, "type": "electric_scooter", "lon": -77.03302833333333, "bike_id": "041b98969e659ffcf0b6fc52db1597b0", "fusion_lat": 0.0, "name": "041b98969e659ffcf0b6fc52db1597b0", "is_reserved": 0, "rental_uris": {"android": "https://dc.lft.to/lastmile_qr_scan", "ios": "https://dc.lft.to/lastmile_qr_scan"}, "fusion_lon": 0.0}, {"lat": 38.90089966666667, "is_disabled": 0, "type": "electric_scooter", "lon": -77.05603083333334, "bike_id": "a3d7b5b71f531952c6bd291ab03a3c92", "fusion_lat": 0.0, "name": "a3d7b5b71f531952c6bd291ab03a3c92", "is_reserved": 0, "rental_uris": {"android": "https://dc.lft.to/lastmile_qr_scan", "ios": "https://dc.lft.to/lastmile_qr_scan"}, "fusion_lon": 0.0}, {"lat": 38.915699000000004, "is_disabled": 0, "type": "electric_scooter", "lon": -77.02291583333333, "bike_id": "95e614dfe9907a89c0d147aae414ff0a", "fusion_lat": 0.0, "name": "95e614dfe9907a89c0d147aae414ff0a", "is_reserved": 0, "rental_uris": {"android": "https://dc.lft.to/lastmile_qr_scan", "ios": "https://dc.lft.to/lastmile_qr_scan"}, "fusion_lon": 0.0}, {"lat": 38.85492816666667, "is_disabled": 0, "type": "electric_bike", "lon": -77.12046716666667, "bike_id": "d8c28df13e9e398c3c8a692c7563da2d", "fusion_lat": 0.0, "name": "d8c28df13e9e398c3c8a692c7563da2d", "is_reserved": 0, "rental_uris": {"android": "https://dc.lft.to/lastmile_qr_scan", "ios": "https://dc.lft.to/lastmile_qr_scan"}, "fusion_lon": 0.0}, {"lat": 38.9215175, "is_disabled": 0, "type": "electric_scooter", "lon": -77.03522566666666, "bike_id": "52b4ac89e5323cc7f5b8a6ed6e9fc4d1", "fusion_lat": 0.0, "name": "52b4ac89e5323cc7f5b8a6ed6e9fc4d1", "is_reserved": 0, "rental_uris": {"android": "https://dc.lft.to/lastmile_qr_scan", "ios": "https://dc.lft.to/lastmile_qr_scan"}, "fusion_lon": 0.0}, {"lat": 38.9280375, "is_disabled": 0, "type": "electric_scooter", "lon": -77.05426, "bike_id": "66bcc11ae76e4c19f1daf3f3f9fb99de", "fusion_lat": 0.0, "name": "66bcc11ae76e4c19f1daf3f3f9fb99de", "is_reserved": 0, "rental_uris": {"android": "https://dc.lft.to/lastmile_qr_scan", "ios": "https://dc.lft.to/lastmile_qr_scan"}, "fusion_lon": 0.0}, {"lat": 38.9124895, "is_disabled": 0, "type": "electric_scooter", "lon": -77.01992683333333, "bike_id": "a9d3f192bc9a3d284e71c5b81b9f3eac", "fusion_lat": 0.0, "name": "a9d3f192bc9a3d284e71c5b81b9f3eac", "is_reserved": 0, "rental_uris": {"android": "https://dc.lft.to/lastmile_qr_scan", "ios": "https://dc.lft.to/lastmile_qr_scan"}, "fusion_lon": 0.0}, {"lat": 38.9507455, "is_disabled": 0, "type": "electric_scooter", "lon": -77.02716466666666, "bike_id": "0032016cde2299017600b4e467937cca", "fusion_lat": 0.0, "name": "0032016cde2299017600b4e467937cca", "is_reserved": 0, "rental_uris": {"android": "https://dc.lft.to/lastmile_qr_scan", "ios": "https://dc.lft.to/lastmile_qr_scan"}, "fusion_lon": 0.0}, {"lat": 38.9141835, "is_disabled": 0, "type": "electric_scooter", "lon": -77.01613866666666, "bike_id": "d4995aaa240e160e6018c096aac6fca2", "fusion_lat": 0.0, "name": "d4995aaa240e160e6018c096aac6fca2", "is_reserved": 0, "rental_uris": {"android": "https://dc.lft.to/lastmile_qr_scan", "ios": "https://dc.lft.to/lastmile_qr_scan"}, "fusion_lon": 0.0}, {"lat": 38.92577816666667, "is_disabled": 0, "type": "electric_scooter", "lon": -77.05767883333333, "bike_id": "1554cde165edd69d7b87acf836ad6cac", "fusion_lat": 0.0, "name": "1554cde165edd69d7b87acf836ad6cac", "is_reserved": 0, "rental_uris": {"android": "https://dc.lft.to/lastmile_qr_scan", "ios": "https://dc.lft.to/lastmile_qr_scan"}, "fusion_lon": 0.0}, {"lat": 38.92825933333334, "is_disabled": 0, "type": "electric_scooter", "lon": -77.02257783333333, "bike_id": "0163e1700697145ff6e370e15ea13be3", "fusion_lat": 0.0, "name": "0163e1700697145ff6e370e15ea13be3", "is_reserved": 0, "rental_uris": {"android": "https://dc.lft.to/lastmile_qr_scan", "ios": "https://dc.lft.to/lastmile_qr_scan"}, "fusion_lon": 0.0}, {"lat": 38.88638733333333, "is_disabled": 0, "type": "electric_scooter", "lon": -77.0216345, "bike_id": "0284ef80645424e0aac1e777183bf5f0", "fusion_lat": 0.0, "name": "0284ef80645424e0aac1e777183bf5f0", "is_reserved": 0, "rental_uris": {"android": "https://dc.lft.to/lastmile_qr_scan", "ios": "https://dc.lft.to/lastmile_qr_scan"}, "fusion_lon": 0.0}, {"lat": 38.916943833333335, "is_disabled": 0, "type": "electric_scooter", "lon": -77.03747716666666, "bike_id": "c1983b8ec9ee0ddb8b2266317ed3dedb", "fusion_lat": 0.0, "name": "c1983b8ec9ee0ddb8b2266317ed3dedb", "is_reserved": 0, "rental_uris": {"android": "https://dc.lft.to/lastmile_qr_scan", "ios": "https://dc.lft.to/lastmile_qr_scan"}, "fusion_lon": 0.0}, {"lat": 38.90279566666667, "is_disabled": 0, "type": "electric_scooter", "lon": -77.04377183333334, "bike_id": "83f577b83755717775e8856429563af6", "fusion_lat": 0.0, "name": "83f577b83755717775e8856429563af6", "is_reserved": 0, "rental_uris": {"android": "https://dc.lft.to/lastmile_qr_scan", "ios": "https://dc.lft.to/lastmile_qr_scan"}, "fusion_lon": 0.0}, {"lat": 38.9117205, "is_disabled": 0, "type": "electric_scooter", "lon": -77.0318555, "bike_id": "8217618bddefca07124c86e4ffa9e582", "fusion_lat": 0.0, "name": "8217618bddefca07124c86e4ffa9e582", "is_reserved": 0, "rental_uris": {"android": "https://dc.lft.to/lastmile_qr_scan", "ios": "https://dc.lft.to/lastmile_qr_scan"}, "fusion_lon": 0.0}, {"lat": 38.927762, "is_disabled": 0, "type": "electric_scooter", "lon": -77.0270755, "bike_id": "d64dc5ebfbcb29dd448bf5290f9d59cc", "fusion_lat": 0.0, "name": "d64dc5ebfbcb29dd448bf5290f9d59cc", "is_reserved": 0, "rental_uris": {"android": "https://dc.lft.to/lastmile_qr_scan", "ios": "https://dc.lft.to/lastmile_qr_scan"}, "fusion_lon": 0.0}, {"lat": 38.91309716666667, "is_disabled": 0, "type": "electric_scooter", "lon": -77.04473266666666, "bike_id": "18697a8bc2aac933c90dbe1faa41550f", "fusion_lat": 0.0, "name": "18697a8bc2aac933c90dbe1faa41550f", "is_reserved": 0, "rental_uris": {"android": "https://dc.lft.to/lastmile_qr_scan", "ios": "https://dc.lft.to/lastmile_qr_scan"}, "fusion_lon": 0.0}, {"lat": 38.93383883333333, "is_disabled": 0, "type": "electric_scooter", "lon": -77.032478, "bike_id": "ecbee1acafdc366c0fefbd0994d0f549", "fusion_lat": 0.0, "name": "ecbee1acafdc366c0fefbd0994d0f549", "is_reserved": 0, "rental_uris": {"android": "https://dc.lft.to/lastmile_qr_scan", "ios": "https://dc.lft.to/lastmile_qr_scan"}, "fusion_lon": 0.0}, {"lat": 38.886022, "is_disabled": 0, "type": "electric_scooter", "lon": -77.021826, "bike_id": "1d3e4c3e037509b3809229910dcfaf9b", "fusion_lat": 0.0, "name": "1d3e4c3e037509b3809229910dcfaf9b", "is_reserved": 0, "rental_uris": {"android": "https://dc.lft.to/lastmile_qr_scan", "ios": "https://dc.lft.to/lastmile_qr_scan"}, "fusion_lon": 0.0}, {"lat": 38.927311333333336, "is_disabled": 0, "type": "electric_scooter", "lon": -77.02244683333333, "bike_id": "337f9c251f9126b1bcf4484b96ca9618", "fusion_lat": 0.0, "name": "337f9c251f9126b1bcf4484b96ca9618", "is_reserved": 0, "rental_uris": {"android": "https://dc.lft.to/lastmile_qr_scan", "ios": "https://dc.lft.to/lastmile_qr_scan"}, "fusion_lon": 0.0}, {"lat": 38.9176205, "is_disabled": 0, "type": "electric_scooter", "lon": -77.03206833333333, "bike_id": "3307b45995371ffa0620945433d0fd59", "fusion_lat": 0.0, "name": "3307b45995371ffa0620945433d0fd59", "is_reserved": 0, "rental_uris": {"android": "https://dc.lft.to/lastmile_qr_scan", "ios": "https://dc.lft.to/lastmile_qr_scan"}, "fusion_lon": 0.0}, {"lat": 38.90715866666667, "is_disabled": 0, "type": "electric_scooter", "lon": -77.04497516666666, "bike_id": "c1a25aa01c3dd2db66fe0587e0189214", "fusion_lat": 0.0, "name": "c1a25aa01c3dd2db66fe0587e0189214", "is_reserved": 0, "rental_uris": {"android": "https://dc.lft.to/lastmile_qr_scan", "ios": "https://dc.lft.to/lastmile_qr_scan"}, "fusion_lon": 0.0}, {"lat": 38.93117933333333, "is_disabled": 0, "type": "electric_scooter", "lon": -77.02088266666667, "bike_id": "3d0815faeb5c60348cfbeedcb031fe82", "fusion_lat": 0.0, "name": "3d0815faeb5c60348cfbeedcb031fe82", "is_reserved": 0, "rental_uris": {"android": "https://dc.lft.to/lastmile_qr_scan", "ios": "https://dc.lft.to/lastmile_qr_scan"}, "fusion_lon": 0.0}, {"lat": 38.92692316666667, "is_disabled": 0, "type": "electric_scooter", "lon": -77.0147635, "bike_id": "0ae6189c80fa85af368a5afccfdc3e14", "fusion_lat": 0.0, "name": "0ae6189c80fa85af368a5afccfdc3e14", "is_reserved": 0, "rental_uris": {"android": "https://dc.lft.to/lastmile_qr_scan", "ios": "https://dc.lft.to/lastmile_qr_scan"}, "fusion_lon": 0.0}, {"lat": 38.9026645, "is_disabled": 0, "type": "electric_scooter", "lon": -77.03635033333333, "bike_id": "139878f1e9df07a534ab5f70c8513fde", "fusion_lat": 0.0, "name": "139878f1e9df07a534ab5f70c8513fde", "is_reserved": 0, "rental_uris": {"android": "https://dc.lft.to/lastmile_qr_scan", "ios": "https://dc.lft.to/lastmile_qr_scan"}, "fusion_lon": 0.0}, {"lat": 38.886128166666666, "is_disabled": 0, "type": "electric_scooter", "lon": -77.01886066666667, "bike_id": "4feb23e99ba574bc67b2598eafc17ffc", "fusion_lat": 0.0, "name": "4feb23e99ba574bc67b2598eafc17ffc", "is_reserved": 0, "rental_uris": {"android": "https://dc.lft.to/lastmile_qr_scan", "ios": "https://dc.lft.to/lastmile_qr_scan"}, "fusion_lon": 0.0}, {"lat": 38.9482175, "is_disabled": 0, "type": "electric_scooter", "lon": -76.99902366666667, "bike_id": "5a217e322cd6a9a4a8f7cd7e42f72cd9", "fusion_lat": 0.0, "name": "5a217e322cd6a9a4a8f7cd7e42f72cd9", "is_reserved": 0, "rental_uris": {"android": "https://dc.lft.to/lastmile_qr_scan", "ios": "https://dc.lft.to/lastmile_qr_scan"}, "fusion_lon": 0.0}, {"lat": 38.91961, "is_disabled": 0, "type": "electric_scooter", "lon": -77.0144085, "bike_id": "99fdd88f82b66933ee0d02f458191772", "fusion_lat": 0.0, "name": "99fdd88f82b66933ee0d02f458191772", "is_reserved": 0, "rental_uris": {"android": "https://dc.lft.to/lastmile_qr_scan", "ios": "https://dc.lft.to/lastmile_qr_scan"}, "fusion_lon": 0.0}, {"lat": 38.901384, "is_disabled": 0, "type": "electric_scooter", "lon": -77.03986366666666, "bike_id": "1140531f1c1bd9d06276bd4681b2d1e3", "fusion_lat": 0.0, "name": "1140531f1c1bd9d06276bd4681b2d1e3", "is_reserved": 0, "rental_uris": {"android": "https://dc.lft.to/lastmile_qr_scan", "ios": "https://dc.lft.to/lastmile_qr_scan"}, "fusion_lon": 0.0}, {"lat": 38.885484166666664, "is_disabled": 0, "type": "electric_bike", "lon": -77.11786516666666, "bike_id": "d8d20097458e73b6ce840203289146c1", "fusion_lat": 0.0, "name": "d8d20097458e73b6ce840203289146c1", "is_reserved": 0, "rental_uris": {"android": "https://dc.lft.to/lastmile_qr_scan", "ios": "https://dc.lft.to/lastmile_qr_scan"}, "fusion_lon": 0.0}, {"lat": 38.922048333333336, "is_disabled": 0, "type": "electric_bike", "lon": -77.08186783333333, "bike_id": "728250b502562524b63e31b0eadec57e", "fusion_lat": 0.0, "name": "728250b502562524b63e31b0eadec57e", "is_reserved": 0, "rental_uris": {"android": "https://dc.lft.to/lastmile_qr_scan", "ios": "https://dc.lft.to/lastmile_qr_scan"}, "fusion_lon": 0.0}, {"lat": 38.95702, "is_disabled": 0, "type": "electric_scooter", "lon": -77.02406866666666, "bike_id": "4131c1c77ab962a02105538b0a92d6c4", "fusion_lat": 0.0, "name": "4131c1c77ab962a02105538b0a92d6c4", "is_reserved": 0, "rental_uris": {"android": "https://dc.lft.to/lastmile_qr_scan", "ios": "https://dc.lft.to/lastmile_qr_scan"}, "fusion_lon": 0.0}, {"lat": 38.90409416666667, "is_disabled": 0, "type": "electric_scooter", "lon": -77.05050983333334, "bike_id": "88652b15ff57c18c9d300246e22984d1", "fusion_lat": 0.0, "name": "88652b15ff57c18c9d300246e22984d1", "is_reserved": 0, "rental_uris": {"android": "https://dc.lft.to/lastmile_qr_scan", "ios": "https://dc.lft.to/lastmile_qr_scan"}, "fusion_lon": 0.0}, {"lat": 38.908309333333335, "is_disabled": 0, "type": "electric_scooter", "lon": -77.0200755, "bike_id": "01654dcc84a55687507d0f34acd1debd", "fusion_lat": 0.0, "name": "01654dcc84a55687507d0f34acd1debd", "is_reserved": 0, "rental_uris": {"android": "https://dc.lft.to/lastmile_qr_scan", "ios": "https://dc.lft.to/lastmile_qr_scan"}, "fusion_lon": 0.0}, {"lat": 38.906369833333336, "is_disabled": 0, "type": "electric_scooter", "lon": -77.00819883333334, "bike_id": "160ad46a0bd712ce202b2b677fdfc023", "fusion_lat": 0.0, "name": "160ad46a0bd712ce202b2b677fdfc023", "is_reserved": 0, "rental_uris": {"android": "https://dc.lft.to/lastmile_qr_scan", "ios": "https://dc.lft.to/lastmile_qr_scan"}, "fusion_lon": 0.0}, {"lat": 38.88673516666667, "is_disabled": 0, "type": "electric_bike", "lon": -77.16248266666666, "bike_id": "b72f12dcec1375b23e3107616ad90c87", "fusion_lat": 0.0, "name": "b72f12dcec1375b23e3107616ad90c87", "is_reserved": 0, "rental_uris": {"android": "https://dc.lft.to/lastmile_qr_scan", "ios": "https://dc.lft.to/lastmile_qr_scan"}, "fusion_lon": 0.0}, {"lat": 38.90401383333333, "is_disabled": 0, "type": "electric_scooter", "lon": -76.9900355, "bike_id": "20718fb96d9d1f5558eb86d3e834c091", "fusion_lat": 0.0, "name": "20718fb96d9d1f5558eb86d3e834c091", "is_reserved": 0, "rental_uris": {"android": "https://dc.lft.to/lastmile_qr_scan", "ios": "https://dc.lft.to/lastmile_qr_scan"}, "fusion_lon": 0.0}, {"lat": 38.8922245, "is_disabled": 0, "type": "electric_scooter", "lon": -77.04864416666666, "bike_id": "71a1a8cb0ed066ebbd5fd242d59a966c", "fusion_lat": 0.0, "name": "71a1a8cb0ed066ebbd5fd242d59a966c", "is_reserved": 0, "rental_uris": {"android": "https://dc.lft.to/lastmile_qr_scan", "ios": "https://dc.lft.to/lastmile_qr_scan"}, "fusion_lon": 0.0}, {"lat": 38.91000016666667, "is_disabled": 0, "type": "electric_scooter", "lon": -77.04006833333334, "bike_id": "5f863fd7cd3fb454a42cad7c0b903771", "fusion_lat": 0.0, "name": "5f863fd7cd3fb454a42cad7c0b903771", "is_reserved": 0, "rental_uris": {"android": "https://dc.lft.to/lastmile_qr_scan", "ios": "https://dc.lft.to/lastmile_qr_scan"}, "fusion_lon": 0.0}, {"lat": 38.852250166666664, "is_disabled": 0, "type": "electric_bike", "lon": -77.12951083333333, "bike_id": "13f09b3a205c047131bd0910d9d56454", "fusion_lat": 0.0, "name": "13f09b3a205c047131bd0910d9d56454", "is_reserved": 0, "rental_uris": {"android": "https://dc.lft.to/lastmile_qr_scan", "ios": "https://dc.lft.to/lastmile_qr_scan"}, "fusion_lon": 0.0}, {"lat": 38.921567, "is_disabled": 0, "type": "electric_scooter", "lon": -77.04024366666667, "bike_id": "88195780c753eed44e1fcfdd4b523346", "fusion_lat": 0.0, "name": "88195780c753eed44e1fcfdd4b523346", "is_reserved": 0, "rental_uris": {"android": "https://dc.lft.to/lastmile_qr_scan", "ios": "https://dc.lft.to/lastmile_qr_scan"}, "fusion_lon": 0.0}, {"lat": 38.90055733333333, "is_disabled": 0, "type": "electric_scooter", "lon": -77.00736666666667, "bike_id": "f4be609e1733fe582518f3c9f3cb74c8", "fusion_lat": 0.0, "name": "f4be609e1733fe582518f3c9f3cb74c8", "is_reserved": 0, "rental_uris": {"android": "https://dc.lft.to/lastmile_qr_scan", "ios": "https://dc.lft.to/lastmile_qr_scan"}, "fusion_lon": 0.0}, {"lat": 38.924718666666664, "is_disabled": 0, "type": "electric_scooter", "lon": -77.035339, "bike_id": "a401a974bb3b66a6c78e263cb8158fc7", "fusion_lat": 0.0, "name": "a401a974bb3b66a6c78e263cb8158fc7", "is_reserved": 0, "rental_uris": {"android": "https://dc.lft.to/lastmile_qr_scan", "ios": "https://dc.lft.to/lastmile_qr_scan"}, "fusion_lon": 0.0}, {"lat": 38.932247, "is_disabled": 0, "type": "electric_scooter", "lon": -77.04407566666667, "bike_id": "b1551c68a9bad6098a9b000f4486c6aa", "fusion_lat": 0.0, "name": "b1551c68a9bad6098a9b000f4486c6aa", "is_reserved": 0, "rental_uris": {"android": "https://dc.lft.to/lastmile_qr_scan", "ios": "https://dc.lft.to/lastmile_qr_scan"}, "fusion_lon": 0.0}, {"lat": 38.9155515, "is_disabled": 0, "type": "electric_scooter", "lon": -77.020484, "bike_id": "3fbbdfab105137b057fc3ce39bbe94de", "fusion_lat": 0.0, "name": "3fbbdfab105137b057fc3ce39bbe94de", "is_reserved": 0, "rental_uris": {"android": "https://dc.lft.to/lastmile_qr_scan", "ios": "https://dc.lft.to/lastmile_qr_scan"}, "fusion_lon": 0.0}, {"lat": 38.91402383333333, "is_disabled": 0, "type": "electric_scooter", "lon": -77.03179316666667, "bike_id": "af72cd32dafa3fdfb6493e73ca031f46", "fusion_lat": 0.0, "name": "af72cd32dafa3fdfb6493e73ca031f46", "is_reserved": 0, "rental_uris": {"android": "https://dc.lft.to/lastmile_qr_scan", "ios": "https://dc.lft.to/lastmile_qr_scan"}, "fusion_lon": 0.0}, {"lat": 38.885285833333334, "is_disabled": 0, "type": "electric_scooter", "lon": -77.0151885, "bike_id": "2df2657628a118f444f10db70a5baa11", "fusion_lat": 0.0, "name": "2df2657628a118f444f10db70a5baa11", "is_reserved": 0, "rental_uris": {"android": "https://dc.lft.to/lastmile_qr_scan", "ios": "https://dc.lft.to/lastmile_qr_scan"}, "fusion_lon": 0.0}, {"lat": 38.8659295, "is_disabled": 0, "type": "electric_bike", "lon": -76.93227666666667, "bike_id": "bdf243e2a22c0a6bbb131f7fe0befac0", "fusion_lat": 0.0, "name": "bdf243e2a22c0a6bbb131f7fe0befac0", "is_reserved": 0, "rental_uris": {"android": "https://dc.lft.to/lastmile_qr_scan", "ios": "https://dc.lft.to/lastmile_qr_scan"}, "fusion_lon": 0.0}, {"lat": 38.91757033333333, "is_disabled": 0, "type": "electric_scooter", "lon": -77.00453133333333, "bike_id": "c0198da6d787b0f52acabd93853bfe24", "fusion_lat": 0.0, "name": "c0198da6d787b0f52acabd93853bfe24", "is_reserved": 0, "rental_uris": {"android": "https://dc.lft.to/lastmile_qr_scan", "ios": "https://dc.lft.to/lastmile_qr_scan"}, "fusion_lon": 0.0}, {"lat": 38.9574545, "is_disabled": 0, "type": "electric_bike", "lon": -77.021675, "bike_id": "da6811eb92821b2e6dbd6d4f976383aa", "fusion_lat": 0.0, "name": "da6811eb92821b2e6dbd6d4f976383aa", "is_reserved": 0, "rental_uris": {"android": "https://dc.lft.to/lastmile_qr_scan", "ios": "https://dc.lft.to/lastmile_qr_scan"}, "fusion_lon": 0.0}, {"lat": 38.92168183333333, "is_disabled": 0, "type": "electric_scooter", "lon": -77.051359, "bike_id": "a60c23f957cb692315ddc18f7194b279", "fusion_lat": 0.0, "name": "a60c23f957cb692315ddc18f7194b279", "is_reserved": 0, "rental_uris": {"android": "https://dc.lft.to/lastmile_qr_scan", "ios": "https://dc.lft.to/lastmile_qr_scan"}, "fusion_lon": 0.0}, {"lat": 38.86519666666667, "is_disabled": 0, "type": "electric_scooter", "lon": -76.99032416666667, "bike_id": "34fb38bd90d7e03f1dac822efc67b891", "fusion_lat": 0.0, "name": "34fb38bd90d7e03f1dac822efc67b891", "is_reserved": 0, "rental_uris": {"android": "https://dc.lft.to/lastmile_qr_scan", "ios": "https://dc.lft.to/lastmile_qr_scan"}, "fusion_lon": 0.0}, {"lat": 38.91621516666667, "is_disabled": 0, "type": "electric_scooter", "lon": -77.022838, "bike_id": "2b0a57cd0b90691ec885ca8e2d5b13b2", "fusion_lat": 0.0, "name": "2b0a57cd0b90691ec885ca8e2d5b13b2", "is_reserved": 0, "rental_uris": {"android": "https://dc.lft.to/lastmile_qr_scan", "ios": "https://dc.lft.to/lastmile_qr_scan"}, "fusion_lon": 0.0}, {"lat": 38.892232, "is_disabled": 0, "type": "electric_bike", "lon": -77.03446283333334, "bike_id": "0ce4e6e82b46708668a285644535bd2d", "fusion_lat": 0.0, "name": "0ce4e6e82b46708668a285644535bd2d", "is_reserved": 0, "rental_uris": {"android": "https://dc.lft.to/lastmile_qr_scan", "ios": "https://dc.lft.to/lastmile_qr_scan"}, "fusion_lon": 0.0}, {"lat": 38.906061666666666, "is_disabled": 0, "type": "electric_scooter", "lon": -77.03409983333333, "bike_id": "f4288021ae9e2042efbc4a2a351b6b5b", "fusion_lat": 0.0, "name": "f4288021ae9e2042efbc4a2a351b6b5b", "is_reserved": 0, "rental_uris": {"android": "https://dc.lft.to/lastmile_qr_scan", "ios": "https://dc.lft.to/lastmile_qr_scan"}, "fusion_lon": 0.0}, {"lat": 38.923343333333335, "is_disabled": 0, "type": "electric_scooter", "lon": -77.043042, "bike_id": "f9718a6d491df96de5deb2829e2166ae", "fusion_lat": 0.0, "name": "f9718a6d491df96de5deb2829e2166ae", "is_reserved": 0, "rental_uris": {"android": "https://dc.lft.to/lastmile_qr_scan", "ios": "https://dc.lft.to/lastmile_qr_scan"}, "fusion_lon": 0.0}, {"lat": 38.918229333333336, "is_disabled": 0, "type": "electric_scooter", "lon": -77.01389633333334, "bike_id": "fa427522c8fbf706b268ceeb58e70f6d", "fusion_lat": 0.0, "name": "fa427522c8fbf706b268ceeb58e70f6d", "is_reserved": 0, "rental_uris": {"android": "https://dc.lft.to/lastmile_qr_scan", "ios": "https://dc.lft.to/lastmile_qr_scan"}, "fusion_lon": 0.0}, {"lat": 38.80759183333333, "is_disabled": 0, "type": "electric_bike", "lon": -77.09469433333334, "bike_id": "a87e3f97245ab5d1e805e42f2f07fad0", "fusion_lat": 0.0, "name": "a87e3f97245ab5d1e805e42f2f07fad0", "is_reserved": 0, "rental_uris": {"android": "https://dc.lft.to/lastmile_qr_scan", "ios": "https://dc.lft.to/lastmile_qr_scan"}, "fusion_lon": 0.0}, {"lat": 38.91270683333333, "is_disabled": 0, "type": "electric_bike", "lon": -77.04549416666667, "bike_id": "fba2387fe9a55688445ace087e3487e0", "fusion_lat": 0.0, "name": "fba2387fe9a55688445ace087e3487e0", "is_reserved": 0, "rental_uris": {"android": "https://dc.lft.to/lastmile_qr_scan", "ios": "https://dc.lft.to/lastmile_qr_scan"}, "fusion_lon": 0.0}, {"lat": 38.91340916666667, "is_disabled": 0, "type": "electric_scooter", "lon": -77.03190333333333, "bike_id": "61d6c07c9756bcfc9f4aead8bec93568", "fusion_lat": 0.0, "name": "61d6c07c9756bcfc9f4aead8bec93568", "is_reserved": 0, "rental_uris": {"android": "https://dc.lft.to/lastmile_qr_scan", "ios": "https://dc.lft.to/lastmile_qr_scan"}, "fusion_lon": 0.0}, {"lat": 38.90123283333333, "is_disabled": 0, "type": "electric_scooter", "lon": -77.043485, "bike_id": "6d2f07db525549e2b4eaebfa33072bd9", "fusion_lat": 0.0, "name": "6d2f07db525549e2b4eaebfa33072bd9", "is_reserved": 0, "rental_uris": {"android": "https://dc.lft.to/lastmile_qr_scan", "ios": "https://dc.lft.to/lastmile_qr_scan"}, "fusion_lon": 0.0}, {"lat": 38.94552733333333, "is_disabled": 0, "type": "electric_bike", "lon": -76.89537933333334, "bike_id": "8bbafc1519d28539d60ddf237f48199a", "fusion_lat": 0.0, "name": "8bbafc1519d28539d60ddf237f48199a", "is_reserved": 0, "rental_uris": {"android": "https://dc.lft.to/lastmile_qr_scan", "ios": "https://dc.lft.to/lastmile_qr_scan"}, "fusion_lon": 0.0}, {"lat": 38.900706666666665, "is_disabled": 0, "type": "electric_scooter", "lon": -77.04894233333333, "bike_id": "e57cd51c24a6ed4428fe067b423eb649", "fusion_lat": 0.0, "name": "e57cd51c24a6ed4428fe067b423eb649", "is_reserved": 0, "rental_uris": {"android": "https://dc.lft.to/lastmile_qr_scan", "ios": "https://dc.lft.to/lastmile_qr_scan"}, "fusion_lon": 0.0}, {"lat": 39.034225666666664, "is_disabled": 0, "type": "electric_bike", "lon": -77.04314966666666, "bike_id": "ca6621d4ef2809131cbdb214f7b419cf", "fusion_lat": 0.0, "name": "ca6621d4ef2809131cbdb214f7b419cf", "is_reserved": 0, "rental_uris": {"android": "https://dc.lft.to/lastmile_qr_scan", "ios": "https://dc.lft.to/lastmile_qr_scan"}, "fusion_lon": 0.0}, {"lat": 38.992575333333335, "is_disabled": 0, "type": "electric_scooter", "lon": -77.036565, "bike_id": "b3ba0dcd1370a8b2cf11d3f3d5af91bb", "fusion_lat": 0.0, "name": "b3ba0dcd1370a8b2cf11d3f3d5af91bb", "is_reserved": 0, "rental_uris": {"android": "https://dc.lft.to/lastmile_qr_scan", "ios": "https://dc.lft.to/lastmile_qr_scan"}, "fusion_lon": 0.0}, {"lat": 38.85714816666667, "is_disabled": 0, "type": "electric_scooter", "lon": -76.9867305, "bike_id": "c5f33b23d912b9d4a6b46466af5c0f90", "fusion_lat": 0.0, "name": "c5f33b23d912b9d4a6b46466af5c0f90", "is_reserved": 0, "rental_uris": {"android": "https://dc.lft.to/lastmile_qr_scan", "ios": "https://dc.lft.to/lastmile_qr_scan"}, "fusion_lon": 0.0}, {"lat": 38.93658033333333, "is_disabled": 0, "type": "electric_bike", "lon": -76.95220383333333, "bike_id": "942780f55e82224e357f242347e33995", "fusion_lat": 0.0, "name": "942780f55e82224e357f242347e33995", "is_reserved": 0, "rental_uris": {"android": "https://dc.lft.to/lastmile_qr_scan", "ios": "https://dc.lft.to/lastmile_qr_scan"}, "fusion_lon": 0.0}, {"lat": 38.89353583333333, "is_disabled": 0, "type": "electric_scooter", "lon": -77.041421, "bike_id": "ddf8ce6e381714816d1271ad344bd23e", "fusion_lat": 0.0, "name": "ddf8ce6e381714816d1271ad344bd23e", "is_reserved": 0, "rental_uris": {"android": "https://dc.lft.to/lastmile_qr_scan", "ios": "https://dc.lft.to/lastmile_qr_scan"}, "fusion_lon": 0.0}, {"lat": 38.92585783333333, "is_disabled": 0, "type": "electric_scooter", "lon": -77.04411916666666, "bike_id": "6348d79be1ba4fe988cff8f44230216a", "fusion_lat": 0.0, "name": "6348d79be1ba4fe988cff8f44230216a", "is_reserved": 0, "rental_uris": {"android": "https://dc.lft.to/lastmile_qr_scan", "ios": "https://dc.lft.to/lastmile_qr_scan"}, "fusion_lon": 0.0}, {"lat": 38.909686, "is_disabled": 0, "type": "electric_scooter", "lon": -77.04619783333334, "bike_id": "0e993c6fcf9de4c5f406f1c88c9318f9", "fusion_lat": 0.0, "name": "0e993c6fcf9de4c5f406f1c88c9318f9", "is_reserved": 0, "rental_uris": {"android": "https://dc.lft.to/lastmile_qr_scan", "ios": "https://dc.lft.to/lastmile_qr_scan"}, "fusion_lon": 0.0}, {"lat": 38.9309995, "is_disabled": 0, "type": "electric_scooter", "lon": -77.02470366666667, "bike_id": "77f7e0ae889ebd8b0b1e88f9a096aa1e", "fusion_lat": 0.0, "name": "77f7e0ae889ebd8b0b1e88f9a096aa1e", "is_reserved": 0, "rental_uris": {"android": "https://dc.lft.to/lastmile_qr_scan", "ios": "https://dc.lft.to/lastmile_qr_scan"}, "fusion_lon": 0.0}, {"lat": 38.937359, "is_disabled": 0, "type": "electric_scooter", "lon": -77.03619916666666, "bike_id": "42a2d75d6387ec1b6697811f1699d724", "fusion_lat": 0.0, "name": "42a2d75d6387ec1b6697811f1699d724", "is_reserved": 0, "rental_uris": {"android": "https://dc.lft.to/lastmile_qr_scan", "ios": "https://dc.lft.to/lastmile_qr_scan"}, "fusion_lon": 0.0}, {"lat": 38.911198166666665, "is_disabled": 0, "type": "electric_scooter", "lon": -77.04362816666666, "bike_id": "fd47790257434d9e9ad25b23572d6e89", "fusion_lat": 0.0, "name": "fd47790257434d9e9ad25b23572d6e89", "is_reserved": 0, "rental_uris": {"android": "https://dc.lft.to/lastmile_qr_scan", "ios": "https://dc.lft.to/lastmile_qr_scan"}, "fusion_lon": 0.0}, {"lat": 38.8518685, "is_disabled": 0, "type": "electric_scooter", "lon": -76.97619366666666, "bike_id": "34a7d0675297b395c7cdfbb281460d5d", "fusion_lat": 0.0, "name": "34a7d0675297b395c7cdfbb281460d5d", "is_reserved": 0, "rental_uris": {"android": "https://dc.lft.to/lastmile_qr_scan", "ios": "https://dc.lft.to/lastmile_qr_scan"}, "fusion_lon": 0.0}, {"lat": 38.89073533333333, "is_disabled": 0, "type": "electric_scooter", "lon": -76.9883665, "bike_id": "f13c143cab3bdd6ec5107d6aa2b34619", "fusion_lat": 0.0, "name": "f13c143cab3bdd6ec5107d6aa2b34619", "is_reserved": 0, "rental_uris": {"android": "https://dc.lft.to/lastmile_qr_scan", "ios": "https://dc.lft.to/lastmile_qr_scan"}, "fusion_lon": 0.0}, {"lat": 38.844327166666666, "is_disabled": 0, "type": "electric_scooter", "lon": -76.99655266666667, "bike_id": "96537c7f8d3de9acc4baec5a67ec07d8", "fusion_lat": 0.0, "name": "96537c7f8d3de9acc4baec5a67ec07d8", "is_reserved": 0, "rental_uris": {"android": "https://dc.lft.to/lastmile_qr_scan", "ios": "https://dc.lft.to/lastmile_qr_scan"}, "fusion_lon": 0.0}, {"lat": 38.90506216666667, "is_disabled": 0, "type": "electric_scooter", "lon": -77.061828, "bike_id": "d45c666ddcef9d78d5b04b1dd7f81a55", "fusion_lat": 0.0, "name": "d45c666ddcef9d78d5b04b1dd7f81a55", "is_reserved": 0, "rental_uris": {"android": "https://dc.lft.to/lastmile_qr_scan", "ios": "https://dc.lft.to/lastmile_qr_scan"}, "fusion_lon": 0.0}, {"lat": 38.89679066666667, "is_disabled": 0, "type": "electric_scooter", "lon": -77.0512645, "bike_id": "4c1224a3d6ceefd3b048a10b2b1593be", "fusion_lat": 0.0, "name": "4c1224a3d6ceefd3b048a10b2b1593be", "is_reserved": 0, "rental_uris": {"android": "https://dc.lft.to/lastmile_qr_scan", "ios": "https://dc.lft.to/lastmile_qr_scan"}, "fusion_lon": 0.0}, {"lat": 38.95878183333333, "is_disabled": 0, "type": "electric_bike", "lon": -77.01033616666666, "bike_id": "50fb68cf9aaf4d58068ad5c6fcb64fb2", "fusion_lat": 0.0, "name": "50fb68cf9aaf4d58068ad5c6fcb64fb2", "is_reserved": 0, "rental_uris": {"android": "https://dc.lft.to/lastmile_qr_scan", "ios": "https://dc.lft.to/lastmile_qr_scan"}, "fusion_lon": 0.0}, {"lat": 38.91707683333333, "is_disabled": 0, "type": "electric_scooter", "lon": -77.02416483333333, "bike_id": "31ba0778cea070e1119c9b8c859ab9f7", "fusion_lat": 0.0, "name": "31ba0778cea070e1119c9b8c859ab9f7", "is_reserved": 0, "rental_uris": {"android": "https://dc.lft.to/lastmile_qr_scan", "ios": "https://dc.lft.to/lastmile_qr_scan"}, "fusion_lon": 0.0}, {"lat": 38.917840166666664, "is_disabled": 0, "type": "electric_bike", "lon": -77.22351166666667, "bike_id": "10fd4eff1eca41c6abc913931ed0773d", "fusion_lat": 0.0, "name": "10fd4eff1eca41c6abc913931ed0773d", "is_reserved": 0, "rental_uris": {"android": "https://dc.lft.to/lastmile_qr_scan", "ios": "https://dc.lft.to/lastmile_qr_scan"}, "fusion_lon": 0.0}, {"lat": 38.934302833333334, "is_disabled": 0, "type": "electric_bike", "lon": -77.0576845, "bike_id": "8b5419848f838d88bdf059e0fae47bcf", "fusion_lat": 0.0, "name": "8b5419848f838d88bdf059e0fae47bcf", "is_reserved": 0, "rental_uris": {"android": "https://dc.lft.to/lastmile_qr_scan", "ios": "https://dc.lft.to/lastmile_qr_scan"}, "fusion_lon": 0.0}, {"lat": 38.9085355, "is_disabled": 0, "type": "electric_scooter", "lon": -77.00623166666666, "bike_id": "5ad45aaefc93a506d7064bce96584423", "fusion_lat": 0.0, "name": "5ad45aaefc93a506d7064bce96584423", "is_reserved": 0, "rental_uris": {"android": "https://dc.lft.to/lastmile_qr_scan", "ios": "https://dc.lft.to/lastmile_qr_scan"}, "fusion_lon": 0.0}, {"lat": 38.937620333333335, "is_disabled": 0, "type": "electric_scooter", "lon": -77.02133166666667, "bike_id": "fdbac015024bbba02ad13ccd36c1d281", "fusion_lat": 0.0, "name": "fdbac015024bbba02ad13ccd36c1d281", "is_reserved": 0, "rental_uris": {"android": "https://dc.lft.to/lastmile_qr_scan", "ios": "https://dc.lft.to/lastmile_qr_scan"}, "fusion_lon": 0.0}, {"lat": 38.92880533333334, "is_disabled": 0, "type": "electric_scooter", "lon": -77.03332633333333, "bike_id": "46a16a03a1d2c5604443f6f9a0d7ca3e", "fusion_lat": 0.0, "name": "46a16a03a1d2c5604443f6f9a0d7ca3e", "is_reserved": 0, "rental_uris": {"android": "https://dc.lft.to/lastmile_qr_scan", "ios": "https://dc.lft.to/lastmile_qr_scan"}, "fusion_lon": 0.0}, {"lat": 38.907818166666665, "is_disabled": 0, "type": "electric_scooter", "lon": -77.03854833333334, "bike_id": "233c21516154f525ae26fb3d4414049e", "fusion_lat": 0.0, "name": "233c21516154f525ae26fb3d4414049e", "is_reserved": 0, "rental_uris": {"android": "https://dc.lft.to/lastmile_qr_scan", "ios": "https://dc.lft.to/lastmile_qr_scan"}, "fusion_lon": 0.0}, {"lat": 38.9147875, "is_disabled": 0, "type": "electric_scooter", "lon": -77.00354433333334, "bike_id": "5137ed272bdd42be17c2ab741e5d70a9", "fusion_lat": 0.0, "name": "5137ed272bdd42be17c2ab741e5d70a9", "is_reserved": 0, "rental_uris": {"android": "https://dc.lft.to/lastmile_qr_scan", "ios": "https://dc.lft.to/lastmile_qr_scan"}, "fusion_lon": 0.0}, {"lat": 38.986485, "is_disabled": 0, "type": "electric_bike", "lon": -77.056282, "bike_id": "900db32a4a47916dbe704d92518994e1", "fusion_lat": 0.0, "name": "900db32a4a47916dbe704d92518994e1", "is_reserved": 0, "rental_uris": {"android": "https://dc.lft.to/lastmile_qr_scan", "ios": "https://dc.lft.to/lastmile_qr_scan"}, "fusion_lon": 0.0}, {"lat": 38.90090283333333, "is_disabled": 0, "type": "electric_scooter", "lon": -76.99484083333333, "bike_id": "774c90653202e35474ae695e108a995e", "fusion_lat": 0.0, "name": "774c90653202e35474ae695e108a995e", "is_reserved": 0, "rental_uris": {"android": "https://dc.lft.to/lastmile_qr_scan", "ios": "https://dc.lft.to/lastmile_qr_scan"}, "fusion_lon": 0.0}, {"lat": 38.844274666666664, "is_disabled": 0, "type": "electric_scooter", "lon": -76.99774333333333, "bike_id": "8de8a492790f6c267c434392c7b1cdbb", "fusion_lat": 0.0, "name": "8de8a492790f6c267c434392c7b1cdbb", "is_reserved": 0, "rental_uris": {"android": "https://dc.lft.to/lastmile_qr_scan", "ios": "https://dc.lft.to/lastmile_qr_scan"}, "fusion_lon": 0.0}, {"lat": 38.921951166666666, "is_disabled": 0, "type": "electric_scooter", "lon": -77.0397835, "bike_id": "955a896b38f675641cb887387fa620d9", "fusion_lat": 0.0, "name": "955a896b38f675641cb887387fa620d9", "is_reserved": 0, "rental_uris": {"android": "https://dc.lft.to/lastmile_qr_scan", "ios": "https://dc.lft.to/lastmile_qr_scan"}, "fusion_lon": 0.0}, {"lat": 38.91443116666667, "is_disabled": 0, "type": "electric_scooter", "lon": -77.032089, "bike_id": "62cf261fbbbbfd5622013cdbc6bd314c", "fusion_lat": 0.0, "name": "62cf261fbbbbfd5622013cdbc6bd314c", "is_reserved": 0, "rental_uris": {"android": "https://dc.lft.to/lastmile_qr_scan", "ios": "https://dc.lft.to/lastmile_qr_scan"}, "fusion_lon": 0.0}, {"lat": 38.92485033333333, "is_disabled": 0, "type": "electric_scooter", "lon": -77.028369, "bike_id": "c0f4131cbd3fee697dae60d7d8086b8e", "fusion_lat": 0.0, "name": "c0f4131cbd3fee697dae60d7d8086b8e", "is_reserved": 0, "rental_uris": {"android": "https://dc.lft.to/lastmile_qr_scan", "ios": "https://dc.lft.to/lastmile_qr_scan"}, "fusion_lon": 0.0}, {"lat": 38.919296833333334, "is_disabled": 0, "type": "electric_scooter", "lon": -77.033946, "bike_id": "ea8b6616ae48237d4f10b5af21ce0bea", "fusion_lat": 0.0, "name": "ea8b6616ae48237d4f10b5af21ce0bea", "is_reserved": 0, "rental_uris": {"android": "https://dc.lft.to/lastmile_qr_scan", "ios": "https://dc.lft.to/lastmile_qr_scan"}, "fusion_lon": 0.0}, {"lat": 38.8909055, "is_disabled": 0, "type": "electric_scooter", "lon": -76.95270066666667, "bike_id": "b9fa6058453c5ba09f62d99e74ceb833", "fusion_lat": 0.0, "name": "b9fa6058453c5ba09f62d99e74ceb833", "is_reserved": 0, "rental_uris": {"android": "https://dc.lft.to/lastmile_qr_scan", "ios": "https://dc.lft.to/lastmile_qr_scan"}, "fusion_lon": 0.0}, {"lat": 38.93859333333333, "is_disabled": 0, "type": "electric_scooter", "lon": -77.027408, "bike_id": "5762776c8eaf54b32755ac021948918c", "fusion_lat": 0.0, "name": "5762776c8eaf54b32755ac021948918c", "is_reserved": 0, "rental_uris": {"android": "https://dc.lft.to/lastmile_qr_scan", "ios": "https://dc.lft.to/lastmile_qr_scan"}, "fusion_lon": 0.0}, {"lat": 38.9111365, "is_disabled": 0, "type": "electric_scooter", "lon": -77.03719183333334, "bike_id": "14e0372b15203666afcd118131262ada", "fusion_lat": 0.0, "name": "14e0372b15203666afcd118131262ada", "is_reserved": 0, "rental_uris": {"android": "https://dc.lft.to/lastmile_qr_scan", "ios": "https://dc.lft.to/lastmile_qr_scan"}, "fusion_lon": 0.0}, {"lat": 38.95219733333333, "is_disabled": 0, "type": "electric_scooter", "lon": -77.0860145, "bike_id": "1b99795db70a1fbe83f50798ae57dd29", "fusion_lat": 0.0, "name": "1b99795db70a1fbe83f50798ae57dd29", "is_reserved": 0, "rental_uris": {"android": "https://dc.lft.to/lastmile_qr_scan", "ios": "https://dc.lft.to/lastmile_qr_scan"}, "fusion_lon": 0.0}, {"lat": 38.91311966666667, "is_disabled": 0, "type": "electric_scooter", "lon": -77.03175766666666, "bike_id": "2b6ce178723276f0cd7427d5d195f84d", "fusion_lat": 0.0, "name": "2b6ce178723276f0cd7427d5d195f84d", "is_reserved": 0, "rental_uris": {"android": "https://dc.lft.to/lastmile_qr_scan", "ios": "https://dc.lft.to/lastmile_qr_scan"}, "fusion_lon": 0.0}, {"lat": 38.921417, "is_disabled": 0, "type": "electric_scooter", "lon": -77.04481083333333, "bike_id": "9c1ddbcfa1bf5e99c4f76e054dd5aea9", "fusion_lat": 0.0, "name": "9c1ddbcfa1bf5e99c4f76e054dd5aea9", "is_reserved": 0, "rental_uris": {"android": "https://dc.lft.to/lastmile_qr_scan", "ios": "https://dc.lft.to/lastmile_qr_scan"}, "fusion_lon": 0.0}, {"lat": 38.9164235, "is_disabled": 0, "type": "electric_scooter", "lon": -77.02239016666667, "bike_id": "be23eb2bbb11cf236c06bacfb0a541af", "fusion_lat": 0.0, "name": "be23eb2bbb11cf236c06bacfb0a541af", "is_reserved": 0, "rental_uris": {"android": "https://dc.lft.to/lastmile_qr_scan", "ios": "https://dc.lft.to/lastmile_qr_scan"}, "fusion_lon": 0.0}, {"lat": 38.999931333333336, "is_disabled": 0, "type": "electric_bike", "lon": -76.92496216666666, "bike_id": "1b533edddac939df4ca0e4050b3fdf67", "fusion_lat": 0.0, "name": "1b533edddac939df4ca0e4050b3fdf67", "is_reserved": 0, "rental_uris": {"android": "https://dc.lft.to/lastmile_qr_scan", "ios": "https://dc.lft.to/lastmile_qr_scan"}, "fusion_lon": 0.0}, {"lat": 38.91688833333333, "is_disabled": 0, "type": "electric_scooter", "lon": -77.025521, "bike_id": "8923ef93321817109d4397e1c7bbc326", "fusion_lat": 0.0, "name": "8923ef93321817109d4397e1c7bbc326", "is_reserved": 0, "rental_uris": {"android": "https://dc.lft.to/lastmile_qr_scan", "ios": "https://dc.lft.to/lastmile_qr_scan"}, "fusion_lon": 0.0}, {"lat": 38.925265333333336, "is_disabled": 0, "type": "electric_scooter", "lon": -77.044331, "bike_id": "d76cf20b51d29d4a668f89d6615605b4", "fusion_lat": 0.0, "name": "d76cf20b51d29d4a668f89d6615605b4", "is_reserved": 0, "rental_uris": {"android": "https://dc.lft.to/lastmile_qr_scan", "ios": "https://dc.lft.to/lastmile_qr_scan"}, "fusion_lon": 0.0}, {"lat": 38.93206833333333, "is_disabled": 0, "type": "electric_scooter", "lon": -77.03662733333333, "bike_id": "180d972e290a6f56d12c48fbadd80a47", "fusion_lat": 0.0, "name": "180d972e290a6f56d12c48fbadd80a47", "is_reserved": 0, "rental_uris": {"android": "https://dc.lft.to/lastmile_qr_scan", "ios": "https://dc.lft.to/lastmile_qr_scan"}, "fusion_lon": 0.0}, {"lat": 38.900349, "is_disabled": 0, "type": "electric_scooter", "lon": -76.99364816666667, "bike_id": "ded34def14465f0265066f34f5853c9c", "fusion_lat": 0.0, "name": "ded34def14465f0265066f34f5853c9c", "is_reserved": 0, "rental_uris": {"android": "https://dc.lft.to/lastmile_qr_scan", "ios": "https://dc.lft.to/lastmile_qr_scan"}, "fusion_lon": 0.0}, {"lat": 38.900608166666665, "is_disabled": 0, "type": "electric_scooter", "lon": -77.01826133333333, "bike_id": "882daf4f91004517363bd96d7c218fac", "fusion_lat": 0.0, "name": "882daf4f91004517363bd96d7c218fac", "is_reserved": 0, "rental_uris": {"android": "https://dc.lft.to/lastmile_qr_scan", "ios": "https://dc.lft.to/lastmile_qr_scan"}, "fusion_lon": 0.0}, {"lat": 38.922564666666666, "is_disabled": 0, "type": "electric_scooter", "lon": -77.042985, "bike_id": "aa933173f4c0a495c2bba12868ffe339", "fusion_lat": 0.0, "name": "aa933173f4c0a495c2bba12868ffe339", "is_reserved": 0, "rental_uris": {"android": "https://dc.lft.to/lastmile_qr_scan", "ios": "https://dc.lft.to/lastmile_qr_scan"}, "fusion_lon": 0.0}, {"lat": 38.9364135, "is_disabled": 0, "type": "electric_scooter", "lon": -77.02496683333334, "bike_id": "72dfeeea330003f47bda267e084d98b3", "fusion_lat": 0.0, "name": "72dfeeea330003f47bda267e084d98b3", "is_reserved": 0, "rental_uris": {"android": "https://dc.lft.to/lastmile_qr_scan", "ios": "https://dc.lft.to/lastmile_qr_scan"}, "fusion_lon": 0.0}, {"lat": 38.89354566666667, "is_disabled": 0, "type": "electric_scooter", "lon": -77.04138316666666, "bike_id": "96dba1419b614ee992a799489272e244", "fusion_lat": 0.0, "name": "96dba1419b614ee992a799489272e244", "is_reserved": 0, "rental_uris": {"android": "https://dc.lft.to/lastmile_qr_scan", "ios": "https://dc.lft.to/lastmile_qr_scan"}, "fusion_lon": 0.0}, {"lat": 38.9285145, "is_disabled": 0, "type": "electric_bike", "lon": -77.10674783333333, "bike_id": "260cfbf7e1d49aa207f1f5a916ee627f", "fusion_lat": 0.0, "name": "260cfbf7e1d49aa207f1f5a916ee627f", "is_reserved": 0, "rental_uris": {"android": "https://dc.lft.to/lastmile_qr_scan", "ios": "https://dc.lft.to/lastmile_qr_scan"}, "fusion_lon": 0.0}, {"lat": 38.91643283333333, "is_disabled": 0, "type": "electric_scooter", "lon": -77.047865, "bike_id": "8b5fe6d4cd09a89c922de893d11aeefc", "fusion_lat": 0.0, "name": "8b5fe6d4cd09a89c922de893d11aeefc", "is_reserved": 0, "rental_uris": {"android": "https://dc.lft.to/lastmile_qr_scan", "ios": "https://dc.lft.to/lastmile_qr_scan"}, "fusion_lon": 0.0}, {"lat": 38.91493783333333, "is_disabled": 0, "type": "electric_scooter", "lon": -77.0325805, "bike_id": "a54bb0b3058c413064c01c14b3b8af89", "fusion_lat": 0.0, "name": "a54bb0b3058c413064c01c14b3b8af89", "is_reserved": 0, "rental_uris": {"android": "https://dc.lft.to/lastmile_qr_scan", "ios": "https://dc.lft.to/lastmile_qr_scan"}, "fusion_lon": 0.0}, {"lat": 38.911850666666666, "is_disabled": 0, "type": "electric_scooter", "lon": -77.04329433333334, "bike_id": "ac23f9b820aa113b272cd13c06f33593", "fusion_lat": 0.0, "name": "ac23f9b820aa113b272cd13c06f33593", "is_reserved": 0, "rental_uris": {"android": "https://dc.lft.to/lastmile_qr_scan", "ios": "https://dc.lft.to/lastmile_qr_scan"}, "fusion_lon": 0.0}, {"lat": 38.91704883333333, "is_disabled": 0, "type": "electric_scooter", "lon": -77.02469833333333, "bike_id": "336bef8fd82a2e718167a7adb2cb99c4", "fusion_lat": 0.0, "name": "336bef8fd82a2e718167a7adb2cb99c4", "is_reserved": 0, "rental_uris": {"android": "https://dc.lft.to/lastmile_qr_scan", "ios": "https://dc.lft.to/lastmile_qr_scan"}, "fusion_lon": 0.0}, {"lat": 38.934693, "is_disabled": 0, "type": "electric_scooter", "lon": -77.0241275, "bike_id": "1792b37a4f5c97e60e4af4ec9a652bef", "fusion_lat": 0.0, "name": "1792b37a4f5c97e60e4af4ec9a652bef", "is_reserved": 0, "rental_uris": {"android": "https://dc.lft.to/lastmile_qr_scan", "ios": "https://dc.lft.to/lastmile_qr_scan"}, "fusion_lon": 0.0}, {"lat": 38.89351716666667, "is_disabled": 0, "type": "electric_scooter", "lon": -77.04135633333334, "bike_id": "e86600561814712d0ac033644038a631", "fusion_lat": 0.0, "name": "e86600561814712d0ac033644038a631", "is_reserved": 0, "rental_uris": {"android": "https://dc.lft.to/lastmile_qr_scan", "ios": "https://dc.lft.to/lastmile_qr_scan"}, "fusion_lon": 0.0}, {"lat": 38.912778, "is_disabled": 0, "type": "electric_scooter", "lon": -77.03202033333334, "bike_id": "11a1ee695e1065e0dde4bd465da9bbf3", "fusion_lat": 0.0, "name": "11a1ee695e1065e0dde4bd465da9bbf3", "is_reserved": 0, "rental_uris": {"android": "https://dc.lft.to/lastmile_qr_scan", "ios": "https://dc.lft.to/lastmile_qr_scan"}, "fusion_lon": 0.0}, {"lat": 38.917215166666665, "is_disabled": 0, "type": "electric_scooter", "lon": -77.0240105, "bike_id": "9f87315d621267c414f0a5515da7b154", "fusion_lat": 0.0, "name": "9f87315d621267c414f0a5515da7b154", "is_reserved": 0, "rental_uris": {"android": "https://dc.lft.to/lastmile_qr_scan", "ios": "https://dc.lft.to/lastmile_qr_scan"}, "fusion_lon": 0.0}, {"lat": 38.9491545, "is_disabled": 0, "type": "electric_bike", "lon": -77.00799766666667, "bike_id": "9350214c5a7f16ae5ebe031e61ae1cde", "fusion_lat": 0.0, "name": "9350214c5a7f16ae5ebe031e61ae1cde", "is_reserved": 0, "rental_uris": {"android": "https://dc.lft.to/lastmile_qr_scan", "ios": "https://dc.lft.to/lastmile_qr_scan"}, "fusion_lon": 0.0}, {"lat": 38.921134333333335, "is_disabled": 0, "type": "electric_bike", "lon": -76.985758, "bike_id": "40c5467b765f12a7c668cf9a8c20c284", "fusion_lat": 0.0, "name": "40c5467b765f12a7c668cf9a8c20c284", "is_reserved": 0, "rental_uris": {"android": "https://dc.lft.to/lastmile_qr_scan", "ios": "https://dc.lft.to/lastmile_qr_scan"}, "fusion_lon": 0.0}, {"lat": 38.914213333333336, "is_disabled": 0, "type": "electric_scooter", "lon": -77.03185383333333, "bike_id": "3991a11dbb61d8ae116db658ab9d7ddf", "fusion_lat": 0.0, "name": "3991a11dbb61d8ae116db658ab9d7ddf", "is_reserved": 0, "rental_uris": {"android": "https://dc.lft.to/lastmile_qr_scan", "ios": "https://dc.lft.to/lastmile_qr_scan"}, "fusion_lon": 0.0}, {"lat": 38.95885716666667, "is_disabled": 0, "type": "electric_bike", "lon": -76.92483666666666, "bike_id": "3c6e7e9f89410604b42b893a33ba92d2", "fusion_lat": 0.0, "name": "3c6e7e9f89410604b42b893a33ba92d2", "is_reserved": 0, "rental_uris": {"android": "https://dc.lft.to/lastmile_qr_scan", "ios": "https://dc.lft.to/lastmile_qr_scan"}, "fusion_lon": 0.0}, {"lat": 38.9312525, "is_disabled": 0, "type": "electric_scooter", "lon": -77.03400266666667, "bike_id": "1d6179b74d9e0f294b713c8d7d2fd73a", "fusion_lat": 0.0, "name": "1d6179b74d9e0f294b713c8d7d2fd73a", "is_reserved": 0, "rental_uris": {"android": "https://dc.lft.to/lastmile_qr_scan", "ios": "https://dc.lft.to/lastmile_qr_scan"}, "fusion_lon": 0.0}, {"lat": 38.90279066666667, "is_disabled": 0, "type": "electric_scooter", "lon": -77.06357483333333, "bike_id": "5de48b026f6d2a99d732d41c31aa0909", "fusion_lat": 0.0, "name": "5de48b026f6d2a99d732d41c31aa0909", "is_reserved": 0, "rental_uris": {"android": "https://dc.lft.to/lastmile_qr_scan", "ios": "https://dc.lft.to/lastmile_qr_scan"}, "fusion_lon": 0.0}, {"lat": 38.91260916666667, "is_disabled": 0, "type": "electric_scooter", "lon": -77.0447685, "bike_id": "307fdbe711e03fd4d8d89283827fd4d1", "fusion_lat": 0.0, "name": "307fdbe711e03fd4d8d89283827fd4d1", "is_reserved": 0, "rental_uris": {"android": "https://dc.lft.to/lastmile_qr_scan", "ios": "https://dc.lft.to/lastmile_qr_scan"}, "fusion_lon": 0.0}, {"lat": 38.843280666666665, "is_disabled": 0, "type": "electric_bike", "lon": -77.11483, "bike_id": "8f3d376a23b1dafde4b616c8e2dd0185", "fusion_lat": 0.0, "name": "8f3d376a23b1dafde4b616c8e2dd0185", "is_reserved": 0, "rental_uris": {"android": "https://dc.lft.to/lastmile_qr_scan", "ios": "https://dc.lft.to/lastmile_qr_scan"}, "fusion_lon": 0.0}, {"lat": 38.87145266666667, "is_disabled": 0, "type": "electric_bike", "lon": -76.93705433333334, "bike_id": "7132984751450fcf4d201d65e184328b", "fusion_lat": 0.0, "name": "7132984751450fcf4d201d65e184328b", "is_reserved": 0, "rental_uris": {"android": "https://dc.lft.to/lastmile_qr_scan", "ios": "https://dc.lft.to/lastmile_qr_scan"}, "fusion_lon": 0.0}, {"lat": 38.83695733333333, "is_disabled": 0, "type": "electric_scooter", "lon": -77.10303716666667, "bike_id": "d748c3418d6f3f3fcaa57d2412570a42", "fusion_lat": 0.0, "name": "d748c3418d6f3f3fcaa57d2412570a42", "is_reserved": 0, "rental_uris": {"android": "https://dc.lft.to/lastmile_qr_scan", "ios": "https://dc.lft.to/lastmile_qr_scan"}, "fusion_lon": 0.0}, {"lat": 38.916114666666665, "is_disabled": 0, "type": "electric_scooter", "lon": -77.03251433333334, "bike_id": "7f5f1fa1acfe70abc27dafc64fe179f6", "fusion_lat": 0.0, "name": "7f5f1fa1acfe70abc27dafc64fe179f6", "is_reserved": 0, "rental_uris": {"android": "https://dc.lft.to/lastmile_qr_scan", "ios": "https://dc.lft.to/lastmile_qr_scan"}, "fusion_lon": 0.0}, {"lat": 38.86830416666667, "is_disabled": 0, "type": "electric_scooter", "lon": -76.977377, "bike_id": "10c413a6d2895ee0174af859939598c3", "fusion_lat": 0.0, "name": "10c413a6d2895ee0174af859939598c3", "is_reserved": 0, "rental_uris": {"android": "https://dc.lft.to/lastmile_qr_scan", "ios": "https://dc.lft.to/lastmile_qr_scan"}, "fusion_lon": 0.0}, {"lat": 38.927079666666664, "is_disabled": 0, "type": "electric_scooter", "lon": -77.02098533333333, "bike_id": "a723e4ace94ca0b194fe59d4ec667aa8", "fusion_lat": 0.0, "name": "a723e4ace94ca0b194fe59d4ec667aa8", "is_reserved": 0, "rental_uris": {"android": "https://dc.lft.to/lastmile_qr_scan", "ios": "https://dc.lft.to/lastmile_qr_scan"}, "fusion_lon": 0.0}, {"lat": 38.916183, "is_disabled": 0, "type": "electric_scooter", "lon": -77.0486405, "bike_id": "b5e7cf30c39332f780e125aacca7eaa0", "fusion_lat": 0.0, "name": "b5e7cf30c39332f780e125aacca7eaa0", "is_reserved": 0, "rental_uris": {"android": "https://dc.lft.to/lastmile_qr_scan", "ios": "https://dc.lft.to/lastmile_qr_scan"}, "fusion_lon": 0.0}, {"lat": 38.914218, "is_disabled": 0, "type": "electric_scooter", "lon": -77.0464735, "bike_id": "e5cb582688447df23ad4e5b44ee77a74", "fusion_lat": 0.0, "name": "e5cb582688447df23ad4e5b44ee77a74", "is_reserved": 0, "rental_uris": {"android": "https://dc.lft.to/lastmile_qr_scan", "ios": "https://dc.lft.to/lastmile_qr_scan"}, "fusion_lon": 0.0}, {"lat": 38.9063275, "is_disabled": 0, "type": "electric_scooter", "lon": -77.02495683333333, "bike_id": "3104e64f4a9a8859e39927bc7a5b281d", "fusion_lat": 0.0, "name": "3104e64f4a9a8859e39927bc7a5b281d", "is_reserved": 0, "rental_uris": {"android": "https://dc.lft.to/lastmile_qr_scan", "ios": "https://dc.lft.to/lastmile_qr_scan"}, "fusion_lon": 0.0}, {"lat": 38.9007245, "is_disabled": 0, "type": "electric_scooter", "lon": -77.05061616666667, "bike_id": "042a83cf2038fc3f61970a37212c9ebb", "fusion_lat": 0.0, "name": "042a83cf2038fc3f61970a37212c9ebb", "is_reserved": 0, "rental_uris": {"android": "https://dc.lft.to/lastmile_qr_scan", "ios": "https://dc.lft.to/lastmile_qr_scan"}, "fusion_lon": 0.0}, {"lat": 38.9064755, "is_disabled": 0, "type": "electric_scooter", "lon": -77.05325233333333, "bike_id": "07a264360065047eb09fd03b1d90ba8a", "fusion_lat": 0.0, "name": "07a264360065047eb09fd03b1d90ba8a", "is_reserved": 0, "rental_uris": {"android": "https://dc.lft.to/lastmile_qr_scan", "ios": "https://dc.lft.to/lastmile_qr_scan"}, "fusion_lon": 0.0}, {"lat": 38.885329166666665, "is_disabled": 0, "type": "electric_scooter", "lon": -76.99820833333334, "bike_id": "8fa6f28b54c9cb2af5248ca5f7d785b9", "fusion_lat": 0.0, "name": "8fa6f28b54c9cb2af5248ca5f7d785b9", "is_reserved": 0, "rental_uris": {"android": "https://dc.lft.to/lastmile_qr_scan", "ios": "https://dc.lft.to/lastmile_qr_scan"}, "fusion_lon": 0.0}, {"lat": 38.868895, "is_disabled": 0, "type": "electric_scooter", "lon": -76.9831265, "bike_id": "3617b583686b52f49aac9fcb6c063386", "fusion_lat": 0.0, "name": "3617b583686b52f49aac9fcb6c063386", "is_reserved": 0, "rental_uris": {"android": "https://dc.lft.to/lastmile_qr_scan", "ios": "https://dc.lft.to/lastmile_qr_scan"}, "fusion_lon": 0.0}, {"lat": 38.902871833333336, "is_disabled": 0, "type": "electric_scooter", "lon": -77.00210183333333, "bike_id": "0ebd7aaed10f675cccdcbd7a83ad4b4f", "fusion_lat": 0.0, "name": "0ebd7aaed10f675cccdcbd7a83ad4b4f", "is_reserved": 0, "rental_uris": {"android": "https://dc.lft.to/lastmile_qr_scan", "ios": "https://dc.lft.to/lastmile_qr_scan"}, "fusion_lon": 0.0}, {"lat": 38.897186166666664, "is_disabled": 0, "type": "electric_scooter", "lon": -77.02435983333334, "bike_id": "9c12d8efbe75bf19e3b6c951c67b19c7", "fusion_lat": 0.0, "name": "9c12d8efbe75bf19e3b6c951c67b19c7", "is_reserved": 0, "rental_uris": {"android": "https://dc.lft.to/lastmile_qr_scan", "ios": "https://dc.lft.to/lastmile_qr_scan"}, "fusion_lon": 0.0}, {"lat": 38.902373, "is_disabled": 0, "type": "electric_scooter", "lon": -77.0006055, "bike_id": "58663f2d25b6fb2fdf904ae417a67a12", "fusion_lat": 0.0, "name": "58663f2d25b6fb2fdf904ae417a67a12", "is_reserved": 0, "rental_uris": {"android": "https://dc.lft.to/lastmile_qr_scan", "ios": "https://dc.lft.to/lastmile_qr_scan"}, "fusion_lon": 0.0}, {"lat": 38.898957833333334, "is_disabled": 0, "type": "electric_scooter", "lon": -76.99734316666667, "bike_id": "1c444e394fb48bc5f6bc925396c13630", "fusion_lat": 0.0, "name": "1c444e394fb48bc5f6bc925396c13630", "is_reserved": 0, "rental_uris": {"android": "https://dc.lft.to/lastmile_qr_scan", "ios": "https://dc.lft.to/lastmile_qr_scan"}, "fusion_lon": 0.0}, {"lat": 38.907741666666666, "is_disabled": 0, "type": "electric_scooter", "lon": -77.0385535, "bike_id": "6db60dfa72315d893148bb30adf6f151", "fusion_lat": 0.0, "name": "6db60dfa72315d893148bb30adf6f151", "is_reserved": 0, "rental_uris": {"android": "https://dc.lft.to/lastmile_qr_scan", "ios": "https://dc.lft.to/lastmile_qr_scan"}, "fusion_lon": 0.0}, {"lat": 38.905706333333335, "is_disabled": 0, "type": "electric_scooter", "lon": -77.00892616666667, "bike_id": "d5113e609470ea81673b313d49ca22b1", "fusion_lat": 0.0, "name": "d5113e609470ea81673b313d49ca22b1", "is_reserved": 0, "rental_uris": {"android": "https://dc.lft.to/lastmile_qr_scan", "ios": "https://dc.lft.to/lastmile_qr_scan"}, "fusion_lon": 0.0}, {"lat": 38.8075605, "is_disabled": 0, "type": "electric_bike", "lon": -77.094539, "bike_id": "ee95e8a7db68f537bd34ad5b6571b1d6", "fusion_lat": 0.0, "name": "ee95e8a7db68f537bd34ad5b6571b1d6", "is_reserved": 0, "rental_uris": {"android": "https://dc.lft.to/lastmile_qr_scan", "ios": "https://dc.lft.to/lastmile_qr_scan"}, "fusion_lon": 0.0}, {"lat": 38.92447966666667, "is_disabled": 0, "type": "electric_scooter", "lon": -77.0403325, "bike_id": "f790e87f50cb922e189aece95b1f83fa", "fusion_lat": 0.0, "name": "f790e87f50cb922e189aece95b1f83fa", "is_reserved": 0, "rental_uris": {"android": "https://dc.lft.to/lastmile_qr_scan", "ios": "https://dc.lft.to/lastmile_qr_scan"}, "fusion_lon": 0.0}, {"lat": 38.911221, "is_disabled": 0, "type": "electric_scooter", "lon": -77.043505, "bike_id": "8450510567c5a6bf5dc2ae680a3debe0", "fusion_lat": 0.0, "name": "8450510567c5a6bf5dc2ae680a3debe0", "is_reserved": 0, "rental_uris": {"android": "https://dc.lft.to/lastmile_qr_scan", "ios": "https://dc.lft.to/lastmile_qr_scan"}, "fusion_lon": 0.0}, {"lat": 38.88467583333333, "is_disabled": 0, "type": "electric_scooter", "lon": -76.99275683333333, "bike_id": "cc6c3600f677ef4aa560937c85f39dfb", "fusion_lat": 0.0, "name": "cc6c3600f677ef4aa560937c85f39dfb", "is_reserved": 0, "rental_uris": {"android": "https://dc.lft.to/lastmile_qr_scan", "ios": "https://dc.lft.to/lastmile_qr_scan"}, "fusion_lon": 0.0}, {"lat": 38.90262633333333, "is_disabled": 0, "type": "electric_scooter", "lon": -77.02675616666667, "bike_id": "f23bffb12752829a24b68e985ddcb6b9", "fusion_lat": 0.0, "name": "f23bffb12752829a24b68e985ddcb6b9", "is_reserved": 0, "rental_uris": {"android": "https://dc.lft.to/lastmile_qr_scan", "ios": "https://dc.lft.to/lastmile_qr_scan"}, "fusion_lon": 0.0}, {"lat": 38.892193166666665, "is_disabled": 0, "type": "electric_scooter", "lon": -76.99588733333333, "bike_id": "d2b0d4ba929a3b29ef6409e02645fe74", "fusion_lat": 0.0, "name": "d2b0d4ba929a3b29ef6409e02645fe74", "is_reserved": 0, "rental_uris": {"android": "https://dc.lft.to/lastmile_qr_scan", "ios": "https://dc.lft.to/lastmile_qr_scan"}, "fusion_lon": 0.0}, {"lat": 38.884914333333334, "is_disabled": 0, "type": "electric_scooter", "lon": -77.00713166666667, "bike_id": "69b6a39bee99a51e0f286e5a3f17fd5a", "fusion_lat": 0.0, "name": "69b6a39bee99a51e0f286e5a3f17fd5a", "is_reserved": 0, "rental_uris": {"android": "https://dc.lft.to/lastmile_qr_scan", "ios": "https://dc.lft.to/lastmile_qr_scan"}, "fusion_lon": 0.0}, {"lat": 39.0293215, "is_disabled": 0, "type": "electric_bike", "lon": -77.0492775, "bike_id": "061c71da2da4e6e3173a47387eeb2549", "fusion_lat": 0.0, "name": "061c71da2da4e6e3173a47387eeb2549", "is_reserved": 0, "rental_uris": {"android": "https://dc.lft.to/lastmile_qr_scan", "ios": "https://dc.lft.to/lastmile_qr_scan"}, "fusion_lon": 0.0}, {"lat": 38.91549883333333, "is_disabled": 0, "type": "electric_scooter", "lon": -77.038617, "bike_id": "e6f3e8489b350057150d93dce0e2b250", "fusion_lat": 0.0, "name": "e6f3e8489b350057150d93dce0e2b250", "is_reserved": 0, "rental_uris": {"android": "https://dc.lft.to/lastmile_qr_scan", "ios": "https://dc.lft.to/lastmile_qr_scan"}, "fusion_lon": 0.0}, {"lat": 38.91538033333333, "is_disabled": 0, "type": "electric_scooter", "lon": -77.02204566666667, "bike_id": "12e67b3d25714d9f3498b1f6b97010e2", "fusion_lat": 0.0, "name": "12e67b3d25714d9f3498b1f6b97010e2", "is_reserved": 0, "rental_uris": {"android": "https://dc.lft.to/lastmile_qr_scan", "ios": "https://dc.lft.to/lastmile_qr_scan"}, "fusion_lon": 0.0}, {"lat": 38.920302666666664, "is_disabled": 0, "type": "electric_scooter", "lon": -77.01325916666667, "bike_id": "49572d3a91d4272f377307c19f337acc", "fusion_lat": 0.0, "name": "49572d3a91d4272f377307c19f337acc", "is_reserved": 0, "rental_uris": {"android": "https://dc.lft.to/lastmile_qr_scan", "ios": "https://dc.lft.to/lastmile_qr_scan"}, "fusion_lon": 0.0}, {"lat": 38.90755566666667, "is_disabled": 0, "type": "electric_scooter", "lon": -76.999038, "bike_id": "9f970095b7cc3721e2eac0918f475e1a", "fusion_lat": 0.0, "name": "9f970095b7cc3721e2eac0918f475e1a", "is_reserved": 0, "rental_uris": {"android": "https://dc.lft.to/lastmile_qr_scan", "ios": "https://dc.lft.to/lastmile_qr_scan"}, "fusion_lon": 0.0}, {"lat": 38.9272165, "is_disabled": 0, "type": "electric_bike", "lon": -77.029697, "bike_id": "6a177029969b77a5b9808987f46385a9", "fusion_lat": 0.0, "name": "6a177029969b77a5b9808987f46385a9", "is_reserved": 0, "rental_uris": {"android": "https://dc.lft.to/lastmile_qr_scan", "ios": "https://dc.lft.to/lastmile_qr_scan"}, "fusion_lon": 0.0}, {"lat": 38.89612233333333, "is_disabled": 0, "type": "electric_scooter", "lon": -77.04493483333333, "bike_id": "6b4f3039cbaa821471625dcdf6cb24fe", "fusion_lat": 0.0, "name": "6b4f3039cbaa821471625dcdf6cb24fe", "is_reserved": 0, "rental_uris": {"android": "https://dc.lft.to/lastmile_qr_scan", "ios": "https://dc.lft.to/lastmile_qr_scan"}, "fusion_lon": 0.0}, {"lat": 38.937477666666666, "is_disabled": 0, "type": "electric_scooter", "lon": -77.03450533333333, "bike_id": "71dd738c40a0d7fa6b96a69dc9658b88", "fusion_lat": 0.0, "name": "71dd738c40a0d7fa6b96a69dc9658b88", "is_reserved": 0, "rental_uris": {"android": "https://dc.lft.to/lastmile_qr_scan", "ios": "https://dc.lft.to/lastmile_qr_scan"}, "fusion_lon": 0.0}, {"lat": 38.894951, "is_disabled": 0, "type": "electric_scooter", "lon": -77.0021035, "bike_id": "3199573167e4a581c1ce91d9b5ecaee4", "fusion_lat": 0.0, "name": "3199573167e4a581c1ce91d9b5ecaee4", "is_reserved": 0, "rental_uris": {"android": "https://dc.lft.to/lastmile_qr_scan", "ios": "https://dc.lft.to/lastmile_qr_scan"}, "fusion_lon": 0.0}, {"lat": 38.94407966666667, "is_disabled": 0, "type": "electric_scooter", "lon": -77.06240366666667, "bike_id": "48ae9a76361be714daa1185edbbcfad2", "fusion_lat": 0.0, "name": "48ae9a76361be714daa1185edbbcfad2", "is_reserved": 0, "rental_uris": {"android": "https://dc.lft.to/lastmile_qr_scan", "ios": "https://dc.lft.to/lastmile_qr_scan"}, "fusion_lon": 0.0}, {"lat": 38.92628666666667, "is_disabled": 0, "type": "electric_scooter", "lon": -77.04187866666666, "bike_id": "09c4a5fae2bb06d5416146b19715d408", "fusion_lat": 0.0, "name": "09c4a5fae2bb06d5416146b19715d408", "is_reserved": 0, "rental_uris": {"android": "https://dc.lft.to/lastmile_qr_scan", "ios": "https://dc.lft.to/lastmile_qr_scan"}, "fusion_lon": 0.0}, {"lat": 38.93328483333333, "is_disabled": 0, "type": "electric_scooter", "lon": -77.04364333333334, "bike_id": "12ed8baf70ba6378f99ab8f073c22bae", "fusion_lat": 0.0, "name": "12ed8baf70ba6378f99ab8f073c22bae", "is_reserved": 0, "rental_uris": {"android": "https://dc.lft.to/lastmile_qr_scan", "ios": "https://dc.lft.to/lastmile_qr_scan"}, "fusion_lon": 0.0}, {"lat": 38.902255333333336, "is_disabled": 0, "type": "electric_scooter", "lon": -77.06055766666667, "bike_id": "364f7389d91c6a66fb598b3eeccfd971", "fusion_lat": 0.0, "name": "364f7389d91c6a66fb598b3eeccfd971", "is_reserved": 0, "rental_uris": {"android": "https://dc.lft.to/lastmile_qr_scan", "ios": "https://dc.lft.to/lastmile_qr_scan"}, "fusion_lon": 0.0}, {"lat": 38.855669, "is_disabled": 0, "type": "electric_bike", "lon": -77.11143333333334, "bike_id": "d2d39300caa9d39856d5f6cbb457b697", "fusion_lat": 0.0, "name": "d2d39300caa9d39856d5f6cbb457b697", "is_reserved": 0, "rental_uris": {"android": "https://dc.lft.to/lastmile_qr_scan", "ios": "https://dc.lft.to/lastmile_qr_scan"}, "fusion_lon": 0.0}, {"lat": 38.919534166666665, "is_disabled": 0, "type": "electric_scooter", "lon": -76.98075316666667, "bike_id": "24e344b04cbb5fa07729db3957a15616", "fusion_lat": 0.0, "name": "24e344b04cbb5fa07729db3957a15616", "is_reserved": 0, "rental_uris": {"android": "https://dc.lft.to/lastmile_qr_scan", "ios": "https://dc.lft.to/lastmile_qr_scan"}, "fusion_lon": 0.0}, {"lat": 38.8973785, "is_disabled": 0, "type": "electric_scooter", "lon": -77.00782583333333, "bike_id": "67a21a2ce884c3163859d13a27572ff1", "fusion_lat": 0.0, "name": "67a21a2ce884c3163859d13a27572ff1", "is_reserved": 0, "rental_uris": {"android": "https://dc.lft.to/lastmile_qr_scan", "ios": "https://dc.lft.to/lastmile_qr_scan"}, "fusion_lon": 0.0}, {"lat": 38.922867333333336, "is_disabled": 0, "type": "electric_scooter", "lon": -77.0426125, "bike_id": "94fe74b052df3d2a61a66b1b5ffe4487", "fusion_lat": 0.0, "name": "94fe74b052df3d2a61a66b1b5ffe4487", "is_reserved": 0, "rental_uris": {"android": "https://dc.lft.to/lastmile_qr_scan", "ios": "https://dc.lft.to/lastmile_qr_scan"}, "fusion_lon": 0.0}, {"lat": 38.9053095, "is_disabled": 0, "type": "electric_scooter", "lon": -77.0624085, "bike_id": "e800d29e7943d7f68f90d03c6b613263", "fusion_lat": 0.0, "name": "e800d29e7943d7f68f90d03c6b613263", "is_reserved": 0, "rental_uris": {"android": "https://dc.lft.to/lastmile_qr_scan", "ios": "https://dc.lft.to/lastmile_qr_scan"}, "fusion_lon": 0.0}, {"lat": 38.9083865, "is_disabled": 0, "type": "electric_scooter", "lon": -76.99696216666666, "bike_id": "4b8fd65213a549e9734062cca9107e2f", "fusion_lat": 0.0, "name": "4b8fd65213a549e9734062cca9107e2f", "is_reserved": 0, "rental_uris": {"android": "https://dc.lft.to/lastmile_qr_scan", "ios": "https://dc.lft.to/lastmile_qr_scan"}, "fusion_lon": 0.0}, {"lat": 38.93317233333333, "is_disabled": 0, "type": "electric_scooter", "lon": -77.0452815, "bike_id": "11e8e104701a4a5c727a23c195ea8539", "fusion_lat": 0.0, "name": "11e8e104701a4a5c727a23c195ea8539", "is_reserved": 0, "rental_uris": {"android": "https://dc.lft.to/lastmile_qr_scan", "ios": "https://dc.lft.to/lastmile_qr_scan"}, "fusion_lon": 0.0}, {"lat": 38.94896983333334, "is_disabled": 0, "type": "electric_scooter", "lon": -77.03046666666667, "bike_id": "bd743fd49fd95934cb017be67a0ae2df", "fusion_lat": 0.0, "name": "bd743fd49fd95934cb017be67a0ae2df", "is_reserved": 0, "rental_uris": {"android": "https://dc.lft.to/lastmile_qr_scan", "ios": "https://dc.lft.to/lastmile_qr_scan"}, "fusion_lon": 0.0}, {"lat": 38.90275316666666, "is_disabled": 0, "type": "electric_scooter", "lon": -77.03799983333333, "bike_id": "f5fcaf9813df423d025fa2fe4b93638f", "fusion_lat": 0.0, "name": "f5fcaf9813df423d025fa2fe4b93638f", "is_reserved": 0, "rental_uris": {"android": "https://dc.lft.to/lastmile_qr_scan", "ios": "https://dc.lft.to/lastmile_qr_scan"}, "fusion_lon": 0.0}, {"lat": 38.97227383333333, "is_disabled": 0, "type": "electric_bike", "lon": -76.99344266666667, "bike_id": "4d40048ea490c7a16eb3155e727e3bbc", "fusion_lat": 0.0, "name": "4d40048ea490c7a16eb3155e727e3bbc", "is_reserved": 0, "rental_uris": {"android": "https://dc.lft.to/lastmile_qr_scan", "ios": "https://dc.lft.to/lastmile_qr_scan"}, "fusion_lon": 0.0}, {"lat": 38.922321833333335, "is_disabled": 0, "type": "electric_scooter", "lon": -77.04571, "bike_id": "02272ed064f3a158cb80ecfa21e3f0ea", "fusion_lat": 0.0, "name": "02272ed064f3a158cb80ecfa21e3f0ea", "is_reserved": 0, "rental_uris": {"android": "https://dc.lft.to/lastmile_qr_scan", "ios": "https://dc.lft.to/lastmile_qr_scan"}, "fusion_lon": 0.0}, {"lat": 38.900256666666664, "is_disabled": 0, "type": "electric_bike", "lon": -76.98072333333333, "bike_id": "75a4e114e2d017c723186407f3c774db", "fusion_lat": 0.0, "name": "75a4e114e2d017c723186407f3c774db", "is_reserved": 0, "rental_uris": {"android": "https://dc.lft.to/lastmile_qr_scan", "ios": "https://dc.lft.to/lastmile_qr_scan"}, "fusion_lon": 0.0}, {"lat": 38.91701883333333, "is_disabled": 0, "type": "electric_scooter", "lon": -77.03343116666667, "bike_id": "a4506b75e53dd00c696e00af0034a577", "fusion_lat": 0.0, "name": "a4506b75e53dd00c696e00af0034a577", "is_reserved": 0, "rental_uris": {"android": "https://dc.lft.to/lastmile_qr_scan", "ios": "https://dc.lft.to/lastmile_qr_scan"}, "fusion_lon": 0.0}, {"lat": 38.934731666666664, "is_disabled": 0, "type": "electric_scooter", "lon": -77.0411745, "bike_id": "6ed2167c277d5641c012d2e553019325", "fusion_lat": 0.0, "name": "6ed2167c277d5641c012d2e553019325", "is_reserved": 0, "rental_uris": {"android": "https://dc.lft.to/lastmile_qr_scan", "ios": "https://dc.lft.to/lastmile_qr_scan"}, "fusion_lon": 0.0}, {"lat": 38.895526833333335, "is_disabled": 0, "type": "electric_scooter", "lon": -77.00916616666666, "bike_id": "a7a2a844a99b28b262983c7f9f7ff209", "fusion_lat": 0.0, "name": "a7a2a844a99b28b262983c7f9f7ff209", "is_reserved": 0, "rental_uris": {"android": "https://dc.lft.to/lastmile_qr_scan", "ios": "https://dc.lft.to/lastmile_qr_scan"}, "fusion_lon": 0.0}, {"lat": 38.897326666666665, "is_disabled": 0, "type": "electric_scooter", "lon": -77.02389466666666, "bike_id": "2045c93ca3311152217944a88de1bcf7", "fusion_lat": 0.0, "name": "2045c93ca3311152217944a88de1bcf7", "is_reserved": 0, "rental_uris": {"android": "https://dc.lft.to/lastmile_qr_scan", "ios": "https://dc.lft.to/lastmile_qr_scan"}, "fusion_lon": 0.0}, {"lat": 38.9125465, "is_disabled": 0, "type": "electric_scooter", "lon": -77.03794066666667, "bike_id": "117a6b862bb0617fc512f1bf03f198d4", "fusion_lat": 0.0, "name": "117a6b862bb0617fc512f1bf03f198d4", "is_reserved": 0, "rental_uris": {"android": "https://dc.lft.to/lastmile_qr_scan", "ios": "https://dc.lft.to/lastmile_qr_scan"}, "fusion_lon": 0.0}, {"lat": 38.90370383333333, "is_disabled": 0, "type": "electric_scooter", "lon": -76.99233866666667, "bike_id": "2e3cb98dd01122ba1e321407ffd35724", "fusion_lat": 0.0, "name": "2e3cb98dd01122ba1e321407ffd35724", "is_reserved": 0, "rental_uris": {"android": "https://dc.lft.to/lastmile_qr_scan", "ios": "https://dc.lft.to/lastmile_qr_scan"}, "fusion_lon": 0.0}, {"lat": 38.908242666666666, "is_disabled": 0, "type": "electric_scooter", "lon": -77.00085966666667, "bike_id": "485d284518ff6bfffa24fead55b6d7db", "fusion_lat": 0.0, "name": "485d284518ff6bfffa24fead55b6d7db", "is_reserved": 0, "rental_uris": {"android": "https://dc.lft.to/lastmile_qr_scan", "ios": "https://dc.lft.to/lastmile_qr_scan"}, "fusion_lon": 0.0}, {"lat": 38.913160500000004, "is_disabled": 0, "type": "electric_scooter", "lon": -76.98643683333333, "bike_id": "5a4d36d5ca32b7f2cb930c3524d7e330", "fusion_lat": 0.0, "name": "5a4d36d5ca32b7f2cb930c3524d7e330", "is_reserved": 0, "rental_uris": {"android": "https://dc.lft.to/lastmile_qr_scan", "ios": "https://dc.lft.to/lastmile_qr_scan"}, "fusion_lon": 0.0}, {"lat": 38.91707016666667, "is_disabled": 0, "type": "electric_scooter", "lon": -77.0272815, "bike_id": "a38249da5c06de90e25d5a66cf08ce86", "fusion_lat": 0.0, "name": "a38249da5c06de90e25d5a66cf08ce86", "is_reserved": 0, "rental_uris": {"android": "https://dc.lft.to/lastmile_qr_scan", "ios": "https://dc.lft.to/lastmile_qr_scan"}, "fusion_lon": 0.0},