{"data": {"bikes": [{"fusion_lat": 0.0, "name": "3cd028992db1618ec139370bb19b6a26", "is_disabled": 0, "rental_uris": {"android": "https://dc.lft.to/lastmile_qr_scan", "ios": "https://dc.lft.to/lastmile_qr_scan"}, "fusion_lon": 0.0, "lat": 38.921857, "bike_id": "3cd028992db1618ec139370bb19b6a26", "type": "electric_scooter", "is_reserved": 0, "lon": -77.07435933333333}, {"fusion_lat": 0.0, "name": "740e9b4b621c7e1ae95a3f369e44b3f1", "is_disabled": 0, "rental_uris": {"android": "https://dc.lft.to/lastmile_qr_scan", "ios": "https://dc.lft.to/lastmile_qr_scan"}, "fusion_lon": 0.0, "lat": 38.91622866666667, "bike_id": "740e9b4b621c7e1ae95a3f369e44b3f1", "type": "electric_scooter", "is_reserved": 0, "lon": -77.02155116666667}, {"fusion_lat": 0.0, "name": "b100c4af02e3dda95ae670d86b817747", "is_disabled": 0, "rental_uris": {"android": "https://dc.lft.to/lastmile_qr_scan", "ios": "https://dc.lft.to/lastmile_qr_scan"}, "fusion_lon": 0.0, "lat": 38.91273666666667, "bike_id": "b100c4af02e3dda95ae670d86b817747", "type": "electric_scooter", "is_reserved": 0, "lon": -77.02240466666667}, {"fusion_lat": 0.0, "name": "ab17783f136d6209676615d14dec801b", "is_disabled": 0, "rental_uris": {"android": "https://dc.lft.to/lastmile_qr_scan", "ios": "https://dc.lft.to/lastmile_qr_scan"}, "fusion_lon": 0.0, "lat": 38.9412, "bike_id": "ab17783f136d6209676615d14dec801b", "type": "electric_bike", "is_reserved": 0, "lon": -76.990323}, {"fusion_lat": 0.0, "name": "d5330d95a06431bfc11b926725042855", "is_disabled": 0, "rental_uris": {"android": "https://dc.lft.to/lastmile_qr_scan", "ios": "https://dc.lft.to/lastmile_qr_scan"}, "fusion_lon": 0.0, "lat": 38.92243366666667, "bike_id": "d5330d95a06431bfc11b926725042855", "type": "electric_scooter", "is_reserved": 0, "lon": -77.03903833333334}, {"fusion_lat": 0.0, "name": "dc0b5fb137c0212920f39c268d6dc54a", "is_disabled": 0, "rental_uris": {"android": "https://dc.lft.to/lastmile_qr_scan", "ios": "https://dc.lft.to/lastmile_qr_scan"}, "fusion_lon": 0.0, "lat": 38.94919316666667, "bike_id": "dc0b5fb137c0212920f39c268d6dc54a", "type": "electric_bike", "is_reserved": 0, "lon": -77.0079645}, {"fusion_lat": 0.0, "name": "76c49641492b4b279a60998a975b76fc", "is_disabled": 0, "rental_uris": {"android": "https://dc.lft.to/lastmile_qr_scan", "ios": "https://dc.lft.to/lastmile_qr_scan"}, "fusion_lon": 0.0, "lat": 38.903891, "bike_id": "76c49641492b4b279a60998a975b76fc", "type": "electric_scooter", "is_reserved": 0, "lon": -77.0381545}, {"fusion_lat": 0.0, "name": "1649d26ddca581cecae2924ebe710ccc", "is_disabled": 0, "rental_uris": {"android": "https://dc.lft.to/lastmile_qr_scan", "ios": "https://dc.lft.to/lastmile_qr_scan"}, "fusion_lon": 0.0, "lat": 38.926865666666664, "bike_id": "1649d26ddca581cecae2924ebe710ccc", "type": "electric_scooter", "is_reserved": 0, "lon": -77.02968883333334}, {"fusion_lat": 0.0, "name": "fdafddd7fb6768e06d47a4512c971b46", "is_disabled": 0, "rental_uris": {"android": "https://dc.lft.to/lastmile_qr_scan", "ios": "https://dc.lft.to/lastmile_qr_scan"}, "fusion_lon": 0.0, "lat": 38.91741833333333, "bike_id": "fdafddd7fb6768e06d47a4512c971b46", "type": "electric_scooter", "is_reserved": 0, "lon": -77.04586183333333}, {"fusion_lat": 0.0, "name": "359d656ecc546e6ac753677d02fe65be", "is_disabled": 0, "rental_uris": {"android": "https://dc.lft.to/lastmile_qr_scan", "ios": "https://dc.lft.to/lastmile_qr_scan"}, "fusion_lon": 0.0, "lat": 38.907124833333334, "bike_id": "359d656ecc546e6ac753677d02fe65be", "type": "electric_scooter", "is_reserved": 0, "lon": -76.99846}, {"fusion_lat": 0.0, "name": "8d99ddc83f6dd4fc4085d269e5ab1a92", "is_disabled": 0, "rental_uris": {"android": "https://dc.lft.to/lastmile_qr_scan", "ios": "https://dc.lft.to/lastmile_qr_scan"}, "fusion_lon": 0.0, "lat": 38.93588183333333, "bike_id": "8d99ddc83f6dd4fc4085d269e5ab1a92", "type": "electric_scooter", "is_reserved": 0, "lon": -77.0283865}, {"fusion_lat": 0.0, "name": "37aa75f3a2b0e9ba2f95c4b53a6bc419", "is_disabled": 0, "rental_uris": {"android": "https://dc.lft.to/lastmile_qr_scan", "ios": "https://dc.lft.to/lastmile_qr_scan"}, "fusion_lon": 0.0, "lat": 38.9058935, "bike_id": "37aa75f3a2b0e9ba2f95c4b53a6bc419", "type": "electric_scooter", "is_reserved": 0, "lon": -77.016088}, {"fusion_lat": 0.0, "name": "b16fec9c20d38bdeee00f2be1743147e", "is_disabled": 0, "rental_uris": {"android": "https://dc.lft.to/lastmile_qr_scan", "ios": "https://dc.lft.to/lastmile_qr_scan"}, "fusion_lon": 0.0, "lat": 38.9047695, "bike_id": "b16fec9c20d38bdeee00f2be1743147e", "type": "electric_scooter", "is_reserved": 0, "lon": -76.95197083333333}, {"fusion_lat": 0.0, "name": "7ea72fbffcddfc931692a57b8f3cf74d", "is_disabled": 0, "rental_uris": {"android": "https://dc.lft.to/lastmile_qr_scan", "ios": "https://dc.lft.to/lastmile_qr_scan"}, "fusion_lon": 0.0, "lat": 38.922040333333335, "bike_id": "7ea72fbffcddfc931692a57b8f3cf74d", "type": "electric_bike", "is_reserved": 0, "lon": -77.08185666666667}, {"fusion_lat": 0.0, "name": "cc6b8af994eacc5463bcb217d04cf566", "is_disabled": 0, "rental_uris": {"android": "https://dc.lft.to/lastmile_qr_scan", "ios": "https://dc.lft.to/lastmile_qr_scan"}, "fusion_lon": 0.0, "lat": 38.920786666666665, "bike_id": "cc6b8af994eacc5463bcb217d04cf566", "type": "electric_scooter", "is_reserved": 0, "lon": -77.0333425}, {"fusion_lat": 0.0, "name": "7682f2c085e3d33b5199767427969d53", "is_disabled": 0, "rental_uris": {"android": "https://dc.lft.to/lastmile_qr_scan", "ios": "https://dc.lft.to/lastmile_qr_scan"}, "fusion_lon": 0.0, "lat": 38.92346633333333, "bike_id": "7682f2c085e3d33b5199767427969d53", "type": "electric_scooter", "is_reserved": 0, "lon": -77.03904066666666}, {"fusion_lat": 0.0, "name": "983e5e322f2509542195a6f14633b868", "is_disabled": 0, "rental_uris": {"android": "https://dc.lft.to/lastmile_qr_scan", "ios": "https://dc.lft.to/lastmile_qr_scan"}, "fusion_lon": 0.0, "lat": 38.917529, "bike_id": "983e5e322f2509542195a6f14633b868", "type": "electric_scooter", "is_reserved": 0, "lon": -77.02486633333334}, {"fusion_lat": 0.0, "name": "9c52d329f4e1cd76375a8e82a95c8c97", "is_disabled": 0, "rental_uris": {"android": "https://dc.lft.to/lastmile_qr_scan", "ios": "https://dc.lft.to/lastmile_qr_scan"}, "fusion_lon": 0.0, "lat": 38.901215666666666, "bike_id": "9c52d329f4e1cd76375a8e82a95c8c97", "type": "electric_scooter", "is_reserved": 0, "lon": -77.01817983333333}, {"fusion_lat": 0.0, "name": "1db3c1a6a281f108528f9d9f3410ca32", "is_disabled": 0, "rental_uris": {"android": "https://dc.lft.to/lastmile_qr_scan", "ios": "https://dc.lft.to/lastmile_qr_scan"}, "fusion_lon": 0.0, "lat": 38.92727266666667, "bike_id": "1db3c1a6a281f108528f9d9f3410ca32", "type": "electric_scooter", "is_reserved": 0, "lon": -77.030643}, {"fusion_lat": 0.0, "name": "1b50f7714068038233788d0e11336f14", "is_disabled": 0, "rental_uris": {"android": "https://dc.lft.to/lastmile_qr_scan", "ios": "https://dc.lft.to/lastmile_qr_scan"}, "fusion_lon": 0.0, "lat": 38.917095833333335, "bike_id": "1b50f7714068038233788d0e11336f14", "type": "electric_scooter", "is_reserved": 0, "lon": -77.03870316666666}, {"fusion_lat": 0.0, "name": "3e6eb7b32c96fa0fa7e000d9b97d2cef", "is_disabled": 0, "rental_uris": {"android": "https://dc.lft.to/lastmile_qr_scan", "ios": "https://dc.lft.to/lastmile_qr_scan"}, "fusion_lon": 0.0, "lat": 38.80711083333333, "bike_id": "3e6eb7b32c96fa0fa7e000d9b97d2cef", "type": "electric_bike", "is_reserved": 0, "lon": -77.06171466666666}, {"fusion_lat": 0.0, "name": "6ac9997d0b2b3f3125373483c6f5c298", "is_disabled": 0, "rental_uris": {"android": "https://dc.lft.to/lastmile_qr_scan", "ios": "https://dc.lft.to/lastmile_qr_scan"}, "fusion_lon": 0.0, "lat": 38.925359, "bike_id": "6ac9997d0b2b3f3125373483c6f5c298", "type": "electric_scooter", "is_reserved": 0, "lon": -77.00755516666666}, {"fusion_lat": 0.0, "name": "52a16304b0c3992935f787f4c8d39c15", "is_disabled": 0, "rental_uris": {"android": "https://dc.lft.to/lastmile_qr_scan", "ios": "https://dc.lft.to/lastmile_qr_scan"}, "fusion_lon": 0.0, "lat": 38.81921466666667, "bike_id": "52a16304b0c3992935f787f4c8d39c15", "type": "electric_bike", "is_reserved": 0, "lon": -77.04788733333334}, {"fusion_lat": 0.0, "name": "a002fdb9ca0696e512e8e562ec0342a8", "is_disabled": 0, "rental_uris": {"android": "https://dc.lft.to/lastmile_qr_scan", "ios": "https://dc.lft.to/lastmile_qr_scan"}, "fusion_lon": 0.0, "lat": 38.812467833333336, "bike_id": "a002fdb9ca0696e512e8e562ec0342a8", "type": "electric_bike", "is_reserved": 0, "lon": -77.1176995}, {"fusion_lat": 0.0, "name": "69170adf330dd342828aa8e2d98ea8f5", "is_disabled": 0, "rental_uris": {"android": "https://dc.lft.to/lastmile_qr_scan", "ios": "https://dc.lft.to/lastmile_qr_scan"}, "fusion_lon": 0.0, "lat": 38.891067666666665, "bike_id": "69170adf330dd342828aa8e2d98ea8f5", "type": "electric_scooter", "is_reserved": 0, "lon": -76.996224}, {"fusion_lat": 0.0, "name": "b356e651c16da6f300303c6641aa62f0", "is_disabled": 0, "rental_uris": {"android": "https://dc.lft.to/lastmile_qr_scan", "ios": "https://dc.lft.to/lastmile_qr_scan"}, "fusion_lon": 0.0, "lat": 38.883023, "bike_id": "b356e651c16da6f300303c6641aa62f0", "type": "electric_scooter", "is_reserved": 0, "lon": -76.94856833333333}, {"fusion_lat": 0.0, "name": "c3f72fe6cec446eec99e313a61c2196c", "is_disabled": 0, "rental_uris": {"android": "https://dc.lft.to/lastmile_qr_scan", "ios": "https://dc.lft.to/lastmile_qr_scan"}, "fusion_lon": 0.0, "lat": 38.90733083333333, "bike_id": "c3f72fe6cec446eec99e313a61c2196c", "type": "electric_scooter", "is_reserved": 0, "lon": -76.935476}, {"fusion_lat": 0.0, "name": "8b43b9dd18e36138a4af577aac51fee1", "is_disabled": 0, "rental_uris": {"android": "https://dc.lft.to/lastmile_qr_scan", "ios": "https://dc.lft.to/lastmile_qr_scan"}, "fusion_lon": 0.0, "lat": 38.904013, "bike_id": "8b43b9dd18e36138a4af577aac51fee1", "type": "electric_scooter", "is_reserved": 0, "lon": -77.06808916666667}, {"fusion_lat": 0.0, "name": "ffa7d56b3ae894a4c13196e303f394fe", "is_disabled": 0, "rental_uris": {"android": "https://dc.lft.to/lastmile_qr_scan", "ios": "https://dc.lft.to/lastmile_qr_scan"}, "fusion_lon": 0.0, "lat": 38.87927333333333, "bike_id": "ffa7d56b3ae894a4c13196e303f394fe", "type": "electric_scooter", "is_reserved": 0, "lon": -77.004234}, {"fusion_lat": 0.0, "name": "da26fd49224afbf0e8af81688b855c91", "is_disabled": 0, "rental_uris": {"android": "https://dc.lft.to/lastmile_qr_scan", "ios": "https://dc.lft.to/lastmile_qr_scan"}, "fusion_lon": 0.0, "lat": 38.93195083333333, "bike_id": "da26fd49224afbf0e8af81688b855c91", "type": "electric_scooter", "is_reserved": 0, "lon": -77.01970933333334}, {"fusion_lat": 0.0, "name": "12f055dde5b864fa16c1efbe12def030", "is_disabled": 0, "rental_uris": {"android": "https://dc.lft.to/lastmile_qr_scan", "ios": "https://dc.lft.to/lastmile_qr_scan"}, "fusion_lon": 0.0, "lat": 38.91383483333333, "bike_id": "12f055dde5b864fa16c1efbe12def030", "type": "electric_scooter", "is_reserved": 0, "lon": -77.018024}, {"fusion_lat": 0.0, "name": "e650b33c9df2760f439bcf0a75c62255", "is_disabled": 0, "rental_uris": {"android": "https://dc.lft.to/lastmile_qr_scan", "ios": "https://dc.lft.to/lastmile_qr_scan"}, "fusion_lon": 0.0, "lat": 38.9211775, "bike_id": "e650b33c9df2760f439bcf0a75c62255", "type": "electric_scooter", "is_reserved": 0, "lon": -77.04398216666667}, {"fusion_lat": 0.0, "name": "0be10b8fbd25456f83db187a06032137", "is_disabled": 0, "rental_uris": {"android": "https://dc.lft.to/lastmile_qr_scan", "ios": "https://dc.lft.to/lastmile_qr_scan"}, "fusion_lon": 0.0, "lat": 38.91115533333333, "bike_id": "0be10b8fbd25456f83db187a06032137", "type": "electric_scooter", "is_reserved": 0, "lon": -77.0373535}, {"fusion_lat": 0.0, "name": "6558f3ddf180ffb1144cc0605434eac3", "is_disabled": 0, "rental_uris": {"android": "https://dc.lft.to/lastmile_qr_scan", "ios": "https://dc.lft.to/lastmile_qr_scan"}, "fusion_lon": 0.0, "lat": 38.952459, "bike_id": "6558f3ddf180ffb1144cc0605434eac3", "type": "electric_scooter", "is_reserved": 0, "lon": -77.02375133333334}, {"fusion_lat": 0.0, "name": "1f21eed11804eeb91c5f1af3b8bc36aa", "is_disabled": 0, "rental_uris": {"android": "https://dc.lft.to/lastmile_qr_scan", "ios": "https://dc.lft.to/lastmile_qr_scan"}, "fusion_lon": 0.0, "lat": 38.929818, "bike_id": "1f21eed11804eeb91c5f1af3b8bc36aa", "type": "electric_scooter", "is_reserved": 0, "lon": -77.04186366666667}, {"fusion_lat": 0.0, "name": "f23e9861f32df59c8352457fc9aa7575", "is_disabled": 0, "rental_uris": {"android": "https://dc.lft.to/lastmile_qr_scan", "ios": "https://dc.lft.to/lastmile_qr_scan"}, "fusion_lon": 0.0, "lat": 38.905764833333336, "bike_id": "f23e9861f32df59c8352457fc9aa7575", "type": "electric_scooter", "is_reserved": 0, "lon": -77.00693333333334}, {"fusion_lat": 0.0, "name": "0e9c2139be273fccffa17a414f165f16", "is_disabled": 0, "rental_uris": {"android": "https://dc.lft.to/lastmile_qr_scan", "ios": "https://dc.lft.to/lastmile_qr_scan"}, "fusion_lon": 0.0, "lat": 38.926829833333336, "bike_id": "0e9c2139be273fccffa17a414f165f16", "type": "electric_scooter", "is_reserved": 0, "lon": -77.03101083333334}, {"fusion_lat": 0.0, "name": "db4f530f964a0de525e4edb8805ccf58", "is_disabled": 0, "rental_uris": {"android": "https://dc.lft.to/lastmile_qr_scan", "ios": "https://dc.lft.to/lastmile_qr_scan"}, "fusion_lon": 0.0, "lat": 38.930656666666664, "bike_id": "db4f530f964a0de525e4edb8805ccf58", "type": "electric_scooter", "is_reserved": 0, "lon": -77.02274583333333}, {"fusion_lat": 0.0, "name": "695054ffc8e5a50462d4baaac6533dfb", "is_disabled": 0, "rental_uris": {"android": "https://dc.lft.to/lastmile_qr_scan", "ios": "https://dc.lft.to/lastmile_qr_scan"}, "fusion_lon": 0.0, "lat": 38.8901335, "bike_id": "695054ffc8e5a50462d4baaac6533dfb", "type": "electric_scooter", "is_reserved": 0, "lon": -76.9373295}, {"fusion_lat": 0.0, "name": "a93107520731ab24b4129fe8c4c85bb8", "is_disabled": 0, "rental_uris": {"android": "https://dc.lft.to/lastmile_qr_scan", "ios": "https://dc.lft.to/lastmile_qr_scan"}, "fusion_lon": 0.0, "lat": 38.91987616666667, "bike_id": "a93107520731ab24b4129fe8c4c85bb8", "type": "electric_scooter", "is_reserved": 0, "lon": -77.023951}, {"fusion_lat": 0.0, "name": "3f2a6f4940948576d65f523102407f8c", "is_disabled": 0, "rental_uris": {"android": "https://dc.lft.to/lastmile_qr_scan", "ios": "https://dc.lft.to/lastmile_qr_scan"}, "fusion_lon": 0.0, "lat": 38.87987233333333, "bike_id": "3f2a6f4940948576d65f523102407f8c", "type": "electric_bike", "is_reserved": 0, "lon": -76.984094}, {"fusion_lat": 0.0, "name": "65cd97bcaff86a9455792ac1d1f8168f", "is_disabled": 0, "rental_uris": {"android": "https://dc.lft.to/lastmile_qr_scan", "ios": "https://dc.lft.to/lastmile_qr_scan"}, "fusion_lon": 0.0, "lat": 38.921695166666666, "bike_id": "65cd97bcaff86a9455792ac1d1f8168f", "type": "electric_scooter", "is_reserved": 0, "lon": -77.04233066666667}, {"fusion_lat": 0.0, "name": "4471262fbce4e209ad4727f0052546d5", "is_disabled": 0, "rental_uris": {"android": "https://dc.lft.to/lastmile_qr_scan", "ios": "https://dc.lft.to/lastmile_qr_scan"}, "fusion_lon": 0.0, "lat": 38.919199666666664, "bike_id": "4471262fbce4e209ad4727f0052546d5", "type": "electric_scooter", "is_reserved": 0, "lon": -77.03185633333334}, {"fusion_lat": 0.0, "name": "826429bfe30c4e299f7dc25b74b23ba4", "is_disabled": 0, "rental_uris": {"android": "https://dc.lft.to/lastmile_qr_scan", "ios": "https://dc.lft.to/lastmile_qr_scan"}, "fusion_lon": 0.0, "lat": 38.90966183333333, "bike_id": "826429bfe30c4e299f7dc25b74b23ba4", "type": "electric_scooter", "is_reserved": 0, "lon": -77.04701816666666}, {"fusion_lat": 0.0, "name": "0be377c0c125a7090d38de4b8e11764f", "is_disabled": 0, "rental_uris": {"android": "https://dc.lft.to/lastmile_qr_scan", "ios": "https://dc.lft.to/lastmile_qr_scan"}, "fusion_lon": 0.0, "lat": 38.9166105, "bike_id": "0be377c0c125a7090d38de4b8e11764f", "type": "electric_scooter", "is_reserved": 0, "lon": -77.03848366666666}, {"fusion_lat": 0.0, "name": "0e7c38480b65cc26dc1b16361d2353e5", "is_disabled": 0, "rental_uris": {"android": "https://dc.lft.to/lastmile_qr_scan", "ios": "https://dc.lft.to/lastmile_qr_scan"}, "fusion_lon": 0.0, "lat": 38.9511785, "bike_id": "0e7c38480b65cc26dc1b16361d2353e5", "type": "electric_bike", "is_reserved": 0, "lon": -77.02773683333334}, {"fusion_lat": 0.0, "name": "3f9b0ab7ce6752f8db98fd0f155fc790", "is_disabled": 0, "rental_uris": {"android": "https://dc.lft.to/lastmile_qr_scan", "ios": "https://dc.lft.to/lastmile_qr_scan"}, "fusion_lon": 0.0, "lat": 38.911686333333336, "bike_id": "3f9b0ab7ce6752f8db98fd0f155fc790", "type": "electric_scooter", "is_reserved": 0, "lon": -77.027229}, {"fusion_lat": 0.0, "name": "18b87996dca48769049743f6e6d27483", "is_disabled": 0, "rental_uris": {"android": "https://dc.lft.to/lastmile_qr_scan", "ios": "https://dc.lft.to/lastmile_qr_scan"}, "fusion_lon": 0.0, "lat": 38.92403016666667, "bike_id": "18b87996dca48769049743f6e6d27483", "type": "electric_scooter", "is_reserved": 0, "lon": -77.02542933333334}, {"fusion_lat": 0.0, "name": "890f1809b3e74e944f5bd81922a4dbbc", "is_disabled": 0, "rental_uris": {"android": "https://dc.lft.to/lastmile_qr_scan", "ios": "https://dc.lft.to/lastmile_qr_scan"}, "fusion_lon": 0.0, "lat": 38.906726, "bike_id": "890f1809b3e74e944f5bd81922a4dbbc", "type": "electric_scooter", "is_reserved": 0, "lon": -77.00968183333333}, {"fusion_lat": 0.0, "name": "b1046df280b0bca5cb1dbe134da75a18", "is_disabled": 0, "rental_uris": {"android": "https://dc.lft.to/lastmile_qr_scan", "ios": "https://dc.lft.to/lastmile_qr_scan"}, "fusion_lon": 0.0, "lat": 38.902395166666665, "bike_id": "b1046df280b0bca5cb1dbe134da75a18", "type": "electric_scooter", "is_reserved": 0, "lon": -77.04618966666666}, {"fusion_lat": 0.0, "name": "1a14beecea8ea9d73c183afb9c991f52", "is_disabled": 0, "rental_uris": {"android": "https://dc.lft.to/lastmile_qr_scan", "ios": "https://dc.lft.to/lastmile_qr_scan"}, "fusion_lon": 0.0, "lat": 38.90693366666667, "bike_id": "1a14beecea8ea9d73c183afb9c991f52", "type": "electric_scooter", "is_reserved": 0, "lon": -76.95191383333334}, {"fusion_lat": 0.0, "name": "0c09dec9f4c7bb60d65de3535cc48d38", "is_disabled": 0, "rental_uris": {"android": "https://dc.lft.to/lastmile_qr_scan", "ios": "https://dc.lft.to/lastmile_qr_scan"}, "fusion_lon": 0.0, "lat": 38.8363065, "bike_id": "0c09dec9f4c7bb60d65de3535cc48d38", "type": "electric_bike", "is_reserved": 0, "lon": -77.06947966666667}, {"fusion_lat": 0.0, "name": "6068d0b72fabc998a5256b1ab9647a00", "is_disabled": 0, "rental_uris": {"android": "https://dc.lft.to/lastmile_qr_scan", "ios": "https://dc.lft.to/lastmile_qr_scan"}, "fusion_lon": 0.0, "lat": 38.98472, "bike_id": "6068d0b72fabc998a5256b1ab9647a00", "type": "electric_scooter", "is_reserved": 0, "lon": -77.026382}, {"fusion_lat": 0.0, "name": "148804e6b16ca5837d01db461d1ea7bc", "is_disabled": 0, "rental_uris": {"android": "https://dc.lft.to/lastmile_qr_scan", "ios": "https://dc.lft.to/lastmile_qr_scan"}, "fusion_lon": 0.0, "lat": 38.921364, "bike_id": "148804e6b16ca5837d01db461d1ea7bc", "type": "electric_scooter", "is_reserved": 0, "lon": -77.00399933333334}, {"fusion_lat": 0.0, "name": "6717f322743176ffdbd3d3057c4efb67", "is_disabled": 0, "rental_uris": {"android": "https://dc.lft.to/lastmile_qr_scan", "ios": "https://dc.lft.to/lastmile_qr_scan"}, "fusion_lon": 0.0, "lat": 38.99237983333333, "bike_id": "6717f322743176ffdbd3d3057c4efb67", "type": "electric_bike", "is_reserved": 0, "lon": -76.944428}, {"fusion_lat": 0.0, "name": "2858f1e0240a43e93e3cfb5f96c2fdb2", "is_disabled": 0, "rental_uris": {"android": "https://dc.lft.to/lastmile_qr_scan", "ios": "https://dc.lft.to/lastmile_qr_scan"}, "fusion_lon": 0.0, "lat": 38.909510833333336, "bike_id": "2858f1e0240a43e93e3cfb5f96c2fdb2", "type": "electric_scooter", "is_reserved": 0, "lon": -77.04604516666667}, {"fusion_lat": 0.0, "name": "fdcefd30d829946b8609dcded3646917", "is_disabled": 0, "rental_uris": {"android": "https://dc.lft.to/lastmile_qr_scan", "ios": "https://dc.lft.to/lastmile_qr_scan"}, "fusion_lon": 0.0, "lat": 38.91977466666667, "bike_id": "fdcefd30d829946b8609dcded3646917", "type": "electric_scooter", "is_reserved": 0, "lon": -77.04083683333333}, {"fusion_lat": 0.0, "name": "522758f298a283b2a4c96e454cd485b3", "is_disabled": 0, "rental_uris": {"android": "https://dc.lft.to/lastmile_qr_scan", "ios": "https://dc.lft.to/lastmile_qr_scan"}, "fusion_lon": 0.0, "lat": 38.905420166666666, "bike_id": "522758f298a283b2a4c96e454cd485b3", "type": "electric_scooter", "is_reserved": 0, "lon": -77.036568}, {"fusion_lat": 0.0, "name": "1143513a2ff4093e4780dbb24abdbe26", "is_disabled": 0, "rental_uris": {"android": "https://dc.lft.to/lastmile_qr_scan", "ios": "https://dc.lft.to/lastmile_qr_scan"}, "fusion_lon": 0.0, "lat": 38.908415, "bike_id": "1143513a2ff4093e4780dbb24abdbe26", "type": "electric_scooter", "is_reserved": 0, "lon": -77.02693066666667}, {"fusion_lat": 0.0, "name": "4f14738721527befd1ecba61c3055f37", "is_disabled": 0, "rental_uris": {"android": "https://dc.lft.to/lastmile_qr_scan", "ios": "https://dc.lft.to/lastmile_qr_scan"}, "fusion_lon": 0.0, "lat": 38.877453, "bike_id": "4f14738721527befd1ecba61c3055f37", "type": "electric_scooter", "is_reserved": 0, "lon": -76.9703205}, {"fusion_lat": 0.0, "name": "6cbe4e03e20cafe7fdb9878b776067ca", "is_disabled": 0, "rental_uris": {"android": "https://dc.lft.to/lastmile_qr_scan", "ios": "https://dc.lft.to/lastmile_qr_scan"}, "fusion_lon": 0.0, "lat": 38.930850166666666, "bike_id": "6cbe4e03e20cafe7fdb9878b776067ca", "type": "electric_scooter", "is_reserved": 0, "lon": -77.03648416666667}, {"fusion_lat": 0.0, "name": "f2776b5b73ece46bb536759f92947905", "is_disabled": 0, "rental_uris": {"android": "https://dc.lft.to/lastmile_qr_scan", "ios": "https://dc.lft.to/lastmile_qr_scan"}, "fusion_lon": 0.0, "lat": 38.909697, "bike_id": "f2776b5b73ece46bb536759f92947905", "type": "electric_scooter", "is_reserved": 0, "lon": -77.02078433333334}, {"fusion_lat": 0.0, "name": "c590a812b66a30d3af5d20950110e4cb", "is_disabled": 0, "rental_uris": {"android": "https://dc.lft.to/lastmile_qr_scan", "ios": "https://dc.lft.to/lastmile_qr_scan"}, "fusion_lon": 0.0, "lat": 38.8984465, "bike_id": "c590a812b66a30d3af5d20950110e4cb", "type": "electric_scooter", "is_reserved": 0, "lon": -77.02633416666667}, {"fusion_lat": 0.0, "name": "06e0f1cb1c849eebc2b817549dccceca", "is_disabled": 0, "rental_uris": {"android": "https://dc.lft.to/lastmile_qr_scan", "ios": "https://dc.lft.to/lastmile_qr_scan"}, "fusion_lon": 0.0, "lat": 38.857764333333336, "bike_id": "06e0f1cb1c849eebc2b817549dccceca", "type": "electric_bike", "is_reserved": 0, "lon": -76.98774983333334}, {"fusion_lat": 0.0, "name": "11288ddc579252bbd62040fe806e0c38", "is_disabled": 0, "rental_uris": {"android": "https://dc.lft.to/lastmile_qr_scan", "ios": "https://dc.lft.to/lastmile_qr_scan"}, "fusion_lon": 0.0, "lat": 38.897312166666666, "bike_id": "11288ddc579252bbd62040fe806e0c38", "type": "electric_scooter", "is_reserved": 0, "lon": -77.0552355}, {"fusion_lat": 0.0, "name": "740c26a2215092fb988b4d684c469c80", "is_disabled": 0, "rental_uris": {"android": "https://dc.lft.to/lastmile_qr_scan", "ios": "https://dc.lft.to/lastmile_qr_scan"}, "fusion_lon": 0.0, "lat": 38.8837875, "bike_id": "740c26a2215092fb988b4d684c469c80", "type": "electric_scooter", "is_reserved": 0, "lon": -76.930494}, {"fusion_lat": 0.0, "name": "e1cbd208683ab8d5c4a9c9df671e4c23", "is_disabled": 0, "rental_uris": {"android": "https://dc.lft.to/lastmile_qr_scan", "ios": "https://dc.lft.to/lastmile_qr_scan"}, "fusion_lon": 0.0, "lat": 38.905427333333336, "bike_id": "e1cbd208683ab8d5c4a9c9df671e4c23", "type": "electric_scooter", "is_reserved": 0, "lon": -76.9833535}, {"fusion_lat": 0.0, "name": "2c7b5371449a1ebceee61496b8ece11f", "is_disabled": 0, "rental_uris": {"android": "https://dc.lft.to/lastmile_qr_scan", "ios": "https://dc.lft.to/lastmile_qr_scan"}, "fusion_lon": 0.0, "lat": 38.933870666666664, "bike_id": "2c7b5371449a1ebceee61496b8ece11f", "type": "electric_scooter", "is_reserved": 0, "lon": -77.03880716666667}, {"fusion_lat": 0.0, "name": "20f74f8ac2c90a35253e97d3b12ad74d", "is_disabled": 0, "rental_uris": {"android": "https://dc.lft.to/lastmile_qr_scan", "ios": "https://dc.lft.to/lastmile_qr_scan"}, "fusion_lon": 0.0, "lat": 38.89782183333333, "bike_id": "20f74f8ac2c90a35253e97d3b12ad74d", "type": "electric_scooter", "is_reserved": 0, "lon": -77.0219375}, {"fusion_lat": 0.0, "name": "fb7399c9115effb0ca15141c6ae30f9a", "is_disabled": 0, "rental_uris": {"android": "https://dc.lft.to/lastmile_qr_scan", "ios": "https://dc.lft.to/lastmile_qr_scan"}, "fusion_lon": 0.0, "lat": 38.902021833333336, "bike_id": "fb7399c9115effb0ca15141c6ae30f9a", "type": "electric_scooter", "is_reserved": 0, "lon": -77.023687}, {"fusion_lat": 0.0, "name": "5fd6b869023c978e8c4ac503e11017c8", "is_disabled": 0, "rental_uris": {"android": "https://dc.lft.to/lastmile_qr_scan", "ios": "https://dc.lft.to/lastmile_qr_scan"}, "fusion_lon": 0.0, "lat": 38.898514666666664, "bike_id": "5fd6b869023c978e8c4ac503e11017c8", "type": "electric_bike", "is_reserved": 0, "lon": -76.93188466666666}, {"fusion_lat": 0.0, "name": "b0df7929d46e295454ed5720bb2abe9c", "is_disabled": 0, "rental_uris": {"android": "https://dc.lft.to/lastmile_qr_scan", "ios": "https://dc.lft.to/lastmile_qr_scan"}, "fusion_lon": 0.0, "lat": 38.9408895, "bike_id": "b0df7929d46e295454ed5720bb2abe9c", "type": "electric_scooter", "is_reserved": 0, "lon": -77.0618125}, {"fusion_lat": 0.0, "name": "1f8b790574d4118efac73803098fa26c", "is_disabled": 0, "rental_uris": {"android": "https://dc.lft.to/lastmile_qr_scan", "ios": "https://dc.lft.to/lastmile_qr_scan"}, "fusion_lon": 0.0, "lat": 38.8483305, "bike_id": "1f8b790574d4118efac73803098fa26c", "type": "electric_bike", "is_reserved": 0, "lon": -77.07903216666666}, {"fusion_lat": 0.0, "name": "05fccefd61b4dcdc2e494e073a6e2d83", "is_disabled": 0, "rental_uris": {"android": "https://dc.lft.to/lastmile_qr_scan", "ios": "https://dc.lft.to/lastmile_qr_scan"}, "fusion_lon": 0.0, "lat": 38.91840833333333, "bike_id": "05fccefd61b4dcdc2e494e073a6e2d83", "type": "electric_scooter", "is_reserved": 0, "lon": -77.01613616666667}, {"fusion_lat": 0.0, "name": "10cc38490e16b1953babf6d03519a155", "is_disabled": 0, "rental_uris": {"android": "https://dc.lft.to/lastmile_qr_scan", "ios": "https://dc.lft.to/lastmile_qr_scan"}, "fusion_lon": 0.0, "lat": 38.897517, "bike_id": "10cc38490e16b1953babf6d03519a155", "type": "electric_scooter", "is_reserved": 0, "lon": -77.04889516666667}, {"fusion_lat": 0.0, "name": "2d7d036286b08c504f57730b5e77f107", "is_disabled": 0, "rental_uris": {"android": "https://dc.lft.to/lastmile_qr_scan", "ios": "https://dc.lft.to/lastmile_qr_scan"}, "fusion_lon": 0.0, "lat": 38.914441, "bike_id": "2d7d036286b08c504f57730b5e77f107", "type": "electric_scooter", "is_reserved": 0, "lon": -77.0219295}, {"fusion_lat": 0.0, "name": "0c392a2a75e828f546f6bbe2d4722b8b", "is_disabled": 0, "rental_uris": {"android": "https://dc.lft.to/lastmile_qr_scan", "ios": "https://dc.lft.to/lastmile_qr_scan"}, "fusion_lon": 0.0, "lat": 38.908420166666666, "bike_id": "0c392a2a75e828f546f6bbe2d4722b8b", "type": "electric_scooter", "is_reserved": 0, "lon": -77.03643516666666}, {"fusion_lat": 0.0, "name": "18696f57983635a7fd410006f1845c2e", "is_disabled": 0, "rental_uris": {"android": "https://dc.lft.to/lastmile_qr_scan", "ios": "https://dc.lft.to/lastmile_qr_scan"}, "fusion_lon": 0.0, "lat": 38.9643925, "bike_id": "18696f57983635a7fd410006f1845c2e", "type": "electric_bike", "is_reserved": 0, "lon": -77.02067583333333}, {"fusion_lat": 0.0, "name": "6ab2ef758565859202bcb11a32b6dae9", "is_disabled": 0, "rental_uris": {"android": "https://dc.lft.to/lastmile_qr_scan", "ios": "https://dc.lft.to/lastmile_qr_scan"}, "fusion_lon": 0.0, "lat": 38.920210833333336, "bike_id": "6ab2ef758565859202bcb11a32b6dae9", "type": "electric_scooter", "is_reserved": 0, "lon": -77.08192716666667}, {"fusion_lat": 0.0, "name": "c94eaeb3a3dc7ce1edd959c0bfc1332c", "is_disabled": 0, "rental_uris": {"android": "https://dc.lft.to/lastmile_qr_scan", "ios": "https://dc.lft.to/lastmile_qr_scan"}, "fusion_lon": 0.0, "lat": 38.93642283333333, "bike_id": "c94eaeb3a3dc7ce1edd959c0bfc1332c", "type": "electric_scooter", "is_reserved": 0, "lon": -77.03692266666667}, {"fusion_lat": 0.0, "name": "8069be2b422632fc4339c3bd5f251b60", "is_disabled": 0, "rental_uris": {"android": "https://dc.lft.to/lastmile_qr_scan", "ios": "https://dc.lft.to/lastmile_qr_scan"}, "fusion_lon": 0.0, "lat": 38.90773016666667, "bike_id": "8069be2b422632fc4339c3bd5f251b60", "type": "electric_scooter", "is_reserved": 0, "lon": -77.04263916666666}, {"fusion_lat": 0.0, "name": "fe061d12fc27e4cafa0749048bb29162", "is_disabled": 0, "rental_uris": {"android": "https://dc.lft.to/lastmile_qr_scan", "ios": "https://dc.lft.to/lastmile_qr_scan"}, "fusion_lon": 0.0, "lat": 38.88742716666667, "bike_id": "fe061d12fc27e4cafa0749048bb29162", "type": "electric_scooter", "is_reserved": 0, "lon": -77.0151}, {"fusion_lat": 0.0, "name": "b8022af5de3155f9ce4c44df39e88a8a", "is_disabled": 0, "rental_uris": {"android": "https://dc.lft.to/lastmile_qr_scan", "ios": "https://dc.lft.to/lastmile_qr_scan"}, "fusion_lon": 0.0, "lat": 38.917913166666665, "bike_id": "b8022af5de3155f9ce4c44df39e88a8a", "type": "electric_scooter", "is_reserved": 0, "lon": -77.02321516666666}, {"fusion_lat": 0.0, "name": "41d8c6f68388938fb9e44a32bc041eae", "is_disabled": 0, "rental_uris": {"android": "https://dc.lft.to/lastmile_qr_scan", "ios": "https://dc.lft.to/lastmile_qr_scan"}, "fusion_lon": 0.0, "lat": 38.90924666666667, "bike_id": "41d8c6f68388938fb9e44a32bc041eae", "type": "electric_scooter", "is_reserved": 0, "lon": -76.999447}, {"fusion_lat": 0.0, "name": "211a47368a87270c8cec50462186e8c9", "is_disabled": 0, "rental_uris": {"android": "https://dc.lft.to/lastmile_qr_scan", "ios": "https://dc.lft.to/lastmile_qr_scan"}, "fusion_lon": 0.0, "lat": 38.92813316666667, "bike_id": "211a47368a87270c8cec50462186e8c9", "type": "electric_scooter", "is_reserved": 0, "lon": -77.02328616666667}, {"fusion_lat": 0.0, "name": "0cc6b9bf094ca69364d39b107d7abdcf", "is_disabled": 0, "rental_uris": {"android": "https://dc.lft.to/lastmile_qr_scan", "ios": "https://dc.lft.to/lastmile_qr_scan"}, "fusion_lon": 0.0, "lat": 38.9247805, "bike_id": "0cc6b9bf094ca69364d39b107d7abdcf", "type": "electric_scooter", "is_reserved": 0, "lon": -77.020752}, {"fusion_lat": 0.0, "name": "eea418d390b93114750cf628356649e9", "is_disabled": 0, "rental_uris": {"android": "https://dc.lft.to/lastmile_qr_scan", "ios": "https://dc.lft.to/lastmile_qr_scan"}, "fusion_lon": 0.0, "lat": 38.901017, "bike_id": "eea418d390b93114750cf628356649e9", "type": "electric_scooter", "is_reserved": 0, "lon": -76.93045333333333}, {"fusion_lat": 0.0, "name": "4bd9ac83c8cb06bb8df6e670d515f33f", "is_disabled": 0, "rental_uris": {"android": "https://dc.lft.to/lastmile_qr_scan", "ios": "https://dc.lft.to/lastmile_qr_scan"}, "fusion_lon": 0.0, "lat": 38.93081266666667, "bike_id": "4bd9ac83c8cb06bb8df6e670d515f33f", "type": "electric_scooter", "is_reserved": 0, "lon": -77.01999516666666}, {"fusion_lat": 0.0, "name": "8659274214a5a44d7ca003234f894af6", "is_disabled": 0, "rental_uris": {"android": "https://dc.lft.to/lastmile_qr_scan", "ios": "https://dc.lft.to/lastmile_qr_scan"}, "fusion_lon": 0.0, "lat": 38.91176633333333, "bike_id": "8659274214a5a44d7ca003234f894af6", "type": "electric_scooter", "is_reserved": 0, "lon": -77.02955383333334}, {"fusion_lat": 0.0, "name": "9d5d8a6a9a5c6cd3608ec40a1c56a696", "is_disabled": 0, "rental_uris": {"android": "https://dc.lft.to/lastmile_qr_scan", "ios": "https://dc.lft.to/lastmile_qr_scan"}, "fusion_lon": 0.0, "lat": 38.90386633333333, "bike_id": "9d5d8a6a9a5c6cd3608ec40a1c56a696", "type": "electric_scooter", "is_reserved": 0, "lon": -77.01789083333334}, {"fusion_lat": 0.0, "name": "529469c456932dc54d3775a64033804c", "is_disabled": 0, "rental_uris": {"android": "https://dc.lft.to/lastmile_qr_scan", "ios": "https://dc.lft.to/lastmile_qr_scan"}, "fusion_lon": 0.0, "lat": 38.8972335, "bike_id": "529469c456932dc54d3775a64033804c", "type": "electric_scooter", "is_reserved": 0, "lon": -77.02476483333334}, {"fusion_lat": 0.0, "name": "3984b694d6d46b4cb2990dc36baa8522", "is_disabled": 0, "rental_uris": {"android": "https://dc.lft.to/lastmile_qr_scan", "ios": "https://dc.lft.to/lastmile_qr_scan"}, "fusion_lon": 0.0, "lat": 38.899746, "bike_id": "3984b694d6d46b4cb2990dc36baa8522", "type": "electric_scooter", "is_reserved": 0, "lon": -77.05264683333333}, {"fusion_lat": 0.0, "name": "43dc75b453ad1b6f7a4816f24d182588", "is_disabled": 0, "rental_uris": {"android": "https://dc.lft.to/lastmile_qr_scan", "ios": "https://dc.lft.to/lastmile_qr_scan"}, "fusion_lon": 0.0, "lat": 38.93173733333333, "bike_id": "43dc75b453ad1b6f7a4816f24d182588", "type": "electric_scooter", "is_reserved": 0, "lon": -77.019932}, {"fusion_lat": 0.0, "name": "e5c3b69e76d4a33c605bd203337807a2", "is_disabled": 0, "rental_uris": {"android": "https://dc.lft.to/lastmile_qr_scan", "ios": "https://dc.lft.to/lastmile_qr_scan"}, "fusion_lon": 0.0, "lat": 38.9057915, "bike_id": "e5c3b69e76d4a33c605bd203337807a2", "type": "electric_scooter", "is_reserved": 0, "lon": -77.02210116666667}, {"fusion_lat": 0.0, "name": "1af938b3493bb95ac92bdd2a622b5f9a", "is_disabled": 0, "rental_uris": {"android": "https://dc.lft.to/lastmile_qr_scan", "ios": "https://dc.lft.to/lastmile_qr_scan"}, "fusion_lon": 0.0, "lat": 38.92342633333333, "bike_id": "1af938b3493bb95ac92bdd2a622b5f9a", "type": "electric_scooter", "is_reserved": 0, "lon": -77.0521715}, {"fusion_lat": 0.0, "name": "8f899bc46ef69a14ef6a7a01ab9219de", "is_disabled": 0, "rental_uris": {"android": "https://dc.lft.to/lastmile_qr_scan", "ios": "https://dc.lft.to/lastmile_qr_scan"}, "fusion_lon": 0.0, "lat": 38.9034905, "bike_id": "8f899bc46ef69a14ef6a7a01ab9219de", "type": "electric_scooter", "is_reserved": 0, "lon": -76.97473816666667}, {"fusion_lat": 0.0, "name": "d9c67f29cc739ec9c732e1d0fb0ec887", "is_disabled": 0, "rental_uris": {"android": "https://dc.lft.to/lastmile_qr_scan", "ios": "https://dc.lft.to/lastmile_qr_scan"}, "fusion_lon": 0.0, "lat": 38.93464983333333, "bike_id": "d9c67f29cc739ec9c732e1d0fb0ec887", "type": "electric_scooter", "is_reserved": 0, "lon": -77.04121266666667}, {"fusion_lat": 0.0, "name": "8e2052349080b6417727674a9aa9f309", "is_disabled": 0, "rental_uris": {"android": "https://dc.lft.to/lastmile_qr_scan", "ios": "https://dc.lft.to/lastmile_qr_scan"}, "fusion_lon": 0.0, "lat": 38.9197795, "bike_id": "8e2052349080b6417727674a9aa9f309", "type": "electric_scooter", "is_reserved": 0, "lon": -77.02410833333333}, {"fusion_lat": 0.0, "name": "195678f86a5b7d43d76b32d3dfb7ecef", "is_disabled": 0, "rental_uris": {"android": "https://dc.lft.to/lastmile_qr_scan", "ios": "https://dc.lft.to/lastmile_qr_scan"}, "fusion_lon": 0.0, "lat": 38.884689333333334, "bike_id": "195678f86a5b7d43d76b32d3dfb7ecef", "type": "electric_scooter", "is_reserved": 0, "lon": -77.023619}, {"fusion_lat": 0.0, "name": "1c41abb5d7c987b52d1378ecf087a79e", "is_disabled": 0, "rental_uris": {"android": "https://dc.lft.to/lastmile_qr_scan", "ios": "https://dc.lft.to/lastmile_qr_scan"}, "fusion_lon": 0.0, "lat": 38.99445583333333, "bike_id": "1c41abb5d7c987b52d1378ecf087a79e", "type": "electric_bike", "is_reserved": 0, "lon": -76.9958825}, {"fusion_lat": 0.0, "name": "1e905b73f8292d3bc53449964e7be0d1", "is_disabled": 0, "rental_uris": {"android": "https://dc.lft.to/lastmile_qr_scan", "ios": "https://dc.lft.to/lastmile_qr_scan"}, "fusion_lon": 0.0, "lat": 38.90304833333333, "bike_id": "1e905b73f8292d3bc53449964e7be0d1", "type": "electric_scooter", "is_reserved": 0, "lon": -76.97648983333333}, {"fusion_lat": 0.0, "name": "f2692fcb50913e993a5cc0038a821a32", "is_disabled": 0, "rental_uris": {"android": "https://dc.lft.to/lastmile_qr_scan", "ios": "https://dc.lft.to/lastmile_qr_scan"}, "fusion_lon": 0.0, "lat": 38.905591333333334, "bike_id": "f2692fcb50913e993a5cc0038a821a32", "type": "electric_scooter", "is_reserved": 0, "lon": -77.046619}, {"fusion_lat": 0.0, "name": "21dc579abbf0d14e249ccbb82bd37041", "is_disabled": 0, "rental_uris": {"android": "https://dc.lft.to/lastmile_qr_scan", "ios": "https://dc.lft.to/lastmile_qr_scan"}, "fusion_lon": 0.0, "lat": 38.93432033333333, "bike_id": "21dc579abbf0d14e249ccbb82bd37041", "type": "electric_scooter", "is_reserved": 0, "lon": -77.02420633333334}, {"fusion_lat": 0.0, "name": "3579e8e6292d198b3a0cfc517eb06089", "is_disabled": 0, "rental_uris": {"android": "https://dc.lft.to/lastmile_qr_scan", "ios": "https://dc.lft.to/lastmile_qr_scan"}, "fusion_lon": 0.0, "lat": 38.921078333333334, "bike_id": "3579e8e6292d198b3a0cfc517eb06089", "type": "electric_scooter", "is_reserved": 0, "lon": -77.031769}, {"fusion_lat": 0.0, "name": "f4bd7923762e1b6af89cfe92073731a4", "is_disabled": 0, "rental_uris": {"android": "https://dc.lft.to/lastmile_qr_scan", "ios": "https://dc.lft.to/lastmile_qr_scan"}, "fusion_lon": 0.0, "lat": 38.923647333333335, "bike_id": "f4bd7923762e1b6af89cfe92073731a4", "type": "electric_scooter", "is_reserved": 0, "lon": -77.0502925}, {"fusion_lat": 0.0, "name": "78f160b9ec4f4a98197fb310d5085d37", "is_disabled": 0, "rental_uris": {"android": "https://dc.lft.to/lastmile_qr_scan", "ios": "https://dc.lft.to/lastmile_qr_scan"}, "fusion_lon": 0.0, "lat": 38.91803183333333, "bike_id": "78f160b9ec4f4a98197fb310d5085d37", "type": "electric_scooter", "is_reserved": 0, "lon": -77.03435666666667}, {"fusion_lat": 0.0, "name": "91419ca109ef111b95c048d5d9429615", "is_disabled": 0, "rental_uris": {"android": "https://dc.lft.to/lastmile_qr_scan", "ios": "https://dc.lft.to/lastmile_qr_scan"}, "fusion_lon": 0.0, "lat": 38.91744966666667, "bike_id": "91419ca109ef111b95c048d5d9429615", "type": "electric_scooter", "is_reserved": 0, "lon": -77.03185066666667}, {"fusion_lat": 0.0, "name": "fb4e4617121e3b1ab4d89de2d2558efe", "is_disabled": 0, "rental_uris": {"android": "https://dc.lft.to/lastmile_qr_scan", "ios": "https://dc.lft.to/lastmile_qr_scan"}, "fusion_lon": 0.0, "lat": 38.90569933333333, "bike_id": "fb4e4617121e3b1ab4d89de2d2558efe", "type": "electric_scooter", "is_reserved": 0, "lon": -77.02199883333333}, {"fusion_lat": 0.0, "name": "1f7ef38c84f67c31319169ddade605e2", "is_disabled": 0, "rental_uris": {"android": "https://dc.lft.to/lastmile_qr_scan", "ios": "https://dc.lft.to/lastmile_qr_scan"}, "fusion_lon": 0.0, "lat": 38.9126475, "bike_id": "1f7ef38c84f67c31319169ddade605e2", "type": "electric_scooter", "is_reserved": 0, "lon": -77.0387015}, {"fusion_lat": 0.0, "name": "ad6765ecd6b8f9e6ee898348fa172e52", "is_disabled": 0, "rental_uris": {"android": "https://dc.lft.to/lastmile_qr_scan", "ios": "https://dc.lft.to/lastmile_qr_scan"}, "fusion_lon": 0.0, "lat": 38.90673616666667, "bike_id": "ad6765ecd6b8f9e6ee898348fa172e52", "type": "electric_scooter", "is_reserved": 0, "lon": -77.034611}, {"fusion_lat": 0.0, "name": "f328ffa26518fdd44488c7f5071ca9a1", "is_disabled": 0, "rental_uris": {"android": "https://dc.lft.to/lastmile_qr_scan", "ios": "https://dc.lft.to/lastmile_qr_scan"}, "fusion_lon": 0.0, "lat": 38.900113, "bike_id": "f328ffa26518fdd44488c7f5071ca9a1", "type": "electric_scooter", "is_reserved": 0, "lon": -76.988111}, {"fusion_lat": 0.0, "name": "61401a2edfabdeb707da41b8e915096c", "is_disabled": 0, "rental_uris": {"android": "https://dc.lft.to/lastmile_qr_scan", "ios": "https://dc.lft.to/lastmile_qr_scan"}, "fusion_lon": 0.0, "lat": 38.884048, "bike_id": "61401a2edfabdeb707da41b8e915096c", "type": "electric_scooter", "is_reserved": 0, "lon": -77.00833783333333}, {"fusion_lat": 0.0, "name": "06088d10c7be31578da4010441664d02", "is_disabled": 0, "rental_uris": {"android": "https://dc.lft.to/lastmile_qr_scan", "ios": "https://dc.lft.to/lastmile_qr_scan"}, "fusion_lon": 0.0, "lat": 38.922486, "bike_id": "06088d10c7be31578da4010441664d02", "type": "electric_scooter", "is_reserved": 0, "lon": -77.04255216666667}, {"fusion_lat": 0.0, "name": "97782868a771fd20d65356913863adb3", "is_disabled": 0, "rental_uris": {"android": "https://dc.lft.to/lastmile_qr_scan", "ios": "https://dc.lft.to/lastmile_qr_scan"}, "fusion_lon": 0.0, "lat": 38.973676166666664, "bike_id": "97782868a771fd20d65356913863adb3", "type": "electric_scooter", "is_reserved": 0, "lon": -77.01293633333333}, {"fusion_lat": 0.0, "name": "e503ea9246ea9fcbcb8cdd0e072dd8e1", "is_disabled": 0, "rental_uris": {"android": "https://dc.lft.to/lastmile_qr_scan", "ios": "https://dc.lft.to/lastmile_qr_scan"}, "fusion_lon": 0.0, "lat": 38.917287333333334, "bike_id": "e503ea9246ea9fcbcb8cdd0e072dd8e1", "type": "electric_scooter", "is_reserved": 0, "lon": -77.03193616666667}, {"fusion_lat": 0.0, "name": "7dee1f30d8d42f8c0695b542eb7b042c", "is_disabled": 0, "rental_uris": {"android": "https://dc.lft.to/lastmile_qr_scan", "ios": "https://dc.lft.to/lastmile_qr_scan"}, "fusion_lon": 0.0, "lat": 38.91839516666667, "bike_id": "7dee1f30d8d42f8c0695b542eb7b042c", "type": "electric_scooter", "is_reserved": 0, "lon": -77.06366316666667}, {"fusion_lat": 0.0, "name": "54c7a735173ea62f5d3bf9e15ae5c7da", "is_disabled": 0, "rental_uris": {"android": "https://dc.lft.to/lastmile_qr_scan", "ios": "https://dc.lft.to/lastmile_qr_scan"}, "fusion_lon": 0.0, "lat": 38.9382715, "bike_id": "54c7a735173ea62f5d3bf9e15ae5c7da", "type": "electric_scooter", "is_reserved": 0, "lon": -77.02641116666666}, {"fusion_lat": 0.0, "name": "bec2fc1d82fd5114860e008b27800cb9", "is_disabled": 0, "rental_uris": {"android": "https://dc.lft.to/lastmile_qr_scan", "ios": "https://dc.lft.to/lastmile_qr_scan"}, "fusion_lon": 0.0, "lat": 38.90933183333333, "bike_id": "bec2fc1d82fd5114860e008b27800cb9", "type": "electric_scooter", "is_reserved": 0, "lon": -77.06264516666667}, {"fusion_lat": 0.0, "name": "d8a5c858a57731d59a115cd7acbb5ae5", "is_disabled": 0, "rental_uris": {"android": "https://dc.lft.to/lastmile_qr_scan", "ios": "https://dc.lft.to/lastmile_qr_scan"}, "fusion_lon": 0.0, "lat": 38.9035005, "bike_id": "d8a5c858a57731d59a115cd7acbb5ae5", "type": "electric_scooter", "is_reserved": 0, "lon": -76.97478133333334}, {"fusion_lat": 0.0, "name": "b2813f01728b99a15b9814ff046e8b0b", "is_disabled": 0, "rental_uris": {"android": "https://dc.lft.to/lastmile_qr_scan", "ios": "https://dc.lft.to/lastmile_qr_scan"}, "fusion_lon": 0.0, "lat": 38.908639666666666, "bike_id": "b2813f01728b99a15b9814ff046e8b0b", "type": "electric_scooter", "is_reserved": 0, "lon": -77.02432133333333}, {"fusion_lat": 0.0, "name": "a917e48b4ec1a0b90c138b2ce30fcf9d", "is_disabled": 0, "rental_uris": {"android": "https://dc.lft.to/lastmile_qr_scan", "ios": "https://dc.lft.to/lastmile_qr_scan"}, "fusion_lon": 0.0, "lat": 38.935332333333335, "bike_id": "a917e48b4ec1a0b90c138b2ce30fcf9d", "type": "electric_scooter", "is_reserved": 0, "lon": -77.04523166666667}, {"fusion_lat": 0.0, "name": "a85e086f615676bc54e6c1751ecb5f74", "is_disabled": 0, "rental_uris": {"android": "https://dc.lft.to/lastmile_qr_scan", "ios": "https://dc.lft.to/lastmile_qr_scan"}, "fusion_lon": 0.0, "lat": 38.90071916666667, "bike_id": "a85e086f615676bc54e6c1751ecb5f74", "type": "electric_scooter", "is_reserved": 0, "lon": -77.050709}, {"fusion_lat": 0.0, "name": "a13f0fa0edb6410f434219939eb504bf", "is_disabled": 0, "rental_uris": {"android": "https://dc.lft.to/lastmile_qr_scan", "ios": "https://dc.lft.to/lastmile_qr_scan"}, "fusion_lon": 0.0, "lat": 38.898156, "bike_id": "a13f0fa0edb6410f434219939eb504bf", "type": "electric_scooter", "is_reserved": 0, "lon": -77.04670233333333}, {"fusion_lat": 0.0, "name": "8b1fda257b979bc45ea26a388ae00ab2", "is_disabled": 0, "rental_uris": {"android": "https://dc.lft.to/lastmile_qr_scan", "ios": "https://dc.lft.to/lastmile_qr_scan"}, "fusion_lon": 0.0, "lat": 39.00309416666666, "bike_id": "8b1fda257b979bc45ea26a388ae00ab2", "type": "electric_bike", "is_reserved": 0, "lon": -76.903287}, {"fusion_lat": 0.0, "name": "7b904938841b7f43c1f7e9cb5a6c033b", "is_disabled": 0, "rental_uris": {"android": "https://dc.lft.to/lastmile_qr_scan", "ios": "https://dc.lft.to/lastmile_qr_scan"}, "fusion_lon": 0.0, "lat": 38.918124666666664, "bike_id": "7b904938841b7f43c1f7e9cb5a6c033b", "type": "electric_scooter", "is_reserved": 0, "lon": -77.02474033333333}, {"fusion_lat": 0.0, "name": "cd32f3431556253e4d3a3ef9782fb450", "is_disabled": 0, "rental_uris": {"android": "https://dc.lft.to/lastmile_qr_scan", "ios": "https://dc.lft.to/lastmile_qr_scan"}, "fusion_lon": 0.0, "lat": 38.9025005, "bike_id": "cd32f3431556253e4d3a3ef9782fb450", "type": "electric_scooter", "is_reserved": 0, "lon": -77.027763}, {"fusion_lat": 0.0, "name": "823ec9989be2c7c6496121d16c186027", "is_disabled": 0, "rental_uris": {"android": "https://dc.lft.to/lastmile_qr_scan", "ios": "https://dc.lft.to/lastmile_qr_scan"}, "fusion_lon": 0.0, "lat": 38.911051, "bike_id": "823ec9989be2c7c6496121d16c186027", "type": "electric_scooter", "is_reserved": 0, "lon": -77.03840083333333}, {"fusion_lat": 0.0, "name": "c1c2584ef6c1e6226ca7b4aa23de76e5", "is_disabled": 0, "rental_uris": {"android": "https://dc.lft.to/lastmile_qr_scan", "ios": "https://dc.lft.to/lastmile_qr_scan"}, "fusion_lon": 0.0, "lat": 38.93708783333334, "bike_id": "c1c2584ef6c1e6226ca7b4aa23de76e5", "type": "electric_scooter", "is_reserved": 0, "lon": -77.02425766666667}, {"fusion_lat": 0.0, "name": "5502cfa62a0bce699d0f3158cb6bd0cc", "is_disabled": 0, "rental_uris": {"android": "https://dc.lft.to/lastmile_qr_scan", "ios": "https://dc.lft.to/lastmile_qr_scan"}, "fusion_lon": 0.0, "lat": 38.93706683333333, "bike_id": "5502cfa62a0bce699d0f3158cb6bd0cc", "type": "electric_scooter", "is_reserved": 0, "lon": -77.0610405}, {"fusion_lat": 0.0, "name": "24ff334f2ea2083ed15604a40b867291", "is_disabled": 0, "rental_uris": {"android": "https://dc.lft.to/lastmile_qr_scan", "ios": "https://dc.lft.to/lastmile_qr_scan"}, "fusion_lon": 0.0, "lat": 38.900858666666664, "bike_id": "24ff334f2ea2083ed15604a40b867291", "type": "electric_scooter", "is_reserved": 0, "lon": -77.020101}, {"fusion_lat": 0.0, "name": "a4f1f8c0424b41471aa3bb17ea11024c", "is_disabled": 0, "rental_uris": {"android": "https://dc.lft.to/lastmile_qr_scan", "ios": "https://dc.lft.to/lastmile_qr_scan"}, "fusion_lon": 0.0, "lat": 38.90582083333334, "bike_id": "a4f1f8c0424b41471aa3bb17ea11024c", "type": "electric_scooter", "is_reserved": 0, "lon": -77.04352816666666}, {"fusion_lat": 0.0, "name": "0a5fcdd0781bcb6914441a4e78e81e1c", "is_disabled": 0, "rental_uris": {"android": "https://dc.lft.to/lastmile_qr_scan", "ios": "https://dc.lft.to/lastmile_qr_scan"}, "fusion_lon": 0.0, "lat": 38.8762185, "bike_id": "0a5fcdd0781bcb6914441a4e78e81e1c", "type": "electric_scooter", "is_reserved": 0, "lon": -77.0084005}, {"fusion_lat": 0.0, "name": "57329128d03dd26e01d4c9608f5a76b4", "is_disabled": 0, "rental_uris": {"android": "https://dc.lft.to/lastmile_qr_scan", "ios": "https://dc.lft.to/lastmile_qr_scan"}, "fusion_lon": 0.0, "lat": 38.9190875, "bike_id": "57329128d03dd26e01d4c9608f5a76b4", "type": "electric_scooter", "is_reserved": 0, "lon": -77.023946}, {"fusion_lat": 0.0, "name": "ac91dba2510b64338f576413dd86b8c7", "is_disabled": 0, "rental_uris": {"android": "https://dc.lft.to/lastmile_qr_scan", "ios": "https://dc.lft.to/lastmile_qr_scan"}, "fusion_lon": 0.0, "lat": 38.92118633333333, "bike_id": "ac91dba2510b64338f576413dd86b8c7", "type": "electric_scooter", "is_reserved": 0, "lon": -77.0120805}, {"fusion_lat": 0.0, "name": "040a72f34e5db0f671d93743b5a201d0", "is_disabled": 0, "rental_uris": {"android": "https://dc.lft.to/lastmile_qr_scan", "ios": "https://dc.lft.to/lastmile_qr_scan"}, "fusion_lon": 0.0, "lat": 38.915664166666666, "bike_id": "040a72f34e5db0f671d93743b5a201d0", "type": "electric_scooter", "is_reserved": 0, "lon": -77.03633916666666}, {"fusion_lat": 0.0, "name": "f72869b05f1bc4699c7b014bb42a5013", "is_disabled": 0, "rental_uris": {"android": "https://dc.lft.to/lastmile_qr_scan", "ios": "https://dc.lft.to/lastmile_qr_scan"}, "fusion_lon": 0.0, "lat": 38.919220833333334, "bike_id": "f72869b05f1bc4699c7b014bb42a5013", "type": "electric_scooter", "is_reserved": 0, "lon": -77.01208883333334}, {"fusion_lat": 0.0, "name": "a04b18a6d3b6c9bc991073a0332cb1b9", "is_disabled": 0, "rental_uris": {"android": "https://dc.lft.to/lastmile_qr_scan", "ios": "https://dc.lft.to/lastmile_qr_scan"}, "fusion_lon": 0.0, "lat": 38.94526583333333, "bike_id": "a04b18a6d3b6c9bc991073a0332cb1b9", "type": "electric_scooter", "is_reserved": 0, "lon": -77.02088033333334}, {"fusion_lat": 0.0, "name": "9d62f1d83bdd041dc1600212c9aaf408", "is_disabled": 0, "rental_uris": {"android": "https://dc.lft.to/lastmile_qr_scan", "ios": "https://dc.lft.to/lastmile_qr_scan"}, "fusion_lon": 0.0, "lat": 38.92333933333333, "bike_id": "9d62f1d83bdd041dc1600212c9aaf408", "type": "electric_scooter", "is_reserved": 0, "lon": -77.05346066666667}, {"fusion_lat": 0.0, "name": "7e3bdfc93e7cdf38e591eae69a62971f", "is_disabled": 0, "rental_uris": {"android": "https://dc.lft.to/lastmile_qr_scan", "ios": "https://dc.lft.to/lastmile_qr_scan"}, "fusion_lon": 0.0, "lat": 38.90851033333333, "bike_id": "7e3bdfc93e7cdf38e591eae69a62971f", "type": "electric_scooter", "is_reserved": 0, "lon": -76.99767766666666}, {"fusion_lat": 0.0, "name": "834d6974a27af12e2123e95b593aa295", "is_disabled": 0, "rental_uris": {"android": "https://dc.lft.to/lastmile_qr_scan", "ios": "https://dc.lft.to/lastmile_qr_scan"}, "fusion_lon": 0.0, "lat": 38.901495, "bike_id": "834d6974a27af12e2123e95b593aa295", "type": "electric_scooter", "is_reserved": 0, "lon": -76.930634}, {"fusion_lat": 0.0, "name": "b387d5b223289a3dcc361b273c36f0ba", "is_disabled": 0, "rental_uris": {"android": "https://dc.lft.to/lastmile_qr_scan", "ios": "https://dc.lft.to/lastmile_qr_scan"}, "fusion_lon": 0.0, "lat": 38.922288, "bike_id": "b387d5b223289a3dcc361b273c36f0ba", "type": "electric_scooter", "is_reserved": 0, "lon": -77.04249333333334}, {"fusion_lat": 0.0, "name": "87e72d7500f3b568162155e859d20c6c", "is_disabled": 0, "rental_uris": {"android": "https://dc.lft.to/lastmile_qr_scan", "ios": "https://dc.lft.to/lastmile_qr_scan"}, "fusion_lon": 0.0, "lat": 38.906854, "bike_id": "87e72d7500f3b568162155e859d20c6c", "type": "electric_bike", "is_reserved": 0, "lon": -76.94493416666667}, {"fusion_lat": 0.0, "name": "1cfaca67f6bb4a557a7b4c615dd693a2", "is_disabled": 0, "rental_uris": {"android": "https://dc.lft.to/lastmile_qr_scan", "ios": "https://dc.lft.to/lastmile_qr_scan"}, "fusion_lon": 0.0, "lat": 38.9232725, "bike_id": "1cfaca67f6bb4a557a7b4c615dd693a2", "type": "electric_scooter", "is_reserved": 0, "lon": -77.04137516666667}, {"fusion_lat": 0.0, "name": "662c43fdfd3d7420d7560c3e4981d569", "is_disabled": 0, "rental_uris": {"android": "https://dc.lft.to/lastmile_qr_scan", "ios": "https://dc.lft.to/lastmile_qr_scan"}, "fusion_lon": 0.0, "lat": 38.917126, "bike_id": "662c43fdfd3d7420d7560c3e4981d569", "type": "electric_scooter", "is_reserved": 0, "lon": -77.038704}, {"fusion_lat": 0.0, "name": "17624806cd3f4e2ed50ede2c74046729", "is_disabled": 0, "rental_uris": {"android": "https://dc.lft.to/lastmile_qr_scan", "ios": "https://dc.lft.to/lastmile_qr_scan"}, "fusion_lon": 0.0, "lat": 38.92743183333333, "bike_id": "17624806cd3f4e2ed50ede2c74046729", "type": "electric_bike", "is_reserved": 0, "lon": -76.99361766666667}, {"fusion_lat": 0.0, "name": "0d953fb5ba6f90f5c6cb5c2d029f0a4a", "is_disabled": 0, "rental_uris": {"android": "https://dc.lft.to/lastmile_qr_scan", "ios": "https://dc.lft.to/lastmile_qr_scan"}, "fusion_lon": 0.0, "lat": 38.9612275, "bike_id": "0d953fb5ba6f90f5c6cb5c2d029f0a4a", "type": "electric_bike", "is_reserved": 0, "lon": -77.03266033333334}, {"fusion_lat": 0.0, "name": "24458288090ef73c4898a8c79d98c101", "is_disabled": 0, "rental_uris": {"android": "https://dc.lft.to/lastmile_qr_scan", "ios": "https://dc.lft.to/lastmile_qr_scan"}, "fusion_lon": 0.0, "lat": 38.90979733333333, "bike_id": "24458288090ef73c4898a8c79d98c101", "type": "electric_scooter", "is_reserved": 0, "lon": -77.03200616666666}, {"fusion_lat": 0.0, "name": "3038d05fb0989ed3b036bfab5a0cd0c0", "is_disabled": 0, "rental_uris": {"android": "https://dc.lft.to/lastmile_qr_scan", "ios": "https://dc.lft.to/lastmile_qr_scan"}, "fusion_lon": 0.0, "lat": 38.928081166666665, "bike_id": "3038d05fb0989ed3b036bfab5a0cd0c0", "type": "electric_scooter", "is_reserved": 0, "lon": -77.04357316666666}, {"fusion_lat": 0.0, "name": "dc89e67ce3845d1f3bdb51261f093b12", "is_disabled": 0, "rental_uris": {"android": "https://dc.lft.to/lastmile_qr_scan", "ios": "https://dc.lft.to/lastmile_qr_scan"}, "fusion_lon": 0.0, "lat": 38.913416166666664, "bike_id": "dc89e67ce3845d1f3bdb51261f093b12", "type": "electric_scooter", "is_reserved": 0, "lon": -77.0427515}, {"fusion_lat": 0.0, "name": "9f6e8bdb4a7861f7e262e0baeb8c8470", "is_disabled": 0, "rental_uris": {"android": "https://dc.lft.to/lastmile_qr_scan", "ios": "https://dc.lft.to/lastmile_qr_scan"}, "fusion_lon": 0.0, "lat": 38.9170085, "bike_id": "9f6e8bdb4a7861f7e262e0baeb8c8470", "type": "electric_scooter", "is_reserved": 0, "lon": -77.029555}, {"fusion_lat": 0.0, "name": "07de5f92fc092c703b35c3d5443290f1", "is_disabled": 0, "rental_uris": {"android": "https://dc.lft.to/lastmile_qr_scan", "ios": "https://dc.lft.to/lastmile_qr_scan"}, "fusion_lon": 0.0, "lat": 38.87129066666667, "bike_id": "07de5f92fc092c703b35c3d5443290f1", "type": "electric_scooter", "is_reserved": 0, "lon": -77.01219933333333}, {"fusion_lat": 0.0, "name": "3a9cb9b13670531e021c6a2e29fd08ff", "is_disabled": 0, "rental_uris": {"android": "https://dc.lft.to/lastmile_qr_scan", "ios": "https://dc.lft.to/lastmile_qr_scan"}, "fusion_lon": 0.0, "lat": 38.935772, "bike_id": "3a9cb9b13670531e021c6a2e29fd08ff", "type": "electric_scooter", "is_reserved": 0, "lon": -77.0192555}, {"fusion_lat": 0.0, "name": "5e83c921c06d3b7be20dc4eaa5f1ef63", "is_disabled": 0, "rental_uris": {"android": "https://dc.lft.to/lastmile_qr_scan", "ios": "https://dc.lft.to/lastmile_qr_scan"}, "fusion_lon": 0.0, "lat": 38.9161315, "bike_id": "5e83c921c06d3b7be20dc4eaa5f1ef63", "type": "electric_scooter", "is_reserved": 0, "lon": -77.04580616666667}, {"fusion_lat": 0.0, "name": "013c4141214c92161467b171960e8046", "is_disabled": 0, "rental_uris": {"android": "https://dc.lft.to/lastmile_qr_scan", "ios": "https://dc.lft.to/lastmile_qr_scan"}, "fusion_lon": 0.0, "lat": 38.92249616666667, "bike_id": "013c4141214c92161467b171960e8046", "type": "electric_scooter", "is_reserved": 0, "lon": -77.0338365}, {"fusion_lat": 0.0, "name": "8b381b7228c9f43033db192e8d91b0eb", "is_disabled": 0, "rental_uris": {"android": "https://dc.lft.to/lastmile_qr_scan", "ios": "https://dc.lft.to/lastmile_qr_scan"}, "fusion_lon": 0.0, "lat": 38.932654666666664, "bike_id": "8b381b7228c9f43033db192e8d91b0eb", "type": "electric_scooter", "is_reserved": 0, "lon": -77.03457983333334}, {"fusion_lat": 0.0, "name": "d32b8dafc0b2cb4866312a5fd54a8391", "is_disabled": 0, "rental_uris": {"android": "https://dc.lft.to/lastmile_qr_scan", "ios": "https://dc.lft.to/lastmile_qr_scan"}, "fusion_lon": 0.0, "lat": 38.922533, "bike_id": "d32b8dafc0b2cb4866312a5fd54a8391", "type": "electric_scooter", "is_reserved": 0, "lon": -77.04255866666666}, {"fusion_lat": 0.0, "name": "ba5ac2eeadfd64f73cd26ba3d1b7785c", "is_disabled": 0, "rental_uris": {"android": "https://dc.lft.to/lastmile_qr_scan", "ios": "https://dc.lft.to/lastmile_qr_scan"}, "fusion_lon": 0.0, "lat": 38.91291533333333, "bike_id": "ba5ac2eeadfd64f73cd26ba3d1b7785c", "type": "electric_scooter", "is_reserved": 0, "lon": -77.04525883333334}, {"fusion_lat": 0.0, "name": "987452536f6f0b06ab932698edafe1fe", "is_disabled": 0, "rental_uris": {"android": "https://dc.lft.to/lastmile_qr_scan", "ios": "https://dc.lft.to/lastmile_qr_scan"}, "fusion_lon": 0.0, "lat": 38.89748916666667, "bike_id": "987452536f6f0b06ab932698edafe1fe", "type": "electric_scooter", "is_reserved": 0, "lon": -77.02663983333333}, {"fusion_lat": 0.0, "name": "c5f05d49c52267ff1573c3238bf42a81", "is_disabled": 0, "rental_uris": {"android": "https://dc.lft.to/lastmile_qr_scan", "ios": "https://dc.lft.to/lastmile_qr_scan"}, "fusion_lon": 0.0, "lat": 38.897263, "bike_id": "c5f05d49c52267ff1573c3238bf42a81", "type": "electric_scooter", "is_reserved": 0, "lon": -77.0483595}, {"fusion_lat": 0.0, "name": "21b1bf8d11d41fdc3ed1bb7b89318201", "is_disabled": 0, "rental_uris": {"android": "https://dc.lft.to/lastmile_qr_scan", "ios": "https://dc.lft.to/lastmile_qr_scan"}, "fusion_lon": 0.0, "lat": 38.878107666666665, "bike_id": "21b1bf8d11d41fdc3ed1bb7b89318201", "type": "electric_scooter", "is_reserved": 0, "lon": -77.0153435}, {"fusion_lat": 0.0, "name": "875f3c9640f315a4b71ab12a5b17eb4c", "is_disabled": 0, "rental_uris": {"android": "https://dc.lft.to/lastmile_qr_scan", "ios": "https://dc.lft.to/lastmile_qr_scan"}, "fusion_lon": 0.0, "lat": 38.907891166666666, "bike_id": "875f3c9640f315a4b71ab12a5b17eb4c", "type": "electric_scooter", "is_reserved": 0, "lon": -77.0434525}, {"fusion_lat": 0.0, "name": "32fa0a700322c228dbae0e7cd0db2b10", "is_disabled": 0, "rental_uris": {"android": "https://dc.lft.to/lastmile_qr_scan", "ios": "https://dc.lft.to/lastmile_qr_scan"}, "fusion_lon": 0.0, "lat": 38.88794716666666, "bike_id": "32fa0a700322c228dbae0e7cd0db2b10", "type": "electric_bike", "is_reserved": 0, "lon": -76.92993816666667}, {"fusion_lat": 0.0, "name": "731cf02ff190f3cd6ed7959a7c7199e2", "is_disabled": 0, "rental_uris": {"android": "https://dc.lft.to/lastmile_qr_scan", "ios": "https://dc.lft.to/lastmile_qr_scan"}, "fusion_lon": 0.0, "lat": 38.93202016666667, "bike_id": "731cf02ff190f3cd6ed7959a7c7199e2", "type": "electric_scooter", "is_reserved": 0, "lon": -77.0365465}, {"fusion_lat": 0.0, "name": "28fdb3bd572da61c666587a5d460173f", "is_disabled": 0, "rental_uris": {"android": "https://dc.lft.to/lastmile_qr_scan", "ios": "https://dc.lft.to/lastmile_qr_scan"}, "fusion_lon": 0.0, "lat": 38.92123466666666, "bike_id": "28fdb3bd572da61c666587a5d460173f", "type": "electric_scooter", "is_reserved": 0, "lon": -77.0443}, {"fusion_lat": 0.0, "name": "d00661baf3085af067de6afe73dfa2fb", "is_disabled": 0, "rental_uris": {"android": "https://dc.lft.to/lastmile_qr_scan", "ios": "https://dc.lft.to/lastmile_qr_scan"}, "fusion_lon": 0.0, "lat": 38.902107666666666, "bike_id": "d00661baf3085af067de6afe73dfa2fb", "type": "electric_scooter", "is_reserved": 0, "lon": -77.0506195}, {"fusion_lat": 0.0, "name": "36f0ac3a327bf4655b6e173460510456", "is_disabled": 0, "rental_uris": {"android": "https://dc.lft.to/lastmile_qr_scan", "ios": "https://dc.lft.to/lastmile_qr_scan"}, "fusion_lon": 0.0, "lat": 38.93510583333333, "bike_id": "36f0ac3a327bf4655b6e173460510456", "type": "electric_scooter", "is_reserved": 0, "lon": -77.032826}, {"fusion_lat": 0.0, "name": "7b1184028f893548afdf07debee54fed", "is_disabled": 0, "rental_uris": {"android": "https://dc.lft.to/lastmile_qr_scan", "ios": "https://dc.lft.to/lastmile_qr_scan"}, "fusion_lon": 0.0, "lat": 38.89584, "bike_id": "7b1184028f893548afdf07debee54fed", "type": "electric_scooter", "is_reserved": 0, "lon": -77.03175083333333}, {"fusion_lat": 0.0, "name": "3a4b1e3487dfad64d4bfaadc80b02b47", "is_disabled": 0, "rental_uris": {"android": "https://dc.lft.to/lastmile_qr_scan", "ios": "https://dc.lft.to/lastmile_qr_scan"}, "fusion_lon": 0.0, "lat": 38.9218045, "bike_id": "3a4b1e3487dfad64d4bfaadc80b02b47", "type": "electric_scooter", "is_reserved": 0, "lon": -77.0266445}, {"fusion_lat": 0.0, "name": "ab4423d385e61a3a71e44a4653a78792", "is_disabled": 0, "rental_uris": {"android": "https://dc.lft.to/lastmile_qr_scan", "ios": "https://dc.lft.to/lastmile_qr_scan"}, "fusion_lon": 0.0, "lat": 38.90728766666667, "bike_id": "ab4423d385e61a3a71e44a4653a78792", "type": "electric_scooter", "is_reserved": 0, "lon": -77.02955366666667}, {"fusion_lat": 0.0, "name": "1d6b427ab8bb8522093f9da3ee84c507", "is_disabled": 0, "rental_uris": {"android": "https://dc.lft.to/lastmile_qr_scan", "ios": "https://dc.lft.to/lastmile_qr_scan"}, "fusion_lon": 0.0, "lat": 38.909708, "bike_id": "1d6b427ab8bb8522093f9da3ee84c507", "type": "electric_scooter", "is_reserved": 0, "lon": -77.021587}, {"fusion_lat": 0.0, "name": "be7874fa01160d6cc5349ec5ca1b9c22", "is_disabled": 0, "rental_uris": {"android": "https://dc.lft.to/lastmile_qr_scan", "ios": "https://dc.lft.to/lastmile_qr_scan"}, "fusion_lon": 0.0, "lat": 38.90025816666667, "bike_id": "be7874fa01160d6cc5349ec5ca1b9c22", "type": "electric_scooter", "is_reserved": 0, "lon": -77.02383966666666}, {"fusion_lat": 0.0, "name": "bd4a3c9b7e0222d13a00392f069892fc", "is_disabled": 0, "rental_uris": {"android": "https://dc.lft.to/lastmile_qr_scan", "ios": "https://dc.lft.to/lastmile_qr_scan"}, "fusion_lon": 0.0, "lat": 38.899578, "bike_id": "bd4a3c9b7e0222d13a00392f069892fc", "type": "electric_scooter", "is_reserved": 0, "lon": -76.9857415}, {"fusion_lat": 0.0, "name": "cb4dd62ced7c59e7a8f3908b53b8a590", "is_disabled": 0, "rental_uris": {"android": "https://dc.lft.to/lastmile_qr_scan", "ios": "https://dc.lft.to/lastmile_qr_scan"}, "fusion_lon": 0.0, "lat": 38.929904, "bike_id": "cb4dd62ced7c59e7a8f3908b53b8a590", "type": "electric_scooter", "is_reserved": 0, "lon": -77.03473766666667}, {"fusion_lat": 0.0, "name": "8c47ac3ab56aefb1004bfbe3da1e2a6e", "is_disabled": 0, "rental_uris": {"android": "https://dc.lft.to/lastmile_qr_scan", "ios": "https://dc.lft.to/lastmile_qr_scan"}, "fusion_lon": 0.0, "lat": 38.9282015, "bike_id": "8c47ac3ab56aefb1004bfbe3da1e2a6e", "type": "electric_scooter", "is_reserved": 0, "lon": -77.02329333333333}, {"fusion_lat": 0.0, "name": "38552a9696b15b29295a7b0e9c34ea4b", "is_disabled": 0, "rental_uris": {"android": "https://dc.lft.to/lastmile_qr_scan", "ios": "https://dc.lft.to/lastmile_qr_scan"}, "fusion_lon": 0.0, "lat": 38.892353, "bike_id": "38552a9696b15b29295a7b0e9c34ea4b", "type": "electric_scooter", "is_reserved": 0, "lon": -77.046564}, {"fusion_lat": 0.0, "name": "3a263bf40499d32dc7cb9b2a9ae2a58e", "is_disabled": 0, "rental_uris": {"android": "https://dc.lft.to/lastmile_qr_scan", "ios": "https://dc.lft.to/lastmile_qr_scan"}, "fusion_lon": 0.0, "lat": 38.92755833333333, "bike_id": "3a263bf40499d32dc7cb9b2a9ae2a58e", "type": "electric_scooter", "is_reserved": 0, "lon": -77.02447483333333}, {"fusion_lat": 0.0, "name": "edcac23748a1018b66df7b0411687d5e", "is_disabled": 0, "rental_uris": {"android": "https://dc.lft.to/lastmile_qr_scan", "ios": "https://dc.lft.to/lastmile_qr_scan"}, "fusion_lon": 0.0, "lat": 38.922239, "bike_id": "edcac23748a1018b66df7b0411687d5e", "type": "electric_scooter", "is_reserved": 0, "lon": -76.99657283333333}, {"fusion_lat": 0.0, "name": "bfeb8717f55c8acf6587e39724dfee1f", "is_disabled": 0, "rental_uris": {"android": "https://dc.lft.to/lastmile_qr_scan", "ios": "https://dc.lft.to/lastmile_qr_scan"}, "fusion_lon": 0.0, "lat": 38.90739116666666, "bike_id": "bfeb8717f55c8acf6587e39724dfee1f", "type": "electric_scooter", "is_reserved": 0, "lon": -77.034641}, {"fusion_lat": 0.0, "name": "0c195c0b53e865fb43e841a94019e905", "is_disabled": 0, "rental_uris": {"android": "https://dc.lft.to/lastmile_qr_scan", "ios": "https://dc.lft.to/lastmile_qr_scan"}, "fusion_lon": 0.0, "lat": 38.90838133333333, "bike_id": "0c195c0b53e865fb43e841a94019e905", "type": "electric_scooter", "is_reserved": 0, "lon": -77.04301733333334}, {"fusion_lat": 0.0, "name": "3b248ea48d5eac73dfffde5bce271d10", "is_disabled": 0, "rental_uris": {"android": "https://dc.lft.to/lastmile_qr_scan", "ios": "https://dc.lft.to/lastmile_qr_scan"}, "fusion_lon": 0.0, "lat": 38.84290383333333, "bike_id": "3b248ea48d5eac73dfffde5bce271d10", "type": "electric_bike", "is_reserved": 0, "lon": -77.0449625}, {"fusion_lat": 0.0, "name": "23ebdd6c8f2b76954527667c80c28b79", "is_disabled": 0, "rental_uris": {"android": "https://dc.lft.to/lastmile_qr_scan", "ios": "https://dc.lft.to/lastmile_qr_scan"}, "fusion_lon": 0.0, "lat": 38.9033255, "bike_id": "23ebdd6c8f2b76954527667c80c28b79", "type": "electric_bike", "is_reserved": 0, "lon": -76.97529316666666}, {"fusion_lat": 0.0, "name": "c7843cb60ef527993bbe252d51abf85d", "is_disabled": 0, "rental_uris": {"android": "https://dc.lft.to/lastmile_qr_scan", "ios": "https://dc.lft.to/lastmile_qr_scan"}, "fusion_lon": 0.0, "lat": 38.85744283333333, "bike_id": "c7843cb60ef527993bbe252d51abf85d", "type": "electric_bike", "is_reserved": 0, "lon": -77.05345383333334}, {"fusion_lat": 0.0, "name": "e95e2906de772fa6393de83c0b18737a", "is_disabled": 0, "rental_uris": {"android": "https://dc.lft.to/lastmile_qr_scan", "ios": "https://dc.lft.to/lastmile_qr_scan"}, "fusion_lon": 0.0, "lat": 38.93585066666667, "bike_id": "e95e2906de772fa6393de83c0b18737a", "type": "electric_scooter", "is_reserved": 0, "lon": -77.02842983333333}, {"fusion_lat": 0.0, "name": "53848e8b550288ef278e19899b15492b", "is_disabled": 0, "rental_uris": {"android": "https://dc.lft.to/lastmile_qr_scan", "ios": "https://dc.lft.to/lastmile_qr_scan"}, "fusion_lon": 0.0, "lat": 38.9113265, "bike_id": "53848e8b550288ef278e19899b15492b", "type": "electric_scooter", "is_reserved": 0, "lon": -77.04415366666667}, {"fusion_lat": 0.0, "name": "f780b44c540ee3000935cbc09403064c", "is_disabled": 0, "rental_uris": {"android": "https://dc.lft.to/lastmile_qr_scan", "ios": "https://dc.lft.to/lastmile_qr_scan"}, "fusion_lon": 0.0, "lat": 38.93649816666667, "bike_id": "f780b44c540ee3000935cbc09403064c", "type": "electric_scooter", "is_reserved": 0, "lon": -77.03713366666666}, {"fusion_lat": 0.0, "name": "e8716789828b63d9793d4941a3a7008c", "is_disabled": 0, "rental_uris": {"android": "https://dc.lft.to/lastmile_qr_scan", "ios": "https://dc.lft.to/lastmile_qr_scan"}, "fusion_lon": 0.0, "lat": 38.8875895, "bike_id": "e8716789828b63d9793d4941a3a7008c", "type": "electric_scooter", "is_reserved": 0, "lon": -76.99787933333333}, {"fusion_lat": 0.0, "name": "9314b578b578f263e68342ef2ee7e9e7", "is_disabled": 0, "rental_uris": {"android": "https://dc.lft.to/lastmile_qr_scan", "ios": "https://dc.lft.to/lastmile_qr_scan"}, "fusion_lon": 0.0, "lat": 38.90050166666666, "bike_id": "9314b578b578f263e68342ef2ee7e9e7", "type": "electric_scooter", "is_reserved": 0, "lon": -77.044833}, {"fusion_lat": 0.0, "name": "7a8789908a88c723064689796cd1ac77", "is_disabled": 0, "rental_uris": {"android": "https://dc.lft.to/lastmile_qr_scan", "ios": "https://dc.lft.to/lastmile_qr_scan"}, "fusion_lon": 0.0, "lat": 38.94517, "bike_id": "7a8789908a88c723064689796cd1ac77", "type": "electric_scooter", "is_reserved": 0, "lon": -77.03887416666667}, {"fusion_lat": 0.0, "name": "839c1c8fbf3692ea5770d8bb5bc3ad29", "is_disabled": 0, "rental_uris": {"android": "https://dc.lft.to/lastmile_qr_scan", "ios": "https://dc.lft.to/lastmile_qr_scan"}, "fusion_lon": 0.0, "lat": 38.905933, "bike_id": "839c1c8fbf3692ea5770d8bb5bc3ad29", "type": "electric_scooter", "is_reserved": 0, "lon": -77.00680983333334}, {"fusion_lat": 0.0, "name": "4af2b759b24c5c85db1d7d20404c01c1", "is_disabled": 0, "rental_uris": {"android": "https://dc.lft.to/lastmile_qr_scan", "ios": "https://dc.lft.to/lastmile_qr_scan"}, "fusion_lon": 0.0, "lat": 38.936296666666664, "bike_id": "4af2b759b24c5c85db1d7d20404c01c1", "type": "electric_scooter", "is_reserved": 0, "lon": -77.0731435}, {"fusion_lat": 0.0, "name": "2d8f4e30659ca51bf832112e655800e2", "is_disabled": 0, "rental_uris": {"android": "https://dc.lft.to/lastmile_qr_scan", "ios": "https://dc.lft.to/lastmile_qr_scan"}, "fusion_lon": 0.0, "lat": 38.905610833333334, "bike_id": "2d8f4e30659ca51bf832112e655800e2", "type": "electric_scooter", "is_reserved": 0, "lon": -77.0465575}, {"fusion_lat": 0.0, "name": "03000093792595e8482bcb12c0b7afea", "is_disabled": 0, "rental_uris": {"android": "https://dc.lft.to/lastmile_qr_scan", "ios": "https://dc.lft.to/lastmile_qr_scan"}, "fusion_lon": 0.0, "lat": 38.93518816666667, "bike_id": "03000093792595e8482bcb12c0b7afea", "type": "electric_scooter", "is_reserved": 0, "lon": -77.0328495}, {"fusion_lat": 0.0, "name": "0f429f5c6d056d2809b012ede097368e", "is_disabled": 0, "rental_uris": {"android": "https://dc.lft.to/lastmile_qr_scan", "ios": "https://dc.lft.to/lastmile_qr_scan"}, "fusion_lon": 0.0, "lat": 38.88346666666666, "bike_id": "0f429f5c6d056d2809b012ede097368e", "type": "electric_scooter", "is_reserved": 0, "lon": -77.03161983333334}, {"fusion_lat": 0.0, "name": "c40f8e9d79f661d5c111f4fafac75272", "is_disabled": 0, "rental_uris": {"android": "https://dc.lft.to/lastmile_qr_scan", "ios": "https://dc.lft.to/lastmile_qr_scan"}, "fusion_lon": 0.0, "lat": 38.93533383333333, "bike_id": "c40f8e9d79f661d5c111f4fafac75272", "type": "electric_scooter", "is_reserved": 0, "lon": -77.02356366666666}, {"fusion_lat": 0.0, "name": "1cc91ad5218cf8df3778dbf0be48482a", "is_disabled": 0, "rental_uris": {"android": "https://dc.lft.to/lastmile_qr_scan", "ios": "https://dc.lft.to/lastmile_qr_scan"}, "fusion_lon": 0.0, "lat": 38.92088066666667, "bike_id": "1cc91ad5218cf8df3778dbf0be48482a", "type": "electric_scooter", "is_reserved": 0, "lon": -77.01745366666667}, {"fusion_lat": 0.0, "name": "cbf29034d3b589185743e710afa2a39f", "is_disabled": 0, "rental_uris": {"android": "https://dc.lft.to/lastmile_qr_scan", "ios": "https://dc.lft.to/lastmile_qr_scan"}, "fusion_lon": 0.0, "lat": 38.912678, "bike_id": "cbf29034d3b589185743e710afa2a39f", "type": "electric_scooter", "is_reserved": 0, "lon": -77.019301}, {"fusion_lat": 0.0, "name": "7a3965c9f5f3de42ba7177ad12b06a83", "is_disabled": 0, "rental_uris": {"android": "https://dc.lft.to/lastmile_qr_scan", "ios": "https://dc.lft.to/lastmile_qr_scan"}, "fusion_lon": 0.0, "lat": 38.847564, "bike_id": "7a3965c9f5f3de42ba7177ad12b06a83", "type": "electric_scooter", "is_reserved": 0, "lon": -76.994994}, {"fusion_lat": 0.0, "name": "7a6791be530bfd4857734c2669b8c427", "is_disabled": 0, "rental_uris": {"android": "https://dc.lft.to/lastmile_qr_scan", "ios": "https://dc.lft.to/lastmile_qr_scan"}, "fusion_lon": 0.0, "lat": 38.901625333333335, "bike_id": "7a6791be530bfd4857734c2669b8c427", "type": "electric_scooter", "is_reserved": 0, "lon": -76.9925735}, {"fusion_lat": 0.0, "name": "afc7b25550bb9f983f02e76d24b4d9e5", "is_disabled": 0, "rental_uris": {"android": "https://dc.lft.to/lastmile_qr_scan", "ios": "https://dc.lft.to/lastmile_qr_scan"}, "fusion_lon": 0.0, "lat": 38.889927166666666, "bike_id": "afc7b25550bb9f983f02e76d24b4d9e5", "type": "electric_scooter", "is_reserved": 0, "lon": -77.00339083333333}, {"fusion_lat": 0.0, "name": "73522a8b16d1d1962af6e4c51ccdb0b3", "is_disabled": 0, "rental_uris": {"android": "https://dc.lft.to/lastmile_qr_scan", "ios": "https://dc.lft.to/lastmile_qr_scan"}, "fusion_lon": 0.0, "lat": 38.90735166666666, "bike_id": "73522a8b16d1d1962af6e4c51ccdb0b3", "type": "electric_scooter", "is_reserved": 0, "lon": -77.02804033333334}, {"fusion_lat": 0.0, "name": "880d77b637f98ea2d0146e8a78ccaf92", "is_disabled": 0, "rental_uris": {"android": "https://dc.lft.to/lastmile_qr_scan", "ios": "https://dc.lft.to/lastmile_qr_scan"}, "fusion_lon": 0.0, "lat": 38.90623316666667, "bike_id": "880d77b637f98ea2d0146e8a78ccaf92", "type": "electric_scooter", "is_reserved": 0, "lon": -77.02526966666667}, {"fusion_lat": 0.0, "name": "e8711f0c05bea756232eaa1f5d08a237", "is_disabled": 0, "rental_uris": {"android": "https://dc.lft.to/lastmile_qr_scan", "ios": "https://dc.lft.to/lastmile_qr_scan"}, "fusion_lon": 0.0, "lat": 38.92245916666667, "bike_id": "e8711f0c05bea756232eaa1f5d08a237", "type": "electric_scooter", "is_reserved": 0, "lon": -77.03080716666666}, {"fusion_lat": 0.0, "name": "c2d0d6b5f10fe10adc9d9a5f6a6497f5", "is_disabled": 0, "rental_uris": {"android": "https://dc.lft.to/lastmile_qr_scan", "ios": "https://dc.lft.to/lastmile_qr_scan"}, "fusion_lon": 0.0, "lat": 38.896803, "bike_id": "c2d0d6b5f10fe10adc9d9a5f6a6497f5", "type": "electric_scooter", "is_reserved": 0, "lon": -77.0510785}, {"fusion_lat": 0.0, "name": "98f504e545ab365f73294b32029059c3", "is_disabled": 0, "rental_uris": {"android": "https://dc.lft.to/lastmile_qr_scan", "ios": "https://dc.lft.to/lastmile_qr_scan"}, "fusion_lon": 0.0, "lat": 38.9358495, "bike_id": "98f504e545ab365f73294b32029059c3", "type": "electric_scooter", "is_reserved": 0, "lon": -77.03346433333333}, {"fusion_lat": 0.0, "name": "000d082c039ffe13130bbf7569226a51", "is_disabled": 0, "rental_uris": {"android": "https://dc.lft.to/lastmile_qr_scan", "ios": "https://dc.lft.to/lastmile_qr_scan"}, "fusion_lon": 0.0, "lat": 38.9228915, "bike_id": "000d082c039ffe13130bbf7569226a51", "type": "electric_scooter", "is_reserved": 0, "lon": -77.02335766666667}, {"fusion_lat": 0.0, "name": "b4fe55f97f374c0163725fb7a408a38b", "is_disabled": 0, "rental_uris": {"android": "https://dc.lft.to/lastmile_qr_scan", "ios": "https://dc.lft.to/lastmile_qr_scan"}, "fusion_lon": 0.0, "lat": 38.88309866666667, "bike_id": "b4fe55f97f374c0163725fb7a408a38b", "type": "electric_scooter", "is_reserved": 0, "lon": -77.01393533333334}, {"fusion_lat": 0.0, "name": "d2599cfa439b52050ee2a92cf0c3924a", "is_disabled": 0, "rental_uris": {"android": "https://dc.lft.to/lastmile_qr_scan", "ios": "https://dc.lft.to/lastmile_qr_scan"}, "fusion_lon": 0.0, "lat": 38.902640166666664, "bike_id": "d2599cfa439b52050ee2a92cf0c3924a", "type": "electric_scooter", "is_reserved": 0, "lon": -77.033645}, {"fusion_lat": 0.0, "name": "ba2fd4249cbf104da1e0d08b5f2e1854", "is_disabled": 0, "rental_uris": {"android": "https://dc.lft.to/lastmile_qr_scan", "ios": "https://dc.lft.to/lastmile_qr_scan"}, "fusion_lon": 0.0, "lat": 38.924526666666665, "bike_id": "ba2fd4249cbf104da1e0d08b5f2e1854", "type": "electric_scooter", "is_reserved": 0, "lon": -77.00874983333334}, {"fusion_lat": 0.0, "name": "e0c5548c13a79827b9a94a9ef78abced", "is_disabled": 0, "rental_uris": {"android": "https://dc.lft.to/lastmile_qr_scan", "ios": "https://dc.lft.to/lastmile_qr_scan"}, "fusion_lon": 0.0, "lat": 38.922499333333334, "bike_id": "e0c5548c13a79827b9a94a9ef78abced", "type": "electric_scooter", "is_reserved": 0, "lon": -77.0306575}, {"fusion_lat": 0.0, "name": "5cba17158f01d088d715b81eaa1aaba7", "is_disabled": 0, "rental_uris": {"android": "https://dc.lft.to/lastmile_qr_scan", "ios": "https://dc.lft.to/lastmile_qr_scan"}, "fusion_lon": 0.0, "lat": 38.955126166666666, "bike_id": "5cba17158f01d088d715b81eaa1aaba7", "type": "electric_scooter", "is_reserved": 0, "lon": -77.02844433333334}, {"fusion_lat": 0.0, "name": "54f90f1348bde5ab92f19683239a2b37", "is_disabled": 0, "rental_uris": {"android": "https://dc.lft.to/lastmile_qr_scan", "ios": "https://dc.lft.to/lastmile_qr_scan"}, "fusion_lon": 0.0, "lat": 38.890175166666666, "bike_id": "54f90f1348bde5ab92f19683239a2b37", "type": "electric_scooter", "is_reserved": 0, "lon": -76.93736033333333}, {"fusion_lat": 0.0, "name": "e38bd673155d8a4c90d6ee8c6863536b", "is_disabled": 0, "rental_uris": {"android": "https://dc.lft.to/lastmile_qr_scan", "ios": "https://dc.lft.to/lastmile_qr_scan"}, "fusion_lon": 0.0, "lat": 38.92836333333333, "bike_id": "e38bd673155d8a4c90d6ee8c6863536b", "type": "electric_scooter", "is_reserved": 0, "lon": -76.9934245}, {"fusion_lat": 0.0, "name": "10d252892594a9e2ec83f0d7b568d009", "is_disabled": 0, "rental_uris": {"android": "https://dc.lft.to/lastmile_qr_scan", "ios": "https://dc.lft.to/lastmile_qr_scan"}, "fusion_lon": 0.0, "lat": 38.905121, "bike_id": "10d252892594a9e2ec83f0d7b568d009", "type": "electric_scooter", "is_reserved": 0, "lon": -77.03169666666666}, {"fusion_lat": 0.0, "name": "de0ab5b9071382559d9b4a1165f2b231", "is_disabled": 0, "rental_uris": {"android": "https://dc.lft.to/lastmile_qr_scan", "ios": "https://dc.lft.to/lastmile_qr_scan"}, "fusion_lon": 0.0, "lat": 38.932502166666666, "bike_id": "de0ab5b9071382559d9b4a1165f2b231", "type": "electric_scooter", "is_reserved": 0, "lon": -77.03844066666667}, {"fusion_lat": 0.0, "name": "02df8140ac031479e1e11c9726106d4f", "is_disabled": 0, "rental_uris": {"android": "https://dc.lft.to/lastmile_qr_scan", "ios": "https://dc.lft.to/lastmile_qr_scan"}, "fusion_lon": 0.0, "lat": 38.90758433333333, "bike_id": "02df8140ac031479e1e11c9726106d4f", "type": "electric_scooter", "is_reserved": 0, "lon": -76.99999633333333}, {"fusion_lat": 0.0, "name": "1b769aa3848a69457622b86850f4ca69", "is_disabled": 0, "rental_uris": {"android": "https://dc.lft.to/lastmile_qr_scan", "ios": "https://dc.lft.to/lastmile_qr_scan"}, "fusion_lon": 0.0, "lat": 38.916352, "bike_id": "1b769aa3848a69457622b86850f4ca69", "type": "electric_scooter", "is_reserved": 0, "lon": -77.01079266666666}, {"fusion_lat": 0.0, "name": "90250f189ab9872e296d6de0a4776789", "is_disabled": 0, "rental_uris": {"android": "https://dc.lft.to/lastmile_qr_scan", "ios": "https://dc.lft.to/lastmile_qr_scan"}, "fusion_lon": 0.0, "lat": 38.93279583333333, "bike_id": "90250f189ab9872e296d6de0a4776789", "type": "electric_scooter", "is_reserved": 0, "lon": -77.04081916666667}, {"fusion_lat": 0.0, "name": "b06ac180283d20213b16c134935b939a", "is_disabled": 0, "rental_uris": {"android": "https://dc.lft.to/lastmile_qr_scan", "ios": "https://dc.lft.to/lastmile_qr_scan"}, "fusion_lon": 0.0, "lat": 38.93759333333333, "bike_id": "b06ac180283d20213b16c134935b939a", "type": "electric_bike", "is_reserved": 0, "lon": -76.95820966666666}, {"fusion_lat": 0.0, "name": "e6c17733666844ead43b19e7457853c9", "is_disabled": 0, "rental_uris": {"android": "https://dc.lft.to/lastmile_qr_scan", "ios": "https://dc.lft.to/lastmile_qr_scan"}, "fusion_lon": 0.0, "lat": 38.91102633333333, "bike_id": "e6c17733666844ead43b19e7457853c9", "type": "electric_bike", "is_reserved": 0, "lon": -77.00272116666666}, {"fusion_lat": 0.0, "name": "ef08e1aa72808be7436beb2c7246c237", "is_disabled": 0, "rental_uris": {"android": "https://dc.lft.to/lastmile_qr_scan", "ios": "https://dc.lft.to/lastmile_qr_scan"}, "fusion_lon": 0.0, "lat": 38.92564566666667, "bike_id": "ef08e1aa72808be7436beb2c7246c237", "type": "electric_scooter", "is_reserved": 0, "lon": -77.035537}, {"fusion_lat": 0.0, "name": "ae7686542a8d5f46f28225d63446e90a", "is_disabled": 0, "rental_uris": {"android": "https://dc.lft.to/lastmile_qr_scan", "ios": "https://dc.lft.to/lastmile_qr_scan"}, "fusion_lon": 0.0, "lat": 38.90274216666667, "bike_id": "ae7686542a8d5f46f28225d63446e90a", "type": "electric_scooter", "is_reserved": 0, "lon": -77.05334783333333}, {"fusion_lat": 0.0, "name": "87bee17e3bd258e124860754146124e2", "is_disabled": 0, "rental_uris": {"android": "https://dc.lft.to/lastmile_qr_scan", "ios": "https://dc.lft.to/lastmile_qr_scan"}, "fusion_lon": 0.0, "lat": 38.902316, "bike_id": "87bee17e3bd258e124860754146124e2", "type": "electric_scooter", "is_reserved": 0, "lon": -77.03461416666667}, {"fusion_lat": 0.0, "name": "747c34e84013f873f1d510b626f0cae9", "is_disabled": 0, "rental_uris": {"android": "https://dc.lft.to/lastmile_qr_scan", "ios": "https://dc.lft.to/lastmile_qr_scan"}, "fusion_lon": 0.0, "lat": 38.91824166666667, "bike_id": "747c34e84013f873f1d510b626f0cae9", "type": "electric_scooter", "is_reserved": 0, "lon": -77.04505383333333}, {"fusion_lat": 0.0, "name": "f4f0cb981eaf5fa40ecd5f4b1cec4783", "is_disabled": 0, "rental_uris": {"android": "https://dc.lft.to/lastmile_qr_scan", "ios": "https://dc.lft.to/lastmile_qr_scan"}, "fusion_lon": 0.0, "lat": 38.8785525, "bike_id": "f4f0cb981eaf5fa40ecd5f4b1cec4783", "type": "electric_scooter", "is_reserved": 0, "lon": -77.01751033333333}, {"fusion_lat": 0.0, "name": "b43c5618f28efeab8c5e8c865abcda3a", "is_disabled": 0, "rental_uris": {"android": "https://dc.lft.to/lastmile_qr_scan", "ios": "https://dc.lft.to/lastmile_qr_scan"}, "fusion_lon": 0.0, "lat": 38.95087916666667, "bike_id": "b43c5618f28efeab8c5e8c865abcda3a", "type": "electric_bike", "is_reserved": 0, "lon": -77.01228983333333}, {"fusion_lat": 0.0, "name": "80482f1fd1cf1a65166add4cbcba97f6", "is_disabled": 0, "rental_uris": {"android": "https://dc.lft.to/lastmile_qr_scan", "ios": "https://dc.lft.to/lastmile_qr_scan"}, "fusion_lon": 0.0, "lat": 38.920566, "bike_id": "80482f1fd1cf1a65166add4cbcba97f6", "type": "electric_scooter", "is_reserved": 0, "lon": -77.02370483333333}, {"fusion_lat": 0.0, "name": "767b0829e09d8b26caf03d705ee727a9", "is_disabled": 0, "rental_uris": {"android": "https://dc.lft.to/lastmile_qr_scan", "ios": "https://dc.lft.to/lastmile_qr_scan"}, "fusion_lon": 0.0, "lat": 38.9035115, "bike_id": "767b0829e09d8b26caf03d705ee727a9", "type": "electric_scooter", "is_reserved": 0, "lon": -77.044893}, {"fusion_lat": 0.0, "name": "8e27457539e15d08de03ca5939838c2a", "is_disabled": 0, "rental_uris": {"android": "https://dc.lft.to/lastmile_qr_scan", "ios": "https://dc.lft.to/lastmile_qr_scan"}, "fusion_lon": 0.0, "lat": 38.9002785, "bike_id": "8e27457539e15d08de03ca5939838c2a", "type": "electric_scooter", "is_reserved": 0, "lon": -76.99870166666666}, {"fusion_lat": 0.0, "name": "f75e52c57b575da1236c0003becb36c5", "is_disabled": 0, "rental_uris": {"android": "https://dc.lft.to/lastmile_qr_scan", "ios": "https://dc.lft.to/lastmile_qr_scan"}, "fusion_lon": 0.0, "lat": 38.905638, "bike_id": "f75e52c57b575da1236c0003becb36c5", "type": "electric_scooter", "is_reserved": 0, "lon": -77.04328933333333}, {"fusion_lat": 0.0, "name": "c410e6fee1ed4d5379cae8349e47c933", "is_disabled": 0, "rental_uris": {"android": "https://dc.lft.to/lastmile_qr_scan", "ios": "https://dc.lft.to/lastmile_qr_scan"}, "fusion_lon": 0.0, "lat": 38.89547733333333, "bike_id": "c410e6fee1ed4d5379cae8349e47c933", "type": "electric_scooter", "is_reserved": 0, "lon": -76.98337683333334}, {"fusion_lat": 0.0, "name": "4decd617a0c94cd200fdb8b22243daf6", "is_disabled": 0, "rental_uris": {"android": "https://dc.lft.to/lastmile_qr_scan", "ios": "https://dc.lft.to/lastmile_qr_scan"}, "fusion_lon": 0.0, "lat": 38.921245166666665, "bike_id": "4decd617a0c94cd200fdb8b22243daf6", "type": "electric_scooter", "is_reserved": 0, "lon": -77.02579833333333}, {"fusion_lat": 0.0, "name": "4f428f7458f73fd49ad68c26867aabf8", "is_disabled": 0, "rental_uris": {"android": "https://dc.lft.to/lastmile_qr_scan", "ios": "https://dc.lft.to/lastmile_qr_scan"}, "fusion_lon": 0.0, "lat": 38.9068865, "bike_id": "4f428f7458f73fd49ad68c26867aabf8", "type": "electric_scooter", "is_reserved": 0, "lon": -77.010172}, {"fusion_lat": 0.0, "name": "691b385a2ce5d149507020bf06fa03a2", "is_disabled": 0, "rental_uris": {"android": "https://dc.lft.to/lastmile_qr_scan", "ios": "https://dc.lft.to/lastmile_qr_scan"}, "fusion_lon": 0.0, "lat": 38.89731116666667, "bike_id": "691b385a2ce5d149507020bf06fa03a2", "type": "electric_scooter", "is_reserved": 0, "lon": -76.99137883333333}, {"fusion_lat": 0.0, "name": "c237609a35d5f61a7e771d29e8144916", "is_disabled": 0, "rental_uris": {"android": "https://dc.lft.to/lastmile_qr_scan", "ios": "https://dc.lft.to/lastmile_qr_scan"}, "fusion_lon": 0.0, "lat": 38.92340183333334, "bike_id": "c237609a35d5f61a7e771d29e8144916", "type": "electric_scooter", "is_reserved": 0, "lon": -77.05304216666667}, {"fusion_lat": 0.0, "name": "4358660e435856fb591235b635ae3564", "is_disabled": 0, "rental_uris": {"android": "https://dc.lft.to/lastmile_qr_scan", "ios": "https://dc.lft.to/lastmile_qr_scan"}, "fusion_lon": 0.0, "lat": 38.881854833333335, "bike_id": "4358660e435856fb591235b635ae3564", "type": "electric_bike", "is_reserved": 0, "lon": -77.08637633333333}, {"fusion_lat": 0.0, "name": "5e7c06e0a56451fe67cb4ebd52715570", "is_disabled": 0, "rental_uris": {"android": "https://dc.lft.to/lastmile_qr_scan", "ios": "https://dc.lft.to/lastmile_qr_scan"}, "fusion_lon": 0.0, "lat": 38.90849, "bike_id": "5e7c06e0a56451fe67cb4ebd52715570", "type": "electric_scooter", "is_reserved": 0, "lon": -77.02354866666667}, {"fusion_lat": 0.0, "name": "051402b3b98ad874830dc8c6872ecbed", "is_disabled": 0, "rental_uris": {"android": "https://dc.lft.to/lastmile_qr_scan", "ios": "https://dc.lft.to/lastmile_qr_scan"}, "fusion_lon": 0.0, "lat": 38.907750166666666, "bike_id": "051402b3b98ad874830dc8c6872ecbed", "type": "electric_scooter", "is_reserved": 0, "lon": -77.03591416666667}, {"fusion_lat": 0.0, "name": "3d2c7e7562ec10337d176c45e5ddd615", "is_disabled": 0, "rental_uris": {"android": "https://dc.lft.to/lastmile_qr_scan", "ios": "https://dc.lft.to/lastmile_qr_scan"}, "fusion_lon": 0.0, "lat": 38.9052645, "bike_id": "3d2c7e7562ec10337d176c45e5ddd615", "type": "electric_scooter", "is_reserved": 0, "lon": -77.029415}, {"fusion_lat": 0.0, "name": "512b63bd1231137f6d1f9e39735fbea3", "is_disabled": 0, "rental_uris": {"android": "https://dc.lft.to/lastmile_qr_scan", "ios": "https://dc.lft.to/lastmile_qr_scan"}, "fusion_lon": 0.0, "lat": 38.904797, "bike_id": "512b63bd1231137f6d1f9e39735fbea3", "type": "electric_scooter", "is_reserved": 0, "lon": -77.0486315}, {"fusion_lat": 0.0, "name": "0d053bb33e1928ac0516a18b3a31e268", "is_disabled": 0, "rental_uris": {"android": "https://dc.lft.to/lastmile_qr_scan", "ios": "https://dc.lft.to/lastmile_qr_scan"}, "fusion_lon": 0.0, "lat": 38.852077, "bike_id": "0d053bb33e1928ac0516a18b3a31e268", "type": "electric_scooter", "is_reserved": 0, "lon": -76.96296233333334}, {"fusion_lat": 0.0, "name": "c3798370041e226be896abadfdac6ab2", "is_disabled": 0, "rental_uris": {"android": "https://dc.lft.to/lastmile_qr_scan", "ios": "https://dc.lft.to/lastmile_qr_scan"}, "fusion_lon": 0.0, "lat": 38.915588166666666, "bike_id": "c3798370041e226be896abadfdac6ab2", "type": "electric_scooter", "is_reserved": 0, "lon": -77.0313385}, {"fusion_lat": 0.0, "name": "e19c936e5b9496cd4825e98665bd97f6", "is_disabled": 0, "rental_uris": {"android": "https://dc.lft.to/lastmile_qr_scan", "ios": "https://dc.lft.to/lastmile_qr_scan"}, "fusion_lon": 0.0, "lat": 38.9097365, "bike_id": "e19c936e5b9496cd4825e98665bd97f6", "type": "electric_scooter", "is_reserved": 0, "lon": -77.038631}, {"fusion_lat": 0.0, "name": "4c8f87a86ea5f99007384e5925beb087", "is_disabled": 0, "rental_uris": {"android": "https://dc.lft.to/lastmile_qr_scan", "ios": "https://dc.lft.to/lastmile_qr_scan"}, "fusion_lon": 0.0, "lat": 39.036072833333336, "bike_id": "4c8f87a86ea5f99007384e5925beb087", "type": "electric_bike", "is_reserved": 0, "lon": -77.0554365}, {"fusion_lat": 0.0, "name": "b752fbd434f791bacc6ac7a7f632ee67", "is_disabled": 0, "rental_uris": {"android": "https://dc.lft.to/lastmile_qr_scan", "ios": "https://dc.lft.to/lastmile_qr_scan"}, "fusion_lon": 0.0, "lat": 38.886283, "bike_id": "b752fbd434f791bacc6ac7a7f632ee67", "type": "electric_scooter", "is_reserved": 0, "lon": -77.02832616666667}, {"fusion_lat": 0.0, "name": "1a40c10e5814b62f0883fac26ca0fd4c", "is_disabled": 0, "rental_uris": {"android": "https://dc.lft.to/lastmile_qr_scan", "ios": "https://dc.lft.to/lastmile_qr_scan"}, "fusion_lon": 0.0, "lat": 38.9162355, "bike_id": "1a40c10e5814b62f0883fac26ca0fd4c", "type": "electric_scooter", "is_reserved": 0, "lon": -77.05051466666667}, {"fusion_lat": 0.0, "name": "15b5774765e4df70f8481e2cd45efd99", "is_disabled": 0, "rental_uris": {"android": "https://dc.lft.to/lastmile_qr_scan", "ios": "https://dc.lft.to/lastmile_qr_scan"}, "fusion_lon": 0.0, "lat": 38.91704283333333, "bike_id": "15b5774765e4df70f8481e2cd45efd99", "type": "electric_scooter", "is_reserved": 0, "lon": -77.02396883333333}, {"fusion_lat": 0.0, "name": "f71edccdbf84f06ebcb3e5a688d360fe", "is_disabled": 0, "rental_uris": {"android": "https://dc.lft.to/lastmile_qr_scan", "ios": "https://dc.lft.to/lastmile_qr_scan"}, "fusion_lon": 0.0, "lat": 38.913400333333335, "bike_id": "f71edccdbf84f06ebcb3e5a688d360fe", "type": "electric_scooter", "is_reserved": 0, "lon": -77.0486885}, {"fusion_lat": 0.0, "name": "84eb84bfcaef803deb3ee0916a097969", "is_disabled": 0, "rental_uris": {"android": "https://dc.lft.to/lastmile_qr_scan", "ios": "https://dc.lft.to/lastmile_qr_scan"}, "fusion_lon": 0.0, "lat": 38.89470633333333, "bike_id": "84eb84bfcaef803deb3ee0916a097969", "type": "electric_scooter", "is_reserved": 0, "lon": -77.01765083333333}, {"fusion_lat": 0.0, "name": "701b7bc3f464c76554223f15e1b26a24", "is_disabled": 0, "rental_uris": {"android": "https://dc.lft.to/lastmile_qr_scan", "ios": "https://dc.lft.to/lastmile_qr_scan"}, "fusion_lon": 0.0, "lat": 38.923323, "bike_id": "701b7bc3f464c76554223f15e1b26a24", "type": "electric_scooter", "is_reserved": 0, "lon": -77.03614833333333}, {"fusion_lat": 0.0, "name": "dd98d6a17e663e9b7c217f337fc14909", "is_disabled": 0, "rental_uris": {"android": "https://dc.lft.to/lastmile_qr_scan", "ios": "https://dc.lft.to/lastmile_qr_scan"}, "fusion_lon": 0.0, "lat": 38.912694333333334, "bike_id": "dd98d6a17e663e9b7c217f337fc14909", "type": "electric_scooter", "is_reserved": 0, "lon": -77.04928833333334}, {"fusion_lat": 0.0, "name": "9714db4436c76d7170dac2bd86eedf24", "is_disabled": 0, "rental_uris": {"android": "https://dc.lft.to/lastmile_qr_scan", "ios": "https://dc.lft.to/lastmile_qr_scan"}, "fusion_lon": 0.0, "lat": 38.90764133333333, "bike_id": "9714db4436c76d7170dac2bd86eedf24", "type": "electric_scooter", "is_reserved": 0, "lon": -77.0358425}, {"fusion_lat": 0.0, "name": "e1405c229942584ffb82a139037a2ae9", "is_disabled": 0, "rental_uris": {"android": "https://dc.lft.to/lastmile_qr_scan", "ios": "https://dc.lft.to/lastmile_qr_scan"}, "fusion_lon": 0.0, "lat": 38.931574833333336, "bike_id": "e1405c229942584ffb82a139037a2ae9", "type": "electric_scooter", "is_reserved": 0, "lon": -77.02135633333333}, {"fusion_lat": 0.0, "name": "69782406dc4989935a4c354c71009dae", "is_disabled": 0, "rental_uris": {"android": "https://dc.lft.to/lastmile_qr_scan", "ios": "https://dc.lft.to/lastmile_qr_scan"}, "fusion_lon": 0.0, "lat": 38.92645, "bike_id": "69782406dc4989935a4c354c71009dae", "type": "electric_scooter", "is_reserved": 0, "lon": -77.04130683333334}, {"fusion_lat": 0.0, "name": "eb6dfc120076e9fd186433510d3670f4", "is_disabled": 0, "rental_uris": {"android": "https://dc.lft.to/lastmile_qr_scan", "ios": "https://dc.lft.to/lastmile_qr_scan"}, "fusion_lon": 0.0, "lat": 38.92299933333334, "bike_id": "eb6dfc120076e9fd186433510d3670f4", "type": "electric_scooter", "is_reserved": 0, "lon": -77.04205816666666}, {"fusion_lat": 0.0, "name": "433c47579716bcf7c40cf6bccbfe88f0", "is_disabled": 0, "rental_uris": {"android": "https://dc.lft.to/lastmile_qr_scan", "ios": "https://dc.lft.to/lastmile_qr_scan"}, "fusion_lon": 0.0, "lat": 38.93531, "bike_id": "433c47579716bcf7c40cf6bccbfe88f0", "type": "electric_scooter", "is_reserved": 0, "lon": -77.023454}, {"fusion_lat": 0.0, "name": "5715a7ae24d178662b4af8a8c072980d", "is_disabled": 0, "rental_uris": {"android": "https://dc.lft.to/lastmile_qr_scan", "ios": "https://dc.lft.to/lastmile_qr_scan"}, "fusion_lon": 0.0, "lat": 38.902381, "bike_id": "5715a7ae24d178662b4af8a8c072980d", "type": "electric_scooter", "is_reserved": 0, "lon": -77.00194166666667}, {"fusion_lat": 0.0, "name": "f9f79ce3db70d9bc984ac7e0e3a000ff", "is_disabled": 0, "rental_uris": {"android": "https://dc.lft.to/lastmile_qr_scan", "ios": "https://dc.lft.to/lastmile_qr_scan"}, "fusion_lon": 0.0, "lat": 38.873671333333334, "bike_id": "f9f79ce3db70d9bc984ac7e0e3a000ff", "type": "electric_scooter", "is_reserved": 0, "lon": -77.0006035}, {"fusion_lat": 0.0, "name": "57b5b32f7b67f099f76208031ba1412d", "is_disabled": 0, "rental_uris": {"android": "https://dc.lft.to/lastmile_qr_scan", "ios": "https://dc.lft.to/lastmile_qr_scan"}, "fusion_lon": 0.0, "lat": 38.92058733333333, "bike_id": "57b5b32f7b67f099f76208031ba1412d", "type": "electric_scooter", "is_reserved": 0, "lon": -77.04568983333333}, {"fusion_lat": 0.0, "name": "3082e990bf76cbaaaeca4cee76fd5913", "is_disabled": 0, "rental_uris": {"android": "https://dc.lft.to/lastmile_qr_scan", "ios": "https://dc.lft.to/lastmile_qr_scan"}, "fusion_lon": 0.0, "lat": 38.91683033333333, "bike_id": "3082e990bf76cbaaaeca4cee76fd5913", "type": "electric_scooter", "is_reserved": 0, "lon": -77.02964883333334}, {"fusion_lat": 0.0, "name": "a5061666af1e33eab45560d4969cf2fd", "is_disabled": 0, "rental_uris": {"android": "https://dc.lft.to/lastmile_qr_scan", "ios": "https://dc.lft.to/lastmile_qr_scan"}, "fusion_lon": 0.0, "lat": 38.920677166666664, "bike_id": "a5061666af1e33eab45560d4969cf2fd", "type": "electric_scooter", "is_reserved": 0, "lon": -76.9986345}, {"fusion_lat": 0.0, "name": "77e7cde411a0a88436d7250a1f81f9e5", "is_disabled": 0, "rental_uris": {"android": "https://dc.lft.to/lastmile_qr_scan", "ios": "https://dc.lft.to/lastmile_qr_scan"}, "fusion_lon": 0.0, "lat": 38.92841, "bike_id": "77e7cde411a0a88436d7250a1f81f9e5", "type": "electric_scooter", "is_reserved": 0, "lon": -76.98029466666667}, {"fusion_lat": 0.0, "name": "5579b9be69f5a12bd41e82eecb317848", "is_disabled": 0, "rental_uris": {"android": "https://dc.lft.to/lastmile_qr_scan", "ios": "https://dc.lft.to/lastmile_qr_scan"}, "fusion_lon": 0.0, "lat": 38.868884, "bike_id": "5579b9be69f5a12bd41e82eecb317848", "type": "electric_bike", "is_reserved": 0, "lon": -76.98321516666667}, {"fusion_lat": 0.0, "name": "d078aa0e3ace340c62320d479fd0a885", "is_disabled": 0, "rental_uris": {"android": "https://dc.lft.to/lastmile_qr_scan", "ios": "https://dc.lft.to/lastmile_qr_scan"}, "fusion_lon": 0.0, "lat": 38.91723866666667, "bike_id": "d078aa0e3ace340c62320d479fd0a885", "type": "electric_scooter", "is_reserved": 0, "lon": -77.00811116666667}, {"fusion_lat": 0.0, "name": "c74829cdd9abe4426ccd984b6099398c", "is_disabled": 0, "rental_uris": {"android": "https://dc.lft.to/lastmile_qr_scan", "ios": "https://dc.lft.to/lastmile_qr_scan"}, "fusion_lon": 0.0, "lat": 38.8625275, "bike_id": "c74829cdd9abe4426ccd984b6099398c", "type": "electric_bike", "is_reserved": 0, "lon": -76.98332416666666}, {"fusion_lat": 0.0, "name": "8d4e7c760199b5ee648d1b34643443bc", "is_disabled": 0, "rental_uris": {"android": "https://dc.lft.to/lastmile_qr_scan", "ios": "https://dc.lft.to/lastmile_qr_scan"}, "fusion_lon": 0.0, "lat": 38.92332583333334, "bike_id": "8d4e7c760199b5ee648d1b34643443bc", "type": "electric_scooter", "is_reserved": 0, "lon": -77.03561533333334}, {"fusion_lat": 0.0, "name": "e64f188fd57ff199e46129e0ed9fcc21", "is_disabled": 0, "rental_uris": {"android": "https://dc.lft.to/lastmile_qr_scan", "ios": "https://dc.lft.to/lastmile_qr_scan"}, "fusion_lon": 0.0, "lat": 38.934769833333334, "bike_id": "e64f188fd57ff199e46129e0ed9fcc21", "type": "electric_scooter", "is_reserved": 0, "lon": -77.03611016666666}, {"fusion_lat": 0.0, "name": "ea38d87cb47b077ad1e5e5991f455d92", "is_disabled": 0, "rental_uris": {"android": "https://dc.lft.to/lastmile_qr_scan", "ios": "https://dc.lft.to/lastmile_qr_scan"}, "fusion_lon": 0.0, "lat": 38.9251445, "bike_id": "ea38d87cb47b077ad1e5e5991f455d92", "type": "electric_scooter", "is_reserved": 0, "lon": -77.01953583333334}, {"fusion_lat": 0.0, "name": "00e872ea2840a87fb788aca0fca40920", "is_disabled": 0, "rental_uris": {"android": "https://dc.lft.to/lastmile_qr_scan", "ios": "https://dc.lft.to/lastmile_qr_scan"}, "fusion_lon": 0.0, "lat": 38.892224166666665, "bike_id": "00e872ea2840a87fb788aca0fca40920", "type": "electric_scooter", "is_reserved": 0, "lon": -77.02217433333334}, {"fusion_lat": 0.0, "name": "ee2114f014e79a53972f21d507cfd769", "is_disabled": 0, "rental_uris": {"android": "https://dc.lft.to/lastmile_qr_scan", "ios": "https://dc.lft.to/lastmile_qr_scan"}, "fusion_lon": 0.0, "lat": 38.94178933333333, "bike_id": "ee2114f014e79a53972f21d507cfd769", "type": "electric_scooter", "is_reserved": 0, "lon": -77.03655016666667}, {"fusion_lat": 0.0, "name": "b1e9b0b4f39a46fce90134a0402c2084", "is_disabled": 0, "rental_uris": {"android": "https://dc.lft.to/lastmile_qr_scan", "ios": "https://dc.lft.to/lastmile_qr_scan"}, "fusion_lon": 0.0, "lat": 38.888768166666665, "bike_id": "b1e9b0b4f39a46fce90134a0402c2084", "type": "electric_scooter", "is_reserved": 0, "lon": -77.02856083333333}, {"fusion_lat": 0.0, "name": "2077e03a26d87ef70a7d0a4929d79135", "is_disabled": 0, "rental_uris": {"android": "https://dc.lft.to/lastmile_qr_scan", "ios": "https://dc.lft.to/lastmile_qr_scan"}, "fusion_lon": 0.0, "lat": 38.91105616666667, "bike_id": "2077e03a26d87ef70a7d0a4929d79135", "type": "electric_scooter", "is_reserved": 0, "lon": -77.04200383333334}, {"fusion_lat": 0.0, "name": "c25a4c146b596b3cd4bf6bd891dfcf1c", "is_disabled": 0, "rental_uris": {"android": "https://dc.lft.to/lastmile_qr_scan", "ios": "https://dc.lft.to/lastmile_qr_scan"}, "fusion_lon": 0.0, "lat": 38.8923485, "bike_id": "c25a4c146b596b3cd4bf6bd891dfcf1c", "type": "electric_scooter", "is_reserved": 0, "lon": -77.04892383333333}, {"fusion_lat": 0.0, "name": "012c8551e2ccab1d9b57f91a20485d16", "is_disabled": 0, "rental_uris": {"android": "https://dc.lft.to/lastmile_qr_scan", "ios": "https://dc.lft.to/lastmile_qr_scan"}, "fusion_lon": 0.0, "lat": 38.919815166666666, "bike_id": "012c8551e2ccab1d9b57f91a20485d16", "type": "electric_scooter", "is_reserved": 0, "lon": -77.04084816666666}, {"fusion_lat": 0.0, "name": "6791910dae184d5c3f255fef2fc796e9", "is_disabled": 0, "rental_uris": {"android": "https://dc.lft.to/lastmile_qr_scan", "ios": "https://dc.lft.to/lastmile_qr_scan"}, "fusion_lon": 0.0, "lat": 38.91023783333333, "bike_id": "6791910dae184d5c3f255fef2fc796e9", "type": "electric_scooter", "is_reserved": 0, "lon": -77.00757016666667}, {"fusion_lat": 0.0, "name": "52af947631a48dee5152568f054e809e", "is_disabled": 0, "rental_uris": {"android": "https://dc.lft.to/lastmile_qr_scan", "ios": "https://dc.lft.to/lastmile_qr_scan"}, "fusion_lon": 0.0, "lat": 38.92458966666667, "bike_id": "52af947631a48dee5152568f054e809e", "type": "electric_scooter", "is_reserved": 0, "lon": -76.99333016666667}, {"fusion_lat": 0.0, "name": "83e13248877a33cfba49376da0b86c3f", "is_disabled": 0, "rental_uris": {"android": "https://dc.lft.to/lastmile_qr_scan", "ios": "https://dc.lft.to/lastmile_qr_scan"}, "fusion_lon": 0.0, "lat": 38.900996666666664, "bike_id": "83e13248877a33cfba49376da0b86c3f", "type": "electric_scooter", "is_reserved": 0, "lon": -77.019799}, {"fusion_lat": 0.0, "name": "87ab962f00c3a32f6b7f053374e2ec62", "is_disabled": 0, "rental_uris": {"android": "https://dc.lft.to/lastmile_qr_scan", "ios": "https://dc.lft.to/lastmile_qr_scan"}, "fusion_lon": 0.0, "lat": 38.85809583333333, "bike_id": "87ab962f00c3a32f6b7f053374e2ec62", "type": "electric_bike", "is_reserved": 0, "lon": -76.987157}, {"fusion_lat": 0.0, "name": "100a6237d1eb3016032522fb646669d9", "is_disabled": 0, "rental_uris": {"android": "https://dc.lft.to/lastmile_qr_scan", "ios": "https://dc.lft.to/lastmile_qr_scan"}, "fusion_lon": 0.0, "lat": 38.89541533333333, "bike_id": "100a6237d1eb3016032522fb646669d9", "type": "electric_scooter", "is_reserved": 0, "lon": -77.02374733333333}, {"fusion_lat": 0.0, "name": "895014f52bfea560c025e154a848de9a", "is_disabled": 0, "rental_uris": {"android": "https://dc.lft.to/lastmile_qr_scan", "ios": "https://dc.lft.to/lastmile_qr_scan"}, "fusion_lon": 0.0, "lat": 38.883886333333336, "bike_id": "895014f52bfea560c025e154a848de9a", "type": "electric_scooter", "is_reserved": 0, "lon": -77.0199465}, {"fusion_lat": 0.0, "name": "8111e44835b14aa793104df1f7942b1d", "is_disabled": 0, "rental_uris": {"android": "https://dc.lft.to/lastmile_qr_scan", "ios": "https://dc.lft.to/lastmile_qr_scan"}, "fusion_lon": 0.0, "lat": 38.9003515, "bike_id": "8111e44835b14aa793104df1f7942b1d", "type": "electric_scooter", "is_reserved": 0, "lon": -77.02393566666667}, {"fusion_lat": 0.0, "name": "cda1a3e0e8cc41b6c9b7017599a62f59", "is_disabled": 0, "rental_uris": {"android": "https://dc.lft.to/lastmile_qr_scan", "ios": "https://dc.lft.to/lastmile_qr_scan"}, "fusion_lon": 0.0, "lat": 38.873625833333335, "bike_id": "cda1a3e0e8cc41b6c9b7017599a62f59", "type": "electric_scooter", "is_reserved": 0, "lon": -77.00122916666666}, {"fusion_lat": 0.0, "name": "e218d0809be54c2baf880f4fef1f13d8", "is_disabled": 0, "rental_uris": {"android": "https://dc.lft.to/lastmile_qr_scan", "ios": "https://dc.lft.to/lastmile_qr_scan"}, "fusion_lon": 0.0, "lat": 38.916941333333334, "bike_id": "e218d0809be54c2baf880f4fef1f13d8", "type": "electric_scooter", "is_reserved": 0, "lon": -77.02595383333333}, {"fusion_lat": 0.0, "name": "98accd51f1b960c21d1fef13f6139fb5", "is_disabled": 0, "rental_uris": {"android": "https://dc.lft.to/lastmile_qr_scan", "ios": "https://dc.lft.to/lastmile_qr_scan"},