{"data": {"bikes": [{"bike_id": "078222e7341e5674d5f0550233b96102", "name": "078222e7341e5674d5f0550233b96102", "lat": 38.866321666666664, "fusion_lat": 0.0, "type": "electric_scooter", "lon": -76.98288833333334, "is_disabled": 0, "fusion_lon": 0.0, "rental_uris": {"android": "https://dc.lft.to/lastmile_qr_scan", "ios": "https://dc.lft.to/lastmile_qr_scan"}, "is_reserved": 0}, {"bike_id": "75139b9d78e8833bbc6e5bc3834e044d", "name": "75139b9d78e8833bbc6e5bc3834e044d", "lat": 38.89184016666667, "fusion_lat": 0.0, "type": "electric_scooter", "lon": -76.99949733333334, "is_disabled": 0, "fusion_lon": 0.0, "rental_uris": {"android": "https://dc.lft.to/lastmile_qr_scan", "ios": "https://dc.lft.to/lastmile_qr_scan"}, "is_reserved": 0}, {"bike_id": "aec26059d3257f01dc1ec1cca1451b00", "name": "aec26059d3257f01dc1ec1cca1451b00", "lat": 38.92132983333333, "fusion_lat": 0.0, "type": "electric_scooter", "lon": -77.041317, "is_disabled": 0, "fusion_lon": 0.0, "rental_uris": {"android": "https://dc.lft.to/lastmile_qr_scan", "ios": "https://dc.lft.to/lastmile_qr_scan"}, "is_reserved": 0}, {"bike_id": "e74fe596728547e70ee847058a1f3e8b", "name": "e74fe596728547e70ee847058a1f3e8b", "lat": 38.94720816666667, "fusion_lat": 0.0, "type": "electric_scooter", "lon": -77.0415635, "is_disabled": 0, "fusion_lon": 0.0, "rental_uris": {"android": "https://dc.lft.to/lastmile_qr_scan", "ios": "https://dc.lft.to/lastmile_qr_scan"}, "is_reserved": 0}, {"bike_id": "841bbb168c6883f387a32de73e0a501b", "name": "841bbb168c6883f387a32de73e0a501b", "lat": 38.85432, "fusion_lat": 0.0, "type": "electric_bike", "lon": -77.08317916666667, "is_disabled": 0, "fusion_lon": 0.0, "rental_uris": {"android": "https://dc.lft.to/lastmile_qr_scan", "ios": "https://dc.lft.to/lastmile_qr_scan"}, "is_reserved": 0}, {"bike_id": "c32d1e30f2c2e2c185a76cb89c7112f4", "name": "c32d1e30f2c2e2c185a76cb89c7112f4", "lat": 38.8935545, "fusion_lat": 0.0, "type": "electric_scooter", "lon": -77.0033095, "is_disabled": 0, "fusion_lon": 0.0, "rental_uris": {"android": "https://dc.lft.to/lastmile_qr_scan", "ios": "https://dc.lft.to/lastmile_qr_scan"}, "is_reserved": 0}, {"bike_id": "cafd4033e17eb896a9e497161259c08b", "name": "cafd4033e17eb896a9e497161259c08b", "lat": 38.93757433333333, "fusion_lat": 0.0, "type": "electric_scooter", "lon": -77.032544, "is_disabled": 0, "fusion_lon": 0.0, "rental_uris": {"android": "https://dc.lft.to/lastmile_qr_scan", "ios": "https://dc.lft.to/lastmile_qr_scan"}, "is_reserved": 0}, {"bike_id": "0db3857e8ec4c08dbc38cb7402718693", "name": "0db3857e8ec4c08dbc38cb7402718693", "lat": 38.92075166666667, "fusion_lat": 0.0, "type": "electric_scooter", "lon": -77.02516916666667, "is_disabled": 0, "fusion_lon": 0.0, "rental_uris": {"android": "https://dc.lft.to/lastmile_qr_scan", "ios": "https://dc.lft.to/lastmile_qr_scan"}, "is_reserved": 0}, {"bike_id": "da9543b99a0003dcd61d8d211bc7e920", "name": "da9543b99a0003dcd61d8d211bc7e920", "lat": 39.03892466666667, "fusion_lat": 0.0, "type": "electric_bike", "lon": -77.050361, "is_disabled": 0, "fusion_lon": 0.0, "rental_uris": {"android": "https://dc.lft.to/lastmile_qr_scan", "ios": "https://dc.lft.to/lastmile_qr_scan"}, "is_reserved": 0}, {"bike_id": "6add6fa67eff789cf3782d890e29c0ae", "name": "6add6fa67eff789cf3782d890e29c0ae", "lat": 38.932731, "fusion_lat": 0.0, "type": "electric_scooter", "lon": -77.02832833333333, "is_disabled": 0, "fusion_lon": 0.0, "rental_uris": {"android": "https://dc.lft.to/lastmile_qr_scan", "ios": "https://dc.lft.to/lastmile_qr_scan"}, "is_reserved": 0}, {"bike_id": "4c6edeb6e09b21e8e98576c1af8c2550", "name": "4c6edeb6e09b21e8e98576c1af8c2550", "lat": 38.91858533333333, "fusion_lat": 0.0, "type": "electric_scooter", "lon": -77.04170083333334, "is_disabled": 0, "fusion_lon": 0.0, "rental_uris": {"android": "https://dc.lft.to/lastmile_qr_scan", "ios": "https://dc.lft.to/lastmile_qr_scan"}, "is_reserved": 0}, {"bike_id": "6a127838ffec54a25edf1eac1bf2e7ae", "name": "6a127838ffec54a25edf1eac1bf2e7ae", "lat": 38.9207375, "fusion_lat": 0.0, "type": "electric_scooter", "lon": -77.02326, "is_disabled": 0, "fusion_lon": 0.0, "rental_uris": {"android": "https://dc.lft.to/lastmile_qr_scan", "ios": "https://dc.lft.to/lastmile_qr_scan"}, "is_reserved": 0}, {"bike_id": "58d7d523845264889e69166e81354d1c", "name": "58d7d523845264889e69166e81354d1c", "lat": 38.92054383333333, "fusion_lat": 0.0, "type": "electric_scooter", "lon": -77.03281833333334, "is_disabled": 0, "fusion_lon": 0.0, "rental_uris": {"android": "https://dc.lft.to/lastmile_qr_scan", "ios": "https://dc.lft.to/lastmile_qr_scan"}, "is_reserved": 0}, {"bike_id": "ef2f2e57fc0b74b9351d77f022b4e537", "name": "ef2f2e57fc0b74b9351d77f022b4e537", "lat": 38.925210166666666, "fusion_lat": 0.0, "type": "electric_scooter", "lon": -77.05060466666667, "is_disabled": 0, "fusion_lon": 0.0, "rental_uris": {"android": "https://dc.lft.to/lastmile_qr_scan", "ios": "https://dc.lft.to/lastmile_qr_scan"}, "is_reserved": 0}, {"bike_id": "f93e676cdb9e11bc95f00b0ef5241fbe", "name": "f93e676cdb9e11bc95f00b0ef5241fbe", "lat": 38.916303, "fusion_lat": 0.0, "type": "electric_scooter", "lon": -77.03218533333333, "is_disabled": 0, "fusion_lon": 0.0, "rental_uris": {"android": "https://dc.lft.to/lastmile_qr_scan", "ios": "https://dc.lft.to/lastmile_qr_scan"}, "is_reserved": 0}, {"bike_id": "f4ec6017e2008f0d96741f255c9ce4be", "name": "f4ec6017e2008f0d96741f255c9ce4be", "lat": 38.904362166666665, "fusion_lat": 0.0, "type": "electric_scooter", "lon": -77.02713433333334, "is_disabled": 0, "fusion_lon": 0.0, "rental_uris": {"android": "https://dc.lft.to/lastmile_qr_scan", "ios": "https://dc.lft.to/lastmile_qr_scan"}, "is_reserved": 0}, {"bike_id": "067804c5318e1e38f0e88af3ef6fbb16", "name": "067804c5318e1e38f0e88af3ef6fbb16", "lat": 38.916891666666665, "fusion_lat": 0.0, "type": "electric_scooter", "lon": -77.0260095, "is_disabled": 0, "fusion_lon": 0.0, "rental_uris": {"android": "https://dc.lft.to/lastmile_qr_scan", "ios": "https://dc.lft.to/lastmile_qr_scan"}, "is_reserved": 0}, {"bike_id": "c6d862123d5398b9afe0c283282de9a0", "name": "c6d862123d5398b9afe0c283282de9a0", "lat": 38.892241166666665, "fusion_lat": 0.0, "type": "electric_scooter", "lon": -77.04086016666666, "is_disabled": 0, "fusion_lon": 0.0, "rental_uris": {"android": "https://dc.lft.to/lastmile_qr_scan", "ios": "https://dc.lft.to/lastmile_qr_scan"}, "is_reserved": 0}, {"bike_id": "81e7892c5b1fec5b2f7ca6df61a2a94a", "name": "81e7892c5b1fec5b2f7ca6df61a2a94a", "lat": 38.90499716666667, "fusion_lat": 0.0, "type": "electric_scooter", "lon": -77.03656883333333, "is_disabled": 0, "fusion_lon": 0.0, "rental_uris": {"android": "https://dc.lft.to/lastmile_qr_scan", "ios": "https://dc.lft.to/lastmile_qr_scan"}, "is_reserved": 0}, {"bike_id": "3872a1ec9bf91ba27fa3b557f7087d3c", "name": "3872a1ec9bf91ba27fa3b557f7087d3c", "lat": 38.9223755, "fusion_lat": 0.0, "type": "electric_scooter", "lon": -77.03664566666667, "is_disabled": 0, "fusion_lon": 0.0, "rental_uris": {"android": "https://dc.lft.to/lastmile_qr_scan", "ios": "https://dc.lft.to/lastmile_qr_scan"}, "is_reserved": 0}, {"bike_id": "cbb7cc503badeb31155217a15f421c83", "name": "cbb7cc503badeb31155217a15f421c83", "lat": 38.895340833333336, "fusion_lat": 0.0, "type": "electric_scooter", "lon": -76.94893883333333, "is_disabled": 0, "fusion_lon": 0.0, "rental_uris": {"android": "https://dc.lft.to/lastmile_qr_scan", "ios": "https://dc.lft.to/lastmile_qr_scan"}, "is_reserved": 0}, {"bike_id": "e7deaf5daf4a3910fbee682d5f9b1eba", "name": "e7deaf5daf4a3910fbee682d5f9b1eba", "lat": 38.803854333333334, "fusion_lat": 0.0, "type": "electric_bike", "lon": -76.98810366666666, "is_disabled": 0, "fusion_lon": 0.0, "rental_uris": {"android": "https://dc.lft.to/lastmile_qr_scan", "ios": "https://dc.lft.to/lastmile_qr_scan"}, "is_reserved": 0}, {"bike_id": "cb7a57e9004f21615abc10c248b9c82f", "name": "cb7a57e9004f21615abc10c248b9c82f", "lat": 38.86661433333333, "fusion_lat": 0.0, "type": "electric_scooter", "lon": -76.97909966666667, "is_disabled": 0, "fusion_lon": 0.0, "rental_uris": {"android": "https://dc.lft.to/lastmile_qr_scan", "ios": "https://dc.lft.to/lastmile_qr_scan"}, "is_reserved": 0}, {"bike_id": "8029672f03a5f10c191b52116cacbd7b", "name": "8029672f03a5f10c191b52116cacbd7b", "lat": 38.89498316666667, "fusion_lat": 0.0, "type": "electric_scooter", "lon": -76.93478133333333, "is_disabled": 0, "fusion_lon": 0.0, "rental_uris": {"android": "https://dc.lft.to/lastmile_qr_scan", "ios": "https://dc.lft.to/lastmile_qr_scan"}, "is_reserved": 0}, {"bike_id": "8207757e41721fb727da190571a7e527", "name": "8207757e41721fb727da190571a7e527", "lat": 38.91328083333333, "fusion_lat": 0.0, "type": "electric_scooter", "lon": -77.0165355, "is_disabled": 0, "fusion_lon": 0.0, "rental_uris": {"android": "https://dc.lft.to/lastmile_qr_scan", "ios": "https://dc.lft.to/lastmile_qr_scan"}, "is_reserved": 0}, {"bike_id": "4d3d2df33bcc52a5c1d4cbf2fd5b7e5c", "name": "4d3d2df33bcc52a5c1d4cbf2fd5b7e5c", "lat": 38.930885333333336, "fusion_lat": 0.0, "type": "electric_scooter", "lon": -77.03276683333333, "is_disabled": 0, "fusion_lon": 0.0, "rental_uris": {"android": "https://dc.lft.to/lastmile_qr_scan", "ios": "https://dc.lft.to/lastmile_qr_scan"}, "is_reserved": 0}, {"bike_id": "70226e9a66865df300546fdb3bb22002", "name": "70226e9a66865df300546fdb3bb22002", "lat": 38.8936415, "fusion_lat": 0.0, "type": "electric_scooter", "lon": -76.93593616666666, "is_disabled": 0, "fusion_lon": 0.0, "rental_uris": {"android": "https://dc.lft.to/lastmile_qr_scan", "ios": "https://dc.lft.to/lastmile_qr_scan"}, "is_reserved": 0}, {"bike_id": "6a3c3a9859cf70f750d3e3578c238386", "name": "6a3c3a9859cf70f750d3e3578c238386", "lat": 38.89827833333333, "fusion_lat": 0.0, "type": "electric_scooter", "lon": -77.02230566666667, "is_disabled": 0, "fusion_lon": 0.0, "rental_uris": {"android": "https://dc.lft.to/lastmile_qr_scan", "ios": "https://dc.lft.to/lastmile_qr_scan"}, "is_reserved": 0}, {"bike_id": "6426024d89ccb8b6368129048aeaff3e", "name": "6426024d89ccb8b6368129048aeaff3e", "lat": 38.94237416666667, "fusion_lat": 0.0, "type": "electric_scooter", "lon": -77.035835, "is_disabled": 0, "fusion_lon": 0.0, "rental_uris": {"android": "https://dc.lft.to/lastmile_qr_scan", "ios": "https://dc.lft.to/lastmile_qr_scan"}, "is_reserved": 0}, {"bike_id": "8af35ef03d6413e6f708ff8e81aa4565", "name": "8af35ef03d6413e6f708ff8e81aa4565", "lat": 38.922837, "fusion_lat": 0.0, "type": "electric_scooter", "lon": -77.03660433333333, "is_disabled": 0, "fusion_lon": 0.0, "rental_uris": {"android": "https://dc.lft.to/lastmile_qr_scan", "ios": "https://dc.lft.to/lastmile_qr_scan"}, "is_reserved": 0}, {"bike_id": "2fcaf40a0591599f207c8372d3c3da45", "name": "2fcaf40a0591599f207c8372d3c3da45", "lat": 38.863685, "fusion_lat": 0.0, "type": "electric_bike", "lon": -76.97008483333333, "is_disabled": 0, "fusion_lon": 0.0, "rental_uris": {"android": "https://dc.lft.to/lastmile_qr_scan", "ios": "https://dc.lft.to/lastmile_qr_scan"}, "is_reserved": 0}, {"bike_id": "598dfb222e66e842cc6ee45bf3e1cb1d", "name": "598dfb222e66e842cc6ee45bf3e1cb1d", "lat": 38.909676833333336, "fusion_lat": 0.0, "type": "electric_scooter", "lon": -77.0258105, "is_disabled": 0, "fusion_lon": 0.0, "rental_uris": {"android": "https://dc.lft.to/lastmile_qr_scan", "ios": "https://dc.lft.to/lastmile_qr_scan"}, "is_reserved": 0}, {"bike_id": "2bdd4949c239aafbda916c178f108483", "name": "2bdd4949c239aafbda916c178f108483", "lat": 38.918163, "fusion_lat": 0.0, "type": "electric_scooter", "lon": -77.03024633333334, "is_disabled": 0, "fusion_lon": 0.0, "rental_uris": {"android": "https://dc.lft.to/lastmile_qr_scan", "ios": "https://dc.lft.to/lastmile_qr_scan"}, "is_reserved": 0}, {"bike_id": "6ad6f650244af91a9c749b1d853360b5", "name": "6ad6f650244af91a9c749b1d853360b5", "lat": 38.895979833333335, "fusion_lat": 0.0, "type": "electric_scooter", "lon": -77.04420216666666, "is_disabled": 0, "fusion_lon": 0.0, "rental_uris": {"android": "https://dc.lft.to/lastmile_qr_scan", "ios": "https://dc.lft.to/lastmile_qr_scan"}, "is_reserved": 0}, {"bike_id": "e7f1c0e08249756a87ef2e812529850f", "name": "e7f1c0e08249756a87ef2e812529850f", "lat": 38.92948333333333, "fusion_lat": 0.0, "type": "electric_scooter", "lon": -77.00410933333333, "is_disabled": 0, "fusion_lon": 0.0, "rental_uris": {"android": "https://dc.lft.to/lastmile_qr_scan", "ios": "https://dc.lft.to/lastmile_qr_scan"}, "is_reserved": 0}, {"bike_id": "9083be7cb690453ade8beef3175f9ffe", "name": "9083be7cb690453ade8beef3175f9ffe", "lat": 38.91646683333333, "fusion_lat": 0.0, "type": "electric_scooter", "lon": -77.03183333333334, "is_disabled": 0, "fusion_lon": 0.0, "rental_uris": {"android": "https://dc.lft.to/lastmile_qr_scan", "ios": "https://dc.lft.to/lastmile_qr_scan"}, "is_reserved": 0}, {"bike_id": "57674999904ecb05e8b63de2daa888be", "name": "57674999904ecb05e8b63de2daa888be", "lat": 38.90990733333334, "fusion_lat": 0.0, "type": "electric_scooter", "lon": -77.04007216666666, "is_disabled": 0, "fusion_lon": 0.0, "rental_uris": {"android": "https://dc.lft.to/lastmile_qr_scan", "ios": "https://dc.lft.to/lastmile_qr_scan"}, "is_reserved": 0}, {"bike_id": "8238116f6e831e4c826b672ee0eb4e8d", "name": "8238116f6e831e4c826b672ee0eb4e8d", "lat": 38.88718166666666, "fusion_lat": 0.0, "type": "electric_scooter", "lon": -76.98356633333333, "is_disabled": 0, "fusion_lon": 0.0, "rental_uris": {"android": "https://dc.lft.to/lastmile_qr_scan", "ios": "https://dc.lft.to/lastmile_qr_scan"}, "is_reserved": 0}, {"bike_id": "e2df27b8fc2afb3a37d62ccf727ba5f9", "name": "e2df27b8fc2afb3a37d62ccf727ba5f9", "lat": 38.881161166666665, "fusion_lat": 0.0, "type": "electric_scooter", "lon": -77.01693966666667, "is_disabled": 0, "fusion_lon": 0.0, "rental_uris": {"android": "https://dc.lft.to/lastmile_qr_scan", "ios": "https://dc.lft.to/lastmile_qr_scan"}, "is_reserved": 0}, {"bike_id": "cac8862e73d5fbfb539d73d84b60d1e8", "name": "cac8862e73d5fbfb539d73d84b60d1e8", "lat": 38.917881666666666, "fusion_lat": 0.0, "type": "electric_scooter", "lon": -77.0321195, "is_disabled": 0, "fusion_lon": 0.0, "rental_uris": {"android": "https://dc.lft.to/lastmile_qr_scan", "ios": "https://dc.lft.to/lastmile_qr_scan"}, "is_reserved": 0}, {"bike_id": "b02265092f8e8a9f96ccf9f50ae9add7", "name": "b02265092f8e8a9f96ccf9f50ae9add7", "lat": 38.90067233333333, "fusion_lat": 0.0, "type": "electric_scooter", "lon": -76.92743783333333, "is_disabled": 0, "fusion_lon": 0.0, "rental_uris": {"android": "https://dc.lft.to/lastmile_qr_scan", "ios": "https://dc.lft.to/lastmile_qr_scan"}, "is_reserved": 0}, {"bike_id": "7bb51667074df561774fd206e5b0e5d8", "name": "7bb51667074df561774fd206e5b0e5d8", "lat": 38.9289845, "fusion_lat": 0.0, "type": "electric_scooter", "lon": -77.01638116666666, "is_disabled": 0, "fusion_lon": 0.0, "rental_uris": {"android": "https://dc.lft.to/lastmile_qr_scan", "ios": "https://dc.lft.to/lastmile_qr_scan"}, "is_reserved": 0}, {"bike_id": "db56e8d2261315e56deffe33c75f9ec5", "name": "db56e8d2261315e56deffe33c75f9ec5", "lat": 38.9167675, "fusion_lat": 0.0, "type": "electric_scooter", "lon": -77.02970883333333, "is_disabled": 0, "fusion_lon": 0.0, "rental_uris": {"android": "https://dc.lft.to/lastmile_qr_scan", "ios": "https://dc.lft.to/lastmile_qr_scan"}, "is_reserved": 0}, {"bike_id": "aff1cb8f3f572925a63d32334daf2deb", "name": "aff1cb8f3f572925a63d32334daf2deb", "lat": 38.89311816666667, "fusion_lat": 0.0, "type": "electric_scooter", "lon": -77.02056516666667, "is_disabled": 0, "fusion_lon": 0.0, "rental_uris": {"android": "https://dc.lft.to/lastmile_qr_scan", "ios": "https://dc.lft.to/lastmile_qr_scan"}, "is_reserved": 0}, {"bike_id": "0f65d29efd6fcc930e2789d637ab14e6", "name": "0f65d29efd6fcc930e2789d637ab14e6", "lat": 38.912567, "fusion_lat": 0.0, "type": "electric_scooter", "lon": -77.022549, "is_disabled": 0, "fusion_lon": 0.0, "rental_uris": {"android": "https://dc.lft.to/lastmile_qr_scan", "ios": "https://dc.lft.to/lastmile_qr_scan"}, "is_reserved": 0}, {"bike_id": "a8bb3967ddf10b90e3e93b35b6b911ba", "name": "a8bb3967ddf10b90e3e93b35b6b911ba", "lat": 38.95760166666667, "fusion_lat": 0.0, "type": "electric_scooter", "lon": -77.0148665, "is_disabled": 0, "fusion_lon": 0.0, "rental_uris": {"android": "https://dc.lft.to/lastmile_qr_scan", "ios": "https://dc.lft.to/lastmile_qr_scan"}, "is_reserved": 0}, {"bike_id": "9ba1c03104dfbc092eb8f723f39dd4ef", "name": "9ba1c03104dfbc092eb8f723f39dd4ef", "lat": 38.8559785, "fusion_lat": 0.0, "type": "electric_bike", "lon": -76.97454316666666, "is_disabled": 0, "fusion_lon": 0.0, "rental_uris": {"android": "https://dc.lft.to/lastmile_qr_scan", "ios": "https://dc.lft.to/lastmile_qr_scan"}, "is_reserved": 0}, {"bike_id": "fae3e9fbd8b0a684706820db2f075e45", "name": "fae3e9fbd8b0a684706820db2f075e45", "lat": 38.87203816666667, "fusion_lat": 0.0, "type": "electric_bike", "lon": -77.1174215, "is_disabled": 0, "fusion_lon": 0.0, "rental_uris": {"android": "https://dc.lft.to/lastmile_qr_scan", "ios": "https://dc.lft.to/lastmile_qr_scan"}, "is_reserved": 0}, {"bike_id": "313157c7599fb45b6b3b9a42dab12ed8", "name": "313157c7599fb45b6b3b9a42dab12ed8", "lat": 38.92364383333334, "fusion_lat": 0.0, "type": "electric_scooter", "lon": -77.05033016666667, "is_disabled": 0, "fusion_lon": 0.0, "rental_uris": {"android": "https://dc.lft.to/lastmile_qr_scan", "ios": "https://dc.lft.to/lastmile_qr_scan"}, "is_reserved": 0}, {"bike_id": "9057e5510e5d7c5dacb08381e06c3a20", "name": "9057e5510e5d7c5dacb08381e06c3a20", "lat": 38.896985, "fusion_lat": 0.0, "type": "electric_scooter", "lon": -77.00914566666667, "is_disabled": 0, "fusion_lon": 0.0, "rental_uris": {"android": "https://dc.lft.to/lastmile_qr_scan", "ios": "https://dc.lft.to/lastmile_qr_scan"}, "is_reserved": 0}, {"bike_id": "b24684d0eede2586a1a3e61cc89a0c8f", "name": "b24684d0eede2586a1a3e61cc89a0c8f", "lat": 38.9091915, "fusion_lat": 0.0, "type": "electric_scooter", "lon": -77.03206383333334, "is_disabled": 0, "fusion_lon": 0.0, "rental_uris": {"android": "https://dc.lft.to/lastmile_qr_scan", "ios": "https://dc.lft.to/lastmile_qr_scan"}, "is_reserved": 0}, {"bike_id": "18f3c51cba29bc6a10eaebe5bc1d4ce7", "name": "18f3c51cba29bc6a10eaebe5bc1d4ce7", "lat": 38.90036933333333, "fusion_lat": 0.0, "type": "electric_scooter", "lon": -77.043446, "is_disabled": 0, "fusion_lon": 0.0, "rental_uris": {"android": "https://dc.lft.to/lastmile_qr_scan", "ios": "https://dc.lft.to/lastmile_qr_scan"}, "is_reserved": 0}, {"bike_id": "348a0d44c92f3363e1f71522969bdfa2", "name": "348a0d44c92f3363e1f71522969bdfa2", "lat": 38.9250115, "fusion_lat": 0.0, "type": "electric_scooter", "lon": -77.02275516666667, "is_disabled": 0, "fusion_lon": 0.0, "rental_uris": {"android": "https://dc.lft.to/lastmile_qr_scan", "ios": "https://dc.lft.to/lastmile_qr_scan"}, "is_reserved": 0}, {"bike_id": "f259eb99d061cfeb1e43032da5c5fc7c", "name": "f259eb99d061cfeb1e43032da5c5fc7c", "lat": 38.892183333333335, "fusion_lat": 0.0, "type": "electric_scooter", "lon": -77.0330045, "is_disabled": 0, "fusion_lon": 0.0, "rental_uris": {"android": "https://dc.lft.to/lastmile_qr_scan", "ios": "https://dc.lft.to/lastmile_qr_scan"}, "is_reserved": 0}, {"bike_id": "e443393bcc0bc21111de4fb763fd7e91", "name": "e443393bcc0bc21111de4fb763fd7e91", "lat": 38.90418233333333, "fusion_lat": 0.0, "type": "electric_scooter", "lon": -77.0259315, "is_disabled": 0, "fusion_lon": 0.0, "rental_uris": {"android": "https://dc.lft.to/lastmile_qr_scan", "ios": "https://dc.lft.to/lastmile_qr_scan"}, "is_reserved": 0}, {"bike_id": "e0d12778cb78bb6d0975d342de61577a", "name": "e0d12778cb78bb6d0975d342de61577a", "lat": 38.94311666666667, "fusion_lat": 0.0, "type": "electric_bike", "lon": -76.990164, "is_disabled": 0, "fusion_lon": 0.0, "rental_uris": {"android": "https://dc.lft.to/lastmile_qr_scan", "ios": "https://dc.lft.to/lastmile_qr_scan"}, "is_reserved": 0}, {"bike_id": "be50094d4ed4c615bf5c3825e8e4da84", "name": "be50094d4ed4c615bf5c3825e8e4da84", "lat": 38.9389165, "fusion_lat": 0.0, "type": "electric_scooter", "lon": -77.017615, "is_disabled": 0, "fusion_lon": 0.0, "rental_uris": {"android": "https://dc.lft.to/lastmile_qr_scan", "ios": "https://dc.lft.to/lastmile_qr_scan"}, "is_reserved": 0}, {"bike_id": "5a47291affc1895434e934a9147a223a", "name": "5a47291affc1895434e934a9147a223a", "lat": 38.88314833333333, "fusion_lat": 0.0, "type": "electric_scooter", "lon": -77.003677, "is_disabled": 0, "fusion_lon": 0.0, "rental_uris": {"android": "https://dc.lft.to/lastmile_qr_scan", "ios": "https://dc.lft.to/lastmile_qr_scan"}, "is_reserved": 0}, {"bike_id": "0a370f061c32dd1f15c45b2da5d58c79", "name": "0a370f061c32dd1f15c45b2da5d58c79", "lat": 38.90596, "fusion_lat": 0.0, "type": "electric_scooter", "lon": -77.0626555, "is_disabled": 0, "fusion_lon": 0.0, "rental_uris": {"android": "https://dc.lft.to/lastmile_qr_scan", "ios": "https://dc.lft.to/lastmile_qr_scan"}, "is_reserved": 0}, {"bike_id": "406f305b862c954d8110010807432c2b", "name": "406f305b862c954d8110010807432c2b", "lat": 38.80668766666667, "fusion_lat": 0.0, "type": "electric_bike", "lon": -77.08758433333334, "is_disabled": 0, "fusion_lon": 0.0, "rental_uris": {"android": "https://dc.lft.to/lastmile_qr_scan", "ios": "https://dc.lft.to/lastmile_qr_scan"}, "is_reserved": 0}, {"bike_id": "1de79a6079be593ac40448c4b461bef9", "name": "1de79a6079be593ac40448c4b461bef9", "lat": 38.89745683333334, "fusion_lat": 0.0, "type": "electric_scooter", "lon": -76.9769755, "is_disabled": 0, "fusion_lon": 0.0, "rental_uris": {"android": "https://dc.lft.to/lastmile_qr_scan", "ios": "https://dc.lft.to/lastmile_qr_scan"}, "is_reserved": 0}, {"bike_id": "0e45ca13e541c0c955ec311f69aa87e7", "name": "0e45ca13e541c0c955ec311f69aa87e7", "lat": 38.90373133333333, "fusion_lat": 0.0, "type": "electric_scooter", "lon": -76.99564633333334, "is_disabled": 0, "fusion_lon": 0.0, "rental_uris": {"android": "https://dc.lft.to/lastmile_qr_scan", "ios": "https://dc.lft.to/lastmile_qr_scan"}, "is_reserved": 0}, {"bike_id": "d6a1df136b91b16575e44650e832247e", "name": "d6a1df136b91b16575e44650e832247e", "lat": 38.917025333333335, "fusion_lat": 0.0, "type": "electric_scooter", "lon": -77.02376866666667, "is_disabled": 0, "fusion_lon": 0.0, "rental_uris": {"android": "https://dc.lft.to/lastmile_qr_scan", "ios": "https://dc.lft.to/lastmile_qr_scan"}, "is_reserved": 0}, {"bike_id": "9b9df5b099c181c1c22f4e60e533fc4d", "name": "9b9df5b099c181c1c22f4e60e533fc4d", "lat": 38.91113633333333, "fusion_lat": 0.0, "type": "electric_scooter", "lon": -77.0444585, "is_disabled": 0, "fusion_lon": 0.0, "rental_uris": {"android": "https://dc.lft.to/lastmile_qr_scan", "ios": "https://dc.lft.to/lastmile_qr_scan"}, "is_reserved": 0}, {"bike_id": "6324725bbcf6ef2f6b3170659e1aa374", "name": "6324725bbcf6ef2f6b3170659e1aa374", "lat": 38.844665, "fusion_lat": 0.0, "type": "electric_bike", "lon": -76.98778233333333, "is_disabled": 0, "fusion_lon": 0.0, "rental_uris": {"android": "https://dc.lft.to/lastmile_qr_scan", "ios": "https://dc.lft.to/lastmile_qr_scan"}, "is_reserved": 0}, {"bike_id": "da66c764a90c8f044b1362f76de57542", "name": "da66c764a90c8f044b1362f76de57542", "lat": 38.9143235, "fusion_lat": 0.0, "type": "electric_scooter", "lon": -76.9721015, "is_disabled": 0, "fusion_lon": 0.0, "rental_uris": {"android": "https://dc.lft.to/lastmile_qr_scan", "ios": "https://dc.lft.to/lastmile_qr_scan"}, "is_reserved": 0}, {"bike_id": "37d84feace0d6aba23aee478f4da34ab", "name": "37d84feace0d6aba23aee478f4da34ab", "lat": 38.899895, "fusion_lat": 0.0, "type": "electric_scooter", "lon": -77.02714716666667, "is_disabled": 0, "fusion_lon": 0.0, "rental_uris": {"android": "https://dc.lft.to/lastmile_qr_scan", "ios": "https://dc.lft.to/lastmile_qr_scan"}, "is_reserved": 0}, {"bike_id": "3ae94e161934c314ea48750b0c6b42aa", "name": "3ae94e161934c314ea48750b0c6b42aa", "lat": 38.9236455, "fusion_lat": 0.0, "type": "electric_scooter", "lon": -77.05029783333333, "is_disabled": 0, "fusion_lon": 0.0, "rental_uris": {"android": "https://dc.lft.to/lastmile_qr_scan", "ios": "https://dc.lft.to/lastmile_qr_scan"}, "is_reserved": 0}, {"bike_id": "baaace8c6d261c116f29ffe3718a9f92", "name": "baaace8c6d261c116f29ffe3718a9f92", "lat": 38.93259, "fusion_lat": 0.0, "type": "electric_scooter", "lon": -77.020956, "is_disabled": 0, "fusion_lon": 0.0, "rental_uris": {"android": "https://dc.lft.to/lastmile_qr_scan", "ios": "https://dc.lft.to/lastmile_qr_scan"}, "is_reserved": 0}, {"bike_id": "aa4248f98a3b0c6cdb5c38e77c0ee719", "name": "aa4248f98a3b0c6cdb5c38e77c0ee719", "lat": 38.907285, "fusion_lat": 0.0, "type": "electric_scooter", "lon": -76.93446516666667, "is_disabled": 0, "fusion_lon": 0.0, "rental_uris": {"android": "https://dc.lft.to/lastmile_qr_scan", "ios": "https://dc.lft.to/lastmile_qr_scan"}, "is_reserved": 0}, {"bike_id": "3a3cea5d2f055a0e11508a4d645642e3", "name": "3a3cea5d2f055a0e11508a4d645642e3", "lat": 38.915286333333334, "fusion_lat": 0.0, "type": "electric_scooter", "lon": -77.031969, "is_disabled": 0, "fusion_lon": 0.0, "rental_uris": {"android": "https://dc.lft.to/lastmile_qr_scan", "ios": "https://dc.lft.to/lastmile_qr_scan"}, "is_reserved": 0}, {"bike_id": "fdaf34a5110e0c4b93dd6fbefd1beea9", "name": "fdaf34a5110e0c4b93dd6fbefd1beea9", "lat": 38.86339733333333, "fusion_lat": 0.0, "type": "electric_scooter", "lon": -76.98709316666667, "is_disabled": 0, "fusion_lon": 0.0, "rental_uris": {"android": "https://dc.lft.to/lastmile_qr_scan", "ios": "https://dc.lft.to/lastmile_qr_scan"}, "is_reserved": 0}, {"bike_id": "e511b19d44df09734ac585a88542a5f2", "name": "e511b19d44df09734ac585a88542a5f2", "lat": 38.88199566666667, "fusion_lat": 0.0, "type": "electric_scooter", "lon": -76.989194, "is_disabled": 0, "fusion_lon": 0.0, "rental_uris": {"android": "https://dc.lft.to/lastmile_qr_scan", "ios": "https://dc.lft.to/lastmile_qr_scan"}, "is_reserved": 0}, {"bike_id": "ffdf840848ee17be0842933d0dd63304", "name": "ffdf840848ee17be0842933d0dd63304", "lat": 38.89327933333333, "fusion_lat": 0.0, "type": "electric_scooter", "lon": -77.04867383333334, "is_disabled": 0, "fusion_lon": 0.0, "rental_uris": {"android": "https://dc.lft.to/lastmile_qr_scan", "ios": "https://dc.lft.to/lastmile_qr_scan"}, "is_reserved": 0}, {"bike_id": "ec614547efb4ffc35cf64754b6eb67f3", "name": "ec614547efb4ffc35cf64754b6eb67f3", "lat": 38.89978166666667, "fusion_lat": 0.0, "type": "electric_scooter", "lon": -77.03082283333333, "is_disabled": 0, "fusion_lon": 0.0, "rental_uris": {"android": "https://dc.lft.to/lastmile_qr_scan", "ios": "https://dc.lft.to/lastmile_qr_scan"}, "is_reserved": 0}, {"bike_id": "34adc77f901f87431d031d9631cf9b62", "name": "34adc77f901f87431d031d9631cf9b62", "lat": 38.99713033333333, "fusion_lat": 0.0, "type": "electric_bike", "lon": -77.027391, "is_disabled": 0, "fusion_lon": 0.0, "rental_uris": {"android": "https://dc.lft.to/lastmile_qr_scan", "ios": "https://dc.lft.to/lastmile_qr_scan"}, "is_reserved": 0}, {"bike_id": "3a8309c9e28d323f2f7febc521240f61", "name": "3a8309c9e28d323f2f7febc521240f61", "lat": 38.95462533333333, "fusion_lat": 0.0, "type": "electric_scooter", "lon": -77.07768333333334, "is_disabled": 0, "fusion_lon": 0.0, "rental_uris": {"android": "https://dc.lft.to/lastmile_qr_scan", "ios": "https://dc.lft.to/lastmile_qr_scan"}, "is_reserved": 0}, {"bike_id": "f854304a3b983241185c43446352fcbd", "name": "f854304a3b983241185c43446352fcbd", "lat": 38.894533333333335, "fusion_lat": 0.0, "type": "electric_scooter", "lon": -77.02038683333333, "is_disabled": 0, "fusion_lon": 0.0, "rental_uris": {"android": "https://dc.lft.to/lastmile_qr_scan", "ios": "https://dc.lft.to/lastmile_qr_scan"}, "is_reserved": 0}, {"bike_id": "38c6ffd62cad706b2464e83d8cd95724", "name": "38c6ffd62cad706b2464e83d8cd95724", "lat": 38.90502766666667, "fusion_lat": 0.0, "type": "electric_scooter", "lon": -77.02949383333333, "is_disabled": 0, "fusion_lon": 0.0, "rental_uris": {"android": "https://dc.lft.to/lastmile_qr_scan", "ios": "https://dc.lft.to/lastmile_qr_scan"}, "is_reserved": 0}, {"bike_id": "1a7210d31dcdc9dee805b06220db9325", "name": "1a7210d31dcdc9dee805b06220db9325", "lat": 38.91556283333333, "fusion_lat": 0.0, "type": "electric_scooter", "lon": -77.03251066666667, "is_disabled": 0, "fusion_lon": 0.0, "rental_uris": {"android": "https://dc.lft.to/lastmile_qr_scan", "ios": "https://dc.lft.to/lastmile_qr_scan"}, "is_reserved": 0}, {"bike_id": "552c4f0fa15fd81839a1b5a70227df2c", "name": "552c4f0fa15fd81839a1b5a70227df2c", "lat": 38.91694183333333, "fusion_lat": 0.0, "type": "electric_scooter", "lon": -77.03819483333334, "is_disabled": 0, "fusion_lon": 0.0, "rental_uris": {"android": "https://dc.lft.to/lastmile_qr_scan", "ios": "https://dc.lft.to/lastmile_qr_scan"}, "is_reserved": 0}, {"bike_id": "464d51d1f8135c7e3edb4ee23195ab2b", "name": "464d51d1f8135c7e3edb4ee23195ab2b", "lat": 38.96211866666667, "fusion_lat": 0.0, "type": "electric_bike", "lon": -77.07391183333333, "is_disabled": 0, "fusion_lon": 0.0, "rental_uris": {"android": "https://dc.lft.to/lastmile_qr_scan", "ios": "https://dc.lft.to/lastmile_qr_scan"}, "is_reserved": 0}, {"bike_id": "31b9cd2e4e002f7f5f1d2aaf5fca9a10", "name": "31b9cd2e4e002f7f5f1d2aaf5fca9a10", "lat": 38.92239383333333, "fusion_lat": 0.0, "type": "electric_scooter", "lon": -77.03662716666666, "is_disabled": 0, "fusion_lon": 0.0, "rental_uris": {"android": "https://dc.lft.to/lastmile_qr_scan", "ios": "https://dc.lft.to/lastmile_qr_scan"}, "is_reserved": 0}, {"bike_id": "aa2ecef0be6bd269c46b0ab7835b844d", "name": "aa2ecef0be6bd269c46b0ab7835b844d", "lat": 38.899141, "fusion_lat": 0.0, "type": "electric_scooter", "lon": -76.93369166666666, "is_disabled": 0, "fusion_lon": 0.0, "rental_uris": {"android": "https://dc.lft.to/lastmile_qr_scan", "ios": "https://dc.lft.to/lastmile_qr_scan"}, "is_reserved": 0}, {"bike_id": "eb57c519a7ea704ef9b45aa9efe6887f", "name": "eb57c519a7ea704ef9b45aa9efe6887f", "lat": 38.9171815, "fusion_lat": 0.0, "type": "electric_scooter", "lon": -77.029731, "is_disabled": 0, "fusion_lon": 0.0, "rental_uris": {"android": "https://dc.lft.to/lastmile_qr_scan", "ios": "https://dc.lft.to/lastmile_qr_scan"}, "is_reserved": 0}, {"bike_id": "4b0663f85d22ca93f528cf30402d0ee7", "name": "4b0663f85d22ca93f528cf30402d0ee7", "lat": 38.90578266666667, "fusion_lat": 0.0, "type": "electric_scooter", "lon": -77.04235783333333, "is_disabled": 0, "fusion_lon": 0.0, "rental_uris": {"android": "https://dc.lft.to/lastmile_qr_scan", "ios": "https://dc.lft.to/lastmile_qr_scan"}, "is_reserved": 0}, {"bike_id": "9e79174b39f54f67585ee72940325bab", "name": "9e79174b39f54f67585ee72940325bab", "lat": 38.8749485, "fusion_lat": 0.0, "type": "electric_scooter", "lon": -76.9997375, "is_disabled": 0, "fusion_lon": 0.0, "rental_uris": {"android": "https://dc.lft.to/lastmile_qr_scan", "ios": "https://dc.lft.to/lastmile_qr_scan"}, "is_reserved": 0}, {"bike_id": "d2023efaa665caeb816a2afa1694352a", "name": "d2023efaa665caeb816a2afa1694352a", "lat": 38.92435783333333, "fusion_lat": 0.0, "type": "electric_scooter", "lon": -76.9965955, "is_disabled": 0, "fusion_lon": 0.0, "rental_uris": {"android": "https://dc.lft.to/lastmile_qr_scan", "ios": "https://dc.lft.to/lastmile_qr_scan"}, "is_reserved": 0}, {"bike_id": "225747c94beaa13626c1f50967eff70c", "name": "225747c94beaa13626c1f50967eff70c", "lat": 38.885032833333334, "fusion_lat": 0.0, "type": "electric_scooter", "lon": -77.002214, "is_disabled": 0, "fusion_lon": 0.0, "rental_uris": {"android": "https://dc.lft.to/lastmile_qr_scan", "ios": "https://dc.lft.to/lastmile_qr_scan"}, "is_reserved": 0}, {"bike_id": "dc54457fbfd1bfa51bdbd45c52fd4d75", "name": "dc54457fbfd1bfa51bdbd45c52fd4d75", "lat": 38.91871, "fusion_lat": 0.0, "type": "electric_scooter", "lon": -77.03507666666667, "is_disabled": 0, "fusion_lon": 0.0, "rental_uris": {"android": "https://dc.lft.to/lastmile_qr_scan", "ios": "https://dc.lft.to/lastmile_qr_scan"}, "is_reserved": 0}, {"bike_id": "6c3f774b65257ca8e0c26628c2634632", "name": "6c3f774b65257ca8e0c26628c2634632", "lat": 38.924631166666664, "fusion_lat": 0.0, "type": "electric_scooter", "lon": -77.022741, "is_disabled": 0, "fusion_lon": 0.0, "rental_uris": {"android": "https://dc.lft.to/lastmile_qr_scan", "ios": "https://dc.lft.to/lastmile_qr_scan"}, "is_reserved": 0}, {"bike_id": "c6517632cb90b0198db96fa9af72af27", "name": "c6517632cb90b0198db96fa9af72af27", "lat": 38.916737, "fusion_lat": 0.0, "type": "electric_scooter", "lon": -77.02976666666666, "is_disabled": 0, "fusion_lon": 0.0, "rental_uris": {"android": "https://dc.lft.to/lastmile_qr_scan", "ios": "https://dc.lft.to/lastmile_qr_scan"}, "is_reserved": 0}, {"bike_id": "651cc3b9d052122a7244bc50c1921f0c", "name": "651cc3b9d052122a7244bc50c1921f0c", "lat": 38.898086166666666, "fusion_lat": 0.0, "type": "electric_scooter", "lon": -77.04889616666667, "is_disabled": 0, "fusion_lon": 0.0, "rental_uris": {"android": "https://dc.lft.to/lastmile_qr_scan", "ios": "https://dc.lft.to/lastmile_qr_scan"}, "is_reserved": 0}, {"bike_id": "531d3ef9f51509ecc00d6f30fde6b710", "name": "531d3ef9f51509ecc00d6f30fde6b710", "lat": 38.857819666666664, "fusion_lat": 0.0, "type": "electric_bike", "lon": -76.98760733333333, "is_disabled": 0, "fusion_lon": 0.0, "rental_uris": {"android": "https://dc.lft.to/lastmile_qr_scan", "ios": "https://dc.lft.to/lastmile_qr_scan"}, "is_reserved": 0}, {"bike_id": "05610a236001ef8e9ebfcb3319775f96", "name": "05610a236001ef8e9ebfcb3319775f96", "lat": 38.93011816666667, "fusion_lat": 0.0, "type": "electric_scooter", "lon": -77.03246916666667, "is_disabled": 0, "fusion_lon": 0.0, "rental_uris": {"android": "https://dc.lft.to/lastmile_qr_scan", "ios": "https://dc.lft.to/lastmile_qr_scan"}, "is_reserved": 0}, {"bike_id": "0d19243283d27fd7c36ac0b86e38fcac", "name": "0d19243283d27fd7c36ac0b86e38fcac", "lat": 39.0000035, "fusion_lat": 0.0, "type": "electric_bike", "lon": -76.91805766666667, "is_disabled": 0, "fusion_lon": 0.0, "rental_uris": {"android": "https://dc.lft.to/lastmile_qr_scan", "ios": "https://dc.lft.to/lastmile_qr_scan"}, "is_reserved": 0}, {"bike_id": "3a821cc7421a1df181aefd8e7f806600", "name": "3a821cc7421a1df181aefd8e7f806600", "lat": 39.01091066666667, "fusion_lat": 0.0, "type": "electric_bike", "lon": -77.04953533333334, "is_disabled": 0, "fusion_lon": 0.0, "rental_uris": {"android": "https://dc.lft.to/lastmile_qr_scan", "ios": "https://dc.lft.to/lastmile_qr_scan"}, "is_reserved": 0}, {"bike_id": "ae82acec08f9a87b039b4e3f9b06a31c", "name": "ae82acec08f9a87b039b4e3f9b06a31c", "lat": 38.90388466666667, "fusion_lat": 0.0, "type": "electric_scooter", "lon": -77.024889, "is_disabled": 0, "fusion_lon": 0.0, "rental_uris": {"android": "https://dc.lft.to/lastmile_qr_scan", "ios": "https://dc.lft.to/lastmile_qr_scan"}, "is_reserved": 0}, {"bike_id": "36cba348ca8616878a6443bfcefda504", "name": "36cba348ca8616878a6443bfcefda504", "lat": 38.83538933333333, "fusion_lat": 0.0, "type": "electric_bike", "lon": -77.00751716666667, "is_disabled": 0, "fusion_lon": 0.0, "rental_uris": {"android": "https://dc.lft.to/lastmile_qr_scan", "ios": "https://dc.lft.to/lastmile_qr_scan"}, "is_reserved": 0}, {"bike_id": "59623bcf571ae40a1508e9d0b3cc7806", "name": "59623bcf571ae40a1508e9d0b3cc7806", "lat": 38.91989816666667, "fusion_lat": 0.0, "type": "electric_scooter", "lon": -77.03310116666667, "is_disabled": 0, "fusion_lon": 0.0, "rental_uris": {"android": "https://dc.lft.to/lastmile_qr_scan", "ios": "https://dc.lft.to/lastmile_qr_scan"}, "is_reserved": 0}, {"bike_id": "2e18c2c7dcb0673baaf8f8d65b22ab2d", "name": "2e18c2c7dcb0673baaf8f8d65b22ab2d", "lat": 38.92002133333333, "fusion_lat": 0.0, "type": "electric_scooter", "lon": -77.03155416666667, "is_disabled": 0, "fusion_lon": 0.0, "rental_uris": {"android": "https://dc.lft.to/lastmile_qr_scan", "ios": "https://dc.lft.to/lastmile_qr_scan"}, "is_reserved": 0}, {"bike_id": "64ec200fd062b734a880934ba4b954f0", "name": "64ec200fd062b734a880934ba4b954f0", "lat": 38.9052475, "fusion_lat": 0.0, "type": "electric_scooter", "lon": -77.04150416666667, "is_disabled": 0, "fusion_lon": 0.0, "rental_uris": {"android": "https://dc.lft.to/lastmile_qr_scan", "ios": "https://dc.lft.to/lastmile_qr_scan"}, "is_reserved": 0}, {"bike_id": "96ee486d6a6166840d5f563f4e7b744e", "name": "96ee486d6a6166840d5f563f4e7b744e", "lat": 38.90028566666667, "fusion_lat": 0.0, "type": "electric_scooter", "lon": -77.00214616666666, "is_disabled": 0, "fusion_lon": 0.0, "rental_uris": {"android": "https://dc.lft.to/lastmile_qr_scan", "ios": "https://dc.lft.to/lastmile_qr_scan"}, "is_reserved": 0}, {"bike_id": "23e6fedb68d26ef0eff6de3e3cc8022b", "name": "23e6fedb68d26ef0eff6de3e3cc8022b", "lat": 38.906449, "fusion_lat": 0.0, "type": "electric_scooter", "lon": -77.0533015, "is_disabled": 0, "fusion_lon": 0.0, "rental_uris": {"android": "https://dc.lft.to/lastmile_qr_scan", "ios": "https://dc.lft.to/lastmile_qr_scan"}, "is_reserved": 0}, {"bike_id": "40183e00071499e677042e7abae3047e", "name": "40183e00071499e677042e7abae3047e", "lat": 38.93692083333333, "fusion_lat": 0.0, "type": "electric_scooter", "lon": -77.02714533333334, "is_disabled": 0, "fusion_lon": 0.0, "rental_uris": {"android": "https://dc.lft.to/lastmile_qr_scan", "ios": "https://dc.lft.to/lastmile_qr_scan"}, "is_reserved": 0}, {"bike_id": "6c6384f87d4672ac588146cb1908e5c7", "name": "6c6384f87d4672ac588146cb1908e5c7", "lat": 38.871582, "fusion_lat": 0.0, "type": "electric_scooter", "lon": -77.0135345, "is_disabled": 0, "fusion_lon": 0.0, "rental_uris": {"android": "https://dc.lft.to/lastmile_qr_scan", "ios": "https://dc.lft.to/lastmile_qr_scan"}, "is_reserved": 0}, {"bike_id": "ab2c00be89dae9b09e35b37aa273eb86", "name": "ab2c00be89dae9b09e35b37aa273eb86", "lat": 38.90666316666667, "fusion_lat": 0.0, "type": "electric_scooter", "lon": -76.98022966666667, "is_disabled": 0, "fusion_lon": 0.0, "rental_uris": {"android": "https://dc.lft.to/lastmile_qr_scan", "ios": "https://dc.lft.to/lastmile_qr_scan"}, "is_reserved": 0}, {"bike_id": "665acd32eed74874394db64275eb7263", "name": "665acd32eed74874394db64275eb7263", "lat": 38.918555, "fusion_lat": 0.0, "type": "electric_scooter", "lon": -77.04039016666667, "is_disabled": 0, "fusion_lon": 0.0, "rental_uris": {"android": "https://dc.lft.to/lastmile_qr_scan", "ios": "https://dc.lft.to/lastmile_qr_scan"}, "is_reserved": 0}, {"bike_id": "26b9c1d49ef64c64d84f4a453b17527a", "name": "26b9c1d49ef64c64d84f4a453b17527a", "lat": 38.911263, "fusion_lat": 0.0, "type": "electric_scooter", "lon": -77.021884, "is_disabled": 0, "fusion_lon": 0.0, "rental_uris": {"android": "https://dc.lft.to/lastmile_qr_scan", "ios": "https://dc.lft.to/lastmile_qr_scan"}, "is_reserved": 0}, {"bike_id": "52246ef6b98878ee3b2a4c7738e867d7", "name": "52246ef6b98878ee3b2a4c7738e867d7", "lat": 38.924173, "fusion_lat": 0.0, "type": "electric_scooter", "lon": -77.04554633333333, "is_disabled": 0, "fusion_lon": 0.0, "rental_uris": {"android": "https://dc.lft.to/lastmile_qr_scan", "ios": "https://dc.lft.to/lastmile_qr_scan"}, "is_reserved": 0}, {"bike_id": "5e25648f247154ccdec70fc9dddb9985", "name": "5e25648f247154ccdec70fc9dddb9985", "lat": 38.89793483333333, "fusion_lat": 0.0, "type": "electric_scooter", "lon": -77.00918466666667, "is_disabled": 0, "fusion_lon": 0.0, "rental_uris": {"android": "https://dc.lft.to/lastmile_qr_scan", "ios": "https://dc.lft.to/lastmile_qr_scan"}, "is_reserved": 0}, {"bike_id": "068428eaf11c82cd8c023799d31eedb3", "name": "068428eaf11c82cd8c023799d31eedb3", "lat": 38.9070245, "fusion_lat": 0.0, "type": "electric_scooter", "lon": -77.0346945, "is_disabled": 0, "fusion_lon": 0.0, "rental_uris": {"android": "https://dc.lft.to/lastmile_qr_scan", "ios": "https://dc.lft.to/lastmile_qr_scan"}, "is_reserved": 0}, {"bike_id": "f8a3b04dd12776c201028d69d494dbdd", "name": "f8a3b04dd12776c201028d69d494dbdd", "lat": 38.90023566666667, "fusion_lat": 0.0, "type": "electric_scooter", "lon": -77.02415416666666, "is_disabled": 0, "fusion_lon": 0.0, "rental_uris": {"android": "https://dc.lft.to/lastmile_qr_scan", "ios": "https://dc.lft.to/lastmile_qr_scan"}, "is_reserved": 0}, {"bike_id": "c88ab055299252f5572f578420566028", "name": "c88ab055299252f5572f578420566028", "lat": 38.91805, "fusion_lat": 0.0, "type": "electric_scooter", "lon": -76.99980516666666, "is_disabled": 0, "fusion_lon": 0.0, "rental_uris": {"android": "https://dc.lft.to/lastmile_qr_scan", "ios": "https://dc.lft.to/lastmile_qr_scan"}, "is_reserved": 0}, {"bike_id": "cb2121d0303001ec37be69da466323c1", "name": "cb2121d0303001ec37be69da466323c1", "lat": 38.920336, "fusion_lat": 0.0, "type": "electric_scooter", "lon": -77.02594366666666, "is_disabled": 0, "fusion_lon": 0.0, "rental_uris": {"android": "https://dc.lft.to/lastmile_qr_scan", "ios": "https://dc.lft.to/lastmile_qr_scan"}, "is_reserved": 0}, {"bike_id": "cbf0268e8ef203c360e26147923f1c23", "name": "cbf0268e8ef203c360e26147923f1c23", "lat": 38.898517166666664, "fusion_lat": 0.0, "type": "electric_scooter", "lon": -76.92755266666667, "is_disabled": 0, "fusion_lon": 0.0, "rental_uris": {"android": "https://dc.lft.to/lastmile_qr_scan", "ios": "https://dc.lft.to/lastmile_qr_scan"}, "is_reserved": 0}, {"bike_id": "ef5ac3c08b5517ae02603c1853f86067", "name": "ef5ac3c08b5517ae02603c1853f86067", "lat": 38.911079, "fusion_lat": 0.0, "type": "electric_scooter", "lon": -77.04399383333333, "is_disabled": 0, "fusion_lon": 0.0, "rental_uris": {"android": "https://dc.lft.to/lastmile_qr_scan", "ios": "https://dc.lft.to/lastmile_qr_scan"}, "is_reserved": 0}, {"bike_id": "e01da4b5a3b591b342d67f2f689fdba9", "name": "e01da4b5a3b591b342d67f2f689fdba9", "lat": 38.88122633333333, "fusion_lat": 0.0, "type": "electric_bike", "lon": -76.99797133333334, "is_disabled": 0, "fusion_lon": 0.0, "rental_uris": {"android": "https://dc.lft.to/lastmile_qr_scan", "ios": "https://dc.lft.to/lastmile_qr_scan"}, "is_reserved": 0}, {"bike_id": "88d2768cfc149c4e6daf0dcdecda99dc", "name": "88d2768cfc149c4e6daf0dcdecda99dc", "lat": 38.927465833333336, "fusion_lat": 0.0, "type": "electric_scooter", "lon": -77.03281133333333, "is_disabled": 0, "fusion_lon": 0.0, "rental_uris": {"android": "https://dc.lft.to/lastmile_qr_scan", "ios": "https://dc.lft.to/lastmile_qr_scan"}, "is_reserved": 0}, {"bike_id": "b5374e0fa369d426899882e7e893965e", "name": "b5374e0fa369d426899882e7e893965e", "lat": 38.92064516666667, "fusion_lat": 0.0, "type": "electric_scooter", "lon": -77.02296283333334, "is_disabled": 0, "fusion_lon": 0.0, "rental_uris": {"android": "https://dc.lft.to/lastmile_qr_scan", "ios": "https://dc.lft.to/lastmile_qr_scan"}, "is_reserved": 0}, {"bike_id": "f7e1f3490a914f0a33ad252964cff5b3", "name": "f7e1f3490a914f0a33ad252964cff5b3", "lat": 38.98079583333333, "fusion_lat": 0.0, "type": "electric_bike", "lon": -77.02607983333333, "is_disabled": 0, "fusion_lon": 0.0, "rental_uris": {"android": "https://dc.lft.to/lastmile_qr_scan", "ios": "https://dc.lft.to/lastmile_qr_scan"}, "is_reserved": 0}, {"bike_id": "c32daa408070ca62122d0fc6d4cbf852", "name": "c32daa408070ca62122d0fc6d4cbf852", "lat": 38.90112033333333, "fusion_lat": 0.0, "type": "electric_scooter", "lon": -77.01223166666666, "is_disabled": 0, "fusion_lon": 0.0, "rental_uris": {"android": "https://dc.lft.to/lastmile_qr_scan", "ios": "https://dc.lft.to/lastmile_qr_scan"}, "is_reserved": 0}, {"bike_id": "b1224ed79086668bdbd01e786bf59734", "name": "b1224ed79086668bdbd01e786bf59734", "lat": 38.9422155, "fusion_lat": 0.0, "type": "electric_scooter", "lon": -77.02963066666666, "is_disabled": 0, "fusion_lon": 0.0, "rental_uris": {"android": "https://dc.lft.to/lastmile_qr_scan", "ios": "https://dc.lft.to/lastmile_qr_scan"}, "is_reserved": 0}, {"bike_id": "02d9048a99c0373d5c25f8a9040ee73c", "name": "02d9048a99c0373d5c25f8a9040ee73c", "lat": 38.854319, "fusion_lat": 0.0, "type": "electric_bike", "lon": -77.0832025, "is_disabled": 0, "fusion_lon": 0.0, "rental_uris": {"android": "https://dc.lft.to/lastmile_qr_scan", "ios": "https://dc.lft.to/lastmile_qr_scan"}, "is_reserved": 0}, {"bike_id": "4aff0a628d7cb40a632c0c41d92df0f5", "name": "4aff0a628d7cb40a632c0c41d92df0f5", "lat": 38.91488983333333, "fusion_lat": 0.0, "type": "electric_scooter", "lon": -77.03289483333333, "is_disabled": 0, "fusion_lon": 0.0, "rental_uris": {"android": "https://dc.lft.to/lastmile_qr_scan", "ios": "https://dc.lft.to/lastmile_qr_scan"}, "is_reserved": 0}, {"bike_id": "d88756861911210d866aff0e24dcafd3", "name": "d88756861911210d866aff0e24dcafd3", "lat": 38.9235235, "fusion_lat": 0.0, "type": "electric_scooter", "lon": -77.05234383333334, "is_disabled": 0, "fusion_lon": 0.0, "rental_uris": {"android": "https://dc.lft.to/lastmile_qr_scan", "ios": "https://dc.lft.to/lastmile_qr_scan"}, "is_reserved": 0}, {"bike_id": "d363c10627d665677fc1f2a7705835b5", "name": "d363c10627d665677fc1f2a7705835b5", "lat": 38.8970955, "fusion_lat": 0.0, "type": "electric_scooter", "lon": -76.99118983333334, "is_disabled": 0, "fusion_lon": 0.0, "rental_uris": {"android": "https://dc.lft.to/lastmile_qr_scan", "ios": "https://dc.lft.to/lastmile_qr_scan"}, "is_reserved": 0}, {"bike_id": "b813aad5100f0f10606c4dda8e04d532", "name": "b813aad5100f0f10606c4dda8e04d532", "lat": 38.924351333333334, "fusion_lat": 0.0, "type": "electric_scooter", "lon": -77.02030383333333, "is_disabled": 0, "fusion_lon": 0.0, "rental_uris": {"android": "https://dc.lft.to/lastmile_qr_scan", "ios": "https://dc.lft.to/lastmile_qr_scan"}, "is_reserved": 0}, {"bike_id": "c31256489b3cac1c0c75e443490cb8f0", "name": "c31256489b3cac1c0c75e443490cb8f0", "lat": 38.914102166666666, "fusion_lat": 0.0, "type": "electric_scooter", "lon": -77.03172733333334, "is_disabled": 0, "fusion_lon": 0.0, "rental_uris": {"android": "https://dc.lft.to/lastmile_qr_scan", "ios": "https://dc.lft.to/lastmile_qr_scan"}, "is_reserved": 0}, {"bike_id": "e304c1b9b79f31620f50d5ecd1cbde85", "name": "e304c1b9b79f31620f50d5ecd1cbde85", "lat": 38.92322566666667, "fusion_lat": 0.0, "type": "electric_scooter", "lon": -77.01957433333334, "is_disabled": 0, "fusion_lon": 0.0, "rental_uris": {"android": "https://dc.lft.to/lastmile_qr_scan", "ios": "https://dc.lft.to/lastmile_qr_scan"}, "is_reserved": 0}, {"bike_id": "2eff11ca09082c29fa88069cf23f786b", "name": "2eff11ca09082c29fa88069cf23f786b", "lat": 38.9081125, "fusion_lat": 0.0, "type": "electric_bike", "lon": -76.99722916666667, "is_disabled": 0, "fusion_lon": 0.0, "rental_uris": {"android": "https://dc.lft.to/lastmile_qr_scan", "ios": "https://dc.lft.to/lastmile_qr_scan"}, "is_reserved": 0}, {"bike_id": "91714d3094d693a5f4612802f241bcfb", "name": "91714d3094d693a5f4612802f241bcfb", "lat": 38.92039666666667, "fusion_lat": 0.0, "type": "electric_scooter", "lon": -77.01673, "is_disabled": 0, "fusion_lon": 0.0, "rental_uris": {"android": "https://dc.lft.to/lastmile_qr_scan", "ios": "https://dc.lft.to/lastmile_qr_scan"}, "is_reserved": 0}, {"bike_id": "f235c6a56bb0bd428f81be4e10c8db54", "name": "f235c6a56bb0bd428f81be4e10c8db54", "lat": 38.913953166666666, "fusion_lat": 0.0, "type": "electric_scooter", "lon": -77.01795616666666, "is_disabled": 0, "fusion_lon": 0.0, "rental_uris": {"android": "https://dc.lft.to/lastmile_qr_scan", "ios": "https://dc.lft.to/lastmile_qr_scan"}, "is_reserved": 0}, {"bike_id": "91fc818d2f2fd220c42b3b4dd479f826", "name": "91fc818d2f2fd220c42b3b4dd479f826", "lat": 38.998894166666666, "fusion_lat": 0.0, "type": "electric_bike", "lon": -76.90856, "is_disabled": 0, "fusion_lon": 0.0, "rental_uris": {"android": "https://dc.lft.to/lastmile_qr_scan", "ios": "https://dc.lft.to/lastmile_qr_scan"}, "is_reserved": 0}, {"bike_id": "36fbd1ccb61aafcb9467cc8a78354fdb", "name": "36fbd1ccb61aafcb9467cc8a78354fdb", "lat": 38.92815216666666, "fusion_lat": 0.0, "type": "electric_scooter", "lon": -77.03285283333334, "is_disabled": 0, "fusion_lon": 0.0, "rental_uris": {"android": "https://dc.lft.to/lastmile_qr_scan", "ios": "https://dc.lft.to/lastmile_qr_scan"}, "is_reserved": 0}, {"bike_id": "2045ce1eed539c190b4aec6eec4340a4", "name": "2045ce1eed539c190b4aec6eec4340a4", "lat": 38.870370666666666, "fusion_lat": 0.0, "type": "electric_bike", "lon": -77.22904833333334, "is_disabled": 0, "fusion_lon": 0.0, "rental_uris": {"android": "https://dc.lft.to/lastmile_qr_scan", "ios": "https://dc.lft.to/lastmile_qr_scan"}, "is_reserved": 0}, {"bike_id": "c7499e19cdcd45bba8b3dd2337b1aa0d", "name": "c7499e19cdcd45bba8b3dd2337b1aa0d", "lat": 38.921296, "fusion_lat": 0.0, "type": "electric_scooter", "lon": -77.04598616666667, "is_disabled": 0, "fusion_lon": 0.0, "rental_uris": {"android": "https://dc.lft.to/lastmile_qr_scan", "ios": "https://dc.lft.to/lastmile_qr_scan"}, "is_reserved": 0}, {"bike_id": "5510a29db7286e56ce70f81566742b93", "name": "5510a29db7286e56ce70f81566742b93", "lat": 38.920492333333335, "fusion_lat": 0.0, "type": "electric_scooter", "lon": -77.0419235, "is_disabled": 0, "fusion_lon": 0.0, "rental_uris": {"android": "https://dc.lft.to/lastmile_qr_scan", "ios": "https://dc.lft.to/lastmile_qr_scan"}, "is_reserved": 0}, {"bike_id": "9e6fcbb0d5ab7ea80ba1ff144497fd2e", "name": "9e6fcbb0d5ab7ea80ba1ff144497fd2e", "lat": 38.920398, "fusion_lat": 0.0, "type": "electric_scooter", "lon": -77.01679016666667, "is_disabled": 0, "fusion_lon": 0.0, "rental_uris": {"android": "https://dc.lft.to/lastmile_qr_scan", "ios": "https://dc.lft.to/lastmile_qr_scan"}, "is_reserved": 0}, {"bike_id": "1a154f91fef436bcddab22121f4430c9", "name": "1a154f91fef436bcddab22121f4430c9", "lat": 38.91472616666667, "fusion_lat": 0.0, "type": "electric_scooter", "lon": -77.0323245, "is_disabled": 0, "fusion_lon": 0.0, "rental_uris": {"android": "https://dc.lft.to/lastmile_qr_scan", "ios": "https://dc.lft.to/lastmile_qr_scan"}, "is_reserved": 0}, {"bike_id": "e2afac0f629692d898eeaf837df5496e", "name": "e2afac0f629692d898eeaf837df5496e", "lat": 38.894442166666664, "fusion_lat": 0.0, "type": "electric_scooter", "lon": -77.02683316666666, "is_disabled": 0, "fusion_lon": 0.0, "rental_uris": {"android": "https://dc.lft.to/lastmile_qr_scan", "ios": "https://dc.lft.to/lastmile_qr_scan"}, "is_reserved": 0}, {"bike_id": "3d8c3ca5e54570be2c4233ba1694bf1e", "name": "3d8c3ca5e54570be2c4233ba1694bf1e", "lat": 38.95735, "fusion_lat": 0.0, "type": "electric_scooter", "lon": -77.03010566666667, "is_disabled": 0, "fusion_lon": 0.0, "rental_uris": {"android": "https://dc.lft.to/lastmile_qr_scan", "ios": "https://dc.lft.to/lastmile_qr_scan"}, "is_reserved": 0}, {"bike_id": "b9d0ddff81576750bfd80bb76a881c6b", "name": "b9d0ddff81576750bfd80bb76a881c6b", "lat": 38.905621333333336, "fusion_lat": 0.0, "type": "electric_scooter", "lon": -77.04189583333333, "is_disabled": 0, "fusion_lon": 0.0, "rental_uris": {"android": "https://dc.lft.to/lastmile_qr_scan", "ios": "https://dc.lft.to/lastmile_qr_scan"}, "is_reserved": 0}, {"bike_id": "2d294d09a4e6b2d60995647c16cc97e9", "name": "2d294d09a4e6b2d60995647c16cc97e9", "lat": 38.9054375, "fusion_lat": 0.0, "type": "electric_scooter", "lon": -77.0495565, "is_disabled": 0, "fusion_lon": 0.0, "rental_uris": {"android": "https://dc.lft.to/lastmile_qr_scan", "ios": "https://dc.lft.to/lastmile_qr_scan"}, "is_reserved": 0}, {"bike_id": "bdb26f354726dc0427011c2b4473dc16", "name": "bdb26f354726dc0427011c2b4473dc16", "lat": 38.883675333333336, "fusion_lat": 0.0, "type": "electric_scooter", "lon": -77.02008833333333, "is_disabled": 0, "fusion_lon": 0.0, "rental_uris": {"android": "https://dc.lft.to/lastmile_qr_scan", "ios": "https://dc.lft.to/lastmile_qr_scan"}, "is_reserved": 0}, {"bike_id": "02ae1f1b5386270cd1c0a2a5728b128c", "name": "02ae1f1b5386270cd1c0a2a5728b128c", "lat": 39.0849075, "fusion_lat": 0.0, "type": "electric_bike", "lon": -76.95060183333334, "is_disabled": 0, "fusion_lon": 0.0, "rental_uris": {"android": "https://dc.lft.to/lastmile_qr_scan", "ios": "https://dc.lft.to/lastmile_qr_scan"}, "is_reserved": 0}, {"bike_id": "5c43161bc1c15495c90c6dc0127c54b9", "name": "5c43161bc1c15495c90c6dc0127c54b9", "lat": 38.9063815, "fusion_lat": 0.0, "type": "electric_scooter", "lon": -76.99378716666666, "is_disabled": 0, "fusion_lon": 0.0, "rental_uris": {"android": "https://dc.lft.to/lastmile_qr_scan", "ios": "https://dc.lft.to/lastmile_qr_scan"}, "is_reserved": 0}, {"bike_id": "cc75f672fef818319f40cb96efc8f8d1", "name": "cc75f672fef818319f40cb96efc8f8d1", "lat": 38.89528583333333, "fusion_lat": 0.0, "type": "electric_scooter", "lon": -77.04474866666666, "is_disabled": 0, "fusion_lon": 0.0, "rental_uris": {"android": "https://dc.lft.to/lastmile_qr_scan", "ios": "https://dc.lft.to/lastmile_qr_scan"}, "is_reserved": 0}, {"bike_id": "271aec7c9c588c425d433f986de05ffc", "name": "271aec7c9c588c425d433f986de05ffc", "lat": 38.97495, "fusion_lat": 0.0, "type": "electric_scooter", "lon": -77.01695283333333, "is_disabled": 0, "fusion_lon": 0.0, "rental_uris": {"android": "https://dc.lft.to/lastmile_qr_scan", "ios": "https://dc.lft.to/lastmile_qr_scan"}, "is_reserved": 0}, {"bike_id": "9a4b7458b76d01a1b7aa1ac7a664589f", "name": "9a4b7458b76d01a1b7aa1ac7a664589f", "lat": 38.89994633333333, "fusion_lat": 0.0, "type": "electric_scooter", "lon": -77.02925916666666, "is_disabled": 0, "fusion_lon": 0.0, "rental_uris": {"android": "https://dc.lft.to/lastmile_qr_scan", "ios": "https://dc.lft.to/lastmile_qr_scan"}, "is_reserved": 0}, {"bike_id": "e8f9a6fdf4c521022be84a84c0a4d6c6", "name": "e8f9a6fdf4c521022be84a84c0a4d6c6", "lat": 38.900414, "fusion_lat": 0.0, "type": "electric_scooter", "lon": -77.04812816666667, "is_disabled": 0, "fusion_lon": 0.0, "rental_uris": {"android": "https://dc.lft.to/lastmile_qr_scan", "ios": "https://dc.lft.to/lastmile_qr_scan"}, "is_reserved": 0}, {"bike_id": "a902aa890003e243970f4ee03b990e50", "name": "a902aa890003e243970f4ee03b990e50", "lat": 38.9097475, "fusion_lat": 0.0, "type": "electric_scooter", "lon": -77.03811983333334, "is_disabled": 0, "fusion_lon": 0.0, "rental_uris": {"android": "https://dc.lft.to/lastmile_qr_scan", "ios": "https://dc.lft.to/lastmile_qr_scan"}, "is_reserved": 0}, {"bike_id": "510bb76c51d7d5f16e553a1012062d7b", "name": "510bb76c51d7d5f16e553a1012062d7b", "lat": 38.91091183333333, "fusion_lat": 0.0, "type": "electric_scooter", "lon": -76.98472733333334, "is_disabled": 0, "fusion_lon": 0.0, "rental_uris": {"android": "https://dc.lft.to/lastmile_qr_scan", "ios": "https://dc.lft.to/lastmile_qr_scan"}, "is_reserved": 0}, {"bike_id": "0d8fd4f13f30cdde8d81aa42a573b352", "name": "0d8fd4f13f30cdde8d81aa42a573b352", "lat": 38.893458833333334, "fusion_lat": 0.0, "type": "electric_scooter", "lon": -76.9937525, "is_disabled": 0, "fusion_lon": 0.0, "rental_uris": {"android": "https://dc.lft.to/lastmile_qr_scan", "ios": "https://dc.lft.to/lastmile_qr_scan"}, "is_reserved": 0}, {"bike_id": "9c04300d747114704dcc86ec7f739f50", "name": "9c04300d747114704dcc86ec7f739f50", "lat": 38.91956966666667, "fusion_lat": 0.0, "type": "electric_scooter", "lon": -77.02392933333333, "is_disabled": 0, "fusion_lon": 0.0, "rental_uris": {"android": "https://dc.lft.to/lastmile_qr_scan", "ios": "https://dc.lft.to/lastmile_qr_scan"}, "is_reserved": 0}, {"bike_id": "9111104c58443dce278424fb68ddf67c", "name": "9111104c58443dce278424fb68ddf67c", "lat": 38.91609566666666, "fusion_lat": 0.0, "type": "electric_scooter", "lon": -77.02386433333334, "is_disabled": 0, "fusion_lon": 0.0, "rental_uris": {"android": "https://dc.lft.to/lastmile_qr_scan", "ios": "https://dc.lft.to/lastmile_qr_scan"}, "is_reserved": 0}, {"bike_id": "26dce7c973d77991aa84a1089c8f7f87", "name": "26dce7c973d77991aa84a1089c8f7f87", "lat": 38.924772, "fusion_lat": 0.0, "type": "electric_scooter", "lon": -77.0271495, "is_disabled": 0, "fusion_lon": 0.0, "rental_uris": {"android": "https://dc.lft.to/lastmile_qr_scan", "ios": "https://dc.lft.to/lastmile_qr_scan"}, "is_reserved": 0}, {"bike_id": "7a94246932f0c10e0056b7349c5386ca", "name": "7a94246932f0c10e0056b7349c5386ca", "lat": 38.923271166666666, "fusion_lat": 0.0, "type": "electric_scooter", "lon": -77.020796, "is_disabled": 0, "fusion_lon": 0.0, "rental_uris": {"android": "https://dc.lft.to/lastmile_qr_scan", "ios": "https://dc.lft.to/lastmile_qr_scan"}, "is_reserved": 0}, {"bike_id": "5fbeac89e1cdcf79a22ec7d357df2904", "name": "5fbeac89e1cdcf79a22ec7d357df2904", "lat": 38.932509333333336, "fusion_lat": 0.0, "type": "electric_scooter", "lon": -77.03097833333334, "is_disabled": 0, "fusion_lon": 0.0, "rental_uris": {"android": "https://dc.lft.to/lastmile_qr_scan", "ios": "https://dc.lft.to/lastmile_qr_scan"}, "is_reserved": 0}, {"bike_id": "f1726f7fa01d1e35484100d3deb59d36", "name": "f1726f7fa01d1e35484100d3deb59d36", "lat": 38.90153166666666, "fusion_lat": 0.0, "type": "electric_scooter", "lon": -77.02294683333334, "is_disabled": 0, "fusion_lon": 0.0, "rental_uris": {"android": "https://dc.lft.to/lastmile_qr_scan", "ios": "https://dc.lft.to/lastmile_qr_scan"}, "is_reserved": 0}, {"bike_id": "a67d741c1958f1a964cf9074e2fd49d6", "name": "a67d741c1958f1a964cf9074e2fd49d6", "lat": 38.88727683333333, "fusion_lat": 0.0, "type": "electric_scooter", "lon": -77.0261925, "is_disabled": 0, "fusion_lon": 0.0, "rental_uris": {"android": "https://dc.lft.to/lastmile_qr_scan", "ios": "https://dc.lft.to/lastmile_qr_scan"}, "is_reserved": 0}, {"bike_id": "1df07da2b5d42db130fc6bad321ef242", "name": "1df07da2b5d42db130fc6bad321ef242", "lat": 38.91571183333333, "fusion_lat": 0.0, "type": "electric_scooter", "lon": -76.98388166666666, "is_disabled": 0, "fusion_lon": 0.0, "rental_uris": {"android": "https://dc.lft.to/lastmile_qr_scan", "ios": "https://dc.lft.to/lastmile_qr_scan"}, "is_reserved": 0}, {"bike_id": "a5182c7e71bb77006b9d3d94056b120c", "name": "a5182c7e71bb77006b9d3d94056b120c", "lat": 38.881095, "fusion_lat": 0.0, "type": "electric_scooter", "lon": -77.01689366666666, "is_disabled": 0, "fusion_lon": 0.0, "rental_uris": {"android": "https://dc.lft.to/lastmile_qr_scan", "ios": "https://dc.lft.to/lastmile_qr_scan"}, "is_reserved": 0}, {"bike_id": "4f1a26d66b0ddc059b5b51fd38b9ef91", "name": "4f1a26d66b0ddc059b5b51fd38b9ef91", "lat": 38.9074865, "fusion_lat": 0.0, "type": "electric_scooter", "lon": -77.00241016666666, "is_disabled": 0, "fusion_lon": 0.0, "rental_uris": {"android": "https://dc.lft.to/lastmile_qr_scan", "ios": "https://dc.lft.to/lastmile_qr_scan"}, "is_reserved": 0}, {"bike_id": "d4d7b2ef039a2e1a8c0dd4a9abe7a12b", "name": "d4d7b2ef039a2e1a8c0dd4a9abe7a12b", "lat": 38.840370166666666, "fusion_lat": 0.0, "type": "electric_bike", "lon": -76.97610233333333, "is_disabled": 0, "fusion_lon": 0.0, "rental_uris": {"android": "https://dc.lft.to/lastmile_qr_scan", "ios": "https://dc.lft.to/lastmile_qr_scan"}, "is_reserved": 0}, {"bike_id": "5a9ec09411801c3d0eced4208b40249f", "name": "5a9ec09411801c3d0eced4208b40249f", "lat": 38.92176166666667, "fusion_lat": 0.0, "type": "electric_scooter", "lon": -77.042321, "is_disabled": 0, "fusion_lon": 0.0, "rental_uris": {"android": "https://dc.lft.to/lastmile_qr_scan", "ios": "https://dc.lft.to/lastmile_qr_scan"}, "is_reserved": 0}, {"bike_id": "4d1040c38bfbe9b505927884b316d12f", "name": "4d1040c38bfbe9b505927884b316d12f", "lat": 38.89544, "fusion_lat": 0.0, "type": "electric_scooter", "lon": -76.98292733333334, "is_disabled": 0, "fusion_lon": 0.0, "rental_uris": {"android": "https://dc.lft.to/lastmile_qr_scan", "ios": "https://dc.lft.to/lastmile_qr_scan"}, "is_reserved": 0}, {"bike_id": "d27c5b41befef758090b87136375d947", "name": "d27c5b41befef758090b87136375d947", "lat": 38.956508666666664, "fusion_lat": 0.0, "type": "electric_scooter", "lon": -77.01279683333334, "is_disabled": 0, "fusion_lon": 0.0, "rental_uris": {"android": "https://dc.lft.to/lastmile_qr_scan", "ios": "https://dc.lft.to/lastmile_qr_scan"}, "is_reserved": 0}, {"bike_id": "68cd5b55bf65179a275ea809180450ce", "name": "68cd5b55bf65179a275ea809180450ce", "lat": 38.897926166666664, "fusion_lat": 0.0, "type": "electric_scooter", "lon": -77.01200266666666, "is_disabled": 0, "fusion_lon": 0.0, "rental_uris": {"android": "https://dc.lft.to/lastmile_qr_scan", "ios": "https://dc.lft.to/lastmile_qr_scan"}, "is_reserved": 0}, {"bike_id": "90716ab3976b603a32f40497dd64f37f", "name": "90716ab3976b603a32f40497dd64f37f", "lat": 38.897330333333336, "fusion_lat": 0.0, "type": "electric_scooter", "lon": -77.01875133333333, "is_disabled": 0, "fusion_lon": 0.0, "rental_uris": {"android": "https://dc.lft.to/lastmile_qr_scan", "ios": "https://dc.lft.to/lastmile_qr_scan"}, "is_reserved": 0}, {"bike_id": "6f78563935a7451ca37f76ad4ed8c8bf", "name": "6f78563935a7451ca37f76ad4ed8c8bf", "lat": 38.90252, "fusion_lat": 0.0, "type": "electric_scooter", "lon": -77.03869333333333, "is_disabled": 0, "fusion_lon": 0.0, "rental_uris": {"android": "https://dc.lft.to/lastmile_qr_scan", "ios": "https://dc.lft.to/lastmile_qr_scan"}, "is_reserved": 0}, {"bike_id": "c2f1029f677b8fd76c969ff343e13439", "name": "c2f1029f677b8fd76c969ff343e13439", "lat": 38.87653483333333, "fusion_lat": 0.0, "type": "electric_scooter", "lon": -77.020738, "is_disabled": 0, "fusion_lon": 0.0, "rental_uris": {"android": "https://dc.lft.to/lastmile_qr_scan", "ios": "https://dc.lft.to/lastmile_qr_scan"}, "is_reserved": 0}, {"bike_id": "c44b82105074359ece282a61af44642a", "name": "c44b82105074359ece282a61af44642a", "lat": 38.916635, "fusion_lat": 0.0, "type": "electric_scooter", "lon": -77.024697, "is_disabled": 0, "fusion_lon": 0.0, "rental_uris": {"android": "https://dc.lft.to/lastmile_qr_scan", "ios": "https://dc.lft.to/lastmile_qr_scan"}, "is_reserved": 0}, {"bike_id": "5ff3eb46667fdd9ad9461d9b36547b92", "name": "5ff3eb46667fdd9ad9461d9b36547b92", "lat": 38.908037, "fusion_lat": 0.0, "type": "electric_scooter", "lon": -77.0384195, "is_disabled": 0, "fusion_lon": 0.0, "rental_uris": {"android": "https://dc.lft.to/lastmile_qr_scan", "ios": "https://dc.lft.to/lastmile_qr_scan"}, "is_reserved": 0}, {"bike_id": "f3f238fccb60a557c4dbea406aa9f1ea", "name": "f3f238fccb60a557c4dbea406aa9f1ea", "lat": 38.92759433333333, "fusion_lat": 0.0, "type": "electric_scooter", "lon": -77.0526615, "is_disabled": 0, "fusion_lon": 0.0, "rental_uris": {"android": "https://dc.lft.to/lastmile_qr_scan", "ios": "https://dc.lft.to/lastmile_qr_scan"}, "is_reserved": 0}, {"bike_id": "273d40b6c6a2bc7dacc78cd44e56056a", "name": "273d40b6c6a2bc7dacc78cd44e56056a", "lat": 38.8922085, "fusion_lat": 0.0, "type": "electric_scooter", "lon": -77.026284, "is_disabled": 0, "fusion_lon": 0.0, "rental_uris": {"android": "https://dc.lft.to/lastmile_qr_scan", "ios": "https://dc.lft.to/lastmile_qr_scan"}, "is_reserved": 0}, {"bike_id": "5ee0fc35a1123999ad6a7d14c02ac89e", "name": "5ee0fc35a1123999ad6a7d14c02ac89e", "lat": 38.901036833333336, "fusion_lat": 0.0, "type": "electric_scooter", "lon": -77.03432233333334, "is_disabled": 0, "fusion_lon": 0.0, "rental_uris": {"android": "https://dc.lft.to/lastmile_qr_scan", "ios": "https://dc.lft.to/lastmile_qr_scan"}, "is_reserved": 0}, {"bike_id": "4de3b4298646ace703e6f098fd39d3aa", "name": "4de3b4298646ace703e6f098fd39d3aa", "lat": 38.886668666666665, "fusion_lat": 0.0, "type": "electric_scooter", "lon": -77.001982, "is_disabled": 0, "fusion_lon": 0.0, "rental_uris": {"android": "https://dc.lft.to/lastmile_qr_scan", "ios": "https://dc.lft.to/lastmile_qr_scan"}, "is_reserved": 0}, {"bike_id": "5ad991d784e6760f57b9bc04b20105f2", "name": "5ad991d784e6760f57b9bc04b20105f2", "lat": 38.88530983333333, "fusion_lat": 0.0, "type": "electric_scooter", "lon": -76.9805505, "is_disabled": 0, "fusion_lon": 0.0, "rental_uris": {"android": "https://dc.lft.to/lastmile_qr_scan", "ios": "https://dc.lft.to/lastmile_qr_scan"}, "is_reserved": 0}, {"bike_id": "9517e94eb559a15da34f4db30da55401", "name": "9517e94eb559a15da34f4db30da55401", "lat": 38.867135833333336, "fusion_lat": 0.0, "type": "electric_scooter", "lon": -76.9807075, "is_disabled": 0, "fusion_lon": 0.0, "rental_uris": {"android": "https://dc.lft.to/lastmile_qr_scan", "ios": "https://dc.lft.to/lastmile_qr_scan"}, "is_reserved": 0}, {"bike_id": "0aa481a4bc014028e2f5186d20cca53b", "name": "0aa481a4bc014028e2f5186d20cca53b", "lat": 38.9365815, "fusion_lat": 0.0, "type": "electric_scooter", "lon": -77.02123333333333, "is_disabled": 0, "fusion_lon": 0.0, "rental_uris": {"android": "https://dc.lft.to/lastmile_qr_scan", "ios": "https://dc.lft.to/lastmile_qr_scan"}, "is_reserved": 0}, {"bike_id": "9821c21cb771877a6f255efe88c7a2a8", "name": "9821c21cb771877a6f255efe88c7a2a8", "lat": 38.9181035, "fusion_lat": 0.0, "type": "electric_scooter", "lon": -77.03641483333334, "is_disabled": 0, "fusion_lon": 0.0, "rental_uris": {"android": "https://dc.lft.to/lastmile_qr_scan", "ios": "https://dc.lft.to/lastmile_qr_scan"}, "is_reserved": 0}, {"bike_id": "d96624e20dea71f1bb39a56df59bd588", "name": "d96624e20dea71f1bb39a56df59bd588", "lat": 38.89628416666667, "fusion_lat": 0.0, "type": "electric_scooter", "lon": -77.0401545, "is_disabled": 0, "fusion_lon": 0.0, "rental_uris": {"android": "https://dc.lft.to/lastmile_qr_scan", "ios": "https://dc.lft.to/lastmile_qr_scan"}, "is_reserved": 0}, {"bike_id": "ad565a960dce8490d6aeb5a6e0568bcd", "name": "ad565a960dce8490d6aeb5a6e0568bcd", "lat": 38.90045033333333, "fusion_lat": 0.0, "type": "electric_scooter", "lon": -76.988355, "is_disabled": 0, "fusion_lon": 0.0, "rental_uris": {"android": "https://dc.lft.to/lastmile_qr_scan", "ios": "https://dc.lft.to/lastmile_qr_scan"}, "is_reserved": 0}, {"bike_id": "c69f9003dab2df3054e8fc741c1358aa", "name": "c69f9003dab2df3054e8fc741c1358aa", "lat": 38.865708833333336, "fusion_lat": 0.0, "type": "electric_scooter", "lon": -76.99032216666667, "is_disabled": 0, "fusion_lon": 0.0, "rental_uris": {"android": "https://dc.lft.to/lastmile_qr_scan", "ios": "https://dc.lft.to/lastmile_qr_scan"}, "is_reserved": 0}, {"bike_id": "825bf81a38fc9241437240b3f039b38b", "name": "825bf81a38fc9241437240b3f039b38b", "lat": 38.90208883333333, "fusion_lat": 0.0, "type": "electric_scooter", "lon": -77.02082983333334, "is_disabled": 0, "fusion_lon": 0.0, "rental_uris": {"android": "https://dc.lft.to/lastmile_qr_scan", "ios": "https://dc.lft.to/lastmile_qr_scan"}, "is_reserved": 0}, {"bike_id": "b527de133fae9e67a3bdc9cb577ce6b6", "name": "b527de133fae9e67a3bdc9cb577ce6b6", "lat": 38.91961283333333, "fusion_lat": 0.0, "type": "electric_scooter", "lon": -77.04361533333334, "is_disabled": 0, "fusion_lon": 0.0, "rental_uris": {"android": "https://dc.lft.to/lastmile_qr_scan", "ios": "https://dc.lft.to/lastmile_qr_scan"}, "is_reserved": 0}, {"bike_id": "49fff30d4a633ae10c45ee0c24639bad", "name": "49fff30d4a633ae10c45ee0c24639bad", "lat": 38.91279383333333, "fusion_lat": 0.0, "type": "electric_scooter", "lon": -77.03856416666666, "is_disabled": 0, "fusion_lon": 0.0, "rental_uris": {"android": "https://dc.lft.to/lastmile_qr_scan", "ios": "https://dc.lft.to/lastmile_qr_scan"}, "is_reserved": 0}, {"bike_id": "22af399919b1930288c6550e839c6f0a", "name": "22af399919b1930288c6550e839c6f0a", "lat": 38.86489733333333, "fusion_lat": 0.0, "type": "electric_scooter", "lon": -76.97742266666667, "is_disabled": 0, "fusion_lon": 0.0, "rental_uris": {"android": "https://dc.lft.to/lastmile_qr_scan", "ios": "https://dc.lft.to/lastmile_qr_scan"}, "is_reserved": 0}, {"bike_id": "09b938c4f8dbd8d9d242428319c0b56d", "name": "09b938c4f8dbd8d9d242428319c0b56d", "lat": 38.935569666666666, "fusion_lat": 0.0, "type": "electric_bike", "lon": -77.03702583333333, "is_disabled": 0, "fusion_lon": 0.0, "rental_uris": {"android": "https://dc.lft.to/lastmile_qr_scan", "ios": "https://dc.lft.to/lastmile_qr_scan"}, "is_reserved": 0}, {"bike_id": "038f67736f2fb7bc3773079219750ee7", "name": "038f67736f2fb7bc3773079219750ee7", "lat": 38.921709666666665, "fusion_lat": 0.0, "type": "electric_scooter", "lon": -77.02665166666667, "is_disabled": 0, "fusion_lon": 0.0, "rental_uris": {"android": "https://dc.lft.to/lastmile_qr_scan", "ios": "https://dc.lft.to/lastmile_qr_scan"}, "is_reserved": 0}, {"bike_id": "0007b799266faf3fd8fe1fbc8811c7ea", "name": "0007b799266faf3fd8fe1fbc8811c7ea", "lat": 38.906935833333335, "fusion_lat": 0.0, "type": "electric_scooter", "lon": -77.03624266666667, "is_disabled": 0, "fusion_lon": 0.0, "rental_uris": {"android": "https://dc.lft.to/lastmile_qr_scan", "ios": "https://dc.lft.to/lastmile_qr_scan"}, "is_reserved": 0}, {"bike_id": "2b239c52349de68b5e1a78eb4e79cd33", "name": "2b239c52349de68b5e1a78eb4e79cd33", "lat": 38.89484233333334, "fusion_lat": 0.0, "type": "electric_scooter", "lon": -76.99571366666666, "is_disabled": 0, "fusion_lon": 0.0, "rental_uris": {"android": "https://dc.lft.to/lastmile_qr_scan", "ios": "https://dc.lft.to/lastmile_qr_scan"}, "is_reserved": 0}, {"bike_id": "9f91c421b43930fcc2e4bdab19255f8f", "name": "9f91c421b43930fcc2e4bdab19255f8f", "lat": 38.89879466666667, "fusion_lat": 0.0, "type": "electric_scooter", "lon": -77.0217705, "is_disabled": 0, "fusion_lon": 0.0, "rental_uris": {"android": "https://dc.lft.to/lastmile_qr_scan", "ios": "https://dc.lft.to/lastmile_qr_scan"}, "is_reserved": 0}, {"bike_id": "a2bde376a5e6824a4317a2a90d58ee9a", "name": "a2bde376a5e6824a4317a2a90d58ee9a", "lat": 38.9002625, "fusion_lat": 0.0, "type": "electric_scooter", "lon": -77.0367325, "is_disabled": 0, "fusion_lon": 0.0, "rental_uris": {"android": "https://dc.lft.to/lastmile_qr_scan", "ios": "https://dc.lft.to/lastmile_qr_scan"}, "is_reserved": 0}, {"bike_id": "9b259749e5dd5696c38b51b93ded31a1", "name": "9b259749e5dd5696c38b51b93ded31a1", "lat": 38.88122333333333, "fusion_lat": 0.0, "type": "electric_scooter", "lon": -77.0009745, "is_disabled": 0, "fusion_lon": 0.0, "rental_uris": {"android": "https://dc.lft.to/lastmile_qr_scan", "ios": "https://dc.lft.to/lastmile_qr_scan"}, "is_reserved": 0}, {"bike_id": "38a582dc9a5ed8f9497fe1228c90a18f", "name": "38a582dc9a5ed8f9497fe1228c90a18f", "lat": 38.89354633333333, "fusion_lat": 0.0, "type": "electric_scooter", "lon": -77.01747133333333, "is_disabled": 0, "fusion_lon": 0.0, "rental_uris": {"android": "https://dc.lft.to/lastmile_qr_scan", "ios": "https://dc.lft.to/lastmile_qr_scan"}, "is_reserved": 0}, {"bike_id": "b5ee7b8e70b530ee8bbf11b924d63edb", "name": "b5ee7b8e70b530ee8bbf11b924d63edb", "lat": 38.921681666666665, "fusion_lat": 0.0, "type": "electric_scooter", "lon": -77.03828983333334, "is_disabled": 0, "fusion_lon": 0.0, "rental_uris": {"android": "https://dc.lft.to/lastmile_qr_scan", "ios": "https://dc.lft.to/lastmile_qr_scan"}, "is_reserved": 0}, {"bike_id": "0aa1e23a0d0935f93c518ebfde11531e", "name": "0aa1e23a0d0935f93c518ebfde11531e", "lat": 38.9240225, "fusion_lat": 0.0, "type": "electric_scooter", "lon": -77.042658, "is_disabled": 0, "fusion_lon": 0.0, "rental_uris": {"android": "https://dc.lft.to/lastmile_qr_scan", "ios": "https://dc.lft.to/lastmile_qr_scan"}, "is_reserved": 0}, {"bike_id": "88e867b012549f4adcccd1b1b9c037ad", "name": "88e867b012549f4adcccd1b1b9c037ad", "lat": 38.900405, "fusion_lat": 0.0, "type": "electric_scooter", "lon": -77.029599, "is_disabled": 0, "fusion_lon": 0.0, "rental_uris": {"android": "https://dc.lft.to/lastmile_qr_scan", "ios": "https://dc.lft.to/lastmile_qr_scan"}, "is_reserved": 0}, {"bike_id": "335f955f75ff7e3dbff2e550f8c3f9e9", "name": "335f955f75ff7e3dbff2e550f8c3f9e9", "lat": 38.898913666666665, "fusion_lat": 0.0, "type": "electric_scooter", "lon": -77.0073955, "is_disabled": 0, "fusion_lon": 0.0, "rental_uris": {"android": "https://dc.lft.to/lastmile_qr_scan", "ios": "https://dc.lft.to/lastmile_qr_scan"}, "is_reserved": 0}, {"bike_id": "3725b01588c1561d8a9fa26b1f120b83", "name": "3725b01588c1561d8a9fa26b1f120b83", "lat": 38.8944165, "fusion_lat": 0.0, "type": "electric_scooter", "lon": -77.0263235, "is_disabled": 0, "fusion_lon": 0.0, "rental_uris": {"android": "https://dc.lft.to/lastmile_qr_scan", "ios": "https://dc.lft.to/lastmile_qr_scan"}, "is_reserved": 0}, {"bike_id": "0757917b903d3729bfa5e7b1cef39492", "name": "0757917b903d3729bfa5e7b1cef39492", "lat": 38.908968333333334, "fusion_lat": 0.0, "type": "electric_scooter", "lon": -76.996191, "is_disabled": 0, "fusion_lon": 0.0, "rental_uris": {"android": "https://dc.lft.to/lastmile_qr_scan", "ios": "https://dc.lft.to/lastmile_qr_scan"}, "is_reserved": 0}, {"bike_id": "33f79a1b1b5962f0e930a63d19f39c0d", "name": "33f79a1b1b5962f0e930a63d19f39c0d", "lat": 38.965178333333334, "fusion_lat": 0.0, "type": "electric_scooter", "lon": -77.00195183333334, "is_disabled": 0, "fusion_lon": 0.0, "rental_uris": {"android": "https://dc.lft.to/lastmile_qr_scan", "ios": "https://dc.lft.to/lastmile_qr_scan"}, "is_reserved": 0}, {"bike_id": "ba72ed3ead2a3b872cc4aa92e98fc5d8", "name": "ba72ed3ead2a3b872cc4aa92e98fc5d8", "lat": 38.921424, "fusion_lat": 0.0, "type": "electric_scooter", "lon": -77.0182315, "is_disabled": 0, "fusion_lon": 0.0, "rental_uris": {"android": "https://dc.lft.to/lastmile_qr_scan", "ios": "https://dc.lft.to/lastmile_qr_scan"}, "is_reserved": 0}, {"bike_id": "d4cf14f7fc20b85dad199db8732eb014", "name": "d4cf14f7fc20b85dad199db8732eb014", "lat": 38.926287, "fusion_lat": 0.0, "type": "electric_scooter", "lon": -77.0425135, "is_disabled": 0, "fusion_lon": 0.0, "rental_uris": {"android": "https://dc.lft.to/lastmile_qr_scan", "ios": "https://dc.lft.to/lastmile_qr_scan"}, "is_reserved": 0}, {"bike_id": "b92105138df283aee83b2c06e253a124", "name": "b92105138df283aee83b2c06e253a124", "lat": 38.943250666666664, "fusion_lat": 0.0, "type": "electric_scooter", "lon": -77.0125545, "is_disabled": 0, "fusion_lon": 0.0, "rental_uris": {"android": "https://dc.lft.to/lastmile_qr_scan", "ios": "https://dc.lft.to/lastmile_qr_scan"}, "is_reserved": 0}, {"bike_id": "82e468777886c16151df8a2225d8b8d4", "name": "82e468777886c16151df8a2225d8b8d4", "lat": 38.9011685, "fusion_lat": 0.0, "type": "electric_scooter", "lon": -77.03811666666667, "is_disabled": 0, "fusion_lon": 0.0, "rental_uris": {"android": "https://dc.lft.to/lastmile_qr_scan", "ios": "https://dc.lft.to/lastmile_qr_scan"}, "is_reserved": 0}, {"bike_id": "86fc7e0ac5436c66349cb5a92d527062", "name": "86fc7e0ac5436c66349cb5a92d527062", "lat": 38.8851825, "fusion_lat": 0.0, "type": "electric_scooter", "lon": -76.97713033333333, "is_disabled": 0, "fusion_lon": 0.0, "rental_uris": {"android": "https://dc.lft.to/lastmile_qr_scan", "ios": "https://dc.lft.to/lastmile_qr_scan"}, "is_reserved": 0}, {"bike_id": "d56b52f0d668d9498e8969ebce66ecf5", "name": "d56b52f0d668d9498e8969ebce66ecf5", "lat": 38.899862166666665, "fusion_lat": 0.0, "type": "electric_bike", "lon": -76.98038616666666, "is_disabled": 0, "fusion_lon": 0.0, "rental_uris": {"android": "https://dc.lft.to/lastmile_qr_scan", "ios": "https://dc.lft.to/lastmile_qr_scan"}, "is_reserved": 0}, {"bike_id": "c67e6e7f623e781acc79b1235deaca3c", "name": "c67e6e7f623e781acc79b1235deaca3c", "lat": 38.903142333333335, "fusion_lat": 0.0, "type": "electric_scooter", "lon": -77.04970733333333, "is_disabled": 0, "fusion_lon": 0.0, "rental_uris": {"android": "https://dc.lft.to/lastmile_qr_scan", "ios": "https://dc.lft.to/lastmile_qr_scan"}, "is_reserved": 0}, {"bike_id": "1ba5967066e5f0af9a9e435252261e1f", "name": "1ba5967066e5f0af9a9e435252261e1f", "lat": 38.90896, "fusion_lat": 0.0, "type": "electric_scooter", "lon": -77.023899, "is_disabled": 0, "fusion_lon": 0.0, "rental_uris": {"android": "https://dc.lft.to/lastmile_qr_scan", "ios": "https://dc.lft.to/lastmile_qr_scan"}, "is_reserved": 0}, {"bike_id": "165ba8506b798de19e893c5dfe3d7347", "name": "165ba8506b798de19e893c5dfe3d7347", "lat": 38.859475333333336, "fusion_lat": 0.0, "type": "electric_scooter", "lon": -76.99148816666667, "is_disabled": 0, "fusion_lon": 0.0, "rental_uris": {"android": "https://dc.lft.to/lastmile_qr_scan", "ios": "https://dc.lft.to/lastmile_qr_scan"}, "is_reserved": 0}, {"bike_id": "76372f4c0c0ccb258b52307fec223b67", "name": "76372f4c0c0ccb258b52307fec223b67", "lat": 38.960320333333335, "fusion_lat": 0.0, "type": "electric_scooter", "lon": -77.02430966666667, "is_disabled": 0, "fusion_lon": 0.0, "rental_uris": {"android": "https://dc.lft.to/lastmile_qr_scan", "ios": "https://dc.lft.to/lastmile_qr_scan"}, "is_reserved": 0}, {"bike_id": "aefb776ac4bb19fe07f7eef63f2555ce", "name": "aefb776ac4bb19fe07f7eef63f2555ce", "lat": 38.87997, "fusion_lat": 0.0, "type": "electric_scooter", "lon": -76.9854275, "is_disabled": 0, "fusion_lon": 0.0, "rental_uris": {"android": "https://dc.lft.to/lastmile_qr_scan", "ios": "https://dc.lft.to/lastmile_qr_scan"}, "is_reserved": 0}, {"bike_id": "4a3f986caacb30f090e54250de76046e", "name": "4a3f986caacb30f090e54250de76046e", "lat": 38.93496116666667, "fusion_lat": 0.0, "type": "electric_scooter", "lon": -77.027305, "is_disabled": 0, "fusion_lon": 0.0, "rental_uris": {"android": "https://dc.lft.to/lastmile_qr_scan", "ios": "https://dc.lft.to/lastmile_qr_scan"}, "is_reserved": 0}, {"bike_id": "65116c7b695cec9b4197907df8abd3f2", "name": "65116c7b695cec9b4197907df8abd3f2", "lat": 38.923328166666664, "fusion_lat": 0.0, "type": "electric_scooter", "lon": -77.0089205, "is_disabled": 0, "fusion_lon": 0.0, "rental_uris": {"android": "https://dc.lft.to/lastmile_qr_scan", "ios": "https://dc.lft.to/lastmile_qr_scan"}, "is_reserved": 0}, {"bike_id": "857fb1ca973182f9142a2828c2c58900", "name": "857fb1ca973182f9142a2828c2c58900", "lat": 38.9300125, "fusion_lat": 0.0, "type": "electric_scooter", "lon": -77.0211615, "is_disabled": 0, "fusion_lon": 0.0, "rental_uris": {"android": "https://dc.lft.to/lastmile_qr_scan", "ios": "https://dc.lft.to/lastmile_qr_scan"}, "is_reserved": 0}, {"bike_id": "f8e6741a7c5ceb57248be64c87216247", "name": "f8e6741a7c5ceb57248be64c87216247", "lat": 38.900358, "fusion_lat": 0.0, "type": "electric_scooter", "lon": -77.02724616666667, "is_disabled": 0, "fusion_lon": 0.0, "rental_uris": {"android": "https://dc.lft.to/lastmile_qr_scan", "ios": "https://dc.lft.to/lastmile_qr_scan"}, "is_reserved": 0}, {"bike_id": "be1daa5792475fdf833aae09fb5dcc64", "name": "be1daa5792475fdf833aae09fb5dcc64", "lat": 38.9413035, "fusion_lat": 0.0, "type": "electric_scooter", "lon": -77.06182116666666, "is_disabled": 0, "fusion_lon": 0.0, "rental_uris": {"android": "https://dc.lft.to/lastmile_qr_scan", "ios": "https://dc.lft.to/lastmile_qr_scan"}, "is_reserved": 0}, {"bike_id": "4ea69b3a8a4cdd81abc475cebcf6e31c", "name": "4ea69b3a8a4cdd81abc475cebcf6e31c", "lat": 38.90258716666666, "fusion_lat": 0.0, "type": "electric_scooter", "lon": -77.04595066666667, "is_disabled": 0, "fusion_lon": 0.0, "rental_uris": {"android": "https://dc.lft.to/lastmile_qr_scan", "ios": "https://dc.lft.to/lastmile_qr_scan"}, "is_reserved": 0}, {"bike_id": "f64825392019c49df0d6139fdb031596", "name": "f64825392019c49df0d6139fdb031596", "lat": 38.90215216666667, "fusion_lat": 0.0, "type": "electric_scooter", "lon": -77.02436883333333, "is_disabled": 0, "fusion_lon": 0.0, "rental_uris": {"android": "https://dc.lft.to/lastmile_qr_scan", "ios": "https://dc.lft.to/lastmile_qr_scan"}, "is_reserved": 0}, {"bike_id": "25fc615b94d3f04c60eded07ae99ef85", "name": "25fc615b94d3f04c60eded07ae99ef85", "lat": 38.90117216666667, "fusion_lat": 0.0, "type": "electric_scooter", "lon": -77.03865266666666, "is_disabled": 0, "fusion_lon": 0.0, "rental_uris": {"android": "https://dc.lft.to/lastmile_qr_scan", "ios": "https://dc.lft.to/lastmile_qr_scan"}, "is_reserved": 0}, {"bike_id": "a53de6d7186c89a1b783a52b6b174c29", "name": "a53de6d7186c89a1b783a52b6b174c29", "lat": 38.939788666666665, "fusion_lat": 0.0, "type": "electric_scooter", "lon": -77.035702, "is_disabled": 0, "fusion_lon": 0.0, "rental_uris": {"android": "https://dc.lft.to/lastmile_qr_scan", "ios": "https://dc.lft.to/lastmile_qr_scan"}, "is_reserved": 0}, {"bike_id": "f353f33848e8b12d73de2c1fc828e309", "name": "f353f33848e8b12d73de2c1fc828e309", "lat": 38.79334216666667, "fusion_lat": 0.0, "type": "electric_bike", "lon": -77.0006115, "is_disabled": 0, "fusion_lon": 0.0, "rental_uris": {"android": "https://dc.lft.to/lastmile_qr_scan", "ios": "https://dc.lft.to/lastmile_qr_scan"}, "is_reserved": 0}, {"bike_id": "48fa69c37dc218ecff63bffa639db13a", "name": "48fa69c37dc218ecff63bffa639db13a", "lat": 38.893127, "fusion_lat": 0.0, "type": "electric_scooter", "lon": -76.92114083333334, "is_disabled": 0, "fusion_lon": 0.0, "rental_uris": {"android": "https://dc.lft.to/lastmile_qr_scan", "ios": "https://dc.lft.to/lastmile_qr_scan"}, "is_reserved": 0}, {"bike_id": "990bcdc1e2a9415458c7c5d2a24ae01a", "name": "990bcdc1e2a9415458c7c5d2a24ae01a", "lat": 38.899378666666664, "fusion_lat": 0.0, "type": "electric_scooter", "lon": -76.97706266666667, "is_disabled": 0, "fusion_lon": 0.0, "rental_uris": {"android": "https://dc.lft.to/lastmile_qr_scan", "ios": "https://dc.lft.to/lastmile_qr_scan"}, "is_reserved": 0}, {"bike_id": "6eff36058e1aeba15bb698edc50bcb14", "name": "6eff36058e1aeba15bb698edc50bcb14", "lat": 38.92005366666667, "fusion_lat": 0.0, "type": "electric_scooter", "lon": -77.0712535, "is_disabled": 0, "fusion_lon": 0.0, "rental_uris": {"android": "https://dc.lft.to/lastmile_qr_scan", "ios": "https://dc.lft.to/lastmile_qr_scan"}, "is_reserved": 0}, {"bike_id": "c20b16170ef13323123d70203bda61de", "name": "c20b16170ef13323123d70203bda61de", "lat": 38.89857683333334, "fusion_lat": 0.0, "type": "electric_scooter", "lon": -77.04886833333333, "is_disabled": 0, "fusion_lon": 0.0, "rental_uris": {"android": "https://dc.lft.to/lastmile_qr_scan", "ios": "https://dc.lft.to/lastmile_qr_scan"}, "is_reserved": 0}, {"bike_id": "46796328176df5f34348f9b9fce533e6", "name": "46796328176df5f34348f9b9fce533e6", "lat": 38.920226166666666, "fusion_lat": 0.0, "type": "electric_scooter", "lon": -77.017964, "is_disabled": 0, "fusion_lon": 0.0, "rental_uris": {"android": "https://dc.lft.to/lastmile_qr_scan", "ios": "https://dc.lft.to/lastmile_qr_scan"}, "is_reserved": 0}, {"bike_id": "e4cf71115b7f25fb746af5a9b6e89288", "name": "e4cf71115b7f25fb746af5a9b6e89288", "lat": 38.900197, "fusion_lat": 0.0, "type": "electric_scooter", "lon": -77.00312633333333, "is_disabled": 0, "fusion_lon": 0.0, "rental_uris": {"android": "https://dc.lft.to/lastmile_qr_scan", "ios": "https://dc.lft.to/lastmile_qr_scan"}, "is_reserved": 0}, {"bike_id": "3f2e2802fbe616b07b21a695aada8be7", "name": "3f2e2802fbe616b07b21a695aada8be7", "lat": 38.92018766666666, "fusion_lat": 0.0, "type": "electric_scooter", "lon": -77.031226, "is_disabled": 0, "fusion_lon": 0.0, "rental_uris": {"android": "https://dc.lft.to/lastmile_qr_scan", "ios": "https://dc.lft.to/lastmile_qr_scan"}, "is_reserved": 0}, {"bike_id": "e95a42ebe9694165f07a0ede508d19a9", "name": "e95a42ebe9694165f07a0ede508d19a9", "lat": 38.995197833333336, "fusion_lat": 0.0, "type": "electric_bike", "lon": -77.037815, "is_disabled": 0, "fusion_lon": 0.0, "rental_uris": {"android": "https://dc.lft.to/lastmile_qr_scan", "ios": "https://dc.lft.to/lastmile_qr_scan"}, "is_reserved": 0}, {"bike_id": "d996738022d5f8602a37d446e8785155", "name": "d996738022d5f8602a37d446e8785155", "lat": 38.9191065, "fusion_lat": 0.0, "type": "electric_scooter", "lon": -77.03339216666667, "is_disabled": 0, "fusion_lon": 0.0, "rental_uris": {"android": "https://dc.lft.to/lastmile_qr_scan", "ios": "https://dc.lft.to/lastmile_qr_scan"}, "is_reserved": 0}, {"bike_id": "bbf0fa1b5095b570331f482495a06eae", "name": "bbf0fa1b5095b570331f482495a06eae", "lat": 38.863739333333335, "fusion_lat": 0.0, "type": "electric_scooter", "lon": -76.99058683333334, "is_disabled": 0, "fusion_lon": 0.0, "rental_uris": {"android": "https://dc.lft.to/lastmile_qr_scan", "ios": "https://dc.lft.to/lastmile_qr_scan"}, "is_reserved": 0}, {"bike_id": "6ce1a8deb2d7ff3b128405eec1e82d55", "name": "6ce1a8deb2d7ff3b128405eec1e82d55", "lat": 38.91217533333333, "fusion_lat": 0.0, "type": "electric_scooter", "lon": -77.064197, "is_disabled": 0, "fusion_lon": 0.0, "rental_uris": {"android": "https://dc.lft.to/lastmile_qr_scan", "ios": "https://dc.lft.to/lastmile_qr_scan"}, "is_reserved": 0}, {"bike_id": "d6522a50b94b4262dcf8e4854fb2c173", "name": "d6522a50b94b4262dcf8e4854fb2c173", "lat": 38.9057365, "fusion_lat": 0.0, "type": "electric_scooter", "lon": -77.00786233333334, "is_disabled": 0, "fusion_lon": 0.0, "rental_uris": {"android": "https://dc.lft.to/lastmile_qr_scan", "ios": "https://dc.lft.to/lastmile_qr_scan"}, "is_reserved": 0}, {"bike_id": "c338e60b298b8096c1348ba0a92bf82d", "name": "c338e60b298b8096c1348ba0a92bf82d", "lat": 38.8991485, "fusion_lat": 0.0, "type": "electric_scooter", "lon": -77.03981216666666, "is_disabled": 0, "fusion_lon": 0.0, "rental_uris": {"android": "https://dc.lft.to/lastmile_qr_scan", "ios": "https://dc.lft.to/lastmile_qr_scan"}, "is_reserved": 0}, {"bike_id": "358f21e6ea706dfab6cc1d663bd18f64", "name": "358f21e6ea706dfab6cc1d663bd18f64", "lat": 38.91984, "fusion_lat": 0.0, "type": "electric_scooter", "lon": -77.03306716666667, "is_disabled": 0, "fusion_lon": 0.0, "rental_uris": {"android": "https://dc.lft.to/lastmile_qr_scan", "ios": "https://dc.lft.to/lastmile_qr_scan"}, "is_reserved": 0}, {"bike_id": "ba148a07e35cb8ee6446dcecdfc1e116", "name": "ba148a07e35cb8ee6446dcecdfc1e116", "lat": 38.92688483333333, "fusion_lat": 0.0, "type": "electric_scooter", "lon": -77.02580033333334, "is_disabled": 0, "fusion_lon": 0.0, "rental_uris": {"android": "https://dc.lft.to/lastmile_qr_scan", "ios": "https://dc.lft.to/lastmile_qr_scan"}, "is_reserved": 0}, {"bike_id": "fd27f85e2778f64ce1560dd55840ff34", "name": "fd27f85e2778f64ce1560dd55840ff34", "lat": 38.883626166666666, "fusion_lat": 0.0, "type": "electric_scooter", "lon": -76.98820116666667, "is_disabled": 0, "fusion_lon": 0.0, "rental_uris": {"android": "https://dc.lft.to/lastmile_qr_scan", "ios": "https://dc.lft.to/lastmile_qr_scan"}, "is_reserved": 0}, {"bike_id": "065a5a5d70b74f28ae8fa34ed3646f59", "name": "065a5a5d70b74f28ae8fa34ed3646f59", "lat": 38.90036816666667, "fusion_lat": 0.0, "type": "electric_scooter", "lon": -77.01212883333334, "is_disabled": 0, "fusion_lon": 0.0, "rental_uris": {"android": "https://dc.lft.to/lastmile_qr_scan", "ios": "https://dc.lft.to/lastmile_qr_scan"}, "is_reserved": 0}, {"bike_id": "5e89c105c9e4cf3060c6370d45551436", "name": "5e89c105c9e4cf3060c6370d45551436", "lat": 38.9041295, "fusion_lat": 0.0, "type": "electric_scooter", "lon": -77.0259285, "is_disabled": 0, "fusion_lon": 0.0, "rental_uris": {"android": "https://dc.lft.to/lastmile_qr_scan", "ios": "https://dc.lft.to/lastmile_qr_scan"}, "is_reserved": 0}, {"bike_id": "945c34efe3af92d4f27649ec61f79d9d", "name": "945c34efe3af92d4f27649ec61f79d9d", "lat": 38.93762433333333, "fusion_lat": 0.0, "type": "electric_scooter", "lon": -77.024596, "is_disabled": 0, "fusion_lon": 0.0, "rental_uris": {"android": "https://dc.lft.to/lastmile_qr_scan", "ios": "https://dc.lft.to/lastmile_qr_scan"}, "is_reserved": 0}, {"bike_id": "ad907cf5367772280ffd77686596b4c8", "name": "ad907cf5367772280ffd77686596b4c8", "lat": 38.89495266666667, "fusion_lat": 0.0, "type": "electric_scooter", "lon": -77.0214185, "is_disabled": 0, "fusion_lon": 0.0, "rental_uris": {"android": "https://dc.lft.to/lastmile_qr_scan", "ios": "https://dc.lft.to/lastmile_qr_scan"}, "is_reserved": 0}, {"bike_id": "6523ae02db57d64601acc085935a8c22", "name": "6523ae02db57d64601acc085935a8c22", "lat": 38.93755633333333, "fusion_lat": 0.0, "type": "electric_scooter", "lon": -77.02834216666666, "is_disabled": 0, "fusion_lon": 0.0, "rental_uris": {"android": "https://dc.lft.to/lastmile_qr_scan", "ios": "https://dc.lft.to/lastmile_qr_scan"}, "is_reserved": 0}, {"bike_id": "4caa6d3f3562b2060735f6eeca5b2784", "name": "4caa6d3f3562b2060735f6eeca5b2784", "lat": 38.89353716666667, "fusion_lat": 0.0, "type": "electric_scooter", "lon": -77.00337183333333, "is_disabled": 0, "fusion_lon": 0.0, "rental_uris": {"android": "https://dc.lft.to/lastmile_qr_scan", "ios": "https://dc.lft.to/lastmile_qr_scan"}, "is_reserved": 0}, {"bike_id": "be575b9c9e26c5bb3e9893b800a62162", "name": "be575b9c9e26c5bb3e9893b800a62162", "lat": 38.903643833333334, "fusion_lat": 0.0, "type": "electric_scooter", "lon": -76.98491933333334, "is_disabled": 0, "fusion_lon": 0.0, "rental_uris": {"android": "https://dc.lft.to/lastmile_qr_scan", "ios": "https://dc.lft.to/lastmile_qr_scan"}, "is_reserved": 0}, {"bike_id": "c8f1a1a124aacd3ab922b0de21ed2dd1", "name": "c8f1a1a124aacd3ab922b0de21ed2dd1", "lat": 38.89707216666667, "fusion_lat": 0.0, "type": "electric_scooter", "lon": -76.99116, "is_disabled": 0, "fusion_lon": 0.0, "rental_uris": {"android": "https://dc.lft.to/lastmile_qr_scan", "ios": "https://dc.lft.to/lastmile_qr_scan"}, "is_reserved": 0}, {"bike_id": "a484ed1291565edced13d412b89d7f57", "name": "a484ed1291565edced13d412b89d7f57", "lat": 38.90365116666667, "fusion_lat": 0.0, "type": "electric_scooter", "lon": -77.05011083333333, "is_disabled": 0, "fusion_lon": 0.0, "rental_uris": {"android": "https://dc.lft.to/lastmile_qr_scan", "ios": "https://dc.lft.to/lastmile_qr_scan"}, "is_reserved": 0}, {"bike_id": "731a2b349a22ae435a4e9e5c30e63cfd", "name": "731a2b349a22ae435a4e9e5c30e63cfd", "lat": 38.93637483333333, "fusion_lat": 0.0, "type": "electric_scooter", "lon": -77.0600575, "is_disabled": 0, "fusion_lon": 0.0, "rental_uris": {"android": "https://dc.lft.to/lastmile_qr_scan", "ios": "https://dc.lft.to/lastmile_qr_scan"}, "is_reserved": 0}, {"bike_id": "937a6c68af269e3d5ca4eafb3d90fc77", "name": "937a6c68af269e3d5ca4eafb3d90fc77", "lat": 38.90376716666667, "fusion_lat": 0.0, "type": "electric_scooter", "lon": -76.998548, "is_disabled": 0, "fusion_lon": 0.0, "rental_uris": {"android": "https://dc.lft.to/lastmile_qr_scan", "ios": "https://dc.lft.to/lastmile_qr_scan"}, "is_reserved": 0}, {"bike_id": "dd6e99c9489e8a5461900a935fc0e542", "name": "dd6e99c9489e8a5461900a935fc0e542", "lat": 38.864472666666664, "fusion_lat": 0.0, "type": "electric_scooter", "lon": -76.9912135, "is_disabled": 0, "fusion_lon": 0.0, "rental_uris": {"android": "https://dc.lft.to/lastmile_qr_scan", "ios": "https://dc.lft.to/lastmile_qr_scan"}, "is_reserved": 0}, {"bike_id": "46201196779a3651ffbebbb1a50af0d8", "name": "46201196779a3651ffbebbb1a50af0d8", "lat": 39.09442466666667, "fusion_lat": 0.0, "type": "electric_bike", "lon": -77.13465866666667, "is_disabled": 0, "fusion_lon": 0.0, "rental_uris": {"android": "https://dc.lft.to/lastmile_qr_scan", "ios": "https://dc.lft.to/lastmile_qr_scan"}, "is_reserved": 0}, {"bike_id": "2b5449499e441d5b4f9ce57d30b8ee67", "name": "2b5449499e441d5b4f9ce57d30b8ee67", "lat": 38.895589666666666, "fusion_lat": 0.0, "type": "electric_scooter", "lon": -77.0299245, "is_disabled": 0, "fusion_lon": 0.0, "rental_uris": {"android": "https://dc.lft.to/lastmile_qr_scan", "ios": "https://dc.lft.to/lastmile_qr_scan"}, "is_reserved": 0}, {"bike_id": "b51898dcc041446e77ad9a76761710ab", "name": "b51898dcc041446e77ad9a76761710ab", "lat": 38.92068016666666, "fusion_lat": 0.0, "type": "electric_scooter", "lon": -77.04378383333334, "is_disabled": 0, "fusion_lon": 0.0, "rental_uris": {"android": "https://dc.lft.to/lastmile_qr_scan", "ios": "https://dc.lft.to/lastmile_qr_scan"}, "is_reserved": 0}, {"bike_id": "6da1848f98f84143d31cbcfc7c6744f7", "name": "6da1848f98f84143d31cbcfc7c6744f7", "lat": 38.917059333333334, "fusion_lat": 0.0, "type": "electric_scooter", "lon": -77.0107545, "is_disabled": 0, "fusion_lon": 0.0, "rental_uris": {"android": "https://dc.lft.to/lastmile_qr_scan", "ios": "https://dc.lft.to/lastmile_qr_scan"}, "is_reserved": 0}, {"bike_id": "c88ba93bcde36dd60d87cc9c9c905081", "name": "c88ba93bcde36dd60d87cc9c9c905081", "lat": 38.92992016666667, "fusion_lat": 0.0, "type": "electric_scooter", "lon": -77.03797683333333, "is_disabled": 0, "fusion_lon": 0.0, "rental_uris": {"android": "https://dc.lft.to/lastmile_qr_scan", "ios": "https://dc.lft.to/lastmile_qr_scan"}, "is_reserved": 0}, {"bike_id": "cbfc5be0b238d0fc6adc00a2e2cbc6ca", "name": "cbfc5be0b238d0fc6adc00a2e2cbc6ca", "lat": 38.91686083333333, "fusion_lat": 0.0, "type": "electric_scooter", "lon": -77.03196816666667, "is_disabled": 0, "fusion_lon": 0.0, "rental_uris": {"android": "https://dc.lft.to/lastmile_qr_scan", "ios": "https://dc.lft.to/lastmile_qr_scan"}, "is_reserved": 0}, {"bike_id": "62daec5c1f8cb5f22e33f2d4c3e1492c", "name": "62daec5c1f8cb5f22e33f2d4c3e1492c", "lat": 38.92665916666667, "fusion_lat": 0.0, "type": "electric_scooter", "lon": -77.02759, "is_disabled": 0, "fusion_lon": 0.0, "rental_uris": {"android": "https://dc.lft.to/lastmile_qr_scan", "ios": "https://dc.lft.to/lastmile_qr_scan"}, "is_reserved": 0}, {"bike_id": "08f55f3f88bea73bf75e78294132996b", "name": "08f55f3f88bea73bf75e78294132996b", "lat": 38.914938666666664, "fusion_lat": 0.0, "type": "electric_scooter", "lon": -77.01998916666666, "is_disabled": 0, "fusion_lon": 0.0, "rental_uris": {"android": "https://dc.lft.to/lastmile_qr_scan", "ios": "https://dc.lft.to/lastmile_qr_scan"}, "is_reserved": 0}, {"bike_id": "8a89d4a5927941a703f50a7dc2f20d84", "name": "8a89d4a5927941a703f50a7dc2f20d84", "lat": 38.91419233333333, "fusion_lat": 0.0, "type": "electric_scooter", "lon": -77.01805433333334, "is_disabled": 0, "fusion_lon": 0.0, "rental_uris": {"android": "https://dc.lft.to/lastmile_qr_scan", "ios": "https://dc.lft.to/lastmile_qr_scan"}, "is_reserved": 0}, {"bike_id": "6f3d9c4413c8837aaff4664114fc0176", "name": "6f3d9c4413c8837aaff4664114fc0176", "lat": 38.940809, "fusion_lat": 0.0, "type": "electric_scooter", "lon": -77.03330966666667, "is_disabled": 0, "fusion_lon": 0.0, "rental_uris": {"android": "https://dc.lft.to/lastmile_qr_scan", "ios": "https://dc.lft.to/lastmile_qr_scan"}, "is_reserved": 0}, {"bike_id": "aaa08a476f5095420919f5f92bc173f1", "name": "aaa08a476f5095420919f5f92bc173f1", "lat": 38.92370283333333, "fusion_lat": 0.0, "type": "electric_scooter", "lon": -77.08056616666667, "is_disabled": 0, "fusion_lon": 0.0, "rental_uris": {"android": "https://dc.lft.to/lastmile_qr_scan", "ios": "https://dc.lft.to/lastmile_qr_scan"}, "is_reserved": 0}, {"bike_id": "d6305a891f6f420d7faf5dd6ed86be92", "name": "d6305a891f6f420d7faf5dd6ed86be92", "lat": 38.97491733333333, "fusion_lat": 0.0, "type": "electric_scooter", "lon": -77.0169945, "is_disabled": 0, "fusion_lon": 0.0, "rental_uris": {"android": "https://dc.lft.to/lastmile_qr_scan", "ios": "https://dc.lft.to/lastmile_qr_scan"}, "is_reserved": 0}, {"bike_id": "51501b7bc739e6ae80b23baca769ad92", "name": "51501b7bc739e6ae80b23baca769ad92", "lat": 38.90649783333333, "fusion_lat": 0.0, "type": "electric_scooter", "lon": -77.0436325, "is_disabled": 0, "fusion_lon": 0.0, "rental_uris": {"android": "https://dc.lft.to/lastmile_qr_scan", "ios": "https://dc.lft.to/lastmile_qr_scan"}, "is_reserved": 0}, {"bike_id": "2194d8151827114e13684e91c83177f1", "name": "2194d8151827114e13684e91c83177f1", "lat": 38.90522766666667, "fusion_lat": 0.0, "type": "electric_scooter", "lon": -77.0402165, "is_disabled": 0, "fusion_lon": 0.0, "rental_uris": {"android": "https://dc.lft.to/lastmile_qr_scan", "ios": "https://dc.lft.to/lastmile_qr_scan"}, "is_reserved": 0}, {"bike_id": "459b0493bc3782c4f5284fb8869e73d1", "name": "459b0493bc3782c4f5284fb8869e73d1", "lat": 38.92452516666667, "fusion_lat": 0.0, "type": "electric_scooter", "lon": -77.021612, "is_disabled": 0, "fusion_lon": 0.0, "rental_uris": {"android": "https://dc.lft.to/lastmile_qr_scan", "ios": "https://dc.lft.to/lastmile_qr_scan"}, "is_reserved": 0}, {"bike_id": "3972b0635e34d22c00a5720631928d62", "name": "3972b0635e34d22c00a5720631928d62", "lat": 38.9174415, "fusion_lat": 0.0, "type": "electric_scooter", "lon": -77.04161683333334, "is_disabled": 0, "fusion_lon": 0.0, "rental_uris": {"android": "https://dc.lft.to/lastmile_qr_scan", "ios": "https://dc.lft.to/lastmile_qr_scan"}, "is_reserved": 0}, {"bike_id": "992e0d7b45610bf94305f326b22f55fa", "name": "992e0d7b45610bf94305f326b22f55fa", "lat": 38.864991333333336, "fusion_lat": 0.0, "type": "electric_scooter", "lon": -76.9806025, "is_disabled": 0, "fusion_lon": 0.0, "rental_uris": {"android": "https://dc.lft.to/lastmile_qr_scan", "ios": "https://dc.lft.to/lastmile_qr_scan"}, "is_reserved": 0}, {"bike_id": "2871c31a89fadaab656746f7db8235e5", "name": "2871c31a89fadaab656746f7db8235e5", "lat": 38.9453925, "fusion_lat": 0.0, "type": "electric_bike", "lon": -77.344565, "is_disabled": 0, "fusion_lon": 0.0, "rental_uris": {"android": "https://dc.lft.to/lastmile_qr_scan", "ios": "https://dc.lft.to/lastmile_qr_scan"}, "is_reserved": 0}, {"bike_id": "7a48d15dd847206d0423cb240ee6c58e", "name": "7a48d15dd847206d0423cb240ee6c58e", "lat": 38.893506, "fusion_lat": 0.0, "type": "electric_scooter", "lon": -77.00339583333333, "is_disabled": 0, "fusion_lon": 0.0, "rental_uris": {"android": "https://dc.lft.to/lastmile_qr_scan", "ios": "https://dc.lft.to/lastmile_qr_scan"}, "is_reserved": 0}, {"bike_id": "f62e8406991ec2809a860a93753fd884", "name": "f62e8406991ec2809a860a93753fd884", "lat": 38.924824, "fusion_lat": 0.0, "type": "electric_scooter", "lon": -77.027137, "is_disabled": 0, "fusion_lon": 0.0, "rental_uris": {"android": "https://dc.lft.to/lastmile_qr_scan", "ios": "https://dc.lft.to/lastmile_qr_scan"}, "is_reserved": 0}, {"bike_id": "c91b9b72e939d29de61ce47d118bbbc4", "name": "c91b9b72e939d29de61ce47d118bbbc4", "lat": 38.90031833333333, "fusion_lat": 0.0, "type": "electric_scooter", "lon": -77.00630383333333, "is_disabled": 0, "fusion_lon": 0.0, "rental_uris": {"android": "https://dc.lft.to/lastmile_qr_scan", "ios": "https://dc.lft.to/lastmile_qr_scan"}, "is_reserved": 0}, {"bike_id": "02e6cc908d19989487b8c473ee144be4", "name": "02e6cc908d19989487b8c473ee144be4", "lat": 38.901451333333334, "fusion_lat": 0.0, "type": "electric_bike", "lon": -77.02288533333333, "is_disabled": 0, "fusion_lon": 0.0, "rental_uris": {"android": "https://dc.lft.to/lastmile_qr_scan", "ios": "https://dc.lft.to/lastmile_qr_scan"}, "is_reserved": 0}, {"bike_id": "f3d91884d8d7fadd46332aac019426f2", "name": "f3d91884d8d7fadd46332aac019426f2", "lat": 39.08428466666667, "fusion_lat": 0.0, "type": "electric_bike", "lon": -76.95149883333333, "is_disabled": 0, "fusion_lon": 0.0, "rental_uris": {"android": "https://dc.lft.to/lastmile_qr_scan", "ios": "https://dc.lft.to/lastmile_qr_scan"}, "is_reserved": 0}, {"bike_id": "64cc7d643626612203e5dbc112ad1144", "name": "64cc7d643626612203e5dbc112ad1144", "lat": 38.886587, "fusion_lat": 0.0, "type": "electric_scooter", "lon": -76.93673766666667, "is_disabled": 0, "fusion_lon": 0.0, "rental_uris": {"android": "https://dc.lft.to/lastmile_qr_scan", "ios": "https://dc.lft.to/lastmile_qr_scan"}, "is_reserved": 0}, {"bike_id": "c4d81b16dfced67a520e4140c45f8320", "name": "c4d81b16dfced67a520e4140c45f8320", "lat": 38.924247333333334, "fusion_lat": 0.0, "type": "electric_scooter", "lon": -77.02252033333333, "is_disabled": 0, "fusion_lon": 0.0, "rental_uris": {"android": "https://dc.lft.to/lastmile_qr_scan", "ios": "https://dc.lft.to/lastmile_qr_scan"}, "is_reserved": 0}, {"bike_id": "ed59b2034d45daf92e7cf5307f08e393", "name": "ed59b2034d45daf92e7cf5307f08e393", "lat": 38.90735166666666, "fusion_lat": 0.0, "type": "electric_scooter", "lon": -77.03217533333333, "is_disabled": 0, "fusion_lon": 0.0, "rental_uris": {"android": "https://dc.lft.to/lastmile_qr_scan", "ios": "https://dc.lft.to/lastmile_qr_scan"}, "is_reserved": 0}, {"bike_id": "df8e22113ac0dbcf5e8064f2bda6d3c3", "name": "df8e22113ac0dbcf5e8064f2bda6d3c3", "lat": 38.92423133333333, "fusion_lat": 0.0, "type": "electric_scooter", "lon": -77.01951716666666, "is_disabled": 0, "fusion_lon": 0.0, "rental_uris": {"android": "https://dc.lft.to/lastmile_qr_scan", "ios": "https://dc.lft.to/lastmile_qr_scan"}, "is_reserved": 0}, {"bike_id": "3b63504f4bc8cb4b3926f358c8309f1d", "name": "3b63504f4bc8cb4b3926f358c8309f1d", "lat": 38.923831, "fusion_lat": 0.0, "type": "electric_scooter", "lon": -77.04082666666666, "is_disabled": 0, "fusion_lon": 0.0, "rental_uris": {"android": "https://dc.lft.to/lastmile_qr_scan", "ios": "https://dc.lft.to/lastmile_qr_scan"}, "is_reserved": 0}, {"bike_id": "d79c4f9d5bb36945f208dd410ce46227", "name": "d79c4f9d5bb36945f208dd410ce46227", "lat": 38.92480366666667, "fusion_lat": 0.0, "type": "electric_scooter", "lon": -77.02712833333334, "is_disabled": 0, "fusion_lon": 0.0, "rental_uris": {"android": "https://dc.lft.to/lastmile_qr_scan", "ios": "https://dc.lft.to/lastmile_qr_scan"}, "is_reserved": 0},