{"data": {"bikes": [{"is_reserved": 0, "rental_uris": {"ios": "https://dc.lft.to/lastmile_qr_scan", "android": "https://dc.lft.to/lastmile_qr_scan"}, "name": "266a4413b967f22e33f38263de31aa65", "bike_id": "266a4413b967f22e33f38263de31aa65", "type": "electric_scooter", "lat": 38.8936815, "fusion_lon": 0.0, "is_disabled": 0, "fusion_lat": 0.0, "lon": -76.94966383333333}, {"is_reserved": 0, "rental_uris": {"ios": "https://dc.lft.to/lastmile_qr_scan", "android": "https://dc.lft.to/lastmile_qr_scan"}, "name": "45b9c1c57ca93a8f716442299f61f0df", "bike_id": "45b9c1c57ca93a8f716442299f61f0df", "type": "electric_scooter", "lat": 38.905794, "fusion_lon": 0.0, "is_disabled": 0, "fusion_lat": 0.0, "lon": -77.03064433333333}, {"is_reserved": 0, "rental_uris": {"ios": "https://dc.lft.to/lastmile_qr_scan", "android": "https://dc.lft.to/lastmile_qr_scan"}, "name": "4a6f0d14b54d49562d68943558c216f8", "bike_id": "4a6f0d14b54d49562d68943558c216f8", "type": "electric_scooter", "lat": 38.9328935, "fusion_lon": 0.0, "is_disabled": 0, "fusion_lat": 0.0, "lon": -77.03977933333333}, {"is_reserved": 0, "rental_uris": {"ios": "https://dc.lft.to/lastmile_qr_scan", "android": "https://dc.lft.to/lastmile_qr_scan"}, "name": "786a091a25bb9c67f6eba15bca960e1a", "bike_id": "786a091a25bb9c67f6eba15bca960e1a", "type": "electric_scooter", "lat": 38.89802616666667, "fusion_lon": 0.0, "is_disabled": 0, "fusion_lat": 0.0, "lon": -77.03296316666666}, {"is_reserved": 0, "rental_uris": {"ios": "https://dc.lft.to/lastmile_qr_scan", "android": "https://dc.lft.to/lastmile_qr_scan"}, "name": "14eedace358d7dd21e27c061c7629a3c", "bike_id": "14eedace358d7dd21e27c061c7629a3c", "type": "electric_scooter", "lat": 38.90847433333333, "fusion_lon": 0.0, "is_disabled": 0, "fusion_lat": 0.0, "lon": -77.0549435}, {"is_reserved": 0, "rental_uris": {"ios": "https://dc.lft.to/lastmile_qr_scan", "android": "https://dc.lft.to/lastmile_qr_scan"}, "name": "0bb3e402c223fd430195cb9fb87f570a", "bike_id": "0bb3e402c223fd430195cb9fb87f570a", "type": "electric_scooter", "lat": 38.89623516666666, "fusion_lon": 0.0, "is_disabled": 0, "fusion_lat": 0.0, "lon": -76.99847233333334}, {"is_reserved": 0, "rental_uris": {"ios": "https://dc.lft.to/lastmile_qr_scan", "android": "https://dc.lft.to/lastmile_qr_scan"}, "name": "f7deb2c3b9b6c71805a2a7486d2f7020", "bike_id": "f7deb2c3b9b6c71805a2a7486d2f7020", "type": "electric_scooter", "lat": 38.925995, "fusion_lon": 0.0, "is_disabled": 0, "fusion_lat": 0.0, "lon": -77.03227833333334}, {"is_reserved": 0, "rental_uris": {"ios": "https://dc.lft.to/lastmile_qr_scan", "android": "https://dc.lft.to/lastmile_qr_scan"}, "name": "abefc3b29759ae405f013c09ceb0b2ba", "bike_id": "abefc3b29759ae405f013c09ceb0b2ba", "type": "electric_bike", "lat": 38.84657333333333, "fusion_lon": 0.0, "is_disabled": 0, "fusion_lat": 0.0, "lon": -76.9793005}, {"is_reserved": 0, "rental_uris": {"ios": "https://dc.lft.to/lastmile_qr_scan", "android": "https://dc.lft.to/lastmile_qr_scan"}, "name": "7b241daf9e9dee1c45fe0738cb017a28", "bike_id": "7b241daf9e9dee1c45fe0738cb017a28", "type": "electric_scooter", "lat": 38.9203055, "fusion_lon": 0.0, "is_disabled": 0, "fusion_lat": 0.0, "lon": -77.03134583333333}, {"is_reserved": 0, "rental_uris": {"ios": "https://dc.lft.to/lastmile_qr_scan", "android": "https://dc.lft.to/lastmile_qr_scan"}, "name": "cc25f9937b359c2860b9aac961e0bc30", "bike_id": "cc25f9937b359c2860b9aac961e0bc30", "type": "electric_scooter", "lat": 38.894972, "fusion_lon": 0.0, "is_disabled": 0, "fusion_lat": 0.0, "lon": -77.02283166666666}, {"is_reserved": 0, "rental_uris": {"ios": "https://dc.lft.to/lastmile_qr_scan", "android": "https://dc.lft.to/lastmile_qr_scan"}, "name": "78b9acde82e46e813d9752974ca705fb", "bike_id": "78b9acde82e46e813d9752974ca705fb", "type": "electric_scooter", "lat": 38.89619616666667, "fusion_lon": 0.0, "is_disabled": 0, "fusion_lat": 0.0, "lon": -77.02691416666667}, {"is_reserved": 0, "rental_uris": {"ios": "https://dc.lft.to/lastmile_qr_scan", "android": "https://dc.lft.to/lastmile_qr_scan"}, "name": "582a7ab9dbc7f8ba774bc27c4013b0e2", "bike_id": "582a7ab9dbc7f8ba774bc27c4013b0e2", "type": "electric_scooter", "lat": 38.92851533333334, "fusion_lon": 0.0, "is_disabled": 0, "fusion_lat": 0.0, "lon": -77.05424}, {"is_reserved": 0, "rental_uris": {"ios": "https://dc.lft.to/lastmile_qr_scan", "android": "https://dc.lft.to/lastmile_qr_scan"}, "name": "c9c9c579f1193c62940027e399de5097", "bike_id": "c9c9c579f1193c62940027e399de5097", "type": "electric_bike", "lat": 38.869105833333336, "fusion_lon": 0.0, "is_disabled": 0, "fusion_lat": 0.0, "lon": -77.13175366666667}, {"is_reserved": 0, "rental_uris": {"ios": "https://dc.lft.to/lastmile_qr_scan", "android": "https://dc.lft.to/lastmile_qr_scan"}, "name": "09d1741c169140fc56033cfd51ec1d89", "bike_id": "09d1741c169140fc56033cfd51ec1d89", "type": "electric_scooter", "lat": 38.9111035, "fusion_lon": 0.0, "is_disabled": 0, "fusion_lat": 0.0, "lon": -77.04845116666667}, {"is_reserved": 0, "rental_uris": {"ios": "https://dc.lft.to/lastmile_qr_scan", "android": "https://dc.lft.to/lastmile_qr_scan"}, "name": "d114cb57d20464174e31d65e0b63e3cf", "bike_id": "d114cb57d20464174e31d65e0b63e3cf", "type": "electric_scooter", "lat": 38.915558833333336, "fusion_lon": 0.0, "is_disabled": 0, "fusion_lat": 0.0, "lon": -77.03173666666666}, {"is_reserved": 0, "rental_uris": {"ios": "https://dc.lft.to/lastmile_qr_scan", "android": "https://dc.lft.to/lastmile_qr_scan"}, "name": "dfeedb9251258fd2fe9269f04e08e268", "bike_id": "dfeedb9251258fd2fe9269f04e08e268", "type": "electric_scooter", "lat": 38.937987, "fusion_lon": 0.0, "is_disabled": 0, "fusion_lat": 0.0, "lon": -77.02443866666667}, {"is_reserved": 0, "rental_uris": {"ios": "https://dc.lft.to/lastmile_qr_scan", "android": "https://dc.lft.to/lastmile_qr_scan"}, "name": "9eec000b9aabcd874b6388930de4c69a", "bike_id": "9eec000b9aabcd874b6388930de4c69a", "type": "electric_bike", "lat": 38.8718595, "fusion_lon": 0.0, "is_disabled": 0, "fusion_lat": 0.0, "lon": -77.08407816666667}, {"is_reserved": 0, "rental_uris": {"ios": "https://dc.lft.to/lastmile_qr_scan", "android": "https://dc.lft.to/lastmile_qr_scan"}, "name": "e3ef249c90fdfa1e6cd113de82f0736a", "bike_id": "e3ef249c90fdfa1e6cd113de82f0736a", "type": "electric_scooter", "lat": 38.892274666666665, "fusion_lon": 0.0, "is_disabled": 0, "fusion_lat": 0.0, "lon": -77.0450495}, {"is_reserved": 0, "rental_uris": {"ios": "https://dc.lft.to/lastmile_qr_scan", "android": "https://dc.lft.to/lastmile_qr_scan"}, "name": "5488eb2abfb6d21fb4f1b0efc46b5f66", "bike_id": "5488eb2abfb6d21fb4f1b0efc46b5f66", "type": "electric_scooter", "lat": 38.925129166666665, "fusion_lon": 0.0, "is_disabled": 0, "fusion_lat": 0.0, "lon": -77.02150583333334}, {"is_reserved": 0, "rental_uris": {"ios": "https://dc.lft.to/lastmile_qr_scan", "android": "https://dc.lft.to/lastmile_qr_scan"}, "name": "8785ad6792e6f5efc003b2c2a8835b40", "bike_id": "8785ad6792e6f5efc003b2c2a8835b40", "type": "electric_scooter", "lat": 38.907166333333336, "fusion_lon": 0.0, "is_disabled": 0, "fusion_lat": 0.0, "lon": -77.04498233333334}, {"is_reserved": 0, "rental_uris": {"ios": "https://dc.lft.to/lastmile_qr_scan", "android": "https://dc.lft.to/lastmile_qr_scan"}, "name": "770633bb2dbe713b750412683556e419", "bike_id": "770633bb2dbe713b750412683556e419", "type": "electric_scooter", "lat": 38.90501833333333, "fusion_lon": 0.0, "is_disabled": 0, "fusion_lat": 0.0, "lon": -77.04473316666666}, {"is_reserved": 0, "rental_uris": {"ios": "https://dc.lft.to/lastmile_qr_scan", "android": "https://dc.lft.to/lastmile_qr_scan"}, "name": "f046bd0f420cb88ad97ac899f3df256a", "bike_id": "f046bd0f420cb88ad97ac899f3df256a", "type": "electric_scooter", "lat": 38.903621, "fusion_lon": 0.0, "is_disabled": 0, "fusion_lat": 0.0, "lon": -77.04094433333333}, {"is_reserved": 0, "rental_uris": {"ios": "https://dc.lft.to/lastmile_qr_scan", "android": "https://dc.lft.to/lastmile_qr_scan"}, "name": "774ae9c9353e2c9c54631b5cc0f0b137", "bike_id": "774ae9c9353e2c9c54631b5cc0f0b137", "type": "electric_scooter", "lat": 38.918732, "fusion_lon": 0.0, "is_disabled": 0, "fusion_lat": 0.0, "lon": -77.03547716666667}, {"is_reserved": 0, "rental_uris": {"ios": "https://dc.lft.to/lastmile_qr_scan", "android": "https://dc.lft.to/lastmile_qr_scan"}, "name": "40e60f9a03fa89a5b6dbc9557defe772", "bike_id": "40e60f9a03fa89a5b6dbc9557defe772", "type": "electric_scooter", "lat": 38.920112333333336, "fusion_lon": 0.0, "is_disabled": 0, "fusion_lat": 0.0, "lon": -77.07117466666666}, {"is_reserved": 0, "rental_uris": {"ios": "https://dc.lft.to/lastmile_qr_scan", "android": "https://dc.lft.to/lastmile_qr_scan"}, "name": "9c8ce794a3130e3c11d9a44774b7272d", "bike_id": "9c8ce794a3130e3c11d9a44774b7272d", "type": "electric_scooter", "lat": 38.925697666666665, "fusion_lon": 0.0, "is_disabled": 0, "fusion_lat": 0.0, "lon": -77.03924433333333}, {"is_reserved": 0, "rental_uris": {"ios": "https://dc.lft.to/lastmile_qr_scan", "android": "https://dc.lft.to/lastmile_qr_scan"}, "name": "8c31e27e4fad2c4ba0b9431438c8b5e6", "bike_id": "8c31e27e4fad2c4ba0b9431438c8b5e6", "type": "electric_bike", "lat": 38.85647766666666, "fusion_lon": 0.0, "is_disabled": 0, "fusion_lat": 0.0, "lon": -77.112444}, {"is_reserved": 0, "rental_uris": {"ios": "https://dc.lft.to/lastmile_qr_scan", "android": "https://dc.lft.to/lastmile_qr_scan"}, "name": "47f4f7513200a8e7fc5f8481ac1d9742", "bike_id": "47f4f7513200a8e7fc5f8481ac1d9742", "type": "electric_scooter", "lat": 38.91218883333333, "fusion_lon": 0.0, "is_disabled": 0, "fusion_lat": 0.0, "lon": -77.01205933333334}, {"is_reserved": 0, "rental_uris": {"ios": "https://dc.lft.to/lastmile_qr_scan", "android": "https://dc.lft.to/lastmile_qr_scan"}, "name": "6ae2496df134948d6ed73356f88c0299", "bike_id": "6ae2496df134948d6ed73356f88c0299", "type": "electric_scooter", "lat": 38.917122666666664, "fusion_lon": 0.0, "is_disabled": 0, "fusion_lat": 0.0, "lon": -77.03885916666667}, {"is_reserved": 0, "rental_uris": {"ios": "https://dc.lft.to/lastmile_qr_scan", "android": "https://dc.lft.to/lastmile_qr_scan"}, "name": "71eab42a8236c48f098b95f9f62cca1c", "bike_id": "71eab42a8236c48f098b95f9f62cca1c", "type": "electric_scooter", "lat": 38.922995, "fusion_lon": 0.0, "is_disabled": 0, "fusion_lat": 0.0, "lon": -77.03661516666666}, {"is_reserved": 0, "rental_uris": {"ios": "https://dc.lft.to/lastmile_qr_scan", "android": "https://dc.lft.to/lastmile_qr_scan"}, "name": "82685e674b8fc1e43041867d60d84d7e", "bike_id": "82685e674b8fc1e43041867d60d84d7e", "type": "electric_scooter", "lat": 38.933535666666664, "fusion_lon": 0.0, "is_disabled": 0, "fusion_lat": 0.0, "lon": -77.0586095}, {"is_reserved": 0, "rental_uris": {"ios": "https://dc.lft.to/lastmile_qr_scan", "android": "https://dc.lft.to/lastmile_qr_scan"}, "name": "10694faf30955c0b312f1154c918a5d9", "bike_id": "10694faf30955c0b312f1154c918a5d9", "type": "electric_scooter", "lat": 38.9105315, "fusion_lon": 0.0, "is_disabled": 0, "fusion_lat": 0.0, "lon": -77.01512816666667}, {"is_reserved": 0, "rental_uris": {"ios": "https://dc.lft.to/lastmile_qr_scan", "android": "https://dc.lft.to/lastmile_qr_scan"}, "name": "d340b896b7e2ea652f9c10ddd9603793", "bike_id": "d340b896b7e2ea652f9c10ddd9603793", "type": "electric_scooter", "lat": 38.93167166666667, "fusion_lon": 0.0, "is_disabled": 0, "fusion_lat": 0.0, "lon": -77.03628233333333}, {"is_reserved": 0, "rental_uris": {"ios": "https://dc.lft.to/lastmile_qr_scan", "android": "https://dc.lft.to/lastmile_qr_scan"}, "name": "c9916ddaeba9a63bf078ccfe0e97436b", "bike_id": "c9916ddaeba9a63bf078ccfe0e97436b", "type": "electric_scooter", "lat": 38.897381833333334, "fusion_lon": 0.0, "is_disabled": 0, "fusion_lat": 0.0, "lon": -77.031744}, {"is_reserved": 0, "rental_uris": {"ios": "https://dc.lft.to/lastmile_qr_scan", "android": "https://dc.lft.to/lastmile_qr_scan"}, "name": "5af241fc466b98a77469f8705ad409f5", "bike_id": "5af241fc466b98a77469f8705ad409f5", "type": "electric_scooter", "lat": 38.9000225, "fusion_lon": 0.0, "is_disabled": 0, "fusion_lat": 0.0, "lon": -77.01188866666666}, {"is_reserved": 0, "rental_uris": {"ios": "https://dc.lft.to/lastmile_qr_scan", "android": "https://dc.lft.to/lastmile_qr_scan"}, "name": "0d709b20a8226cebf49376ec8eeabe00", "bike_id": "0d709b20a8226cebf49376ec8eeabe00", "type": "electric_scooter", "lat": 38.89834283333333, "fusion_lon": 0.0, "is_disabled": 0, "fusion_lat": 0.0, "lon": -77.028934}, {"is_reserved": 0, "rental_uris": {"ios": "https://dc.lft.to/lastmile_qr_scan", "android": "https://dc.lft.to/lastmile_qr_scan"}, "name": "89e23f4d124c2a47963a7d4b840b9f62", "bike_id": "89e23f4d124c2a47963a7d4b840b9f62", "type": "electric_scooter", "lat": 38.89047383333333, "fusion_lon": 0.0, "is_disabled": 0, "fusion_lat": 0.0, "lon": -76.937519}, {"is_reserved": 0, "rental_uris": {"ios": "https://dc.lft.to/lastmile_qr_scan", "android": "https://dc.lft.to/lastmile_qr_scan"}, "name": "9a97fa5d817db29dad5a3fe286495330", "bike_id": "9a97fa5d817db29dad5a3fe286495330", "type": "electric_scooter", "lat": 38.923284333333335, "fusion_lon": 0.0, "is_disabled": 0, "fusion_lat": 0.0, "lon": -77.038049}, {"is_reserved": 0, "rental_uris": {"ios": "https://dc.lft.to/lastmile_qr_scan", "android": "https://dc.lft.to/lastmile_qr_scan"}, "name": "45fd1d153fa6dbe291fc4f080df15dc9", "bike_id": "45fd1d153fa6dbe291fc4f080df15dc9", "type": "electric_scooter", "lat": 38.92478033333333, "fusion_lon": 0.0, "is_disabled": 0, "fusion_lat": 0.0, "lon": -77.02826216666666}, {"is_reserved": 0, "rental_uris": {"ios": "https://dc.lft.to/lastmile_qr_scan", "android": "https://dc.lft.to/lastmile_qr_scan"}, "name": "1f58512168623881579432aa52af7351", "bike_id": "1f58512168623881579432aa52af7351", "type": "electric_scooter", "lat": 38.9055785, "fusion_lon": 0.0, "is_disabled": 0, "fusion_lat": 0.0, "lon": -77.04475983333333}, {"is_reserved": 0, "rental_uris": {"ios": "https://dc.lft.to/lastmile_qr_scan", "android": "https://dc.lft.to/lastmile_qr_scan"}, "name": "00aaec7041e11fd8f59b1e2bf42ad168", "bike_id": "00aaec7041e11fd8f59b1e2bf42ad168", "type": "electric_scooter", "lat": 38.92321783333333, "fusion_lon": 0.0, "is_disabled": 0, "fusion_lat": 0.0, "lon": -77.0396595}, {"is_reserved": 0, "rental_uris": {"ios": "https://dc.lft.to/lastmile_qr_scan", "android": "https://dc.lft.to/lastmile_qr_scan"}, "name": "bab88ec2a2e867ff7c9fa7803e8681a0", "bike_id": "bab88ec2a2e867ff7c9fa7803e8681a0", "type": "electric_scooter", "lat": 38.9362385, "fusion_lon": 0.0, "is_disabled": 0, "fusion_lat": 0.0, "lon": -77.032168}, {"is_reserved": 0, "rental_uris": {"ios": "https://dc.lft.to/lastmile_qr_scan", "android": "https://dc.lft.to/lastmile_qr_scan"}, "name": "e67a0a822af88f46e0a08c4f6225b654", "bike_id": "e67a0a822af88f46e0a08c4f6225b654", "type": "electric_scooter", "lat": 38.90248366666667, "fusion_lon": 0.0, "is_disabled": 0, "fusion_lat": 0.0, "lon": -77.04860016666666}, {"is_reserved": 0, "rental_uris": {"ios": "https://dc.lft.to/lastmile_qr_scan", "android": "https://dc.lft.to/lastmile_qr_scan"}, "name": "97d8b70cbe14969841c796dae6abf403", "bike_id": "97d8b70cbe14969841c796dae6abf403", "type": "electric_scooter", "lat": 38.910609666666666, "fusion_lon": 0.0, "is_disabled": 0, "fusion_lat": 0.0, "lon": -77.04112683333334}, {"is_reserved": 0, "rental_uris": {"ios": "https://dc.lft.to/lastmile_qr_scan", "android": "https://dc.lft.to/lastmile_qr_scan"}, "name": "20dfe7b877f5d40eed3e42eef3ed7a03", "bike_id": "20dfe7b877f5d40eed3e42eef3ed7a03", "type": "electric_scooter", "lat": 38.88586083333333, "fusion_lon": 0.0, "is_disabled": 0, "fusion_lat": 0.0, "lon": -77.01226033333333}, {"is_reserved": 0, "rental_uris": {"ios": "https://dc.lft.to/lastmile_qr_scan", "android": "https://dc.lft.to/lastmile_qr_scan"}, "name": "6fca5f25fa9193716378f457c96730f8", "bike_id": "6fca5f25fa9193716378f457c96730f8", "type": "electric_bike", "lat": 39.02430066666667, "fusion_lon": 0.0, "is_disabled": 0, "fusion_lat": 0.0, "lon": -77.130983}, {"is_reserved": 0, "rental_uris": {"ios": "https://dc.lft.to/lastmile_qr_scan", "android": "https://dc.lft.to/lastmile_qr_scan"}, "name": "7cd525bc31677c21a8f8840992494535", "bike_id": "7cd525bc31677c21a8f8840992494535", "type": "electric_scooter", "lat": 38.91823933333333, "fusion_lon": 0.0, "is_disabled": 0, "fusion_lat": 0.0, "lon": -77.03842416666667}, {"is_reserved": 0, "rental_uris": {"ios": "https://dc.lft.to/lastmile_qr_scan", "android": "https://dc.lft.to/lastmile_qr_scan"}, "name": "f5748b151877311aaffc0c312ce33d0f", "bike_id": "f5748b151877311aaffc0c312ce33d0f", "type": "electric_bike", "lat": 38.964956666666666, "fusion_lon": 0.0, "is_disabled": 0, "fusion_lat": 0.0, "lon": -76.93846483333333}, {"is_reserved": 0, "rental_uris": {"ios": "https://dc.lft.to/lastmile_qr_scan", "android": "https://dc.lft.to/lastmile_qr_scan"}, "name": "a6f9a674c02bdbad918617a3cd937165", "bike_id": "a6f9a674c02bdbad918617a3cd937165", "type": "electric_scooter", "lat": 38.928256166666664, "fusion_lon": 0.0, "is_disabled": 0, "fusion_lat": 0.0, "lon": -77.02257116666667}, {"is_reserved": 0, "rental_uris": {"ios": "https://dc.lft.to/lastmile_qr_scan", "android": "https://dc.lft.to/lastmile_qr_scan"}, "name": "87a019ed05cee51e04066a90671a0f62", "bike_id": "87a019ed05cee51e04066a90671a0f62", "type": "electric_scooter", "lat": 38.917331, "fusion_lon": 0.0, "is_disabled": 0, "fusion_lat": 0.0, "lon": -77.04179316666666}, {"is_reserved": 0, "rental_uris": {"ios": "https://dc.lft.to/lastmile_qr_scan", "android": "https://dc.lft.to/lastmile_qr_scan"}, "name": "bd3e28000f3c633f7d8c1512c1bd5cbe", "bike_id": "bd3e28000f3c633f7d8c1512c1bd5cbe", "type": "electric_scooter", "lat": 38.93085166666667, "fusion_lon": 0.0, "is_disabled": 0, "fusion_lat": 0.0, "lon": -76.96722033333333}, {"is_reserved": 0, "rental_uris": {"ios": "https://dc.lft.to/lastmile_qr_scan", "android": "https://dc.lft.to/lastmile_qr_scan"}, "name": "485b142e196610232dae5a810ae261dc", "bike_id": "485b142e196610232dae5a810ae261dc", "type": "electric_scooter", "lat": 38.90612083333333, "fusion_lon": 0.0, "is_disabled": 0, "fusion_lat": 0.0, "lon": -77.06300016666667}, {"is_reserved": 0, "rental_uris": {"ios": "https://dc.lft.to/lastmile_qr_scan", "android": "https://dc.lft.to/lastmile_qr_scan"}, "name": "7625a1e87e7d5c52289a6e58bb24be93", "bike_id": "7625a1e87e7d5c52289a6e58bb24be93", "type": "electric_bike", "lat": 39.0305245, "fusion_lon": 0.0, "is_disabled": 0, "fusion_lat": 0.0, "lon": -77.09484166666667}, {"is_reserved": 0, "rental_uris": {"ios": "https://dc.lft.to/lastmile_qr_scan", "android": "https://dc.lft.to/lastmile_qr_scan"}, "name": "bd239c668ef81272fdbd424f9be604aa", "bike_id": "bd239c668ef81272fdbd424f9be604aa", "type": "electric_scooter", "lat": 38.90014016666667, "fusion_lon": 0.0, "is_disabled": 0, "fusion_lat": 0.0, "lon": -77.00881283333334}, {"is_reserved": 0, "rental_uris": {"ios": "https://dc.lft.to/lastmile_qr_scan", "android": "https://dc.lft.to/lastmile_qr_scan"}, "name": "916db82d0a3df295a51d2493664c7180", "bike_id": "916db82d0a3df295a51d2493664c7180", "type": "electric_scooter", "lat": 38.89530283333333, "fusion_lon": 0.0, "is_disabled": 0, "fusion_lat": 0.0, "lon": -77.02935783333334}, {"is_reserved": 0, "rental_uris": {"ios": "https://dc.lft.to/lastmile_qr_scan", "android": "https://dc.lft.to/lastmile_qr_scan"}, "name": "4e84355adb31cac8de8d7bf570321b86", "bike_id": "4e84355adb31cac8de8d7bf570321b86", "type": "electric_scooter", "lat": 38.91477, "fusion_lon": 0.0, "is_disabled": 0, "fusion_lat": 0.0, "lon": -77.03185916666666}, {"is_reserved": 0, "rental_uris": {"ios": "https://dc.lft.to/lastmile_qr_scan", "android": "https://dc.lft.to/lastmile_qr_scan"}, "name": "c3aeb67294e14d59fa26b70decc2b66a", "bike_id": "c3aeb67294e14d59fa26b70decc2b66a", "type": "electric_scooter", "lat": 38.94436866666667, "fusion_lon": 0.0, "is_disabled": 0, "fusion_lat": 0.0, "lon": -77.063056}, {"is_reserved": 0, "rental_uris": {"ios": "https://dc.lft.to/lastmile_qr_scan", "android": "https://dc.lft.to/lastmile_qr_scan"}, "name": "1e6c4f8c315b86b702dbaa4d1d63618d", "bike_id": "1e6c4f8c315b86b702dbaa4d1d63618d", "type": "electric_scooter", "lat": 38.89899416666667, "fusion_lon": 0.0, "is_disabled": 0, "fusion_lat": 0.0, "lon": -77.033489}, {"is_reserved": 0, "rental_uris": {"ios": "https://dc.lft.to/lastmile_qr_scan", "android": "https://dc.lft.to/lastmile_qr_scan"}, "name": "fb752ed0386f1f60433328a4e002100d", "bike_id": "fb752ed0386f1f60433328a4e002100d", "type": "electric_scooter", "lat": 38.88505166666667, "fusion_lon": 0.0, "is_disabled": 0, "fusion_lat": 0.0, "lon": -77.00569333333334}, {"is_reserved": 0, "rental_uris": {"ios": "https://dc.lft.to/lastmile_qr_scan", "android": "https://dc.lft.to/lastmile_qr_scan"}, "name": "d0f9c15884319c4fe754aa240c87c974", "bike_id": "d0f9c15884319c4fe754aa240c87c974", "type": "electric_bike", "lat": 38.8977885, "fusion_lon": 0.0, "is_disabled": 0, "fusion_lat": 0.0, "lon": -76.90436066666666}, {"is_reserved": 0, "rental_uris": {"ios": "https://dc.lft.to/lastmile_qr_scan", "android": "https://dc.lft.to/lastmile_qr_scan"}, "name": "ed18ef220b6626b35dd1010f4e52b19b", "bike_id": "ed18ef220b6626b35dd1010f4e52b19b", "type": "electric_scooter", "lat": 38.9168395, "fusion_lon": 0.0, "is_disabled": 0, "fusion_lat": 0.0, "lon": -77.02199}, {"is_reserved": 0, "rental_uris": {"ios": "https://dc.lft.to/lastmile_qr_scan", "android": "https://dc.lft.to/lastmile_qr_scan"}, "name": "648134d1b743e2e1bf78930f1e410ba0", "bike_id": "648134d1b743e2e1bf78930f1e410ba0", "type": "electric_scooter", "lat": 38.892363833333334, "fusion_lon": 0.0, "is_disabled": 0, "fusion_lat": 0.0, "lon": -77.02780966666667}, {"is_reserved": 0, "rental_uris": {"ios": "https://dc.lft.to/lastmile_qr_scan", "android": "https://dc.lft.to/lastmile_qr_scan"}, "name": "4b6e69a8a19c7a7d0fff4339906450f4", "bike_id": "4b6e69a8a19c7a7d0fff4339906450f4", "type": "electric_scooter", "lat": 38.903553, "fusion_lon": 0.0, "is_disabled": 0, "fusion_lat": 0.0, "lon": -77.03659733333333}, {"is_reserved": 0, "rental_uris": {"ios": "https://dc.lft.to/lastmile_qr_scan", "android": "https://dc.lft.to/lastmile_qr_scan"}, "name": "bcfca279b74be4d6bd5da6ee9d6a34f7", "bike_id": "bcfca279b74be4d6bd5da6ee9d6a34f7", "type": "electric_scooter", "lat": 38.866285166666664, "fusion_lon": 0.0, "is_disabled": 0, "fusion_lat": 0.0, "lon": -76.98716066666667}, {"is_reserved": 0, "rental_uris": {"ios": "https://dc.lft.to/lastmile_qr_scan", "android": "https://dc.lft.to/lastmile_qr_scan"}, "name": "b10cc683220808f79c085381f62fa6ad", "bike_id": "b10cc683220808f79c085381f62fa6ad", "type": "electric_scooter", "lat": 38.921024333333335, "fusion_lon": 0.0, "is_disabled": 0, "fusion_lat": 0.0, "lon": -77.03166933333334}, {"is_reserved": 0, "rental_uris": {"ios": "https://dc.lft.to/lastmile_qr_scan", "android": "https://dc.lft.to/lastmile_qr_scan"}, "name": "e96a2825eda28d598ea5d4fb0de0b453", "bike_id": "e96a2825eda28d598ea5d4fb0de0b453", "type": "electric_bike", "lat": 38.9563145, "fusion_lon": 0.0, "is_disabled": 0, "fusion_lat": 0.0, "lon": -76.938849}, {"is_reserved": 0, "rental_uris": {"ios": "https://dc.lft.to/lastmile_qr_scan", "android": "https://dc.lft.to/lastmile_qr_scan"}, "name": "81f4c5c05f5e1d729b93e4da6013b295", "bike_id": "81f4c5c05f5e1d729b93e4da6013b295", "type": "electric_scooter", "lat": 38.905321, "fusion_lon": 0.0, "is_disabled": 0, "fusion_lat": 0.0, "lon": -77.056816}, {"is_reserved": 0, "rental_uris": {"ios": "https://dc.lft.to/lastmile_qr_scan", "android": "https://dc.lft.to/lastmile_qr_scan"}, "name": "77367bae37772837d87963fc7cd0b463", "bike_id": "77367bae37772837d87963fc7cd0b463", "type": "electric_bike", "lat": 38.84274933333333, "fusion_lon": 0.0, "is_disabled": 0, "fusion_lat": 0.0, "lon": -76.98845783333333}, {"is_reserved": 0, "rental_uris": {"ios": "https://dc.lft.to/lastmile_qr_scan", "android": "https://dc.lft.to/lastmile_qr_scan"}, "name": "b51d7800cf297f247114798e1c0b12f8", "bike_id": "b51d7800cf297f247114798e1c0b12f8", "type": "electric_scooter", "lat": 38.91756066666667, "fusion_lon": 0.0, "is_disabled": 0, "fusion_lat": 0.0, "lon": -77.038578}, {"is_reserved": 0, "rental_uris": {"ios": "https://dc.lft.to/lastmile_qr_scan", "android": "https://dc.lft.to/lastmile_qr_scan"}, "name": "ec5e860eeb26726ae41269d06a30adfd", "bike_id": "ec5e860eeb26726ae41269d06a30adfd", "type": "electric_scooter", "lat": 38.900979166666666, "fusion_lon": 0.0, "is_disabled": 0, "fusion_lat": 0.0, "lon": -77.02510366666667}, {"is_reserved": 0, "rental_uris": {"ios": "https://dc.lft.to/lastmile_qr_scan", "android": "https://dc.lft.to/lastmile_qr_scan"}, "name": "ce5134373e20cdaa4323a3efc963faa9", "bike_id": "ce5134373e20cdaa4323a3efc963faa9", "type": "electric_scooter", "lat": 38.929051, "fusion_lon": 0.0, "is_disabled": 0, "fusion_lat": 0.0, "lon": -77.06420516666667}, {"is_reserved": 0, "rental_uris": {"ios": "https://dc.lft.to/lastmile_qr_scan", "android": "https://dc.lft.to/lastmile_qr_scan"}, "name": "7be98302b3b7068909155d0ceb84f23c", "bike_id": "7be98302b3b7068909155d0ceb84f23c", "type": "electric_scooter", "lat": 38.90375066666667, "fusion_lon": 0.0, "is_disabled": 0, "fusion_lat": 0.0, "lon": -77.007558}, {"is_reserved": 0, "rental_uris": {"ios": "https://dc.lft.to/lastmile_qr_scan", "android": "https://dc.lft.to/lastmile_qr_scan"}, "name": "67dce020a6bae12122b58ba78687bd72", "bike_id": "67dce020a6bae12122b58ba78687bd72", "type": "electric_bike", "lat": 38.876662, "fusion_lon": 0.0, "is_disabled": 0, "fusion_lat": 0.0, "lon": -77.014431}, {"is_reserved": 0, "rental_uris": {"ios": "https://dc.lft.to/lastmile_qr_scan", "android": "https://dc.lft.to/lastmile_qr_scan"}, "name": "e03745bec44be0ee7a046dea905fd463", "bike_id": "e03745bec44be0ee7a046dea905fd463", "type": "electric_scooter", "lat": 38.8984325, "fusion_lon": 0.0, "is_disabled": 0, "fusion_lat": 0.0, "lon": -76.94478683333334}, {"is_reserved": 0, "rental_uris": {"ios": "https://dc.lft.to/lastmile_qr_scan", "android": "https://dc.lft.to/lastmile_qr_scan"}, "name": "4d10c7a9c67768481d44a3f0d1b855b9", "bike_id": "4d10c7a9c67768481d44a3f0d1b855b9", "type": "electric_scooter", "lat": 38.89892533333333, "fusion_lon": 0.0, "is_disabled": 0, "fusion_lat": 0.0, "lon": -77.03998516666667}, {"is_reserved": 0, "rental_uris": {"ios": "https://dc.lft.to/lastmile_qr_scan", "android": "https://dc.lft.to/lastmile_qr_scan"}, "name": "0b8b7146a218e4874f05f98083e059d3", "bike_id": "0b8b7146a218e4874f05f98083e059d3", "type": "electric_scooter", "lat": 38.88710483333333, "fusion_lon": 0.0, "is_disabled": 0, "fusion_lat": 0.0, "lon": -77.013809}, {"is_reserved": 0, "rental_uris": {"ios": "https://dc.lft.to/lastmile_qr_scan", "android": "https://dc.lft.to/lastmile_qr_scan"}, "name": "ee081abc93088b30fee64fbacb1db5e7", "bike_id": "ee081abc93088b30fee64fbacb1db5e7", "type": "electric_scooter", "lat": 38.93106066666667, "fusion_lon": 0.0, "is_disabled": 0, "fusion_lat": 0.0, "lon": -77.03762266666666}, {"is_reserved": 0, "rental_uris": {"ios": "https://dc.lft.to/lastmile_qr_scan", "android": "https://dc.lft.to/lastmile_qr_scan"}, "name": "da552f974fc311951e407d6ec8e23313", "bike_id": "da552f974fc311951e407d6ec8e23313", "type": "electric_bike", "lat": 39.0943975, "fusion_lon": 0.0, "is_disabled": 0, "fusion_lat": 0.0, "lon": -77.13459183333333}, {"is_reserved": 0, "rental_uris": {"ios": "https://dc.lft.to/lastmile_qr_scan", "android": "https://dc.lft.to/lastmile_qr_scan"}, "name": "0612308c13951a3725682893926a1625", "bike_id": "0612308c13951a3725682893926a1625", "type": "electric_scooter", "lat": 38.862888833333336, "fusion_lon": 0.0, "is_disabled": 0, "fusion_lat": 0.0, "lon": -76.99239966666667}, {"is_reserved": 0, "rental_uris": {"ios": "https://dc.lft.to/lastmile_qr_scan", "android": "https://dc.lft.to/lastmile_qr_scan"}, "name": "7aec8f48386e13293a1c2144e07b6ef3", "bike_id": "7aec8f48386e13293a1c2144e07b6ef3", "type": "electric_scooter", "lat": 38.932384666666664, "fusion_lon": 0.0, "is_disabled": 0, "fusion_lat": 0.0, "lon": -77.03269983333334}, {"is_reserved": 0, "rental_uris": {"ios": "https://dc.lft.to/lastmile_qr_scan", "android": "https://dc.lft.to/lastmile_qr_scan"}, "name": "0aa381f84d38b918e6018d898e121f4b", "bike_id": "0aa381f84d38b918e6018d898e121f4b", "type": "electric_scooter", "lat": 38.915544833333335, "fusion_lon": 0.0, "is_disabled": 0, "fusion_lat": 0.0, "lon": -77.03171733333333}, {"is_reserved": 0, "rental_uris": {"ios": "https://dc.lft.to/lastmile_qr_scan", "android": "https://dc.lft.to/lastmile_qr_scan"}, "name": "09aae7a1f12ab2939bb05b693e1fdcc3", "bike_id": "09aae7a1f12ab2939bb05b693e1fdcc3", "type": "electric_scooter", "lat": 38.903591666666664, "fusion_lon": 0.0, "is_disabled": 0, "fusion_lat": 0.0, "lon": -77.04254266666666}, {"is_reserved": 0, "rental_uris": {"ios": "https://dc.lft.to/lastmile_qr_scan", "android": "https://dc.lft.to/lastmile_qr_scan"}, "name": "4151ce63d566e52e2bf8c28c11095dbd", "bike_id": "4151ce63d566e52e2bf8c28c11095dbd", "type": "electric_scooter", "lat": 38.909749166666664, "fusion_lon": 0.0, "is_disabled": 0, "fusion_lat": 0.0, "lon": -77.0394705}, {"is_reserved": 0, "rental_uris": {"ios": "https://dc.lft.to/lastmile_qr_scan", "android": "https://dc.lft.to/lastmile_qr_scan"}, "name": "af042bc0f2504142b783c94ea244bc5f", "bike_id": "af042bc0f2504142b783c94ea244bc5f", "type": "electric_scooter", "lat": 38.92206633333333, "fusion_lon": 0.0, "is_disabled": 0, "fusion_lat": 0.0, "lon": -77.04020583333333}, {"is_reserved": 0, "rental_uris": {"ios": "https://dc.lft.to/lastmile_qr_scan", "android": "https://dc.lft.to/lastmile_qr_scan"}, "name": "6cac7f0ea7deed2571ca231d369d6998", "bike_id": "6cac7f0ea7deed2571ca231d369d6998", "type": "electric_scooter", "lat": 38.93131983333333, "fusion_lon": 0.0, "is_disabled": 0, "fusion_lat": 0.0, "lon": -77.05622116666666}, {"is_reserved": 0, "rental_uris": {"ios": "https://dc.lft.to/lastmile_qr_scan", "android": "https://dc.lft.to/lastmile_qr_scan"}, "name": "457f7cc4f1d9adffd9b456cdf892f021", "bike_id": "457f7cc4f1d9adffd9b456cdf892f021", "type": "electric_scooter", "lat": 38.8874075, "fusion_lon": 0.0, "is_disabled": 0, "fusion_lat": 0.0, "lon": -77.02160283333333}, {"is_reserved": 0, "rental_uris": {"ios": "https://dc.lft.to/lastmile_qr_scan", "android": "https://dc.lft.to/lastmile_qr_scan"}, "name": "70274d72cd512c54a60fb90c40faba41", "bike_id": "70274d72cd512c54a60fb90c40faba41", "type": "electric_scooter", "lat": 38.887465166666665, "fusion_lon": 0.0, "is_disabled": 0, "fusion_lat": 0.0, "lon": -77.02068716666666}, {"is_reserved": 0, "rental_uris": {"ios": "https://dc.lft.to/lastmile_qr_scan", "android": "https://dc.lft.to/lastmile_qr_scan"}, "name": "35b40428f19b341d783824c8b499e728", "bike_id": "35b40428f19b341d783824c8b499e728", "type": "electric_scooter", "lat": 38.947615, "fusion_lon": 0.0, "is_disabled": 0, "fusion_lat": 0.0, "lon": -77.06563533333333}, {"is_reserved": 0, "rental_uris": {"ios": "https://dc.lft.to/lastmile_qr_scan", "android": "https://dc.lft.to/lastmile_qr_scan"}, "name": "a9711676f0b1420febb6895044c5b934", "bike_id": "a9711676f0b1420febb6895044c5b934", "type": "electric_scooter", "lat": 38.9206435, "fusion_lon": 0.0, "is_disabled": 0, "fusion_lat": 0.0, "lon": -77.02199433333334}, {"is_reserved": 0, "rental_uris": {"ios": "https://dc.lft.to/lastmile_qr_scan", "android": "https://dc.lft.to/lastmile_qr_scan"}, "name": "393872eb7a789e5939ad775ee8f99ae0", "bike_id": "393872eb7a789e5939ad775ee8f99ae0", "type": "electric_scooter", "lat": 38.923714833333335, "fusion_lon": 0.0, "is_disabled": 0, "fusion_lat": 0.0, "lon": -77.076732}, {"is_reserved": 0, "rental_uris": {"ios": "https://dc.lft.to/lastmile_qr_scan", "android": "https://dc.lft.to/lastmile_qr_scan"}, "name": "2d94232579cecb93c583ac0361a554bb", "bike_id": "2d94232579cecb93c583ac0361a554bb", "type": "electric_scooter", "lat": 38.922428333333336, "fusion_lon": 0.0, "is_disabled": 0, "fusion_lat": 0.0, "lon": -77.0298465}, {"is_reserved": 0, "rental_uris": {"ios": "https://dc.lft.to/lastmile_qr_scan", "android": "https://dc.lft.to/lastmile_qr_scan"}, "name": "5e2365549c19f9959685793092f8ab8d", "bike_id": "5e2365549c19f9959685793092f8ab8d", "type": "electric_scooter", "lat": 38.90305883333333, "fusion_lon": 0.0, "is_disabled": 0, "fusion_lat": 0.0, "lon": -77.032986}, {"is_reserved": 0, "rental_uris": {"ios": "https://dc.lft.to/lastmile_qr_scan", "android": "https://dc.lft.to/lastmile_qr_scan"}, "name": "480e82ffe267ce3d50f7763668a25722", "bike_id": "480e82ffe267ce3d50f7763668a25722", "type": "electric_scooter", "lat": 38.906109666666666, "fusion_lon": 0.0, "is_disabled": 0, "fusion_lat": 0.0, "lon": -77.05858516666666}, {"is_reserved": 0, "rental_uris": {"ios": "https://dc.lft.to/lastmile_qr_scan", "android": "https://dc.lft.to/lastmile_qr_scan"}, "name": "9edf3830ca9a9f033ea53122d6cb3a73", "bike_id": "9edf3830ca9a9f033ea53122d6cb3a73", "type": "electric_bike", "lat": 38.8842755, "fusion_lon": 0.0, "is_disabled": 0, "fusion_lat": 0.0, "lon": -76.980841}, {"is_reserved": 0, "rental_uris": {"ios": "https://dc.lft.to/lastmile_qr_scan", "android": "https://dc.lft.to/lastmile_qr_scan"}, "name": "00b6c9eb45690e31794aad6b16279ad5", "bike_id": "00b6c9eb45690e31794aad6b16279ad5", "type": "electric_bike", "lat": 38.9492245, "fusion_lon": 0.0, "is_disabled": 0, "fusion_lat": 0.0, "lon": -77.07842066666667}, {"is_reserved": 0, "rental_uris": {"ios": "https://dc.lft.to/lastmile_qr_scan", "android": "https://dc.lft.to/lastmile_qr_scan"}, "name": "a7d5203599d3c127428ad4a2791c3c13", "bike_id": "a7d5203599d3c127428ad4a2791c3c13", "type": "electric_scooter", "lat": 38.914492, "fusion_lon": 0.0, "is_disabled": 0, "fusion_lat": 0.0, "lon": -77.038362}, {"is_reserved": 0, "rental_uris": {"ios": "https://dc.lft.to/lastmile_qr_scan", "android": "https://dc.lft.to/lastmile_qr_scan"}, "name": "f8849994ad69f84a48fd28fce58505cf", "bike_id": "f8849994ad69f84a48fd28fce58505cf", "type": "electric_scooter", "lat": 38.906979, "fusion_lon": 0.0, "is_disabled": 0, "fusion_lat": 0.0, "lon": -77.0440005}, {"is_reserved": 0, "rental_uris": {"ios": "https://dc.lft.to/lastmile_qr_scan", "android": "https://dc.lft.to/lastmile_qr_scan"}, "name": "e9463d408eddb8fc2e98ac3a1bbde5b2", "bike_id": "e9463d408eddb8fc2e98ac3a1bbde5b2", "type": "electric_scooter", "lat": 38.9299275, "fusion_lon": 0.0, "is_disabled": 0, "fusion_lat": 0.0, "lon": -76.994918}, {"is_reserved": 0, "rental_uris": {"ios": "https://dc.lft.to/lastmile_qr_scan", "android": "https://dc.lft.to/lastmile_qr_scan"}, "name": "540a8472257079fe1483e48e7bdb6685", "bike_id": "540a8472257079fe1483e48e7bdb6685", "type": "electric_scooter", "lat": 38.934857666666666, "fusion_lon": 0.0, "is_disabled": 0, "fusion_lat": 0.0, "lon": -77.07274033333333}, {"is_reserved": 0, "rental_uris": {"ios": "https://dc.lft.to/lastmile_qr_scan", "android": "https://dc.lft.to/lastmile_qr_scan"}, "name": "6d9f6017db8793d5d397e195effbf8b2", "bike_id": "6d9f6017db8793d5d397e195effbf8b2", "type": "electric_scooter", "lat": 38.905285, "fusion_lon": 0.0, "is_disabled": 0, "fusion_lat": 0.0, "lon": -77.06782483333333}, {"is_reserved": 0, "rental_uris": {"ios": "https://dc.lft.to/lastmile_qr_scan", "android": "https://dc.lft.to/lastmile_qr_scan"}, "name": "832555715df73308635e36456623a563", "bike_id": "832555715df73308635e36456623a563", "type": "electric_scooter", "lat": 38.9091155, "fusion_lon": 0.0, "is_disabled": 0, "fusion_lat": 0.0, "lon": -77.0861755}, {"is_reserved": 0, "rental_uris": {"ios": "https://dc.lft.to/lastmile_qr_scan", "android": "https://dc.lft.to/lastmile_qr_scan"}, "name": "1d78b1aad54b5e9222f43babfaf8075e", "bike_id": "1d78b1aad54b5e9222f43babfaf8075e", "type": "electric_scooter", "lat": 38.892218, "fusion_lon": 0.0, "is_disabled": 0, "fusion_lat": 0.0, "lon": -77.0221815}, {"is_reserved": 0, "rental_uris": {"ios": "https://dc.lft.to/lastmile_qr_scan", "android": "https://dc.lft.to/lastmile_qr_scan"}, "name": "331ec420a83e3b10c986a74ab7e83b31", "bike_id": "331ec420a83e3b10c986a74ab7e83b31", "type": "electric_scooter", "lat": 38.909786, "fusion_lon": 0.0, "is_disabled": 0, "fusion_lat": 0.0, "lon": -77.02176516666667}, {"is_reserved": 0, "rental_uris": {"ios": "https://dc.lft.to/lastmile_qr_scan", "android": "https://dc.lft.to/lastmile_qr_scan"}, "name": "de73a336e6552f340e9dc8d293bada52", "bike_id": "de73a336e6552f340e9dc8d293bada52", "type": "electric_scooter", "lat": 38.911284333333334, "fusion_lon": 0.0, "is_disabled": 0, "fusion_lat": 0.0, "lon": -77.03804266666667}, {"is_reserved": 0, "rental_uris": {"ios": "https://dc.lft.to/lastmile_qr_scan", "android": "https://dc.lft.to/lastmile_qr_scan"}, "name": "9ad746fe3867ab71f296ba2b734fad4a", "bike_id": "9ad746fe3867ab71f296ba2b734fad4a", "type": "electric_scooter", "lat": 38.905617, "fusion_lon": 0.0, "is_disabled": 0, "fusion_lat": 0.0, "lon": -77.0059285}, {"is_reserved": 0, "rental_uris": {"ios": "https://dc.lft.to/lastmile_qr_scan", "android": "https://dc.lft.to/lastmile_qr_scan"}, "name": "c900633b8c37c32f9619bd5f038672fd", "bike_id": "c900633b8c37c32f9619bd5f038672fd", "type": "electric_scooter", "lat": 38.86214016666667, "fusion_lon": 0.0, "is_disabled": 0, "fusion_lat": 0.0, "lon": -76.9947495}, {"is_reserved": 0, "rental_uris": {"ios": "https://dc.lft.to/lastmile_qr_scan", "android": "https://dc.lft.to/lastmile_qr_scan"}, "name": "9260bedbcbe404ed4e2d565830f4a857", "bike_id": "9260bedbcbe404ed4e2d565830f4a857", "type": "electric_scooter", "lat": 38.87475633333333, "fusion_lon": 0.0, "is_disabled": 0, "fusion_lat": 0.0, "lon": -77.0093505}, {"is_reserved": 0, "rental_uris": {"ios": "https://dc.lft.to/lastmile_qr_scan", "android": "https://dc.lft.to/lastmile_qr_scan"}, "name": "7dce07bc838495c279116b5df2af1816", "bike_id": "7dce07bc838495c279116b5df2af1816", "type": "electric_scooter", "lat": 38.89821166666667, "fusion_lon": 0.0, "is_disabled": 0, "fusion_lat": 0.0, "lon": -77.009066}, {"is_reserved": 0, "rental_uris": {"ios": "https://dc.lft.to/lastmile_qr_scan", "android": "https://dc.lft.to/lastmile_qr_scan"}, "name": "a7245de31255da7b4486249e4d0f03a6", "bike_id": "a7245de31255da7b4486249e4d0f03a6", "type": "electric_scooter", "lat": 38.92876566666666, "fusion_lon": 0.0, "is_disabled": 0, "fusion_lat": 0.0, "lon": -77.034322}, {"is_reserved": 0, "rental_uris": {"ios": "https://dc.lft.to/lastmile_qr_scan", "android": "https://dc.lft.to/lastmile_qr_scan"}, "name": "4006080d67644d3e445ccf29eafb7ce5", "bike_id": "4006080d67644d3e445ccf29eafb7ce5", "type": "electric_scooter", "lat": 38.9049645, "fusion_lon": 0.0, "is_disabled": 0, "fusion_lat": 0.0, "lon": -77.04080916666666}, {"is_reserved": 0, "rental_uris": {"ios": "https://dc.lft.to/lastmile_qr_scan", "android": "https://dc.lft.to/lastmile_qr_scan"}, "name": "37afd1677b123d5bd03551c01a0c4155", "bike_id": "37afd1677b123d5bd03551c01a0c4155", "type": "electric_scooter", "lat": 38.943164333333335, "fusion_lon": 0.0, "is_disabled": 0, "fusion_lat": 0.0, "lon": -77.05929866666666}, {"is_reserved": 0, "rental_uris": {"ios": "https://dc.lft.to/lastmile_qr_scan", "android": "https://dc.lft.to/lastmile_qr_scan"}, "name": "b29e9a5b2618df422ff5df053d139f65", "bike_id": "b29e9a5b2618df422ff5df053d139f65", "type": "electric_scooter", "lat": 38.889957833333334, "fusion_lon": 0.0, "is_disabled": 0, "fusion_lat": 0.0, "lon": -76.94700783333333}, {"is_reserved": 0, "rental_uris": {"ios": "https://dc.lft.to/lastmile_qr_scan", "android": "https://dc.lft.to/lastmile_qr_scan"}, "name": "01150a8e43157d47a40f5783640921d3", "bike_id": "01150a8e43157d47a40f5783640921d3", "type": "electric_scooter", "lat": 38.929248, "fusion_lon": 0.0, "is_disabled": 0, "fusion_lat": 0.0, "lon": -77.03250933333334}, {"is_reserved": 0, "rental_uris": {"ios": "https://dc.lft.to/lastmile_qr_scan", "android": "https://dc.lft.to/lastmile_qr_scan"}, "name": "985ec1f235982e8281b55e4b17d1d5d0", "bike_id": "985ec1f235982e8281b55e4b17d1d5d0", "type": "electric_scooter", "lat": 38.92450566666667, "fusion_lon": 0.0, "is_disabled": 0, "fusion_lat": 0.0, "lon": -77.02027516666666}, {"is_reserved": 0, "rental_uris": {"ios": "https://dc.lft.to/lastmile_qr_scan", "android": "https://dc.lft.to/lastmile_qr_scan"}, "name": "a47726e783977a25cc0edaf820071388", "bike_id": "a47726e783977a25cc0edaf820071388", "type": "electric_bike", "lat": 38.832413833333334, "fusion_lon": 0.0, "is_disabled": 0, "fusion_lat": 0.0, "lon": -76.9462935}, {"is_reserved": 0, "rental_uris": {"ios": "https://dc.lft.to/lastmile_qr_scan", "android": "https://dc.lft.to/lastmile_qr_scan"}, "name": "387876b747f644690e4cb654f46b869d", "bike_id": "387876b747f644690e4cb654f46b869d", "type": "electric_scooter", "lat": 38.91565033333333, "fusion_lon": 0.0, "is_disabled": 0, "fusion_lat": 0.0, "lon": -77.0217365}, {"is_reserved": 0, "rental_uris": {"ios": "https://dc.lft.to/lastmile_qr_scan", "android": "https://dc.lft.to/lastmile_qr_scan"}, "name": "c9f3d1e9d1569bef6b52d442adf8c597", "bike_id": "c9f3d1e9d1569bef6b52d442adf8c597", "type": "electric_scooter", "lat": 38.927395833333335, "fusion_lon": 0.0, "is_disabled": 0, "fusion_lat": 0.0, "lon": -77.03561833333333}, {"is_reserved": 0, "rental_uris": {"ios": "https://dc.lft.to/lastmile_qr_scan", "android": "https://dc.lft.to/lastmile_qr_scan"}, "name": "9ba820162a40c14a72828fc045611b08", "bike_id": "9ba820162a40c14a72828fc045611b08", "type": "electric_scooter", "lat": 38.91279266666667, "fusion_lon": 0.0, "is_disabled": 0, "fusion_lat": 0.0, "lon": -77.04507666666667}, {"is_reserved": 0, "rental_uris": {"ios": "https://dc.lft.to/lastmile_qr_scan", "android": "https://dc.lft.to/lastmile_qr_scan"}, "name": "c64462df07b2fa67ed1a1e6beb8894f5", "bike_id": "c64462df07b2fa67ed1a1e6beb8894f5", "type": "electric_scooter", "lat": 38.863871833333334, "fusion_lon": 0.0, "is_disabled": 0, "fusion_lat": 0.0, "lon": -76.99246716666667}, {"is_reserved": 0, "rental_uris": {"ios": "https://dc.lft.to/lastmile_qr_scan", "android": "https://dc.lft.to/lastmile_qr_scan"}, "name": "a7645c58cde946a39e76520d3ac12aa9", "bike_id": "a7645c58cde946a39e76520d3ac12aa9", "type": "electric_scooter", "lat": 38.911083, "fusion_lon": 0.0, "is_disabled": 0, "fusion_lat": 0.0, "lon": -77.0450035}, {"is_reserved": 0, "rental_uris": {"ios": "https://dc.lft.to/lastmile_qr_scan", "android": "https://dc.lft.to/lastmile_qr_scan"}, "name": "6c51c890b45fb73a04de2c2f5a33ee55", "bike_id": "6c51c890b45fb73a04de2c2f5a33ee55", "type": "electric_scooter", "lat": 38.91575233333333, "fusion_lon": 0.0, "is_disabled": 0, "fusion_lat": 0.0, "lon": -77.0469985}, {"is_reserved": 0, "rental_uris": {"ios": "https://dc.lft.to/lastmile_qr_scan", "android": "https://dc.lft.to/lastmile_qr_scan"}, "name": "4696836bfbfa0ac60deb9690580c25a3", "bike_id": "4696836bfbfa0ac60deb9690580c25a3", "type": "electric_scooter", "lat": 38.9788025, "fusion_lon": 0.0, "is_disabled": 0, "fusion_lat": 0.0, "lon": -77.0254555}, {"is_reserved": 0, "rental_uris": {"ios": "https://dc.lft.to/lastmile_qr_scan", "android": "https://dc.lft.to/lastmile_qr_scan"}, "name": "17f55db6f05e6ccb33b0fd35a36dfebd", "bike_id": "17f55db6f05e6ccb33b0fd35a36dfebd", "type": "electric_bike", "lat": 38.922395, "fusion_lon": 0.0, "is_disabled": 0, "fusion_lat": 0.0, "lon": -77.02241033333334}, {"is_reserved": 0, "rental_uris": {"ios": "https://dc.lft.to/lastmile_qr_scan", "android": "https://dc.lft.to/lastmile_qr_scan"}, "name": "75c29b0aaeed8820f951af2bcb63c1f2", "bike_id": "75c29b0aaeed8820f951af2bcb63c1f2", "type": "electric_scooter", "lat": 38.922465833333334, "fusion_lon": 0.0, "is_disabled": 0, "fusion_lat": 0.0, "lon": -77.02985166666667}, {"is_reserved": 0, "rental_uris": {"ios": "https://dc.lft.to/lastmile_qr_scan", "android": "https://dc.lft.to/lastmile_qr_scan"}, "name": "62d6781bf3d5a0ef8acc2e9e94aeb73f", "bike_id": "62d6781bf3d5a0ef8acc2e9e94aeb73f", "type": "electric_scooter", "lat": 38.90378883333333, "fusion_lon": 0.0, "is_disabled": 0, "fusion_lat": 0.0, "lon": -77.04166883333333}, {"is_reserved": 0, "rental_uris": {"ios": "https://dc.lft.to/lastmile_qr_scan", "android": "https://dc.lft.to/lastmile_qr_scan"}, "name": "a59f4f613aebaf1b711e150fd37ecfd1", "bike_id": "a59f4f613aebaf1b711e150fd37ecfd1", "type": "electric_scooter", "lat": 38.89839583333333, "fusion_lon": 0.0, "is_disabled": 0, "fusion_lat": 0.0, "lon": -76.93103466666666}, {"is_reserved": 0, "rental_uris": {"ios": "https://dc.lft.to/lastmile_qr_scan", "android": "https://dc.lft.to/lastmile_qr_scan"}, "name": "60839beefcb3b2b6b2f7e984f4e1eb16", "bike_id": "60839beefcb3b2b6b2f7e984f4e1eb16", "type": "electric_bike", "lat": 38.966079, "fusion_lon": 0.0, "is_disabled": 0, "fusion_lat": 0.0, "lon": -76.98332683333334}, {"is_reserved": 0, "rental_uris": {"ios": "https://dc.lft.to/lastmile_qr_scan", "android": "https://dc.lft.to/lastmile_qr_scan"}, "name": "3a21b635cf3551df395fad373f162c16", "bike_id": "3a21b635cf3551df395fad373f162c16", "type": "electric_scooter", "lat": 38.93737466666666, "fusion_lon": 0.0, "is_disabled": 0, "fusion_lat": 0.0, "lon": -77.03266866666667}, {"is_reserved": 0, "rental_uris": {"ios": "https://dc.lft.to/lastmile_qr_scan", "android": "https://dc.lft.to/lastmile_qr_scan"}, "name": "1b3309fb9df12c67f515d3791ab22ef5", "bike_id": "1b3309fb9df12c67f515d3791ab22ef5", "type": "electric_scooter", "lat": 38.8924945, "fusion_lon": 0.0, "is_disabled": 0, "fusion_lat": 0.0, "lon": -77.04876383333334}, {"is_reserved": 0, "rental_uris": {"ios": "https://dc.lft.to/lastmile_qr_scan", "android": "https://dc.lft.to/lastmile_qr_scan"}, "name": "cbc9f510675627add0d6b745936df929", "bike_id": "cbc9f510675627add0d6b745936df929", "type": "electric_scooter", "lat": 38.938299666666666, "fusion_lon": 0.0, "is_disabled": 0, "fusion_lat": 0.0, "lon": -77.06175383333333}, {"is_reserved": 0, "rental_uris": {"ios": "https://dc.lft.to/lastmile_qr_scan", "android": "https://dc.lft.to/lastmile_qr_scan"}, "name": "9a48ac52b22da76bc68ce15e40f8a1f3", "bike_id": "9a48ac52b22da76bc68ce15e40f8a1f3", "type": "electric_scooter", "lat": 38.900705, "fusion_lon": 0.0, "is_disabled": 0, "fusion_lat": 0.0, "lon": -77.04590866666666}, {"is_reserved": 0, "rental_uris": {"ios": "https://dc.lft.to/lastmile_qr_scan", "android": "https://dc.lft.to/lastmile_qr_scan"}, "name": "48a7639d356e41ab6c2d5f93bdc5376e", "bike_id": "48a7639d356e41ab6c2d5f93bdc5376e", "type": "electric_scooter", "lat": 38.922646, "fusion_lon": 0.0, "is_disabled": 0, "fusion_lat": 0.0, "lon": -77.01950333333333}, {"is_reserved": 0, "rental_uris": {"ios": "https://dc.lft.to/lastmile_qr_scan", "android": "https://dc.lft.to/lastmile_qr_scan"}, "name": "682e6d89dce7549ef0d04812598a4fb8", "bike_id": "682e6d89dce7549ef0d04812598a4fb8", "type": "electric_bike", "lat": 38.90611416666667, "fusion_lon": 0.0, "is_disabled": 0, "fusion_lat": 0.0, "lon": -77.06302616666666}, {"is_reserved": 0, "rental_uris": {"ios": "https://dc.lft.to/lastmile_qr_scan", "android": "https://dc.lft.to/lastmile_qr_scan"}, "name": "a8cce9fd50d9ad758b630a2ef8fcd50a", "bike_id": "a8cce9fd50d9ad758b630a2ef8fcd50a", "type": "electric_scooter", "lat": 38.930981, "fusion_lon": 0.0, "is_disabled": 0, "fusion_lat": 0.0, "lon": -77.02518883333333}, {"is_reserved": 0, "rental_uris": {"ios": "https://dc.lft.to/lastmile_qr_scan", "android": "https://dc.lft.to/lastmile_qr_scan"}, "name": "b65e58b7706dd5e2f2417f7f4f934264", "bike_id": "b65e58b7706dd5e2f2417f7f4f934264", "type": "electric_scooter", "lat": 38.884305499999996, "fusion_lon": 0.0, "is_disabled": 0, "fusion_lat": 0.0, "lon": -76.99596916666667}, {"is_reserved": 0, "rental_uris": {"ios": "https://dc.lft.to/lastmile_qr_scan", "android": "https://dc.lft.to/lastmile_qr_scan"}, "name": "14b7af3b31cc60db739e96c61be85f2e", "bike_id": "14b7af3b31cc60db739e96c61be85f2e", "type": "electric_scooter", "lat": 38.93315066666667, "fusion_lon": 0.0, "is_disabled": 0, "fusion_lat": 0.0, "lon": -77.03448683333333}, {"is_reserved": 0, "rental_uris": {"ios": "https://dc.lft.to/lastmile_qr_scan", "android": "https://dc.lft.to/lastmile_qr_scan"}, "name": "477e5591a8f2a53afa5b98849c8236b2", "bike_id": "477e5591a8f2a53afa5b98849c8236b2", "type": "electric_scooter", "lat": 38.913357500000004, "fusion_lon": 0.0, "is_disabled": 0, "fusion_lat": 0.0, "lon": -77.04816666666666}, {"is_reserved": 0, "rental_uris": {"ios": "https://dc.lft.to/lastmile_qr_scan", "android": "https://dc.lft.to/lastmile_qr_scan"}, "name": "bcbbff0275c1f381e4d5b4c35e6d4606", "bike_id": "bcbbff0275c1f381e4d5b4c35e6d4606", "type": "electric_scooter", "lat": 38.9171245, "fusion_lon": 0.0, "is_disabled": 0, "fusion_lat": 0.0, "lon": -77.0311145}, {"is_reserved": 0, "rental_uris": {"ios": "https://dc.lft.to/lastmile_qr_scan", "android": "https://dc.lft.to/lastmile_qr_scan"}, "name": "85b05dd3bc0e7e12c06459655eb278c7", "bike_id": "85b05dd3bc0e7e12c06459655eb278c7", "type": "electric_bike", "lat": 38.9130475, "fusion_lon": 0.0, "is_disabled": 0, "fusion_lat": 0.0, "lon": -77.0829405}, {"is_reserved": 0, "rental_uris": {"ios": "https://dc.lft.to/lastmile_qr_scan", "android": "https://dc.lft.to/lastmile_qr_scan"}, "name": "f3392f6dd50630b9578d049a3366c514", "bike_id": "f3392f6dd50630b9578d049a3366c514", "type": "electric_scooter", "lat": 38.902138, "fusion_lon": 0.0, "is_disabled": 0, "fusion_lat": 0.0, "lon": -77.03858183333334}, {"is_reserved": 0, "rental_uris": {"ios": "https://dc.lft.to/lastmile_qr_scan", "android": "https://dc.lft.to/lastmile_qr_scan"}, "name": "5d6e76fb27863b5d5ef358c01ea292c3", "bike_id": "5d6e76fb27863b5d5ef358c01ea292c3", "type": "electric_scooter", "lat": 38.90398416666667, "fusion_lon": 0.0, "is_disabled": 0, "fusion_lat": 0.0, "lon": -77.03208116666667}, {"is_reserved": 0, "rental_uris": {"ios": "https://dc.lft.to/lastmile_qr_scan", "android": "https://dc.lft.to/lastmile_qr_scan"}, "name": "0953298d935444456c8f51e224b7f9c7", "bike_id": "0953298d935444456c8f51e224b7f9c7", "type": "electric_bike", "lat": 38.89742733333333, "fusion_lon": 0.0, "is_disabled": 0, "fusion_lat": 0.0, "lon": -76.99219116666667}, {"is_reserved": 0, "rental_uris": {"ios": "https://dc.lft.to/lastmile_qr_scan", "android": "https://dc.lft.to/lastmile_qr_scan"}, "name": "928488fecd9a5a222aa71f6b763aee92", "bike_id": "928488fecd9a5a222aa71f6b763aee92", "type": "electric_bike", "lat": 38.87377266666667, "fusion_lon": 0.0, "is_disabled": 0, "fusion_lat": 0.0, "lon": -77.0093915}, {"is_reserved": 0, "rental_uris": {"ios": "https://dc.lft.to/lastmile_qr_scan", "android": "https://dc.lft.to/lastmile_qr_scan"}, "name": "9588169cbffbfba9da67dee5b7d895a3", "bike_id": "9588169cbffbfba9da67dee5b7d895a3", "type": "electric_scooter", "lat": 38.92528, "fusion_lon": 0.0, "is_disabled": 0, "fusion_lat": 0.0, "lon": -77.03288916666666}, {"is_reserved": 0, "rental_uris": {"ios": "https://dc.lft.to/lastmile_qr_scan", "android": "https://dc.lft.to/lastmile_qr_scan"}, "name": "cbd9b5b900ab52031d7af87a0dbbeaad", "bike_id": "cbd9b5b900ab52031d7af87a0dbbeaad", "type": "electric_scooter", "lat": 38.9061375, "fusion_lon": 0.0, "is_disabled": 0, "fusion_lat": 0.0, "lon": -77.06267183333334}, {"is_reserved": 0, "rental_uris": {"ios": "https://dc.lft.to/lastmile_qr_scan", "android": "https://dc.lft.to/lastmile_qr_scan"}, "name": "e956bbad14bf7601056d4eef4d5e7197", "bike_id": "e956bbad14bf7601056d4eef4d5e7197", "type": "electric_scooter", "lat": 38.903536833333334, "fusion_lon": 0.0, "is_disabled": 0, "fusion_lat": 0.0, "lon": -77.06576816666667}, {"is_reserved": 0, "rental_uris": {"ios": "https://dc.lft.to/lastmile_qr_scan", "android": "https://dc.lft.to/lastmile_qr_scan"}, "name": "8a72f4106c6db50037bb475b7e3e2ab5", "bike_id": "8a72f4106c6db50037bb475b7e3e2ab5", "type": "electric_bike", "lat": 38.845753333333334, "fusion_lon": 0.0, "is_disabled": 0, "fusion_lat": 0.0, "lon": -77.09618183333333}, {"is_reserved": 0, "rental_uris": {"ios": "https://dc.lft.to/lastmile_qr_scan", "android": "https://dc.lft.to/lastmile_qr_scan"}, "name": "58e6a93d8297accaf01ea162a72a3dbf", "bike_id": "58e6a93d8297accaf01ea162a72a3dbf", "type": "electric_scooter", "lat": 38.9091555, "fusion_lon": 0.0, "is_disabled": 0, "fusion_lat": 0.0, "lon": -76.99268716666667}, {"is_reserved": 0, "rental_uris": {"ios": "https://dc.lft.to/lastmile_qr_scan", "android": "https://dc.lft.to/lastmile_qr_scan"}, "name": "3634d828d30dfa26f2eada5f83e06716", "bike_id": "3634d828d30dfa26f2eada5f83e06716", "type": "electric_scooter", "lat": 38.917237, "fusion_lon": 0.0, "is_disabled": 0, "fusion_lat": 0.0, "lon": -77.03666266666667}, {"is_reserved": 0, "rental_uris": {"ios": "https://dc.lft.to/lastmile_qr_scan", "android": "https://dc.lft.to/lastmile_qr_scan"}, "name": "2faf1ae460c288fd6b53f4f2d46fd404", "bike_id": "2faf1ae460c288fd6b53f4f2d46fd404", "type": "electric_scooter", "lat": 38.898144333333335, "fusion_lon": 0.0, "is_disabled": 0, "fusion_lat": 0.0, "lon": -77.04362233333333}, {"is_reserved": 0, "rental_uris": {"ios": "https://dc.lft.to/lastmile_qr_scan", "android": "https://dc.lft.to/lastmile_qr_scan"}, "name": "ce6c8df5164e4f7f5a9a49ebfad819bb", "bike_id": "ce6c8df5164e4f7f5a9a49ebfad819bb", "type": "electric_scooter", "lat": 38.90939266666667, "fusion_lon": 0.0, "is_disabled": 0, "fusion_lat": 0.0, "lon": -77.02124583333334}, {"is_reserved": 0, "rental_uris": {"ios": "https://dc.lft.to/lastmile_qr_scan", "android": "https://dc.lft.to/lastmile_qr_scan"}, "name": "cf278ca20dc43e6f231e6cba2023a096", "bike_id": "cf278ca20dc43e6f231e6cba2023a096", "type": "electric_scooter", "lat": 38.926971333333334, "fusion_lon": 0.0, "is_disabled": 0, "fusion_lat": 0.0, "lon": -77.01523433333334}, {"is_reserved": 0, "rental_uris": {"ios": "https://dc.lft.to/lastmile_qr_scan", "android": "https://dc.lft.to/lastmile_qr_scan"}, "name": "e9437b6cbcca46aecd26b9d4b57ec684", "bike_id": "e9437b6cbcca46aecd26b9d4b57ec684", "type": "electric_scooter", "lat": 38.883567, "fusion_lon": 0.0, "is_disabled": 0, "fusion_lat": 0.0, "lon": -77.02604366666667}, {"is_reserved": 0, "rental_uris": {"ios": "https://dc.lft.to/lastmile_qr_scan", "android": "https://dc.lft.to/lastmile_qr_scan"}, "name": "ec53d16f7ca2bc5d7c32e5566fed35dd", "bike_id": "ec53d16f7ca2bc5d7c32e5566fed35dd", "type": "electric_scooter", "lat": 38.917802, "fusion_lon": 0.0, "is_disabled": 0, "fusion_lat": 0.0, "lon": -77.03437233333334}, {"is_reserved": 0, "rental_uris": {"ios": "https://dc.lft.to/lastmile_qr_scan", "android": "https://dc.lft.to/lastmile_qr_scan"}, "name": "1691b49d7927201b73cf940f76c2ae15", "bike_id": "1691b49d7927201b73cf940f76c2ae15", "type": "electric_bike", "lat": 38.88428966666667, "fusion_lon": 0.0, "is_disabled": 0, "fusion_lat": 0.0, "lon": -76.9575705}, {"is_reserved": 0, "rental_uris": {"ios": "https://dc.lft.to/lastmile_qr_scan", "android": "https://dc.lft.to/lastmile_qr_scan"}, "name": "3b421ce2e7620e638518c1d4022b301d", "bike_id": "3b421ce2e7620e638518c1d4022b301d", "type": "electric_scooter", "lat": 38.91710966666667, "fusion_lon": 0.0, "is_disabled": 0, "fusion_lat": 0.0, "lon": -77.03334583333333}, {"is_reserved": 0, "rental_uris": {"ios": "https://dc.lft.to/lastmile_qr_scan", "android": "https://dc.lft.to/lastmile_qr_scan"}, "name": "7262d2cd73af65a36b2159af2d797f75", "bike_id": "7262d2cd73af65a36b2159af2d797f75", "type": "electric_scooter", "lat": 38.905369, "fusion_lon": 0.0, "is_disabled": 0, "fusion_lat": 0.0, "lon": -77.050091}, {"is_reserved": 0, "rental_uris": {"ios": "https://dc.lft.to/lastmile_qr_scan", "android": "https://dc.lft.to/lastmile_qr_scan"}, "name": "6fbfd9b240627d95dc3a9c7b0518209f", "bike_id": "6fbfd9b240627d95dc3a9c7b0518209f", "type": "electric_scooter", "lat": 38.88512633333333, "fusion_lon": 0.0, "is_disabled": 0, "fusion_lat": 0.0, "lon": -77.00571466666666}, {"is_reserved": 0, "rental_uris": {"ios": "https://dc.lft.to/lastmile_qr_scan", "android": "https://dc.lft.to/lastmile_qr_scan"}, "name": "848b025db65c4ae5dd18ec1bad253c5e", "bike_id": "848b025db65c4ae5dd18ec1bad253c5e", "type": "electric_bike", "lat": 39.0563805, "fusion_lon": 0.0, "is_disabled": 0, "fusion_lat": 0.0, "lon": -77.12525633333334}, {"is_reserved": 0, "rental_uris": {"ios": "https://dc.lft.to/lastmile_qr_scan", "android": "https://dc.lft.to/lastmile_qr_scan"}, "name": "56c0d3371ddad6dc1ddf3af26741de46", "bike_id": "56c0d3371ddad6dc1ddf3af26741de46", "type": "electric_scooter", "lat": 38.91401533333333, "fusion_lon": 0.0, "is_disabled": 0, "fusion_lat": 0.0, "lon": -77.038944}, {"is_reserved": 0, "rental_uris": {"ios": "https://dc.lft.to/lastmile_qr_scan", "android": "https://dc.lft.to/lastmile_qr_scan"}, "name": "4a3f4c3de9cf0628f365663a09c3a6ae", "bike_id": "4a3f4c3de9cf0628f365663a09c3a6ae", "type": "electric_scooter", "lat": 38.956181, "fusion_lon": 0.0, "is_disabled": 0, "fusion_lat": 0.0, "lon": -77.02761366666667}, {"is_reserved": 0, "rental_uris": {"ios": "https://dc.lft.to/lastmile_qr_scan", "android": "https://dc.lft.to/lastmile_qr_scan"}, "name": "b3c380cd4541fa4d9d7d15b7bf03cea0", "bike_id": "b3c380cd4541fa4d9d7d15b7bf03cea0", "type": "electric_scooter", "lat": 38.929399833333335, "fusion_lon": 0.0, "is_disabled": 0, "fusion_lat": 0.0, "lon": -77.0231845}, {"is_reserved": 0, "rental_uris": {"ios": "https://dc.lft.to/lastmile_qr_scan", "android": "https://dc.lft.to/lastmile_qr_scan"}, "name": "f6317580b096a4ec17e5d62e02d63fa0", "bike_id": "f6317580b096a4ec17e5d62e02d63fa0", "type": "electric_scooter", "lat": 38.905312, "fusion_lon": 0.0, "is_disabled": 0, "fusion_lat": 0.0, "lon": -77.06139433333334}, {"is_reserved": 0, "rental_uris": {"ios": "https://dc.lft.to/lastmile_qr_scan", "android": "https://dc.lft.to/lastmile_qr_scan"}, "name": "29c834b18f2742cbe03b50e792c99331", "bike_id": "29c834b18f2742cbe03b50e792c99331", "type": "electric_scooter", "lat": 38.90780733333333, "fusion_lon": 0.0, "is_disabled": 0, "fusion_lat": 0.0, "lon": -77.03829566666667}, {"is_reserved": 0, "rental_uris": {"ios": "https://dc.lft.to/lastmile_qr_scan", "android": "https://dc.lft.to/lastmile_qr_scan"}, "name": "bbbfdd143d22907ce6f1356f80dbd165", "bike_id": "bbbfdd143d22907ce6f1356f80dbd165", "type": "electric_scooter", "lat": 38.930966, "fusion_lon": 0.0, "is_disabled": 0, "fusion_lat": 0.0, "lon": -77.02545883333333}, {"is_reserved": 0, "rental_uris": {"ios": "https://dc.lft.to/lastmile_qr_scan", "android": "https://dc.lft.to/lastmile_qr_scan"}, "name": "4552a3ee61f4dfc788984170084061be", "bike_id": "4552a3ee61f4dfc788984170084061be", "type": "electric_scooter", "lat": 38.898222, "fusion_lon": 0.0, "is_disabled": 0, "fusion_lat": 0.0, "lon": -76.99694616666666}, {"is_reserved": 0, "rental_uris": {"ios": "https://dc.lft.to/lastmile_qr_scan", "android": "https://dc.lft.to/lastmile_qr_scan"}, "name": "704d4d03a1c3702b77bc85b8a88fe2ac", "bike_id": "704d4d03a1c3702b77bc85b8a88fe2ac", "type": "electric_bike", "lat": 38.886382, "fusion_lon": 0.0, "is_disabled": 0, "fusion_lat": 0.0, "lon": -76.95470233333333}, {"is_reserved": 0, "rental_uris": {"ios": "https://dc.lft.to/lastmile_qr_scan", "android": "https://dc.lft.to/lastmile_qr_scan"}, "name": "cd6d188547502d7d9834371f6c826fcd", "bike_id": "cd6d188547502d7d9834371f6c826fcd", "type": "electric_scooter", "lat": 38.9192425, "fusion_lon": 0.0, "is_disabled": 0, "fusion_lat": 0.0, "lon": -77.03182766666667}, {"is_reserved": 0, "rental_uris": {"ios": "https://dc.lft.to/lastmile_qr_scan", "android": "https://dc.lft.to/lastmile_qr_scan"}, "name": "1f4979a31c2d5653420b13c4b1ce532e", "bike_id": "1f4979a31c2d5653420b13c4b1ce532e", "type": "electric_scooter", "lat": 38.9308015, "fusion_lon": 0.0, "is_disabled": 0, "fusion_lat": 0.0, "lon": -77.037329}, {"is_reserved": 0, "rental_uris": {"ios": "https://dc.lft.to/lastmile_qr_scan", "android": "https://dc.lft.to/lastmile_qr_scan"}, "name": "bf49c01c64bdb105e8cdce6bef8de429", "bike_id": "bf49c01c64bdb105e8cdce6bef8de429", "type": "electric_scooter", "lat": 38.901424166666665, "fusion_lon": 0.0, "is_disabled": 0, "fusion_lat": 0.0, "lon": -77.02885466666666}, {"is_reserved": 0, "rental_uris": {"ios": "https://dc.lft.to/lastmile_qr_scan", "android": "https://dc.lft.to/lastmile_qr_scan"}, "name": "14ecb081bb684f9422ac8f4a2c87deb0", "bike_id": "14ecb081bb684f9422ac8f4a2c87deb0", "type": "electric_scooter", "lat": 38.92365066666667, "fusion_lon": 0.0, "is_disabled": 0, "fusion_lat": 0.0, "lon": -77.041242}, {"is_reserved": 0, "rental_uris": {"ios": "https://dc.lft.to/lastmile_qr_scan", "android": "https://dc.lft.to/lastmile_qr_scan"}, "name": "4253d2ba56041b6f13f368bb80f89f16", "bike_id": "4253d2ba56041b6f13f368bb80f89f16", "type": "electric_scooter", "lat": 38.86621566666667, "fusion_lon": 0.0, "is_disabled": 0, "fusion_lat": 0.0, "lon": -76.98653916666666}, {"is_reserved": 0, "rental_uris": {"ios": "https://dc.lft.to/lastmile_qr_scan", "android": "https://dc.lft.to/lastmile_qr_scan"}, "name": "02840232de6844ce3b1e9736053531e7", "bike_id": "02840232de6844ce3b1e9736053531e7", "type": "electric_scooter", "lat": 38.892905166666665, "fusion_lon": 0.0, "is_disabled": 0, "fusion_lat": 0.0, "lon": -77.03345816666666}, {"is_reserved": 0, "rental_uris": {"ios": "https://dc.lft.to/lastmile_qr_scan", "android": "https://dc.lft.to/lastmile_qr_scan"}, "name": "d15e49864c63992d6a01b7a0fd6d5f8b", "bike_id": "d15e49864c63992d6a01b7a0fd6d5f8b", "type": "electric_scooter", "lat": 38.844297166666664, "fusion_lon": 0.0, "is_disabled": 0, "fusion_lat": 0.0, "lon": -76.99779933333333}, {"is_reserved": 0, "rental_uris": {"ios": "https://dc.lft.to/lastmile_qr_scan", "android": "https://dc.lft.to/lastmile_qr_scan"}, "name": "32a2606c2c31fcbc1862b5707c570757", "bike_id": "32a2606c2c31fcbc1862b5707c570757", "type": "electric_scooter", "lat": 38.909393333333334, "fusion_lon": 0.0, "is_disabled": 0, "fusion_lat": 0.0, "lon": -77.04492166666667}, {"is_reserved": 0, "rental_uris": {"ios": "https://dc.lft.to/lastmile_qr_scan", "android": "https://dc.lft.to/lastmile_qr_scan"}, "name": "bbe81426446221c5346b172d08b31a8f", "bike_id": "bbe81426446221c5346b172d08b31a8f", "type": "electric_bike", "lat": 38.906885833333334, "fusion_lon": 0.0, "is_disabled": 0, "fusion_lat": 0.0, "lon": -76.9518725}, {"is_reserved": 0, "rental_uris": {"ios": "https://dc.lft.to/lastmile_qr_scan", "android": "https://dc.lft.to/lastmile_qr_scan"}, "name": "746b63dc736c4fc179b24550aba7717d", "bike_id": "746b63dc736c4fc179b24550aba7717d", "type": "electric_scooter", "lat": 38.909787, "fusion_lon": 0.0, "is_disabled": 0, "fusion_lat": 0.0, "lon": -77.03398733333333}, {"is_reserved": 0, "rental_uris": {"ios": "https://dc.lft.to/lastmile_qr_scan", "android": "https://dc.lft.to/lastmile_qr_scan"}, "name": "29d9bc0653a6252e4baae2ea21199afb", "bike_id": "29d9bc0653a6252e4baae2ea21199afb", "type": "electric_scooter", "lat": 38.910386333333335, "fusion_lon": 0.0, "is_disabled": 0, "fusion_lat": 0.0, "lon": -77.042637}, {"is_reserved": 0, "rental_uris": {"ios": "https://dc.lft.to/lastmile_qr_scan", "android": "https://dc.lft.to/lastmile_qr_scan"}, "name": "b421fefbfe02669be622d8dd385dd85b", "bike_id": "b421fefbfe02669be622d8dd385dd85b", "type": "electric_scooter", "lat": 38.89224683333333, "fusion_lon": 0.0, "is_disabled": 0, "fusion_lat": 0.0, "lon": -77.02846833333334}, {"is_reserved": 0, "rental_uris": {"ios": "https://dc.lft.to/lastmile_qr_scan", "android": "https://dc.lft.to/lastmile_qr_scan"}, "name": "3ad04825f0f0a9b49d055acf4c58e978", "bike_id": "3ad04825f0f0a9b49d055acf4c58e978", "type": "electric_scooter", "lat": 38.86256816666667, "fusion_lon": 0.0, "is_disabled": 0, "fusion_lat": 0.0, "lon": -76.98700683333334}, {"is_reserved": 0, "rental_uris": {"ios": "https://dc.lft.to/lastmile_qr_scan", "android": "https://dc.lft.to/lastmile_qr_scan"}, "name": "f5efadbb56d49fc6d07e9b484e9c5e69", "bike_id": "f5efadbb56d49fc6d07e9b484e9c5e69", "type": "electric_scooter", "lat": 38.906896833333334, "fusion_lon": 0.0, "is_disabled": 0, "fusion_lat": 0.0, "lon": -77.06333033333334}, {"is_reserved": 0, "rental_uris": {"ios": "https://dc.lft.to/lastmile_qr_scan", "android": "https://dc.lft.to/lastmile_qr_scan"}, "name": "56f228d8df9462e4a2333896e2d1b37c", "bike_id": "56f228d8df9462e4a2333896e2d1b37c", "type": "electric_scooter", "lat": 38.88595333333333, "fusion_lon": 0.0, "is_disabled": 0, "fusion_lat": 0.0, "lon": -76.99147883333333}, {"is_reserved": 0, "rental_uris": {"ios": "https://dc.lft.to/lastmile_qr_scan", "android": "https://dc.lft.to/lastmile_qr_scan"}, "name": "7f26ec63d4552f9b3181c0dd5b723b6e", "bike_id": "7f26ec63d4552f9b3181c0dd5b723b6e", "type": "electric_scooter", "lat": 38.900683, "fusion_lon": 0.0, "is_disabled": 0, "fusion_lat": 0.0, "lon": -77.02805816666667}, {"is_reserved": 0, "rental_uris": {"ios": "https://dc.lft.to/lastmile_qr_scan", "android": "https://dc.lft.to/lastmile_qr_scan"}, "name": "84cfbb4d3594f781aeb5402a68fb6af6", "bike_id": "84cfbb4d3594f781aeb5402a68fb6af6", "type": "electric_scooter", "lat": 38.922355333333336, "fusion_lon": 0.0, "is_disabled": 0, "fusion_lat": 0.0, "lon": -77.038913}, {"is_reserved": 0, "rental_uris": {"ios": "https://dc.lft.to/lastmile_qr_scan", "android": "https://dc.lft.to/lastmile_qr_scan"}, "name": "06753ccb2346031aaff29f4e205a86f3", "bike_id": "06753ccb2346031aaff29f4e205a86f3", "type": "electric_scooter", "lat": 38.90772483333333, "fusion_lon": 0.0, "is_disabled": 0, "fusion_lat": 0.0, "lon": -77.02061883333333}, {"is_reserved": 0, "rental_uris": {"ios": "https://dc.lft.to/lastmile_qr_scan", "android": "https://dc.lft.to/lastmile_qr_scan"}, "name": "dae368902658a42ccbd7922d4cb3ede9", "bike_id": "dae368902658a42ccbd7922d4cb3ede9", "type": "electric_bike", "lat": 38.80235416666667, "fusion_lon": 0.0, "is_disabled": 0, "fusion_lat": 0.0, "lon": -77.07916283333333}, {"is_reserved": 0, "rental_uris": {"ios": "https://dc.lft.to/lastmile_qr_scan", "android": "https://dc.lft.to/lastmile_qr_scan"}, "name": "d6a68d61f492f185426ffcb02890c043", "bike_id": "d6a68d61f492f185426ffcb02890c043", "type": "electric_scooter", "lat": 38.892232, "fusion_lon": 0.0, "is_disabled": 0, "fusion_lat": 0.0, "lon": -77.0241575}, {"is_reserved": 0, "rental_uris": {"ios": "https://dc.lft.to/lastmile_qr_scan", "android": "https://dc.lft.to/lastmile_qr_scan"}, "name": "95c882270710bccb26f4bdfd10dae144", "bike_id": "95c882270710bccb26f4bdfd10dae144", "type": "electric_scooter", "lat": 38.90977266666667, "fusion_lon": 0.0, "is_disabled": 0, "fusion_lat": 0.0, "lon": -76.997253}, {"is_reserved": 0, "rental_uris": {"ios": "https://dc.lft.to/lastmile_qr_scan", "android": "https://dc.lft.to/lastmile_qr_scan"}, "name": "08c98449b1df31303b3cbeb1fc2eddfc", "bike_id": "08c98449b1df31303b3cbeb1fc2eddfc", "type": "electric_scooter", "lat": 38.9141725, "fusion_lon": 0.0, "is_disabled": 0, "fusion_lat": 0.0, "lon": -77.0453765}, {"is_reserved": 0, "rental_uris": {"ios": "https://dc.lft.to/lastmile_qr_scan", "android": "https://dc.lft.to/lastmile_qr_scan"}, "name": "134fc3670c68e99fa49421dd581e4784", "bike_id": "134fc3670c68e99fa49421dd581e4784", "type": "electric_scooter", "lat": 38.949801, "fusion_lon": 0.0, "is_disabled": 0, "fusion_lat": 0.0, "lon": -77.0269555}, {"is_reserved": 0, "rental_uris": {"ios": "https://dc.lft.to/lastmile_qr_scan", "android": "https://dc.lft.to/lastmile_qr_scan"}, "name": "1b9f064b43734ebe6752bd4d68b37615", "bike_id": "1b9f064b43734ebe6752bd4d68b37615", "type": "electric_scooter", "lat": 38.91920616666667, "fusion_lon": 0.0, "is_disabled": 0, "fusion_lat": 0.0, "lon": -77.0312075}, {"is_reserved": 0, "rental_uris": {"ios": "https://dc.lft.to/lastmile_qr_scan", "android": "https://dc.lft.to/lastmile_qr_scan"}, "name": "22c9a0d228f566b3b832fdfe0d847f57", "bike_id": "22c9a0d228f566b3b832fdfe0d847f57", "type": "electric_scooter", "lat": 38.897388, "fusion_lon": 0.0, "is_disabled": 0, "fusion_lat": 0.0, "lon": -77.0458845}, {"is_reserved": 0, "rental_uris": {"ios": "https://dc.lft.to/lastmile_qr_scan", "android": "https://dc.lft.to/lastmile_qr_scan"}, "name": "7518ae67cf2877466973ab1bf48135ac", "bike_id": "7518ae67cf2877466973ab1bf48135ac", "type": "electric_bike", "lat": 38.82877333333333, "fusion_lon": 0.0, "is_disabled": 0, "fusion_lat": 0.0, "lon": -77.11215716666666}, {"is_reserved": 0, "rental_uris": {"ios": "https://dc.lft.to/lastmile_qr_scan", "android": "https://dc.lft.to/lastmile_qr_scan"}, "name": "67a87d4e1a0e12aa12eeaa3b6ca301e6", "bike_id": "67a87d4e1a0e12aa12eeaa3b6ca301e6", "type": "electric_scooter", "lat": 38.879740166666664, "fusion_lon": 0.0, "is_disabled": 0, "fusion_lat": 0.0, "lon": -76.98536533333333}, {"is_reserved": 0, "rental_uris": {"ios": "https://dc.lft.to/lastmile_qr_scan", "android": "https://dc.lft.to/lastmile_qr_scan"}, "name": "cbc8847e8c296c9923886e0c25113946", "bike_id": "cbc8847e8c296c9923886e0c25113946", "type": "electric_bike", "lat": 38.960208333333334, "fusion_lon": 0.0, "is_disabled": 0, "fusion_lat": 0.0, "lon": -77.0172595}, {"is_reserved": 0, "rental_uris": {"ios": "https://dc.lft.to/lastmile_qr_scan", "android": "https://dc.lft.to/lastmile_qr_scan"}, "name": "fe30cac6f329a8126353a6a66101303e", "bike_id": "fe30cac6f329a8126353a6a66101303e", "type": "electric_scooter", "lat": 38.919836833333335, "fusion_lon": 0.0, "is_disabled": 0, "fusion_lat": 0.0, "lon": -76.97308233333334}, {"is_reserved": 0, "rental_uris": {"ios": "https://dc.lft.to/lastmile_qr_scan", "android": "https://dc.lft.to/lastmile_qr_scan"}, "name": "38301092959da5b7e82f79780a7d54bd", "bike_id": "38301092959da5b7e82f79780a7d54bd", "type": "electric_scooter", "lat": 38.91495283333333, "fusion_lon": 0.0, "is_disabled": 0, "fusion_lat": 0.0, "lon": -77.018609}, {"is_reserved": 0, "rental_uris": {"ios": "https://dc.lft.to/lastmile_qr_scan", "android": "https://dc.lft.to/lastmile_qr_scan"}, "name": "b2a390a5552db14826d79081d50b766e", "bike_id": "b2a390a5552db14826d79081d50b766e", "type": "electric_scooter", "lat": 38.95403683333333, "fusion_lon": 0.0, "is_disabled": 0, "fusion_lat": 0.0, "lon": -77.02752033333333}, {"is_reserved": 0, "rental_uris": {"ios": "https://dc.lft.to/lastmile_qr_scan", "android": "https://dc.lft.to/lastmile_qr_scan"}, "name": "417306556cc4c6c093e5e6013dc43154", "bike_id": "417306556cc4c6c093e5e6013dc43154", "type": "electric_bike", "lat": 38.908608, "fusion_lon": 0.0, "is_disabled": 0, "fusion_lat": 0.0, "lon": -77.08078683333333}, {"is_reserved": 0, "rental_uris": {"ios": "https://dc.lft.to/lastmile_qr_scan", "android": "https://dc.lft.to/lastmile_qr_scan"}, "name": "8a9aa4c2199a0382a5c9ef14e09687bb", "bike_id": "8a9aa4c2199a0382a5c9ef14e09687bb", "type": "electric_scooter", "lat": 38.917214333333334, "fusion_lon": 0.0, "is_disabled": 0, "fusion_lat": 0.0, "lon": -77.03177916666667}, {"is_reserved": 0, "rental_uris": {"ios": "https://dc.lft.to/lastmile_qr_scan", "android": "https://dc.lft.to/lastmile_qr_scan"}, "name": "eaa7ad38eb95af78c931c57f4804a2c0", "bike_id": "eaa7ad38eb95af78c931c57f4804a2c0", "type": "electric_scooter", "lat": 38.957123, "fusion_lon": 0.0, "is_disabled": 0, "fusion_lat": 0.0, "lon": -77.002828}, {"is_reserved": 0, "rental_uris": {"ios": "https://dc.lft.to/lastmile_qr_scan", "android": "https://dc.lft.to/lastmile_qr_scan"}, "name": "c08198d313791dbc923362d1455b45bd", "bike_id": "c08198d313791dbc923362d1455b45bd", "type": "electric_scooter", "lat": 38.918976666666666, "fusion_lon": 0.0, "is_disabled": 0, "fusion_lat": 0.0, "lon": -77.04156033333334}, {"is_reserved": 0, "rental_uris": {"ios": "https://dc.lft.to/lastmile_qr_scan", "android": "https://dc.lft.to/lastmile_qr_scan"}, "name": "153fc8f24b713dda5029c5015be78483", "bike_id": "153fc8f24b713dda5029c5015be78483", "type": "electric_scooter", "lat": 38.95073166666667, "fusion_lon": 0.0, "is_disabled": 0, "fusion_lat": 0.0, "lon": -77.0087645}, {"is_reserved": 0, "rental_uris": {"ios": "https://dc.lft.to/lastmile_qr_scan", "android": "https://dc.lft.to/lastmile_qr_scan"}, "name": "2ab2a1a813f26a3a3968b02d82dd7252", "bike_id": "2ab2a1a813f26a3a3968b02d82dd7252", "type": "electric_scooter", "lat": 38.882805, "fusion_lon": 0.0, "is_disabled": 0, "fusion_lat": 0.0, "lon": -76.99367683333334}, {"is_reserved": 0, "rental_uris": {"ios": "https://dc.lft.to/lastmile_qr_scan", "android": "https://dc.lft.to/lastmile_qr_scan"}, "name": "5442b2f777aa6e682c1be72453b76600", "bike_id": "5442b2f777aa6e682c1be72453b76600", "type": "electric_scooter", "lat": 38.875870666666664, "fusion_lon": 0.0, "is_disabled": 0, "fusion_lat": 0.0, "lon": -77.012895}, {"is_reserved": 0, "rental_uris": {"ios": "https://dc.lft.to/lastmile_qr_scan", "android": "https://dc.lft.to/lastmile_qr_scan"}, "name": "9f1174ab7d965f468508967e0b5a26f3", "bike_id": "9f1174ab7d965f468508967e0b5a26f3", "type": "electric_bike", "lat": 39.02932466666667, "fusion_lon": 0.0, "is_disabled": 0, "fusion_lat": 0.0, "lon": -77.04928583333333}, {"is_reserved": 0, "rental_uris": {"ios": "https://dc.lft.to/lastmile_qr_scan", "android": "https://dc.lft.to/lastmile_qr_scan"}, "name": "e8a8ec31cf596d5a2ee1cc516bc83f1a", "bike_id": "e8a8ec31cf596d5a2ee1cc516bc83f1a", "type": "electric_scooter", "lat": 38.91815, "fusion_lon": 0.0, "is_disabled": 0, "fusion_lat": 0.0, "lon": -77.00475583333333}, {"is_reserved": 0, "rental_uris": {"ios": "https://dc.lft.to/lastmile_qr_scan", "android": "https://dc.lft.to/lastmile_qr_scan"}, "name": "e74e18233579f0dbf1876a1e9cb0b0b7", "bike_id": "e74e18233579f0dbf1876a1e9cb0b0b7", "type": "electric_bike", "lat": 38.909018333333336, "fusion_lon": 0.0, "is_disabled": 0, "fusion_lat": 0.0, "lon": -77.023236}, {"is_reserved": 0, "rental_uris": {"ios": "https://dc.lft.to/lastmile_qr_scan", "android": "https://dc.lft.to/lastmile_qr_scan"}, "name": "837b4197d1ff62b2584d92c40573c3f2", "bike_id": "837b4197d1ff62b2584d92c40573c3f2", "type": "electric_scooter", "lat": 38.87534566666667, "fusion_lon": 0.0, "is_disabled": 0, "fusion_lat": 0.0, "lon": -77.00508116666667}, {"is_reserved": 0, "rental_uris": {"ios": "https://dc.lft.to/lastmile_qr_scan", "android": "https://dc.lft.to/lastmile_qr_scan"}, "name": "8afe30f5388cdf6d0536b7b8705fafad", "bike_id": "8afe30f5388cdf6d0536b7b8705fafad", "type": "electric_bike", "lat": 38.88493, "fusion_lon": 0.0, "is_disabled": 0, "fusion_lat": 0.0, "lon": -77.005977}, {"is_reserved": 0, "rental_uris": {"ios": "https://dc.lft.to/lastmile_qr_scan", "android": "https://dc.lft.to/lastmile_qr_scan"}, "name": "eddbf2422320cc5f64ddb24675afc828", "bike_id": "eddbf2422320cc5f64ddb24675afc828", "type": "electric_scooter", "lat": 38.8950375, "fusion_lon": 0.0, "is_disabled": 0, "fusion_lat": 0.0, "lon": -77.002228}, {"is_reserved": 0, "rental_uris": {"ios": "https://dc.lft.to/lastmile_qr_scan", "android": "https://dc.lft.to/lastmile_qr_scan"}, "name": "0914f51282102c98edd8260e8bcd4ea9", "bike_id": "0914f51282102c98edd8260e8bcd4ea9", "type": "electric_scooter", "lat": 38.92032666666667, "fusion_lon": 0.0, "is_disabled": 0, "fusion_lat": 0.0, "lon": -77.031439}, {"is_reserved": 0, "rental_uris": {"ios": "https://dc.lft.to/lastmile_qr_scan", "android": "https://dc.lft.to/lastmile_qr_scan"}, "name": "5e0cb6bb9ec5e9b4b166405f0b3e02a6", "bike_id": "5e0cb6bb9ec5e9b4b166405f0b3e02a6", "type": "electric_scooter", "lat": 38.898515333333336, "fusion_lon": 0.0, "is_disabled": 0, "fusion_lat": 0.0, "lon": -77.0228805}, {"is_reserved": 0, "rental_uris": {"ios": "https://dc.lft.to/lastmile_qr_scan", "android": "https://dc.lft.to/lastmile_qr_scan"}, "name": "b39ed3ebf271c9276932e12c12caa1d3", "bike_id": "b39ed3ebf271c9276932e12c12caa1d3", "type": "electric_scooter", "lat": 38.897989, "fusion_lon": 0.0, "is_disabled": 0, "fusion_lat": 0.0, "lon": -77.03288866666666}, {"is_reserved": 0, "rental_uris": {"ios": "https://dc.lft.to/lastmile_qr_scan", "android": "https://dc.lft.to/lastmile_qr_scan"}, "name": "10afb92b13f85e717038f58ae4b58c4d", "bike_id": "10afb92b13f85e717038f58ae4b58c4d", "type": "electric_scooter", "lat": 38.88745466666667, "fusion_lon": 0.0, "is_disabled": 0, "fusion_lat": 0.0, "lon": -77.0216895}, {"is_reserved": 0, "rental_uris": {"ios": "https://dc.lft.to/lastmile_qr_scan", "android": "https://dc.lft.to/lastmile_qr_scan"}, "name": "6420ae8d26b618866ca219bbcfaf7571", "bike_id": "6420ae8d26b618866ca219bbcfaf7571", "type": "electric_bike", "lat": 38.85790216666667, "fusion_lon": 0.0, "is_disabled": 0, "fusion_lat": 0.0, "lon": -76.987384}, {"is_reserved": 0, "rental_uris": {"ios": "https://dc.lft.to/lastmile_qr_scan", "android": "https://dc.lft.to/lastmile_qr_scan"}, "name": "0524bfc8f897839369686412127cb9b0", "bike_id": "0524bfc8f897839369686412127cb9b0", "type": "electric_scooter", "lat": 38.919239166666664, "fusion_lon": 0.0, "is_disabled": 0, "fusion_lat": 0.0, "lon": -77.03381966666667}, {"is_reserved": 0, "rental_uris": {"ios": "https://dc.lft.to/lastmile_qr_scan", "android": "https://dc.lft.to/lastmile_qr_scan"}, "name": "08679a2d95e96b4e03e8fea1b6ece695", "bike_id": "08679a2d95e96b4e03e8fea1b6ece695", "type": "electric_bike", "lat": 38.838120333333336, "fusion_lon": 0.0, "is_disabled": 0, "fusion_lat": 0.0, "lon": -77.09524433333333}, {"is_reserved": 0, "rental_uris": {"ios": "https://dc.lft.to/lastmile_qr_scan", "android": "https://dc.lft.to/lastmile_qr_scan"}, "name": "41d3bdcdadace7ef856495727e8692a1", "bike_id": "41d3bdcdadace7ef856495727e8692a1", "type": "electric_scooter", "lat": 38.954035166666664, "fusion_lon": 0.0, "is_disabled": 0, "fusion_lat": 0.0, "lon": -77.02746916666666}, {"is_reserved": 0, "rental_uris": {"ios": "https://dc.lft.to/lastmile_qr_scan", "android": "https://dc.lft.to/lastmile_qr_scan"}, "name": "e440cd659f98f2a86276d610515e98b9", "bike_id": "e440cd659f98f2a86276d610515e98b9", "type": "electric_scooter", "lat": 38.94636066666666, "fusion_lon": 0.0, "is_disabled": 0, "fusion_lat": 0.0, "lon": -77.01845133333333}, {"is_reserved": 0, "rental_uris": {"ios": "https://dc.lft.to/lastmile_qr_scan", "android": "https://dc.lft.to/lastmile_qr_scan"}, "name": "29dd1c7fec0d16bf1a51cec7759119a8", "bike_id": "29dd1c7fec0d16bf1a51cec7759119a8", "type": "electric_bike", "lat": 38.844618, "fusion_lon": 0.0, "is_disabled": 0, "fusion_lat": 0.0, "lon": -76.98753516666666}, {"is_reserved": 0, "rental_uris": {"ios": "https://dc.lft.to/lastmile_qr_scan", "android": "https://dc.lft.to/lastmile_qr_scan"}, "name": "0148fd8103816015faccadbee15609fd", "bike_id": "0148fd8103816015faccadbee15609fd", "type": "electric_scooter", "lat": 38.91543866666667, "fusion_lon": 0.0, "is_disabled": 0, "fusion_lat": 0.0, "lon": -77.04620566666667}, {"is_reserved": 0, "rental_uris": {"ios": "https://dc.lft.to/lastmile_qr_scan", "android": "https://dc.lft.to/lastmile_qr_scan"}, "name": "dc46e7dac693b1ee0ccbf68e2b8d3f8c", "bike_id": "dc46e7dac693b1ee0ccbf68e2b8d3f8c", "type": "electric_scooter", "lat": 38.930017, "fusion_lon": 0.0, "is_disabled": 0, "fusion_lat": 0.0, "lon": -77.05667533333333}, {"is_reserved": 0, "rental_uris": {"ios": "https://dc.lft.to/lastmile_qr_scan", "android": "https://dc.lft.to/lastmile_qr_scan"}, "name": "fdf686cbf5f5953fb051d4809a39534a", "bike_id": "fdf686cbf5f5953fb051d4809a39534a", "type": "electric_scooter", "lat": 38.8666175, "fusion_lon": 0.0, "is_disabled": 0, "fusion_lat": 0.0, "lon": -76.98895216666666}, {"is_reserved": 0, "rental_uris": {"ios": "https://dc.lft.to/lastmile_qr_scan", "android": "https://dc.lft.to/lastmile_qr_scan"}, "name": "341414398c145b2185042627879646a0", "bike_id": "341414398c145b2185042627879646a0", "type": "electric_scooter", "lat": 38.87631433333333, "fusion_lon": 0.0, "is_disabled": 0, "fusion_lat": 0.0, "lon": -76.96526866666666}, {"is_reserved": 0, "rental_uris": {"ios": "https://dc.lft.to/lastmile_qr_scan", "android": "https://dc.lft.to/lastmile_qr_scan"}, "name": "b592c8d5988cb2b9b981c4e502b8538a", "bike_id": "b592c8d5988cb2b9b981c4e502b8538a", "type": "electric_scooter", "lat": 38.890512666666666, "fusion_lon": 0.0, "is_disabled": 0, "fusion_lat": 0.0, "lon": -76.93756333333333}, {"is_reserved": 0, "rental_uris": {"ios": "https://dc.lft.to/lastmile_qr_scan", "android": "https://dc.lft.to/lastmile_qr_scan"}, "name": "8352d40a4bdff562c0c32461ef7ea744", "bike_id": "8352d40a4bdff562c0c32461ef7ea744", "type": "electric_scooter", "lat": 38.915624666666666, "fusion_lon": 0.0, "is_disabled": 0, "fusion_lat": 0.0, "lon": -77.03175966666667}, {"is_reserved": 0, "rental_uris": {"ios": "https://dc.lft.to/lastmile_qr_scan", "android": "https://dc.lft.to/lastmile_qr_scan"}, "name": "9afebec9e5d4e9715ba49e62a958069c", "bike_id": "9afebec9e5d4e9715ba49e62a958069c", "type": "electric_scooter", "lat": 38.865267833333334, "fusion_lon": 0.0, "is_disabled": 0, "fusion_lat": 0.0, "lon": -76.99029533333334}, {"is_reserved": 0, "rental_uris": {"ios": "https://dc.lft.to/lastmile_qr_scan", "android": "https://dc.lft.to/lastmile_qr_scan"}, "name": "7ebe48cd421af9428f1adb523cf4014e", "bike_id": "7ebe48cd421af9428f1adb523cf4014e", "type": "electric_scooter", "lat": 38.898520833333336, "fusion_lon": 0.0, "is_disabled": 0, "fusion_lat": 0.0, "lon": -77.00742583333333}, {"is_reserved": 0, "rental_uris": {"ios": "https://dc.lft.to/lastmile_qr_scan", "android": "https://dc.lft.to/lastmile_qr_scan"}, "name": "2e54959c2bacedde64b3d51c46b68c3a", "bike_id": "2e54959c2bacedde64b3d51c46b68c3a", "type": "electric_scooter", "lat": 38.9072315, "fusion_lon": 0.0, "is_disabled": 0, "fusion_lat": 0.0, "lon": -77.028895}, {"is_reserved": 0, "rental_uris": {"ios": "https://dc.lft.to/lastmile_qr_scan", "android": "https://dc.lft.to/lastmile_qr_scan"}, "name": "79cef85843bb3b9c6711c0eca1e7b550", "bike_id": "79cef85843bb3b9c6711c0eca1e7b550", "type": "electric_scooter", "lat": 38.919657, "fusion_lon": 0.0, "is_disabled": 0, "fusion_lat": 0.0, "lon": -77.02710816666666}, {"is_reserved": 0, "rental_uris": {"ios": "https://dc.lft.to/lastmile_qr_scan", "android": "https://dc.lft.to/lastmile_qr_scan"}, "name": "16edf42b0720adc87c3a3f1691a4c0b2", "bike_id": "16edf42b0720adc87c3a3f1691a4c0b2", "type": "electric_scooter", "lat": 38.896851833333336, "fusion_lon": 0.0, "is_disabled": 0, "fusion_lat": 0.0, "lon": -77.00492016666666}, {"is_reserved": 0, "rental_uris": {"ios": "https://dc.lft.to/lastmile_qr_scan", "android": "https://dc.lft.to/lastmile_qr_scan"}, "name": "bc7aecdf4a99b8f49762611c496e77a8", "bike_id": "bc7aecdf4a99b8f49762611c496e77a8", "type": "electric_scooter", "lat": 38.906281666666665, "fusion_lon": 0.0, "is_disabled": 0, "fusion_lat": 0.0, "lon": -77.04834333333334}, {"is_reserved": 0, "rental_uris": {"ios": "https://dc.lft.to/lastmile_qr_scan", "android": "https://dc.lft.to/lastmile_qr_scan"}, "name": "40da4548fdc764dd79abe7f4b3ffa8f8", "bike_id": "40da4548fdc764dd79abe7f4b3ffa8f8", "type": "electric_scooter", "lat": 38.91852133333333, "fusion_lon": 0.0, "is_disabled": 0, "fusion_lat": 0.0, "lon": -77.04495733333333}, {"is_reserved": 0, "rental_uris": {"ios": "https://dc.lft.to/lastmile_qr_scan", "android": "https://dc.lft.to/lastmile_qr_scan"}, "name": "4e7fb42e94db5380601f33dfb13e33c3", "bike_id": "4e7fb42e94db5380601f33dfb13e33c3", "type": "electric_scooter", "lat": 38.904283166666666, "fusion_lon": 0.0, "is_disabled": 0, "fusion_lat": 0.0, "lon": -76.9907095}, {"is_reserved": 0, "rental_uris": {"ios": "https://dc.lft.to/lastmile_qr_scan", "android": "https://dc.lft.to/lastmile_qr_scan"}, "name": "38c29e28e8c1687e5240a2f1803c1d9b", "bike_id": "38c29e28e8c1687e5240a2f1803c1d9b", "type": "electric_scooter", "lat": 38.942150833333336, "fusion_lon": 0.0, "is_disabled": 0, "fusion_lat": 0.0, "lon": -77.02024583333333}, {"is_reserved": 0, "rental_uris": {"ios": "https://dc.lft.to/lastmile_qr_scan", "android": "https://dc.lft.to/lastmile_qr_scan"}, "name": "e2fd3457c7f4b15e2cfba713df21be5a", "bike_id": "e2fd3457c7f4b15e2cfba713df21be5a", "type": "electric_scooter", "lat": 38.90524033333333, "fusion_lon": 0.0, "is_disabled": 0, "fusion_lat": 0.0, "lon": -77.06255616666667}, {"is_reserved": 0, "rental_uris": {"ios": "https://dc.lft.to/lastmile_qr_scan", "android": "https://dc.lft.to/lastmile_qr_scan"}, "name": "fef3e7b2343b24fb6a06182a35fafd94", "bike_id": "fef3e7b2343b24fb6a06182a35fafd94", "type": "electric_scooter", "lat": 38.90009216666667, "fusion_lon": 0.0, "is_disabled": 0, "fusion_lat": 0.0, "lon": -77.04497416666666}, {"is_reserved": 0, "rental_uris": {"ios": "https://dc.lft.to/lastmile_qr_scan", "android": "https://dc.lft.to/lastmile_qr_scan"}, "name": "020dc699d222ae1c7bfbf982d67104ab", "bike_id": "020dc699d222ae1c7bfbf982d67104ab", "type": "electric_scooter", "lat": 38.921913, "fusion_lon": 0.0, "is_disabled": 0, "fusion_lat": 0.0, "lon": -77.03802616666667}, {"is_reserved": 0, "rental_uris": {"ios": "https://dc.lft.to/lastmile_qr_scan", "android": "https://dc.lft.to/lastmile_qr_scan"}, "name": "c3eaacc10d96c847083c352a7e8efec0", "bike_id": "c3eaacc10d96c847083c352a7e8efec0", "type": "electric_scooter", "lat": 38.9602745, "fusion_lon": 0.0, "is_disabled": 0, "fusion_lat": 0.0, "lon": -77.02827766666667}, {"is_reserved": 0, "rental_uris": {"ios": "https://dc.lft.to/lastmile_qr_scan", "android": "https://dc.lft.to/lastmile_qr_scan"}, "name": "9222e2ae71bba35ae6cd0d472b020bda", "bike_id": "9222e2ae71bba35ae6cd0d472b020bda", "type": "electric_scooter", "lat": 38.8746915, "fusion_lon": 0.0, "is_disabled": 0, "fusion_lat": 0.0, "lon": -77.00553383333333}, {"is_reserved": 0, "rental_uris": {"ios": "https://dc.lft.to/lastmile_qr_scan", "android": "https://dc.lft.to/lastmile_qr_scan"}, "name": "e324896517a359103e9380119c9546d4", "bike_id": "e324896517a359103e9380119c9546d4", "type": "electric_scooter", "lat": 38.91424466666667, "fusion_lon": 0.0, "is_disabled": 0, "fusion_lat": 0.0, "lon": -77.0128735}, {"is_reserved": 0, "rental_uris": {"ios": "https://dc.lft.to/lastmile_qr_scan", "android": "https://dc.lft.to/lastmile_qr_scan"}, "name": "98c640bce0612bc049958f0c7fd26f73", "bike_id": "98c640bce0612bc049958f0c7fd26f73", "type": "electric_bike", "lat": 38.92873516666667, "fusion_lon": 0.0, "is_disabled": 0, "fusion_lat": 0.0, "lon": -77.03441833333333}, {"is_reserved": 0, "rental_uris": {"ios": "https://dc.lft.to/lastmile_qr_scan", "android": "https://dc.lft.to/lastmile_qr_scan"}, "name": "00c4ebca9a8ea8c0ed5cadc095ebbf31", "bike_id": "00c4ebca9a8ea8c0ed5cadc095ebbf31", "type": "electric_scooter", "lat": 38.8974125, "fusion_lon": 0.0, "is_disabled": 0, "fusion_lat": 0.0, "lon": -77.04502683333334}, {"is_reserved": 0, "rental_uris": {"ios": "https://dc.lft.to/lastmile_qr_scan", "android": "https://dc.lft.to/lastmile_qr_scan"}, "name": "12e006b21f6cf8de4bbe36483de1f819", "bike_id": "12e006b21f6cf8de4bbe36483de1f819", "type": "electric_scooter", "lat": 38.90675316666667, "fusion_lon": 0.0, "is_disabled": 0, "fusion_lat": 0.0, "lon": -77.00054866666666}, {"is_reserved": 0, "rental_uris": {"ios": "https://dc.lft.to/lastmile_qr_scan", "android": "https://dc.lft.to/lastmile_qr_scan"}, "name": "8face86c442eab8bc255dbbe074566e3", "bike_id": "8face86c442eab8bc255dbbe074566e3", "type": "electric_scooter", "lat": 38.928770166666666, "fusion_lon": 0.0, "is_disabled": 0, "fusion_lat": 0.0, "lon": -77.03241016666666}, {"is_reserved": 0, "rental_uris": {"ios": "https://dc.lft.to/lastmile_qr_scan", "android": "https://dc.lft.to/lastmile_qr_scan"}, "name": "0858acac95d0b881d2afe83f0c4dd4fb", "bike_id": "0858acac95d0b881d2afe83f0c4dd4fb", "type": "electric_scooter", "lat": 38.90036416666667, "fusion_lon": 0.0, "is_disabled": 0, "fusion_lat": 0.0, "lon": -77.00164583333333}, {"is_reserved": 0, "rental_uris": {"ios": "https://dc.lft.to/lastmile_qr_scan", "android": "https://dc.lft.to/lastmile_qr_scan"}, "name": "772a9e8a28a4dc4a5d660b9833ad7867", "bike_id": "772a9e8a28a4dc4a5d660b9833ad7867", "type": "electric_scooter", "lat": 38.92875016666667, "fusion_lon": 0.0, "is_disabled": 0, "fusion_lat": 0.0, "lon": -77.034399}, {"is_reserved": 0, "rental_uris": {"ios": "https://dc.lft.to/lastmile_qr_scan", "android": "https://dc.lft.to/lastmile_qr_scan"}, "name": "890e84db043e6415083aefb4168ec8e3", "bike_id": "890e84db043e6415083aefb4168ec8e3", "type": "electric_scooter", "lat": 38.9000585, "fusion_lon": 0.0, "is_disabled": 0, "fusion_lat": 0.0, "lon": -76.99737216666666}, {"is_reserved": 0, "rental_uris": {"ios": "https://dc.lft.to/lastmile_qr_scan", "android": "https://dc.lft.to/lastmile_qr_scan"}, "name": "f5b827a5a5b6b74561378929bf251931", "bike_id": "f5b827a5a5b6b74561378929bf251931", "type": "electric_bike", "lat": 38.86708316666667, "fusion_lon": 0.0, "is_disabled": 0, "fusion_lat": 0.0, "lon": -76.98953216666666}, {"is_reserved": 0, "rental_uris": {"ios": "https://dc.lft.to/lastmile_qr_scan", "android": "https://dc.lft.to/lastmile_qr_scan"}, "name": "30568d50b71d8bcdebe1c17aaeee6eda", "bike_id": "30568d50b71d8bcdebe1c17aaeee6eda", "type": "electric_scooter", "lat": 38.915617, "fusion_lon": 0.0, "is_disabled": 0, "fusion_lat": 0.0, "lon": -77.0487335}, {"is_reserved": 0, "rental_uris": {"ios": "https://dc.lft.to/lastmile_qr_scan", "android": "https://dc.lft.to/lastmile_qr_scan"}, "name": "4b47dcd86737c1a2bf333eb041e96a60", "bike_id": "4b47dcd86737c1a2bf333eb041e96a60", "type": "electric_scooter", "lat": 38.898771833333335, "fusion_lon": 0.0, "is_disabled": 0, "fusion_lat": 0.0, "lon": -76.93189316666667}, {"is_reserved": 0, "rental_uris": {"ios": "https://dc.lft.to/lastmile_qr_scan", "android": "https://dc.lft.to/lastmile_qr_scan"}, "name": "ef06e5babcffd8a85e992437c03d7f4b", "bike_id": "ef06e5babcffd8a85e992437c03d7f4b", "type": "electric_scooter", "lat": 38.9224245, "fusion_lon": 0.0, "is_disabled": 0, "fusion_lat": 0.0, "lon": -77.0298045}, {"is_reserved": 0, "rental_uris": {"ios": "https://dc.lft.to/lastmile_qr_scan", "android": "https://dc.lft.to/lastmile_qr_scan"}, "name": "3e45eddbfcbf9dd19dc6adb155d53b35", "bike_id": "3e45eddbfcbf9dd19dc6adb155d53b35", "type": "electric_scooter", "lat": 38.925899333333334, "fusion_lon": 0.0, "is_disabled": 0, "fusion_lat": 0.0, "lon": -77.004778}, {"is_reserved": 0, "rental_uris": {"ios": "https://dc.lft.to/lastmile_qr_scan", "android": "https://dc.lft.to/lastmile_qr_scan"}, "name": "446f02c103c2197335c3b34f4ead229b", "bike_id": "446f02c103c2197335c3b34f4ead229b", "type": "electric_bike", "lat": 38.9709405, "fusion_lon": 0.0, "is_disabled": 0, "fusion_lat": 0.0, "lon": -77.06968566666667}, {"is_reserved": 0, "rental_uris": {"ios": "https://dc.lft.to/lastmile_qr_scan", "android": "https://dc.lft.to/lastmile_qr_scan"}, "name": "172aa760577a328736c3adbfd915c72f", "bike_id": "172aa760577a328736c3adbfd915c72f", "type": "electric_scooter", "lat": 38.903128, "fusion_lon": 0.0, "is_disabled": 0, "fusion_lat": 0.0, "lon": -76.97798683333333}, {"is_reserved": 0, "rental_uris": {"ios": "https://dc.lft.to/lastmile_qr_scan", "android": "https://dc.lft.to/lastmile_qr_scan"}, "name": "729f9ce3760ca7a9982820d5650647b6", "bike_id": "729f9ce3760ca7a9982820d5650647b6", "type": "electric_scooter", "lat": 38.898956166666665, "fusion_lon": 0.0, "is_disabled": 0, "fusion_lat": 0.0, "lon": -77.039925}, {"is_reserved": 0, "rental_uris": {"ios": "https://dc.lft.to/lastmile_qr_scan", "android": "https://dc.lft.to/lastmile_qr_scan"}, "name": "5c0baad07c627b32f4dce18f47ce90ca", "bike_id": "5c0baad07c627b32f4dce18f47ce90ca", "type": "electric_scooter", "lat": 38.92197433333333, "fusion_lon": 0.0, "is_disabled": 0, "fusion_lat": 0.0, "lon": -77.04226483333333}, {"is_reserved": 0, "rental_uris": {"ios": "https://dc.lft.to/lastmile_qr_scan", "android": "https://dc.lft.to/lastmile_qr_scan"}, "name": "09f4b512041d586f93fdf6d2b9dca61f", "bike_id": "09f4b512041d586f93fdf6d2b9dca61f", "type": "electric_scooter", "lat": 38.88520416666667, "fusion_lon": 0.0, "is_disabled": 0, "fusion_lat": 0.0, "lon": -77.01558366666667}, {"is_reserved": 0, "rental_uris": {"ios": "https://dc.lft.to/lastmile_qr_scan", "android": "https://dc.lft.to/lastmile_qr_scan"}, "name": "5c8c8e623035dbe5961e9dcc7db5b2d2", "bike_id": "5c8c8e623035dbe5961e9dcc7db5b2d2", "type": "electric_scooter", "lat": 38.894561833333334, "fusion_lon": 0.0, "is_disabled": 0, "fusion_lat": 0.0, "lon": -77.01094266666666}, {"is_reserved": 0, "rental_uris": {"ios": "https://dc.lft.to/lastmile_qr_scan", "android": "https://dc.lft.to/lastmile_qr_scan"}, "name": "781c2d5b3c3b46f81549945b2658f822", "bike_id": "781c2d5b3c3b46f81549945b2658f822", "type": "electric_scooter", "lat": 38.9192415, "fusion_lon": 0.0, "is_disabled": 0, "fusion_lat": 0.0, "lon": -77.02504316666666}, {"is_reserved": 0, "rental_uris": {"ios": "https://dc.lft.to/lastmile_qr_scan", "android": "https://dc.lft.to/lastmile_qr_scan"}, "name": "fe7936e31248d083a47d5202378865d9", "bike_id": "fe7936e31248d083a47d5202378865d9", "type": "electric_scooter", "lat": 38.917052, "fusion_lon": 0.0, "is_disabled": 0, "fusion_lat": 0.0, "lon": -77.02377816666667}, {"is_reserved": 0, "rental_uris": {"ios": "https://dc.lft.to/lastmile_qr_scan", "android": "https://dc.lft.to/lastmile_qr_scan"}, "name": "d50de8b587b4ce5a7cfc8615eec254b7", "bike_id": "d50de8b587b4ce5a7cfc8615eec254b7", "type": "electric_scooter", "lat": 38.90161716666667, "fusion_lon": 0.0, "is_disabled": 0, "fusion_lat": 0.0, "lon": -76.98072433333333}, {"is_reserved": 0, "rental_uris": {"ios": "https://dc.lft.to/lastmile_qr_scan", "android": "https://dc.lft.to/lastmile_qr_scan"}, "name": "65fca579558ce9a9fbab2e6f95a4eaee", "bike_id": "65fca579558ce9a9fbab2e6f95a4eaee", "type": "electric_scooter", "lat": 38.89997966666667, "fusion_lon": 0.0, "is_disabled": 0, "fusion_lat": 0.0, "lon": -77.02672}, {"is_reserved": 0, "rental_uris": {"ios": "https://dc.lft.to/lastmile_qr_scan", "android": "https://dc.lft.to/lastmile_qr_scan"}, "name": "743654aaa50daeef05f14deff0b73bdd", "bike_id": "743654aaa50daeef05f14deff0b73bdd", "type": "electric_scooter", "lat": 38.925925166666666, "fusion_lon": 0.0, "is_disabled": 0, "fusion_lat": 0.0, "lon": -77.03226933333333}, {"is_reserved": 0, "rental_uris": {"ios": "https://dc.lft.to/lastmile_qr_scan", "android": "https://dc.lft.to/lastmile_qr_scan"}, "name": "f89c4b877ad815f6c359a09a3f443500", "bike_id": "f89c4b877ad815f6c359a09a3f443500", "type": "electric_scooter", "lat": 38.90564233333333, "fusion_lon": 0.0, "is_disabled": 0, "fusion_lat": 0.0, "lon": -77.00487833333334}, {"is_reserved": 0, "rental_uris": {"ios": "https://dc.lft.to/lastmile_qr_scan", "android": "https://dc.lft.to/lastmile_qr_scan"}, "name": "2dc0e8c2e325e328e52c81137092ce86", "bike_id": "2dc0e8c2e325e328e52c81137092ce86", "type": "electric_scooter", "lat": 38.903534666666665, "fusion_lon": 0.0, "is_disabled": 0, "fusion_lat": 0.0, "lon": -77.048723}, {"is_reserved": 0, "rental_uris": {"ios": "https://dc.lft.to/lastmile_qr_scan", "android": "https://dc.lft.to/lastmile_qr_scan"}, "name": "f4923f7c35becf942b6ce37ae66cc46b", "bike_id": "f4923f7c35becf942b6ce37ae66cc46b", "type": "electric_scooter", "lat": 38.902876666666664, "fusion_lon": 0.0, "is_disabled": 0, "fusion_lat": 0.0, "lon": -77.0530605}, {"is_reserved": 0, "rental_uris": {"ios": "https://dc.lft.to/lastmile_qr_scan", "android": "https://dc.lft.to/lastmile_qr_scan"}, "name": "49b38ad4fd2ca4941b9e62fa241cc63c", "bike_id": "49b38ad4fd2ca4941b9e62fa241cc63c", "type": "electric_scooter", "lat": 38.90978966666667, "fusion_lon": 0.0, "is_disabled": 0, "fusion_lat": 0.0, "lon": -77.04633883333334}, {"is_reserved": 0, "rental_uris": {"ios": "https://dc.lft.to/lastmile_qr_scan", "android": "https://dc.lft.to/lastmile_qr_scan"}, "name": "e84bc9a6a4f833968d76c96acf110db3", "bike_id": "e84bc9a6a4f833968d76c96acf110db3", "type": "electric_scooter", "lat": 38.892248333333335, "fusion_lon": 0.0, "is_disabled": 0, "fusion_lat": 0.0, "lon": -77.048033}, {"is_reserved": 0, "rental_uris": {"ios": "https://dc.lft.to/lastmile_qr_scan", "android": "https://dc.lft.to/lastmile_qr_scan"}, "name": "eb92969604821a156e49da1930e5ad20", "bike_id": "eb92969604821a156e49da1930e5ad20", "type": "electric_scooter", "lat": 38.90337533333334, "fusion_lon": 0.0, "is_disabled": 0, "fusion_lat": 0.0, "lon": -76.97056783333333}, {"is_reserved": 0, "rental_uris": {"ios": "https://dc.lft.to/lastmile_qr_scan", "android": "https://dc.lft.to/lastmile_qr_scan"}, "name": "f59276f40bab156ed29954c88a85164f", "bike_id": "f59276f40bab156ed29954c88a85164f", "type": "electric_bike", "lat": 38.96149316666666, "fusion_lon": 0.0, "is_disabled": 0, "fusion_lat": 0.0, "lon": -77.03240366666667}, {"is_reserved": 0, "rental_uris": {"ios": "https://dc.lft.to/lastmile_qr_scan", "android": "https://dc.lft.to/lastmile_qr_scan"}, "name": "1e4abac5496e7871b28516578f274003", "bike_id": "1e4abac5496e7871b28516578f274003", "type": "electric_scooter", "lat": 38.92790766666667, "fusion_lon": 0.0, "is_disabled": 0, "fusion_lat": 0.0, "lon": -77.0369435}, {"is_reserved": 0, "rental_uris": {"ios": "https://dc.lft.to/lastmile_qr_scan", "android": "https://dc.lft.to/lastmile_qr_scan"}, "name": "013b136c43ac7ada558425746b5b73d4", "bike_id": "013b136c43ac7ada558425746b5b73d4", "type": "electric_scooter", "lat": 38.8859145, "fusion_lon": 0.0, "is_disabled": 0, "fusion_lat": 0.0, "lon": -77.00062733333333}, {"is_reserved": 0, "rental_uris": {"ios": "https://dc.lft.to/lastmile_qr_scan", "android": "https://dc.lft.to/lastmile_qr_scan"}, "name": "b2fb26dd8dfa910c0d65867875b309bf", "bike_id": "b2fb26dd8dfa910c0d65867875b309bf", "type": "electric_scooter", "lat": 38.919878, "fusion_lon": 0.0, "is_disabled": 0, "fusion_lat": 0.0, "lon": -77.02388383333333}, {"is_reserved": 0, "rental_uris": {"ios": "https://dc.lft.to/lastmile_qr_scan", "android": "https://dc.lft.to/lastmile_qr_scan"}, "name": "e8f2d0b5c2f26040a60e0ff22d920f41", "bike_id": "e8f2d0b5c2f26040a60e0ff22d920f41", "type": "electric_scooter", "lat": 38.8949185, "fusion_lon": 0.0, "is_disabled": 0, "fusion_lat": 0.0, "lon": -76.94954866666667}, {"is_reserved": 0, "rental_uris": {"ios": "https://dc.lft.to/lastmile_qr_scan", "android": "https://dc.lft.to/lastmile_qr_scan"}, "name": "af77ae150f2cad8400e05965c7e35473", "bike_id": "af77ae150f2cad8400e05965c7e35473", "type": "electric_scooter", "lat": 38.92239583333333, "fusion_lon": 0.0, "is_disabled": 0, "fusion_lat": 0.0, "lon": -77.02913733333334}, {"is_reserved": 0, "rental_uris": {"ios": "https://dc.lft.to/lastmile_qr_scan", "android": "https://dc.lft.to/lastmile_qr_scan"}, "name": "da021ee3f8de2012b55f180cb7308cb5", "bike_id": "da021ee3f8de2012b55f180cb7308cb5", "type": "electric_scooter", "lat": 38.904455, "fusion_lon": 0.0, "is_disabled": 0, "fusion_lat": 0.0, "lon": -77.05909683333333}, {"is_reserved": 0, "rental_uris": {"ios": "https://dc.lft.to/lastmile_qr_scan", "android": "https://dc.lft.to/lastmile_qr_scan"}, "name": "4240da98d40197442751d5edcd8d2e8c", "bike_id": "4240da98d40197442751d5edcd8d2e8c", "type": "electric_scooter", "lat": 38.910167333333334, "fusion_lon": 0.0, "is_disabled": 0, "fusion_lat": 0.0, "lon": -76.99389866666667}, {"is_reserved": 0, "rental_uris": {"ios": "https://dc.lft.to/lastmile_qr_scan", "android": "https://dc.lft.to/lastmile_qr_scan"}, "name": "b205ae9af6926609e894895d55faaff2", "bike_id": "b205ae9af6926609e894895d55faaff2", "type": "electric_scooter", "lat": 38.91261633333333, "fusion_lon": 0.0, "is_disabled": 0, "fusion_lat": 0.0, "lon": -77.0349515}, {"is_reserved": 0, "rental_uris": {"ios": "https://dc.lft.to/lastmile_qr_scan", "android": "https://dc.lft.to/lastmile_qr_scan"}, "name": "fbe85b1202dc73320dd896042166f9c8", "bike_id": "fbe85b1202dc73320dd896042166f9c8", "type": "electric_scooter", "lat": 38.91680216666666, "fusion_lon": 0.0, "is_disabled": 0, "fusion_lat": 0.0, "lon": -77.0296855}, {"is_reserved": 0, "rental_uris": {"ios": "https://dc.lft.to/lastmile_qr_scan", "android": "https://dc.lft.to/lastmile_qr_scan"}, "name": "a110ace4ae6d7720ae6bd61c3d9d78b5", "bike_id": "a110ace4ae6d7720ae6bd61c3d9d78b5", "type": "electric_scooter", "lat": 38.89221166666667, "fusion_lon": 0.0, "is_disabled": 0, "fusion_lat": 0.0, "lon": -77.04378066666666}, {"is_reserved": 0, "rental_uris": {"ios": "https://dc.lft.to/lastmile_qr_scan", "android": "https://dc.lft.to/lastmile_qr_scan"}, "name": "fd60e6f1aaa5044d036aac261b38f1c7", "bike_id": "fd60e6f1aaa5044d036aac261b38f1c7", "type": "electric_scooter", "lat": 38.901436333333336, "fusion_lon": 0.0, "is_disabled": 0, "fusion_lat": 0.0, "lon": -76.94149783333333}, {"is_reserved": 0, "rental_uris": {"ios": "https://dc.lft.to/lastmile_qr_scan", "android": "https://dc.lft.to/lastmile_qr_scan"},