{"data": {"bikes": [{"is_disabled": 0, "fusion_lon": 0.0, "fusion_lat": 0.0, "lat": 38.918726166666666, "type": "electric_scooter", "lon": -77.04483233333333, "bike_id": "47d2f4759c5b419eacbc8da29a19e1f6", "rental_uris": {"android": "https://dc.lft.to/lastmile_qr_scan", "ios": "https://dc.lft.to/lastmile_qr_scan"}, "name": "47d2f4759c5b419eacbc8da29a19e1f6", "is_reserved": 0}, {"is_disabled": 0, "fusion_lon": 0.0, "fusion_lat": 0.0, "lat": 38.8922305, "type": "electric_scooter", "lon": -77.03186216666667, "bike_id": "2c8372f96d32107a4baf8a431d168cce", "rental_uris": {"android": "https://dc.lft.to/lastmile_qr_scan", "ios": "https://dc.lft.to/lastmile_qr_scan"}, "name": "2c8372f96d32107a4baf8a431d168cce", "is_reserved": 0}, {"is_disabled": 0, "fusion_lon": 0.0, "fusion_lat": 0.0, "lat": 38.90964116666667, "type": "electric_scooter", "lon": -77.032611, "bike_id": "03c0de2d2f04bc9493de02c56aa255b1", "rental_uris": {"android": "https://dc.lft.to/lastmile_qr_scan", "ios": "https://dc.lft.to/lastmile_qr_scan"}, "name": "03c0de2d2f04bc9493de02c56aa255b1", "is_reserved": 0}, {"is_disabled": 0, "fusion_lon": 0.0, "fusion_lat": 0.0, "lat": 38.9392285, "type": "electric_bike", "lon": -77.03285033333333, "bike_id": "44d70f039e4ab5e8c7fda27ac12d8cf0", "rental_uris": {"android": "https://dc.lft.to/lastmile_qr_scan", "ios": "https://dc.lft.to/lastmile_qr_scan"}, "name": "44d70f039e4ab5e8c7fda27ac12d8cf0", "is_reserved": 0}, {"is_disabled": 0, "fusion_lon": 0.0, "fusion_lat": 0.0, "lat": 38.900699833333334, "type": "electric_scooter", "lon": -77.048761, "bike_id": "b366619db684d8d8e42771f92922da09", "rental_uris": {"android": "https://dc.lft.to/lastmile_qr_scan", "ios": "https://dc.lft.to/lastmile_qr_scan"}, "name": "b366619db684d8d8e42771f92922da09", "is_reserved": 0}, {"is_disabled": 0, "fusion_lon": 0.0, "fusion_lat": 0.0, "lat": 38.904467833333335, "type": "electric_scooter", "lon": -77.03460616666666, "bike_id": "fc0c76ecc63e07ad24ca9dcbea55a6cb", "rental_uris": {"android": "https://dc.lft.to/lastmile_qr_scan", "ios": "https://dc.lft.to/lastmile_qr_scan"}, "name": "fc0c76ecc63e07ad24ca9dcbea55a6cb", "is_reserved": 0}, {"is_disabled": 0, "fusion_lon": 0.0, "fusion_lat": 0.0, "lat": 38.94578716666667, "type": "electric_bike", "lon": -76.98778016666667, "bike_id": "0e52e36701fd462fd12a7877da960302", "rental_uris": {"android": "https://dc.lft.to/lastmile_qr_scan", "ios": "https://dc.lft.to/lastmile_qr_scan"}, "name": "0e52e36701fd462fd12a7877da960302", "is_reserved": 0}, {"is_disabled": 0, "fusion_lon": 0.0, "fusion_lat": 0.0, "lat": 38.90473166666666, "type": "electric_scooter", "lon": -77.03569733333333, "bike_id": "9a26e85c85008f01f11eed2213318df5", "rental_uris": {"android": "https://dc.lft.to/lastmile_qr_scan", "ios": "https://dc.lft.to/lastmile_qr_scan"}, "name": "9a26e85c85008f01f11eed2213318df5", "is_reserved": 0}, {"is_disabled": 0, "fusion_lon": 0.0, "fusion_lat": 0.0, "lat": 38.91020416666667, "type": "electric_scooter", "lon": -77.03852566666667, "bike_id": "ae019d1dccb6b4df44748d12b5694fb6", "rental_uris": {"android": "https://dc.lft.to/lastmile_qr_scan", "ios": "https://dc.lft.to/lastmile_qr_scan"}, "name": "ae019d1dccb6b4df44748d12b5694fb6", "is_reserved": 0}, {"is_disabled": 0, "fusion_lon": 0.0, "fusion_lat": 0.0, "lat": 38.93643816666667, "type": "electric_bike", "lon": -76.95460283333334, "bike_id": "55af3454c3086a815a2b5eb19c2dd517", "rental_uris": {"android": "https://dc.lft.to/lastmile_qr_scan", "ios": "https://dc.lft.to/lastmile_qr_scan"}, "name": "55af3454c3086a815a2b5eb19c2dd517", "is_reserved": 0}, {"is_disabled": 0, "fusion_lon": 0.0, "fusion_lat": 0.0, "lat": 38.91476383333333, "type": "electric_scooter", "lon": -77.03834566666667, "bike_id": "e6ba21cce846f2fe5c0a59f12ed6a538", "rental_uris": {"android": "https://dc.lft.to/lastmile_qr_scan", "ios": "https://dc.lft.to/lastmile_qr_scan"}, "name": "e6ba21cce846f2fe5c0a59f12ed6a538", "is_reserved": 0}, {"is_disabled": 0, "fusion_lon": 0.0, "fusion_lat": 0.0, "lat": 38.93076966666667, "type": "electric_scooter", "lon": -77.031052, "bike_id": "c3f3711f2dc75d055ef04994133626f0", "rental_uris": {"android": "https://dc.lft.to/lastmile_qr_scan", "ios": "https://dc.lft.to/lastmile_qr_scan"}, "name": "c3f3711f2dc75d055ef04994133626f0", "is_reserved": 0}, {"is_disabled": 0, "fusion_lon": 0.0, "fusion_lat": 0.0, "lat": 38.87396416666667, "type": "electric_scooter", "lon": -77.00201816666667, "bike_id": "27c405a46ca0eeb9c8e27611295be037", "rental_uris": {"android": "https://dc.lft.to/lastmile_qr_scan", "ios": "https://dc.lft.to/lastmile_qr_scan"}, "name": "27c405a46ca0eeb9c8e27611295be037", "is_reserved": 0}, {"is_disabled": 0, "fusion_lon": 0.0, "fusion_lat": 0.0, "lat": 38.9199735, "type": "electric_scooter", "lon": -77.03277133333333, "bike_id": "99034c269d1c7901bdd2b09a827ee090", "rental_uris": {"android": "https://dc.lft.to/lastmile_qr_scan", "ios": "https://dc.lft.to/lastmile_qr_scan"}, "name": "99034c269d1c7901bdd2b09a827ee090", "is_reserved": 0}, {"is_disabled": 0, "fusion_lon": 0.0, "fusion_lat": 0.0, "lat": 38.90042616666667, "type": "electric_scooter", "lon": -76.98844583333333, "bike_id": "2855056076df20531a5559da8c11bfda", "rental_uris": {"android": "https://dc.lft.to/lastmile_qr_scan", "ios": "https://dc.lft.to/lastmile_qr_scan"}, "name": "2855056076df20531a5559da8c11bfda", "is_reserved": 0}, {"is_disabled": 0, "fusion_lon": 0.0, "fusion_lat": 0.0, "lat": 38.896520833333334, "type": "electric_scooter", "lon": -77.01199916666667, "bike_id": "448c38e02c2b03cb951bd9876b3725b0", "rental_uris": {"android": "https://dc.lft.to/lastmile_qr_scan", "ios": "https://dc.lft.to/lastmile_qr_scan"}, "name": "448c38e02c2b03cb951bd9876b3725b0", "is_reserved": 0}, {"is_disabled": 0, "fusion_lon": 0.0, "fusion_lat": 0.0, "lat": 38.8923555, "type": "electric_scooter", "lon": -77.02591366666667, "bike_id": "80e0400421748b24f52a325e2476f440", "rental_uris": {"android": "https://dc.lft.to/lastmile_qr_scan", "ios": "https://dc.lft.to/lastmile_qr_scan"}, "name": "80e0400421748b24f52a325e2476f440", "is_reserved": 0}, {"is_disabled": 0, "fusion_lon": 0.0, "fusion_lat": 0.0, "lat": 38.90561966666667, "type": "electric_scooter", "lon": -77.0364025, "bike_id": "80dfba6dd7c1d65c879846dcd6247ec7", "rental_uris": {"android": "https://dc.lft.to/lastmile_qr_scan", "ios": "https://dc.lft.to/lastmile_qr_scan"}, "name": "80dfba6dd7c1d65c879846dcd6247ec7", "is_reserved": 0}, {"is_disabled": 0, "fusion_lon": 0.0, "fusion_lat": 0.0, "lat": 38.923179833333336, "type": "electric_scooter", "lon": -77.042098, "bike_id": "c81f5b6c8141bb600d1a5620360e2aff", "rental_uris": {"android": "https://dc.lft.to/lastmile_qr_scan", "ios": "https://dc.lft.to/lastmile_qr_scan"}, "name": "c81f5b6c8141bb600d1a5620360e2aff", "is_reserved": 0}, {"is_disabled": 0, "fusion_lon": 0.0, "fusion_lat": 0.0, "lat": 38.922222, "type": "electric_scooter", "lon": -77.03301283333333, "bike_id": "a261d3505b990064bf755097636aecac", "rental_uris": {"android": "https://dc.lft.to/lastmile_qr_scan", "ios": "https://dc.lft.to/lastmile_qr_scan"}, "name": "a261d3505b990064bf755097636aecac", "is_reserved": 0}, {"is_disabled": 0, "fusion_lon": 0.0, "fusion_lat": 0.0, "lat": 38.922621166666666, "type": "electric_scooter", "lon": -77.04122483333333, "bike_id": "cd815f873efcefad0bf7ecc0fa87e3cb", "rental_uris": {"android": "https://dc.lft.to/lastmile_qr_scan", "ios": "https://dc.lft.to/lastmile_qr_scan"}, "name": "cd815f873efcefad0bf7ecc0fa87e3cb", "is_reserved": 0}, {"is_disabled": 0, "fusion_lon": 0.0, "fusion_lat": 0.0, "lat": 38.92578566666667, "type": "electric_scooter", "lon": -76.99496316666666, "bike_id": "7a74b80e3f8ff901109b436812f3be18", "rental_uris": {"android": "https://dc.lft.to/lastmile_qr_scan", "ios": "https://dc.lft.to/lastmile_qr_scan"}, "name": "7a74b80e3f8ff901109b436812f3be18", "is_reserved": 0}, {"is_disabled": 0, "fusion_lon": 0.0, "fusion_lat": 0.0, "lat": 38.919907, "type": "electric_scooter", "lon": -77.02497966666667, "bike_id": "6613bd79468c1fbfd2e823cc54d7d8a5", "rental_uris": {"android": "https://dc.lft.to/lastmile_qr_scan", "ios": "https://dc.lft.to/lastmile_qr_scan"}, "name": "6613bd79468c1fbfd2e823cc54d7d8a5", "is_reserved": 0}, {"is_disabled": 0, "fusion_lon": 0.0, "fusion_lat": 0.0, "lat": 38.921379333333334, "type": "electric_bike", "lon": -76.97533866666667, "bike_id": "eb0e0d036b71d3e2ddeac46b1c19441e", "rental_uris": {"android": "https://dc.lft.to/lastmile_qr_scan", "ios": "https://dc.lft.to/lastmile_qr_scan"}, "name": "eb0e0d036b71d3e2ddeac46b1c19441e", "is_reserved": 0}, {"is_disabled": 0, "fusion_lon": 0.0, "fusion_lat": 0.0, "lat": 38.90798866666667, "type": "electric_scooter", "lon": -77.04982533333333, "bike_id": "dbcbf9945cf10769fb9a683e879c2635", "rental_uris": {"android": "https://dc.lft.to/lastmile_qr_scan", "ios": "https://dc.lft.to/lastmile_qr_scan"}, "name": "dbcbf9945cf10769fb9a683e879c2635", "is_reserved": 0}, {"is_disabled": 0, "fusion_lon": 0.0, "fusion_lat": 0.0, "lat": 38.9077255, "type": "electric_scooter", "lon": -77.0281095, "bike_id": "52b74011593a9c0031bd008db2cd5858", "rental_uris": {"android": "https://dc.lft.to/lastmile_qr_scan", "ios": "https://dc.lft.to/lastmile_qr_scan"}, "name": "52b74011593a9c0031bd008db2cd5858", "is_reserved": 0}, {"is_disabled": 0, "fusion_lon": 0.0, "fusion_lat": 0.0, "lat": 38.934721833333334, "type": "electric_scooter", "lon": -77.06882433333334, "bike_id": "bba5b5804d29c9a2f355f2a985000dd2", "rental_uris": {"android": "https://dc.lft.to/lastmile_qr_scan", "ios": "https://dc.lft.to/lastmile_qr_scan"}, "name": "bba5b5804d29c9a2f355f2a985000dd2", "is_reserved": 0}, {"is_disabled": 0, "fusion_lon": 0.0, "fusion_lat": 0.0, "lat": 38.89747933333334, "type": "electric_scooter", "lon": -77.01003083333333, "bike_id": "3c3f68071f888af698bce52cbb63cb4a", "rental_uris": {"android": "https://dc.lft.to/lastmile_qr_scan", "ios": "https://dc.lft.to/lastmile_qr_scan"}, "name": "3c3f68071f888af698bce52cbb63cb4a", "is_reserved": 0}, {"is_disabled": 0, "fusion_lon": 0.0, "fusion_lat": 0.0, "lat": 38.917916, "type": "electric_scooter", "lon": -77.03450016666666, "bike_id": "2fc171819c466809c13684d0105b6f32", "rental_uris": {"android": "https://dc.lft.to/lastmile_qr_scan", "ios": "https://dc.lft.to/lastmile_qr_scan"}, "name": "2fc171819c466809c13684d0105b6f32", "is_reserved": 0}, {"is_disabled": 0, "fusion_lon": 0.0, "fusion_lat": 0.0, "lat": 38.812734666666664, "type": "electric_bike", "lon": -77.06175233333333, "bike_id": "34ed514e5fd86ce125abf18d4715fa4d", "rental_uris": {"android": "https://dc.lft.to/lastmile_qr_scan", "ios": "https://dc.lft.to/lastmile_qr_scan"}, "name": "34ed514e5fd86ce125abf18d4715fa4d", "is_reserved": 0}, {"is_disabled": 0, "fusion_lon": 0.0, "fusion_lat": 0.0, "lat": 38.839383, "type": "electric_bike", "lon": -77.07903216666666, "bike_id": "6d04cc895b798ed7bcdf68034515ff4c", "rental_uris": {"android": "https://dc.lft.to/lastmile_qr_scan", "ios": "https://dc.lft.to/lastmile_qr_scan"}, "name": "6d04cc895b798ed7bcdf68034515ff4c", "is_reserved": 0}, {"is_disabled": 0, "fusion_lon": 0.0, "fusion_lat": 0.0, "lat": 38.91818333333333, "type": "electric_scooter", "lon": -77.03186833333334, "bike_id": "83a2fd88c7c410c57c23a6186784842c", "rental_uris": {"android": "https://dc.lft.to/lastmile_qr_scan", "ios": "https://dc.lft.to/lastmile_qr_scan"}, "name": "83a2fd88c7c410c57c23a6186784842c", "is_reserved": 0}, {"is_disabled": 0, "fusion_lon": 0.0, "fusion_lat": 0.0, "lat": 38.904117, "type": "electric_scooter", "lon": -77.040469, "bike_id": "48052ea22e71079f8165edce3df40638", "rental_uris": {"android": "https://dc.lft.to/lastmile_qr_scan", "ios": "https://dc.lft.to/lastmile_qr_scan"}, "name": "48052ea22e71079f8165edce3df40638", "is_reserved": 0}, {"is_disabled": 0, "fusion_lon": 0.0, "fusion_lat": 0.0, "lat": 38.917628, "type": "electric_scooter", "lon": -77.02816133333333, "bike_id": "4d481b688ac65239adb8a21a2a2a53dc", "rental_uris": {"android": "https://dc.lft.to/lastmile_qr_scan", "ios": "https://dc.lft.to/lastmile_qr_scan"}, "name": "4d481b688ac65239adb8a21a2a2a53dc", "is_reserved": 0}, {"is_disabled": 0, "fusion_lon": 0.0, "fusion_lat": 0.0, "lat": 38.932306833333335, "type": "electric_scooter", "lon": -76.99481666666667, "bike_id": "910831788b7699df88a912e0150bf298", "rental_uris": {"android": "https://dc.lft.to/lastmile_qr_scan", "ios": "https://dc.lft.to/lastmile_qr_scan"}, "name": "910831788b7699df88a912e0150bf298", "is_reserved": 0}, {"is_disabled": 0, "fusion_lon": 0.0, "fusion_lat": 0.0, "lat": 38.97261566666667, "type": "electric_bike", "lon": -76.99168866666666, "bike_id": "81b4a7f76f867e122a141969588f547b", "rental_uris": {"android": "https://dc.lft.to/lastmile_qr_scan", "ios": "https://dc.lft.to/lastmile_qr_scan"}, "name": "81b4a7f76f867e122a141969588f547b", "is_reserved": 0}, {"is_disabled": 0, "fusion_lon": 0.0, "fusion_lat": 0.0, "lat": 38.94282, "type": "electric_scooter", "lon": -77.03632833333333, "bike_id": "08c412286ba765c35cfc678309bf168b", "rental_uris": {"android": "https://dc.lft.to/lastmile_qr_scan", "ios": "https://dc.lft.to/lastmile_qr_scan"}, "name": "08c412286ba765c35cfc678309bf168b", "is_reserved": 0}, {"is_disabled": 0, "fusion_lon": 0.0, "fusion_lat": 0.0, "lat": 38.949855666666664, "type": "electric_scooter", "lon": -77.02701716666667, "bike_id": "079ccc22867d97aa2e5170cfacafb269", "rental_uris": {"android": "https://dc.lft.to/lastmile_qr_scan", "ios": "https://dc.lft.to/lastmile_qr_scan"}, "name": "079ccc22867d97aa2e5170cfacafb269", "is_reserved": 0}, {"is_disabled": 0, "fusion_lon": 0.0, "fusion_lat": 0.0, "lat": 38.909576666666666, "type": "electric_scooter", "lon": -77.02381583333333, "bike_id": "678fd58d7fd3f99beb3abcbd182311d6", "rental_uris": {"android": "https://dc.lft.to/lastmile_qr_scan", "ios": "https://dc.lft.to/lastmile_qr_scan"}, "name": "678fd58d7fd3f99beb3abcbd182311d6", "is_reserved": 0}, {"is_disabled": 0, "fusion_lon": 0.0, "fusion_lat": 0.0, "lat": 38.858106666666664, "type": "electric_scooter", "lon": -76.9896125, "bike_id": "813a92c0cfea1144376ce3695d2b91c9", "rental_uris": {"android": "https://dc.lft.to/lastmile_qr_scan", "ios": "https://dc.lft.to/lastmile_qr_scan"}, "name": "813a92c0cfea1144376ce3695d2b91c9", "is_reserved": 0}, {"is_disabled": 0, "fusion_lon": 0.0, "fusion_lat": 0.0, "lat": 38.900270166666665, "type": "electric_scooter", "lon": -76.99635416666666, "bike_id": "b70ffb8f4c085a0aed10e46b6ceab16d", "rental_uris": {"android": "https://dc.lft.to/lastmile_qr_scan", "ios": "https://dc.lft.to/lastmile_qr_scan"}, "name": "b70ffb8f4c085a0aed10e46b6ceab16d", "is_reserved": 0}, {"is_disabled": 0, "fusion_lon": 0.0, "fusion_lat": 0.0, "lat": 38.90244716666667, "type": "electric_scooter", "lon": -77.00212133333333, "bike_id": "6f277acf801edcb8580d3a23369b6a22", "rental_uris": {"android": "https://dc.lft.to/lastmile_qr_scan", "ios": "https://dc.lft.to/lastmile_qr_scan"}, "name": "6f277acf801edcb8580d3a23369b6a22", "is_reserved": 0}, {"is_disabled": 0, "fusion_lon": 0.0, "fusion_lat": 0.0, "lat": 38.894822166666664, "type": "electric_scooter", "lon": -76.99524266666667, "bike_id": "3402adb33a5fdcd76b240b7a38db6a80", "rental_uris": {"android": "https://dc.lft.to/lastmile_qr_scan", "ios": "https://dc.lft.to/lastmile_qr_scan"}, "name": "3402adb33a5fdcd76b240b7a38db6a80", "is_reserved": 0}, {"is_disabled": 0, "fusion_lon": 0.0, "fusion_lat": 0.0, "lat": 38.92127333333333, "type": "electric_scooter", "lon": -77.02540433333333, "bike_id": "c4c322d6b6a7a1bfcacbf3506d99f65e", "rental_uris": {"android": "https://dc.lft.to/lastmile_qr_scan", "ios": "https://dc.lft.to/lastmile_qr_scan"}, "name": "c4c322d6b6a7a1bfcacbf3506d99f65e", "is_reserved": 0}, {"is_disabled": 0, "fusion_lon": 0.0, "fusion_lat": 0.0, "lat": 38.879368666666664, "type": "electric_scooter", "lon": -77.0099955, "bike_id": "b7ec02d3ed6b1d474866361e58623c41", "rental_uris": {"android": "https://dc.lft.to/lastmile_qr_scan", "ios": "https://dc.lft.to/lastmile_qr_scan"}, "name": "b7ec02d3ed6b1d474866361e58623c41", "is_reserved": 0}, {"is_disabled": 0, "fusion_lon": 0.0, "fusion_lat": 0.0, "lat": 38.866601833333334, "type": "electric_scooter", "lon": -76.9888705, "bike_id": "13ab5b385e5411310e86927635a2868f", "rental_uris": {"android": "https://dc.lft.to/lastmile_qr_scan", "ios": "https://dc.lft.to/lastmile_qr_scan"}, "name": "13ab5b385e5411310e86927635a2868f", "is_reserved": 0}, {"is_disabled": 0, "fusion_lon": 0.0, "fusion_lat": 0.0, "lat": 38.9561355, "type": "electric_scooter", "lon": -77.02761416666667, "bike_id": "56ede3cdb4ef58f5bbce98e121957b58", "rental_uris": {"android": "https://dc.lft.to/lastmile_qr_scan", "ios": "https://dc.lft.to/lastmile_qr_scan"}, "name": "56ede3cdb4ef58f5bbce98e121957b58", "is_reserved": 0}, {"is_disabled": 0, "fusion_lon": 0.0, "fusion_lat": 0.0, "lat": 38.96217083333333, "type": "electric_scooter", "lon": -77.02806283333334, "bike_id": "6f3a23852a5abd7ebd1cb2d155c6198f", "rental_uris": {"android": "https://dc.lft.to/lastmile_qr_scan", "ios": "https://dc.lft.to/lastmile_qr_scan"}, "name": "6f3a23852a5abd7ebd1cb2d155c6198f", "is_reserved": 0}, {"is_disabled": 0, "fusion_lon": 0.0, "fusion_lat": 0.0, "lat": 38.9422705, "type": "electric_scooter", "lon": -77.02159016666667, "bike_id": "13a38fac41a63452b8d40cf7b173082c", "rental_uris": {"android": "https://dc.lft.to/lastmile_qr_scan", "ios": "https://dc.lft.to/lastmile_qr_scan"}, "name": "13a38fac41a63452b8d40cf7b173082c", "is_reserved": 0}, {"is_disabled": 0, "fusion_lon": 0.0, "fusion_lat": 0.0, "lat": 38.89310016666667, "type": "electric_scooter", "lon": -77.02131016666667, "bike_id": "41da8f544f326687a7137cbfcd4e3e66", "rental_uris": {"android": "https://dc.lft.to/lastmile_qr_scan", "ios": "https://dc.lft.to/lastmile_qr_scan"}, "name": "41da8f544f326687a7137cbfcd4e3e66", "is_reserved": 0}, {"is_disabled": 0, "fusion_lon": 0.0, "fusion_lat": 0.0, "lat": 38.93756883333333, "type": "electric_scooter", "lon": -77.0247715, "bike_id": "d5e50487470d84eadefefbf63179ef15", "rental_uris": {"android": "https://dc.lft.to/lastmile_qr_scan", "ios": "https://dc.lft.to/lastmile_qr_scan"}, "name": "d5e50487470d84eadefefbf63179ef15", "is_reserved": 0}, {"is_disabled": 0, "fusion_lon": 0.0, "fusion_lat": 0.0, "lat": 38.904922166666665, "type": "electric_scooter", "lon": -77.02966533333333, "bike_id": "64d895739768bd931913c420af27897e", "rental_uris": {"android": "https://dc.lft.to/lastmile_qr_scan", "ios": "https://dc.lft.to/lastmile_qr_scan"}, "name": "64d895739768bd931913c420af27897e", "is_reserved": 0}, {"is_disabled": 0, "fusion_lon": 0.0, "fusion_lat": 0.0, "lat": 38.90419716666667, "type": "electric_scooter", "lon": -77.02580616666667, "bike_id": "c6e73c08fd8dcc554d55f80f1ba52b3d", "rental_uris": {"android": "https://dc.lft.to/lastmile_qr_scan", "ios": "https://dc.lft.to/lastmile_qr_scan"}, "name": "c6e73c08fd8dcc554d55f80f1ba52b3d", "is_reserved": 0}, {"is_disabled": 0, "fusion_lon": 0.0, "fusion_lat": 0.0, "lat": 38.92449833333333, "type": "electric_bike", "lon": -76.9683635, "bike_id": "46e3efa9268af1df1e5c09957c78f46e", "rental_uris": {"android": "https://dc.lft.to/lastmile_qr_scan", "ios": "https://dc.lft.to/lastmile_qr_scan"}, "name": "46e3efa9268af1df1e5c09957c78f46e", "is_reserved": 0}, {"is_disabled": 0, "fusion_lon": 0.0, "fusion_lat": 0.0, "lat": 38.9287045, "type": "electric_scooter", "lon": -77.03276533333333, "bike_id": "74916dabf3a536bcbca36d47b31b41df", "rental_uris": {"android": "https://dc.lft.to/lastmile_qr_scan", "ios": "https://dc.lft.to/lastmile_qr_scan"}, "name": "74916dabf3a536bcbca36d47b31b41df", "is_reserved": 0}, {"is_disabled": 0, "fusion_lon": 0.0, "fusion_lat": 0.0, "lat": 38.923765833333334, "type": "electric_scooter", "lon": -77.03129716666666, "bike_id": "dcebc1afa497ea825703eebd413ad0ca", "rental_uris": {"android": "https://dc.lft.to/lastmile_qr_scan", "ios": "https://dc.lft.to/lastmile_qr_scan"}, "name": "dcebc1afa497ea825703eebd413ad0ca", "is_reserved": 0}, {"is_disabled": 0, "fusion_lon": 0.0, "fusion_lat": 0.0, "lat": 38.900234166666664, "type": "electric_scooter", "lon": -77.002037, "bike_id": "e9b8d805a29d90739ffbe4f4c297ea8f", "rental_uris": {"android": "https://dc.lft.to/lastmile_qr_scan", "ios": "https://dc.lft.to/lastmile_qr_scan"}, "name": "e9b8d805a29d90739ffbe4f4c297ea8f", "is_reserved": 0}, {"is_disabled": 0, "fusion_lon": 0.0, "fusion_lat": 0.0, "lat": 38.88746716666667, "type": "electric_bike", "lon": -76.9008495, "bike_id": "b643837d25b24331fa3f234cbbfa2429", "rental_uris": {"android": "https://dc.lft.to/lastmile_qr_scan", "ios": "https://dc.lft.to/lastmile_qr_scan"}, "name": "b643837d25b24331fa3f234cbbfa2429", "is_reserved": 0}, {"is_disabled": 0, "fusion_lon": 0.0, "fusion_lat": 0.0, "lat": 38.9094005, "type": "electric_scooter", "lon": -77.03211383333333, "bike_id": "8abe8052916f3bafbe1520744df6f1e3", "rental_uris": {"android": "https://dc.lft.to/lastmile_qr_scan", "ios": "https://dc.lft.to/lastmile_qr_scan"}, "name": "8abe8052916f3bafbe1520744df6f1e3", "is_reserved": 0}, {"is_disabled": 0, "fusion_lon": 0.0, "fusion_lat": 0.0, "lat": 38.89374866666667, "type": "electric_scooter", "lon": -76.95001183333333, "bike_id": "5e976e73e03b6d96ce1005fd4548b1d5", "rental_uris": {"android": "https://dc.lft.to/lastmile_qr_scan", "ios": "https://dc.lft.to/lastmile_qr_scan"}, "name": "5e976e73e03b6d96ce1005fd4548b1d5", "is_reserved": 0}, {"is_disabled": 0, "fusion_lon": 0.0, "fusion_lat": 0.0, "lat": 39.10565483333333, "type": "electric_bike", "lon": -77.15269233333333, "bike_id": "40ff37f61fdf0b0900dff73b6b4b8b63", "rental_uris": {"android": "https://dc.lft.to/lastmile_qr_scan", "ios": "https://dc.lft.to/lastmile_qr_scan"}, "name": "40ff37f61fdf0b0900dff73b6b4b8b63", "is_reserved": 0}, {"is_disabled": 0, "fusion_lon": 0.0, "fusion_lat": 0.0, "lat": 38.92441983333333, "type": "electric_scooter", "lon": -77.04027766666667, "bike_id": "f00af9089057dd2ae8c2500601856d5d", "rental_uris": {"android": "https://dc.lft.to/lastmile_qr_scan", "ios": "https://dc.lft.to/lastmile_qr_scan"}, "name": "f00af9089057dd2ae8c2500601856d5d", "is_reserved": 0}, {"is_disabled": 0, "fusion_lon": 0.0, "fusion_lat": 0.0, "lat": 38.936382333333334, "type": "electric_scooter", "lon": -77.03262666666667, "bike_id": "28575bdf019f964013ca78ebe66e3596", "rental_uris": {"android": "https://dc.lft.to/lastmile_qr_scan", "ios": "https://dc.lft.to/lastmile_qr_scan"}, "name": "28575bdf019f964013ca78ebe66e3596", "is_reserved": 0}, {"is_disabled": 0, "fusion_lon": 0.0, "fusion_lat": 0.0, "lat": 38.88736983333333, "type": "electric_scooter", "lon": -77.01532083333333, "bike_id": "9e50ffa2727607548f3731ef3bf08341", "rental_uris": {"android": "https://dc.lft.to/lastmile_qr_scan", "ios": "https://dc.lft.to/lastmile_qr_scan"}, "name": "9e50ffa2727607548f3731ef3bf08341", "is_reserved": 0}, {"is_disabled": 0, "fusion_lon": 0.0, "fusion_lat": 0.0, "lat": 38.969277, "type": "electric_bike", "lon": -77.02631033333333, "bike_id": "ed6721f1f6defdf1369bb1405c4d9e0d", "rental_uris": {"android": "https://dc.lft.to/lastmile_qr_scan", "ios": "https://dc.lft.to/lastmile_qr_scan"}, "name": "ed6721f1f6defdf1369bb1405c4d9e0d", "is_reserved": 0}, {"is_disabled": 0, "fusion_lon": 0.0, "fusion_lat": 0.0, "lat": 38.961154, "type": "electric_bike", "lon": -77.06905083333334, "bike_id": "8d9687e203c23fce6761c219c22f96f3", "rental_uris": {"android": "https://dc.lft.to/lastmile_qr_scan", "ios": "https://dc.lft.to/lastmile_qr_scan"}, "name": "8d9687e203c23fce6761c219c22f96f3", "is_reserved": 0}, {"is_disabled": 0, "fusion_lon": 0.0, "fusion_lat": 0.0, "lat": 38.90053283333334, "type": "electric_scooter", "lon": -77.00068566666667, "bike_id": "64fc19a284687361e3ed11a623d95ff2", "rental_uris": {"android": "https://dc.lft.to/lastmile_qr_scan", "ios": "https://dc.lft.to/lastmile_qr_scan"}, "name": "64fc19a284687361e3ed11a623d95ff2", "is_reserved": 0}, {"is_disabled": 0, "fusion_lon": 0.0, "fusion_lat": 0.0, "lat": 38.91695833333333, "type": "electric_scooter", "lon": -77.03219116666666, "bike_id": "000b7648b1e916a14d47532a7607df48", "rental_uris": {"android": "https://dc.lft.to/lastmile_qr_scan", "ios": "https://dc.lft.to/lastmile_qr_scan"}, "name": "000b7648b1e916a14d47532a7607df48", "is_reserved": 0}, {"is_disabled": 0, "fusion_lon": 0.0, "fusion_lat": 0.0, "lat": 38.935584, "type": "electric_scooter", "lon": -77.02961766666667, "bike_id": "8040184e7901988e223ca8da74ed6e26", "rental_uris": {"android": "https://dc.lft.to/lastmile_qr_scan", "ios": "https://dc.lft.to/lastmile_qr_scan"}, "name": "8040184e7901988e223ca8da74ed6e26", "is_reserved": 0}, {"is_disabled": 0, "fusion_lon": 0.0, "fusion_lat": 0.0, "lat": 38.89209, "type": "electric_scooter", "lon": -76.98791066666666, "bike_id": "498a501da64e579058ea2421602c9fe7", "rental_uris": {"android": "https://dc.lft.to/lastmile_qr_scan", "ios": "https://dc.lft.to/lastmile_qr_scan"}, "name": "498a501da64e579058ea2421602c9fe7", "is_reserved": 0}, {"is_disabled": 0, "fusion_lon": 0.0, "fusion_lat": 0.0, "lat": 38.92421016666667, "type": "electric_scooter", "lon": -77.0563155, "bike_id": "3779496f34e9459680277151c35e81fd", "rental_uris": {"android": "https://dc.lft.to/lastmile_qr_scan", "ios": "https://dc.lft.to/lastmile_qr_scan"}, "name": "3779496f34e9459680277151c35e81fd", "is_reserved": 0}, {"is_disabled": 0, "fusion_lon": 0.0, "fusion_lat": 0.0, "lat": 38.907440333333334, "type": "electric_scooter", "lon": -77.03436666666667, "bike_id": "45963a47107695c10c4d82c63bd6dbfb", "rental_uris": {"android": "https://dc.lft.to/lastmile_qr_scan", "ios": "https://dc.lft.to/lastmile_qr_scan"}, "name": "45963a47107695c10c4d82c63bd6dbfb", "is_reserved": 0}, {"is_disabled": 0, "fusion_lon": 0.0, "fusion_lat": 0.0, "lat": 38.98665033333333, "type": "electric_scooter", "lon": -77.0264585, "bike_id": "7eb2fd4510cae8da833d47ef66c6a70f", "rental_uris": {"android": "https://dc.lft.to/lastmile_qr_scan", "ios": "https://dc.lft.to/lastmile_qr_scan"}, "name": "7eb2fd4510cae8da833d47ef66c6a70f", "is_reserved": 0}, {"is_disabled": 0, "fusion_lon": 0.0, "fusion_lat": 0.0, "lat": 38.91812566666667, "type": "electric_scooter", "lon": -77.03172866666667, "bike_id": "ecdb8b40e8ed937e652fdcf3f2d67753", "rental_uris": {"android": "https://dc.lft.to/lastmile_qr_scan", "ios": "https://dc.lft.to/lastmile_qr_scan"}, "name": "ecdb8b40e8ed937e652fdcf3f2d67753", "is_reserved": 0}, {"is_disabled": 0, "fusion_lon": 0.0, "fusion_lat": 0.0, "lat": 38.93279066666667, "type": "electric_scooter", "lon": -76.99694016666666, "bike_id": "2ccf445f1e5ef1f61f412a79500e7f36", "rental_uris": {"android": "https://dc.lft.to/lastmile_qr_scan", "ios": "https://dc.lft.to/lastmile_qr_scan"}, "name": "2ccf445f1e5ef1f61f412a79500e7f36", "is_reserved": 0}, {"is_disabled": 0, "fusion_lon": 0.0, "fusion_lat": 0.0, "lat": 38.9147815, "type": "electric_scooter", "lon": -77.04397933333334, "bike_id": "329e67f413777fcf0d36c453671860a3", "rental_uris": {"android": "https://dc.lft.to/lastmile_qr_scan", "ios": "https://dc.lft.to/lastmile_qr_scan"}, "name": "329e67f413777fcf0d36c453671860a3", "is_reserved": 0}, {"is_disabled": 0, "fusion_lon": 0.0, "fusion_lat": 0.0, "lat": 38.91859566666667, "type": "electric_bike", "lon": -76.96175883333333, "bike_id": "d21d1c233ba2b143dc576e47ade8759e", "rental_uris": {"android": "https://dc.lft.to/lastmile_qr_scan", "ios": "https://dc.lft.to/lastmile_qr_scan"}, "name": "d21d1c233ba2b143dc576e47ade8759e", "is_reserved": 0}, {"is_disabled": 0, "fusion_lon": 0.0, "fusion_lat": 0.0, "lat": 38.8991015, "type": "electric_scooter", "lon": -76.9339235, "bike_id": "fa85d59c4720b0d32deacd06626ab88f", "rental_uris": {"android": "https://dc.lft.to/lastmile_qr_scan", "ios": "https://dc.lft.to/lastmile_qr_scan"}, "name": "fa85d59c4720b0d32deacd06626ab88f", "is_reserved": 0}, {"is_disabled": 0, "fusion_lon": 0.0, "fusion_lat": 0.0, "lat": 38.920189666666666, "type": "electric_scooter", "lon": -77.023895, "bike_id": "abea83842b214845050286ccded37e3a", "rental_uris": {"android": "https://dc.lft.to/lastmile_qr_scan", "ios": "https://dc.lft.to/lastmile_qr_scan"}, "name": "abea83842b214845050286ccded37e3a", "is_reserved": 0}, {"is_disabled": 0, "fusion_lon": 0.0, "fusion_lat": 0.0, "lat": 38.871431333333334, "type": "electric_scooter", "lon": -76.9789665, "bike_id": "b4bc929440a03025ecd4cfa11c5776df", "rental_uris": {"android": "https://dc.lft.to/lastmile_qr_scan", "ios": "https://dc.lft.to/lastmile_qr_scan"}, "name": "b4bc929440a03025ecd4cfa11c5776df", "is_reserved": 0}, {"is_disabled": 0, "fusion_lon": 0.0, "fusion_lat": 0.0, "lat": 38.95312066666666, "type": "electric_scooter", "lon": -77.03599983333334, "bike_id": "9c135fc4c6a69398063a06e8bd42cc97", "rental_uris": {"android": "https://dc.lft.to/lastmile_qr_scan", "ios": "https://dc.lft.to/lastmile_qr_scan"}, "name": "9c135fc4c6a69398063a06e8bd42cc97", "is_reserved": 0}, {"is_disabled": 0, "fusion_lon": 0.0, "fusion_lat": 0.0, "lat": 38.9094995, "type": "electric_scooter", "lon": -77.02375983333333, "bike_id": "5720de9925e6214860d4ac4f791daad4", "rental_uris": {"android": "https://dc.lft.to/lastmile_qr_scan", "ios": "https://dc.lft.to/lastmile_qr_scan"}, "name": "5720de9925e6214860d4ac4f791daad4", "is_reserved": 0}, {"is_disabled": 0, "fusion_lon": 0.0, "fusion_lat": 0.0, "lat": 38.831565833333336, "type": "electric_bike", "lon": -76.99692983333334, "bike_id": "ee5230a17a94847fbe165246de9e7d9d", "rental_uris": {"android": "https://dc.lft.to/lastmile_qr_scan", "ios": "https://dc.lft.to/lastmile_qr_scan"}, "name": "ee5230a17a94847fbe165246de9e7d9d", "is_reserved": 0}, {"is_disabled": 0, "fusion_lon": 0.0, "fusion_lat": 0.0, "lat": 38.949816, "type": "electric_scooter", "lon": -77.02701, "bike_id": "746350f37b36e0fb0e2137faa6a19317", "rental_uris": {"android": "https://dc.lft.to/lastmile_qr_scan", "ios": "https://dc.lft.to/lastmile_qr_scan"}, "name": "746350f37b36e0fb0e2137faa6a19317", "is_reserved": 0}, {"is_disabled": 0, "fusion_lon": 0.0, "fusion_lat": 0.0, "lat": 38.987593833333335, "type": "electric_bike", "lon": -77.02697233333333, "bike_id": "449b59b2bb9f2a31bfd222a2a924cabb", "rental_uris": {"android": "https://dc.lft.to/lastmile_qr_scan", "ios": "https://dc.lft.to/lastmile_qr_scan"}, "name": "449b59b2bb9f2a31bfd222a2a924cabb", "is_reserved": 0}, {"is_disabled": 0, "fusion_lon": 0.0, "fusion_lat": 0.0, "lat": 38.91840216666667, "type": "electric_scooter", "lon": -77.03211233333333, "bike_id": "01df8413fb6effd1c73f651dc8076021", "rental_uris": {"android": "https://dc.lft.to/lastmile_qr_scan", "ios": "https://dc.lft.to/lastmile_qr_scan"}, "name": "01df8413fb6effd1c73f651dc8076021", "is_reserved": 0}, {"is_disabled": 0, "fusion_lon": 0.0, "fusion_lat": 0.0, "lat": 38.895667333333336, "type": "electric_bike", "lon": -77.12738416666667, "bike_id": "7af3228403b0b9b55c6260c568d599fb", "rental_uris": {"android": "https://dc.lft.to/lastmile_qr_scan", "ios": "https://dc.lft.to/lastmile_qr_scan"}, "name": "7af3228403b0b9b55c6260c568d599fb", "is_reserved": 0}, {"is_disabled": 0, "fusion_lon": 0.0, "fusion_lat": 0.0, "lat": 38.897972833333334, "type": "electric_scooter", "lon": -76.930498, "bike_id": "a098978f56455e75629982948b3288f8", "rental_uris": {"android": "https://dc.lft.to/lastmile_qr_scan", "ios": "https://dc.lft.to/lastmile_qr_scan"}, "name": "a098978f56455e75629982948b3288f8", "is_reserved": 0}, {"is_disabled": 0, "fusion_lon": 0.0, "fusion_lat": 0.0, "lat": 38.957595, "type": "electric_bike", "lon": -77.02055116666666, "bike_id": "3acc09044e542b4f3bac91cf7c0126e1", "rental_uris": {"android": "https://dc.lft.to/lastmile_qr_scan", "ios": "https://dc.lft.to/lastmile_qr_scan"}, "name": "3acc09044e542b4f3bac91cf7c0126e1", "is_reserved": 0}, {"is_disabled": 0, "fusion_lon": 0.0, "fusion_lat": 0.0, "lat": 38.924101, "type": "electric_scooter", "lon": -77.03548916666666, "bike_id": "1cdb7b920e102743629aa0af88402faa", "rental_uris": {"android": "https://dc.lft.to/lastmile_qr_scan", "ios": "https://dc.lft.to/lastmile_qr_scan"}, "name": "1cdb7b920e102743629aa0af88402faa", "is_reserved": 0}, {"is_disabled": 0, "fusion_lon": 0.0, "fusion_lat": 0.0, "lat": 38.899296166666666, "type": "electric_scooter", "lon": -77.014944, "bike_id": "d1992018dd74fbd8bc46d4c8cdedf844", "rental_uris": {"android": "https://dc.lft.to/lastmile_qr_scan", "ios": "https://dc.lft.to/lastmile_qr_scan"}, "name": "d1992018dd74fbd8bc46d4c8cdedf844", "is_reserved": 0}, {"is_disabled": 0, "fusion_lon": 0.0, "fusion_lat": 0.0, "lat": 38.95266733333333, "type": "electric_bike", "lon": -77.069855, "bike_id": "7e6ad7d37fd437061169f128987c9123", "rental_uris": {"android": "https://dc.lft.to/lastmile_qr_scan", "ios": "https://dc.lft.to/lastmile_qr_scan"}, "name": "7e6ad7d37fd437061169f128987c9123", "is_reserved": 0}, {"is_disabled": 0, "fusion_lon": 0.0, "fusion_lat": 0.0, "lat": 38.892458, "type": "electric_scooter", "lon": -77.04663516666666, "bike_id": "b76bd9a66a6a605d9b61fc742883b2e3", "rental_uris": {"android": "https://dc.lft.to/lastmile_qr_scan", "ios": "https://dc.lft.to/lastmile_qr_scan"}, "name": "b76bd9a66a6a605d9b61fc742883b2e3", "is_reserved": 0}, {"is_disabled": 0, "fusion_lon": 0.0, "fusion_lat": 0.0, "lat": 38.92484733333333, "type": "electric_scooter", "lon": -77.02730866666667, "bike_id": "d5e8042648321c8d117ad16a09ef6307", "rental_uris": {"android": "https://dc.lft.to/lastmile_qr_scan", "ios": "https://dc.lft.to/lastmile_qr_scan"}, "name": "d5e8042648321c8d117ad16a09ef6307", "is_reserved": 0}, {"is_disabled": 0, "fusion_lon": 0.0, "fusion_lat": 0.0, "lat": 38.897839, "type": "electric_scooter", "lon": -77.05027583333333, "bike_id": "ae7547cfb87ec5ffbe0f47bc0b0adb8b", "rental_uris": {"android": "https://dc.lft.to/lastmile_qr_scan", "ios": "https://dc.lft.to/lastmile_qr_scan"}, "name": "ae7547cfb87ec5ffbe0f47bc0b0adb8b", "is_reserved": 0}, {"is_disabled": 0, "fusion_lon": 0.0, "fusion_lat": 0.0, "lat": 38.8983525, "type": "electric_scooter", "lon": -76.94637216666666, "bike_id": "4a906526d994961b93b016f8ffe881f8", "rental_uris": {"android": "https://dc.lft.to/lastmile_qr_scan", "ios": "https://dc.lft.to/lastmile_qr_scan"}, "name": "4a906526d994961b93b016f8ffe881f8", "is_reserved": 0}, {"is_disabled": 0, "fusion_lon": 0.0, "fusion_lat": 0.0, "lat": 38.867017833333335, "type": "electric_scooter", "lon": -76.98717633333334, "bike_id": "0e0c7a165c0632289a7c082e4e24bad5", "rental_uris": {"android": "https://dc.lft.to/lastmile_qr_scan", "ios": "https://dc.lft.to/lastmile_qr_scan"}, "name": "0e0c7a165c0632289a7c082e4e24bad5", "is_reserved": 0}, {"is_disabled": 0, "fusion_lon": 0.0, "fusion_lat": 0.0, "lat": 38.94108333333333, "type": "electric_scooter", "lon": -77.06137966666667, "bike_id": "5881b552527538acf1f3008594648c8f", "rental_uris": {"android": "https://dc.lft.to/lastmile_qr_scan", "ios": "https://dc.lft.to/lastmile_qr_scan"}, "name": "5881b552527538acf1f3008594648c8f", "is_reserved": 0}, {"is_disabled": 0, "fusion_lon": 0.0, "fusion_lat": 0.0, "lat": 38.91272383333333, "type": "electric_scooter", "lon": -77.02227066666667, "bike_id": "f2d3d61356099c4e36803b515842eee8", "rental_uris": {"android": "https://dc.lft.to/lastmile_qr_scan", "ios": "https://dc.lft.to/lastmile_qr_scan"}, "name": "f2d3d61356099c4e36803b515842eee8", "is_reserved": 0}, {"is_disabled": 0, "fusion_lon": 0.0, "fusion_lat": 0.0, "lat": 38.90660733333333, "type": "electric_scooter", "lon": -77.043371, "bike_id": "7641817a8326555fdd8758ef66e05006", "rental_uris": {"android": "https://dc.lft.to/lastmile_qr_scan", "ios": "https://dc.lft.to/lastmile_qr_scan"}, "name": "7641817a8326555fdd8758ef66e05006", "is_reserved": 0}, {"is_disabled": 0, "fusion_lon": 0.0, "fusion_lat": 0.0, "lat": 38.911061833333335, "type": "electric_scooter", "lon": -77.002166, "bike_id": "b31f84646065cd202a5a32f46d8e4670", "rental_uris": {"android": "https://dc.lft.to/lastmile_qr_scan", "ios": "https://dc.lft.to/lastmile_qr_scan"}, "name": "b31f84646065cd202a5a32f46d8e4670", "is_reserved": 0}, {"is_disabled": 0, "fusion_lon": 0.0, "fusion_lat": 0.0, "lat": 38.98603133333334, "type": "electric_bike", "lon": -77.0375725, "bike_id": "41a772eb1371a849e2fb2534c48830a2", "rental_uris": {"android": "https://dc.lft.to/lastmile_qr_scan", "ios": "https://dc.lft.to/lastmile_qr_scan"}, "name": "41a772eb1371a849e2fb2534c48830a2", "is_reserved": 0}, {"is_disabled": 0, "fusion_lon": 0.0, "fusion_lat": 0.0, "lat": 38.92569983333333, "type": "electric_scooter", "lon": -77.03739383333334, "bike_id": "31b5a9c4a5213a8fe894320eeadcb7b3", "rental_uris": {"android": "https://dc.lft.to/lastmile_qr_scan", "ios": "https://dc.lft.to/lastmile_qr_scan"}, "name": "31b5a9c4a5213a8fe894320eeadcb7b3", "is_reserved": 0}, {"is_disabled": 0, "fusion_lon": 0.0, "fusion_lat": 0.0, "lat": 38.912842833333336, "type": "electric_scooter", "lon": -77.03849216666667, "bike_id": "92daab3ccf144b39d8cdb18171d409c4", "rental_uris": {"android": "https://dc.lft.to/lastmile_qr_scan", "ios": "https://dc.lft.to/lastmile_qr_scan"}, "name": "92daab3ccf144b39d8cdb18171d409c4", "is_reserved": 0}, {"is_disabled": 0, "fusion_lon": 0.0, "fusion_lat": 0.0, "lat": 38.93130816666667, "type": "electric_scooter", "lon": -77.05729316666667, "bike_id": "eb7a74d3b6c88f2f4f5d9023f6cc6c12", "rental_uris": {"android": "https://dc.lft.to/lastmile_qr_scan", "ios": "https://dc.lft.to/lastmile_qr_scan"}, "name": "eb7a74d3b6c88f2f4f5d9023f6cc6c12", "is_reserved": 0}, {"is_disabled": 0, "fusion_lon": 0.0, "fusion_lat": 0.0, "lat": 38.89361533333334, "type": "electric_scooter", "lon": -77.03964216666667, "bike_id": "0c7120969a2a9d56027a1acfa8ca3c3f", "rental_uris": {"android": "https://dc.lft.to/lastmile_qr_scan", "ios": "https://dc.lft.to/lastmile_qr_scan"}, "name": "0c7120969a2a9d56027a1acfa8ca3c3f", "is_reserved": 0}, {"is_disabled": 0, "fusion_lon": 0.0, "fusion_lat": 0.0, "lat": 38.91815533333333, "type": "electric_scooter", "lon": -77.0247905, "bike_id": "dd7097497a907b79ccae66cc1582be65", "rental_uris": {"android": "https://dc.lft.to/lastmile_qr_scan", "ios": "https://dc.lft.to/lastmile_qr_scan"}, "name": "dd7097497a907b79ccae66cc1582be65", "is_reserved": 0}, {"is_disabled": 0, "fusion_lon": 0.0, "fusion_lat": 0.0, "lat": 38.89223033333333, "type": "electric_scooter", "lon": -77.02266583333333, "bike_id": "cf27760e3c1eaa9af1556b2746f1c63a", "rental_uris": {"android": "https://dc.lft.to/lastmile_qr_scan", "ios": "https://dc.lft.to/lastmile_qr_scan"}, "name": "cf27760e3c1eaa9af1556b2746f1c63a", "is_reserved": 0}, {"is_disabled": 0, "fusion_lon": 0.0, "fusion_lat": 0.0, "lat": 38.87897266666667, "type": "electric_scooter", "lon": -76.935247, "bike_id": "5bc10010419bc84100687f0e9074259d", "rental_uris": {"android": "https://dc.lft.to/lastmile_qr_scan", "ios": "https://dc.lft.to/lastmile_qr_scan"}, "name": "5bc10010419bc84100687f0e9074259d", "is_reserved": 0}, {"is_disabled": 0, "fusion_lon": 0.0, "fusion_lat": 0.0, "lat": 38.911361, "type": "electric_scooter", "lon": -77.02198366666667, "bike_id": "e638bc15c5a4f4cf2481640cd1222f3c", "rental_uris": {"android": "https://dc.lft.to/lastmile_qr_scan", "ios": "https://dc.lft.to/lastmile_qr_scan"}, "name": "e638bc15c5a4f4cf2481640cd1222f3c", "is_reserved": 0}, {"is_disabled": 0, "fusion_lon": 0.0, "fusion_lat": 0.0, "lat": 38.974050166666665, "type": "electric_bike", "lon": -77.02499633333333, "bike_id": "173ce74f0da5f0fec558f22c12e42f47", "rental_uris": {"android": "https://dc.lft.to/lastmile_qr_scan", "ios": "https://dc.lft.to/lastmile_qr_scan"}, "name": "173ce74f0da5f0fec558f22c12e42f47", "is_reserved": 0}, {"is_disabled": 0, "fusion_lon": 0.0, "fusion_lat": 0.0, "lat": 38.876954166666664, "type": "electric_scooter", "lon": -77.00505416666667, "bike_id": "9c72013ad48af0e5787949710e589e2d", "rental_uris": {"android": "https://dc.lft.to/lastmile_qr_scan", "ios": "https://dc.lft.to/lastmile_qr_scan"}, "name": "9c72013ad48af0e5787949710e589e2d", "is_reserved": 0}, {"is_disabled": 0, "fusion_lon": 0.0, "fusion_lat": 0.0, "lat": 38.9098155, "type": "electric_scooter", "lon": -77.03443483333334, "bike_id": "d04663a1e3c243f2794ea9c2a54f71fb", "rental_uris": {"android": "https://dc.lft.to/lastmile_qr_scan", "ios": "https://dc.lft.to/lastmile_qr_scan"}, "name": "d04663a1e3c243f2794ea9c2a54f71fb", "is_reserved": 0}, {"is_disabled": 0, "fusion_lon": 0.0, "fusion_lat": 0.0, "lat": 38.9006375, "type": "electric_scooter", "lon": -76.93387383333334, "bike_id": "c2025825dec2a8fca9881f058b681074", "rental_uris": {"android": "https://dc.lft.to/lastmile_qr_scan", "ios": "https://dc.lft.to/lastmile_qr_scan"}, "name": "c2025825dec2a8fca9881f058b681074", "is_reserved": 0}, {"is_disabled": 0, "fusion_lon": 0.0, "fusion_lat": 0.0, "lat": 38.907754833333335, "type": "electric_scooter", "lon": -77.0269255, "bike_id": "31b11929bae56b81330e88b5eaf42cdc", "rental_uris": {"android": "https://dc.lft.to/lastmile_qr_scan", "ios": "https://dc.lft.to/lastmile_qr_scan"}, "name": "31b11929bae56b81330e88b5eaf42cdc", "is_reserved": 0}, {"is_disabled": 0, "fusion_lon": 0.0, "fusion_lat": 0.0, "lat": 38.92743933333333, "type": "electric_scooter", "lon": -77.034804, "bike_id": "35b44e25f5ed32a9b8f99b9ecf07064e", "rental_uris": {"android": "https://dc.lft.to/lastmile_qr_scan", "ios": "https://dc.lft.to/lastmile_qr_scan"}, "name": "35b44e25f5ed32a9b8f99b9ecf07064e", "is_reserved": 0}, {"is_disabled": 0, "fusion_lon": 0.0, "fusion_lat": 0.0, "lat": 38.90731316666667, "type": "electric_scooter", "lon": -77.023681, "bike_id": "e870242712a2b081d339d31db37b4fb8", "rental_uris": {"android": "https://dc.lft.to/lastmile_qr_scan", "ios": "https://dc.lft.to/lastmile_qr_scan"}, "name": "e870242712a2b081d339d31db37b4fb8", "is_reserved": 0}, {"is_disabled": 0, "fusion_lon": 0.0, "fusion_lat": 0.0, "lat": 38.898312833333335, "type": "electric_scooter", "lon": -77.029796, "bike_id": "8663bdc309d183d5525250bdbc45566c", "rental_uris": {"android": "https://dc.lft.to/lastmile_qr_scan", "ios": "https://dc.lft.to/lastmile_qr_scan"}, "name": "8663bdc309d183d5525250bdbc45566c", "is_reserved": 0}, {"is_disabled": 0, "fusion_lon": 0.0, "fusion_lat": 0.0, "lat": 38.92215983333333, "type": "electric_bike", "lon": -77.03662183333333, "bike_id": "5d971ba77aade407948b91a282454b49", "rental_uris": {"android": "https://dc.lft.to/lastmile_qr_scan", "ios": "https://dc.lft.to/lastmile_qr_scan"}, "name": "5d971ba77aade407948b91a282454b49", "is_reserved": 0}, {"is_disabled": 0, "fusion_lon": 0.0, "fusion_lat": 0.0, "lat": 38.90801833333333, "type": "electric_scooter", "lon": -77.040945, "bike_id": "9fde0ff66bfb186d19f024033c2d44f3", "rental_uris": {"android": "https://dc.lft.to/lastmile_qr_scan", "ios": "https://dc.lft.to/lastmile_qr_scan"}, "name": "9fde0ff66bfb186d19f024033c2d44f3", "is_reserved": 0}, {"is_disabled": 0, "fusion_lon": 0.0, "fusion_lat": 0.0, "lat": 38.912736333333335, "type": "electric_scooter", "lon": -77.022289, "bike_id": "ab5e406648d06ec12e728b78cfdb6391", "rental_uris": {"android": "https://dc.lft.to/lastmile_qr_scan", "ios": "https://dc.lft.to/lastmile_qr_scan"}, "name": "ab5e406648d06ec12e728b78cfdb6391", "is_reserved": 0}, {"is_disabled": 0, "fusion_lon": 0.0, "fusion_lat": 0.0, "lat": 38.950895, "type": "electric_bike", "lon": -76.96561833333334, "bike_id": "d6273ee3c74b0ee7bcb7cb94a7a2a4f6", "rental_uris": {"android": "https://dc.lft.to/lastmile_qr_scan", "ios": "https://dc.lft.to/lastmile_qr_scan"}, "name": "d6273ee3c74b0ee7bcb7cb94a7a2a4f6", "is_reserved": 0}, {"is_disabled": 0, "fusion_lon": 0.0, "fusion_lat": 0.0, "lat": 38.894722, "type": "electric_scooter", "lon": -76.9772915, "bike_id": "cbaf71b6e055fed6b56473edd187dbdd", "rental_uris": {"android": "https://dc.lft.to/lastmile_qr_scan", "ios": "https://dc.lft.to/lastmile_qr_scan"}, "name": "cbaf71b6e055fed6b56473edd187dbdd", "is_reserved": 0}, {"is_disabled": 0, "fusion_lon": 0.0, "fusion_lat": 0.0, "lat": 38.90942233333333, "type": "electric_scooter", "lon": -76.99221783333333, "bike_id": "e84330a0aa79e4e32fc0c3e3fe97342b", "rental_uris": {"android": "https://dc.lft.to/lastmile_qr_scan", "ios": "https://dc.lft.to/lastmile_qr_scan"}, "name": "e84330a0aa79e4e32fc0c3e3fe97342b", "is_reserved": 0}, {"is_disabled": 0, "fusion_lon": 0.0, "fusion_lat": 0.0, "lat": 38.89741183333334, "type": "electric_scooter", "lon": -77.01603966666667, "bike_id": "f290c4452fdb697d4a0ff4cbf0d3442b", "rental_uris": {"android": "https://dc.lft.to/lastmile_qr_scan", "ios": "https://dc.lft.to/lastmile_qr_scan"}, "name": "f290c4452fdb697d4a0ff4cbf0d3442b", "is_reserved": 0}, {"is_disabled": 0, "fusion_lon": 0.0, "fusion_lat": 0.0, "lat": 38.912044, "type": "electric_scooter", "lon": -77.00091483333334, "bike_id": "9ce94a9bf0db91e54fa609a9afbb6eb6", "rental_uris": {"android": "https://dc.lft.to/lastmile_qr_scan", "ios": "https://dc.lft.to/lastmile_qr_scan"}, "name": "9ce94a9bf0db91e54fa609a9afbb6eb6", "is_reserved": 0}, {"is_disabled": 0, "fusion_lon": 0.0, "fusion_lat": 0.0, "lat": 38.900979, "type": "electric_scooter", "lon": -77.0393775, "bike_id": "ac340caa9c24aac1541e3e6633ab853e", "rental_uris": {"android": "https://dc.lft.to/lastmile_qr_scan", "ios": "https://dc.lft.to/lastmile_qr_scan"}, "name": "ac340caa9c24aac1541e3e6633ab853e", "is_reserved": 0}, {"is_disabled": 0, "fusion_lon": 0.0, "fusion_lat": 0.0, "lat": 38.89973333333333, "type": "electric_scooter", "lon": -77.01615766666667, "bike_id": "4c344c72a938ee830f737b83267fc473", "rental_uris": {"android": "https://dc.lft.to/lastmile_qr_scan", "ios": "https://dc.lft.to/lastmile_qr_scan"}, "name": "4c344c72a938ee830f737b83267fc473", "is_reserved": 0}, {"is_disabled": 0, "fusion_lon": 0.0, "fusion_lat": 0.0, "lat": 38.944424, "type": "electric_scooter", "lon": -77.06045683333333, "bike_id": "b376be9dd89752a2caa5c1a2fbf06f35", "rental_uris": {"android": "https://dc.lft.to/lastmile_qr_scan", "ios": "https://dc.lft.to/lastmile_qr_scan"}, "name": "b376be9dd89752a2caa5c1a2fbf06f35", "is_reserved": 0}, {"is_disabled": 0, "fusion_lon": 0.0, "fusion_lat": 0.0, "lat": 38.936758833333336, "type": "electric_scooter", "lon": -77.036226, "bike_id": "6a18cb7f9218289f3a923f589a475b8b", "rental_uris": {"android": "https://dc.lft.to/lastmile_qr_scan", "ios": "https://dc.lft.to/lastmile_qr_scan"}, "name": "6a18cb7f9218289f3a923f589a475b8b", "is_reserved": 0}, {"is_disabled": 0, "fusion_lon": 0.0, "fusion_lat": 0.0, "lat": 38.911465, "type": "electric_scooter", "lon": -76.98489066666667, "bike_id": "30483aeb303a6064cbc85fe8efd91a30", "rental_uris": {"android": "https://dc.lft.to/lastmile_qr_scan", "ios": "https://dc.lft.to/lastmile_qr_scan"}, "name": "30483aeb303a6064cbc85fe8efd91a30", "is_reserved": 0}, {"is_disabled": 0, "fusion_lon": 0.0, "fusion_lat": 0.0, "lat": 38.9164075, "type": "electric_scooter", "lon": -77.05059983333334, "bike_id": "e584fffb7276fdf4d93451af827ec4a2", "rental_uris": {"android": "https://dc.lft.to/lastmile_qr_scan", "ios": "https://dc.lft.to/lastmile_qr_scan"}, "name": "e584fffb7276fdf4d93451af827ec4a2", "is_reserved": 0}, {"is_disabled": 0, "fusion_lon": 0.0, "fusion_lat": 0.0, "lat": 38.931923833333336, "type": "electric_scooter", "lon": -77.02835483333334, "bike_id": "abf9e5e76df954f87be89b756c059243", "rental_uris": {"android": "https://dc.lft.to/lastmile_qr_scan", "ios": "https://dc.lft.to/lastmile_qr_scan"}, "name": "abf9e5e76df954f87be89b756c059243", "is_reserved": 0}, {"is_disabled": 0, "fusion_lon": 0.0, "fusion_lat": 0.0, "lat": 38.92475, "type": "electric_scooter", "lon": -77.02671266666667, "bike_id": "7db7e6bd37d5a40ea2133c8665933643", "rental_uris": {"android": "https://dc.lft.to/lastmile_qr_scan", "ios": "https://dc.lft.to/lastmile_qr_scan"}, "name": "7db7e6bd37d5a40ea2133c8665933643", "is_reserved": 0}, {"is_disabled": 0, "fusion_lon": 0.0, "fusion_lat": 0.0, "lat": 38.9333555, "type": "electric_bike", "lon": -77.04212833333334, "bike_id": "6072d1c180f5e694939946da17352fdb", "rental_uris": {"android": "https://dc.lft.to/lastmile_qr_scan", "ios": "https://dc.lft.to/lastmile_qr_scan"}, "name": "6072d1c180f5e694939946da17352fdb", "is_reserved": 0}, {"is_disabled": 0, "fusion_lon": 0.0, "fusion_lat": 0.0, "lat": 38.92962983333334, "type": "electric_scooter", "lon": -77.04205783333333, "bike_id": "09ee91ce677d3d702757beceaf2c6975", "rental_uris": {"android": "https://dc.lft.to/lastmile_qr_scan", "ios": "https://dc.lft.to/lastmile_qr_scan"}, "name": "09ee91ce677d3d702757beceaf2c6975", "is_reserved": 0}, {"is_disabled": 0, "fusion_lon": 0.0, "fusion_lat": 0.0, "lat": 38.916157, "type": "electric_scooter", "lon": -77.0315925, "bike_id": "c38faf1f06ffc6604d696fa8761cce81", "rental_uris": {"android": "https://dc.lft.to/lastmile_qr_scan", "ios": "https://dc.lft.to/lastmile_qr_scan"}, "name": "c38faf1f06ffc6604d696fa8761cce81", "is_reserved": 0}, {"is_disabled": 0, "fusion_lon": 0.0, "fusion_lat": 0.0, "lat": 38.9461925, "type": "electric_scooter", "lon": -77.03625566666666, "bike_id": "ee7e1ddab670d7b5aed5fbce28dc96ad", "rental_uris": {"android": "https://dc.lft.to/lastmile_qr_scan", "ios": "https://dc.lft.to/lastmile_qr_scan"}, "name": "ee7e1ddab670d7b5aed5fbce28dc96ad", "is_reserved": 0}, {"is_disabled": 0, "fusion_lon": 0.0, "fusion_lat": 0.0, "lat": 38.86699683333333, "type": "electric_scooter", "lon": -76.987128, "bike_id": "5ce6d7436ca4dcd47a4304aae9e58b0f", "rental_uris": {"android": "https://dc.lft.to/lastmile_qr_scan", "ios": "https://dc.lft.to/lastmile_qr_scan"}, "name": "5ce6d7436ca4dcd47a4304aae9e58b0f", "is_reserved": 0}, {"is_disabled": 0, "fusion_lon": 0.0, "fusion_lat": 0.0, "lat": 38.93102366666667, "type": "electric_scooter", "lon": -77.02669283333333, "bike_id": "d55c73ca68c097100a2e8cbe149484b5", "rental_uris": {"android": "https://dc.lft.to/lastmile_qr_scan", "ios": "https://dc.lft.to/lastmile_qr_scan"}, "name": "d55c73ca68c097100a2e8cbe149484b5", "is_reserved": 0}, {"is_disabled": 0, "fusion_lon": 0.0, "fusion_lat": 0.0, "lat": 38.9038805, "type": "electric_scooter", "lon": -77.02997, "bike_id": "ae10d52ad0b5c89e10d43340c865889d", "rental_uris": {"android": "https://dc.lft.to/lastmile_qr_scan", "ios": "https://dc.lft.to/lastmile_qr_scan"}, "name": "ae10d52ad0b5c89e10d43340c865889d", "is_reserved": 0}, {"is_disabled": 0, "fusion_lon": 0.0, "fusion_lat": 0.0, "lat": 38.9201985, "type": "electric_scooter", "lon": -77.03140083333334, "bike_id": "338669e9292567f4dc8bc401f81a5eef", "rental_uris": {"android": "https://dc.lft.to/lastmile_qr_scan", "ios": "https://dc.lft.to/lastmile_qr_scan"}, "name": "338669e9292567f4dc8bc401f81a5eef", "is_reserved": 0}, {"is_disabled": 0, "fusion_lon": 0.0, "fusion_lat": 0.0, "lat": 38.86909166666667, "type": "electric_scooter", "lon": -77.01373766666667, "bike_id": "0e9d10e38268a923cf7588f31f16be4d", "rental_uris": {"android": "https://dc.lft.to/lastmile_qr_scan", "ios": "https://dc.lft.to/lastmile_qr_scan"}, "name": "0e9d10e38268a923cf7588f31f16be4d", "is_reserved": 0}, {"is_disabled": 0, "fusion_lon": 0.0, "fusion_lat": 0.0, "lat": 38.931900666666664, "type": "electric_scooter", "lon": -77.02834316666667, "bike_id": "416751fdefbdbc4fca502708b9374bca", "rental_uris": {"android": "https://dc.lft.to/lastmile_qr_scan", "ios": "https://dc.lft.to/lastmile_qr_scan"}, "name": "416751fdefbdbc4fca502708b9374bca", "is_reserved": 0}, {"is_disabled": 0, "fusion_lon": 0.0, "fusion_lat": 0.0, "lat": 38.91192433333333, "type": "electric_scooter", "lon": -77.04169616666667, "bike_id": "328ba37ff446c27d5bc00168f1e25305", "rental_uris": {"android": "https://dc.lft.to/lastmile_qr_scan", "ios": "https://dc.lft.to/lastmile_qr_scan"}, "name": "328ba37ff446c27d5bc00168f1e25305", "is_reserved": 0}, {"is_disabled": 0, "fusion_lon": 0.0, "fusion_lat": 0.0, "lat": 38.894269333333334, "type": "electric_scooter", "lon": -76.91220366666667, "bike_id": "48468886320afc02a6a55f18e4aba64f", "rental_uris": {"android": "https://dc.lft.to/lastmile_qr_scan", "ios": "https://dc.lft.to/lastmile_qr_scan"}, "name": "48468886320afc02a6a55f18e4aba64f", "is_reserved": 0}, {"is_disabled": 0, "fusion_lon": 0.0, "fusion_lat": 0.0, "lat": 38.9370535, "type": "electric_scooter", "lon": -77.06103216666666, "bike_id": "99b67f864e314619fb2d1244cdcc1210", "rental_uris": {"android": "https://dc.lft.to/lastmile_qr_scan", "ios": "https://dc.lft.to/lastmile_qr_scan"}, "name": "99b67f864e314619fb2d1244cdcc1210", "is_reserved": 0}, {"is_disabled": 0, "fusion_lon": 0.0, "fusion_lat": 0.0, "lat": 38.8381345, "type": "electric_scooter", "lon": -77.00433683333333, "bike_id": "edcc56edacf6ff980f084b2e7e656a9c", "rental_uris": {"android": "https://dc.lft.to/lastmile_qr_scan", "ios": "https://dc.lft.to/lastmile_qr_scan"}, "name": "edcc56edacf6ff980f084b2e7e656a9c", "is_reserved": 0}, {"is_disabled": 0, "fusion_lon": 0.0, "fusion_lat": 0.0, "lat": 38.937097666666666, "type": "electric_scooter", "lon": -77.02394816666667, "bike_id": "0be52faae4d7b54526984cc24d38b650", "rental_uris": {"android": "https://dc.lft.to/lastmile_qr_scan", "ios": "https://dc.lft.to/lastmile_qr_scan"}, "name": "0be52faae4d7b54526984cc24d38b650", "is_reserved": 0}, {"is_disabled": 0, "fusion_lon": 0.0, "fusion_lat": 0.0, "lat": 38.920756, "type": "electric_scooter", "lon": -77.02405333333333, "bike_id": "9d5743bd94d66950417d6310318a35f8", "rental_uris": {"android": "https://dc.lft.to/lastmile_qr_scan", "ios": "https://dc.lft.to/lastmile_qr_scan"}, "name": "9d5743bd94d66950417d6310318a35f8", "is_reserved": 0}, {"is_disabled": 0, "fusion_lon": 0.0, "fusion_lat": 0.0, "lat": 38.89546383333333, "type": "electric_scooter", "lon": -77.01118283333334, "bike_id": "24a15b34b6e470bad510a1b2cbb03edf", "rental_uris": {"android": "https://dc.lft.to/lastmile_qr_scan", "ios": "https://dc.lft.to/lastmile_qr_scan"}, "name": "24a15b34b6e470bad510a1b2cbb03edf", "is_reserved": 0}, {"is_disabled": 0, "fusion_lon": 0.0, "fusion_lat": 0.0, "lat": 38.89224883333333, "type": "electric_scooter", "lon": -77.04358983333333, "bike_id": "c3058fdaff24fb38af7432560fddfd24", "rental_uris": {"android": "https://dc.lft.to/lastmile_qr_scan", "ios": "https://dc.lft.to/lastmile_qr_scan"}, "name": "c3058fdaff24fb38af7432560fddfd24", "is_reserved": 0}, {"is_disabled": 0, "fusion_lon": 0.0, "fusion_lat": 0.0, "lat": 38.90495333333333, "type": "electric_scooter", "lon": -77.02957933333333, "bike_id": "7ffd8380d2f3e3b5fc79f7bf1543b2ac", "rental_uris": {"android": "https://dc.lft.to/lastmile_qr_scan", "ios": "https://dc.lft.to/lastmile_qr_scan"}, "name": "7ffd8380d2f3e3b5fc79f7bf1543b2ac", "is_reserved": 0}, {"is_disabled": 0, "fusion_lon": 0.0, "fusion_lat": 0.0, "lat": 38.93069416666667, "type": "electric_scooter", "lon": -77.029866, "bike_id": "c9e7a44121fa731096cf883c0cc0967b", "rental_uris": {"android": "https://dc.lft.to/lastmile_qr_scan", "ios": "https://dc.lft.to/lastmile_qr_scan"}, "name": "c9e7a44121fa731096cf883c0cc0967b", "is_reserved": 0}, {"is_disabled": 0, "fusion_lon": 0.0, "fusion_lat": 0.0, "lat": 38.911704, "type": "electric_scooter", "lon": -77.0269835, "bike_id": "7e971caf5d7df294f46ddd2c2238bac2", "rental_uris": {"android": "https://dc.lft.to/lastmile_qr_scan", "ios": "https://dc.lft.to/lastmile_qr_scan"}, "name": "7e971caf5d7df294f46ddd2c2238bac2", "is_reserved": 0}, {"is_disabled": 0, "fusion_lon": 0.0, "fusion_lat": 0.0, "lat": 38.923113, "type": "electric_scooter", "lon": -77.03917616666666, "bike_id": "b5bbd0cc7a596b6ab98cb1f91fec9c20", "rental_uris": {"android": "https://dc.lft.to/lastmile_qr_scan", "ios": "https://dc.lft.to/lastmile_qr_scan"}, "name": "b5bbd0cc7a596b6ab98cb1f91fec9c20", "is_reserved": 0}, {"is_disabled": 0, "fusion_lon": 0.0, "fusion_lat": 0.0, "lat": 38.8950545, "type": "electric_scooter", "lon": -76.94879166666666, "bike_id": "d4b76791b614ac668814e49cdba9d7c9", "rental_uris": {"android": "https://dc.lft.to/lastmile_qr_scan", "ios": "https://dc.lft.to/lastmile_qr_scan"}, "name": "d4b76791b614ac668814e49cdba9d7c9", "is_reserved": 0}, {"is_disabled": 0, "fusion_lon": 0.0, "fusion_lat": 0.0, "lat": 38.9037705, "type": "electric_scooter", "lon": -76.98966466666667, "bike_id": "45fc52147d0d8a6729f5f8fdcbb082ab", "rental_uris": {"android": "https://dc.lft.to/lastmile_qr_scan", "ios": "https://dc.lft.to/lastmile_qr_scan"}, "name": "45fc52147d0d8a6729f5f8fdcbb082ab", "is_reserved": 0}, {"is_disabled": 0, "fusion_lon": 0.0, "fusion_lat": 0.0, "lat": 38.90674516666667, "type": "electric_scooter", "lon": -77.008994, "bike_id": "2a064eebc2cf4f7b3a4d4c31eb95fdad", "rental_uris": {"android": "https://dc.lft.to/lastmile_qr_scan", "ios": "https://dc.lft.to/lastmile_qr_scan"}, "name": "2a064eebc2cf4f7b3a4d4c31eb95fdad", "is_reserved": 0}, {"is_disabled": 0, "fusion_lon": 0.0, "fusion_lat": 0.0, "lat": 38.90879366666667, "type": "electric_scooter", "lon": -77.0269215, "bike_id": "f592988852c1fbb58a472f2215aaeaa9", "rental_uris": {"android": "https://dc.lft.to/lastmile_qr_scan", "ios": "https://dc.lft.to/lastmile_qr_scan"}, "name": "f592988852c1fbb58a472f2215aaeaa9", "is_reserved": 0}, {"is_disabled": 0, "fusion_lon": 0.0, "fusion_lat": 0.0, "lat": 38.94202333333333, "type": "electric_scooter", "lon": -77.01830266666667, "bike_id": "0a26132a648e7b487aa88db9008d976b", "rental_uris": {"android": "https://dc.lft.to/lastmile_qr_scan", "ios": "https://dc.lft.to/lastmile_qr_scan"}, "name": "0a26132a648e7b487aa88db9008d976b", "is_reserved": 0}, {"is_disabled": 0, "fusion_lon": 0.0, "fusion_lat": 0.0, "lat": 38.91470666666667, "type": "electric_scooter", "lon": -77.01982983333333, "bike_id": "83b9784895ad0ee5c8a24dc621c0249a", "rental_uris": {"android": "https://dc.lft.to/lastmile_qr_scan", "ios": "https://dc.lft.to/lastmile_qr_scan"}, "name": "83b9784895ad0ee5c8a24dc621c0249a", "is_reserved": 0}, {"is_disabled": 0, "fusion_lon": 0.0, "fusion_lat": 0.0, "lat": 38.903621, "type": "electric_scooter", "lon": -77.00337816666666, "bike_id": "27a30b159361560721607bc1d56aa551", "rental_uris": {"android": "https://dc.lft.to/lastmile_qr_scan", "ios": "https://dc.lft.to/lastmile_qr_scan"}, "name": "27a30b159361560721607bc1d56aa551", "is_reserved": 0}, {"is_disabled": 0, "fusion_lon": 0.0, "fusion_lat": 0.0, "lat": 38.923663166666664, "type": "electric_bike", "lon": -77.05133183333334, "bike_id": "9ffe81a3e62a2800cdc637b59fd45115", "rental_uris": {"android": "https://dc.lft.to/lastmile_qr_scan", "ios": "https://dc.lft.to/lastmile_qr_scan"}, "name": "9ffe81a3e62a2800cdc637b59fd45115", "is_reserved": 0}, {"is_disabled": 0, "fusion_lon": 0.0, "fusion_lat": 0.0, "lat": 38.917043, "type": "electric_scooter", "lon": -77.03353683333333, "bike_id": "54abd1b50a9bb5a3db8ed3088ffaa6a4", "rental_uris": {"android": "https://dc.lft.to/lastmile_qr_scan", "ios": "https://dc.lft.to/lastmile_qr_scan"}, "name": "54abd1b50a9bb5a3db8ed3088ffaa6a4", "is_reserved": 0}, {"is_disabled": 0, "fusion_lon": 0.0, "fusion_lat": 0.0, "lat": 38.9260815, "type": "electric_scooter", "lon": -77.02414966666667, "bike_id": "9b088870d671b2e05654a902bad3834f", "rental_uris": {"android": "https://dc.lft.to/lastmile_qr_scan", "ios": "https://dc.lft.to/lastmile_qr_scan"}, "name": "9b088870d671b2e05654a902bad3834f", "is_reserved": 0}, {"is_disabled": 0, "fusion_lon": 0.0, "fusion_lat": 0.0, "lat": 38.9131645, "type": "electric_scooter", "lon": -77.038481, "bike_id": "f7075939dbcbd0d486de1ad029418430", "rental_uris": {"android": "https://dc.lft.to/lastmile_qr_scan", "ios": "https://dc.lft.to/lastmile_qr_scan"}, "name": "f7075939dbcbd0d486de1ad029418430", "is_reserved": 0}, {"is_disabled": 0, "fusion_lon": 0.0, "fusion_lat": 0.0, "lat": 38.91731466666667, "type": "electric_scooter", "lon": -77.0358325, "bike_id": "64cb3204cc633a8e257561fcaf7e1987", "rental_uris": {"android": "https://dc.lft.to/lastmile_qr_scan", "ios": "https://dc.lft.to/lastmile_qr_scan"}, "name": "64cb3204cc633a8e257561fcaf7e1987", "is_reserved": 0}, {"is_disabled": 0, "fusion_lon": 0.0, "fusion_lat": 0.0, "lat": 38.897380166666665, "type": "electric_scooter", "lon": -77.00754366666666, "bike_id": "68285e9ac3a45bcb609bda240ddf2e54", "rental_uris": {"android": "https://dc.lft.to/lastmile_qr_scan", "ios": "https://dc.lft.to/lastmile_qr_scan"}, "name": "68285e9ac3a45bcb609bda240ddf2e54", "is_reserved": 0}, {"is_disabled": 0, "fusion_lon": 0.0, "fusion_lat": 0.0, "lat": 38.91267716666667, "type": "electric_scooter", "lon": -77.0415185, "bike_id": "5f6e2eb48d080aa5da52bd7012d5f70b", "rental_uris": {"android": "https://dc.lft.to/lastmile_qr_scan", "ios": "https://dc.lft.to/lastmile_qr_scan"}, "name": "5f6e2eb48d080aa5da52bd7012d5f70b", "is_reserved": 0}, {"is_disabled": 0, "fusion_lon": 0.0, "fusion_lat": 0.0, "lat": 38.91616766666667, "type": "electric_scooter", "lon": -77.04874416666667, "bike_id": "a720ee821b8e9505ec7e7a9cac3f34f0", "rental_uris": {"android": "https://dc.lft.to/lastmile_qr_scan", "ios": "https://dc.lft.to/lastmile_qr_scan"}, "name": "a720ee821b8e9505ec7e7a9cac3f34f0", "is_reserved": 0}, {"is_disabled": 0, "fusion_lon": 0.0, "fusion_lat": 0.0, "lat": 38.83379733333334, "type": "electric_scooter", "lon": -76.99300383333333, "bike_id": "ba80f310b6121b84ace7089dce98f272", "rental_uris": {"android": "https://dc.lft.to/lastmile_qr_scan", "ios": "https://dc.lft.to/lastmile_qr_scan"}, "name": "ba80f310b6121b84ace7089dce98f272", "is_reserved": 0}, {"is_disabled": 0, "fusion_lon": 0.0, "fusion_lat": 0.0, "lat": 38.90573716666667, "type": "electric_scooter", "lon": -77.00588966666666, "bike_id": "f7156bcdc14a3e48ed59d8dd7a6e3ec6", "rental_uris": {"android": "https://dc.lft.to/lastmile_qr_scan", "ios": "https://dc.lft.to/lastmile_qr_scan"}, "name": "f7156bcdc14a3e48ed59d8dd7a6e3ec6", "is_reserved": 0}, {"is_disabled": 0, "fusion_lon": 0.0, "fusion_lat": 0.0, "lat": 38.922917, "type": "electric_scooter", "lon": -77.03194083333334, "bike_id": "80efd3335d7130a9477d6c69493c2cd7", "rental_uris": {"android": "https://dc.lft.to/lastmile_qr_scan", "ios": "https://dc.lft.to/lastmile_qr_scan"}, "name": "80efd3335d7130a9477d6c69493c2cd7", "is_reserved": 0}, {"is_disabled": 0, "fusion_lon": 0.0, "fusion_lat": 0.0, "lat": 38.919088, "type": "electric_scooter", "lon": -77.01768216666666, "bike_id": "8b13c3aaaa019bae8774905e16b4407a", "rental_uris": {"android": "https://dc.lft.to/lastmile_qr_scan", "ios": "https://dc.lft.to/lastmile_qr_scan"}, "name": "8b13c3aaaa019bae8774905e16b4407a", "is_reserved": 0}, {"is_disabled": 0, "fusion_lon": 0.0, "fusion_lat": 0.0, "lat": 38.913054833333334, "type": "electric_scooter", "lon": -77.038529, "bike_id": "b6294cfe99139f70e0cea57a094f2c2d", "rental_uris": {"android": "https://dc.lft.to/lastmile_qr_scan", "ios": "https://dc.lft.to/lastmile_qr_scan"}, "name": "b6294cfe99139f70e0cea57a094f2c2d", "is_reserved": 0}, {"is_disabled": 0, "fusion_lon": 0.0, "fusion_lat": 0.0, "lat": 38.91871316666667, "type": "electric_scooter", "lon": -77.0366425, "bike_id": "3f92583ae05f95ee76a11eb2ad1d84a2", "rental_uris": {"android": "https://dc.lft.to/lastmile_qr_scan", "ios": "https://dc.lft.to/lastmile_qr_scan"}, "name": "3f92583ae05f95ee76a11eb2ad1d84a2", "is_reserved": 0}, {"is_disabled": 0, "fusion_lon": 0.0, "fusion_lat": 0.0, "lat": 38.90834666666667, "type": "electric_scooter", "lon": -77.04884183333333, "bike_id": "c1c506dd5883e6cf4b9d2e037a4c64b9", "rental_uris": {"android": "https://dc.lft.to/lastmile_qr_scan", "ios": "https://dc.lft.to/lastmile_qr_scan"}, "name": "c1c506dd5883e6cf4b9d2e037a4c64b9", "is_reserved": 0}, {"is_disabled": 0, "fusion_lon": 0.0, "fusion_lat": 0.0, "lat": 38.912206, "type": "electric_scooter", "lon": -77.02714233333333, "bike_id": "d6c5917b73ede7113ca647fd1b1dfb53", "rental_uris": {"android": "https://dc.lft.to/lastmile_qr_scan", "ios": "https://dc.lft.to/lastmile_qr_scan"}, "name": "d6c5917b73ede7113ca647fd1b1dfb53", "is_reserved": 0}, {"is_disabled": 0, "fusion_lon": 0.0, "fusion_lat": 0.0, "lat": 38.88746233333333, "type": "electric_scooter", "lon": -77.025732, "bike_id": "0b893c90b1cbf87f060ac6bf9178e849", "rental_uris": {"android": "https://dc.lft.to/lastmile_qr_scan", "ios": "https://dc.lft.to/lastmile_qr_scan"}, "name": "0b893c90b1cbf87f060ac6bf9178e849", "is_reserved": 0}, {"is_disabled": 0, "fusion_lon": 0.0, "fusion_lat": 0.0, "lat": 38.8578405, "type": "electric_bike", "lon": -76.98758816666667, "bike_id": "7e35404bdcfde5a3d67e8f3dd7b62b48", "rental_uris": {"android": "https://dc.lft.to/lastmile_qr_scan", "ios": "https://dc.lft.to/lastmile_qr_scan"}, "name": "7e35404bdcfde5a3d67e8f3dd7b62b48", "is_reserved": 0}, {"is_disabled": 0, "fusion_lon": 0.0, "fusion_lat": 0.0, "lat": 38.908565833333334, "type": "electric_scooter", "lon": -76.99797933333333, "bike_id": "05ddd26d944a90ddd9ec58027360387a", "rental_uris": {"android": "https://dc.lft.to/lastmile_qr_scan", "ios": "https://dc.lft.to/lastmile_qr_scan"}, "name": "05ddd26d944a90ddd9ec58027360387a", "is_reserved": 0}, {"is_disabled": 0, "fusion_lon": 0.0, "fusion_lat": 0.0, "lat": 38.881224833333334, "type": "electric_scooter", "lon": -77.016602, "bike_id": "e2172724c279739a609f523ce510ce93", "rental_uris": {"android": "https://dc.lft.to/lastmile_qr_scan", "ios": "https://dc.lft.to/lastmile_qr_scan"}, "name": "e2172724c279739a609f523ce510ce93", "is_reserved": 0}, {"is_disabled": 0, "fusion_lon": 0.0, "fusion_lat": 0.0, "lat": 38.91886516666667, "type": "electric_scooter", "lon": -77.04175483333333, "bike_id": "fbe0060a12808e493003a68d53b1c8e0", "rental_uris": {"android": "https://dc.lft.to/lastmile_qr_scan", "ios": "https://dc.lft.to/lastmile_qr_scan"}, "name": "fbe0060a12808e493003a68d53b1c8e0", "is_reserved": 0}, {"is_disabled": 0, "fusion_lon": 0.0, "fusion_lat": 0.0, "lat": 38.95616783333333, "type": "electric_scooter", "lon": -77.03282916666667, "bike_id": "d4b7142be29657499e9cc57249d21e9b", "rental_uris": {"android": "https://dc.lft.to/lastmile_qr_scan", "ios": "https://dc.lft.to/lastmile_qr_scan"}, "name": "d4b7142be29657499e9cc57249d21e9b", "is_reserved": 0}, {"is_disabled": 0, "fusion_lon": 0.0, "fusion_lat": 0.0, "lat": 38.89663616666667, "type": "electric_scooter", "lon": -77.05034066666667, "bike_id": "135b3c84de81ee0af20c289d8238541f", "rental_uris": {"android": "https://dc.lft.to/lastmile_qr_scan", "ios": "https://dc.lft.to/lastmile_qr_scan"}, "name": "135b3c84de81ee0af20c289d8238541f", "is_reserved": 0}, {"is_disabled": 0, "fusion_lon": 0.0, "fusion_lat": 0.0, "lat": 38.917875, "type": "electric_scooter", "lon": -77.03464, "bike_id": "e8346ea86893709155523a01b225c632", "rental_uris": {"android": "https://dc.lft.to/lastmile_qr_scan", "ios": "https://dc.lft.to/lastmile_qr_scan"}, "name": "e8346ea86893709155523a01b225c632", "is_reserved": 0}, {"is_disabled": 0, "fusion_lon": 0.0, "fusion_lat": 0.0, "lat": 38.88005, "type": "electric_bike", "lon": -76.916002, "bike_id": "e9363c824df7e8bfb9348f3e37509596", "rental_uris": {"android": "https://dc.lft.to/lastmile_qr_scan", "ios": "https://dc.lft.to/lastmile_qr_scan"}, "name": "e9363c824df7e8bfb9348f3e37509596", "is_reserved": 0}, {"is_disabled": 0, "fusion_lon": 0.0, "fusion_lat": 0.0, "lat": 38.90684866666667, "type": "electric_scooter", "lon": -77.036258, "bike_id": "ae5a4cf7127cb74e4fd66118093dc2c3", "rental_uris": {"android": "https://dc.lft.to/lastmile_qr_scan", "ios": "https://dc.lft.to/lastmile_qr_scan"}, "name": "ae5a4cf7127cb74e4fd66118093dc2c3", "is_reserved": 0}, {"is_disabled": 0, "fusion_lon": 0.0, "fusion_lat": 0.0, "lat": 38.9665125, "type": "electric_bike", "lon": -76.93019733333334, "bike_id": "a6cdb8e0c623d9e0051d2522a4709fde", "rental_uris": {"android": "https://dc.lft.to/lastmile_qr_scan", "ios": "https://dc.lft.to/lastmile_qr_scan"}, "name": "a6cdb8e0c623d9e0051d2522a4709fde", "is_reserved": 0}, {"is_disabled": 0, "fusion_lon": 0.0, "fusion_lat": 0.0, "lat": 38.917804333333336, "type": "electric_scooter", "lon": -77.0230485, "bike_id": "e69d0ac6d8db2ee4c0880e208d6fe733", "rental_uris": {"android": "https://dc.lft.to/lastmile_qr_scan", "ios": "https://dc.lft.to/lastmile_qr_scan"}, "name": "e69d0ac6d8db2ee4c0880e208d6fe733", "is_reserved": 0}, {"is_disabled": 0, "fusion_lon": 0.0, "fusion_lat": 0.0, "lat": 38.904310833333334, "type": "electric_scooter", "lon": -77.02609016666666, "bike_id": "2d3a2d2c0395de2da0b0c0c98087ab29", "rental_uris": {"android": "https://dc.lft.to/lastmile_qr_scan", "ios": "https://dc.lft.to/lastmile_qr_scan"}, "name": "2d3a2d2c0395de2da0b0c0c98087ab29", "is_reserved": 0}, {"is_disabled": 0, "fusion_lon": 0.0, "fusion_lat": 0.0, "lat": 38.95399066666667, "type": "electric_scooter", "lon": -77.02758166666666, "bike_id": "c886d8bbd1a283d93f43e1989f052f61", "rental_uris": {"android": "https://dc.lft.to/lastmile_qr_scan", "ios": "https://dc.lft.to/lastmile_qr_scan"}, "name": "c886d8bbd1a283d93f43e1989f052f61", "is_reserved": 0}, {"is_disabled": 0, "fusion_lon": 0.0, "fusion_lat": 0.0, "lat": 38.92723566666667, "type": "electric_scooter", "lon": -77.05343666666667, "bike_id": "f83b6fce44394e7f1569a574b83e6a6b", "rental_uris": {"android": "https://dc.lft.to/lastmile_qr_scan", "ios": "https://dc.lft.to/lastmile_qr_scan"}, "name": "f83b6fce44394e7f1569a574b83e6a6b", "is_reserved": 0}, {"is_disabled": 0, "fusion_lon": 0.0, "fusion_lat": 0.0, "lat": 38.90241483333333, "type": "electric_scooter", "lon": -77.01805983333334, "bike_id": "5796404ee2b57da93646f1cb824b3f5f", "rental_uris": {"android": "https://dc.lft.to/lastmile_qr_scan", "ios": "https://dc.lft.to/lastmile_qr_scan"}, "name": "5796404ee2b57da93646f1cb824b3f5f", "is_reserved": 0}, {"is_disabled": 0, "fusion_lon": 0.0, "fusion_lat": 0.0, "lat": 38.927881666666664, "type": "electric_scooter", "lon": -77.031153, "bike_id": "c026450b3d30632acf9330f99fe54cc6", "rental_uris": {"android": "https://dc.lft.to/lastmile_qr_scan", "ios": "https://dc.lft.to/lastmile_qr_scan"}, "name": "c026450b3d30632acf9330f99fe54cc6", "is_reserved": 0}, {"is_disabled": 0, "fusion_lon": 0.0, "fusion_lat": 0.0, "lat": 38.935418, "type": "electric_scooter", "lon": -77.0340875, "bike_id": "0d69aa19259b56120af7fee5cf2628d9", "rental_uris": {"android": "https://dc.lft.to/lastmile_qr_scan", "ios": "https://dc.lft.to/lastmile_qr_scan"}, "name": "0d69aa19259b56120af7fee5cf2628d9", "is_reserved": 0}, {"is_disabled": 0, "fusion_lon": 0.0, "fusion_lat": 0.0, "lat": 38.941926333333335, "type": "electric_scooter", "lon": -77.03328466666666, "bike_id": "0414acb99dcfb955c6970e7738d5f82f", "rental_uris": {"android": "https://dc.lft.to/lastmile_qr_scan", "ios": "https://dc.lft.to/lastmile_qr_scan"}, "name": "0414acb99dcfb955c6970e7738d5f82f", "is_reserved": 0}, {"is_disabled": 0, "fusion_lon": 0.0, "fusion_lat": 0.0, "lat": 38.902129333333335, "type": "electric_scooter", "lon": -76.98204833333334, "bike_id": "b281de426e9bcd6e1fa0d7f5d90f8b39", "rental_uris": {"android": "https://dc.lft.to/lastmile_qr_scan", "ios": "https://dc.lft.to/lastmile_qr_scan"}, "name": "b281de426e9bcd6e1fa0d7f5d90f8b39", "is_reserved": 0}, {"is_disabled": 0, "fusion_lon": 0.0, "fusion_lat": 0.0, "lat": 38.9069485, "type": "electric_bike", "lon": -77.03586066666666, "bike_id": "a8a05da3a8297dcdf013944f9215e4e7", "rental_uris": {"android": "https://dc.lft.to/lastmile_qr_scan", "ios": "https://dc.lft.to/lastmile_qr_scan"}, "name": "a8a05da3a8297dcdf013944f9215e4e7", "is_reserved": 0}, {"is_disabled": 0, "fusion_lon": 0.0, "fusion_lat": 0.0, "lat": 38.89847133333333, "type": "electric_scooter", "lon": -77.02899116666667, "bike_id": "488bc2cd2bf793e0a58e355248b9d85c", "rental_uris": {"android": "https://dc.lft.to/lastmile_qr_scan", "ios": "https://dc.lft.to/lastmile_qr_scan"}, "name": "488bc2cd2bf793e0a58e355248b9d85c", "is_reserved": 0}, {"is_disabled": 0, "fusion_lon": 0.0, "fusion_lat": 0.0, "lat": 38.9140115, "type": "electric_scooter", "lon": -77.037586, "bike_id": "09bd88970ab20359586a7aba1854e23d", "rental_uris": {"android": "https://dc.lft.to/lastmile_qr_scan", "ios": "https://dc.lft.to/lastmile_qr_scan"}, "name": "09bd88970ab20359586a7aba1854e23d", "is_reserved": 0}, {"is_disabled": 0, "fusion_lon": 0.0, "fusion_lat": 0.0, "lat": 38.91740733333334, "type": "electric_scooter", "lon": -77.01718533333333, "bike_id": "52443665b2391114dc7b97a34f074e22", "rental_uris": {"android": "https://dc.lft.to/lastmile_qr_scan", "ios": "https://dc.lft.to/lastmile_qr_scan"}, "name": "52443665b2391114dc7b97a34f074e22", "is_reserved": 0}, {"is_disabled": 0, "fusion_lon": 0.0, "fusion_lat": 0.0, "lat": 38.912194666666664, "type": "electric_scooter", "lon": -77.03843683333334, "bike_id": "a7aad7722d0180ceb69134920e1f2c03", "rental_uris": {"android": "https://dc.lft.to/lastmile_qr_scan", "ios": "https://dc.lft.to/lastmile_qr_scan"}, "name": "a7aad7722d0180ceb69134920e1f2c03", "is_reserved": 0}, {"is_disabled": 0, "fusion_lon": 0.0, "fusion_lat": 0.0, "lat": 38.89694033333333, "type": "electric_scooter", "lon": -77.0049415, "bike_id": "3e0c7bce0f16d91d2b4fcc26caf09d98", "rental_uris": {"android": "https://dc.lft.to/lastmile_qr_scan", "ios": "https://dc.lft.to/lastmile_qr_scan"}, "name": "3e0c7bce0f16d91d2b4fcc26caf09d98", "is_reserved": 0}, {"is_disabled": 0, "fusion_lon": 0.0, "fusion_lat": 0.0, "lat": 38.9281455, "type": "electric_scooter", "lon": -77.02346583333333, "bike_id": "5cfc570c9850607d73b9cb397ab4fd32", "rental_uris": {"android": "https://dc.lft.to/lastmile_qr_scan", "ios": "https://dc.lft.to/lastmile_qr_scan"}, "name": "5cfc570c9850607d73b9cb397ab4fd32", "is_reserved": 0}, {"is_disabled": 0, "fusion_lon": 0.0, "fusion_lat": 0.0, "lat": 38.92970916666667, "type": "electric_scooter", "lon": -77.00533966666667, "bike_id": "dbb6063e548a4f8b1709ba4516820cce", "rental_uris": {"android": "https://dc.lft.to/lastmile_qr_scan", "ios": "https://dc.lft.to/lastmile_qr_scan"}, "name": "dbb6063e548a4f8b1709ba4516820cce", "is_reserved": 0}, {"is_disabled": 0, "fusion_lon": 0.0, "fusion_lat": 0.0, "lat": 39.05814916666667, "type": "electric_bike", "lon": -77.12630033333333, "bike_id": "abe6b417ee8b6a7a1e357b7d9e4668ba", "rental_uris": {"android": "https://dc.lft.to/lastmile_qr_scan", "ios": "https://dc.lft.to/lastmile_qr_scan"}, "name": "abe6b417ee8b6a7a1e357b7d9e4668ba", "is_reserved": 0}, {"is_disabled": 0, "fusion_lon": 0.0, "fusion_lat": 0.0, "lat": 38.9416025, "type": "electric_bike", "lon": -77.00189616666667, "bike_id": "d29f5fe141df221e10eeedf07188db61", "rental_uris": {"android": "https://dc.lft.to/lastmile_qr_scan", "ios": "https://dc.lft.to/lastmile_qr_scan"}, "name": "d29f5fe141df221e10eeedf07188db61", "is_reserved": 0}, {"is_disabled": 0, "fusion_lon": 0.0, "fusion_lat": 0.0, "lat": 38.89228383333333, "type": "electric_scooter", "lon": -77.03186833333334, "bike_id": "4e2c5c955fb2301290ac18e62f9005b5", "rental_uris": {"android": "https://dc.lft.to/lastmile_qr_scan", "ios": "https://dc.lft.to/lastmile_qr_scan"}, "name": "4e2c5c955fb2301290ac18e62f9005b5", "is_reserved": 0}, {"is_disabled": 0, "fusion_lon": 0.0, "fusion_lat": 0.0, "lat": 38.919532333333336, "type": "electric_scooter", "lon": -77.0139605, "bike_id": "a2a6570913e38befd939bf8632b938df", "rental_uris": {"android": "https://dc.lft.to/lastmile_qr_scan", "ios": "https://dc.lft.to/lastmile_qr_scan"}, "name": "a2a6570913e38befd939bf8632b938df", "is_reserved": 0}, {"is_disabled": 0, "fusion_lon": 0.0, "fusion_lat": 0.0, "lat": 38.92261533333333, "type": "electric_scooter", "lon": -77.03294033333333, "bike_id": "114fbca80523a82767549006d755197f", "rental_uris": {"android": "https://dc.lft.to/lastmile_qr_scan", "ios": "https://dc.lft.to/lastmile_qr_scan"}, "name": "114fbca80523a82767549006d755197f", "is_reserved": 0}, {"is_disabled": 0, "fusion_lon": 0.0, "fusion_lat": 0.0, "lat": 38.9170885, "type": "electric_scooter", "lon": -77.02883466666667, "bike_id": "de69068e215feaed3f9d0e046c685bdb", "rental_uris": {"android": "https://dc.lft.to/lastmile_qr_scan", "ios": "https://dc.lft.to/lastmile_qr_scan"}, "name": "de69068e215feaed3f9d0e046c685bdb", "is_reserved": 0}, {"is_disabled": 0, "fusion_lon": 0.0, "fusion_lat": 0.0, "lat": 38.91732283333333, "type": "electric_scooter", "lon": -77.00053333333334, "bike_id": "9e69168b01644046da0c2017bbd3a49a", "rental_uris": {"android": "https://dc.lft.to/lastmile_qr_scan", "ios": "https://dc.lft.to/lastmile_qr_scan"}, "name": "9e69168b01644046da0c2017bbd3a49a", "is_reserved": 0}, {"is_disabled": 0, "fusion_lon": 0.0, "fusion_lat": 0.0, "lat": 38.9180975, "type": "electric_scooter", "lon": -77.03567966666667, "bike_id": "611a8628d69bb544bfca0b07028c97d0", "rental_uris": {"android": "https://dc.lft.to/lastmile_qr_scan", "ios": "https://dc.lft.to/lastmile_qr_scan"}, "name": "611a8628d69bb544bfca0b07028c97d0", "is_reserved": 0}, {"is_disabled": 0, "fusion_lon": 0.0, "fusion_lat": 0.0, "lat": 38.924787333333335, "type": "electric_scooter", "lon": -77.02999816666667, "bike_id": "082c6295be0ae307dcea96ef38f14556", "rental_uris": {"android": "https://dc.lft.to/lastmile_qr_scan", "ios": "https://dc.lft.to/lastmile_qr_scan"}, "name": "082c6295be0ae307dcea96ef38f14556", "is_reserved": 0}, {"is_disabled": 0, "fusion_lon": 0.0, "fusion_lat": 0.0, "lat": 38.80298666666667, "type": "electric_bike", "lon": -77.03989166666666, "bike_id": "2a6f3ccd1fe121d514599cdfc7d4e67b", "rental_uris": {"android": "https://dc.lft.to/lastmile_qr_scan", "ios": "https://dc.lft.to/lastmile_qr_scan"}, "name": "2a6f3ccd1fe121d514599cdfc7d4e67b", "is_reserved": 0}, {"is_disabled": 0, "fusion_lon": 0.0, "fusion_lat": 0.0, "lat": 38.913189333333335, "type": "electric_scooter", "lon": -77.03659433333333, "bike_id": "c6c41cb87222a1ce9b2aa03cfc501130", "rental_uris": {"android": "https://dc.lft.to/lastmile_qr_scan", "ios": "https://dc.lft.to/lastmile_qr_scan"}, "name": "c6c41cb87222a1ce9b2aa03cfc501130", "is_reserved": 0}, {"is_disabled": 0, "fusion_lon": 0.0, "fusion_lat": 0.0, "lat": 38.920311166666664, "type": "electric_scooter", "lon": -77.019062, "bike_id": "3691492c3414ea70313164f040b1946c", "rental_uris": {"android": "https://dc.lft.to/lastmile_qr_scan", "ios": "https://dc.lft.to/lastmile_qr_scan"}, "name": "3691492c3414ea70313164f040b1946c", "is_reserved": 0}, {"is_disabled": 0, "fusion_lon": 0.0, "fusion_lat": 0.0, "lat": 38.934854666666666, "type": "electric_scooter", "lon": -77.02400283333333, "bike_id": "fb824955a4a05cafd852c2d379eed16d", "rental_uris": {"android": "https://dc.lft.to/lastmile_qr_scan", "ios": "https://dc.lft.to/lastmile_qr_scan"}, "name": "fb824955a4a05cafd852c2d379eed16d", "is_reserved": 0}, {"is_disabled": 0, "fusion_lon": 0.0, "fusion_lat": 0.0, "lat": 38.8874645, "type": "electric_scooter", "lon": -77.01535233333334, "bike_id": "b59a56efb2727503c81a3d617df0077f", "rental_uris": {"android": "https://dc.lft.to/lastmile_qr_scan", "ios": "https://dc.lft.to/lastmile_qr_scan"}, "name": "b59a56efb2727503c81a3d617df0077f", "is_reserved": 0}, {"is_disabled": 0, "fusion_lon": 0.0, "fusion_lat": 0.0, "lat": 38.909536, "type": "electric_scooter", "lon": -77.0271475, "bike_id": "cf0707033fca841d17e9e24ec35e44f9", "rental_uris": {"android": "https://dc.lft.to/lastmile_qr_scan", "ios": "https://dc.lft.to/lastmile_qr_scan"}, "name": "cf0707033fca841d17e9e24ec35e44f9", "is_reserved": 0}, {"is_disabled": 0, "fusion_lon": 0.0, "fusion_lat": 0.0, "lat": 38.88468566666667, "type": "electric_scooter", "lon": -77.02063366666667, "bike_id": "181037c648090ad398185d2cdd0b4e3c", "rental_uris": {"android": "https://dc.lft.to/lastmile_qr_scan", "ios": "https://dc.lft.to/lastmile_qr_scan"}, "name": "181037c648090ad398185d2cdd0b4e3c", "is_reserved": 0}, {"is_disabled": 0, "fusion_lon": 0.0, "fusion_lat": 0.0, "lat": 38.895955666666666, "type": "electric_scooter", "lon": -77.02656183333333, "bike_id": "e813bae61844fcfcd3a4109df560ebf2", "rental_uris": {"android": "https://dc.lft.to/lastmile_qr_scan", "ios": "https://dc.lft.to/lastmile_qr_scan"}, "name": "e813bae61844fcfcd3a4109df560ebf2", "is_reserved": 0}, {"is_disabled": 0, "fusion_lon": 0.0, "fusion_lat": 0.0, "lat": 38.8898645, "type": "electric_scooter", "lon": -77.003404, "bike_id": "c7086afec27280345895a040864a2c45", "rental_uris": {"android": "https://dc.lft.to/lastmile_qr_scan", "ios": "https://dc.lft.to/lastmile_qr_scan"}, "name": "c7086afec27280345895a040864a2c45", "is_reserved": 0}, {"is_disabled": 0, "fusion_lon": 0.0, "fusion_lat": 0.0, "lat": 38.86471483333333, "type": "electric_scooter", "lon": -76.99609383333333, "bike_id": "a4a90e3c8b4b40cbca56604b489cc58b", "rental_uris": {"android": "https://dc.lft.to/lastmile_qr_scan", "ios": "https://dc.lft.to/lastmile_qr_scan"}, "name": "a4a90e3c8b4b40cbca56604b489cc58b", "is_reserved": 0}, {"is_disabled": 0, "fusion_lon": 0.0, "fusion_lat": 0.0, "lat": 38.9046675, "type": "electric_scooter", "lon": -77.00594266666667, "bike_id": "01ece73645103f34743b77627dafd522", "rental_uris": {"android": "https://dc.lft.to/lastmile_qr_scan", "ios": "https://dc.lft.to/lastmile_qr_scan"}, "name": "01ece73645103f34743b77627dafd522", "is_reserved": 0}, {"is_disabled": 0, "fusion_lon": 0.0, "fusion_lat": 0.0, "lat": 38.91811333333333, "type": "electric_scooter", "lon": -77.035593, "bike_id": "07a46330d3bd1c274dfe983065373477", "rental_uris": {"android": "https://dc.lft.to/lastmile_qr_scan", "ios": "https://dc.lft.to/lastmile_qr_scan"}, "name": "07a46330d3bd1c274dfe983065373477", "is_reserved": 0}, {"is_disabled": 0, "fusion_lon": 0.0, "fusion_lat": 0.0, "lat": 38.924898166666665, "type": "electric_scooter", "lon": -77.0393445, "bike_id": "b38521c8bde3c28e4f20199c98ef68da", "rental_uris": {"android": "https://dc.lft.to/lastmile_qr_scan", "ios": "https://dc.lft.to/lastmile_qr_scan"}, "name": "b38521c8bde3c28e4f20199c98ef68da", "is_reserved": 0}, {"is_disabled": 0, "fusion_lon": 0.0, "fusion_lat": 0.0, "lat": 38.9111835, "type": "electric_scooter", "lon": -77.0386535, "bike_id": "3d8ec3c566165ab2f63cfe9d23cc82ac", "rental_uris": {"android": "https://dc.lft.to/lastmile_qr_scan", "ios": "https://dc.lft.to/lastmile_qr_scan"}, "name": "3d8ec3c566165ab2f63cfe9d23cc82ac", "is_reserved": 0}, {"is_disabled": 0, "fusion_lon": 0.0, "fusion_lat": 0.0, "lat": 38.908425333333334, "type": "electric_scooter", "lon": -77.03455533333333, "bike_id": "20bc02bbbbbdde8f989bee4255aab1eb", "rental_uris": {"android": "https://dc.lft.to/lastmile_qr_scan", "ios": "https://dc.lft.to/lastmile_qr_scan"}, "name": "20bc02bbbbbdde8f989bee4255aab1eb", "is_reserved": 0}, {"is_disabled": 0, "fusion_lon": 0.0, "fusion_lat": 0.0, "lat": 38.9407805, "type": "electric_scooter", "lon": -77.0613855, "bike_id": "769b9050fad8bb09790af7f3a9362bde", "rental_uris": {"android": "https://dc.lft.to/lastmile_qr_scan", "ios": "https://dc.lft.to/lastmile_qr_scan"}, "name": "769b9050fad8bb09790af7f3a9362bde", "is_reserved": 0}, {"is_disabled": 0, "fusion_lon": 0.0, "fusion_lat": 0.0, "lat": 38.885850833333336, "type": "electric_scooter", "lon": -77.012286, "bike_id": "1f63b2180709fc1548d38b8736b5a17a", "rental_uris": {"android": "https://dc.lft.to/lastmile_qr_scan", "ios": "https://dc.lft.to/lastmile_qr_scan"}, "name": "1f63b2180709fc1548d38b8736b5a17a", "is_reserved": 0}, {"is_disabled": 0, "fusion_lon": 0.0, "fusion_lat": 0.0, "lat": 38.89823833333333, "type": "electric_scooter", "lon": -77.03152666666666, "bike_id": "7e93747f89a4f9394fc3144ff9106db3", "rental_uris": {"android": "https://dc.lft.to/lastmile_qr_scan", "ios": "https://dc.lft.to/lastmile_qr_scan"}, "name": "7e93747f89a4f9394fc3144ff9106db3", "is_reserved": 0}, {"is_disabled": 0, "fusion_lon": 0.0, "fusion_lat": 0.0, "lat": 38.87211533333333, "type": "electric_bike", "lon": -76.95488366666666, "bike_id": "a8478bf5f0ed25c1e6401bb768ccd1a7", "rental_uris": {"android": "https://dc.lft.to/lastmile_qr_scan", "ios": "https://dc.lft.to/lastmile_qr_scan"}, "name": "a8478bf5f0ed25c1e6401bb768ccd1a7", "is_reserved": 0}, {"is_disabled": 0, "fusion_lon": 0.0, "fusion_lat": 0.0, "lat": 38.92169416666667, "type": "electric_scooter", "lon": -77.04352333333334, "bike_id": "644d47a34c3ce6287d1a89160cac6879", "rental_uris": {"android": "https://dc.lft.to/lastmile_qr_scan", "ios": "https://dc.lft.to/lastmile_qr_scan"}, "name": "644d47a34c3ce6287d1a89160cac6879", "is_reserved": 0}, {"is_disabled": 0, "fusion_lon": 0.0, "fusion_lat": 0.0, "lat": 38.90732716666667, "type": "electric_scooter", "lon": -77.02371233333334, "bike_id": "61905e3aea80117d1f2207a59fe4dcac", "rental_uris": {"android": "https://dc.lft.to/lastmile_qr_scan", "ios": "https://dc.lft.to/lastmile_qr_scan"}, "name": "61905e3aea80117d1f2207a59fe4dcac", "is_reserved": 0}, {"is_disabled": 0, "fusion_lon": 0.0, "fusion_lat": 0.0, "lat": 38.88569016666667, "type": "electric_scooter", "lon": -77.00070116666667, "bike_id": "fce5fb1af832ef2bba17f2b9f7a5c3ef", "rental_uris": {"android": "https://dc.lft.to/lastmile_qr_scan", "ios": "https://dc.lft.to/lastmile_qr_scan"}, "name": "fce5fb1af832ef2bba17f2b9f7a5c3ef", "is_reserved": 0}, {"is_disabled": 0, "fusion_lon": 0.0, "fusion_lat": 0.0, "lat": 38.9483215, "type": "electric_scooter", "lon": -77.02829, "bike_id": "e07a796f0928383a9885202f45e06e0e", "rental_uris": {"android": "https://dc.lft.to/lastmile_qr_scan", "ios": "https://dc.lft.to/lastmile_qr_scan"}, "name": "e07a796f0928383a9885202f45e06e0e", "is_reserved": 0}, {"is_disabled": 0, "fusion_lon": 0.0, "fusion_lat": 0.0, "lat": 38.91734, "type": "electric_scooter", "lon": -76.991794, "bike_id": "16f383e5d781ae8186b0feb7ca4d851f", "rental_uris": {"android": "https://dc.lft.to/lastmile_qr_scan", "ios": "https://dc.lft.to/lastmile_qr_scan"}, "name": "16f383e5d781ae8186b0feb7ca4d851f", "is_reserved": 0}, {"is_disabled": 0, "fusion_lon": 0.0, "fusion_lat": 0.0, "lat": 38.948072333333336, "type": "electric_bike", "lon": -76.97210183333334, "bike_id": "1ea23c008e7ec6eecacc1437436206df", "rental_uris": {"android": "https://dc.lft.to/lastmile_qr_scan", "ios": "https://dc.lft.to/lastmile_qr_scan"}, "name": "1ea23c008e7ec6eecacc1437436206df", "is_reserved": 0}, {"is_disabled": 0, "fusion_lon": 0.0, "fusion_lat": 0.0, "lat": 38.91561633333333, "type": "electric_scooter", "lon": -77.04673316666667, "bike_id": "dfff6000a51e07fa8d8abf7bab380ce7", "rental_uris": {"android": "https://dc.lft.to/lastmile_qr_scan", "ios": "https://dc.lft.to/lastmile_qr_scan"}, "name": "dfff6000a51e07fa8d8abf7bab380ce7", "is_reserved": 0}, {"is_disabled": 0, "fusion_lon": 0.0, "fusion_lat": 0.0, "lat": 38.90163416666667, "type": "electric_scooter", "lon": -76.99381183333334, "bike_id": "981b4f61cf68336999aef5c5e3e92c68", "rental_uris": {"android": "https://dc.lft.to/lastmile_qr_scan", "ios": "https://dc.lft.to/lastmile_qr_scan"}, "name": "981b4f61cf68336999aef5c5e3e92c68", "is_reserved": 0}, {"is_disabled": 0, "fusion_lon": 0.0, "fusion_lat": 0.0, "lat": 38.90856816666667, "type": "electric_scooter", "lon": -76.99799966666667, "bike_id": "3ff2164057a018f61447855cb6ab7908", "rental_uris": {"android": "https://dc.lft.to/lastmile_qr_scan", "ios": "https://dc.lft.to/lastmile_qr_scan"}, "name": "3ff2164057a018f61447855cb6ab7908", "is_reserved": 0}, {"is_disabled": 0, "fusion_lon": 0.0, "fusion_lat": 0.0, "lat": 38.917993333333335, "type": "electric_scooter", "lon": -77.03451283333334, "bike_id": "49f70f4362c3447a641616a7fe03d9eb", "rental_uris": {"android": "https://dc.lft.to/lastmile_qr_scan", "ios": "https://dc.lft.to/lastmile_qr_scan"}, "name": "49f70f4362c3447a641616a7fe03d9eb", "is_reserved": 0}, {"is_disabled": 0, "fusion_lon": 0.0, "fusion_lat": 0.0, "lat": 38.91204, "type": "electric_scooter", "lon": -76.98482933333334, "bike_id": "79f1a0c46c9a43e1dfe59d15de18f7dd", "rental_uris": {"android": "https://dc.lft.to/lastmile_qr_scan", "ios": "https://dc.lft.to/lastmile_qr_scan"}, "name": "79f1a0c46c9a43e1dfe59d15de18f7dd", "is_reserved": 0}, {"is_disabled": 0, "fusion_lon": 0.0, "fusion_lat": 0.0, "lat": 38.970653, "type": "electric_bike", "lon": -76.96059483333333, "bike_id": "07c86f9db8b9f9e987c3036af1335255", "rental_uris": {"android": "https://dc.lft.to/lastmile_qr_scan", "ios": "https://dc.lft.to/lastmile_qr_scan"}, "name": "07c86f9db8b9f9e987c3036af1335255", "is_reserved": 0}, {"is_disabled": 0, "fusion_lon": 0.0, "fusion_lat": 0.0, "lat": 38.86135216666667, "type": "electric_scooter", "lon": -76.9856745, "bike_id": "e69046b44ad7c3f48ce66be00088f71b", "rental_uris": {"android": "https://dc.lft.to/lastmile_qr_scan", "ios": "https://dc.lft.to/lastmile_qr_scan"}, "name": "e69046b44ad7c3f48ce66be00088f71b", "is_reserved": 0}, {"is_disabled": 0, "fusion_lon": 0.0, "fusion_lat": 0.0, "lat": 38.89377233333333, "type": "electric_scooter", "lon": -76.94993716666667, "bike_id": "0c3bb7504783f4cf6eb95eb1d90eb85b", "rental_uris": {"android": "https://dc.lft.to/lastmile_qr_scan", "ios": "https://dc.lft.to/lastmile_qr_scan"}, "name": "0c3bb7504783f4cf6eb95eb1d90eb85b", "is_reserved": 0}, {"is_disabled": 0, "fusion_lon": 0.0, "fusion_lat": 0.0, "lat": 38.92731966666667, "type": "electric_scooter", "lon": -77.02238533333333, "bike_id": "d7dffccea811ac516de81793ced2a101", "rental_uris": {"android": "https://dc.lft.to/lastmile_qr_scan", "ios": "https://dc.lft.to/lastmile_qr_scan"}, "name": "d7dffccea811ac516de81793ced2a101", "is_reserved": 0}, {"is_disabled": 0, "fusion_lon": 0.0, "fusion_lat": 0.0, "lat": 38.933056666666666, "type": "electric_scooter", "lon": -77.03263516666667, "bike_id": "0e6b7f796c5bbc9ac82ac5d4df48a607", "rental_uris": {"android": "https://dc.lft.to/lastmile_qr_scan", "ios": "https://dc.lft.to/lastmile_qr_scan"}, "name": "0e6b7f796c5bbc9ac82ac5d4df48a607", "is_reserved": 0}, {"is_disabled": 0, "fusion_lon": 0.0, "fusion_lat": 0.0, "lat": 38.918403833333336, "type": "electric_scooter", "lon": -77.025296, "bike_id": "6ed81865f2a317c941a0cb6ca84ee5ce", "rental_uris": {"android": "https://dc.lft.to/lastmile_qr_scan", "ios": "https://dc.lft.to/lastmile_qr_scan"}, "name": "6ed81865f2a317c941a0cb6ca84ee5ce", "is_reserved": 0}, {"is_disabled": 0, "fusion_lon": 0.0, "fusion_lat": 0.0, "lat": 38.90572, "type": "electric_scooter", "lon": -77.02496833333333, "bike_id": "6674ce1af9973df87db9daed835c597b", "rental_uris": {"android": "https://dc.lft.to/lastmile_qr_scan", "ios": "https://dc.lft.to/lastmile_qr_scan"}, "name": "6674ce1af9973df87db9daed835c597b", "is_reserved": 0}, {"is_disabled": 0, "fusion_lon": 0.0, "fusion_lat": 0.0, "lat": 38.928449666666666, "type": "electric_scooter", "lon": -77.0140775, "bike_id": "1588dd9070bbcd749fb666040963753c", "rental_uris": {"android": "https://dc.lft.to/lastmile_qr_scan", "ios": "https://dc.lft.to/lastmile_qr_scan"}, "name": "1588dd9070bbcd749fb666040963753c", "is_reserved": 0}, {"is_disabled": 0, "fusion_lon": 0.0, "fusion_lat": 0.0, "lat": 38.9302175, "type": "electric_scooter", "lon": -77.0380015, "bike_id": "761a1fc893debca07ae43192039f1f49", "rental_uris": {"android": "https://dc.lft.to/lastmile_qr_scan", "ios": "https://dc.lft.to/lastmile_qr_scan"}, "name": "761a1fc893debca07ae43192039f1f49", "is_reserved": 0}, {"is_disabled": 0, "fusion_lon": 0.0, "fusion_lat": 0.0, "lat": 38.854301, "type": "electric_bike", "lon": -76.90930283333333, "bike_id": "4a6f82a3a66be5b93fd71e8d8b659f0f", "rental_uris": {"android": "https://dc.lft.to/lastmile_qr_scan", "ios": "https://dc.lft.to/lastmile_qr_scan"}, "name": "4a6f82a3a66be5b93fd71e8d8b659f0f", "is_reserved": 0}, {"is_disabled": 0, "fusion_lon": 0.0, "fusion_lat": 0.0, "lat": 38.98828866666667, "type": "electric_bike", "lon": -76.98752483333334, "bike_id": "45d6d046fbf577eeb7b905ae7f24d2a7", "rental_uris": {"android": "https://dc.lft.to/lastmile_qr_scan", "ios": "https://dc.lft.to/lastmile_qr_scan"}, "name": "45d6d046fbf577eeb7b905ae7f24d2a7", "is_reserved": 0}, {"is_disabled": 0, "fusion_lon": 0.0, "fusion_lat": 0.0, "lat": 38.90660333333334, "type": "electric_scooter", "lon": -77.02951816666666, "bike_id": "c85e5ddbcdea21c4cd089fdd1d5d45f0", "rental_uris": {"android": "https://dc.lft.to/lastmile_qr_scan", "ios": "https://dc.lft.to/lastmile_qr_scan"}, "name": "c85e5ddbcdea21c4cd089fdd1d5d45f0", "is_reserved": 0}, {"is_disabled": 0, "fusion_lon": 0.0, "fusion_lat": 0.0, "lat": 38.885122, "type": "electric_scooter", "lon": -76.9984995, "bike_id": "fddd54c9677223698cfda6fbce9f28f4", "rental_uris": {"android": "https://dc.lft.to/lastmile_qr_scan", "ios": "https://dc.lft.to/lastmile_qr_scan"}, "name": "fddd54c9677223698cfda6fbce9f28f4", "is_reserved": 0}, {"is_disabled": 0, "fusion_lon": 0.0, "fusion_lat": 0.0, "lat": 38.88015866666667, "type": "electric_scooter", "lon": -76.93115666666667, "bike_id": "3e85a1d02b3c098c688dfb2490eea64e", "rental_uris": {"android": "https://dc.lft.to/lastmile_qr_scan", "ios": "https://dc.lft.to/lastmile_qr_scan"}, "name": "3e85a1d02b3c098c688dfb2490eea64e", "is_reserved": 0}, {"is_disabled": 0, "fusion_lon": 0.0, "fusion_lat": 0.0, "lat": 38.90584333333334, "type": "electric_scooter", "lon": -77.02387066666667, "bike_id": "998534fb0fb45634076d8661c004a538", "rental_uris": {"android": "https://dc.lft.to/lastmile_qr_scan", "ios": "https://dc.lft.to/lastmile_qr_scan"}, "name": "998534fb0fb45634076d8661c004a538", "is_reserved": 0}, {"is_disabled": 0, "fusion_lon": 0.0, "fusion_lat": 0.0, "lat": 38.92035933333333, "type": "electric_scooter", "lon": -77.0258745, "bike_id": "43588c3db0de6fc8ccbfc2dd00766425", "rental_uris": {"android": "https://dc.lft.to/lastmile_qr_scan", "ios": "https://dc.lft.to/lastmile_qr_scan"}, "name": "43588c3db0de6fc8ccbfc2dd00766425", "is_reserved": 0}, {"is_disabled": 0, "fusion_lon": 0.0, "fusion_lat": 0.0, "lat": 38.915388, "type": "electric_scooter", "lon": -77.03208833333333, "bike_id": "eb999e7506ca0f29b1a79facb1140f04", "rental_uris": {"android": "https://dc.lft.to/lastmile_qr_scan", "ios": "https://dc.lft.to/lastmile_qr_scan"}, "name": "eb999e7506ca0f29b1a79facb1140f04", "is_reserved": 0}, {"is_disabled": 0, "fusion_lon": 0.0, "fusion_lat": 0.0, "lat": 38.895314666666664, "type": "electric_scooter", "lon": -77.02848216666666, "bike_id": "eb71f31c9b6dd37d4bbb97de5bc8ce47", "rental_uris": {"android": "https://dc.lft.to/lastmile_qr_scan", "ios": "https://dc.lft.to/lastmile_qr_scan"}, "name": "eb71f31c9b6dd37d4bbb97de5bc8ce47", "is_reserved": 0}, {"is_disabled": 0, "fusion_lon": 0.0, "fusion_lat": 0.0, "lat": 38.85333766666667, "type": "electric_scooter", "lon": -76.96601333333334, "bike_id": "8c09a7d372247d47b49ce453c6e4ea4e", "rental_uris": {"android": "https://dc.lft.to/lastmile_qr_scan", "ios": "https://dc.lft.to/lastmile_qr_scan"}, "name": "8c09a7d372247d47b49ce453c6e4ea4e", "is_reserved": 0}, {"is_disabled": 0, "fusion_lon": 0.0, "fusion_lat": 0.0, "lat": 38.898437666666666, "type": "electric_scooter", "lon": -76.94493716666666, "bike_id": "aa3b067934eb74dddc751e8d60777ef2", "rental_uris": {"android": "https://dc.lft.to/lastmile_qr_scan", "ios": "https://dc.lft.to/lastmile_qr_scan"}, "name": "aa3b067934eb74dddc751e8d60777ef2", "is_reserved": 0}, {"is_disabled": 0, "fusion_lon": 0.0, "fusion_lat": 0.0, "lat": 38.893282, "type": "electric_scooter", "lon": -77.0212755, "bike_id": "933cbca59f7f90a726d24aa7a8e33c8a", "rental_uris": {"android": "https://dc.lft.to/lastmile_qr_scan", "ios": "https://dc.lft.to/lastmile_qr_scan"}, "name": "933cbca59f7f90a726d24aa7a8e33c8a", "is_reserved": 0}, {"is_disabled": 0, "fusion_lon": 0.0, "fusion_lat": 0.0, "lat": 38.93239783333333, "type": "electric_scooter", "lon": -77.039033, "bike_id": "77510c79d01291224b6d124342812fcd", "rental_uris": {"android": "https://dc.lft.to/lastmile_qr_scan", "ios": "https://dc.lft.to/lastmile_qr_scan"}, "name": "77510c79d01291224b6d124342812fcd", "is_reserved": 0}, {"is_disabled": 0, "fusion_lon": 0.0, "fusion_lat": 0.0, "lat": 38.890455333333335, "type": "electric_scooter", "lon": -76.93751766666666, "bike_id": "f1a5ec548324669027971dbe550f952f", "rental_uris": {"android": "https://dc.lft.to/lastmile_qr_scan", "ios": "https://dc.lft.to/lastmile_qr_scan"}, "name": "f1a5ec548324669027971dbe550f952f", "is_reserved": 0}, {"is_disabled": 0, "fusion_lon": 0.0, "fusion_lat": 0.0, "lat": 38.900829, "type": "electric_scooter", "lon": -77.013164, "bike_id": "9d76e9c5e5e8968ae94ea4d179605cad", "rental_uris": {"android": "https://dc.lft.to/lastmile_qr_scan", "ios": "https://dc.lft.to/lastmile_qr_scan"}, "name": "9d76e9c5e5e8968ae94ea4d179605cad", "is_reserved": 0}, {"is_disabled": 0, "fusion_lon": 0.0, "fusion_lat": 0.0, "lat": 38.93131116666667, "type": "electric_scooter", "lon": -77.02199166666666, "bike_id": "9684eacf3f62f63fd1cd0971ef16cc56", "rental_uris": {"android": "https://dc.lft.to/lastmile_qr_scan", "ios": "https://dc.lft.to/lastmile_qr_scan"}, "name": "9684eacf3f62f63fd1cd0971ef16cc56", "is_reserved": 0}, {"is_disabled": 0, "fusion_lon": 0.0, "fusion_lat": 0.0, "lat": 38.9605375, "type": "electric_scooter", "lon": -77.08569033333333, "bike_id": "9cb72fe335be5d6029dadf94e12b3771", "rental_uris": {"android": "https://dc.lft.to/lastmile_qr_scan", "ios": "https://dc.lft.to/lastmile_qr_scan"}, "name": "9cb72fe335be5d6029dadf94e12b3771", "is_reserved": 0}, {"is_disabled": 0, "fusion_lon": 0.0, "fusion_lat": 0.0, "lat": 38.90601983333333, "type": "electric_scooter", "lon": -77.01616816666667, "bike_id": "a519a80ad14a0401d290a14f83655972", "rental_uris": {"android": "https://dc.lft.to/lastmile_qr_scan", "ios": "https://dc.lft.to/lastmile_qr_scan"}, "name": "a519a80ad14a0401d290a14f83655972", "is_reserved": 0}, {"is_disabled": 0, "fusion_lon": 0.0, "fusion_lat": 0.0, "lat": 38.923186333333334, "type": "electric_scooter", "lon": -77.0392955, "bike_id": "93f43b77c55eface055c574609bab7b9", "rental_uris": {"android": "https://dc.lft.to/lastmile_qr_scan", "ios": "https://dc.lft.to/lastmile_qr_scan"}, "name": "93f43b77c55eface055c574609bab7b9", "is_reserved": 0}, {"is_disabled": 0, "fusion_lon": 0.0, "fusion_lat": 0.0, "lat": 39.023005166666664, "type": "electric_bike", "lon": -77.02099233333334, "bike_id": "2dfb35a8c0c4824f95ed94026655e84a", "rental_uris": {"android": "https://dc.lft.to/lastmile_qr_scan", "ios": "https://dc.lft.to/lastmile_qr_scan"}, "name": "2dfb35a8c0c4824f95ed94026655e84a", "is_reserved": 0}, {"is_disabled": 0, "fusion_lon": 0.0, "fusion_lat": 0.0, "lat": 38.897692, "type": "electric_scooter", "lon": -77.051501, "bike_id": "7caa47a8c3402d49739bb9c4f563fd00", "rental_uris": {"android": "https://dc.lft.to/lastmile_qr_scan", "ios": "https://dc.lft.to/lastmile_qr_scan"}, "name": "7caa47a8c3402d49739bb9c4f563fd00", "is_reserved": 0}, {"is_disabled": 0, "fusion_lon": 0.0, "fusion_lat": 0.0, "lat": 38.941938, "type": "electric_scooter", "lon": -77.042569, "bike_id": "d4bad4888af0e33d1b721be2a9699942", "rental_uris": {"android": "https://dc.lft.to/lastmile_qr_scan", "ios": "https://dc.lft.to/lastmile_qr_scan"}, "name": "d4bad4888af0e33d1b721be2a9699942", "is_reserved": 0}, {"is_disabled": 0, "fusion_lon": 0.0, "fusion_lat": 0.0, "lat": 38.935401666666664, "type": "electric_scooter", "lon": -77.03414766666667, "bike_id": "a7a790cc0ca0382ba50b92320f083c63", "rental_uris": {"android": "https://dc.lft.to/lastmile_qr_scan", "ios": "https://dc.lft.to/lastmile_qr_scan"}, "name": "a7a790cc0ca0382ba50b92320f083c63", "is_reserved": 0}, {"is_disabled": 0, "fusion_lon": 0.0, "fusion_lat": 0.0, "lat": 38.8633845, "type": "electric_bike", "lon": -76.9872335, "bike_id": "fa45744e3ee3961d67df3735f3bb0833", "rental_uris": {"android": "https://dc.lft.to/lastmile_qr_scan", "ios": "https://dc.lft.to/lastmile_qr_scan"}, "name": "fa45744e3ee3961d67df3735f3bb0833", "is_reserved": 0}, {"is_disabled": 0, "fusion_lon": 0.0, "fusion_lat": 0.0, "lat": 38.88146733333333, "type": "electric_scooter", "lon": -76.99165083333334, "bike_id": "812956966fae53d1cd0341b8fc9568c6", "rental_uris": {"android": "https://dc.lft.to/lastmile_qr_scan", "ios": "https://dc.lft.to/lastmile_qr_scan"}, "name": "812956966fae53d1cd0341b8fc9568c6", "is_reserved": 0}, {"is_disabled": 0, "fusion_lon": 0.0, "fusion_lat": 0.0, "lat": 38.899746666666665, "type": "electric_scooter", "lon": -77.016236, "bike_id": "9291908a8efc6ee9ae259b63c2dde4d8", "rental_uris": {"android": "https://dc.lft.to/lastmile_qr_scan", "ios": "https://dc.lft.to/lastmile_qr_scan"}, "name": "9291908a8efc6ee9ae259b63c2dde4d8", "is_reserved": 0}, {"is_disabled": 0, "fusion_lon": 0.0, "fusion_lat": 0.0, "lat": 38.87389183333333, "type": "electric_scooter", "lon": -77.0019505, "bike_id": "0089d7510600a021f7c37fa97dd78fe9", "rental_uris": {"android": "https://dc.lft.to/lastmile_qr_scan", "ios": "https://dc.lft.to/lastmile_qr_scan"}, "name": "0089d7510600a021f7c37fa97dd78fe9", "is_reserved": 0},