{"data": {"bikes": [{"rental_uris": {"ios": "https://dc.lft.to/lastmile_qr_scan", "android": "https://dc.lft.to/lastmile_qr_scan"}, "type": "electric_scooter", "lon": -77.04168316666667, "lat": 38.89991933333334, "fusion_lon": 0.0, "name": "ce5156e55d19f77d223cd644155fc4ca", "bike_id": "ce5156e55d19f77d223cd644155fc4ca", "is_reserved": 0, "fusion_lat": 0.0, "is_disabled": 0}, {"rental_uris": {"ios": "https://dc.lft.to/lastmile_qr_scan", "android": "https://dc.lft.to/lastmile_qr_scan"}, "type": "electric_scooter", "lon": -77.0469625, "lat": 38.92098566666667, "fusion_lon": 0.0, "name": "749a8f89668d8eb284071b81adf7b4c6", "bike_id": "749a8f89668d8eb284071b81adf7b4c6", "is_reserved": 0, "fusion_lat": 0.0, "is_disabled": 0}, {"rental_uris": {"ios": "https://dc.lft.to/lastmile_qr_scan", "android": "https://dc.lft.to/lastmile_qr_scan"}, "type": "electric_scooter", "lon": -77.04446516666667, "lat": 38.91101866666666, "fusion_lon": 0.0, "name": "09d446f63ee7122f55ac56ad6fdca915", "bike_id": "09d446f63ee7122f55ac56ad6fdca915", "is_reserved": 0, "fusion_lat": 0.0, "is_disabled": 0}, {"rental_uris": {"ios": "https://dc.lft.to/lastmile_qr_scan", "android": "https://dc.lft.to/lastmile_qr_scan"}, "type": "electric_scooter", "lon": -77.03291633333333, "lat": 38.93719566666667, "fusion_lon": 0.0, "name": "bee772cba5aa39b47f10e1cf038bc8c1", "bike_id": "bee772cba5aa39b47f10e1cf038bc8c1", "is_reserved": 0, "fusion_lat": 0.0, "is_disabled": 0}, {"rental_uris": {"ios": "https://dc.lft.to/lastmile_qr_scan", "android": "https://dc.lft.to/lastmile_qr_scan"}, "type": "electric_scooter", "lon": -77.00946933333333, "lat": 38.8996945, "fusion_lon": 0.0, "name": "f943207ac249c6ae887f01af1fb04a6a", "bike_id": "f943207ac249c6ae887f01af1fb04a6a", "is_reserved": 0, "fusion_lat": 0.0, "is_disabled": 0}, {"rental_uris": {"ios": "https://dc.lft.to/lastmile_qr_scan", "android": "https://dc.lft.to/lastmile_qr_scan"}, "type": "electric_scooter", "lon": -77.00050516666667, "lat": 38.874314, "fusion_lon": 0.0, "name": "3d14cd67ed02b17704ecec703a50f6cf", "bike_id": "3d14cd67ed02b17704ecec703a50f6cf", "is_reserved": 0, "fusion_lat": 0.0, "is_disabled": 0}, {"rental_uris": {"ios": "https://dc.lft.to/lastmile_qr_scan", "android": "https://dc.lft.to/lastmile_qr_scan"}, "type": "electric_scooter", "lon": -77.03933333333333, "lat": 38.924795, "fusion_lon": 0.0, "name": "4b3af32fe2afbebe9e76b6dfdda9c07d", "bike_id": "4b3af32fe2afbebe9e76b6dfdda9c07d", "is_reserved": 0, "fusion_lat": 0.0, "is_disabled": 0}, {"rental_uris": {"ios": "https://dc.lft.to/lastmile_qr_scan", "android": "https://dc.lft.to/lastmile_qr_scan"}, "type": "electric_scooter", "lon": -77.02711983333333, "lat": 38.918028166666666, "fusion_lon": 0.0, "name": "64813480e824364d94dcf2c23934173a", "bike_id": "64813480e824364d94dcf2c23934173a", "is_reserved": 0, "fusion_lat": 0.0, "is_disabled": 0}, {"rental_uris": {"ios": "https://dc.lft.to/lastmile_qr_scan", "android": "https://dc.lft.to/lastmile_qr_scan"}, "type": "electric_scooter", "lon": -77.0224905, "lat": 38.924741166666664, "fusion_lon": 0.0, "name": "a4cf33e600782ea07b50a347d8839ec2", "bike_id": "a4cf33e600782ea07b50a347d8839ec2", "is_reserved": 0, "fusion_lat": 0.0, "is_disabled": 0}, {"rental_uris": {"ios": "https://dc.lft.to/lastmile_qr_scan", "android": "https://dc.lft.to/lastmile_qr_scan"}, "type": "electric_bike", "lon": -76.97142916666667, "lat": 38.923385833333334, "fusion_lon": 0.0, "name": "50d22bd4f09eb75dc87cbb154df5d80e", "bike_id": "50d22bd4f09eb75dc87cbb154df5d80e", "is_reserved": 0, "fusion_lat": 0.0, "is_disabled": 0}, {"rental_uris": {"ios": "https://dc.lft.to/lastmile_qr_scan", "android": "https://dc.lft.to/lastmile_qr_scan"}, "type": "electric_scooter", "lon": -77.04075916666666, "lat": 38.905091166666665, "fusion_lon": 0.0, "name": "bba0e4a7a4e14f3745b84d77ab64b01d", "bike_id": "bba0e4a7a4e14f3745b84d77ab64b01d", "is_reserved": 0, "fusion_lat": 0.0, "is_disabled": 0}, {"rental_uris": {"ios": "https://dc.lft.to/lastmile_qr_scan", "android": "https://dc.lft.to/lastmile_qr_scan"}, "type": "electric_scooter", "lon": -77.072751, "lat": 38.90922666666667, "fusion_lon": 0.0, "name": "c67cf68373ccff557ab84c9f1c8b86d7", "bike_id": "c67cf68373ccff557ab84c9f1c8b86d7", "is_reserved": 0, "fusion_lat": 0.0, "is_disabled": 0}, {"rental_uris": {"ios": "https://dc.lft.to/lastmile_qr_scan", "android": "https://dc.lft.to/lastmile_qr_scan"}, "type": "electric_scooter", "lon": -77.02325016666667, "lat": 38.9414165, "fusion_lon": 0.0, "name": "2bd049ce42dd60ef987b77a7f4a06363", "bike_id": "2bd049ce42dd60ef987b77a7f4a06363", "is_reserved": 0, "fusion_lat": 0.0, "is_disabled": 0}, {"rental_uris": {"ios": "https://dc.lft.to/lastmile_qr_scan", "android": "https://dc.lft.to/lastmile_qr_scan"}, "type": "electric_scooter", "lon": -77.04555516666667, "lat": 38.91268816666667, "fusion_lon": 0.0, "name": "eb4ef4677c102c1fdc8e29724f5fabe9", "bike_id": "eb4ef4677c102c1fdc8e29724f5fabe9", "is_reserved": 0, "fusion_lat": 0.0, "is_disabled": 0}, {"rental_uris": {"ios": "https://dc.lft.to/lastmile_qr_scan", "android": "https://dc.lft.to/lastmile_qr_scan"}, "type": "electric_scooter", "lon": -77.01630883333333, "lat": 38.90317433333333, "fusion_lon": 0.0, "name": "433b39596a9fc3d014d804364742f110", "bike_id": "433b39596a9fc3d014d804364742f110", "is_reserved": 0, "fusion_lat": 0.0, "is_disabled": 0}, {"rental_uris": {"ios": "https://dc.lft.to/lastmile_qr_scan", "android": "https://dc.lft.to/lastmile_qr_scan"}, "type": "electric_scooter", "lon": -77.03189416666666, "lat": 38.897018833333334, "fusion_lon": 0.0, "name": "32acdd4bb65a720bb1dd62a684467054", "bike_id": "32acdd4bb65a720bb1dd62a684467054", "is_reserved": 0, "fusion_lat": 0.0, "is_disabled": 0}, {"rental_uris": {"ios": "https://dc.lft.to/lastmile_qr_scan", "android": "https://dc.lft.to/lastmile_qr_scan"}, "type": "electric_scooter", "lon": -77.00713083333333, "lat": 38.884913166666664, "fusion_lon": 0.0, "name": "f6ee052840fcc27b16d55996401a0368", "bike_id": "f6ee052840fcc27b16d55996401a0368", "is_reserved": 0, "fusion_lat": 0.0, "is_disabled": 0}, {"rental_uris": {"ios": "https://dc.lft.to/lastmile_qr_scan", "android": "https://dc.lft.to/lastmile_qr_scan"}, "type": "electric_scooter", "lon": -77.045445, "lat": 38.901348, "fusion_lon": 0.0, "name": "c24e1367a14428fd640f31059da7c753", "bike_id": "c24e1367a14428fd640f31059da7c753", "is_reserved": 0, "fusion_lat": 0.0, "is_disabled": 0}, {"rental_uris": {"ios": "https://dc.lft.to/lastmile_qr_scan", "android": "https://dc.lft.to/lastmile_qr_scan"}, "type": "electric_scooter", "lon": -77.032058, "lat": 38.907259833333335, "fusion_lon": 0.0, "name": "440ff0a6566f36a0fcfb19d26cd0b22f", "bike_id": "440ff0a6566f36a0fcfb19d26cd0b22f", "is_reserved": 0, "fusion_lat": 0.0, "is_disabled": 0}, {"rental_uris": {"ios": "https://dc.lft.to/lastmile_qr_scan", "android": "https://dc.lft.to/lastmile_qr_scan"}, "type": "electric_bike", "lon": -77.00383683333334, "lat": 38.83606616666667, "fusion_lon": 0.0, "name": "5e5b6da716edbc50beecb310adf5cf11", "bike_id": "5e5b6da716edbc50beecb310adf5cf11", "is_reserved": 0, "fusion_lat": 0.0, "is_disabled": 0}, {"rental_uris": {"ios": "https://dc.lft.to/lastmile_qr_scan", "android": "https://dc.lft.to/lastmile_qr_scan"}, "type": "electric_bike", "lon": -76.93232783333333, "lat": 38.88281516666667, "fusion_lon": 0.0, "name": "545cb1abdd28e7d1fdd351a99019ae7a", "bike_id": "545cb1abdd28e7d1fdd351a99019ae7a", "is_reserved": 0, "fusion_lat": 0.0, "is_disabled": 0}, {"rental_uris": {"ios": "https://dc.lft.to/lastmile_qr_scan", "android": "https://dc.lft.to/lastmile_qr_scan"}, "type": "electric_scooter", "lon": -77.0213175, "lat": 38.924134333333335, "fusion_lon": 0.0, "name": "f7baac7f5f4560700c762fb84295e400", "bike_id": "f7baac7f5f4560700c762fb84295e400", "is_reserved": 0, "fusion_lat": 0.0, "is_disabled": 0}, {"rental_uris": {"ios": "https://dc.lft.to/lastmile_qr_scan", "android": "https://dc.lft.to/lastmile_qr_scan"}, "type": "electric_scooter", "lon": -77.03952616666666, "lat": 38.90037733333333, "fusion_lon": 0.0, "name": "25dfb622a44778aa38bb9851f890da03", "bike_id": "25dfb622a44778aa38bb9851f890da03", "is_reserved": 0, "fusion_lat": 0.0, "is_disabled": 0}, {"rental_uris": {"ios": "https://dc.lft.to/lastmile_qr_scan", "android": "https://dc.lft.to/lastmile_qr_scan"}, "type": "electric_scooter", "lon": -77.02758833333333, "lat": 38.92582216666667, "fusion_lon": 0.0, "name": "b41d3a089ef9297ba1d4aecc085fdc86", "bike_id": "b41d3a089ef9297ba1d4aecc085fdc86", "is_reserved": 0, "fusion_lat": 0.0, "is_disabled": 0}, {"rental_uris": {"ios": "https://dc.lft.to/lastmile_qr_scan", "android": "https://dc.lft.to/lastmile_qr_scan"}, "type": "electric_bike", "lon": -76.9643785, "lat": 38.918778, "fusion_lon": 0.0, "name": "56e5ca260bd3818d18001b5665d4ce73", "bike_id": "56e5ca260bd3818d18001b5665d4ce73", "is_reserved": 0, "fusion_lat": 0.0, "is_disabled": 0}, {"rental_uris": {"ios": "https://dc.lft.to/lastmile_qr_scan", "android": "https://dc.lft.to/lastmile_qr_scan"}, "type": "electric_scooter", "lon": -77.07263716666667, "lat": 38.9090795, "fusion_lon": 0.0, "name": "0297d2414c2b43f6de84e88a9f5535a0", "bike_id": "0297d2414c2b43f6de84e88a9f5535a0", "is_reserved": 0, "fusion_lat": 0.0, "is_disabled": 0}, {"rental_uris": {"ios": "https://dc.lft.to/lastmile_qr_scan", "android": "https://dc.lft.to/lastmile_qr_scan"}, "type": "electric_bike", "lon": -77.02384633333334, "lat": 38.98969983333333, "fusion_lon": 0.0, "name": "9ff8979d82842411f91f9d852d1726d5", "bike_id": "9ff8979d82842411f91f9d852d1726d5", "is_reserved": 0, "fusion_lat": 0.0, "is_disabled": 0}, {"rental_uris": {"ios": "https://dc.lft.to/lastmile_qr_scan", "android": "https://dc.lft.to/lastmile_qr_scan"}, "type": "electric_scooter", "lon": -77.02298366666666, "lat": 38.91678866666667, "fusion_lon": 0.0, "name": "17c277d9a3fc62b1ceb9999626a0801f", "bike_id": "17c277d9a3fc62b1ceb9999626a0801f", "is_reserved": 0, "fusion_lat": 0.0, "is_disabled": 0}, {"rental_uris": {"ios": "https://dc.lft.to/lastmile_qr_scan", "android": "https://dc.lft.to/lastmile_qr_scan"}, "type": "electric_scooter", "lon": -76.99797383333333, "lat": 38.93226283333333, "fusion_lon": 0.0, "name": "5da99f5972a11b1dae5664bcbd6642ba", "bike_id": "5da99f5972a11b1dae5664bcbd6642ba", "is_reserved": 0, "fusion_lat": 0.0, "is_disabled": 0}, {"rental_uris": {"ios": "https://dc.lft.to/lastmile_qr_scan", "android": "https://dc.lft.to/lastmile_qr_scan"}, "type": "electric_scooter", "lon": -77.01801133333333, "lat": 38.92144716666667, "fusion_lon": 0.0, "name": "7e2d3b336f6ee8d31d4145e33d983748", "bike_id": "7e2d3b336f6ee8d31d4145e33d983748", "is_reserved": 0, "fusion_lat": 0.0, "is_disabled": 0}, {"rental_uris": {"ios": "https://dc.lft.to/lastmile_qr_scan", "android": "https://dc.lft.to/lastmile_qr_scan"}, "type": "electric_scooter", "lon": -77.021452, "lat": 38.92117966666667, "fusion_lon": 0.0, "name": "466e0c4326677585ce407e8c5a05af5f", "bike_id": "466e0c4326677585ce407e8c5a05af5f", "is_reserved": 0, "fusion_lat": 0.0, "is_disabled": 0}, {"rental_uris": {"ios": "https://dc.lft.to/lastmile_qr_scan", "android": "https://dc.lft.to/lastmile_qr_scan"}, "type": "electric_scooter", "lon": -77.0304015, "lat": 38.89605183333333, "fusion_lon": 0.0, "name": "b524cd0e706b006beae11f691088bdd1", "bike_id": "b524cd0e706b006beae11f691088bdd1", "is_reserved": 0, "fusion_lat": 0.0, "is_disabled": 0}, {"rental_uris": {"ios": "https://dc.lft.to/lastmile_qr_scan", "android": "https://dc.lft.to/lastmile_qr_scan"}, "type": "electric_scooter", "lon": -77.04643566666667, "lat": 38.892180333333336, "fusion_lon": 0.0, "name": "225215f42690fa67b3646d5d39b405db", "bike_id": "225215f42690fa67b3646d5d39b405db", "is_reserved": 0, "fusion_lat": 0.0, "is_disabled": 0}, {"rental_uris": {"ios": "https://dc.lft.to/lastmile_qr_scan", "android": "https://dc.lft.to/lastmile_qr_scan"}, "type": "electric_bike", "lon": -76.93451366666666, "lat": 38.908417166666666, "fusion_lon": 0.0, "name": "39ca2f24995ea63a79d0c1b4cee16035", "bike_id": "39ca2f24995ea63a79d0c1b4cee16035", "is_reserved": 0, "fusion_lat": 0.0, "is_disabled": 0}, {"rental_uris": {"ios": "https://dc.lft.to/lastmile_qr_scan", "android": "https://dc.lft.to/lastmile_qr_scan"}, "type": "electric_bike", "lon": -77.12838433333333, "lat": 38.80053733333333, "fusion_lon": 0.0, "name": "f40089b051e4d117f411af9a0d13456a", "bike_id": "f40089b051e4d117f411af9a0d13456a", "is_reserved": 0, "fusion_lat": 0.0, "is_disabled": 0}, {"rental_uris": {"ios": "https://dc.lft.to/lastmile_qr_scan", "android": "https://dc.lft.to/lastmile_qr_scan"}, "type": "electric_scooter", "lon": -76.99774183333334, "lat": 38.89422783333333, "fusion_lon": 0.0, "name": "0ecbc65c309e32b15eba41f6476a0527", "bike_id": "0ecbc65c309e32b15eba41f6476a0527", "is_reserved": 0, "fusion_lat": 0.0, "is_disabled": 0}, {"rental_uris": {"ios": "https://dc.lft.to/lastmile_qr_scan", "android": "https://dc.lft.to/lastmile_qr_scan"}, "type": "electric_scooter", "lon": -77.02941433333334, "lat": 38.89934216666666, "fusion_lon": 0.0, "name": "bb997d71ef9a9365f4c8c4dd3e1cd333", "bike_id": "bb997d71ef9a9365f4c8c4dd3e1cd333", "is_reserved": 0, "fusion_lat": 0.0, "is_disabled": 0}, {"rental_uris": {"ios": "https://dc.lft.to/lastmile_qr_scan", "android": "https://dc.lft.to/lastmile_qr_scan"}, "type": "electric_scooter", "lon": -77.0276085, "lat": 38.902552166666666, "fusion_lon": 0.0, "name": "a71a5b8c64bd44a98d62b8b71003f83f", "bike_id": "a71a5b8c64bd44a98d62b8b71003f83f", "is_reserved": 0, "fusion_lat": 0.0, "is_disabled": 0}, {"rental_uris": {"ios": "https://dc.lft.to/lastmile_qr_scan", "android": "https://dc.lft.to/lastmile_qr_scan"}, "type": "electric_scooter", "lon": -77.01757433333333, "lat": 38.876878833333336, "fusion_lon": 0.0, "name": "0b7431e47dbf8916ea3b5834f0dcb83e", "bike_id": "0b7431e47dbf8916ea3b5834f0dcb83e", "is_reserved": 0, "fusion_lat": 0.0, "is_disabled": 0}, {"rental_uris": {"ios": "https://dc.lft.to/lastmile_qr_scan", "android": "https://dc.lft.to/lastmile_qr_scan"}, "type": "electric_scooter", "lon": -77.0501535, "lat": 38.92338933333333, "fusion_lon": 0.0, "name": "2168c49e2dbdddee5819ef21c2c5565b", "bike_id": "2168c49e2dbdddee5819ef21c2c5565b", "is_reserved": 0, "fusion_lat": 0.0, "is_disabled": 0}, {"rental_uris": {"ios": "https://dc.lft.to/lastmile_qr_scan", "android": "https://dc.lft.to/lastmile_qr_scan"}, "type": "electric_scooter", "lon": -77.07029516666667, "lat": 38.90777516666667, "fusion_lon": 0.0, "name": "128971110612863f968c4cc38cad5d19", "bike_id": "128971110612863f968c4cc38cad5d19", "is_reserved": 0, "fusion_lat": 0.0, "is_disabled": 0}, {"rental_uris": {"ios": "https://dc.lft.to/lastmile_qr_scan", "android": "https://dc.lft.to/lastmile_qr_scan"}, "type": "electric_scooter", "lon": -77.03511933333333, "lat": 38.93116466666667, "fusion_lon": 0.0, "name": "ddb288117eb513521f2eb0c278204047", "bike_id": "ddb288117eb513521f2eb0c278204047", "is_reserved": 0, "fusion_lat": 0.0, "is_disabled": 0}, {"rental_uris": {"ios": "https://dc.lft.to/lastmile_qr_scan", "android": "https://dc.lft.to/lastmile_qr_scan"}, "type": "electric_scooter", "lon": -77.0447425, "lat": 38.89220433333333, "fusion_lon": 0.0, "name": "2930464ea2af13fd55d8bb98fce4cdf8", "bike_id": "2930464ea2af13fd55d8bb98fce4cdf8", "is_reserved": 0, "fusion_lat": 0.0, "is_disabled": 0}, {"rental_uris": {"ios": "https://dc.lft.to/lastmile_qr_scan", "android": "https://dc.lft.to/lastmile_qr_scan"}, "type": "electric_scooter", "lon": -77.03337466666666, "lat": 38.902712, "fusion_lon": 0.0, "name": "3b676e8f8fa23238d31ee2f98146d658", "bike_id": "3b676e8f8fa23238d31ee2f98146d658", "is_reserved": 0, "fusion_lat": 0.0, "is_disabled": 0}, {"rental_uris": {"ios": "https://dc.lft.to/lastmile_qr_scan", "android": "https://dc.lft.to/lastmile_qr_scan"}, "type": "electric_scooter", "lon": -77.036551, "lat": 38.94177766666667, "fusion_lon": 0.0, "name": "b643b64ea0d99bbc73827ba4c6a7913b", "bike_id": "b643b64ea0d99bbc73827ba4c6a7913b", "is_reserved": 0, "fusion_lat": 0.0, "is_disabled": 0}, {"rental_uris": {"ios": "https://dc.lft.to/lastmile_qr_scan", "android": "https://dc.lft.to/lastmile_qr_scan"}, "type": "electric_scooter", "lon": -77.0614115, "lat": 38.941092166666664, "fusion_lon": 0.0, "name": "5bd28ee878e45a33c24edf5a5dc56663", "bike_id": "5bd28ee878e45a33c24edf5a5dc56663", "is_reserved": 0, "fusion_lat": 0.0, "is_disabled": 0}, {"rental_uris": {"ios": "https://dc.lft.to/lastmile_qr_scan", "android": "https://dc.lft.to/lastmile_qr_scan"}, "type": "electric_scooter", "lon": -77.03778333333334, "lat": 38.92011683333333, "fusion_lon": 0.0, "name": "12c43600df1e5d5d009d16af03e8b11f", "bike_id": "12c43600df1e5d5d009d16af03e8b11f", "is_reserved": 0, "fusion_lat": 0.0, "is_disabled": 0}, {"rental_uris": {"ios": "https://dc.lft.to/lastmile_qr_scan", "android": "https://dc.lft.to/lastmile_qr_scan"}, "type": "electric_scooter", "lon": -77.07275516666667, "lat": 38.9089615, "fusion_lon": 0.0, "name": "9bd781649d607fff0c96de3c7a384ffc", "bike_id": "9bd781649d607fff0c96de3c7a384ffc", "is_reserved": 0, "fusion_lat": 0.0, "is_disabled": 0}, {"rental_uris": {"ios": "https://dc.lft.to/lastmile_qr_scan", "android": "https://dc.lft.to/lastmile_qr_scan"}, "type": "electric_scooter", "lon": -77.03081683333333, "lat": 38.9279295, "fusion_lon": 0.0, "name": "42d8ab4e9eb4a93784fb67079c399d07", "bike_id": "42d8ab4e9eb4a93784fb67079c399d07", "is_reserved": 0, "fusion_lat": 0.0, "is_disabled": 0}, {"rental_uris": {"ios": "https://dc.lft.to/lastmile_qr_scan", "android": "https://dc.lft.to/lastmile_qr_scan"}, "type": "electric_scooter", "lon": -77.00721033333333, "lat": 38.915570333333335, "fusion_lon": 0.0, "name": "5a975be6058481b3b4db28c3d58c3e0f", "bike_id": "5a975be6058481b3b4db28c3d58c3e0f", "is_reserved": 0, "fusion_lat": 0.0, "is_disabled": 0}, {"rental_uris": {"ios": "https://dc.lft.to/lastmile_qr_scan", "android": "https://dc.lft.to/lastmile_qr_scan"}, "type": "electric_scooter", "lon": -77.04006933333334, "lat": 38.905986166666665, "fusion_lon": 0.0, "name": "3d42e2f606fd00420c230b3f2cc7d130", "bike_id": "3d42e2f606fd00420c230b3f2cc7d130", "is_reserved": 0, "fusion_lat": 0.0, "is_disabled": 0}, {"rental_uris": {"ios": "https://dc.lft.to/lastmile_qr_scan", "android": "https://dc.lft.to/lastmile_qr_scan"}, "type": "electric_scooter", "lon": -77.041276, "lat": 38.924972, "fusion_lon": 0.0, "name": "31c4a9ea463c9b6a9a1d6c87d5ddbf05", "bike_id": "31c4a9ea463c9b6a9a1d6c87d5ddbf05", "is_reserved": 0, "fusion_lat": 0.0, "is_disabled": 0}, {"rental_uris": {"ios": "https://dc.lft.to/lastmile_qr_scan", "android": "https://dc.lft.to/lastmile_qr_scan"}, "type": "electric_scooter", "lon": -77.02706516666667, "lat": 38.917956333333336, "fusion_lon": 0.0, "name": "3facb24798a4ea386e40e4c1eb68cc2f", "bike_id": "3facb24798a4ea386e40e4c1eb68cc2f", "is_reserved": 0, "fusion_lat": 0.0, "is_disabled": 0}, {"rental_uris": {"ios": "https://dc.lft.to/lastmile_qr_scan", "android": "https://dc.lft.to/lastmile_qr_scan"}, "type": "electric_scooter", "lon": -77.07644966666666, "lat": 38.90865516666667, "fusion_lon": 0.0, "name": "66ff2181870fc8fccec785890f90e545", "bike_id": "66ff2181870fc8fccec785890f90e545", "is_reserved": 0, "fusion_lat": 0.0, "is_disabled": 0}, {"rental_uris": {"ios": "https://dc.lft.to/lastmile_qr_scan", "android": "https://dc.lft.to/lastmile_qr_scan"}, "type": "electric_scooter", "lon": -76.93738133333333, "lat": 38.890120833333334, "fusion_lon": 0.0, "name": "e8f97a90343a04aea46f62d12b34dcb4", "bike_id": "e8f97a90343a04aea46f62d12b34dcb4", "is_reserved": 0, "fusion_lat": 0.0, "is_disabled": 0}, {"rental_uris": {"ios": "https://dc.lft.to/lastmile_qr_scan", "android": "https://dc.lft.to/lastmile_qr_scan"}, "type": "electric_scooter", "lon": -77.03204966666667, "lat": 38.918529666666664, "fusion_lon": 0.0, "name": "97b30170e6a1b42b96d7fe9515818017", "bike_id": "97b30170e6a1b42b96d7fe9515818017", "is_reserved": 0, "fusion_lat": 0.0, "is_disabled": 0}, {"rental_uris": {"ios": "https://dc.lft.to/lastmile_qr_scan", "android": "https://dc.lft.to/lastmile_qr_scan"}, "type": "electric_scooter", "lon": -77.0061325, "lat": 38.88321716666667, "fusion_lon": 0.0, "name": "1a9b87e66c83a8ce094506b905c10829", "bike_id": "1a9b87e66c83a8ce094506b905c10829", "is_reserved": 0, "fusion_lat": 0.0, "is_disabled": 0}, {"rental_uris": {"ios": "https://dc.lft.to/lastmile_qr_scan", "android": "https://dc.lft.to/lastmile_qr_scan"}, "type": "electric_scooter", "lon": -77.03308933333334, "lat": 38.90846533333333, "fusion_lon": 0.0, "name": "713d7ba505c850e5f72164101814580b", "bike_id": "713d7ba505c850e5f72164101814580b", "is_reserved": 0, "fusion_lat": 0.0, "is_disabled": 0}, {"rental_uris": {"ios": "https://dc.lft.to/lastmile_qr_scan", "android": "https://dc.lft.to/lastmile_qr_scan"}, "type": "electric_scooter", "lon": -77.038574, "lat": 38.91661633333333, "fusion_lon": 0.0, "name": "75d08b2474a401d8015c983c6e8c31b8", "bike_id": "75d08b2474a401d8015c983c6e8c31b8", "is_reserved": 0, "fusion_lat": 0.0, "is_disabled": 0}, {"rental_uris": {"ios": "https://dc.lft.to/lastmile_qr_scan", "android": "https://dc.lft.to/lastmile_qr_scan"}, "type": "electric_scooter", "lon": -77.06788216666666, "lat": 38.91560883333333, "fusion_lon": 0.0, "name": "4a020e2a7071544bf50aa90ca5d25112", "bike_id": "4a020e2a7071544bf50aa90ca5d25112", "is_reserved": 0, "fusion_lat": 0.0, "is_disabled": 0}, {"rental_uris": {"ios": "https://dc.lft.to/lastmile_qr_scan", "android": "https://dc.lft.to/lastmile_qr_scan"}, "type": "electric_scooter", "lon": -77.00647516666666, "lat": 38.871866833333335, "fusion_lon": 0.0, "name": "62383fbc7fdb8f853d2cd3b061e213e3", "bike_id": "62383fbc7fdb8f853d2cd3b061e213e3", "is_reserved": 0, "fusion_lat": 0.0, "is_disabled": 0}, {"rental_uris": {"ios": "https://dc.lft.to/lastmile_qr_scan", "android": "https://dc.lft.to/lastmile_qr_scan"}, "type": "electric_scooter", "lon": -77.03188933333334, "lat": 38.909220166666664, "fusion_lon": 0.0, "name": "f7d6c8939cf90e062da184815229e62c", "bike_id": "f7d6c8939cf90e062da184815229e62c", "is_reserved": 0, "fusion_lat": 0.0, "is_disabled": 0}, {"rental_uris": {"ios": "https://dc.lft.to/lastmile_qr_scan", "android": "https://dc.lft.to/lastmile_qr_scan"}, "type": "electric_bike", "lon": -76.9915125, "lat": 38.885851833333334, "fusion_lon": 0.0, "name": "647518d68f14821727910988cafb4615", "bike_id": "647518d68f14821727910988cafb4615", "is_reserved": 0, "fusion_lat": 0.0, "is_disabled": 0}, {"rental_uris": {"ios": "https://dc.lft.to/lastmile_qr_scan", "android": "https://dc.lft.to/lastmile_qr_scan"}, "type": "electric_scooter", "lon": -77.04058983333333, "lat": 38.898945499999996, "fusion_lon": 0.0, "name": "8e8373f293f2f7f0c791d799aa9e46f8", "bike_id": "8e8373f293f2f7f0c791d799aa9e46f8", "is_reserved": 0, "fusion_lat": 0.0, "is_disabled": 0}, {"rental_uris": {"ios": "https://dc.lft.to/lastmile_qr_scan", "android": "https://dc.lft.to/lastmile_qr_scan"}, "type": "electric_scooter", "lon": -77.00300833333333, "lat": 38.89198783333333, "fusion_lon": 0.0, "name": "523ec234284da9de2e0524dfc098402b", "bike_id": "523ec234284da9de2e0524dfc098402b", "is_reserved": 0, "fusion_lat": 0.0, "is_disabled": 0}, {"rental_uris": {"ios": "https://dc.lft.to/lastmile_qr_scan", "android": "https://dc.lft.to/lastmile_qr_scan"}, "type": "electric_scooter", "lon": -77.04644266666666, "lat": 38.895064166666664, "fusion_lon": 0.0, "name": "d9694f1135deea94e04e012a92050775", "bike_id": "d9694f1135deea94e04e012a92050775", "is_reserved": 0, "fusion_lat": 0.0, "is_disabled": 0}, {"rental_uris": {"ios": "https://dc.lft.to/lastmile_qr_scan", "android": "https://dc.lft.to/lastmile_qr_scan"}, "type": "electric_scooter", "lon": -77.04369433333333, "lat": 38.9112615, "fusion_lon": 0.0, "name": "b8a00b940ae65c9db2d2522fee449ff4", "bike_id": "b8a00b940ae65c9db2d2522fee449ff4", "is_reserved": 0, "fusion_lat": 0.0, "is_disabled": 0}, {"rental_uris": {"ios": "https://dc.lft.to/lastmile_qr_scan", "android": "https://dc.lft.to/lastmile_qr_scan"}, "type": "electric_scooter", "lon": -77.0365455, "lat": 38.900496, "fusion_lon": 0.0, "name": "91d7204f3b12ddd75b408a02d469f859", "bike_id": "91d7204f3b12ddd75b408a02d469f859", "is_reserved": 0, "fusion_lat": 0.0, "is_disabled": 0}, {"rental_uris": {"ios": "https://dc.lft.to/lastmile_qr_scan", "android": "https://dc.lft.to/lastmile_qr_scan"}, "type": "electric_scooter", "lon": -77.020679, "lat": 38.8998395, "fusion_lon": 0.0, "name": "efc38b1e90cf5b15f322298c8ab421a5", "bike_id": "efc38b1e90cf5b15f322298c8ab421a5", "is_reserved": 0, "fusion_lat": 0.0, "is_disabled": 0}, {"rental_uris": {"ios": "https://dc.lft.to/lastmile_qr_scan", "android": "https://dc.lft.to/lastmile_qr_scan"}, "type": "electric_scooter", "lon": -77.04254216666666, "lat": 38.920650333333334, "fusion_lon": 0.0, "name": "831ab86ea6c03480f814be57a2302ccf", "bike_id": "831ab86ea6c03480f814be57a2302ccf", "is_reserved": 0, "fusion_lat": 0.0, "is_disabled": 0}, {"rental_uris": {"ios": "https://dc.lft.to/lastmile_qr_scan", "android": "https://dc.lft.to/lastmile_qr_scan"}, "type": "electric_scooter", "lon": -76.97575516666667, "lat": 38.89746066666667, "fusion_lon": 0.0, "name": "6a6e4846c2ff0bee9f74e1423fc352bf", "bike_id": "6a6e4846c2ff0bee9f74e1423fc352bf", "is_reserved": 0, "fusion_lat": 0.0, "is_disabled": 0}, {"rental_uris": {"ios": "https://dc.lft.to/lastmile_qr_scan", "android": "https://dc.lft.to/lastmile_qr_scan"}, "type": "electric_scooter", "lon": -77.01426466666666, "lat": 38.92839583333333, "fusion_lon": 0.0, "name": "266cbc6651d616cb3e1fdf3c749c37a5", "bike_id": "266cbc6651d616cb3e1fdf3c749c37a5", "is_reserved": 0, "fusion_lat": 0.0, "is_disabled": 0}, {"rental_uris": {"ios": "https://dc.lft.to/lastmile_qr_scan", "android": "https://dc.lft.to/lastmile_qr_scan"}, "type": "electric_scooter", "lon": -77.03682216666667, "lat": 38.923319666666664, "fusion_lon": 0.0, "name": "044c27e44eb2d27d69cea96936187064", "bike_id": "044c27e44eb2d27d69cea96936187064", "is_reserved": 0, "fusion_lat": 0.0, "is_disabled": 0}, {"rental_uris": {"ios": "https://dc.lft.to/lastmile_qr_scan", "android": "https://dc.lft.to/lastmile_qr_scan"}, "type": "electric_scooter", "lon": -77.0353215, "lat": 38.921526166666666, "fusion_lon": 0.0, "name": "9eb1eceb9424685e0a45ed37bca45ea6", "bike_id": "9eb1eceb9424685e0a45ed37bca45ea6", "is_reserved": 0, "fusion_lat": 0.0, "is_disabled": 0}, {"rental_uris": {"ios": "https://dc.lft.to/lastmile_qr_scan", "android": "https://dc.lft.to/lastmile_qr_scan"}, "type": "electric_scooter", "lon": -77.0486715, "lat": 38.90645216666667, "fusion_lon": 0.0, "name": "c293f8891e4a250607f64adb0e8ea337", "bike_id": "c293f8891e4a250607f64adb0e8ea337", "is_reserved": 0, "fusion_lat": 0.0, "is_disabled": 0}, {"rental_uris": {"ios": "https://dc.lft.to/lastmile_qr_scan", "android": "https://dc.lft.to/lastmile_qr_scan"}, "type": "electric_scooter", "lon": -77.038155, "lat": 38.91700933333333, "fusion_lon": 0.0, "name": "e0a1fd6ecc36d8090059fedb519023a5", "bike_id": "e0a1fd6ecc36d8090059fedb519023a5", "is_reserved": 0, "fusion_lat": 0.0, "is_disabled": 0}, {"rental_uris": {"ios": "https://dc.lft.to/lastmile_qr_scan", "android": "https://dc.lft.to/lastmile_qr_scan"}, "type": "electric_scooter", "lon": -76.999063, "lat": 38.90029966666667, "fusion_lon": 0.0, "name": "c959d05d865e0e29222c5a7674fc359b", "bike_id": "c959d05d865e0e29222c5a7674fc359b", "is_reserved": 0, "fusion_lat": 0.0, "is_disabled": 0}, {"rental_uris": {"ios": "https://dc.lft.to/lastmile_qr_scan", "android": "https://dc.lft.to/lastmile_qr_scan"}, "type": "electric_bike", "lon": -76.9707135, "lat": 38.92055416666667, "fusion_lon": 0.0, "name": "0b64c77630bba3cca0bc7e951f0b212a", "bike_id": "0b64c77630bba3cca0bc7e951f0b212a", "is_reserved": 0, "fusion_lat": 0.0, "is_disabled": 0}, {"rental_uris": {"ios": "https://dc.lft.to/lastmile_qr_scan", "android": "https://dc.lft.to/lastmile_qr_scan"}, "type": "electric_scooter", "lon": -77.02167866666667, "lat": 38.892171833333336, "fusion_lon": 0.0, "name": "eddbc848d42ec6b7980f2040826c1925", "bike_id": "eddbc848d42ec6b7980f2040826c1925", "is_reserved": 0, "fusion_lat": 0.0, "is_disabled": 0}, {"rental_uris": {"ios": "https://dc.lft.to/lastmile_qr_scan", "android": "https://dc.lft.to/lastmile_qr_scan"}, "type": "electric_scooter", "lon": -77.03226983333333, "lat": 38.938834166666666, "fusion_lon": 0.0, "name": "5ccd27564f4eb28b3f5c778b803a673d", "bike_id": "5ccd27564f4eb28b3f5c778b803a673d", "is_reserved": 0, "fusion_lat": 0.0, "is_disabled": 0}, {"rental_uris": {"ios": "https://dc.lft.to/lastmile_qr_scan", "android": "https://dc.lft.to/lastmile_qr_scan"}, "type": "electric_scooter", "lon": -77.043419, "lat": 38.897319833333334, "fusion_lon": 0.0, "name": "8fe8b01a1495aa1d2f4a9b5e512d1efc", "bike_id": "8fe8b01a1495aa1d2f4a9b5e512d1efc", "is_reserved": 0, "fusion_lat": 0.0, "is_disabled": 0}, {"rental_uris": {"ios": "https://dc.lft.to/lastmile_qr_scan", "android": "https://dc.lft.to/lastmile_qr_scan"}, "type": "electric_scooter", "lon": -77.02186233333333, "lat": 38.92481166666666, "fusion_lon": 0.0, "name": "6bfcddca4d2edf2bd5dfe4bd265a40a8", "bike_id": "6bfcddca4d2edf2bd5dfe4bd265a40a8", "is_reserved": 0, "fusion_lat": 0.0, "is_disabled": 0}, {"rental_uris": {"ios": "https://dc.lft.to/lastmile_qr_scan", "android": "https://dc.lft.to/lastmile_qr_scan"}, "type": "electric_scooter", "lon": -77.02419283333333, "lat": 38.9265475, "fusion_lon": 0.0, "name": "100b3ab01bf48bde3860ff91d855916d", "bike_id": "100b3ab01bf48bde3860ff91d855916d", "is_reserved": 0, "fusion_lat": 0.0, "is_disabled": 0}, {"rental_uris": {"ios": "https://dc.lft.to/lastmile_qr_scan", "android": "https://dc.lft.to/lastmile_qr_scan"}, "type": "electric_scooter", "lon": -77.02479833333334, "lat": 38.903166166666665, "fusion_lon": 0.0, "name": "64af9e5b16c7aa1ab7ed810ec7da1291", "bike_id": "64af9e5b16c7aa1ab7ed810ec7da1291", "is_reserved": 0, "fusion_lat": 0.0, "is_disabled": 0}, {"rental_uris": {"ios": "https://dc.lft.to/lastmile_qr_scan", "android": "https://dc.lft.to/lastmile_qr_scan"}, "type": "electric_scooter", "lon": -77.0366285, "lat": 38.915441, "fusion_lon": 0.0, "name": "e0e764fc22724d6dfe84970bfe77566a", "bike_id": "e0e764fc22724d6dfe84970bfe77566a", "is_reserved": 0, "fusion_lat": 0.0, "is_disabled": 0}, {"rental_uris": {"ios": "https://dc.lft.to/lastmile_qr_scan", "android": "https://dc.lft.to/lastmile_qr_scan"}, "type": "electric_scooter", "lon": -77.01933966666667, "lat": 38.922553, "fusion_lon": 0.0, "name": "cf7d8f9d178f32d49c68dd031e902431", "bike_id": "cf7d8f9d178f32d49c68dd031e902431", "is_reserved": 0, "fusion_lat": 0.0, "is_disabled": 0}, {"rental_uris": {"ios": "https://dc.lft.to/lastmile_qr_scan", "android": "https://dc.lft.to/lastmile_qr_scan"}, "type": "electric_bike", "lon": -77.04954833333333, "lat": 39.010935333333336, "fusion_lon": 0.0, "name": "c9fd9a681fd7693b2cde7dc0138ba188", "bike_id": "c9fd9a681fd7693b2cde7dc0138ba188", "is_reserved": 0, "fusion_lat": 0.0, "is_disabled": 0}, {"rental_uris": {"ios": "https://dc.lft.to/lastmile_qr_scan", "android": "https://dc.lft.to/lastmile_qr_scan"}, "type": "electric_scooter", "lon": -77.029476, "lat": 38.91683716666667, "fusion_lon": 0.0, "name": "c26259fb7e8969ab52bdf4084344fae6", "bike_id": "c26259fb7e8969ab52bdf4084344fae6", "is_reserved": 0, "fusion_lat": 0.0, "is_disabled": 0}, {"rental_uris": {"ios": "https://dc.lft.to/lastmile_qr_scan", "android": "https://dc.lft.to/lastmile_qr_scan"}, "type": "electric_bike", "lon": -77.06941983333333, "lat": 38.955483666666666, "fusion_lon": 0.0, "name": "4e86cd73e1ffbac9cad92f0cf07fe8a2", "bike_id": "4e86cd73e1ffbac9cad92f0cf07fe8a2", "is_reserved": 0, "fusion_lat": 0.0, "is_disabled": 0}, {"rental_uris": {"ios": "https://dc.lft.to/lastmile_qr_scan", "android": "https://dc.lft.to/lastmile_qr_scan"}, "type": "electric_scooter", "lon": -77.006093, "lat": 38.88316716666667, "fusion_lon": 0.0, "name": "7c694bfeb791ce8c4d936fe4993ea13b", "bike_id": "7c694bfeb791ce8c4d936fe4993ea13b", "is_reserved": 0, "fusion_lat": 0.0, "is_disabled": 0}, {"rental_uris": {"ios": "https://dc.lft.to/lastmile_qr_scan", "android": "https://dc.lft.to/lastmile_qr_scan"}, "type": "electric_scooter", "lon": -77.04555433333333, "lat": 38.934073, "fusion_lon": 0.0, "name": "67e25315077d6dda74a3b118dff8f7af", "bike_id": "67e25315077d6dda74a3b118dff8f7af", "is_reserved": 0, "fusion_lat": 0.0, "is_disabled": 0}, {"rental_uris": {"ios": "https://dc.lft.to/lastmile_qr_scan", "android": "https://dc.lft.to/lastmile_qr_scan"}, "type": "electric_scooter", "lon": -77.0022575, "lat": 38.885024333333334, "fusion_lon": 0.0, "name": "738cdeab647b2731159f98fe3d99b110", "bike_id": "738cdeab647b2731159f98fe3d99b110", "is_reserved": 0, "fusion_lat": 0.0, "is_disabled": 0}, {"rental_uris": {"ios": "https://dc.lft.to/lastmile_qr_scan", "android": "https://dc.lft.to/lastmile_qr_scan"}, "type": "electric_scooter", "lon": -77.03197, "lat": 38.9079295, "fusion_lon": 0.0, "name": "d6b70f25d4d116d8f845e1eeb8c640d3", "bike_id": "d6b70f25d4d116d8f845e1eeb8c640d3", "is_reserved": 0, "fusion_lat": 0.0, "is_disabled": 0}, {"rental_uris": {"ios": "https://dc.lft.to/lastmile_qr_scan", "android": "https://dc.lft.to/lastmile_qr_scan"}, "type": "electric_scooter", "lon": -76.988262, "lat": 38.878026166666665, "fusion_lon": 0.0, "name": "39ab8053bfd1bfb979dcb86d5bc8cfc8", "bike_id": "39ab8053bfd1bfb979dcb86d5bc8cfc8", "is_reserved": 0, "fusion_lat": 0.0, "is_disabled": 0}, {"rental_uris": {"ios": "https://dc.lft.to/lastmile_qr_scan", "android": "https://dc.lft.to/lastmile_qr_scan"}, "type": "electric_scooter", "lon": -77.03352366666667, "lat": 38.902166333333334, "fusion_lon": 0.0, "name": "a2e7854e431abba94ea6776112dcc78a", "bike_id": "a2e7854e431abba94ea6776112dcc78a", "is_reserved": 0, "fusion_lat": 0.0, "is_disabled": 0}, {"rental_uris": {"ios": "https://dc.lft.to/lastmile_qr_scan", "android": "https://dc.lft.to/lastmile_qr_scan"}, "type": "electric_scooter", "lon": -76.990919, "lat": 38.882403, "fusion_lon": 0.0, "name": "989e4a6c62c1821a55fedbcf90d45a00", "bike_id": "989e4a6c62c1821a55fedbcf90d45a00", "is_reserved": 0, "fusion_lat": 0.0, "is_disabled": 0}, {"rental_uris": {"ios": "https://dc.lft.to/lastmile_qr_scan", "android": "https://dc.lft.to/lastmile_qr_scan"}, "type": "electric_scooter", "lon": -77.04855783333333, "lat": 38.90461883333333, "fusion_lon": 0.0, "name": "7acfc82752cdda83b0a03d73d236093d", "bike_id": "7acfc82752cdda83b0a03d73d236093d", "is_reserved": 0, "fusion_lat": 0.0, "is_disabled": 0}, {"rental_uris": {"ios": "https://dc.lft.to/lastmile_qr_scan", "android": "https://dc.lft.to/lastmile_qr_scan"}, "type": "electric_scooter", "lon": -77.041475, "lat": 38.9145625, "fusion_lon": 0.0, "name": "adbc07b0f3ef91d84c300ff7bcc4dbe8", "bike_id": "adbc07b0f3ef91d84c300ff7bcc4dbe8", "is_reserved": 0, "fusion_lat": 0.0, "is_disabled": 0}, {"rental_uris": {"ios": "https://dc.lft.to/lastmile_qr_scan", "android": "https://dc.lft.to/lastmile_qr_scan"}, "type": "electric_scooter", "lon": -77.053949, "lat": 38.9232945, "fusion_lon": 0.0, "name": "75fb4835c8e7ff3175eddb99690098e3", "bike_id": "75fb4835c8e7ff3175eddb99690098e3", "is_reserved": 0, "fusion_lat": 0.0, "is_disabled": 0}, {"rental_uris": {"ios": "https://dc.lft.to/lastmile_qr_scan", "android": "https://dc.lft.to/lastmile_qr_scan"}, "type": "electric_scooter", "lon": -77.04538583333333, "lat": 38.913242, "fusion_lon": 0.0, "name": "572b8ec2d8f0f0dfb78a6bb681f6110c", "bike_id": "572b8ec2d8f0f0dfb78a6bb681f6110c", "is_reserved": 0, "fusion_lat": 0.0, "is_disabled": 0}, {"rental_uris": {"ios": "https://dc.lft.to/lastmile_qr_scan", "android": "https://dc.lft.to/lastmile_qr_scan"}, "type": "electric_scooter", "lon": -77.03214566666666, "lat": 38.916066, "fusion_lon": 0.0, "name": "f9357bb9e5d543ebbdda8b65dcab7a89", "bike_id": "f9357bb9e5d543ebbdda8b65dcab7a89", "is_reserved": 0, "fusion_lat": 0.0, "is_disabled": 0}, {"rental_uris": {"ios": "https://dc.lft.to/lastmile_qr_scan", "android": "https://dc.lft.to/lastmile_qr_scan"}, "type": "electric_bike", "lon": -77.13925433333333, "lat": 38.84671916666667, "fusion_lon": 0.0, "name": "27cf5a8a21ecab4370c468d172732901", "bike_id": "27cf5a8a21ecab4370c468d172732901", "is_reserved": 0, "fusion_lat": 0.0, "is_disabled": 0}, {"rental_uris": {"ios": "https://dc.lft.to/lastmile_qr_scan", "android": "https://dc.lft.to/lastmile_qr_scan"}, "type": "electric_scooter", "lon": -77.05070933333333, "lat": 38.924109666666666, "fusion_lon": 0.0, "name": "4ceeadb81c0fe32bdbc8427354cef869", "bike_id": "4ceeadb81c0fe32bdbc8427354cef869", "is_reserved": 0, "fusion_lat": 0.0, "is_disabled": 0}, {"rental_uris": {"ios": "https://dc.lft.to/lastmile_qr_scan", "android": "https://dc.lft.to/lastmile_qr_scan"}, "type": "electric_scooter", "lon": -77.022098, "lat": 38.908235833333336, "fusion_lon": 0.0, "name": "e464e65372cbb3f350dee1cc7588a38d", "bike_id": "e464e65372cbb3f350dee1cc7588a38d", "is_reserved": 0, "fusion_lat": 0.0, "is_disabled": 0}, {"rental_uris": {"ios": "https://dc.lft.to/lastmile_qr_scan", "android": "https://dc.lft.to/lastmile_qr_scan"}, "type": "electric_scooter", "lon": -77.0435325, "lat": 38.89689083333333, "fusion_lon": 0.0, "name": "af358642bf2d38cac161a07e22f80fc9", "bike_id": "af358642bf2d38cac161a07e22f80fc9", "is_reserved": 0, "fusion_lat": 0.0, "is_disabled": 0}, {"rental_uris": {"ios": "https://dc.lft.to/lastmile_qr_scan", "android": "https://dc.lft.to/lastmile_qr_scan"}, "type": "electric_scooter", "lon": -77.054954, "lat": 38.90838466666666, "fusion_lon": 0.0, "name": "2388a108b80e0b28e8ac548d15a06779", "bike_id": "2388a108b80e0b28e8ac548d15a06779", "is_reserved": 0, "fusion_lat": 0.0, "is_disabled": 0}, {"rental_uris": {"ios": "https://dc.lft.to/lastmile_qr_scan", "android": "https://dc.lft.to/lastmile_qr_scan"}, "type": "electric_scooter", "lon": -77.0450925, "lat": 38.90783016666666, "fusion_lon": 0.0, "name": "63ea5d2c08ff53392929fdaab0d705c2", "bike_id": "63ea5d2c08ff53392929fdaab0d705c2", "is_reserved": 0, "fusion_lat": 0.0, "is_disabled": 0}, {"rental_uris": {"ios": "https://dc.lft.to/lastmile_qr_scan", "android": "https://dc.lft.to/lastmile_qr_scan"}, "type": "electric_scooter", "lon": -76.99018116666667, "lat": 38.882686, "fusion_lon": 0.0, "name": "3b5a6650cc02842270426ffb1e9af020", "bike_id": "3b5a6650cc02842270426ffb1e9af020", "is_reserved": 0, "fusion_lat": 0.0, "is_disabled": 0}, {"rental_uris": {"ios": "https://dc.lft.to/lastmile_qr_scan", "android": "https://dc.lft.to/lastmile_qr_scan"}, "type": "electric_scooter", "lon": -77.02302266666666, "lat": 38.917329333333335, "fusion_lon": 0.0, "name": "e2245a1a1b6bd32a6656415006a760b8", "bike_id": "e2245a1a1b6bd32a6656415006a760b8", "is_reserved": 0, "fusion_lat": 0.0, "is_disabled": 0}, {"rental_uris": {"ios": "https://dc.lft.to/lastmile_qr_scan", "android": "https://dc.lft.to/lastmile_qr_scan"}, "type": "electric_scooter", "lon": -76.99812666666666, "lat": 38.92925533333333, "fusion_lon": 0.0, "name": "c8982e9fca119e67313b6adad39145ff", "bike_id": "c8982e9fca119e67313b6adad39145ff", "is_reserved": 0, "fusion_lat": 0.0, "is_disabled": 0}, {"rental_uris": {"ios": "https://dc.lft.to/lastmile_qr_scan", "android": "https://dc.lft.to/lastmile_qr_scan"}, "type": "electric_scooter", "lon": -77.02008616666667, "lat": 38.935026666666666, "fusion_lon": 0.0, "name": "a014ff48abbe079beb785c5e7b699105", "bike_id": "a014ff48abbe079beb785c5e7b699105", "is_reserved": 0, "fusion_lat": 0.0, "is_disabled": 0}, {"rental_uris": {"ios": "https://dc.lft.to/lastmile_qr_scan", "android": "https://dc.lft.to/lastmile_qr_scan"}, "type": "electric_scooter", "lon": -77.04367383333333, "lat": 38.92243633333333, "fusion_lon": 0.0, "name": "f9a17aa5006335eaaa802e763466a30a", "bike_id": "f9a17aa5006335eaaa802e763466a30a", "is_reserved": 0, "fusion_lat": 0.0, "is_disabled": 0}, {"rental_uris": {"ios": "https://dc.lft.to/lastmile_qr_scan", "android": "https://dc.lft.to/lastmile_qr_scan"}, "type": "electric_scooter", "lon": -77.06503983333333, "lat": 38.910342666666665, "fusion_lon": 0.0, "name": "e25f8b684ed4d923f425fe7bc34fd475", "bike_id": "e25f8b684ed4d923f425fe7bc34fd475", "is_reserved": 0, "fusion_lat": 0.0, "is_disabled": 0}, {"rental_uris": {"ios": "https://dc.lft.to/lastmile_qr_scan", "android": "https://dc.lft.to/lastmile_qr_scan"}, "type": "electric_scooter", "lon": -77.02175166666666, "lat": 38.91945416666667, "fusion_lon": 0.0, "name": "2be814c39fec8d568d605e1b94500d9c", "bike_id": "2be814c39fec8d568d605e1b94500d9c", "is_reserved": 0, "fusion_lat": 0.0, "is_disabled": 0}, {"rental_uris": {"ios": "https://dc.lft.to/lastmile_qr_scan", "android": "https://dc.lft.to/lastmile_qr_scan"}, "type": "electric_scooter", "lon": -77.02531933333333, "lat": 38.91853966666667, "fusion_lon": 0.0, "name": "a012c7e86745679410eb6e3ffc729b03", "bike_id": "a012c7e86745679410eb6e3ffc729b03", "is_reserved": 0, "fusion_lat": 0.0, "is_disabled": 0}, {"rental_uris": {"ios": "https://dc.lft.to/lastmile_qr_scan", "android": "https://dc.lft.to/lastmile_qr_scan"}, "type": "electric_scooter", "lon": -77.01952783333333, "lat": 38.9232965, "fusion_lon": 0.0, "name": "002b2dc1f39245b0d732caa5ad75a8ec", "bike_id": "002b2dc1f39245b0d732caa5ad75a8ec", "is_reserved": 0, "fusion_lat": 0.0, "is_disabled": 0}, {"rental_uris": {"ios": "https://dc.lft.to/lastmile_qr_scan", "android": "https://dc.lft.to/lastmile_qr_scan"}, "type": "electric_scooter", "lon": -77.01949466666667, "lat": 38.922499333333334, "fusion_lon": 0.0, "name": "d473ad8c13753bc6ddf528e6a7577cae", "bike_id": "d473ad8c13753bc6ddf528e6a7577cae", "is_reserved": 0, "fusion_lat": 0.0, "is_disabled": 0}, {"rental_uris": {"ios": "https://dc.lft.to/lastmile_qr_scan", "android": "https://dc.lft.to/lastmile_qr_scan"}, "type": "electric_scooter", "lon": -77.00994816666666, "lat": 38.9192385, "fusion_lon": 0.0, "name": "288754c3ebb3adfa70732145f5496fb7", "bike_id": "288754c3ebb3adfa70732145f5496fb7", "is_reserved": 0, "fusion_lat": 0.0, "is_disabled": 0}, {"rental_uris": {"ios": "https://dc.lft.to/lastmile_qr_scan", "android": "https://dc.lft.to/lastmile_qr_scan"}, "type": "electric_bike", "lon": -77.34463966666667, "lat": 38.945395, "fusion_lon": 0.0, "name": "e1d50f8cb47d715be1fe607baa21f690", "bike_id": "e1d50f8cb47d715be1fe607baa21f690", "is_reserved": 0, "fusion_lat": 0.0, "is_disabled": 0}, {"rental_uris": {"ios": "https://dc.lft.to/lastmile_qr_scan", "android": "https://dc.lft.to/lastmile_qr_scan"}, "type": "electric_scooter", "lon": -77.021586, "lat": 38.92458716666667, "fusion_lon": 0.0, "name": "601ab41f02148d35ba7cb1080df6ec73", "bike_id": "601ab41f02148d35ba7cb1080df6ec73", "is_reserved": 0, "fusion_lat": 0.0, "is_disabled": 0}, {"rental_uris": {"ios": "https://dc.lft.to/lastmile_qr_scan", "android": "https://dc.lft.to/lastmile_qr_scan"}, "type": "electric_scooter", "lon": -77.002007, "lat": 38.914751333333335, "fusion_lon": 0.0, "name": "3b5d2cfc3d32be889673385271992313", "bike_id": "3b5d2cfc3d32be889673385271992313", "is_reserved": 0, "fusion_lat": 0.0, "is_disabled": 0}, {"rental_uris": {"ios": "https://dc.lft.to/lastmile_qr_scan", "android": "https://dc.lft.to/lastmile_qr_scan"}, "type": "electric_scooter", "lon": -77.0239285, "lat": 38.920733, "fusion_lon": 0.0, "name": "ede7369ebb99329aeacf8f0af4d2c745", "bike_id": "ede7369ebb99329aeacf8f0af4d2c745", "is_reserved": 0, "fusion_lat": 0.0, "is_disabled": 0}, {"rental_uris": {"ios": "https://dc.lft.to/lastmile_qr_scan", "android": "https://dc.lft.to/lastmile_qr_scan"}, "type": "electric_scooter", "lon": -76.936751, "lat": 38.8865835, "fusion_lon": 0.0, "name": "83f574c1bc595ee62d376b3d0c0f043e", "bike_id": "83f574c1bc595ee62d376b3d0c0f043e", "is_reserved": 0, "fusion_lat": 0.0, "is_disabled": 0}, {"rental_uris": {"ios": "https://dc.lft.to/lastmile_qr_scan", "android": "https://dc.lft.to/lastmile_qr_scan"}, "type": "electric_scooter", "lon": -77.0078165, "lat": 38.907492500000004, "fusion_lon": 0.0, "name": "fdd89675463004f85cb0ce0eb9c4c882", "bike_id": "fdd89675463004f85cb0ce0eb9c4c882", "is_reserved": 0, "fusion_lat": 0.0, "is_disabled": 0}, {"rental_uris": {"ios": "https://dc.lft.to/lastmile_qr_scan", "android": "https://dc.lft.to/lastmile_qr_scan"}, "type": "electric_scooter", "lon": -77.06843266666667, "lat": 38.91715633333333, "fusion_lon": 0.0, "name": "c171131921af10dd8d68bb048b25a550", "bike_id": "c171131921af10dd8d68bb048b25a550", "is_reserved": 0, "fusion_lat": 0.0, "is_disabled": 0}, {"rental_uris": {"ios": "https://dc.lft.to/lastmile_qr_scan", "android": "https://dc.lft.to/lastmile_qr_scan"}, "type": "electric_scooter", "lon": -77.02218433333333, "lat": 38.92470483333334, "fusion_lon": 0.0, "name": "b11cb9bdd0e780fff8c54052ffc75387", "bike_id": "b11cb9bdd0e780fff8c54052ffc75387", "is_reserved": 0, "fusion_lat": 0.0, "is_disabled": 0}, {"rental_uris": {"ios": "https://dc.lft.to/lastmile_qr_scan", "android": "https://dc.lft.to/lastmile_qr_scan"}, "type": "electric_bike", "lon": -76.95145516666666, "lat": 39.084316, "fusion_lon": 0.0, "name": "46fc4e5425317a3686b6cc0c24e15f1d", "bike_id": "46fc4e5425317a3686b6cc0c24e15f1d", "is_reserved": 0, "fusion_lat": 0.0, "is_disabled": 0}, {"rental_uris": {"ios": "https://dc.lft.to/lastmile_qr_scan", "android": "https://dc.lft.to/lastmile_qr_scan"}, "type": "electric_scooter", "lon": -77.04390883333333, "lat": 38.92115366666667, "fusion_lon": 0.0, "name": "3b666d3925d71ae97f99e959adf9779b", "bike_id": "3b666d3925d71ae97f99e959adf9779b", "is_reserved": 0, "fusion_lat": 0.0, "is_disabled": 0}, {"rental_uris": {"ios": "https://dc.lft.to/lastmile_qr_scan", "android": "https://dc.lft.to/lastmile_qr_scan"}, "type": "electric_scooter", "lon": -76.92609466666667, "lat": 38.8845835, "fusion_lon": 0.0, "name": "f729ae557736b67695387573a1e95382", "bike_id": "f729ae557736b67695387573a1e95382", "is_reserved": 0, "fusion_lat": 0.0, "is_disabled": 0}, {"rental_uris": {"ios": "https://dc.lft.to/lastmile_qr_scan", "android": "https://dc.lft.to/lastmile_qr_scan"}, "type": "electric_scooter", "lon": -77.02163766666666, "lat": 38.892205833333335, "fusion_lon": 0.0, "name": "c21e7e358be2a869c8acc9179b39f487", "bike_id": "c21e7e358be2a869c8acc9179b39f487", "is_reserved": 0, "fusion_lat": 0.0, "is_disabled": 0}, {"rental_uris": {"ios": "https://dc.lft.to/lastmile_qr_scan", "android": "https://dc.lft.to/lastmile_qr_scan"}, "type": "electric_scooter", "lon": -76.949808, "lat": 38.901653333333336, "fusion_lon": 0.0, "name": "df73b02bc4db6053fd10dac49b158c71", "bike_id": "df73b02bc4db6053fd10dac49b158c71", "is_reserved": 0, "fusion_lat": 0.0, "is_disabled": 0}, {"rental_uris": {"ios": "https://dc.lft.to/lastmile_qr_scan", "android": "https://dc.lft.to/lastmile_qr_scan"}, "type": "electric_scooter", "lon": -77.05845933333333, "lat": 38.93590783333333, "fusion_lon": 0.0, "name": "d9581ab98e1d1c4c554450917597c825", "bike_id": "d9581ab98e1d1c4c554450917597c825", "is_reserved": 0, "fusion_lat": 0.0, "is_disabled": 0}, {"rental_uris": {"ios": "https://dc.lft.to/lastmile_qr_scan", "android": "https://dc.lft.to/lastmile_qr_scan"}, "type": "electric_scooter", "lon": -77.0035405, "lat": 38.91112283333333, "fusion_lon": 0.0, "name": "51f4fd6ad1b2e6313db82f42c79519c3", "bike_id": "51f4fd6ad1b2e6313db82f42c79519c3", "is_reserved": 0, "fusion_lat": 0.0, "is_disabled": 0}, {"rental_uris": {"ios": "https://dc.lft.to/lastmile_qr_scan", "android": "https://dc.lft.to/lastmile_qr_scan"}, "type": "electric_scooter", "lon": -77.01253433333333, "lat": 38.9018005, "fusion_lon": 0.0, "name": "dadd37068c70e5ae8a7bc2c2d8f38a5d", "bike_id": "dadd37068c70e5ae8a7bc2c2d8f38a5d", "is_reserved": 0, "fusion_lat": 0.0, "is_disabled": 0}, {"rental_uris": {"ios": "https://dc.lft.to/lastmile_qr_scan", "android": "https://dc.lft.to/lastmile_qr_scan"}, "type": "electric_scooter", "lon": -77.04869416666666, "lat": 38.90479633333333, "fusion_lon": 0.0, "name": "5e851f56691db093e55aed5ffc4ea1be", "bike_id": "5e851f56691db093e55aed5ffc4ea1be", "is_reserved": 0, "fusion_lat": 0.0, "is_disabled": 0}, {"rental_uris": {"ios": "https://dc.lft.to/lastmile_qr_scan", "android": "https://dc.lft.to/lastmile_qr_scan"}, "type": "electric_bike", "lon": -77.090233, "lat": 38.92654533333334, "fusion_lon": 0.0, "name": "e72f2b2b1a2a1658850e303bc79411fb", "bike_id": "e72f2b2b1a2a1658850e303bc79411fb", "is_reserved": 0, "fusion_lat": 0.0, "is_disabled": 0}, {"rental_uris": {"ios": "https://dc.lft.to/lastmile_qr_scan", "android": "https://dc.lft.to/lastmile_qr_scan"}, "type": "electric_scooter", "lon": -77.028942, "lat": 38.916945, "fusion_lon": 0.0, "name": "062188bf35cffb52c3901f17b6bd369b", "bike_id": "062188bf35cffb52c3901f17b6bd369b", "is_reserved": 0, "fusion_lat": 0.0, "is_disabled": 0}, {"rental_uris": {"ios": "https://dc.lft.to/lastmile_qr_scan", "android": "https://dc.lft.to/lastmile_qr_scan"}, "type": "electric_bike", "lon": -76.98677316666667, "lat": 38.899651666666664, "fusion_lon": 0.0, "name": "516c54100381d9469663621e7bb84428", "bike_id": "516c54100381d9469663621e7bb84428", "is_reserved": 0, "fusion_lat": 0.0, "is_disabled": 0}, {"rental_uris": {"ios": "https://dc.lft.to/lastmile_qr_scan", "android": "https://dc.lft.to/lastmile_qr_scan"}, "type": "electric_scooter", "lon": -77.02665633333334, "lat": 38.92212716666667, "fusion_lon": 0.0, "name": "bc95ab7580ab868496c4956bb3f38ac6", "bike_id": "bc95ab7580ab868496c4956bb3f38ac6", "is_reserved": 0, "fusion_lat": 0.0, "is_disabled": 0}, {"rental_uris": {"ios": "https://dc.lft.to/lastmile_qr_scan", "android": "https://dc.lft.to/lastmile_qr_scan"}, "type": "electric_scooter", "lon": -77.04599383333333, "lat": 38.90245616666667, "fusion_lon": 0.0, "name": "af3425660b9c29aa314b867f252815b6", "bike_id": "af3425660b9c29aa314b867f252815b6", "is_reserved": 0, "fusion_lat": 0.0, "is_disabled": 0}, {"rental_uris": {"ios": "https://dc.lft.to/lastmile_qr_scan", "android": "https://dc.lft.to/lastmile_qr_scan"}, "type": "electric_scooter", "lon": -77.02175583333333, "lat": 38.920134, "fusion_lon": 0.0, "name": "6bc7923c88606cb7ba96cda3d5146b4f", "bike_id": "6bc7923c88606cb7ba96cda3d5146b4f", "is_reserved": 0, "fusion_lat": 0.0, "is_disabled": 0}, {"rental_uris": {"ios": "https://dc.lft.to/lastmile_qr_scan", "android": "https://dc.lft.to/lastmile_qr_scan"}, "type": "electric_scooter", "lon": -77.0135345, "lat": 38.96228333333333, "fusion_lon": 0.0, "name": "f89a944366c300bacf2ad1a98419f62f", "bike_id": "f89a944366c300bacf2ad1a98419f62f", "is_reserved": 0, "fusion_lat": 0.0, "is_disabled": 0}, {"rental_uris": {"ios": "https://dc.lft.to/lastmile_qr_scan", "android": "https://dc.lft.to/lastmile_qr_scan"}, "type": "electric_scooter", "lon": -77.04585316666666, "lat": 38.902590000000004, "fusion_lon": 0.0, "name": "a9bbfd1c12137d154480c34cdceccafa", "bike_id": "a9bbfd1c12137d154480c34cdceccafa", "is_reserved": 0, "fusion_lat": 0.0, "is_disabled": 0}, {"rental_uris": {"ios": "https://dc.lft.to/lastmile_qr_scan", "android": "https://dc.lft.to/lastmile_qr_scan"}, "type": "electric_scooter", "lon": -77.0447095, "lat": 38.89218, "fusion_lon": 0.0, "name": "5c5515049cf7fe71a1581a72ef88e3df", "bike_id": "5c5515049cf7fe71a1581a72ef88e3df", "is_reserved": 0, "fusion_lat": 0.0, "is_disabled": 0}, {"rental_uris": {"ios": "https://dc.lft.to/lastmile_qr_scan", "android": "https://dc.lft.to/lastmile_qr_scan"}, "type": "electric_scooter", "lon": -77.03269766666666, "lat": 38.92966116666667, "fusion_lon": 0.0, "name": "55c78d65b4ed3503baf4d813da48e1bd", "bike_id": "55c78d65b4ed3503baf4d813da48e1bd", "is_reserved": 0, "fusion_lat": 0.0, "is_disabled": 0}, {"rental_uris": {"ios": "https://dc.lft.to/lastmile_qr_scan", "android": "https://dc.lft.to/lastmile_qr_scan"}, "type": "electric_scooter", "lon": -77.00616766666667, "lat": 38.883207666666664, "fusion_lon": 0.0, "name": "97a71e4ee0d2c5c4a65693b754645848", "bike_id": "97a71e4ee0d2c5c4a65693b754645848", "is_reserved": 0, "fusion_lat": 0.0, "is_disabled": 0}, {"rental_uris": {"ios": "https://dc.lft.to/lastmile_qr_scan", "android": "https://dc.lft.to/lastmile_qr_scan"}, "type": "electric_bike", "lon": -77.0543885, "lat": 38.784611, "fusion_lon": 0.0, "name": "4f1d3e87ce88df5ea2a4166807634f0f", "bike_id": "4f1d3e87ce88df5ea2a4166807634f0f", "is_reserved": 0, "fusion_lat": 0.0, "is_disabled": 0}, {"rental_uris": {"ios": "https://dc.lft.to/lastmile_qr_scan", "android": "https://dc.lft.to/lastmile_qr_scan"}, "type": "electric_scooter", "lon": -77.043438, "lat": 38.90042016666666, "fusion_lon": 0.0, "name": "4be3867376e11a1532727c055e5ea911", "bike_id": "4be3867376e11a1532727c055e5ea911", "is_reserved": 0, "fusion_lat": 0.0, "is_disabled": 0}, {"rental_uris": {"ios": "https://dc.lft.to/lastmile_qr_scan", "android": "https://dc.lft.to/lastmile_qr_scan"}, "type": "electric_scooter", "lon": -77.02982466666667, "lat": 38.8960985, "fusion_lon": 0.0, "name": "470cefbcdcf3d194f2528069d314de42", "bike_id": "470cefbcdcf3d194f2528069d314de42", "is_reserved": 0, "fusion_lat": 0.0, "is_disabled": 0}, {"rental_uris": {"ios": "https://dc.lft.to/lastmile_qr_scan", "android": "https://dc.lft.to/lastmile_qr_scan"}, "type": "electric_scooter", "lon": -77.04272833333333, "lat": 38.89223233333333, "fusion_lon": 0.0, "name": "dec9f678af05dbdf6d01c7dc9b9a9f35", "bike_id": "dec9f678af05dbdf6d01c7dc9b9a9f35", "is_reserved": 0, "fusion_lat": 0.0, "is_disabled": 0}, {"rental_uris": {"ios": "https://dc.lft.to/lastmile_qr_scan", "android": "https://dc.lft.to/lastmile_qr_scan"}, "type": "electric_scooter", "lon": -77.0219545, "lat": 38.91980566666667, "fusion_lon": 0.0, "name": "85553c3e0a074a79c03d08aa3cd53c41", "bike_id": "85553c3e0a074a79c03d08aa3cd53c41", "is_reserved": 0, "fusion_lat": 0.0, "is_disabled": 0}, {"rental_uris": {"ios": "https://dc.lft.to/lastmile_qr_scan", "android": "https://dc.lft.to/lastmile_qr_scan"}, "type": "electric_scooter", "lon": -77.02269566666666, "lat": 38.91270633333333, "fusion_lon": 0.0, "name": "445a00c03c3d3b4319dc46ae65afd8a0", "bike_id": "445a00c03c3d3b4319dc46ae65afd8a0", "is_reserved": 0, "fusion_lat": 0.0, "is_disabled": 0}, {"rental_uris": {"ios": "https://dc.lft.to/lastmile_qr_scan", "android": "https://dc.lft.to/lastmile_qr_scan"}, "type": "electric_scooter", "lon": -77.00226716666667, "lat": 38.925062, "fusion_lon": 0.0, "name": "283cd76fb3d533ee30c907021c336cf5", "bike_id": "283cd76fb3d533ee30c907021c336cf5", "is_reserved": 0, "fusion_lat": 0.0, "is_disabled": 0}, {"rental_uris": {"ios": "https://dc.lft.to/lastmile_qr_scan", "android": "https://dc.lft.to/lastmile_qr_scan"}, "type": "electric_scooter", "lon": -77.04641566666666, "lat": 38.8950355, "fusion_lon": 0.0, "name": "2c15cdc9c442b34268c83a08bcaba034", "bike_id": "2c15cdc9c442b34268c83a08bcaba034", "is_reserved": 0, "fusion_lat": 0.0, "is_disabled": 0}, {"rental_uris": {"ios": "https://dc.lft.to/lastmile_qr_scan", "android": "https://dc.lft.to/lastmile_qr_scan"}, "type": "electric_scooter", "lon": -77.04557333333334, "lat": 38.9194485, "fusion_lon": 0.0, "name": "36c484e60a2f3062d138859d73943abf", "bike_id": "36c484e60a2f3062d138859d73943abf", "is_reserved": 0, "fusion_lat": 0.0, "is_disabled": 0}, {"rental_uris": {"ios": "https://dc.lft.to/lastmile_qr_scan", "android": "https://dc.lft.to/lastmile_qr_scan"}, "type": "electric_scooter", "lon": -77.0269145, "lat": 38.902527166666665, "fusion_lon": 0.0, "name": "b004e03f377c230efa7692b9687c1263", "bike_id": "b004e03f377c230efa7692b9687c1263", "is_reserved": 0, "fusion_lat": 0.0, "is_disabled": 0}, {"rental_uris": {"ios": "https://dc.lft.to/lastmile_qr_scan", "android": "https://dc.lft.to/lastmile_qr_scan"}, "type": "electric_scooter", "lon": -77.03187116666666, "lat": 38.90263316666667, "fusion_lon": 0.0, "name": "21a82448910a887e81054c4047d72581", "bike_id": "21a82448910a887e81054c4047d72581", "is_reserved": 0, "fusion_lat": 0.0, "is_disabled": 0}, {"rental_uris": {"ios": "https://dc.lft.to/lastmile_qr_scan", "android": "https://dc.lft.to/lastmile_qr_scan"}, "type": "electric_scooter", "lon": -77.009134, "lat": 38.957612, "fusion_lon": 0.0, "name": "9eaffc60ad3fdfe5f108b38e21ab1191", "bike_id": "9eaffc60ad3fdfe5f108b38e21ab1191", "is_reserved": 0, "fusion_lat": 0.0, "is_disabled": 0}, {"rental_uris": {"ios": "https://dc.lft.to/lastmile_qr_scan", "android": "https://dc.lft.to/lastmile_qr_scan"}, "type": "electric_scooter", "lon": -77.02669, "lat": 38.9217315, "fusion_lon": 0.0, "name": "108d93ba4776d824d5807c57d721c6d2", "bike_id": "108d93ba4776d824d5807c57d721c6d2", "is_reserved": 0, "fusion_lat": 0.0, "is_disabled": 0}, {"rental_uris": {"ios": "https://dc.lft.to/lastmile_qr_scan", "android": "https://dc.lft.to/lastmile_qr_scan"}, "type": "electric_scooter", "lon": -77.033041, "lat": 38.956299666666666, "fusion_lon": 0.0, "name": "8207c0d10a066726057fa7133391f6c8", "bike_id": "8207c0d10a066726057fa7133391f6c8", "is_reserved": 0, "fusion_lat": 0.0, "is_disabled": 0}, {"rental_uris": {"ios": "https://dc.lft.to/lastmile_qr_scan", "android": "https://dc.lft.to/lastmile_qr_scan"}, "type": "electric_scooter", "lon": -77.02030266666667, "lat": 38.924137333333334, "fusion_lon": 0.0, "name": "49f0e40c24ae5ad34faade91551f9d43", "bike_id": "49f0e40c24ae5ad34faade91551f9d43", "is_reserved": 0, "fusion_lat": 0.0, "is_disabled": 0}, {"rental_uris": {"ios": "https://dc.lft.to/lastmile_qr_scan", "android": "https://dc.lft.to/lastmile_qr_scan"}, "type": "electric_scooter", "lon": -77.00627016666667, "lat": 38.915057833333336, "fusion_lon": 0.0, "name": "be80d2297a7e96261128cdfdc7cc31be", "bike_id": "be80d2297a7e96261128cdfdc7cc31be", "is_reserved": 0, "fusion_lat": 0.0, "is_disabled": 0}, {"rental_uris": {"ios": "https://dc.lft.to/lastmile_qr_scan", "android": "https://dc.lft.to/lastmile_qr_scan"}, "type": "electric_scooter", "lon": -77.01044266666666, "lat": 38.955159, "fusion_lon": 0.0, "name": "d8eadd5d4f29bf2a0e19b9921f7394f0", "bike_id": "d8eadd5d4f29bf2a0e19b9921f7394f0", "is_reserved": 0, "fusion_lat": 0.0, "is_disabled": 0}, {"rental_uris": {"ios": "https://dc.lft.to/lastmile_qr_scan", "android": "https://dc.lft.to/lastmile_qr_scan"}, "type": "electric_bike", "lon": -76.97623883333333, "lat": 38.892896666666665, "fusion_lon": 0.0, "name": "acb842155fbcdf8694ad4145a8b0799c", "bike_id": "acb842155fbcdf8694ad4145a8b0799c", "is_reserved": 0, "fusion_lat": 0.0, "is_disabled": 0}, {"rental_uris": {"ios": "https://dc.lft.to/lastmile_qr_scan", "android": "https://dc.lft.to/lastmile_qr_scan"}, "type": "electric_scooter", "lon": -77.02163366666667, "lat": 38.92614, "fusion_lon": 0.0, "name": "3cedf340057e5d6cbe76b4ee53be4c38", "bike_id": "3cedf340057e5d6cbe76b4ee53be4c38", "is_reserved": 0, "fusion_lat": 0.0, "is_disabled": 0}, {"rental_uris": {"ios": "https://dc.lft.to/lastmile_qr_scan", "android": "https://dc.lft.to/lastmile_qr_scan"}, "type": "electric_scooter", "lon": -77.04357666666667, "lat": 38.900354166666666, "fusion_lon": 0.0, "name": "d82849c003871c09820bbffc9c812246", "bike_id": "d82849c003871c09820bbffc9c812246", "is_reserved": 0, "fusion_lat": 0.0, "is_disabled": 0}, {"rental_uris": {"ios": "https://dc.lft.to/lastmile_qr_scan", "android": "https://dc.lft.to/lastmile_qr_scan"}, "type": "electric_scooter", "lon": -77.00217566666667, "lat": 38.8925685, "fusion_lon": 0.0, "name": "f0579e10c6f3a51f4a5674b19384a8b1", "bike_id": "f0579e10c6f3a51f4a5674b19384a8b1", "is_reserved": 0, "fusion_lat": 0.0, "is_disabled": 0}, {"rental_uris": {"ios": "https://dc.lft.to/lastmile_qr_scan", "android": "https://dc.lft.to/lastmile_qr_scan"}, "type": "electric_scooter", "lon": -77.04367383333333, "lat": 38.892205, "fusion_lon": 0.0, "name": "d4e87bb5dbb8fd4323c8cccb87b218e8", "bike_id": "d4e87bb5dbb8fd4323c8cccb87b218e8", "is_reserved": 0, "fusion_lat": 0.0, "is_disabled": 0}, {"rental_uris": {"ios": "https://dc.lft.to/lastmile_qr_scan", "android": "https://dc.lft.to/lastmile_qr_scan"}, "type": "electric_scooter", "lon": -77.0238515, "lat": 38.89614783333333, "fusion_lon": 0.0, "name": "7df93538db6928864c24cddff4043803", "bike_id": "7df93538db6928864c24cddff4043803", "is_reserved": 0, "fusion_lat": 0.0, "is_disabled": 0}, {"rental_uris": {"ios": "https://dc.lft.to/lastmile_qr_scan", "android": "https://dc.lft.to/lastmile_qr_scan"}, "type": "electric_scooter", "lon": -77.03359033333334, "lat": 38.89962633333333, "fusion_lon": 0.0, "name": "d818b748cbb7bad9e0b1b5873a9283ef", "bike_id": "d818b748cbb7bad9e0b1b5873a9283ef", "is_reserved": 0, "fusion_lat": 0.0, "is_disabled": 0}, {"rental_uris": {"ios": "https://dc.lft.to/lastmile_qr_scan", "android": "https://dc.lft.to/lastmile_qr_scan"}, "type": "electric_scooter", "lon": -77.0710855, "lat": 38.919801, "fusion_lon": 0.0, "name": "45215010325596e14585845d18065ef9", "bike_id": "45215010325596e14585845d18065ef9", "is_reserved": 0, "fusion_lat": 0.0, "is_disabled": 0}, {"rental_uris": {"ios": "https://dc.lft.to/lastmile_qr_scan", "android": "https://dc.lft.to/lastmile_qr_scan"}, "type": "electric_scooter", "lon": -77.04472366666667, "lat": 38.91599216666667, "fusion_lon": 0.0, "name": "d7a3590687a9e337ca8665c375c97f7f", "bike_id": "d7a3590687a9e337ca8665c375c97f7f", "is_reserved": 0, "fusion_lat": 0.0, "is_disabled": 0}, {"rental_uris": {"ios": "https://dc.lft.to/lastmile_qr_scan", "android": "https://dc.lft.to/lastmile_qr_scan"}, "type": "electric_scooter", "lon": -77.05009766666667, "lat": 38.900378833333335, "fusion_lon": 0.0, "name": "8dc02d7c248099f9f89d979c2d492061", "bike_id": "8dc02d7c248099f9f89d979c2d492061", "is_reserved": 0, "fusion_lat": 0.0, "is_disabled": 0}, {"rental_uris": {"ios": "https://dc.lft.to/lastmile_qr_scan", "android": "https://dc.lft.to/lastmile_qr_scan"}, "type": "electric_scooter", "lon": -77.04514166666667, "lat": 38.911235166666664, "fusion_lon": 0.0, "name": "96de6d850f68f5e0cc2db6046eda2a9f", "bike_id": "96de6d850f68f5e0cc2db6046eda2a9f", "is_reserved": 0, "fusion_lat": 0.0, "is_disabled": 0}, {"rental_uris": {"ios": "https://dc.lft.to/lastmile_qr_scan", "android": "https://dc.lft.to/lastmile_qr_scan"}, "type": "electric_scooter", "lon": -77.0320865, "lat": 38.927577666666664, "fusion_lon": 0.0, "name": "ca6b5f192969a377bd2c452fcc144a30", "bike_id": "ca6b5f192969a377bd2c452fcc144a30", "is_reserved": 0, "fusion_lat": 0.0, "is_disabled": 0}, {"rental_uris": {"ios": "https://dc.lft.to/lastmile_qr_scan", "android": "https://dc.lft.to/lastmile_qr_scan"}, "type": "electric_scooter", "lon": -77.068527, "lat": 38.9038745, "fusion_lon": 0.0, "name": "1b0ba80986f9c05355e11b1c72e2fc67", "bike_id": "1b0ba80986f9c05355e11b1c72e2fc67", "is_reserved": 0, "fusion_lat": 0.0, "is_disabled": 0}, {"rental_uris": {"ios": "https://dc.lft.to/lastmile_qr_scan", "android": "https://dc.lft.to/lastmile_qr_scan"}, "type": "electric_scooter", "lon": -77.05997783333333, "lat": 38.938114, "fusion_lon": 0.0, "name": "d2ab50045d2b74ae8ba96e4e797eb459", "bike_id": "d2ab50045d2b74ae8ba96e4e797eb459", "is_reserved": 0, "fusion_lat": 0.0, "is_disabled": 0}, {"rental_uris": {"ios": "https://dc.lft.to/lastmile_qr_scan", "android": "https://dc.lft.to/lastmile_qr_scan"}, "type": "electric_scooter", "lon": -77.03460333333334, "lat": 38.90419116666666, "fusion_lon": 0.0, "name": "d9bae3713542580565f0424430b7c9a1", "bike_id": "d9bae3713542580565f0424430b7c9a1", "is_reserved": 0, "fusion_lat": 0.0, "is_disabled": 0}, {"rental_uris": {"ios": "https://dc.lft.to/lastmile_qr_scan", "android": "https://dc.lft.to/lastmile_qr_scan"}, "type": "electric_scooter", "lon": -76.9827195, "lat": 38.903471833333334, "fusion_lon": 0.0, "name": "81eac6de683e23e99ed372a2e0ef7c99", "bike_id": "81eac6de683e23e99ed372a2e0ef7c99", "is_reserved": 0, "fusion_lat": 0.0, "is_disabled": 0}, {"rental_uris": {"ios": "https://dc.lft.to/lastmile_qr_scan", "android": "https://dc.lft.to/lastmile_qr_scan"}, "type": "electric_scooter", "lon": -77.02570916666667, "lat": 38.8874515, "fusion_lon": 0.0, "name": "fcc089e712df2168cf1230c5f5c6cabc", "bike_id": "fcc089e712df2168cf1230c5f5c6cabc", "is_reserved": 0, "fusion_lat": 0.0, "is_disabled": 0}, {"rental_uris": {"ios": "https://dc.lft.to/lastmile_qr_scan", "android": "https://dc.lft.to/lastmile_qr_scan"}, "type": "electric_scooter", "lon": -77.02852266666666, "lat": 38.92236333333334, "fusion_lon": 0.0, "name": "fbf3aabc37679e7cecd05a47f73df0cd", "bike_id": "fbf3aabc37679e7cecd05a47f73df0cd", "is_reserved": 0, "fusion_lat": 0.0, "is_disabled": 0}, {"rental_uris": {"ios": "https://dc.lft.to/lastmile_qr_scan", "android": "https://dc.lft.to/lastmile_qr_scan"}, "type": "electric_scooter", "lon": -77.040834, "lat": 38.9003535, "fusion_lon": 0.0, "name": "e948d9e0f366bcf1008a7f04a663729e", "bike_id": "e948d9e0f366bcf1008a7f04a663729e", "is_reserved": 0, "fusion_lat": 0.0, "is_disabled": 0}, {"rental_uris": {"ios": "https://dc.lft.to/lastmile_qr_scan", "android": "https://dc.lft.to/lastmile_qr_scan"}, "type": "electric_scooter", "lon": -77.06856633333334, "lat": 38.95254716666667, "fusion_lon": 0.0, "name": "f6e9569805e6b5b2db5432a925feb1bd", "bike_id": "f6e9569805e6b5b2db5432a925feb1bd", "is_reserved": 0, "fusion_lat": 0.0, "is_disabled": 0}, {"rental_uris": {"ios": "https://dc.lft.to/lastmile_qr_scan", "android": "https://dc.lft.to/lastmile_qr_scan"}, "type": "electric_scooter", "lon": -77.025046, "lat": 38.92643233333333, "fusion_lon": 0.0, "name": "0e91a5a36c520e819333ad3b396d4b5c", "bike_id": "0e91a5a36c520e819333ad3b396d4b5c", "is_reserved": 0, "fusion_lat": 0.0, "is_disabled": 0}, {"rental_uris": {"ios": "https://dc.lft.to/lastmile_qr_scan", "android": "https://dc.lft.to/lastmile_qr_scan"}, "type": "electric_scooter", "lon": -77.01646366666667, "lat": 38.8771005, "fusion_lon": 0.0, "name": "2d40dfc9a58a5f11d5f13e8ecf777c57", "bike_id": "2d40dfc9a58a5f11d5f13e8ecf777c57", "is_reserved": 0, "fusion_lat": 0.0, "is_disabled": 0}, {"rental_uris": {"ios": "https://dc.lft.to/lastmile_qr_scan", "android": "https://dc.lft.to/lastmile_qr_scan"}, "type": "electric_scooter", "lon": -77.00331416666667, "lat": 38.89361566666667, "fusion_lon": 0.0, "name": "8a5d638f17619aab02b1739caabd2ef4", "bike_id": "8a5d638f17619aab02b1739caabd2ef4", "is_reserved": 0, "fusion_lat": 0.0, "is_disabled": 0}, {"rental_uris": {"ios": "https://dc.lft.to/lastmile_qr_scan", "android": "https://dc.lft.to/lastmile_qr_scan"}, "type": "electric_scooter", "lon": -77.0034475, "lat": 38.89382666666667, "fusion_lon": 0.0, "name": "82cc4abff5c8d2128e0dda04468f8dbc", "bike_id": "82cc4abff5c8d2128e0dda04468f8dbc", "is_reserved": 0, "fusion_lat": 0.0, "is_disabled": 0}, {"rental_uris": {"ios": "https://dc.lft.to/lastmile_qr_scan", "android": "https://dc.lft.to/lastmile_qr_scan"}, "type": "electric_scooter", "lon": -77.03098766666666, "lat": 38.89751166666667, "fusion_lon": 0.0, "name": "b01f83807ee5292029b415c5084581f1", "bike_id": "b01f83807ee5292029b415c5084581f1", "is_reserved": 0, "fusion_lat": 0.0, "is_disabled": 0}, {"rental_uris": {"ios": "https://dc.lft.to/lastmile_qr_scan", "android": "https://dc.lft.to/lastmile_qr_scan"}, "type": "electric_scooter", "lon": -77.042002, "lat": 38.92968883333333, "fusion_lon": 0.0, "name": "8dd0c36eb3b74d78051c8d7ec3de69e6", "bike_id": "8dd0c36eb3b74d78051c8d7ec3de69e6", "is_reserved": 0, "fusion_lat": 0.0, "is_disabled": 0}, {"rental_uris": {"ios": "https://dc.lft.to/lastmile_qr_scan", "android": "https://dc.lft.to/lastmile_qr_scan"}, "type": "electric_scooter", "lon": -77.03179666666666, "lat": 38.91354883333333, "fusion_lon": 0.0, "name": "acb14f544d7b72d1aec2c8cb8af7b159", "bike_id": "acb14f544d7b72d1aec2c8cb8af7b159", "is_reserved": 0, "fusion_lat": 0.0, "is_disabled": 0}, {"rental_uris": {"ios": "https://dc.lft.to/lastmile_qr_scan", "android": "https://dc.lft.to/lastmile_qr_scan"}, "type": "electric_scooter", "lon": -77.02250133333334, "lat": 38.9019955, "fusion_lon": 0.0, "name": "c372091934aa1d8b2772ba8c111a73ac", "bike_id": "c372091934aa1d8b2772ba8c111a73ac", "is_reserved": 0, "fusion_lat": 0.0, "is_disabled": 0}, {"rental_uris": {"ios": "https://dc.lft.to/lastmile_qr_scan", "android": "https://dc.lft.to/lastmile_qr_scan"}, "type": "electric_scooter", "lon": -77.020447, "lat": 38.90267033333333, "fusion_lon": 0.0, "name": "20873d7b0954844faa1293bb31a60f7d", "bike_id": "20873d7b0954844faa1293bb31a60f7d", "is_reserved": 0, "fusion_lat": 0.0, "is_disabled": 0}, {"rental_uris": {"ios": "https://dc.lft.to/lastmile_qr_scan", "android": "https://dc.lft.to/lastmile_qr_scan"}, "type": "electric_scooter", "lon": -77.03110566666666, "lat": 38.91914366666666, "fusion_lon": 0.0, "name": "85f3daa5705857c2636650a47e846794", "bike_id": "85f3daa5705857c2636650a47e846794", "is_reserved": 0, "fusion_lat": 0.0, "is_disabled": 0}, {"rental_uris": {"ios": "https://dc.lft.to/lastmile_qr_scan", "android": "https://dc.lft.to/lastmile_qr_scan"}, "type": "electric_scooter", "lon": -77.0432135, "lat": 38.908872, "fusion_lon": 0.0, "name": "01b19ccd56934fc2a8de80fe8282b582", "bike_id": "01b19ccd56934fc2a8de80fe8282b582", "is_reserved": 0, "fusion_lat": 0.0, "is_disabled": 0}, {"rental_uris": {"ios": "https://dc.lft.to/lastmile_qr_scan", "android": "https://dc.lft.to/lastmile_qr_scan"}, "type": "electric_scooter", "lon": -77.0107645, "lat": 38.90790366666667, "fusion_lon": 0.0, "name": "a4b5381a825266c98f9a35c30d8507c3", "bike_id": "a4b5381a825266c98f9a35c30d8507c3", "is_reserved": 0, "fusion_lat": 0.0, "is_disabled": 0}, {"rental_uris": {"ios": "https://dc.lft.to/lastmile_qr_scan", "android": "https://dc.lft.to/lastmile_qr_scan"}, "type": "electric_scooter", "lon": -76.9916355, "lat": 38.89159933333333, "fusion_lon": 0.0, "name": "69cc15b4d78b576e37bac85f10e522d5", "bike_id": "69cc15b4d78b576e37bac85f10e522d5", "is_reserved": 0, "fusion_lat": 0.0, "is_disabled": 0}, {"rental_uris": {"ios": "https://dc.lft.to/lastmile_qr_scan", "android": "https://dc.lft.to/lastmile_qr_scan"}, "type": "electric_scooter", "lon": -77.04155166666666, "lat": 38.9000405, "fusion_lon": 0.0, "name": "ff0a1cc2684b32adbbdd9508b9db2477", "bike_id": "ff0a1cc2684b32adbbdd9508b9db2477", "is_reserved": 0, "fusion_lat": 0.0, "is_disabled": 0}, {"rental_uris": {"ios": "https://dc.lft.to/lastmile_qr_scan", "android": "https://dc.lft.to/lastmile_qr_scan"}, "type": "electric_scooter", "lon": -77.00113016666667, "lat": 38.91248066666667, "fusion_lon": 0.0, "name": "b0288288cfffa58fc1d5f90d1a000c88", "bike_id": "b0288288cfffa58fc1d5f90d1a000c88", "is_reserved": 0, "fusion_lat": 0.0, "is_disabled": 0}, {"rental_uris": {"ios": "https://dc.lft.to/lastmile_qr_scan", "android": "https://dc.lft.to/lastmile_qr_scan"}, "type": "electric_scooter", "lon": -77.04131483333333, "lat": 38.89224183333333, "fusion_lon": 0.0, "name": "9e0a50562de8967bae09488066d9e49a", "bike_id": "9e0a50562de8967bae09488066d9e49a", "is_reserved": 0, "fusion_lat": 0.0, "is_disabled": 0}, {"rental_uris": {"ios": "https://dc.lft.to/lastmile_qr_scan", "android": "https://dc.lft.to/lastmile_qr_scan"}, "type": "electric_scooter", "lon": -76.98823966666667, "lat": 38.8990385, "fusion_lon": 0.0, "name": "7e17436c85a9fcb620ae53f8d7909e7f", "bike_id": "7e17436c85a9fcb620ae53f8d7909e7f", "is_reserved": 0, "fusion_lat": 0.0, "is_disabled": 0}, {"rental_uris": {"ios": "https://dc.lft.to/lastmile_qr_scan", "android": "https://dc.lft.to/lastmile_qr_scan"}, "type": "electric_scooter", "lon": -77.073047, "lat": 38.926192666666665, "fusion_lon": 0.0, "name": "5cfe587d6db3fef67240e31ecb6459d6", "bike_id": "5cfe587d6db3fef67240e31ecb6459d6", "is_reserved": 0, "fusion_lat": 0.0, "is_disabled": 0}, {"rental_uris": {"ios": "https://dc.lft.to/lastmile_qr_scan", "android": "https://dc.lft.to/lastmile_qr_scan"}, "type": "electric_scooter", "lon": -77.023881, "lat": 38.90946, "fusion_lon": 0.0, "name": "deec2151bded24dce0fbafa88ffff289", "bike_id": "deec2151bded24dce0fbafa88ffff289", "is_reserved": 0, "fusion_lat": 0.0, "is_disabled": 0}, {"rental_uris": {"ios": "https://dc.lft.to/lastmile_qr_scan", "android": "https://dc.lft.to/lastmile_qr_scan"}, "type": "electric_scooter", "lon": -77.04410283333333, "lat": 38.923239833333334, "fusion_lon": 0.0, "name": "43fb37f43b77b509bf205e58eeb7ec79", "bike_id": "43fb37f43b77b509bf205e58eeb7ec79", "is_reserved": 0, "fusion_lat": 0.0, "is_disabled": 0}, {"rental_uris": {"ios": "https://dc.lft.to/lastmile_qr_scan", "android": "https://dc.lft.to/lastmile_qr_scan"}, "type": "electric_scooter", "lon": -77.036516, "lat": 38.901678833333335, "fusion_lon": 0.0, "name": "3ca3c55bfb763ca509cdb38a70b2be2a", "bike_id": "3ca3c55bfb763ca509cdb38a70b2be2a", "is_reserved": 0, "fusion_lat": 0.0, "is_disabled": 0}, {"rental_uris": {"ios": "https://dc.lft.to/lastmile_qr_scan", "android": "https://dc.lft.to/lastmile_qr_scan"}, "type": "electric_scooter", "lon": -77.04373833333334, "lat": 38.90025, "fusion_lon": 0.0, "name": "f7c1070a3fd6b9e2e85d81ce8d936890", "bike_id": "f7c1070a3fd6b9e2e85d81ce8d936890", "is_reserved": 0, "fusion_lat": 0.0, "is_disabled": 0}, {"rental_uris": {"ios": "https://dc.lft.to/lastmile_qr_scan", "android": "https://dc.lft.to/lastmile_qr_scan"}, "type": "electric_scooter", "lon": -77.027614, "lat": 38.91978983333333, "fusion_lon": 0.0, "name": "322d03b91d8a1a05685703e90eebe56a", "bike_id": "322d03b91d8a1a05685703e90eebe56a", "is_reserved": 0, "fusion_lat": 0.0, "is_disabled": 0}, {"rental_uris": {"ios": "https://dc.lft.to/lastmile_qr_scan", "android": "https://dc.lft.to/lastmile_qr_scan"}, "type": "electric_scooter", "lon": -77.03949033333333, "lat": 38.91945666666667, "fusion_lon": 0.0, "name": "1a3a9a8feb425530866b6d154a4d2c4d", "bike_id": "1a3a9a8feb425530866b6d154a4d2c4d", "is_reserved": 0, "fusion_lat": 0.0, "is_disabled": 0}, {"rental_uris": {"ios": "https://dc.lft.to/lastmile_qr_scan", "android": "https://dc.lft.to/lastmile_qr_scan"}, "type": "electric_scooter", "lon": -77.0198325, "lat": 38.91356433333333, "fusion_lon": 0.0, "name": "f0d5189bfbff2c9d91d3af1e5288c79f", "bike_id": "f0d5189bfbff2c9d91d3af1e5288c79f", "is_reserved": 0, "fusion_lat": 0.0, "is_disabled": 0}, {"rental_uris": {"ios": "https://dc.lft.to/lastmile_qr_scan", "android": "https://dc.lft.to/lastmile_qr_scan"}, "type": "electric_bike", "lon": -77.02379816666667, "lat": 38.99237466666666, "fusion_lon": 0.0, "name": "3a1437257609ffb3a37ca2bc2710975b", "bike_id": "3a1437257609ffb3a37ca2bc2710975b", "is_reserved": 0, "fusion_lat": 0.0, "is_disabled": 0}, {"rental_uris": {"ios": "https://dc.lft.to/lastmile_qr_scan", "android": "https://dc.lft.to/lastmile_qr_scan"}, "type": "electric_scooter", "lon": -77.04683616666667, "lat": 38.90290516666666, "fusion_lon": 0.0, "name": "549b5fe1b7fb86b2b0f9032eea5e985c", "bike_id": "549b5fe1b7fb86b2b0f9032eea5e985c", "is_reserved": 0, "fusion_lat": 0.0, "is_disabled": 0}, {"rental_uris": {"ios": "https://dc.lft.to/lastmile_qr_scan", "android": "https://dc.lft.to/lastmile_qr_scan"}, "type": "electric_scooter", "lon": -76.97715066666666, "lat": 38.88837616666667, "fusion_lon": 0.0, "name": "89d49ff0b3585d9b4e37baf469b897e1", "bike_id": "89d49ff0b3585d9b4e37baf469b897e1", "is_reserved": 0, "fusion_lat": 0.0, "is_disabled": 0}, {"rental_uris": {"ios": "https://dc.lft.to/lastmile_qr_scan", "android": "https://dc.lft.to/lastmile_qr_scan"}, "type": "electric_scooter", "lon": -76.99772683333333, "lat": 38.8942065, "fusion_lon": 0.0, "name": "454c520e23f72ca0f0149069c85b5e69", "bike_id": "454c520e23f72ca0f0149069c85b5e69", "is_reserved": 0, "fusion_lat": 0.0, "is_disabled": 0}, {"rental_uris": {"ios": "https://dc.lft.to/lastmile_qr_scan", "android": "https://dc.lft.to/lastmile_qr_scan"}, "type": "electric_scooter", "lon": -77.0319645, "lat": 38.89222816666667, "fusion_lon": 0.0, "name": "2a998998eb9f7db64c573a568dd3bf47", "bike_id": "2a998998eb9f7db64c573a568dd3bf47", "is_reserved": 0, "fusion_lat": 0.0, "is_disabled": 0}, {"rental_uris": {"ios": "https://dc.lft.to/lastmile_qr_scan", "android": "https://dc.lft.to/lastmile_qr_scan"}, "type": "electric_scooter", "lon": -77.002064, "lat": 38.830582, "fusion_lon": 0.0, "name": "59a3ea82dffb94474d749a2c368150f7", "bike_id": "59a3ea82dffb94474d749a2c368150f7", "is_reserved": 0, "fusion_lat": 0.0, "is_disabled": 0}, {"rental_uris": {"ios": "https://dc.lft.to/lastmile_qr_scan", "android": "https://dc.lft.to/lastmile_qr_scan"}, "type": "electric_bike", "lon": -76.95245616666666, "lat": 38.84810066666667, "fusion_lon": 0.0, "name": "e14d42c4a7abae6bdea41cdf70e30af3", "bike_id": "e14d42c4a7abae6bdea41cdf70e30af3", "is_reserved": 0, "fusion_lat": 0.0, "is_disabled": 0}, {"rental_uris": {"ios": "https://dc.lft.to/lastmile_qr_scan", "android": "https://dc.lft.to/lastmile_qr_scan"}, "type": "electric_scooter", "lon": -77.012314, "lat": 38.895251, "fusion_lon": 0.0, "name": "423c398f2c6d4c4d2ad853eefc579e66", "bike_id": "423c398f2c6d4c4d2ad853eefc579e66", "is_reserved": 0, "fusion_lat": 0.0, "is_disabled": 0}, {"rental_uris": {"ios": "https://dc.lft.to/lastmile_qr_scan", "android": "https://dc.lft.to/lastmile_qr_scan"}, "type": "electric_scooter", "lon": -77.03011366666667, "lat": 38.96026916666667, "fusion_lon": 0.0, "name": "5ea9f25aa0a31c603fb773ec311ed9f8", "bike_id": "5ea9f25aa0a31c603fb773ec311ed9f8", "is_reserved": 0, "fusion_lat": 0.0, "is_disabled": 0}, {"rental_uris": {"ios": "https://dc.lft.to/lastmile_qr_scan", "android": "https://dc.lft.to/lastmile_qr_scan"}, "type": "electric_scooter", "lon": -77.033968, "lat": 38.90576566666667, "fusion_lon": 0.0, "name": "302abfe14a3717bbed3d1d5ebb1d7cae", "bike_id": "302abfe14a3717bbed3d1d5ebb1d7cae", "is_reserved": 0, "fusion_lat": 0.0, "is_disabled": 0}, {"rental_uris": {"ios": "https://dc.lft.to/lastmile_qr_scan", "android": "https://dc.lft.to/lastmile_qr_scan"}, "type": "electric_scooter", "lon": -77.040305, "lat": 38.92445333333333, "fusion_lon": 0.0, "name": "b4cf80b49f43772ae03d23b63fa62082", "bike_id": "b4cf80b49f43772ae03d23b63fa62082", "is_reserved": 0, "fusion_lat": 0.0, "is_disabled": 0}, {"rental_uris": {"ios": "https://dc.lft.to/lastmile_qr_scan", "android": "https://dc.lft.to/lastmile_qr_scan"}, "type": "electric_scooter", "lon": -77.02963116666666, "lat": 38.92688666666667, "fusion_lon": 0.0, "name": "2247482e29b67d8d454f3e0fd9c97704", "bike_id": "2247482e29b67d8d454f3e0fd9c97704", "is_reserved": 0, "fusion_lat": 0.0, "is_disabled": 0}, {"rental_uris": {"ios": "https://dc.lft.to/lastmile_qr_scan", "android": "https://dc.lft.to/lastmile_qr_scan"}, "type": "electric_bike", "lon": -77.0073505, "lat": 38.950636, "fusion_lon": 0.0, "name": "37e56696f09004b5497d9b6a9ae6dd1d", "bike_id": "37e56696f09004b5497d9b6a9ae6dd1d", "is_reserved": 0, "fusion_lat": 0.0, "is_disabled": 0}, {"rental_uris": {"ios": "https://dc.lft.to/lastmile_qr_scan", "android": "https://dc.lft.to/lastmile_qr_scan"}, "type": "electric_scooter", "lon": -77.02221533333334, "lat": 38.9247175, "fusion_lon": 0.0, "name": "0f0dbdc3817bcc3b8cdf5cfeaca91220", "bike_id": "0f0dbdc3817bcc3b8cdf5cfeaca91220", "is_reserved": 0, "fusion_lat": 0.0, "is_disabled": 0}, {"rental_uris": {"ios": "https://dc.lft.to/lastmile_qr_scan", "android": "https://dc.lft.to/lastmile_qr_scan"}, "type": "electric_scooter", "lon": -77.0385615, "lat": 38.932158666666666, "fusion_lon": 0.0, "name": "e1d51d3b515a6c18617df74258e582c9", "bike_id": "e1d51d3b515a6c18617df74258e582c9", "is_reserved": 0, "fusion_lat": 0.0, "is_disabled": 0}, {"rental_uris": {"ios": "https://dc.lft.to/lastmile_qr_scan", "android": "https://dc.lft.to/lastmile_qr_scan"}, "type": "electric_scooter", "lon": -77.0365915, "lat": 38.92100933333333, "fusion_lon": 0.0, "name": "2d38fdaaef314ee747acfe0650a9ddb4", "bike_id": "2d38fdaaef314ee747acfe0650a9ddb4", "is_reserved": 0, "fusion_lat": 0.0, "is_disabled": 0}, {"rental_uris": {"ios": "https://dc.lft.to/lastmile_qr_scan", "android": "https://dc.lft.to/lastmile_qr_scan"}, "type": "electric_scooter", "lon": -77.05603583333334, "lat": 38.9369545, "fusion_lon": 0.0, "name": "42197b430f17b0c716ebfdbcc92fb865", "bike_id": "42197b430f17b0c716ebfdbcc92fb865", "is_reserved": 0, "fusion_lat": 0.0, "is_disabled": 0}, {"rental_uris": {"ios": "https://dc.lft.to/lastmile_qr_scan", "android": "https://dc.lft.to/lastmile_qr_scan"}, "type": "electric_scooter", "lon": -76.932645, "lat": 38.887710166666665, "fusion_lon": 0.0, "name": "eb69b2a773b5993b5a7a061bdfb532d7", "bike_id": "eb69b2a773b5993b5a7a061bdfb532d7", "is_reserved": 0, "fusion_lat": 0.0, "is_disabled": 0}, {"rental_uris": {"ios": "https://dc.lft.to/lastmile_qr_scan", "android": "https://dc.lft.to/lastmile_qr_scan"}, "type": "electric_bike", "lon": -77.02557933333334, "lat": 38.93873, "fusion_lon": 0.0, "name": "f29d4fa075a46af6cf2ae4907e875fd5", "bike_id": "f29d4fa075a46af6cf2ae4907e875fd5", "is_reserved": 0, "fusion_lat": 0.0, "is_disabled": 0}, {"rental_uris": {"ios": "https://dc.lft.to/lastmile_qr_scan", "android": "https://dc.lft.to/lastmile_qr_scan"}, "type": "electric_scooter", "lon": -77.044361, "lat": 38.912557166666666, "fusion_lon": 0.0, "name": "84b5133387811b42d85229492151d0a9", "bike_id": "84b5133387811b42d85229492151d0a9", "is_reserved": 0, "fusion_lat": 0.0, "is_disabled": 0}, {"rental_uris": {"ios": "https://dc.lft.to/lastmile_qr_scan", "android": "https://dc.lft.to/lastmile_qr_scan"}, "type": "electric_scooter", "lon": -77.03213616666666, "lat": 38.92757966666667, "fusion_lon": 0.0, "name": "954f72c01b4ba74524b146772fcd6b21", "bike_id": "954f72c01b4ba74524b146772fcd6b21", "is_reserved": 0, "fusion_lat": 0.0, "is_disabled": 0}, {"rental_uris": {"ios": "https://dc.lft.to/lastmile_qr_scan", "android": "https://dc.lft.to/lastmile_qr_scan"}, "type": "electric_scooter", "lon": -77.023763, "lat": 38.8792965, "fusion_lon": 0.0, "name": "a087c1c7f7015c7b93573f603ae90710", "bike_id": "a087c1c7f7015c7b93573f603ae90710", "is_reserved": 0, "fusion_lat": 0.0, "is_disabled": 0}, {"rental_uris": {"ios": "https://dc.lft.to/lastmile_qr_scan", "android": "https://dc.lft.to/lastmile_qr_scan"}, "type": "electric_scooter", "lon": -77.01225616666666, "lat": 38.90241783333333, "fusion_lon": 0.0, "name": "9df784b0b85b5587cb8a771a7c3b6ea2", "bike_id": "9df784b0b85b5587cb8a771a7c3b6ea2", "is_reserved": 0, "fusion_lat": 0.0, "is_disabled": 0}, {"rental_uris": {"ios": "https://dc.lft.to/lastmile_qr_scan", "android": "https://dc.lft.to/lastmile_qr_scan"}, "type": "electric_scooter", "lon": -77.03186233333334, "lat": 38.8961985, "fusion_lon": 0.0, "name": "8ffc64687e597914e30d92ffbabb8c43", "bike_id": "8ffc64687e597914e30d92ffbabb8c43", "is_reserved": 0, "fusion_lat": 0.0, "is_disabled": 0}, {"rental_uris": {"ios": "https://dc.lft.to/lastmile_qr_scan", "android": "https://dc.lft.to/lastmile_qr_scan"}, "type": "electric_scooter", "lon": -77.05062516666666, "lat": 38.90158266666667, "fusion_lon": 0.0, "name": "be4320b70d9038fc26e70a9f22810065", "bike_id": "be4320b70d9038fc26e70a9f22810065", "is_reserved": 0, "fusion_lat": 0.0, "is_disabled": 0}, {"rental_uris": {"ios": "https://dc.lft.to/lastmile_qr_scan", "android": "https://dc.lft.to/lastmile_qr_scan"}, "type": "electric_scooter", "lon": -77.04522333333334, "lat": 38.903682, "fusion_lon": 0.0, "name": "74535a8f138d8ae8f2eea3ce65967173", "bike_id": "74535a8f138d8ae8f2eea3ce65967173", "is_reserved": 0, "fusion_lat": 0.0, "is_disabled": 0}, {"rental_uris": {"ios": "https://dc.lft.to/lastmile_qr_scan", "android": "https://dc.lft.to/lastmile_qr_scan"}, "type": "electric_bike", "lon": -77.101138, "lat": 38.9890805, "fusion_lon": 0.0, "name": "6f9a57f2aeff4943a4b101dafcb94198", "bike_id": "6f9a57f2aeff4943a4b101dafcb94198", "is_reserved": 0, "fusion_lat": 0.0, "is_disabled": 0}, {"rental_uris": {"ios": "https://dc.lft.to/lastmile_qr_scan", "android": "https://dc.lft.to/lastmile_qr_scan"}, "type": "electric_scooter", "lon": -77.04679533333334, "lat": 38.895574, "fusion_lon": 0.0, "name": "f59dcd605d76600b70ce33d1037db9e6", "bike_id": "f59dcd605d76600b70ce33d1037db9e6", "is_reserved": 0, "fusion_lat": 0.0, "is_disabled": 0}, {"rental_uris": {"ios": "https://dc.lft.to/lastmile_qr_scan", "android": "https://dc.lft.to/lastmile_qr_scan"}, "type": "electric_scooter", "lon": -77.02803933333334, "lat": 38.89375716666667, "fusion_lon": 0.0, "name": "32a3a68db7f85fe8f537ae672242e0b3", "bike_id": "32a3a68db7f85fe8f537ae672242e0b3", "is_reserved": 0, "fusion_lat": 0.0, "is_disabled": 0}, {"rental_uris": {"ios": "https://dc.lft.to/lastmile_qr_scan", "android": "https://dc.lft.to/lastmile_qr_scan"}, "type": "electric_scooter", "lon": -77.03447016666667, "lat": 38.9342845, "fusion_lon": 0.0, "name": "df8be0853aea0bde4942ef6375911146", "bike_id": "df8be0853aea0bde4942ef6375911146", "is_reserved": 0, "fusion_lat": 0.0, "is_disabled": 0}, {"rental_uris": {"ios": "https://dc.lft.to/lastmile_qr_scan", "android": "https://dc.lft.to/lastmile_qr_scan"}, "type": "electric_scooter", "lon": -77.0194445, "lat": 38.903576666666666, "fusion_lon": 0.0, "name": "fe5719b4a37fd6ac0ed84784223593a7", "bike_id": "fe5719b4a37fd6ac0ed84784223593a7", "is_reserved": 0, "fusion_lat": 0.0, "is_disabled": 0}, {"rental_uris": {"ios": "https://dc.lft.to/lastmile_qr_scan", "android": "https://dc.lft.to/lastmile_qr_scan"}, "type": "electric_scooter", "lon": -77.036834, "lat": 38.922657, "fusion_lon": 0.0, "name": "8ed9e6c1397a73d92c0c09e01dfbbcd5", "bike_id": "8ed9e6c1397a73d92c0c09e01dfbbcd5", "is_reserved": 0, "fusion_lat": 0.0, "is_disabled": 0}, {"rental_uris": {"ios": "https://dc.lft.to/lastmile_qr_scan", "android": "https://dc.lft.to/lastmile_qr_scan"}, "type": "electric_scooter", "lon": -77.0215805, "lat": 38.92490816666667, "fusion_lon": 0.0, "name": "38a5aec8739abb6f8b7aabf92136a794", "bike_id": "38a5aec8739abb6f8b7aabf92136a794", "is_reserved": 0, "fusion_lat": 0.0, "is_disabled": 0}, {"rental_uris": {"ios": "https://dc.lft.to/lastmile_qr_scan", "android": "https://dc.lft.to/lastmile_qr_scan"}, "type": "electric_scooter", "lon": -77.045136, "lat": 38.9130155, "fusion_lon": 0.0, "name": "c7076e604d0bbaf3819255f13534438f", "bike_id": "c7076e604d0bbaf3819255f13534438f", "is_reserved": 0, "fusion_lat": 0.0, "is_disabled": 0}, {"rental_uris": {"ios": "https://dc.lft.to/lastmile_qr_scan", "android": "https://dc.lft.to/lastmile_qr_scan"}, "type": "electric_scooter", "lon": -77.01689533333334, "lat": 38.97517966666667, "fusion_lon": 0.0, "name": "65e1c5a787d8cc4ba1b8930e54a32fc2", "bike_id": "65e1c5a787d8cc4ba1b8930e54a32fc2", "is_reserved": 0, "fusion_lat": 0.0, "is_disabled": 0}, {"rental_uris": {"ios": "https://dc.lft.to/lastmile_qr_scan", "android": "https://dc.lft.to/lastmile_qr_scan"}, "type": "electric_scooter", "lon": -77.00273566666667, "lat": 38.88620383333333, "fusion_lon": 0.0, "name": "210981152dc80bf241857d32b80062b2", "bike_id": "210981152dc80bf241857d32b80062b2", "is_reserved": 0, "fusion_lat": 0.0, "is_disabled": 0}, {"rental_uris": {"ios": "https://dc.lft.to/lastmile_qr_scan", "android": "https://dc.lft.to/lastmile_qr_scan"}, "type": "electric_scooter", "lon": -77.05517183333333, "lat": 38.944224166666665, "fusion_lon": 0.0, "name": "27f47a5811af0b94cd6b78e042b6e630", "bike_id": "27f47a5811af0b94cd6b78e042b6e630", "is_reserved": 0, "fusion_lat": 0.0, "is_disabled": 0}, {"rental_uris": {"ios": "https://dc.lft.to/lastmile_qr_scan", "android": "https://dc.lft.to/lastmile_qr_scan"}, "type": "electric_scooter", "lon": -77.05900283333334, "lat": 38.901961666666665, "fusion_lon": 0.0, "name": "bf59206c460fbff02ed61dd04439333c", "bike_id": "bf59206c460fbff02ed61dd04439333c", "is_reserved": 0, "fusion_lat": 0.0, "is_disabled": 0}, {"rental_uris": {"ios": "https://dc.lft.to/lastmile_qr_scan", "android": "https://dc.lft.to/lastmile_qr_scan"}, "type": "electric_scooter", "lon": -77.0157175, "lat": 38.90561183333333, "fusion_lon": 0.0, "name": "a78f91c5041193cf9c760f17cf3eda6a", "bike_id": "a78f91c5041193cf9c760f17cf3eda6a", "is_reserved": 0, "fusion_lat": 0.0, "is_disabled": 0}, {"rental_uris": {"ios": "https://dc.lft.to/lastmile_qr_scan", "android": "https://dc.lft.to/lastmile_qr_scan"}, "type": "electric_scooter", "lon": -77.0319165, "lat": 38.900385166666666, "fusion_lon": 0.0, "name": "788c109cc01f026745891a996b7c399f", "bike_id": "788c109cc01f026745891a996b7c399f", "is_reserved": 0, "fusion_lat": 0.0, "is_disabled": 0}, {"rental_uris": {"ios": "https://dc.lft.to/lastmile_qr_scan", "android": "https://dc.lft.to/lastmile_qr_scan"}, "type": "electric_bike", "lon": -76.95050266666667, "lat": 39.084924, "fusion_lon": 0.0, "name": "58cba2829168ba1b676391e8c07f5162", "bike_id": "58cba2829168ba1b676391e8c07f5162", "is_reserved": 0, "fusion_lat": 0.0, "is_disabled": 0}, {"rental_uris": {"ios": "https://dc.lft.to/lastmile_qr_scan", "android": "https://dc.lft.to/lastmile_qr_scan"}, "type": "electric_scooter", "lon": -77.078416, "lat": 38.931451333333335, "fusion_lon": 0.0, "name": "03919a5d614fca521c6edfb12359992b", "bike_id": "03919a5d614fca521c6edfb12359992b", "is_reserved": 0, "fusion_lat": 0.0, "is_disabled": 0}, {"rental_uris": {"ios": "https://dc.lft.to/lastmile_qr_scan", "android": "https://dc.lft.to/lastmile_qr_scan"}, "type": "electric_scooter", "lon": -76.9971065, "lat": 38.89466, "fusion_lon": 0.0, "name": "7b824132f94b1aa371ff3ce5e6dd59e0", "bike_id": "7b824132f94b1aa371ff3ce5e6dd59e0", "is_reserved": 0, "fusion_lat": 0.0, "is_disabled": 0}, {"rental_uris": {"ios": "https://dc.lft.to/lastmile_qr_scan", "android": "https://dc.lft.to/lastmile_qr_scan"}, "type": "electric_scooter", "lon": -77.06580883333334, "lat": 38.912349166666665, "fusion_lon": 0.0, "name": "9151955777a751d2362c5ce8260ff9f8", "bike_id": "9151955777a751d2362c5ce8260ff9f8", "is_reserved": 0, "fusion_lat": 0.0, "is_disabled": 0}, {"rental_uris": {"ios": "https://dc.lft.to/lastmile_qr_scan", "android": "https://dc.lft.to/lastmile_qr_scan"}, "type": "electric_scooter", "lon": -76.9773905, "lat": 38.904955666666666, "fusion_lon": 0.0, "name": "b43f6d465c0d19012f3d16b7397f4ed7", "bike_id": "b43f6d465c0d19012f3d16b7397f4ed7", "is_reserved": 0, "fusion_lat": 0.0, "is_disabled": 0}, {"rental_uris": {"ios": "https://dc.lft.to/lastmile_qr_scan", "android": "https://dc.lft.to/lastmile_qr_scan"}, "type": "electric_scooter", "lon": -77.00013316666667, "lat": 38.95897316666667, "fusion_lon": 0.0, "name": "83e4f7d1a5849fa79cb515a843b89407", "bike_id": "83e4f7d1a5849fa79cb515a843b89407", "is_reserved": 0, "fusion_lat": 0.0, "is_disabled": 0}, {"rental_uris": {"ios": "https://dc.lft.to/lastmile_qr_scan", "android": "https://dc.lft.to/lastmile_qr_scan"}, "type": "electric_scooter", "lon": -77.04927183333334, "lat": 38.900865, "fusion_lon": 0.0, "name": "50c7f999b4f12a07c1a52bca0a401e7b", "bike_id": "50c7f999b4f12a07c1a52bca0a401e7b", "is_reserved": 0, "fusion_lat": 0.0, "is_disabled": 0}, {"rental_uris": {"ios": "https://dc.lft.to/lastmile_qr_scan", "android": "https://dc.lft.to/lastmile_qr_scan"}, "type": "electric_scooter", "lon": -77.04291383333333, "lat": 38.90650933333333, "fusion_lon": 0.0, "name": "c64010e5f16377c77c5f08334dcac8ae", "bike_id": "c64010e5f16377c77c5f08334dcac8ae", "is_reserved": 0, "fusion_lat": 0.0, "is_disabled": 0}, {"rental_uris": {"ios": "https://dc.lft.to/lastmile_qr_scan", "android": "https://dc.lft.to/lastmile_qr_scan"}, "type": "electric_scooter", "lon": -76.986809, "lat": 38.89886583333333, "fusion_lon": 0.0, "name": "cbc741ad4ab50dc294b8615684a8e3d1", "bike_id": "cbc741ad4ab50dc294b8615684a8e3d1", "is_reserved": 0, "fusion_lat": 0.0, "is_disabled": 0}, {"rental_uris": {"ios": "https://dc.lft.to/lastmile_qr_scan", "android": "https://dc.lft.to/lastmile_qr_scan"}, "type": "electric_scooter", "lon": -77.04554016666667, "lat": 38.91268433333333, "fusion_lon": 0.0, "name": "47ca162e32ae88e28880e494ff1f65b7", "bike_id": "47ca162e32ae88e28880e494ff1f65b7", "is_reserved": 0, "fusion_lat": 0.0, "is_disabled": 0}, {"rental_uris": {"ios": "https://dc.lft.to/lastmile_qr_scan", "android": "https://dc.lft.to/lastmile_qr_scan"}, "type": "electric_scooter", "lon": -77.04044933333333, "lat": 38.896215, "fusion_lon": 0.0, "name": "26b7c74c8580cadb1cf224e656a9f03a", "bike_id": "26b7c74c8580cadb1cf224e656a9f03a", "is_reserved": 0, "fusion_lat": 0.0, "is_disabled": 0}, {"rental_uris": {"ios": "https://dc.lft.to/lastmile_qr_scan", "android": "https://dc.lft.to/lastmile_qr_scan"}, "type": "electric_bike", "lon": -77.0531195, "lat": 38.852541, "fusion_lon": 0.0, "name": "c26211b594cf31203c937b65c638117f", "bike_id": "c26211b594cf31203c937b65c638117f", "is_reserved": 0, "fusion_lat": 0.0, "is_disabled": 0}, {"rental_uris": {"ios": "https://dc.lft.to/lastmile_qr_scan", "android": "https://dc.lft.to/lastmile_qr_scan"}, "type": "electric_scooter", "lon": -77.02923633333333, "lat": 38.933237166666665, "fusion_lon": 0.0, "name": "bf0761810c154213600ebc0fc14e9b03", "bike_id": "bf0761810c154213600ebc0fc14e9b03", "is_reserved": 0, "fusion_lat": 0.0, "is_disabled": 0}, {"rental_uris": {"ios": "https://dc.lft.to/lastmile_qr_scan", "android": "https://dc.lft.to/lastmile_qr_scan"}, "type": "electric_scooter", "lon": -77.00222033333333, "lat": 38.87631966666667, "fusion_lon": 0.0, "name": "31f8b26a89ed1f62ce4e397329646974", "bike_id": "31f8b26a89ed1f62ce4e397329646974", "is_reserved": 0, "fusion_lat": 0.0, "is_disabled": 0}, {"rental_uris": {"ios": "https://dc.lft.to/lastmile_qr_scan", "android": "https://dc.lft.to/lastmile_qr_scan"}, "type": "electric_bike", "lon": -76.952534, "lat": 38.906953666666666, "fusion_lon": 0.0, "name": "c2d1cd42d925261f41e6ed6e535da127", "bike_id": "c2d1cd42d925261f41e6ed6e535da127", "is_reserved": 0, "fusion_lat": 0.0, "is_disabled": 0}, {"rental_uris": {"ios": "https://dc.lft.to/lastmile_qr_scan", "android": "https://dc.lft.to/lastmile_qr_scan"}, "type": "electric_scooter", "lon": -77.012257, "lat": 38.897566, "fusion_lon": 0.0, "name": "689d277471afa6f219e7f371c70b65ab", "bike_id": "689d277471afa6f219e7f371c70b65ab", "is_reserved": 0, "fusion_lat": 0.0, "is_disabled": 0}, {"rental_uris": {"ios": "https://dc.lft.to/lastmile_qr_scan", "android": "https://dc.lft.to/lastmile_qr_scan"}, "type": "electric_scooter", "lon": -77.03262583333333, "lat": 38.92890333333333, "fusion_lon": 0.0, "name": "ab98992884654cf1d79f1bda21751cfc", "bike_id": "ab98992884654cf1d79f1bda21751cfc", "is_reserved": 0, "fusion_lat": 0.0, "is_disabled": 0}, {"rental_uris": {"ios": "https://dc.lft.to/lastmile_qr_scan", "android": "https://dc.lft.to/lastmile_qr_scan"}, "type": "electric_scooter", "lon": -77.04064633333333, "lat": 38.92396633333333, "fusion_lon": 0.0, "name": "d93ef04274cd50d001c21005dde8a40f", "bike_id": "d93ef04274cd50d001c21005dde8a40f", "is_reserved": 0, "fusion_lat": 0.0, "is_disabled": 0}, {"rental_uris": {"ios": "https://dc.lft.to/lastmile_qr_scan", "android": "https://dc.lft.to/lastmile_qr_scan"}, "type": "electric_scooter", "lon": -77.00516166666667, "lat": 38.88035383333333, "fusion_lon": 0.0, "name": "dd4df219882de872b22dde95f30799f1", "bike_id": "dd4df219882de872b22dde95f30799f1", "is_reserved": 0, "fusion_lat": 0.0, "is_disabled": 0}, {"rental_uris": {"ios": "https://dc.lft.to/lastmile_qr_scan", "android": "https://dc.lft.to/lastmile_qr_scan"}, "type": "electric_bike", "lon": -77.02887616666666, "lat": 38.997982666666665, "fusion_lon": 0.0, "name": "9a5559584b111e5e8f251222260161e4", "bike_id": "9a5559584b111e5e8f251222260161e4", "is_reserved": 0, "fusion_lat": 0.0, "is_disabled": 0}, {"rental_uris": {"ios": "https://dc.lft.to/lastmile_qr_scan", "android": "https://dc.lft.to/lastmile_qr_scan"}, "type": "electric_scooter", "lon": -77.01759433333334, "lat": 38.8770485, "fusion_lon": 0.0, "name": "091d7205346e1f04a6ec1f25af3b206f", "bike_id": "091d7205346e1f04a6ec1f25af3b206f", "is_reserved": 0, "fusion_lat": 0.0, "is_disabled": 0}, {"rental_uris": {"ios": "https://dc.lft.to/lastmile_qr_scan", "android": "https://dc.lft.to/lastmile_qr_scan"}, "type": "electric_scooter", "lon": -76.9934945, "lat": 38.90009333333333, "fusion_lon": 0.0, "name": "3f029049915bea66eb127ebc0007256e", "bike_id": "3f029049915bea66eb127ebc0007256e", "is_reserved": 0, "fusion_lat": 0.0, "is_disabled": 0}, {"rental_uris": {"ios": "https://dc.lft.to/lastmile_qr_scan", "android": "https://dc.lft.to/lastmile_qr_scan"}, "type": "electric_scooter", "lon": -77.03534866666666, "lat": 38.92725883333333, "fusion_lon": 0.0, "name": "bce4fe0504832912544dd5049fc1fb38", "bike_id": "bce4fe0504832912544dd5049fc1fb38", "is_reserved": 0, "fusion_lat": 0.0, "is_disabled": 0}, {"rental_uris": {"ios": "https://dc.lft.to/lastmile_qr_scan", "android": "https://dc.lft.to/lastmile_qr_scan"}, "type": "electric_scooter", "lon": -77.03858616666666, "lat": 38.91657083333333, "fusion_lon": 0.0, "name": "3044896ececae02167b13bc980c4d46b", "bike_id": "3044896ececae02167b13bc980c4d46b", "is_reserved": 0, "fusion_lat": 0.0, "is_disabled": 0}, {"rental_uris": {"ios": "https://dc.lft.to/lastmile_qr_scan", "android": "https://dc.lft.to/lastmile_qr_scan"}, "type": "electric_scooter", "lon": -77.00911066666667, "lat": 38.91763683333333, "fusion_lon": 0.0, "name": "8ed568f41f0ac525dde83d636f6710d0", "bike_id": "8ed568f41f0ac525dde83d636f6710d0", "is_reserved": 0, "fusion_lat": 0.0, "is_disabled": 0}, {"rental_uris": {"ios": "https://dc.lft.to/lastmile_qr_scan", "android": "https://dc.lft.to/lastmile_qr_scan"}, "type": "electric_scooter", "lon": -77.0168835, "lat": 38.975202, "fusion_lon": 0.0, "name": "3e7c461b6b6400aca5a08bd652030626", "bike_id": "3e7c461b6b6400aca5a08bd652030626", "is_reserved": 0, "fusion_lat": 0.0, "is_disabled": 0}, {"rental_uris": {"ios": "https://dc.lft.to/lastmile_qr_scan", "android": "https://dc.lft.to/lastmile_qr_scan"}, "type": "electric_scooter", "lon": -76.98533883333333, "lat": 38.88078816666667, "fusion_lon": 0.0, "name": "65158df5d2f896c1df5bb4d1a91be72e", "bike_id": "65158df5d2f896c1df5bb4d1a91be72e", "is_reserved": 0, "fusion_lat": 0.0, "is_disabled": 0}, {"rental_uris": {"ios": "https://dc.lft.to/lastmile_qr_scan", "android": "https://dc.lft.to/lastmile_qr_scan"}, "type": "electric_scooter", "lon": -77.04334633333333, "lat": 38.922182, "fusion_lon": 0.0, "name": "f1ae38aa9e7fa16685b0a6909295ae91", "bike_id": "f1ae38aa9e7fa16685b0a6909295ae91", "is_reserved": 0, "fusion_lat": 0.0, "is_disabled": 0}, {"rental_uris": {"ios": "https://dc.lft.to/lastmile_qr_scan", "android": "https://dc.lft.to/lastmile_qr_scan"}, "type": "electric_scooter", "lon": -77.01796316666666, "lat": 38.90569883333333, "fusion_lon": 0.0, "name": "35f7ad360c8325b68765049eb54f4129", "bike_id": "35f7ad360c8325b68765049eb54f4129", "is_reserved": 0, "fusion_lat": 0.0, "is_disabled": 0}, {"rental_uris": {"ios": "https://dc.lft.to/lastmile_qr_scan", "android": "https://dc.lft.to/lastmile_qr_scan"}, "type": "electric_bike", "lon": -77.2339495, "lat": 38.871793, "fusion_lon": 0.0, "name": "aff06cdeceead139095b2da5394ca19a", "bike_id": "aff06cdeceead139095b2da5394ca19a", "is_reserved": 0, "fusion_lat": 0.0, "is_disabled": 0}, {"rental_uris": {"ios": "https://dc.lft.to/lastmile_qr_scan", "android": "https://dc.lft.to/lastmile_qr_scan"}, "type": "electric_scooter", "lon": -76.978373, "lat": 38.92016983333333, "fusion_lon": 0.0, "name": "175120f8b82dcfe5ed8ffd170c6ce890", "bike_id": "175120f8b82dcfe5ed8ffd170c6ce890", "is_reserved": 0, "fusion_lat": 0.0, "is_disabled": 0}, {"rental_uris": {"ios": "https://dc.lft.to/lastmile_qr_scan", "android": "https://dc.lft.to/lastmile_qr_scan"}, "type": "electric_scooter", "lon": -77.0368475, "lat": 38.916767166666666, "fusion_lon": 0.0, "name": "1e30326ae6bc6e7baed1b98cae6088f3", "bike_id": "1e30326ae6bc6e7baed1b98cae6088f3", "is_reserved": 0, "fusion_lat": 0.0, "is_disabled": 0}, {"rental_uris": {"ios": "https://dc.lft.to/lastmile_qr_scan", "android": "https://dc.lft.to/lastmile_qr_scan"}, "type": "electric_scooter", "lon": -77.0215615, "lat": 38.89878983333333, "fusion_lon": 0.0, "name": "57dd73c5b853f8c93d25496f91713b1b", "bike_id": "57dd73c5b853f8c93d25496f91713b1b", "is_reserved": 0, "fusion_lat": 0.0, "is_disabled": 0}, {"rental_uris": {"ios": "https://dc.lft.to/lastmile_qr_scan", "android": "https://dc.lft.to/lastmile_qr_scan"}, "type": "electric_scooter", "lon": -77.05002166666667, "lat": 38.90525866666667, "fusion_lon": 0.0, "name": "a6ddff82c2f6cc9f94311557b06dae27", "bike_id": "a6ddff82c2f6cc9f94311557b06dae27", "is_reserved": 0, "fusion_lat": 0.0, "is_disabled": 0}, {"rental_uris": {"ios": "https://dc.lft.to/lastmile_qr_scan", "android": "https://dc.lft.to/lastmile_qr_scan"},