{"data": {"bikes": [{"is_reserved": 0, "type": "electric_scooter", "bike_id": "d0eb1faf61bf2d1a9a464b22dbb33693", "lat": 38.9324335, "lon": -77.03871683333334, "rental_uris": {"android": "https://dc.lft.to/lastmile_qr_scan", "ios": "https://dc.lft.to/lastmile_qr_scan"}, "is_disabled": 0, "fusion_lat": 0.0, "name": "d0eb1faf61bf2d1a9a464b22dbb33693", "fusion_lon": 0.0}, {"is_reserved": 0, "type": "electric_scooter", "bike_id": "c787c34fdf1cf3a257b11498b418518b", "lat": 38.917799, "lon": -77.02310883333334, "rental_uris": {"android": "https://dc.lft.to/lastmile_qr_scan", "ios": "https://dc.lft.to/lastmile_qr_scan"}, "is_disabled": 0, "fusion_lat": 0.0, "name": "c787c34fdf1cf3a257b11498b418518b", "fusion_lon": 0.0}, {"is_reserved": 0, "type": "electric_scooter", "bike_id": "3b5113a925c1784de4d707bfe51a1ae1", "lat": 38.90570116666667, "lon": -77.018523, "rental_uris": {"android": "https://dc.lft.to/lastmile_qr_scan", "ios": "https://dc.lft.to/lastmile_qr_scan"}, "is_disabled": 0, "fusion_lat": 0.0, "name": "3b5113a925c1784de4d707bfe51a1ae1", "fusion_lon": 0.0}, {"is_reserved": 0, "type": "electric_scooter", "bike_id": "299597ea0a6dc211212589b8d286bf0c", "lat": 38.921090666666665, "lon": -77.04218333333333, "rental_uris": {"android": "https://dc.lft.to/lastmile_qr_scan", "ios": "https://dc.lft.to/lastmile_qr_scan"}, "is_disabled": 0, "fusion_lat": 0.0, "name": "299597ea0a6dc211212589b8d286bf0c", "fusion_lon": 0.0}, {"is_reserved": 0, "type": "electric_scooter", "bike_id": "102ce3f324050a28d7837db56c262da1", "lat": 38.90019783333334, "lon": -76.99870033333333, "rental_uris": {"android": "https://dc.lft.to/lastmile_qr_scan", "ios": "https://dc.lft.to/lastmile_qr_scan"}, "is_disabled": 0, "fusion_lat": 0.0, "name": "102ce3f324050a28d7837db56c262da1", "fusion_lon": 0.0}, {"is_reserved": 0, "type": "electric_scooter", "bike_id": "396cd3f6a6c39b9e7a3203c3a3cc99d4", "lat": 38.9253185, "lon": -77.0555355, "rental_uris": {"android": "https://dc.lft.to/lastmile_qr_scan", "ios": "https://dc.lft.to/lastmile_qr_scan"}, "is_disabled": 0, "fusion_lat": 0.0, "name": "396cd3f6a6c39b9e7a3203c3a3cc99d4", "fusion_lon": 0.0}, {"is_reserved": 0, "type": "electric_scooter", "bike_id": "1b74f2da03726d0479ce13799000d4cb", "lat": 38.901387166666666, "lon": -77.04636933333333, "rental_uris": {"android": "https://dc.lft.to/lastmile_qr_scan", "ios": "https://dc.lft.to/lastmile_qr_scan"}, "is_disabled": 0, "fusion_lat": 0.0, "name": "1b74f2da03726d0479ce13799000d4cb", "fusion_lon": 0.0}, {"is_reserved": 0, "type": "electric_scooter", "bike_id": "dce4feb981d6e33080dd73ba2da3d28d", "lat": 38.932533666666664, "lon": -77.03283816666666, "rental_uris": {"android": "https://dc.lft.to/lastmile_qr_scan", "ios": "https://dc.lft.to/lastmile_qr_scan"}, "is_disabled": 0, "fusion_lat": 0.0, "name": "dce4feb981d6e33080dd73ba2da3d28d", "fusion_lon": 0.0}, {"is_reserved": 0, "type": "electric_scooter", "bike_id": "6157a05681807e91aa08fbb14b089998", "lat": 38.94091266666667, "lon": -77.029757, "rental_uris": {"android": "https://dc.lft.to/lastmile_qr_scan", "ios": "https://dc.lft.to/lastmile_qr_scan"}, "is_disabled": 0, "fusion_lat": 0.0, "name": "6157a05681807e91aa08fbb14b089998", "fusion_lon": 0.0}, {"is_reserved": 0, "type": "electric_scooter", "bike_id": "db78722a3a4b1e7e9a1e30593e74e530", "lat": 38.892508, "lon": -76.94133883333333, "rental_uris": {"android": "https://dc.lft.to/lastmile_qr_scan", "ios": "https://dc.lft.to/lastmile_qr_scan"}, "is_disabled": 0, "fusion_lat": 0.0, "name": "db78722a3a4b1e7e9a1e30593e74e530", "fusion_lon": 0.0}, {"is_reserved": 0, "type": "electric_scooter", "bike_id": "db9933421b39618eed4b1c015f145c1d", "lat": 38.927168, "lon": -77.03684883333334, "rental_uris": {"android": "https://dc.lft.to/lastmile_qr_scan", "ios": "https://dc.lft.to/lastmile_qr_scan"}, "is_disabled": 0, "fusion_lat": 0.0, "name": "db9933421b39618eed4b1c015f145c1d", "fusion_lon": 0.0}, {"is_reserved": 0, "type": "electric_scooter", "bike_id": "232f1a23af2372ee012c46c93fc3524b", "lat": 38.899119, "lon": -76.93365566666667, "rental_uris": {"android": "https://dc.lft.to/lastmile_qr_scan", "ios": "https://dc.lft.to/lastmile_qr_scan"}, "is_disabled": 0, "fusion_lat": 0.0, "name": "232f1a23af2372ee012c46c93fc3524b", "fusion_lon": 0.0}, {"is_reserved": 0, "type": "electric_scooter", "bike_id": "c3364ca89343f24c9596ae3e82428c35", "lat": 38.852227666666664, "lon": -76.994264, "rental_uris": {"android": "https://dc.lft.to/lastmile_qr_scan", "ios": "https://dc.lft.to/lastmile_qr_scan"}, "is_disabled": 0, "fusion_lat": 0.0, "name": "c3364ca89343f24c9596ae3e82428c35", "fusion_lon": 0.0}, {"is_reserved": 0, "type": "electric_scooter", "bike_id": "dff88ac1fba9ba7b894518567be19695", "lat": 38.906298166666666, "lon": -77.00906233333333, "rental_uris": {"android": "https://dc.lft.to/lastmile_qr_scan", "ios": "https://dc.lft.to/lastmile_qr_scan"}, "is_disabled": 0, "fusion_lat": 0.0, "name": "dff88ac1fba9ba7b894518567be19695", "fusion_lon": 0.0}, {"is_reserved": 0, "type": "electric_scooter", "bike_id": "255c954d60856a0fdddc6a93194b17d1", "lat": 38.918122833333335, "lon": -77.0399775, "rental_uris": {"android": "https://dc.lft.to/lastmile_qr_scan", "ios": "https://dc.lft.to/lastmile_qr_scan"}, "is_disabled": 0, "fusion_lat": 0.0, "name": "255c954d60856a0fdddc6a93194b17d1", "fusion_lon": 0.0}, {"is_reserved": 0, "type": "electric_scooter", "bike_id": "3228b5db23dd00978f1367f7a39781ce", "lat": 38.921588, "lon": -77.04499666666666, "rental_uris": {"android": "https://dc.lft.to/lastmile_qr_scan", "ios": "https://dc.lft.to/lastmile_qr_scan"}, "is_disabled": 0, "fusion_lat": 0.0, "name": "3228b5db23dd00978f1367f7a39781ce", "fusion_lon": 0.0}, {"is_reserved": 0, "type": "electric_scooter", "bike_id": "6fc63a47fa098309efc50c40e6259618", "lat": 38.93623066666667, "lon": -77.03216866666666, "rental_uris": {"android": "https://dc.lft.to/lastmile_qr_scan", "ios": "https://dc.lft.to/lastmile_qr_scan"}, "is_disabled": 0, "fusion_lat": 0.0, "name": "6fc63a47fa098309efc50c40e6259618", "fusion_lon": 0.0}, {"is_reserved": 0, "type": "electric_scooter", "bike_id": "3b15df6c8529d5b761d9bda5fdafecb4", "lat": 38.938878, "lon": -77.03262833333334, "rental_uris": {"android": "https://dc.lft.to/lastmile_qr_scan", "ios": "https://dc.lft.to/lastmile_qr_scan"}, "is_disabled": 0, "fusion_lat": 0.0, "name": "3b15df6c8529d5b761d9bda5fdafecb4", "fusion_lon": 0.0}, {"is_reserved": 0, "type": "electric_scooter", "bike_id": "0a637999a4b2e0bad3387bb6f104307d", "lat": 38.9049675, "lon": -77.02950183333333, "rental_uris": {"android": "https://dc.lft.to/lastmile_qr_scan", "ios": "https://dc.lft.to/lastmile_qr_scan"}, "is_disabled": 0, "fusion_lat": 0.0, "name": "0a637999a4b2e0bad3387bb6f104307d", "fusion_lon": 0.0}, {"is_reserved": 0, "type": "electric_scooter", "bike_id": "945258567f3ff9936416e8417ceede26", "lat": 38.876402, "lon": -77.00737866666667, "rental_uris": {"android": "https://dc.lft.to/lastmile_qr_scan", "ios": "https://dc.lft.to/lastmile_qr_scan"}, "is_disabled": 0, "fusion_lat": 0.0, "name": "945258567f3ff9936416e8417ceede26", "fusion_lon": 0.0}, {"is_reserved": 0, "type": "electric_scooter", "bike_id": "6d41fa08c08f2b5f46a622e359df1957", "lat": 38.930977166666665, "lon": -77.02556166666666, "rental_uris": {"android": "https://dc.lft.to/lastmile_qr_scan", "ios": "https://dc.lft.to/lastmile_qr_scan"}, "is_disabled": 0, "fusion_lat": 0.0, "name": "6d41fa08c08f2b5f46a622e359df1957", "fusion_lon": 0.0}, {"is_reserved": 0, "type": "electric_scooter", "bike_id": "c7d6f10b6cc3a6fb28e8764ee01c70b7", "lat": 38.91733, "lon": -77.0160055, "rental_uris": {"android": "https://dc.lft.to/lastmile_qr_scan", "ios": "https://dc.lft.to/lastmile_qr_scan"}, "is_disabled": 0, "fusion_lat": 0.0, "name": "c7d6f10b6cc3a6fb28e8764ee01c70b7", "fusion_lon": 0.0}, {"is_reserved": 0, "type": "electric_scooter", "bike_id": "dd9cb4235414c7fa7560c41c725a7118", "lat": 38.935056833333334, "lon": -77.0427645, "rental_uris": {"android": "https://dc.lft.to/lastmile_qr_scan", "ios": "https://dc.lft.to/lastmile_qr_scan"}, "is_disabled": 0, "fusion_lat": 0.0, "name": "dd9cb4235414c7fa7560c41c725a7118", "fusion_lon": 0.0}, {"is_reserved": 0, "type": "electric_scooter", "bike_id": "9c05a4495480cb3133a615d782051b6a", "lat": 38.9239305, "lon": -77.05045483333333, "rental_uris": {"android": "https://dc.lft.to/lastmile_qr_scan", "ios": "https://dc.lft.to/lastmile_qr_scan"}, "is_disabled": 0, "fusion_lat": 0.0, "name": "9c05a4495480cb3133a615d782051b6a", "fusion_lon": 0.0}, {"is_reserved": 0, "type": "electric_scooter", "bike_id": "72333bb7d7aae2dd9e452868a861fd12", "lat": 38.92767883333333, "lon": -77.02788183333334, "rental_uris": {"android": "https://dc.lft.to/lastmile_qr_scan", "ios": "https://dc.lft.to/lastmile_qr_scan"}, "is_disabled": 0, "fusion_lat": 0.0, "name": "72333bb7d7aae2dd9e452868a861fd12", "fusion_lon": 0.0}, {"is_reserved": 0, "type": "electric_scooter", "bike_id": "5c7ca47e8ee5ae817a57c19825be6951", "lat": 38.92392733333333, "lon": -77.05047333333333, "rental_uris": {"android": "https://dc.lft.to/lastmile_qr_scan", "ios": "https://dc.lft.to/lastmile_qr_scan"}, "is_disabled": 0, "fusion_lat": 0.0, "name": "5c7ca47e8ee5ae817a57c19825be6951", "fusion_lon": 0.0}, {"is_reserved": 0, "type": "electric_scooter", "bike_id": "fed0d37a7835ce343f95c6ad35cdb2ea", "lat": 38.94747066666667, "lon": -77.01931833333333, "rental_uris": {"android": "https://dc.lft.to/lastmile_qr_scan", "ios": "https://dc.lft.to/lastmile_qr_scan"}, "is_disabled": 0, "fusion_lat": 0.0, "name": "fed0d37a7835ce343f95c6ad35cdb2ea", "fusion_lon": 0.0}, {"is_reserved": 0, "type": "electric_scooter", "bike_id": "21e61928dc8228a338fa2debea5b2dfd", "lat": 38.89798833333333, "lon": -77.01196383333334, "rental_uris": {"android": "https://dc.lft.to/lastmile_qr_scan", "ios": "https://dc.lft.to/lastmile_qr_scan"}, "is_disabled": 0, "fusion_lat": 0.0, "name": "21e61928dc8228a338fa2debea5b2dfd", "fusion_lon": 0.0}, {"is_reserved": 0, "type": "electric_scooter", "bike_id": "11910371780f1c7f9d983877298cf159", "lat": 38.9283195, "lon": -77.05510483333333, "rental_uris": {"android": "https://dc.lft.to/lastmile_qr_scan", "ios": "https://dc.lft.to/lastmile_qr_scan"}, "is_disabled": 0, "fusion_lat": 0.0, "name": "11910371780f1c7f9d983877298cf159", "fusion_lon": 0.0}, {"is_reserved": 0, "type": "electric_scooter", "bike_id": "132de2075fdffb4bf746776a0df9ce5c", "lat": 38.904008, "lon": -77.02008133333334, "rental_uris": {"android": "https://dc.lft.to/lastmile_qr_scan", "ios": "https://dc.lft.to/lastmile_qr_scan"}, "is_disabled": 0, "fusion_lat": 0.0, "name": "132de2075fdffb4bf746776a0df9ce5c", "fusion_lon": 0.0}, {"is_reserved": 0, "type": "electric_scooter", "bike_id": "d0ccd6f00574bca1fa0d1b5a4bfbf7d7", "lat": 38.92072233333333, "lon": -77.02316333333333, "rental_uris": {"android": "https://dc.lft.to/lastmile_qr_scan", "ios": "https://dc.lft.to/lastmile_qr_scan"}, "is_disabled": 0, "fusion_lat": 0.0, "name": "d0ccd6f00574bca1fa0d1b5a4bfbf7d7", "fusion_lon": 0.0}, {"is_reserved": 0, "type": "electric_scooter", "bike_id": "d192a73a6fb5a6643f3174c7d0af6205", "lat": 38.92604983333333, "lon": -77.021574, "rental_uris": {"android": "https://dc.lft.to/lastmile_qr_scan", "ios": "https://dc.lft.to/lastmile_qr_scan"}, "is_disabled": 0, "fusion_lat": 0.0, "name": "d192a73a6fb5a6643f3174c7d0af6205", "fusion_lon": 0.0}, {"is_reserved": 0, "type": "electric_scooter", "bike_id": "e91fbedda8be386951f6ef304e6c0c02", "lat": 38.900767, "lon": -77.00754916666666, "rental_uris": {"android": "https://dc.lft.to/lastmile_qr_scan", "ios": "https://dc.lft.to/lastmile_qr_scan"}, "is_disabled": 0, "fusion_lat": 0.0, "name": "e91fbedda8be386951f6ef304e6c0c02", "fusion_lon": 0.0}, {"is_reserved": 0, "type": "electric_scooter", "bike_id": "070f3afd6280872299dd6d577d799bec", "lat": 38.91264983333333, "lon": -77.0387115, "rental_uris": {"android": "https://dc.lft.to/lastmile_qr_scan", "ios": "https://dc.lft.to/lastmile_qr_scan"}, "is_disabled": 0, "fusion_lat": 0.0, "name": "070f3afd6280872299dd6d577d799bec", "fusion_lon": 0.0}, {"is_reserved": 0, "type": "electric_scooter", "bike_id": "aab0661483004a620f3c148ead4abb24", "lat": 38.924271166666664, "lon": -77.0194435, "rental_uris": {"android": "https://dc.lft.to/lastmile_qr_scan", "ios": "https://dc.lft.to/lastmile_qr_scan"}, "is_disabled": 0, "fusion_lat": 0.0, "name": "aab0661483004a620f3c148ead4abb24", "fusion_lon": 0.0}, {"is_reserved": 0, "type": "electric_scooter", "bike_id": "14f3912abe4464202348eb9fdf543430", "lat": 38.922353333333334, "lon": -77.035242, "rental_uris": {"android": "https://dc.lft.to/lastmile_qr_scan", "ios": "https://dc.lft.to/lastmile_qr_scan"}, "is_disabled": 0, "fusion_lat": 0.0, "name": "14f3912abe4464202348eb9fdf543430", "fusion_lon": 0.0}, {"is_reserved": 0, "type": "electric_scooter", "bike_id": "9c128d58a6d3bb7b89e8f98dc219389b", "lat": 38.89785633333334, "lon": -77.01683183333333, "rental_uris": {"android": "https://dc.lft.to/lastmile_qr_scan", "ios": "https://dc.lft.to/lastmile_qr_scan"}, "is_disabled": 0, "fusion_lat": 0.0, "name": "9c128d58a6d3bb7b89e8f98dc219389b", "fusion_lon": 0.0}, {"is_reserved": 0, "type": "electric_scooter", "bike_id": "52e8c884256788c0c7855083de3fd4c6", "lat": 38.941784166666665, "lon": -77.02563116666667, "rental_uris": {"android": "https://dc.lft.to/lastmile_qr_scan", "ios": "https://dc.lft.to/lastmile_qr_scan"}, "is_disabled": 0, "fusion_lat": 0.0, "name": "52e8c884256788c0c7855083de3fd4c6", "fusion_lon": 0.0}, {"is_reserved": 0, "type": "electric_scooter", "bike_id": "307d1c746c5ac22c4edac5084be61a47", "lat": 38.914675833333334, "lon": -77.0260295, "rental_uris": {"android": "https://dc.lft.to/lastmile_qr_scan", "ios": "https://dc.lft.to/lastmile_qr_scan"}, "is_disabled": 0, "fusion_lat": 0.0, "name": "307d1c746c5ac22c4edac5084be61a47", "fusion_lon": 0.0}, {"is_reserved": 0, "type": "electric_scooter", "bike_id": "cfe53e6bb65389096ffd221b21fc2c04", "lat": 38.87866983333333, "lon": -76.9625725, "rental_uris": {"android": "https://dc.lft.to/lastmile_qr_scan", "ios": "https://dc.lft.to/lastmile_qr_scan"}, "is_disabled": 0, "fusion_lat": 0.0, "name": "cfe53e6bb65389096ffd221b21fc2c04", "fusion_lon": 0.0}, {"is_reserved": 0, "type": "electric_bike", "bike_id": "04d72c52a8ebfdbee125f7fecd350c7d", "lat": 38.958517666666665, "lon": -76.9862655, "rental_uris": {"android": "https://dc.lft.to/lastmile_qr_scan", "ios": "https://dc.lft.to/lastmile_qr_scan"}, "is_disabled": 0, "fusion_lat": 0.0, "name": "04d72c52a8ebfdbee125f7fecd350c7d", "fusion_lon": 0.0}, {"is_reserved": 0, "type": "electric_scooter", "bike_id": "d658ddc1671d84cd1c50c76e0eb22293", "lat": 38.916692833333336, "lon": -77.02240783333333, "rental_uris": {"android": "https://dc.lft.to/lastmile_qr_scan", "ios": "https://dc.lft.to/lastmile_qr_scan"}, "is_disabled": 0, "fusion_lat": 0.0, "name": "d658ddc1671d84cd1c50c76e0eb22293", "fusion_lon": 0.0}, {"is_reserved": 0, "type": "electric_scooter", "bike_id": "9286413a03552ed66fd5e2bfa49a7a49", "lat": 38.892242333333336, "lon": -77.041613, "rental_uris": {"android": "https://dc.lft.to/lastmile_qr_scan", "ios": "https://dc.lft.to/lastmile_qr_scan"}, "is_disabled": 0, "fusion_lat": 0.0, "name": "9286413a03552ed66fd5e2bfa49a7a49", "fusion_lon": 0.0}, {"is_reserved": 0, "type": "electric_scooter", "bike_id": "f41c23f2547fb676608ab83ff76737b1", "lat": 38.94192816666666, "lon": -77.02352033333334, "rental_uris": {"android": "https://dc.lft.to/lastmile_qr_scan", "ios": "https://dc.lft.to/lastmile_qr_scan"}, "is_disabled": 0, "fusion_lat": 0.0, "name": "f41c23f2547fb676608ab83ff76737b1", "fusion_lon": 0.0}, {"is_reserved": 0, "type": "electric_scooter", "bike_id": "1e0b52810349e54f3e4b1e63ade62455", "lat": 38.8934415, "lon": -77.01168266666667, "rental_uris": {"android": "https://dc.lft.to/lastmile_qr_scan", "ios": "https://dc.lft.to/lastmile_qr_scan"}, "is_disabled": 0, "fusion_lat": 0.0, "name": "1e0b52810349e54f3e4b1e63ade62455", "fusion_lon": 0.0}, {"is_reserved": 0, "type": "electric_scooter", "bike_id": "7efe2708de0e2c4eadce49acce87f39b", "lat": 38.923538, "lon": -76.99948083333334, "rental_uris": {"android": "https://dc.lft.to/lastmile_qr_scan", "ios": "https://dc.lft.to/lastmile_qr_scan"}, "is_disabled": 0, "fusion_lat": 0.0, "name": "7efe2708de0e2c4eadce49acce87f39b", "fusion_lon": 0.0}, {"is_reserved": 0, "type": "electric_scooter", "bike_id": "81685283da00d17bb5f3f8375c03574b", "lat": 38.916984666666664, "lon": -77.0316975, "rental_uris": {"android": "https://dc.lft.to/lastmile_qr_scan", "ios": "https://dc.lft.to/lastmile_qr_scan"}, "is_disabled": 0, "fusion_lat": 0.0, "name": "81685283da00d17bb5f3f8375c03574b", "fusion_lon": 0.0}, {"is_reserved": 0, "type": "electric_scooter", "bike_id": "1735b1d31ec6fc4ab915fe9b731061c1", "lat": 38.89959733333333, "lon": -77.03166133333333, "rental_uris": {"android": "https://dc.lft.to/lastmile_qr_scan", "ios": "https://dc.lft.to/lastmile_qr_scan"}, "is_disabled": 0, "fusion_lat": 0.0, "name": "1735b1d31ec6fc4ab915fe9b731061c1", "fusion_lon": 0.0}, {"is_reserved": 0, "type": "electric_scooter", "bike_id": "9529f07be195c2170b322ec476c33002", "lat": 38.92459133333333, "lon": -77.00892583333334, "rental_uris": {"android": "https://dc.lft.to/lastmile_qr_scan", "ios": "https://dc.lft.to/lastmile_qr_scan"}, "is_disabled": 0, "fusion_lat": 0.0, "name": "9529f07be195c2170b322ec476c33002", "fusion_lon": 0.0}, {"is_reserved": 0, "type": "electric_scooter", "bike_id": "c5099c30d624df92aebd398f50e53b7d", "lat": 38.906763833333336, "lon": -77.07520233333334, "rental_uris": {"android": "https://dc.lft.to/lastmile_qr_scan", "ios": "https://dc.lft.to/lastmile_qr_scan"}, "is_disabled": 0, "fusion_lat": 0.0, "name": "c5099c30d624df92aebd398f50e53b7d", "fusion_lon": 0.0}, {"is_reserved": 0, "type": "electric_scooter", "bike_id": "7107a72aebabda5937eec7bb4efeee9d", "lat": 38.92423083333333, "lon": -77.019536, "rental_uris": {"android": "https://dc.lft.to/lastmile_qr_scan", "ios": "https://dc.lft.to/lastmile_qr_scan"}, "is_disabled": 0, "fusion_lat": 0.0, "name": "7107a72aebabda5937eec7bb4efeee9d", "fusion_lon": 0.0}, {"is_reserved": 0, "type": "electric_scooter", "bike_id": "9dc72248fb3e2d0c1c83e1889c8bfd93", "lat": 38.907054333333335, "lon": -77.03455883333334, "rental_uris": {"android": "https://dc.lft.to/lastmile_qr_scan", "ios": "https://dc.lft.to/lastmile_qr_scan"}, "is_disabled": 0, "fusion_lat": 0.0, "name": "9dc72248fb3e2d0c1c83e1889c8bfd93", "fusion_lon": 0.0}, {"is_reserved": 0, "type": "electric_scooter", "bike_id": "2ded38d8c2a77e7be6d5ca3d6b7ba289", "lat": 38.9362945, "lon": -77.03658216666666, "rental_uris": {"android": "https://dc.lft.to/lastmile_qr_scan", "ios": "https://dc.lft.to/lastmile_qr_scan"}, "is_disabled": 0, "fusion_lat": 0.0, "name": "2ded38d8c2a77e7be6d5ca3d6b7ba289", "fusion_lon": 0.0}, {"is_reserved": 0, "type": "electric_scooter", "bike_id": "4d1baf98c60b9b451d351482c3f2b759", "lat": 38.923328166666664, "lon": -77.01894816666666, "rental_uris": {"android": "https://dc.lft.to/lastmile_qr_scan", "ios": "https://dc.lft.to/lastmile_qr_scan"}, "is_disabled": 0, "fusion_lat": 0.0, "name": "4d1baf98c60b9b451d351482c3f2b759", "fusion_lon": 0.0}, {"is_reserved": 0, "type": "electric_bike", "bike_id": "e00a3c42002ea6b6c4a09b6c4953bdb4", "lat": 38.96497933333333, "lon": -77.1033495, "rental_uris": {"android": "https://dc.lft.to/lastmile_qr_scan", "ios": "https://dc.lft.to/lastmile_qr_scan"}, "is_disabled": 0, "fusion_lat": 0.0, "name": "e00a3c42002ea6b6c4a09b6c4953bdb4", "fusion_lon": 0.0}, {"is_reserved": 0, "type": "electric_bike", "bike_id": "bdcd96cacc62e76c18695320a309613d", "lat": 38.999296333333334, "lon": -77.05135683333333, "rental_uris": {"android": "https://dc.lft.to/lastmile_qr_scan", "ios": "https://dc.lft.to/lastmile_qr_scan"}, "is_disabled": 0, "fusion_lat": 0.0, "name": "bdcd96cacc62e76c18695320a309613d", "fusion_lon": 0.0}, {"is_reserved": 0, "type": "electric_scooter", "bike_id": "bda3a71ea02662d201b6c4473bc8cf7b", "lat": 38.892369333333335, "lon": -77.048772, "rental_uris": {"android": "https://dc.lft.to/lastmile_qr_scan", "ios": "https://dc.lft.to/lastmile_qr_scan"}, "is_disabled": 0, "fusion_lat": 0.0, "name": "bda3a71ea02662d201b6c4473bc8cf7b", "fusion_lon": 0.0}, {"is_reserved": 0, "type": "electric_scooter", "bike_id": "98a0f00fc21af17d484b1cb19a574c20", "lat": 38.917943666666666, "lon": -77.0317925, "rental_uris": {"android": "https://dc.lft.to/lastmile_qr_scan", "ios": "https://dc.lft.to/lastmile_qr_scan"}, "is_disabled": 0, "fusion_lat": 0.0, "name": "98a0f00fc21af17d484b1cb19a574c20", "fusion_lon": 0.0}, {"is_reserved": 0, "type": "electric_scooter", "bike_id": "a95a7b3e1e8b079b8b4494b3e51c3520", "lat": 38.92218033333333, "lon": -77.0433985, "rental_uris": {"android": "https://dc.lft.to/lastmile_qr_scan", "ios": "https://dc.lft.to/lastmile_qr_scan"}, "is_disabled": 0, "fusion_lat": 0.0, "name": "a95a7b3e1e8b079b8b4494b3e51c3520", "fusion_lon": 0.0}, {"is_reserved": 0, "type": "electric_scooter", "bike_id": "6346c9eb899f1e8387ce77a000adcc78", "lat": 38.898266166666666, "lon": -76.94651016666667, "rental_uris": {"android": "https://dc.lft.to/lastmile_qr_scan", "ios": "https://dc.lft.to/lastmile_qr_scan"}, "is_disabled": 0, "fusion_lat": 0.0, "name": "6346c9eb899f1e8387ce77a000adcc78", "fusion_lon": 0.0}, {"is_reserved": 0, "type": "electric_scooter", "bike_id": "d049ea9328611d1fd6efd57231d7a55d", "lat": 38.905403166666666, "lon": -77.00692383333333, "rental_uris": {"android": "https://dc.lft.to/lastmile_qr_scan", "ios": "https://dc.lft.to/lastmile_qr_scan"}, "is_disabled": 0, "fusion_lat": 0.0, "name": "d049ea9328611d1fd6efd57231d7a55d", "fusion_lon": 0.0}, {"is_reserved": 0, "type": "electric_scooter", "bike_id": "06667a661d02d5e630175d543cfdfae4", "lat": 38.9140335, "lon": -77.0220685, "rental_uris": {"android": "https://dc.lft.to/lastmile_qr_scan", "ios": "https://dc.lft.to/lastmile_qr_scan"}, "is_disabled": 0, "fusion_lat": 0.0, "name": "06667a661d02d5e630175d543cfdfae4", "fusion_lon": 0.0}, {"is_reserved": 0, "type": "electric_scooter", "bike_id": "7653548e0674492eb56d7a92c04968d9", "lat": 38.862168, "lon": -76.97921766666667, "rental_uris": {"android": "https://dc.lft.to/lastmile_qr_scan", "ios": "https://dc.lft.to/lastmile_qr_scan"}, "is_disabled": 0, "fusion_lat": 0.0, "name": "7653548e0674492eb56d7a92c04968d9", "fusion_lon": 0.0}, {"is_reserved": 0, "type": "electric_scooter", "bike_id": "e24130c25828fd55f9c1e5d93492e317", "lat": 38.89964666666667, "lon": -77.01609766666667, "rental_uris": {"android": "https://dc.lft.to/lastmile_qr_scan", "ios": "https://dc.lft.to/lastmile_qr_scan"}, "is_disabled": 0, "fusion_lat": 0.0, "name": "e24130c25828fd55f9c1e5d93492e317", "fusion_lon": 0.0}, {"is_reserved": 0, "type": "electric_scooter", "bike_id": "8a98131d2f4c0b4ea577b16db76020ab", "lat": 38.884433666666666, "lon": -76.957643, "rental_uris": {"android": "https://dc.lft.to/lastmile_qr_scan", "ios": "https://dc.lft.to/lastmile_qr_scan"}, "is_disabled": 0, "fusion_lat": 0.0, "name": "8a98131d2f4c0b4ea577b16db76020ab", "fusion_lon": 0.0}, {"is_reserved": 0, "type": "electric_scooter", "bike_id": "1fcac905e3adb5f92b7f7ee19dd98fcf", "lat": 38.91572383333333, "lon": -77.030987, "rental_uris": {"android": "https://dc.lft.to/lastmile_qr_scan", "ios": "https://dc.lft.to/lastmile_qr_scan"}, "is_disabled": 0, "fusion_lat": 0.0, "name": "1fcac905e3adb5f92b7f7ee19dd98fcf", "fusion_lon": 0.0}, {"is_reserved": 0, "type": "electric_scooter", "bike_id": "ec8c1bf54a6ed0c27fb451a269cf2507", "lat": 38.92833433333333, "lon": -77.00604316666667, "rental_uris": {"android": "https://dc.lft.to/lastmile_qr_scan", "ios": "https://dc.lft.to/lastmile_qr_scan"}, "is_disabled": 0, "fusion_lat": 0.0, "name": "ec8c1bf54a6ed0c27fb451a269cf2507", "fusion_lon": 0.0}, {"is_reserved": 0, "type": "electric_scooter", "bike_id": "fc94a9e11b79a02b08587838cddc3d1a", "lat": 38.878510166666665, "lon": -77.00127433333333, "rental_uris": {"android": "https://dc.lft.to/lastmile_qr_scan", "ios": "https://dc.lft.to/lastmile_qr_scan"}, "is_disabled": 0, "fusion_lat": 0.0, "name": "fc94a9e11b79a02b08587838cddc3d1a", "fusion_lon": 0.0}, {"is_reserved": 0, "type": "electric_scooter", "bike_id": "51f8c2ad2d9c6b6cf4b05ff8152dd810", "lat": 38.93716783333333, "lon": -77.032575, "rental_uris": {"android": "https://dc.lft.to/lastmile_qr_scan", "ios": "https://dc.lft.to/lastmile_qr_scan"}, "is_disabled": 0, "fusion_lat": 0.0, "name": "51f8c2ad2d9c6b6cf4b05ff8152dd810", "fusion_lon": 0.0}, {"is_reserved": 0, "type": "electric_scooter", "bike_id": "c90207a0010fe3ba2732f2ae95d68209", "lat": 38.89606466666667, "lon": -77.04408183333334, "rental_uris": {"android": "https://dc.lft.to/lastmile_qr_scan", "ios": "https://dc.lft.to/lastmile_qr_scan"}, "is_disabled": 0, "fusion_lat": 0.0, "name": "c90207a0010fe3ba2732f2ae95d68209", "fusion_lon": 0.0}, {"is_reserved": 0, "type": "electric_scooter", "bike_id": "992990bece6b6e98b0b0f652773ea5b5", "lat": 38.8860455, "lon": -76.9881885, "rental_uris": {"android": "https://dc.lft.to/lastmile_qr_scan", "ios": "https://dc.lft.to/lastmile_qr_scan"}, "is_disabled": 0, "fusion_lat": 0.0, "name": "992990bece6b6e98b0b0f652773ea5b5", "fusion_lon": 0.0}, {"is_reserved": 0, "type": "electric_scooter", "bike_id": "14ed2a9d7a743a2a741abc047187e5ba", "lat": 38.924580666666664, "lon": -77.05223233333334, "rental_uris": {"android": "https://dc.lft.to/lastmile_qr_scan", "ios": "https://dc.lft.to/lastmile_qr_scan"}, "is_disabled": 0, "fusion_lat": 0.0, "name": "14ed2a9d7a743a2a741abc047187e5ba", "fusion_lon": 0.0}, {"is_reserved": 0, "type": "electric_scooter", "bike_id": "62c59de0e61403e3fb382fdffb10af7b", "lat": 38.9260125, "lon": -77.02152716666667, "rental_uris": {"android": "https://dc.lft.to/lastmile_qr_scan", "ios": "https://dc.lft.to/lastmile_qr_scan"}, "is_disabled": 0, "fusion_lat": 0.0, "name": "62c59de0e61403e3fb382fdffb10af7b", "fusion_lon": 0.0}, {"is_reserved": 0, "type": "electric_scooter", "bike_id": "b5445f13712bf84b27bd9cbcce3bb753", "lat": 38.90631833333333, "lon": -77.04625483333334, "rental_uris": {"android": "https://dc.lft.to/lastmile_qr_scan", "ios": "https://dc.lft.to/lastmile_qr_scan"}, "is_disabled": 0, "fusion_lat": 0.0, "name": "b5445f13712bf84b27bd9cbcce3bb753", "fusion_lon": 0.0}, {"is_reserved": 0, "type": "electric_scooter", "bike_id": "3e742129be173918f909127adf8a5e23", "lat": 38.93099683333333, "lon": -77.02415683333334, "rental_uris": {"android": "https://dc.lft.to/lastmile_qr_scan", "ios": "https://dc.lft.to/lastmile_qr_scan"}, "is_disabled": 0, "fusion_lat": 0.0, "name": "3e742129be173918f909127adf8a5e23", "fusion_lon": 0.0}, {"is_reserved": 0, "type": "electric_scooter", "bike_id": "b077b9cda85972ec3ca4f31d8c6d6f68", "lat": 38.918052, "lon": -77.03023666666667, "rental_uris": {"android": "https://dc.lft.to/lastmile_qr_scan", "ios": "https://dc.lft.to/lastmile_qr_scan"}, "is_disabled": 0, "fusion_lat": 0.0, "name": "b077b9cda85972ec3ca4f31d8c6d6f68", "fusion_lon": 0.0}, {"is_reserved": 0, "type": "electric_scooter", "bike_id": "d5dab4c8295a178df2df139f4233440b", "lat": 38.929451666666665, "lon": -77.00408983333334, "rental_uris": {"android": "https://dc.lft.to/lastmile_qr_scan", "ios": "https://dc.lft.to/lastmile_qr_scan"}, "is_disabled": 0, "fusion_lat": 0.0, "name": "d5dab4c8295a178df2df139f4233440b", "fusion_lon": 0.0}, {"is_reserved": 0, "type": "electric_scooter", "bike_id": "ccf53f1ec0d85f6dde146f4dce7cf083", "lat": 38.8962695, "lon": -77.03221816666667, "rental_uris": {"android": "https://dc.lft.to/lastmile_qr_scan", "ios": "https://dc.lft.to/lastmile_qr_scan"}, "is_disabled": 0, "fusion_lat": 0.0, "name": "ccf53f1ec0d85f6dde146f4dce7cf083", "fusion_lon": 0.0}, {"is_reserved": 0, "type": "electric_scooter", "bike_id": "2379dc4916838eb9e2ce6fc26e0806ff", "lat": 38.90063766666667, "lon": -76.92744516666667, "rental_uris": {"android": "https://dc.lft.to/lastmile_qr_scan", "ios": "https://dc.lft.to/lastmile_qr_scan"}, "is_disabled": 0, "fusion_lat": 0.0, "name": "2379dc4916838eb9e2ce6fc26e0806ff", "fusion_lon": 0.0}, {"is_reserved": 0, "type": "electric_scooter", "bike_id": "c3d920cb3a0aa9442eeca6e4f6fb17d5", "lat": 38.887248666666665, "lon": -76.98362083333333, "rental_uris": {"android": "https://dc.lft.to/lastmile_qr_scan", "ios": "https://dc.lft.to/lastmile_qr_scan"}, "is_disabled": 0, "fusion_lat": 0.0, "name": "c3d920cb3a0aa9442eeca6e4f6fb17d5", "fusion_lon": 0.0}, {"is_reserved": 0, "type": "electric_scooter", "bike_id": "633501ac92c5e5666ccd4e2c998b092c", "lat": 38.91489983333334, "lon": -77.0022285, "rental_uris": {"android": "https://dc.lft.to/lastmile_qr_scan", "ios": "https://dc.lft.to/lastmile_qr_scan"}, "is_disabled": 0, "fusion_lat": 0.0, "name": "633501ac92c5e5666ccd4e2c998b092c", "fusion_lon": 0.0}, {"is_reserved": 0, "type": "electric_scooter", "bike_id": "999504847c234fd9362528836c0ade73", "lat": 38.933390333333335, "lon": -77.024038, "rental_uris": {"android": "https://dc.lft.to/lastmile_qr_scan", "ios": "https://dc.lft.to/lastmile_qr_scan"}, "is_disabled": 0, "fusion_lat": 0.0, "name": "999504847c234fd9362528836c0ade73", "fusion_lon": 0.0}, {"is_reserved": 0, "type": "electric_scooter", "bike_id": "f82e9417a208f2039b03703cb0e5e437", "lat": 38.94242766666667, "lon": -77.03585566666666, "rental_uris": {"android": "https://dc.lft.to/lastmile_qr_scan", "ios": "https://dc.lft.to/lastmile_qr_scan"}, "is_disabled": 0, "fusion_lat": 0.0, "name": "f82e9417a208f2039b03703cb0e5e437", "fusion_lon": 0.0}, {"is_reserved": 0, "type": "electric_scooter", "bike_id": "54205def73b4ddd2938168031be2f87c", "lat": 38.91802066666666, "lon": -77.00983566666666, "rental_uris": {"android": "https://dc.lft.to/lastmile_qr_scan", "ios": "https://dc.lft.to/lastmile_qr_scan"}, "is_disabled": 0, "fusion_lat": 0.0, "name": "54205def73b4ddd2938168031be2f87c", "fusion_lon": 0.0}, {"is_reserved": 0, "type": "electric_scooter", "bike_id": "57cd2a7ba5d7d1bd649de093d9b4c9a5", "lat": 38.938837166666666, "lon": -77.03284483333333, "rental_uris": {"android": "https://dc.lft.to/lastmile_qr_scan", "ios": "https://dc.lft.to/lastmile_qr_scan"}, "is_disabled": 0, "fusion_lat": 0.0, "name": "57cd2a7ba5d7d1bd649de093d9b4c9a5", "fusion_lon": 0.0}, {"is_reserved": 0, "type": "electric_scooter", "bike_id": "42e497c18139fe85f08179fa0173b551", "lat": 38.9099195, "lon": -77.0400745, "rental_uris": {"android": "https://dc.lft.to/lastmile_qr_scan", "ios": "https://dc.lft.to/lastmile_qr_scan"}, "is_disabled": 0, "fusion_lat": 0.0, "name": "42e497c18139fe85f08179fa0173b551", "fusion_lon": 0.0}, {"is_reserved": 0, "type": "electric_bike", "bike_id": "f5bb9cd5a4c52a6c077738af0df0d701", "lat": 38.863698166666666, "lon": -76.97007383333333, "rental_uris": {"android": "https://dc.lft.to/lastmile_qr_scan", "ios": "https://dc.lft.to/lastmile_qr_scan"}, "is_disabled": 0, "fusion_lat": 0.0, "name": "f5bb9cd5a4c52a6c077738af0df0d701", "fusion_lon": 0.0}, {"is_reserved": 0, "type": "electric_scooter", "bike_id": "6824b081371ded52ba3dc73a93191eaa", "lat": 38.87813166666667, "lon": -76.994901, "rental_uris": {"android": "https://dc.lft.to/lastmile_qr_scan", "ios": "https://dc.lft.to/lastmile_qr_scan"}, "is_disabled": 0, "fusion_lat": 0.0, "name": "6824b081371ded52ba3dc73a93191eaa", "fusion_lon": 0.0}, {"is_reserved": 0, "type": "electric_scooter", "bike_id": "647c53a52e2d0d65a0a452f193f7183f", "lat": 38.9283335, "lon": -77.02736283333333, "rental_uris": {"android": "https://dc.lft.to/lastmile_qr_scan", "ios": "https://dc.lft.to/lastmile_qr_scan"}, "is_disabled": 0, "fusion_lat": 0.0, "name": "647c53a52e2d0d65a0a452f193f7183f", "fusion_lon": 0.0}, {"is_reserved": 0, "type": "electric_scooter", "bike_id": "91d3f83fed5579754eea4eaaa922b98d", "lat": 38.90533033333333, "lon": -77.00212616666667, "rental_uris": {"android": "https://dc.lft.to/lastmile_qr_scan", "ios": "https://dc.lft.to/lastmile_qr_scan"}, "is_disabled": 0, "fusion_lat": 0.0, "name": "91d3f83fed5579754eea4eaaa922b98d", "fusion_lon": 0.0}, {"is_reserved": 0, "type": "electric_scooter", "bike_id": "4bb7c44fe7169914cf34aa32c24cc505", "lat": 38.8988575, "lon": -76.93179866666667, "rental_uris": {"android": "https://dc.lft.to/lastmile_qr_scan", "ios": "https://dc.lft.to/lastmile_qr_scan"}, "is_disabled": 0, "fusion_lat": 0.0, "name": "4bb7c44fe7169914cf34aa32c24cc505", "fusion_lon": 0.0}, {"is_reserved": 0, "type": "electric_scooter", "bike_id": "f198a1deac6c5fb22d9f5e24a8b17535", "lat": 38.896131, "lon": -77.04408033333333, "rental_uris": {"android": "https://dc.lft.to/lastmile_qr_scan", "ios": "https://dc.lft.to/lastmile_qr_scan"}, "is_disabled": 0, "fusion_lat": 0.0, "name": "f198a1deac6c5fb22d9f5e24a8b17535", "fusion_lon": 0.0}, {"is_reserved": 0, "type": "electric_scooter", "bike_id": "a2f380bc4af23e3276cc5208823a2b3e", "lat": 38.89926533333333, "lon": -76.94580366666666, "rental_uris": {"android": "https://dc.lft.to/lastmile_qr_scan", "ios": "https://dc.lft.to/lastmile_qr_scan"}, "is_disabled": 0, "fusion_lat": 0.0, "name": "a2f380bc4af23e3276cc5208823a2b3e", "fusion_lon": 0.0}, {"is_reserved": 0, "type": "electric_scooter", "bike_id": "0ecc4229b081f009aba21c61ab8c1343", "lat": 38.9044575, "lon": -77.05870533333334, "rental_uris": {"android": "https://dc.lft.to/lastmile_qr_scan", "ios": "https://dc.lft.to/lastmile_qr_scan"}, "is_disabled": 0, "fusion_lat": 0.0, "name": "0ecc4229b081f009aba21c61ab8c1343", "fusion_lon": 0.0}, {"is_reserved": 0, "type": "electric_scooter", "bike_id": "a559a7a513dbb82477de21624081bb98", "lat": 38.92319116666667, "lon": -77.02902166666667, "rental_uris": {"android": "https://dc.lft.to/lastmile_qr_scan", "ios": "https://dc.lft.to/lastmile_qr_scan"}, "is_disabled": 0, "fusion_lat": 0.0, "name": "a559a7a513dbb82477de21624081bb98", "fusion_lon": 0.0}, {"is_reserved": 0, "type": "electric_scooter", "bike_id": "32b29140b98c6383e19973f81c82f356", "lat": 38.9401105, "lon": -77.02743516666666, "rental_uris": {"android": "https://dc.lft.to/lastmile_qr_scan", "ios": "https://dc.lft.to/lastmile_qr_scan"}, "is_disabled": 0, "fusion_lat": 0.0, "name": "32b29140b98c6383e19973f81c82f356", "fusion_lon": 0.0}, {"is_reserved": 0, "type": "electric_scooter", "bike_id": "56ffb2c3302ca6f3ac8dc1769d1f8e83", "lat": 38.920548833333335, "lon": -76.99885933333333, "rental_uris": {"android": "https://dc.lft.to/lastmile_qr_scan", "ios": "https://dc.lft.to/lastmile_qr_scan"}, "is_disabled": 0, "fusion_lat": 0.0, "name": "56ffb2c3302ca6f3ac8dc1769d1f8e83", "fusion_lon": 0.0}, {"is_reserved": 0, "type": "electric_scooter", "bike_id": "739f5d1f260162b503ff07d5edc3af4a", "lat": 38.916478833333336, "lon": -77.02181683333333, "rental_uris": {"android": "https://dc.lft.to/lastmile_qr_scan", "ios": "https://dc.lft.to/lastmile_qr_scan"}, "is_disabled": 0, "fusion_lat": 0.0, "name": "739f5d1f260162b503ff07d5edc3af4a", "fusion_lon": 0.0}, {"is_reserved": 0, "type": "electric_scooter", "bike_id": "ce547e68459b8ecbfa8caf1052c43781", "lat": 38.90261566666667, "lon": -77.00333, "rental_uris": {"android": "https://dc.lft.to/lastmile_qr_scan", "ios": "https://dc.lft.to/lastmile_qr_scan"}, "is_disabled": 0, "fusion_lat": 0.0, "name": "ce547e68459b8ecbfa8caf1052c43781", "fusion_lon": 0.0}, {"is_reserved": 0, "type": "electric_scooter", "bike_id": "04905393ad00a79a3a60233548b233c0", "lat": 38.9179655, "lon": -77.03204583333333, "rental_uris": {"android": "https://dc.lft.to/lastmile_qr_scan", "ios": "https://dc.lft.to/lastmile_qr_scan"}, "is_disabled": 0, "fusion_lat": 0.0, "name": "04905393ad00a79a3a60233548b233c0", "fusion_lon": 0.0}, {"is_reserved": 0, "type": "electric_scooter", "bike_id": "3669966cef5da65194850033822026a0", "lat": 38.927557166666666, "lon": -77.03273616666667, "rental_uris": {"android": "https://dc.lft.to/lastmile_qr_scan", "ios": "https://dc.lft.to/lastmile_qr_scan"}, "is_disabled": 0, "fusion_lat": 0.0, "name": "3669966cef5da65194850033822026a0", "fusion_lon": 0.0}, {"is_reserved": 0, "type": "electric_scooter", "bike_id": "e9e0af0ff88ba9cecf67d8df6ade56aa", "lat": 38.8877145, "lon": -76.93264483333333, "rental_uris": {"android": "https://dc.lft.to/lastmile_qr_scan", "ios": "https://dc.lft.to/lastmile_qr_scan"}, "is_disabled": 0, "fusion_lat": 0.0, "name": "e9e0af0ff88ba9cecf67d8df6ade56aa", "fusion_lon": 0.0}, {"is_reserved": 0, "type": "electric_scooter", "bike_id": "75c41208acef7317df64754ab542fbba", "lat": 38.91669183333333, "lon": -77.02386216666666, "rental_uris": {"android": "https://dc.lft.to/lastmile_qr_scan", "ios": "https://dc.lft.to/lastmile_qr_scan"}, "is_disabled": 0, "fusion_lat": 0.0, "name": "75c41208acef7317df64754ab542fbba", "fusion_lon": 0.0}, {"is_reserved": 0, "type": "electric_scooter", "bike_id": "a6eacfcfe16a55d22473aba52fcc088c", "lat": 38.91112016666666, "lon": -77.04283983333333, "rental_uris": {"android": "https://dc.lft.to/lastmile_qr_scan", "ios": "https://dc.lft.to/lastmile_qr_scan"}, "is_disabled": 0, "fusion_lat": 0.0, "name": "a6eacfcfe16a55d22473aba52fcc088c", "fusion_lon": 0.0}, {"is_reserved": 0, "type": "electric_scooter", "bike_id": "77b5eff0364c8968e0e28846ad2e3afe", "lat": 38.89224433333333, "lon": -77.04333483333333, "rental_uris": {"android": "https://dc.lft.to/lastmile_qr_scan", "ios": "https://dc.lft.to/lastmile_qr_scan"}, "is_disabled": 0, "fusion_lat": 0.0, "name": "77b5eff0364c8968e0e28846ad2e3afe", "fusion_lon": 0.0}, {"is_reserved": 0, "type": "electric_scooter", "bike_id": "7340d42942c32b72ae6d1d31bd51cad0", "lat": 38.905470333333334, "lon": -77.005954, "rental_uris": {"android": "https://dc.lft.to/lastmile_qr_scan", "ios": "https://dc.lft.to/lastmile_qr_scan"}, "is_disabled": 0, "fusion_lat": 0.0, "name": "7340d42942c32b72ae6d1d31bd51cad0", "fusion_lon": 0.0}, {"is_reserved": 0, "type": "electric_scooter", "bike_id": "cb2e3fd677c9f1d197e224a07a52eeae", "lat": 38.90461116666667, "lon": -77.00638033333334, "rental_uris": {"android": "https://dc.lft.to/lastmile_qr_scan", "ios": "https://dc.lft.to/lastmile_qr_scan"}, "is_disabled": 0, "fusion_lat": 0.0, "name": "cb2e3fd677c9f1d197e224a07a52eeae", "fusion_lon": 0.0}, {"is_reserved": 0, "type": "electric_scooter", "bike_id": "dbc95e22a99d96a54d460c3153a2fe26", "lat": 38.916314666666665, "lon": -77.0463075, "rental_uris": {"android": "https://dc.lft.to/lastmile_qr_scan", "ios": "https://dc.lft.to/lastmile_qr_scan"}, "is_disabled": 0, "fusion_lat": 0.0, "name": "dbc95e22a99d96a54d460c3153a2fe26", "fusion_lon": 0.0}, {"is_reserved": 0, "type": "electric_scooter", "bike_id": "9449040eaa99d18f91bc17c785a51329", "lat": 38.898271666666666, "lon": -77.00757016666667, "rental_uris": {"android": "https://dc.lft.to/lastmile_qr_scan", "ios": "https://dc.lft.to/lastmile_qr_scan"}, "is_disabled": 0, "fusion_lat": 0.0, "name": "9449040eaa99d18f91bc17c785a51329", "fusion_lon": 0.0}, {"is_reserved": 0, "type": "electric_scooter", "bike_id": "00971087e1231ca07a0bd3f916e0e9f2", "lat": 38.92502066666667, "lon": -77.02453466666667, "rental_uris": {"android": "https://dc.lft.to/lastmile_qr_scan", "ios": "https://dc.lft.to/lastmile_qr_scan"}, "is_disabled": 0, "fusion_lat": 0.0, "name": "00971087e1231ca07a0bd3f916e0e9f2", "fusion_lon": 0.0}, {"is_reserved": 0, "type": "electric_scooter", "bike_id": "64774b334b9ee5e887946e2f640f089c", "lat": 38.90900383333334, "lon": -77.002837, "rental_uris": {"android": "https://dc.lft.to/lastmile_qr_scan", "ios": "https://dc.lft.to/lastmile_qr_scan"}, "is_disabled": 0, "fusion_lat": 0.0, "name": "64774b334b9ee5e887946e2f640f089c", "fusion_lon": 0.0}, {"is_reserved": 0, "type": "electric_scooter", "bike_id": "74e53503a7dd9f90fb66c8e0db3be053", "lat": 38.8948485, "lon": -77.0019755, "rental_uris": {"android": "https://dc.lft.to/lastmile_qr_scan", "ios": "https://dc.lft.to/lastmile_qr_scan"}, "is_disabled": 0, "fusion_lat": 0.0, "name": "74e53503a7dd9f90fb66c8e0db3be053", "fusion_lon": 0.0}, {"is_reserved": 0, "type": "electric_scooter", "bike_id": "63b93eecc41c164b2fde7b1c7e4b67e3", "lat": 38.9243765, "lon": -77.0401995, "rental_uris": {"android": "https://dc.lft.to/lastmile_qr_scan", "ios": "https://dc.lft.to/lastmile_qr_scan"}, "is_disabled": 0, "fusion_lat": 0.0, "name": "63b93eecc41c164b2fde7b1c7e4b67e3", "fusion_lon": 0.0}, {"is_reserved": 0, "type": "electric_scooter", "bike_id": "17ce81bc62af29cb1689f54618adc39e", "lat": 38.9006215, "lon": -77.05436683333333, "rental_uris": {"android": "https://dc.lft.to/lastmile_qr_scan", "ios": "https://dc.lft.to/lastmile_qr_scan"}, "is_disabled": 0, "fusion_lat": 0.0, "name": "17ce81bc62af29cb1689f54618adc39e", "fusion_lon": 0.0}, {"is_reserved": 0, "type": "electric_scooter", "bike_id": "0da02391d71ef425f1c79b9330e55691", "lat": 38.912649, "lon": -77.02610866666667, "rental_uris": {"android": "https://dc.lft.to/lastmile_qr_scan", "ios": "https://dc.lft.to/lastmile_qr_scan"}, "is_disabled": 0, "fusion_lat": 0.0, "name": "0da02391d71ef425f1c79b9330e55691", "fusion_lon": 0.0}, {"is_reserved": 0, "type": "electric_scooter", "bike_id": "6235c5495ea141faa12b2dda8ad9b391", "lat": 38.924049333333336, "lon": -77.02310333333334, "rental_uris": {"android": "https://dc.lft.to/lastmile_qr_scan", "ios": "https://dc.lft.to/lastmile_qr_scan"}, "is_disabled": 0, "fusion_lat": 0.0, "name": "6235c5495ea141faa12b2dda8ad9b391", "fusion_lon": 0.0}, {"is_reserved": 0, "type": "electric_scooter", "bike_id": "7215e997763dacd98cc4a2443f77aa9c", "lat": 38.91344816666667, "lon": -77.032031, "rental_uris": {"android": "https://dc.lft.to/lastmile_qr_scan", "ios": "https://dc.lft.to/lastmile_qr_scan"}, "is_disabled": 0, "fusion_lat": 0.0, "name": "7215e997763dacd98cc4a2443f77aa9c", "fusion_lon": 0.0}, {"is_reserved": 0, "type": "electric_scooter", "bike_id": "f6837abd2ab9b5ae9f096cfbe5dac298", "lat": 38.89217583333333, "lon": -77.04869283333333, "rental_uris": {"android": "https://dc.lft.to/lastmile_qr_scan", "ios": "https://dc.lft.to/lastmile_qr_scan"}, "is_disabled": 0, "fusion_lat": 0.0, "name": "f6837abd2ab9b5ae9f096cfbe5dac298", "fusion_lon": 0.0}, {"is_reserved": 0, "type": "electric_scooter", "bike_id": "e97762310e0b94778e27d0e6bc012c08", "lat": 38.90748766666667, "lon": -77.00786383333333, "rental_uris": {"android": "https://dc.lft.to/lastmile_qr_scan", "ios": "https://dc.lft.to/lastmile_qr_scan"}, "is_disabled": 0, "fusion_lat": 0.0, "name": "e97762310e0b94778e27d0e6bc012c08", "fusion_lon": 0.0}, {"is_reserved": 0, "type": "electric_scooter", "bike_id": "50f9fafe8d08efdd053956456c3b2dd6", "lat": 38.91633216666666, "lon": -77.03176966666666, "rental_uris": {"android": "https://dc.lft.to/lastmile_qr_scan", "ios": "https://dc.lft.to/lastmile_qr_scan"}, "is_disabled": 0, "fusion_lat": 0.0, "name": "50f9fafe8d08efdd053956456c3b2dd6", "fusion_lon": 0.0}, {"is_reserved": 0, "type": "electric_scooter", "bike_id": "5634baffae6683ceff968b0d9b41a5be", "lat": 38.90376666666667, "lon": -77.02152333333333, "rental_uris": {"android": "https://dc.lft.to/lastmile_qr_scan", "ios": "https://dc.lft.to/lastmile_qr_scan"}, "is_disabled": 0, "fusion_lat": 0.0, "name": "5634baffae6683ceff968b0d9b41a5be", "fusion_lon": 0.0}, {"is_reserved": 0, "type": "electric_scooter", "bike_id": "07ce5b294ee1100cb65cbb00047a4750", "lat": 38.907184666666666, "lon": -77.04814616666667, "rental_uris": {"android": "https://dc.lft.to/lastmile_qr_scan", "ios": "https://dc.lft.to/lastmile_qr_scan"}, "is_disabled": 0, "fusion_lat": 0.0, "name": "07ce5b294ee1100cb65cbb00047a4750", "fusion_lon": 0.0}, {"is_reserved": 0, "type": "electric_scooter", "bike_id": "0c3615a72668f8da3973be8e23ebb0d7", "lat": 38.925778666666666, "lon": -76.99487283333333, "rental_uris": {"android": "https://dc.lft.to/lastmile_qr_scan", "ios": "https://dc.lft.to/lastmile_qr_scan"}, "is_disabled": 0, "fusion_lat": 0.0, "name": "0c3615a72668f8da3973be8e23ebb0d7", "fusion_lon": 0.0}, {"is_reserved": 0, "type": "electric_bike", "bike_id": "cc82ca1ab97c08e84048ae86e8dd7ff7", "lat": 38.881249333333336, "lon": -77.016844, "rental_uris": {"android": "https://dc.lft.to/lastmile_qr_scan", "ios": "https://dc.lft.to/lastmile_qr_scan"}, "is_disabled": 0, "fusion_lat": 0.0, "name": "cc82ca1ab97c08e84048ae86e8dd7ff7", "fusion_lon": 0.0}, {"is_reserved": 0, "type": "electric_scooter", "bike_id": "2ac4e83c71c97b4cc91ab23b7da4d51d", "lat": 38.886131666666664, "lon": -76.99653066666667, "rental_uris": {"android": "https://dc.lft.to/lastmile_qr_scan", "ios": "https://dc.lft.to/lastmile_qr_scan"}, "is_disabled": 0, "fusion_lat": 0.0, "name": "2ac4e83c71c97b4cc91ab23b7da4d51d", "fusion_lon": 0.0}, {"is_reserved": 0, "type": "electric_scooter", "bike_id": "182b477d4cf39ce0900d1839113e18ca", "lat": 38.91755933333334, "lon": -77.0121435, "rental_uris": {"android": "https://dc.lft.to/lastmile_qr_scan", "ios": "https://dc.lft.to/lastmile_qr_scan"}, "is_disabled": 0, "fusion_lat": 0.0, "name": "182b477d4cf39ce0900d1839113e18ca", "fusion_lon": 0.0}, {"is_reserved": 0, "type": "electric_scooter", "bike_id": "2aa591971fe937e1e3c943f72b78552d", "lat": 38.898390166666665, "lon": -77.02813383333333, "rental_uris": {"android": "https://dc.lft.to/lastmile_qr_scan", "ios": "https://dc.lft.to/lastmile_qr_scan"}, "is_disabled": 0, "fusion_lat": 0.0, "name": "2aa591971fe937e1e3c943f72b78552d", "fusion_lon": 0.0}, {"is_reserved": 0, "type": "electric_scooter", "bike_id": "d94c6e1a7e645a0cf456b2617ff70172", "lat": 38.88495416666667, "lon": -77.007128, "rental_uris": {"android": "https://dc.lft.to/lastmile_qr_scan", "ios": "https://dc.lft.to/lastmile_qr_scan"}, "is_disabled": 0, "fusion_lat": 0.0, "name": "d94c6e1a7e645a0cf456b2617ff70172", "fusion_lon": 0.0}, {"is_reserved": 0, "type": "electric_scooter", "bike_id": "3cba8bad8bb677df15157c462de93bf1", "lat": 38.92444916666667, "lon": -77.03404666666667, "rental_uris": {"android": "https://dc.lft.to/lastmile_qr_scan", "ios": "https://dc.lft.to/lastmile_qr_scan"}, "is_disabled": 0, "fusion_lat": 0.0, "name": "3cba8bad8bb677df15157c462de93bf1", "fusion_lon": 0.0}, {"is_reserved": 0, "type": "electric_scooter", "bike_id": "2ee2f7e68ac3f6170afd91d361aff73f", "lat": 38.9244975, "lon": -77.03407866666667, "rental_uris": {"android": "https://dc.lft.to/lastmile_qr_scan", "ios": "https://dc.lft.to/lastmile_qr_scan"}, "is_disabled": 0, "fusion_lat": 0.0, "name": "2ee2f7e68ac3f6170afd91d361aff73f", "fusion_lon": 0.0}, {"is_reserved": 0, "type": "electric_scooter", "bike_id": "44d7c198336d3fc9b9ac4f3d5eb8eb7b", "lat": 38.90379766666667, "lon": -77.0161415, "rental_uris": {"android": "https://dc.lft.to/lastmile_qr_scan", "ios": "https://dc.lft.to/lastmile_qr_scan"}, "is_disabled": 0, "fusion_lat": 0.0, "name": "44d7c198336d3fc9b9ac4f3d5eb8eb7b", "fusion_lon": 0.0}, {"is_reserved": 0, "type": "electric_scooter", "bike_id": "0e8b533838e203b1617cf6f7f2385805", "lat": 38.91270383333333, "lon": -77.031632, "rental_uris": {"android": "https://dc.lft.to/lastmile_qr_scan", "ios": "https://dc.lft.to/lastmile_qr_scan"}, "is_disabled": 0, "fusion_lat": 0.0, "name": "0e8b533838e203b1617cf6f7f2385805", "fusion_lon": 0.0}, {"is_reserved": 0, "type": "electric_scooter", "bike_id": "157b2b24a0f36e78fbe94267efd91847", "lat": 38.92228583333333, "lon": -77.01807733333334, "rental_uris": {"android": "https://dc.lft.to/lastmile_qr_scan", "ios": "https://dc.lft.to/lastmile_qr_scan"}, "is_disabled": 0, "fusion_lat": 0.0, "name": "157b2b24a0f36e78fbe94267efd91847", "fusion_lon": 0.0}, {"is_reserved": 0, "type": "electric_scooter", "bike_id": "4bff1749cdfbdddce3139a050c47431f", "lat": 38.92274066666667, "lon": -77.02125, "rental_uris": {"android": "https://dc.lft.to/lastmile_qr_scan", "ios": "https://dc.lft.to/lastmile_qr_scan"}, "is_disabled": 0, "fusion_lat": 0.0, "name": "4bff1749cdfbdddce3139a050c47431f", "fusion_lon": 0.0}, {"is_reserved": 0, "type": "electric_scooter", "bike_id": "d7bdc03156381d80e94c4c534c79b831", "lat": 38.925500166666666, "lon": -77.0322355, "rental_uris": {"android": "https://dc.lft.to/lastmile_qr_scan", "ios": "https://dc.lft.to/lastmile_qr_scan"}, "is_disabled": 0, "fusion_lat": 0.0, "name": "d7bdc03156381d80e94c4c534c79b831", "fusion_lon": 0.0}, {"is_reserved": 0, "type": "electric_scooter", "bike_id": "5a6eb7c3c47faf8f18f2b071b75c3cac", "lat": 38.907964, "lon": -77.0423805, "rental_uris": {"android": "https://dc.lft.to/lastmile_qr_scan", "ios": "https://dc.lft.to/lastmile_qr_scan"}, "is_disabled": 0, "fusion_lat": 0.0, "name": "5a6eb7c3c47faf8f18f2b071b75c3cac", "fusion_lon": 0.0}, {"is_reserved": 0, "type": "electric_scooter", "bike_id": "a0fc6edefc54449c2eb758d94364f3ec", "lat": 38.914929, "lon": -77.01996683333333, "rental_uris": {"android": "https://dc.lft.to/lastmile_qr_scan", "ios": "https://dc.lft.to/lastmile_qr_scan"}, "is_disabled": 0, "fusion_lat": 0.0, "name": "a0fc6edefc54449c2eb758d94364f3ec", "fusion_lon": 0.0}, {"is_reserved": 0, "type": "electric_scooter", "bike_id": "3a759bed9e0fa08626326e5c9a60efa3", "lat": 38.923216333333336, "lon": -77.02969283333333, "rental_uris": {"android": "https://dc.lft.to/lastmile_qr_scan", "ios": "https://dc.lft.to/lastmile_qr_scan"}, "is_disabled": 0, "fusion_lat": 0.0, "name": "3a759bed9e0fa08626326e5c9a60efa3", "fusion_lon": 0.0}, {"is_reserved": 0, "type": "electric_scooter", "bike_id": "a9ccf8b5a14823a0febee65bf9757b28", "lat": 38.911880833333335, "lon": -77.00545583333333, "rental_uris": {"android": "https://dc.lft.to/lastmile_qr_scan", "ios": "https://dc.lft.to/lastmile_qr_scan"}, "is_disabled": 0, "fusion_lat": 0.0, "name": "a9ccf8b5a14823a0febee65bf9757b28", "fusion_lon": 0.0}, {"is_reserved": 0, "type": "electric_bike", "bike_id": "9831b87c8b4e561f96ea0a3cf908c963", "lat": 38.91701066666667, "lon": -77.057209, "rental_uris": {"android": "https://dc.lft.to/lastmile_qr_scan", "ios": "https://dc.lft.to/lastmile_qr_scan"}, "is_disabled": 0, "fusion_lat": 0.0, "name": "9831b87c8b4e561f96ea0a3cf908c963", "fusion_lon": 0.0}, {"is_reserved": 0, "type": "electric_scooter", "bike_id": "abed0543b458ca71ad004627b30dd30b", "lat": 38.897080333333335, "lon": -77.0501165, "rental_uris": {"android": "https://dc.lft.to/lastmile_qr_scan", "ios": "https://dc.lft.to/lastmile_qr_scan"}, "is_disabled": 0, "fusion_lat": 0.0, "name": "abed0543b458ca71ad004627b30dd30b", "fusion_lon": 0.0}, {"is_reserved": 0, "type": "electric_scooter", "bike_id": "25645931a45ab38ff2917735dc84cb5d", "lat": 38.933568333333334, "lon": -77.05725616666666, "rental_uris": {"android": "https://dc.lft.to/lastmile_qr_scan", "ios": "https://dc.lft.to/lastmile_qr_scan"}, "is_disabled": 0, "fusion_lat": 0.0, "name": "25645931a45ab38ff2917735dc84cb5d", "fusion_lon": 0.0}, {"is_reserved": 0, "type": "electric_scooter", "bike_id": "90692bb5efd5346409c18c301e147cfa", "lat": 38.87582333333334, "lon": -77.0200185, "rental_uris": {"android": "https://dc.lft.to/lastmile_qr_scan", "ios": "https://dc.lft.to/lastmile_qr_scan"}, "is_disabled": 0, "fusion_lat": 0.0, "name": "90692bb5efd5346409c18c301e147cfa", "fusion_lon": 0.0}, {"is_reserved": 0, "type": "electric_scooter", "bike_id": "ce515424a6e06ff06d6032dd3ccd4a89", "lat": 38.911227833333335, "lon": -77.0220085, "rental_uris": {"android": "https://dc.lft.to/lastmile_qr_scan", "ios": "https://dc.lft.to/lastmile_qr_scan"}, "is_disabled": 0, "fusion_lat": 0.0, "name": "ce515424a6e06ff06d6032dd3ccd4a89", "fusion_lon": 0.0}, {"is_reserved": 0, "type": "electric_scooter", "bike_id": "9c84a956fb3b1e733d786e8e5311f5fd", "lat": 38.924444666666666, "lon": -77.02155833333333, "rental_uris": {"android": "https://dc.lft.to/lastmile_qr_scan", "ios": "https://dc.lft.to/lastmile_qr_scan"}, "is_disabled": 0, "fusion_lat": 0.0, "name": "9c84a956fb3b1e733d786e8e5311f5fd", "fusion_lon": 0.0}, {"is_reserved": 0, "type": "electric_scooter", "bike_id": "1b85408abffa85d09545f77f9a647a3f", "lat": 38.93950383333333, "lon": -77.027537, "rental_uris": {"android": "https://dc.lft.to/lastmile_qr_scan", "ios": "https://dc.lft.to/lastmile_qr_scan"}, "is_disabled": 0, "fusion_lat": 0.0, "name": "1b85408abffa85d09545f77f9a647a3f", "fusion_lon": 0.0}, {"is_reserved": 0, "type": "electric_scooter", "bike_id": "125552ee8bb764d07599e3b5de91be19", "lat": 38.924214666666664, "lon": -77.019785, "rental_uris": {"android": "https://dc.lft.to/lastmile_qr_scan", "ios": "https://dc.lft.to/lastmile_qr_scan"}, "is_disabled": 0, "fusion_lat": 0.0, "name": "125552ee8bb764d07599e3b5de91be19", "fusion_lon": 0.0}, {"is_reserved": 0, "type": "electric_scooter", "bike_id": "0d4e44f2765144ca488e83bc986b5de5", "lat": 38.91964183333333, "lon": -77.02224166666667, "rental_uris": {"android": "https://dc.lft.to/lastmile_qr_scan", "ios": "https://dc.lft.to/lastmile_qr_scan"}, "is_disabled": 0, "fusion_lat": 0.0, "name": "0d4e44f2765144ca488e83bc986b5de5", "fusion_lon": 0.0}, {"is_reserved": 0, "type": "electric_scooter", "bike_id": "db09efe1ec7db701dd149b8b9c1a711d", "lat": 38.8922445, "lon": -77.0436065, "rental_uris": {"android": "https://dc.lft.to/lastmile_qr_scan", "ios": "https://dc.lft.to/lastmile_qr_scan"}, "is_disabled": 0, "fusion_lat": 0.0, "name": "db09efe1ec7db701dd149b8b9c1a711d", "fusion_lon": 0.0}, {"is_reserved": 0, "type": "electric_scooter", "bike_id": "5b6070b2ebaec7b69d6af2f5b1625e95", "lat": 38.9537655, "lon": -77.00192133333333, "rental_uris": {"android": "https://dc.lft.to/lastmile_qr_scan", "ios": "https://dc.lft.to/lastmile_qr_scan"}, "is_disabled": 0, "fusion_lat": 0.0, "name": "5b6070b2ebaec7b69d6af2f5b1625e95", "fusion_lon": 0.0}, {"is_reserved": 0, "type": "electric_scooter", "bike_id": "d8341e3e9072b7cd9f411a2a27bf575e", "lat": 38.9362235, "lon": -77.024758, "rental_uris": {"android": "https://dc.lft.to/lastmile_qr_scan", "ios": "https://dc.lft.to/lastmile_qr_scan"}, "is_disabled": 0, "fusion_lat": 0.0, "name": "d8341e3e9072b7cd9f411a2a27bf575e", "fusion_lon": 0.0}, {"is_reserved": 0, "type": "electric_scooter", "bike_id": "224ad43d4789d3abf05e651ddd994570", "lat": 38.89955633333334, "lon": -77.04774933333333, "rental_uris": {"android": "https://dc.lft.to/lastmile_qr_scan", "ios": "https://dc.lft.to/lastmile_qr_scan"}, "is_disabled": 0, "fusion_lat": 0.0, "name": "224ad43d4789d3abf05e651ddd994570", "fusion_lon": 0.0}, {"is_reserved": 0, "type": "electric_scooter", "bike_id": "e97966c2e090a55e397e2b7e3e689289", "lat": 38.8637775, "lon": -76.99066533333334, "rental_uris": {"android": "https://dc.lft.to/lastmile_qr_scan", "ios": "https://dc.lft.to/lastmile_qr_scan"}, "is_disabled": 0, "fusion_lat": 0.0, "name": "e97966c2e090a55e397e2b7e3e689289", "fusion_lon": 0.0}, {"is_reserved": 0, "type": "electric_scooter", "bike_id": "50e301ba65b8a457015cbdfc0b1363ab", "lat": 38.90549733333334, "lon": -77.00590216666667, "rental_uris": {"android": "https://dc.lft.to/lastmile_qr_scan", "ios": "https://dc.lft.to/lastmile_qr_scan"}, "is_disabled": 0, "fusion_lat": 0.0, "name": "50e301ba65b8a457015cbdfc0b1363ab", "fusion_lon": 0.0}, {"is_reserved": 0, "type": "electric_bike", "bike_id": "8d89723776b8b47b5af59da6d85102e1", "lat": 39.000286, "lon": -77.04743283333333, "rental_uris": {"android": "https://dc.lft.to/lastmile_qr_scan", "ios": "https://dc.lft.to/lastmile_qr_scan"}, "is_disabled": 0, "fusion_lat": 0.0, "name": "8d89723776b8b47b5af59da6d85102e1", "fusion_lon": 0.0}, {"is_reserved": 0, "type": "electric_scooter", "bike_id": "c44d44d3b6d1718bed0b8a104bd123c7", "lat": 38.928235666666666, "lon": -77.05436566666667, "rental_uris": {"android": "https://dc.lft.to/lastmile_qr_scan", "ios": "https://dc.lft.to/lastmile_qr_scan"}, "is_disabled": 0, "fusion_lat": 0.0, "name": "c44d44d3b6d1718bed0b8a104bd123c7", "fusion_lon": 0.0}, {"is_reserved": 0, "type": "electric_scooter", "bike_id": "3490c0450997008a6aaf6fac95c7860a", "lat": 38.9274605, "lon": -77.033096, "rental_uris": {"android": "https://dc.lft.to/lastmile_qr_scan", "ios": "https://dc.lft.to/lastmile_qr_scan"}, "is_disabled": 0, "fusion_lat": 0.0, "name": "3490c0450997008a6aaf6fac95c7860a", "fusion_lon": 0.0}, {"is_reserved": 0, "type": "electric_scooter", "bike_id": "838d8f1d5e51f56726666a2cc7b6e9fe", "lat": 38.928248333333336, "lon": -77.054413, "rental_uris": {"android": "https://dc.lft.to/lastmile_qr_scan", "ios": "https://dc.lft.to/lastmile_qr_scan"}, "is_disabled": 0, "fusion_lat": 0.0, "name": "838d8f1d5e51f56726666a2cc7b6e9fe", "fusion_lon": 0.0}, {"is_reserved": 0, "type": "electric_scooter", "bike_id": "98ae9c87612a07fc2d94cf51b97881a5", "lat": 38.91834383333333, "lon": -77.01474366666666, "rental_uris": {"android": "https://dc.lft.to/lastmile_qr_scan", "ios": "https://dc.lft.to/lastmile_qr_scan"}, "is_disabled": 0, "fusion_lat": 0.0, "name": "98ae9c87612a07fc2d94cf51b97881a5", "fusion_lon": 0.0}, {"is_reserved": 0, "type": "electric_scooter", "bike_id": "7c4c3f078c081c217ec29a375e567fcd", "lat": 38.899383, "lon": -76.977129, "rental_uris": {"android": "https://dc.lft.to/lastmile_qr_scan", "ios": "https://dc.lft.to/lastmile_qr_scan"}, "is_disabled": 0, "fusion_lat": 0.0, "name": "7c4c3f078c081c217ec29a375e567fcd", "fusion_lon": 0.0}, {"is_reserved": 0, "type": "electric_scooter", "bike_id": "ee3e42aa49346e16f81955691fcd6c90", "lat": 38.92455616666667, "lon": -77.05222566666667, "rental_uris": {"android": "https://dc.lft.to/lastmile_qr_scan", "ios": "https://dc.lft.to/lastmile_qr_scan"}, "is_disabled": 0, "fusion_lat": 0.0, "name": "ee3e42aa49346e16f81955691fcd6c90", "fusion_lon": 0.0}, {"is_reserved": 0, "type": "electric_scooter", "bike_id": "7b18e72c487190cf11b308386e72cb12", "lat": 38.926530666666665, "lon": -77.03710916666667, "rental_uris": {"android": "https://dc.lft.to/lastmile_qr_scan", "ios": "https://dc.lft.to/lastmile_qr_scan"}, "is_disabled": 0, "fusion_lat": 0.0, "name": "7b18e72c487190cf11b308386e72cb12", "fusion_lon": 0.0}, {"is_reserved": 0, "type": "electric_scooter", "bike_id": "6f38378a4645b6efee6c60b9eaff772b", "lat": 38.905737333333335, "lon": -77.00788283333333, "rental_uris": {"android": "https://dc.lft.to/lastmile_qr_scan", "ios": "https://dc.lft.to/lastmile_qr_scan"}, "is_disabled": 0, "fusion_lat": 0.0, "name": "6f38378a4645b6efee6c60b9eaff772b", "fusion_lon": 0.0}, {"is_reserved": 0, "type": "electric_scooter", "bike_id": "ca05c58ff0e279b3c5fe8f2fe7458c11", "lat": 38.89220433333333, "lon": -77.04687183333333, "rental_uris": {"android": "https://dc.lft.to/lastmile_qr_scan", "ios": "https://dc.lft.to/lastmile_qr_scan"}, "is_disabled": 0, "fusion_lat": 0.0, "name": "ca05c58ff0e279b3c5fe8f2fe7458c11", "fusion_lon": 0.0}, {"is_reserved": 0, "type": "electric_scooter", "bike_id": "3c1f366303e66b93488bc3e8ee2b4f1d", "lat": 38.914687, "lon": -76.984491, "rental_uris": {"android": "https://dc.lft.to/lastmile_qr_scan", "ios": "https://dc.lft.to/lastmile_qr_scan"}, "is_disabled": 0, "fusion_lat": 0.0, "name": "3c1f366303e66b93488bc3e8ee2b4f1d", "fusion_lon": 0.0}, {"is_reserved": 0, "type": "electric_scooter", "bike_id": "7fece8e977673deb94aa5428272db3fd", "lat": 38.919850333333336, "lon": -77.03309333333333, "rental_uris": {"android": "https://dc.lft.to/lastmile_qr_scan", "ios": "https://dc.lft.to/lastmile_qr_scan"}, "is_disabled": 0, "fusion_lat": 0.0, "name": "7fece8e977673deb94aa5428272db3fd", "fusion_lon": 0.0}, {"is_reserved": 0, "type": "electric_scooter", "bike_id": "3ee4a85e9ba8ad3c706fa0841313a8d3", "lat": 38.90367166666667, "lon": -76.98488666666667, "rental_uris": {"android": "https://dc.lft.to/lastmile_qr_scan", "ios": "https://dc.lft.to/lastmile_qr_scan"}, "is_disabled": 0, "fusion_lat": 0.0, "name": "3ee4a85e9ba8ad3c706fa0841313a8d3", "fusion_lon": 0.0}, {"is_reserved": 0, "type": "electric_scooter", "bike_id": "ff91e6b1d7a3bd72762b80c8b681fadc", "lat": 38.93415233333333, "lon": -77.033849, "rental_uris": {"android": "https://dc.lft.to/lastmile_qr_scan", "ios": "https://dc.lft.to/lastmile_qr_scan"}, "is_disabled": 0, "fusion_lat": 0.0, "name": "ff91e6b1d7a3bd72762b80c8b681fadc", "fusion_lon": 0.0}, {"is_reserved": 0, "type": "electric_scooter", "bike_id": "d369fbddb57ad82c69ff620913e18c82", "lat": 38.924837, "lon": -77.027258, "rental_uris": {"android": "https://dc.lft.to/lastmile_qr_scan", "ios": "https://dc.lft.to/lastmile_qr_scan"}, "is_disabled": 0, "fusion_lat": 0.0, "name": "d369fbddb57ad82c69ff620913e18c82", "fusion_lon": 0.0}, {"is_reserved": 0, "type": "electric_scooter", "bike_id": "46b637474e7213065a3fc3304e2a66b2", "lat": 38.899739333333336, "lon": -76.99483266666667, "rental_uris": {"android": "https://dc.lft.to/lastmile_qr_scan", "ios": "https://dc.lft.to/lastmile_qr_scan"}, "is_disabled": 0, "fusion_lat": 0.0, "name": "46b637474e7213065a3fc3304e2a66b2", "fusion_lon": 0.0}, {"is_reserved": 0, "type": "electric_scooter", "bike_id": "41bdd8c7205f71aad8cd9c98cb4644b7", "lat": 38.9376595, "lon": -77.0284535, "rental_uris": {"android": "https://dc.lft.to/lastmile_qr_scan", "ios": "https://dc.lft.to/lastmile_qr_scan"}, "is_disabled": 0, "fusion_lat": 0.0, "name": "41bdd8c7205f71aad8cd9c98cb4644b7", "fusion_lon": 0.0}, {"is_reserved": 0, "type": "electric_scooter", "bike_id": "28dbc33e0b20d7c5aa3eef366e95ca0c", "lat": 38.89505783333333, "lon": -77.02167833333333, "rental_uris": {"android": "https://dc.lft.to/lastmile_qr_scan", "ios": "https://dc.lft.to/lastmile_qr_scan"}, "is_disabled": 0, "fusion_lat": 0.0, "name": "28dbc33e0b20d7c5aa3eef366e95ca0c", "fusion_lon": 0.0}, {"is_reserved": 0, "type": "electric_scooter", "bike_id": "fdcfe50e82b50290bef07b73eedc57de", "lat": 38.87738783333333, "lon": -77.01897466666667, "rental_uris": {"android": "https://dc.lft.to/lastmile_qr_scan", "ios": "https://dc.lft.to/lastmile_qr_scan"}, "is_disabled": 0, "fusion_lat": 0.0, "name": "fdcfe50e82b50290bef07b73eedc57de", "fusion_lon": 0.0}, {"is_reserved": 0, "type": "electric_scooter", "bike_id": "7c7909bb6cfce76bbac72d8008a67f9b", "lat": 38.92649133333333, "lon": -77.037134, "rental_uris": {"android": "https://dc.lft.to/lastmile_qr_scan", "ios": "https://dc.lft.to/lastmile_qr_scan"}, "is_disabled": 0, "fusion_lat": 0.0, "name": "7c7909bb6cfce76bbac72d8008a67f9b", "fusion_lon": 0.0}, {"is_reserved": 0, "type": "electric_scooter", "bike_id": "ba413e5266b8d748e63b2ae5cfd060b5", "lat": 38.956210166666665, "lon": -77.00325116666667, "rental_uris": {"android": "https://dc.lft.to/lastmile_qr_scan", "ios": "https://dc.lft.to/lastmile_qr_scan"}, "is_disabled": 0, "fusion_lat": 0.0, "name": "ba413e5266b8d748e63b2ae5cfd060b5", "fusion_lon": 0.0}, {"is_reserved": 0, "type": "electric_scooter", "bike_id": "dc154ae3cf7f9c23d8a1324173072469", "lat": 38.91476133333333, "lon": -77.03234566666667, "rental_uris": {"android": "https://dc.lft.to/lastmile_qr_scan", "ios": "https://dc.lft.to/lastmile_qr_scan"}, "is_disabled": 0, "fusion_lat": 0.0, "name": "dc154ae3cf7f9c23d8a1324173072469", "fusion_lon": 0.0}, {"is_reserved": 0, "type": "electric_scooter", "bike_id": "1075eb1075ccc88d9cb2477ab18880a1", "lat": 38.918011, "lon": -77.03445933333333, "rental_uris": {"android": "https://dc.lft.to/lastmile_qr_scan", "ios": "https://dc.lft.to/lastmile_qr_scan"}, "is_disabled": 0, "fusion_lat": 0.0, "name": "1075eb1075ccc88d9cb2477ab18880a1", "fusion_lon": 0.0}, {"is_reserved": 0, "type": "electric_scooter", "bike_id": "9ee60a528b11a1b54e9969d71dde7c4e", "lat": 38.91017733333333, "lon": -77.04402266666666, "rental_uris": {"android": "https://dc.lft.to/lastmile_qr_scan", "ios": "https://dc.lft.to/lastmile_qr_scan"}, "is_disabled": 0, "fusion_lat": 0.0, "name": "9ee60a528b11a1b54e9969d71dde7c4e", "fusion_lon": 0.0}, {"is_reserved": 0, "type": "electric_scooter", "bike_id": "382988ac25d90d523422d64030194484", "lat": 38.906413666666666, "lon": -77.0119985, "rental_uris": {"android": "https://dc.lft.to/lastmile_qr_scan", "ios": "https://dc.lft.to/lastmile_qr_scan"}, "is_disabled": 0, "fusion_lat": 0.0, "name": "382988ac25d90d523422d64030194484", "fusion_lon": 0.0}, {"is_reserved": 0, "type": "electric_scooter", "bike_id": "3374885b6818e4aece2a702b1cfce4be", "lat": 38.95739916666667, "lon": -77.03031133333333, "rental_uris": {"android": "https://dc.lft.to/lastmile_qr_scan", "ios": "https://dc.lft.to/lastmile_qr_scan"}, "is_disabled": 0, "fusion_lat": 0.0, "name": "3374885b6818e4aece2a702b1cfce4be", "fusion_lon": 0.0}, {"is_reserved": 0, "type": "electric_scooter", "bike_id": "e87d9aa8221e442c31af802a31c83dec", "lat": 38.89526333333333, "lon": -77.04470266666667, "rental_uris": {"android": "https://dc.lft.to/lastmile_qr_scan", "ios": "https://dc.lft.to/lastmile_qr_scan"}, "is_disabled": 0, "fusion_lat": 0.0, "name": "e87d9aa8221e442c31af802a31c83dec", "fusion_lon": 0.0}, {"is_reserved": 0, "type": "electric_bike", "bike_id": "f952c79464248d62a47c8bc6a12bffaf", "lat": 39.08492016666667, "lon": -76.95063716666667, "rental_uris": {"android": "https://dc.lft.to/lastmile_qr_scan", "ios": "https://dc.lft.to/lastmile_qr_scan"}, "is_disabled": 0, "fusion_lat": 0.0, "name": "f952c79464248d62a47c8bc6a12bffaf", "fusion_lon": 0.0}, {"is_reserved": 0, "type": "electric_scooter", "bike_id": "1c71cad923f35e2d763382177717f584", "lat": 38.920775166666665, "lon": -77.01712566666667, "rental_uris": {"android": "https://dc.lft.to/lastmile_qr_scan", "ios": "https://dc.lft.to/lastmile_qr_scan"}, "is_disabled": 0, "fusion_lat": 0.0, "name": "1c71cad923f35e2d763382177717f584", "fusion_lon": 0.0}, {"is_reserved": 0, "type": "electric_scooter", "bike_id": "e854b9a61bd2df28a5862c97628085d7", "lat": 38.919225833333336, "lon": -77.03424083333333, "rental_uris": {"android": "https://dc.lft.to/lastmile_qr_scan", "ios": "https://dc.lft.to/lastmile_qr_scan"}, "is_disabled": 0, "fusion_lat": 0.0, "name": "e854b9a61bd2df28a5862c97628085d7", "fusion_lon": 0.0}, {"is_reserved": 0, "type": "electric_scooter", "bike_id": "6974ff566e05e5cef0f985a9251fbc85", "lat": 38.926670666666666, "lon": -77.01461983333333, "rental_uris": {"android": "https://dc.lft.to/lastmile_qr_scan", "ios": "https://dc.lft.to/lastmile_qr_scan"}, "is_disabled": 0, "fusion_lat": 0.0, "name": "6974ff566e05e5cef0f985a9251fbc85", "fusion_lon": 0.0}, {"is_reserved": 0, "type": "electric_scooter", "bike_id": "f5606c099a47627d458921efa26fbd51", "lat": 38.91527083333333, "lon": -77.02000166666667, "rental_uris": {"android": "https://dc.lft.to/lastmile_qr_scan", "ios": "https://dc.lft.to/lastmile_qr_scan"}, "is_disabled": 0, "fusion_lat": 0.0, "name": "f5606c099a47627d458921efa26fbd51", "fusion_lon": 0.0}, {"is_reserved": 0, "type": "electric_scooter", "bike_id": "b0e428db441dfad9b1b921784f095189", "lat": 38.92754216666667, "lon": -77.02114866666666, "rental_uris": {"android": "https://dc.lft.to/lastmile_qr_scan", "ios": "https://dc.lft.to/lastmile_qr_scan"}, "is_disabled": 0, "fusion_lat": 0.0, "name": "b0e428db441dfad9b1b921784f095189", "fusion_lon": 0.0}, {"is_reserved": 0, "type": "electric_bike", "bike_id": "85fbbc77ca35b626260f6a82f6c41076", "lat": 38.989275166666665, "lon": -77.025447, "rental_uris": {"android": "https://dc.lft.to/lastmile_qr_scan", "ios": "https://dc.lft.to/lastmile_qr_scan"}, "is_disabled": 0, "fusion_lat": 0.0, "name": "85fbbc77ca35b626260f6a82f6c41076", "fusion_lon": 0.0}, {"is_reserved": 0, "type": "electric_scooter", "bike_id": "014e69b6f5cf39cbab6e5548bb846e3e", "lat": 38.89856533333333, "lon": -77.03933783333333, "rental_uris": {"android": "https://dc.lft.to/lastmile_qr_scan", "ios": "https://dc.lft.to/lastmile_qr_scan"}, "is_disabled": 0, "fusion_lat": 0.0, "name": "014e69b6f5cf39cbab6e5548bb846e3e", "fusion_lon": 0.0}, {"is_reserved": 0, "type": "electric_scooter", "bike_id": "39c3e9a9e0e2d48dcc9dc2896d8dc7e2", "lat": 38.92887566666667, "lon": -77.03745283333333, "rental_uris": {"android": "https://dc.lft.to/lastmile_qr_scan", "ios": "https://dc.lft.to/lastmile_qr_scan"}, "is_disabled": 0, "fusion_lat": 0.0, "name": "39c3e9a9e0e2d48dcc9dc2896d8dc7e2", "fusion_lon": 0.0}, {"is_reserved": 0, "type": "electric_scooter", "bike_id": "11fb6f2dc8854faaa747d3cb012d1800", "lat": 38.93473566666667, "lon": -77.04158916666667, "rental_uris": {"android": "https://dc.lft.to/lastmile_qr_scan", "ios": "https://dc.lft.to/lastmile_qr_scan"}, "is_disabled": 0, "fusion_lat": 0.0, "name": "11fb6f2dc8854faaa747d3cb012d1800", "fusion_lon": 0.0}, {"is_reserved": 0, "type": "electric_scooter", "bike_id": "b2265f6d2a58e7f646f568948e5c5b27", "lat": 38.91401, "lon": -77.04683316666667, "rental_uris": {"android": "https://dc.lft.to/lastmile_qr_scan", "ios": "https://dc.lft.to/lastmile_qr_scan"}, "is_disabled": 0, "fusion_lat": 0.0, "name": "b2265f6d2a58e7f646f568948e5c5b27", "fusion_lon": 0.0}, {"is_reserved": 0, "type": "electric_scooter", "bike_id": "e544eca939228730643a81fb523c65c4", "lat": 38.89251616666667, "lon": -77.03958583333333, "rental_uris": {"android": "https://dc.lft.to/lastmile_qr_scan", "ios": "https://dc.lft.to/lastmile_qr_scan"}, "is_disabled": 0, "fusion_lat": 0.0, "name": "e544eca939228730643a81fb523c65c4", "fusion_lon": 0.0}, {"is_reserved": 0, "type": "electric_bike", "bike_id": "12710c597add69e3631feb2899c1dc8b", "lat": 38.898494, "lon": -77.1187155, "rental_uris": {"android": "https://dc.lft.to/lastmile_qr_scan", "ios": "https://dc.lft.to/lastmile_qr_scan"}, "is_disabled": 0, "fusion_lat": 0.0, "name": "12710c597add69e3631feb2899c1dc8b", "fusion_lon": 0.0}, {"is_reserved": 0, "type": "electric_scooter", "bike_id": "834ed056ebe0caadc423b8efebddf78d", "lat": 38.892254666666666, "lon": -77.04999216666667, "rental_uris": {"android": "https://dc.lft.to/lastmile_qr_scan", "ios": "https://dc.lft.to/lastmile_qr_scan"}, "is_disabled": 0, "fusion_lat": 0.0, "name": "834ed056ebe0caadc423b8efebddf78d", "fusion_lon": 0.0}, {"is_reserved": 0, "type": "electric_scooter", "bike_id": "2e3a062465948cb1ff0a3be8e1dd8cbe", "lat": 38.9582405, "lon": -77.07642916666667, "rental_uris": {"android": "https://dc.lft.to/lastmile_qr_scan", "ios": "https://dc.lft.to/lastmile_qr_scan"}, "is_disabled": 0, "fusion_lat": 0.0, "name": "2e3a062465948cb1ff0a3be8e1dd8cbe", "fusion_lon": 0.0}, {"is_reserved": 0, "type": "electric_scooter", "bike_id": "4b4c8ba4698bded06243cb884e9aed89", "lat": 38.917534833333335, "lon": -77.01465733333333, "rental_uris": {"android": "https://dc.lft.to/lastmile_qr_scan", "ios": "https://dc.lft.to/lastmile_qr_scan"}, "is_disabled": 0, "fusion_lat": 0.0, "name": "4b4c8ba4698bded06243cb884e9aed89", "fusion_lon": 0.0}, {"is_reserved": 0, "type": "electric_scooter", "bike_id": "fc8228c8e6a4f7dcfe1f3b9e64c2bf6c", "lat": 38.8852065, "lon": -76.97708966666667, "rental_uris": {"android": "https://dc.lft.to/lastmile_qr_scan", "ios": "https://dc.lft.to/lastmile_qr_scan"}, "is_disabled": 0, "fusion_lat": 0.0, "name": "fc8228c8e6a4f7dcfe1f3b9e64c2bf6c", "fusion_lon": 0.0}, {"is_reserved": 0, "type": "electric_scooter", "bike_id": "0a09669e39edc9c3ac29ff5260f336af", "lat": 38.91788483333333, "lon": -77.023173, "rental_uris": {"android": "https://dc.lft.to/lastmile_qr_scan", "ios": "https://dc.lft.to/lastmile_qr_scan"}, "is_disabled": 0, "fusion_lat": 0.0, "name": "0a09669e39edc9c3ac29ff5260f336af", "fusion_lon": 0.0}, {"is_reserved": 0, "type": "electric_scooter", "bike_id": "670b53aec1f39f9ba6619a04d2362a0f", "lat": 38.8380385, "lon": -76.99855366666667, "rental_uris": {"android": "https://dc.lft.to/lastmile_qr_scan", "ios": "https://dc.lft.to/lastmile_qr_scan"}, "is_disabled": 0, "fusion_lat": 0.0, "name": "670b53aec1f39f9ba6619a04d2362a0f", "fusion_lon": 0.0}, {"is_reserved": 0, "type": "electric_scooter", "bike_id": "53701f8e39a7a17c219481f6e839cf7d", "lat": 38.912577, "lon": -77.02862216666666, "rental_uris": {"android": "https://dc.lft.to/lastmile_qr_scan", "ios": "https://dc.lft.to/lastmile_qr_scan"}, "is_disabled": 0, "fusion_lat": 0.0, "name": "53701f8e39a7a17c219481f6e839cf7d", "fusion_lon": 0.0}, {"is_reserved": 0, "type": "electric_scooter", "bike_id": "3a803672328bd35add5ad53325fc0391", "lat": 38.8996195, "lon": -77.0449795, "rental_uris": {"android": "https://dc.lft.to/lastmile_qr_scan", "ios": "https://dc.lft.to/lastmile_qr_scan"}, "is_disabled": 0, "fusion_lat": 0.0, "name": "3a803672328bd35add5ad53325fc0391", "fusion_lon": 0.0}, {"is_reserved": 0, "type": "electric_scooter", "bike_id": "6679157c57466779dc0da26051411a80", "lat": 38.9384565, "lon": -77.0247865, "rental_uris": {"android": "https://dc.lft.to/lastmile_qr_scan", "ios": "https://dc.lft.to/lastmile_qr_scan"}, "is_disabled": 0, "fusion_lat": 0.0, "name": "6679157c57466779dc0da26051411a80", "fusion_lon": 0.0}, {"is_reserved": 0, "type": "electric_scooter", "bike_id": "0121dafc357b69ba885e3053ba23efb9", "lat": 38.931003, "lon": -77.02482116666667, "rental_uris": {"android": "https://dc.lft.to/lastmile_qr_scan", "ios": "https://dc.lft.to/lastmile_qr_scan"}, "is_disabled": 0, "fusion_lat": 0.0, "name": "0121dafc357b69ba885e3053ba23efb9", "fusion_lon": 0.0}, {"is_reserved": 0, "type": "electric_scooter", "bike_id": "0215efb12f96ab3c59ecb7d5bec1c933", "lat": 38.89825116666667, "lon": -76.9465335, "rental_uris": {"android": "https://dc.lft.to/lastmile_qr_scan", "ios": "https://dc.lft.to/lastmile_qr_scan"}, "is_disabled": 0, "fusion_lat": 0.0, "name": "0215efb12f96ab3c59ecb7d5bec1c933", "fusion_lon": 0.0}, {"is_reserved": 0, "type": "electric_scooter", "bike_id": "b17fbd6160e6e1e0cde4a01e2dfd63d7", "lat": 38.960364, "lon": -77.02432566666667, "rental_uris": {"android": "https://dc.lft.to/lastmile_qr_scan", "ios": "https://dc.lft.to/lastmile_qr_scan"}, "is_disabled": 0, "fusion_lat": 0.0, "name": "b17fbd6160e6e1e0cde4a01e2dfd63d7", "fusion_lon": 0.0}, {"is_reserved": 0, "type": "electric_scooter", "bike_id": "efc55da515088cb543b57d2bb37dabef", "lat": 38.92229833333333, "lon": -77.0412835, "rental_uris": {"android": "https://dc.lft.to/lastmile_qr_scan", "ios": "https://dc.lft.to/lastmile_qr_scan"}, "is_disabled": 0, "fusion_lat": 0.0, "name": "efc55da515088cb543b57d2bb37dabef", "fusion_lon": 0.0}, {"is_reserved": 0, "type": "electric_scooter", "bike_id": "55df24caf840cab42435e995e809b3ff", "lat": 38.936330833333336, "lon": -77.07300883333333, "rental_uris": {"android": "https://dc.lft.to/lastmile_qr_scan", "ios": "https://dc.lft.to/lastmile_qr_scan"}, "is_disabled": 0, "fusion_lat": 0.0, "name": "55df24caf840cab42435e995e809b3ff", "fusion_lon": 0.0}, {"is_reserved": 0, "type": "electric_bike", "bike_id": "5b6e8b15dac294fabdc0bbd27d7a5403", "lat": 38.90016816666667, "lon": -76.98029983333333, "rental_uris": {"android": "https://dc.lft.to/lastmile_qr_scan", "ios": "https://dc.lft.to/lastmile_qr_scan"}, "is_disabled": 0, "fusion_lat": 0.0, "name": "5b6e8b15dac294fabdc0bbd27d7a5403", "fusion_lon": 0.0}, {"is_reserved": 0, "type": "electric_scooter", "bike_id": "a45f069ac43e61bf3f12d81b184f65ab", "lat": 38.924519833333335, "lon": -77.044003, "rental_uris": {"android": "https://dc.lft.to/lastmile_qr_scan", "ios": "https://dc.lft.to/lastmile_qr_scan"}, "is_disabled": 0, "fusion_lat": 0.0, "name": "a45f069ac43e61bf3f12d81b184f65ab", "fusion_lon": 0.0}, {"is_reserved": 0, "type": "electric_scooter", "bike_id": "aa74a2fa16a8209084dddcf099b14632", "lat": 38.9222895, "lon": -77.0412975, "rental_uris": {"android": "https://dc.lft.to/lastmile_qr_scan", "ios": "https://dc.lft.to/lastmile_qr_scan"}, "is_disabled": 0, "fusion_lat": 0.0, "name": "aa74a2fa16a8209084dddcf099b14632", "fusion_lon": 0.0}, {"is_reserved": 0, "type": "electric_scooter", "bike_id": "4d7ac420f67dc6fc4334a23fd4d1beb5", "lat": 38.935569, "lon": -77.02219833333334, "rental_uris": {"android": "https://dc.lft.to/lastmile_qr_scan", "ios": "https://dc.lft.to/lastmile_qr_scan"}, "is_disabled": 0, "fusion_lat": 0.0, "name": "4d7ac420f67dc6fc4334a23fd4d1beb5", "fusion_lon": 0.0}, {"is_reserved": 0, "type": "electric_scooter", "bike_id": "3b38c6443753e79481a7a24956437285", "lat": 38.9087295, "lon": -77.0235995, "rental_uris": {"android": "https://dc.lft.to/lastmile_qr_scan", "ios": "https://dc.lft.to/lastmile_qr_scan"}, "is_disabled": 0, "fusion_lat": 0.0, "name": "3b38c6443753e79481a7a24956437285", "fusion_lon": 0.0}, {"is_reserved": 0, "type": "electric_scooter", "bike_id": "c767498ea73ae00cdf985b47d6a3b087", "lat": 38.93533983333333, "lon": -77.03266716666667, "rental_uris": {"android": "https://dc.lft.to/lastmile_qr_scan", "ios": "https://dc.lft.to/lastmile_qr_scan"}, "is_disabled": 0, "fusion_lat": 0.0, "name": "c767498ea73ae00cdf985b47d6a3b087", "fusion_lon": 0.0}, {"is_reserved": 0, "type": "electric_scooter", "bike_id": "68ab192aa387904ce6c46d7d6e1bb570", "lat": 38.91686, "lon": -77.02895833333334, "rental_uris": {"android": "https://dc.lft.to/lastmile_qr_scan", "ios": "https://dc.lft.to/lastmile_qr_scan"}, "is_disabled": 0, "fusion_lat": 0.0, "name": "68ab192aa387904ce6c46d7d6e1bb570", "fusion_lon": 0.0}, {"is_reserved": 0, "type": "electric_scooter", "bike_id": "32d7412eaeea9985734ef89e709fe223", "lat": 38.956265, "lon": -77.027819, "rental_uris": {"android": "https://dc.lft.to/lastmile_qr_scan", "ios": "https://dc.lft.to/lastmile_qr_scan"}, "is_disabled": 0, "fusion_lat": 0.0, "name": "32d7412eaeea9985734ef89e709fe223", "fusion_lon": 0.0}, {"is_reserved": 0, "type": "electric_scooter", "bike_id": "b51152e141dd2ed12eec858850e72ed5", "lat": 38.9181065, "lon": -77.03303766666667, "rental_uris": {"android": "https://dc.lft.to/lastmile_qr_scan", "ios": "https://dc.lft.to/lastmile_qr_scan"}, "is_disabled": 0, "fusion_lat": 0.0, "name": "b51152e141dd2ed12eec858850e72ed5", "fusion_lon": 0.0}, {"is_reserved": 0, "type": "electric_scooter", "bike_id": "17a381ce42a9299dfc31d1ffe0b6f45c", "lat": 38.8919945, "lon": -77.0322065, "rental_uris": {"android": "https://dc.lft.to/lastmile_qr_scan", "ios": "https://dc.lft.to/lastmile_qr_scan"}, "is_disabled": 0, "fusion_lat": 0.0, "name": "17a381ce42a9299dfc31d1ffe0b6f45c", "fusion_lon": 0.0}, {"is_reserved": 0, "type": "electric_scooter", "bike_id": "2c2e0d67f13d9e2ce8f49ae6c363b438", "lat": 38.900105333333336, "lon": -77.02911033333334, "rental_uris": {"android": "https://dc.lft.to/lastmile_qr_scan", "ios": "https://dc.lft.to/lastmile_qr_scan"}, "is_disabled": 0, "fusion_lat": 0.0, "name": "2c2e0d67f13d9e2ce8f49ae6c363b438", "fusion_lon": 0.0}, {"is_reserved": 0, "type": "electric_scooter", "bike_id": "173f3e5cbb6fe99686524a38b5444649", "lat": 38.92804733333333, "lon": -77.03627366666667, "rental_uris": {"android": "https://dc.lft.to/lastmile_qr_scan", "ios": "https://dc.lft.to/lastmile_qr_scan"}, "is_disabled": 0, "fusion_lat": 0.0, "name": "173f3e5cbb6fe99686524a38b5444649", "fusion_lon": 0.0}, {"is_reserved": 0, "type": "electric_scooter", "bike_id": "f9e7def29ffa1ca3a85f9c00dcc3d2f4", "lat": 38.9180945, "lon": -77.02476466666667, "rental_uris": {"android": "https://dc.lft.to/lastmile_qr_scan", "ios": "https://dc.lft.to/lastmile_qr_scan"}, "is_disabled": 0, "fusion_lat": 0.0, "name": "f9e7def29ffa1ca3a85f9c00dcc3d2f4", "fusion_lon": 0.0}, {"is_reserved": 0, "type": "electric_scooter", "bike_id": "213556c3fb1e0acd7d89fa634c05f34f", "lat": 38.90165616666667, "lon": -77.0446965, "rental_uris": {"android": "https://dc.lft.to/lastmile_qr_scan", "ios": "https://dc.lft.to/lastmile_qr_scan"}, "is_disabled": 0, "fusion_lat": 0.0, "name": "213556c3fb1e0acd7d89fa634c05f34f", "fusion_lon": 0.0}, {"is_reserved": 0, "type": "electric_scooter", "bike_id": "c4d6b3c9480b9ffd5253a1120e11a600", "lat": 38.923506333333336, "lon": -77.0511015, "rental_uris": {"android": "https://dc.lft.to/lastmile_qr_scan", "ios": "https://dc.lft.to/lastmile_qr_scan"}, "is_disabled": 0, "fusion_lat": 0.0, "name": "c4d6b3c9480b9ffd5253a1120e11a600", "fusion_lon": 0.0}, {"is_reserved": 0, "type": "electric_scooter", "bike_id": "7b2728999adc9849c82836ddd217d6cf", "lat": 38.90566833333333, "lon": -77.019434, "rental_uris": {"android": "https://dc.lft.to/lastmile_qr_scan", "ios": "https://dc.lft.to/lastmile_qr_scan"}, "is_disabled": 0, "fusion_lat": 0.0, "name": "7b2728999adc9849c82836ddd217d6cf", "fusion_lon": 0.0}, {"is_reserved": 0, "type": "electric_scooter", "bike_id": "6d2c3d234008d6eee8ba3e1e404e7bc4", "lat": 38.90591666666667, "lon": -77.0464585, "rental_uris": {"android": "https://dc.lft.to/lastmile_qr_scan", "ios": "https://dc.lft.to/lastmile_qr_scan"}, "is_disabled": 0, "fusion_lat": 0.0, "name": "6d2c3d234008d6eee8ba3e1e404e7bc4", "fusion_lon": 0.0}, {"is_reserved": 0, "type": "electric_bike", "bike_id": "33ff14868b102bbb685dc5893a5c7682", "lat": 38.898847833333335, "lon": -76.97886366666667, "rental_uris": {"android": "https://dc.lft.to/lastmile_qr_scan", "ios": "https://dc.lft.to/lastmile_qr_scan"}, "is_disabled": 0, "fusion_lat": 0.0, "name": "33ff14868b102bbb685dc5893a5c7682", "fusion_lon": 0.0}, {"is_reserved": 0, "type": "electric_scooter", "bike_id": "999c9e6ca10bc076d66a0a0fb40f6bc4", "lat": 38.90964316666667, "lon": -77.0144885, "rental_uris": {"android": "https://dc.lft.to/lastmile_qr_scan", "ios": "https://dc.lft.to/lastmile_qr_scan"}, "is_disabled": 0, "fusion_lat": 0.0, "name": "999c9e6ca10bc076d66a0a0fb40f6bc4", "fusion_lon": 0.0}, {"is_reserved": 0, "type": "electric_scooter", "bike_id": "bf0c6ceed3dd5226252310d077f086dd", "lat": 38.903156833333334, "lon": -77.01602883333334, "rental_uris": {"android": "https://dc.lft.to/lastmile_qr_scan", "ios": "https://dc.lft.to/lastmile_qr_scan"}, "is_disabled": 0, "fusion_lat": 0.0, "name": "bf0c6ceed3dd5226252310d077f086dd", "fusion_lon": 0.0}, {"is_reserved": 0, "type": "electric_scooter", "bike_id": "bb1fcf2efdb648c1e0b4c19c101a042e", "lat": 38.924039, "lon": -76.95144383333333, "rental_uris": {"android": "https://dc.lft.to/lastmile_qr_scan", "ios": "https://dc.lft.to/lastmile_qr_scan"}, "is_disabled": 0, "fusion_lat": 0.0, "name": "bb1fcf2efdb648c1e0b4c19c101a042e", "fusion_lon": 0.0}, {"is_reserved": 0, "type": "electric_scooter", "bike_id": "a4f388c51b69a85f8ee36f911788c108", "lat": 38.90850616666667, "lon": -76.99963066666666, "rental_uris": {"android": "https://dc.lft.to/lastmile_qr_scan", "ios": "https://dc.lft.to/lastmile_qr_scan"}, "is_disabled": 0, "fusion_lat": 0.0, "name": "a4f388c51b69a85f8ee36f911788c108", "fusion_lon": 0.0}, {"is_reserved": 0, "type": "electric_scooter", "bike_id": "b4ac4badaa52b0c53535e40d1497f6db", "lat": 38.92851683333333, "lon": -77.02878483333333, "rental_uris": {"android": "https://dc.lft.to/lastmile_qr_scan", "ios": "https://dc.lft.to/lastmile_qr_scan"}, "is_disabled": 0, "fusion_lat": 0.0, "name": "b4ac4badaa52b0c53535e40d1497f6db", "fusion_lon": 0.0}, {"is_reserved": 0, "type": "electric_scooter", "bike_id": "46f47259b7fa29f0f28b9bea478b9199", "lat": 38.91422216666667, "lon": -77.01807933333333, "rental_uris": {"android": "https://dc.lft.to/lastmile_qr_scan", "ios": "https://dc.lft.to/lastmile_qr_scan"}, "is_disabled": 0, "fusion_lat": 0.0, "name": "46f47259b7fa29f0f28b9bea478b9199", "fusion_lon": 0.0}, {"is_reserved": 0, "type": "electric_scooter", "bike_id": "92c5b4e52e5915f2bb72441231d3191b", "lat": 38.896278833333334, "lon": -77.00209383333333, "rental_uris": {"android": "https://dc.lft.to/lastmile_qr_scan", "ios": "https://dc.lft.to/lastmile_qr_scan"}, "is_disabled": 0, "fusion_lat": 0.0, "name": "92c5b4e52e5915f2bb72441231d3191b", "fusion_lon": 0.0}, {"is_reserved": 0, "type": "electric_scooter", "bike_id": "b4d2c3553dc3540258c068250f0089ed", "lat": 38.924054166666664, "lon": -77.0297615, "rental_uris": {"android": "https://dc.lft.to/lastmile_qr_scan", "ios": "https://dc.lft.to/lastmile_qr_scan"}, "is_disabled": 0, "fusion_lat": 0.0, "name": "b4d2c3553dc3540258c068250f0089ed", "fusion_lon": 0.0}, {"is_reserved": 0, "type": "electric_scooter", "bike_id": "83c245ea80905d62340ece3c29cd21fe", "lat": 38.912894, "lon": -76.98543233333334, "rental_uris": {"android": "https://dc.lft.to/lastmile_qr_scan", "ios": "https://dc.lft.to/lastmile_qr_scan"}, "is_disabled": 0, "fusion_lat": 0.0, "name": "83c245ea80905d62340ece3c29cd21fe", "fusion_lon": 0.0}, {"is_reserved": 0, "type": "electric_scooter", "bike_id": "57e14b36472f65ffc098f12edcd6647e", "lat": 38.9286675, "lon": -77.027062, "rental_uris": {"android": "https://dc.lft.to/lastmile_qr_scan", "ios": "https://dc.lft.to/lastmile_qr_scan"}, "is_disabled": 0, "fusion_lat": 0.0, "name": "57e14b36472f65ffc098f12edcd6647e", "fusion_lon": 0.0}, {"is_reserved": 0, "type": "electric_scooter", "bike_id": "4ab64b5c8742cf833150be47dc1625b0", "lat": 38.911327166666666, "lon": -77.0375995, "rental_uris": {"android": "https://dc.lft.to/lastmile_qr_scan", "ios": "https://dc.lft.to/lastmile_qr_scan"}, "is_disabled": 0, "fusion_lat": 0.0, "name": "4ab64b5c8742cf833150be47dc1625b0", "fusion_lon": 0.0}, {"is_reserved": 0, "type": "electric_scooter", "bike_id": "eb0d8004a0394983274b32d30fadade2", "lat": 38.89363933333333, "lon": -77.0033835, "rental_uris": {"android": "https://dc.lft.to/lastmile_qr_scan", "ios": "https://dc.lft.to/lastmile_qr_scan"}, "is_disabled": 0, "fusion_lat": 0.0, "name": "eb0d8004a0394983274b32d30fadade2", "fusion_lon": 0.0}, {"is_reserved": 0, "type": "electric_scooter", "bike_id": "4d83383dad209e5a3ea4b905541275d1", "lat": 38.88628383333333, "lon": -77.03354333333333, "rental_uris": {"android": "https://dc.lft.to/lastmile_qr_scan", "ios": "https://dc.lft.to/lastmile_qr_scan"}, "is_disabled": 0, "fusion_lat": 0.0, "name": "4d83383dad209e5a3ea4b905541275d1", "fusion_lon": 0.0}, {"is_reserved": 0, "type": "electric_scooter", "bike_id": "7ba7dbd8dc8dfa77210471af84aae7fc", "lat": 38.8656485, "lon": -76.990353, "rental_uris": {"android": "https://dc.lft.to/lastmile_qr_scan", "ios": "https://dc.lft.to/lastmile_qr_scan"}, "is_disabled": 0, "fusion_lat": 0.0, "name": "7ba7dbd8dc8dfa77210471af84aae7fc", "fusion_lon": 0.0}, {"is_reserved": 0, "type": "electric_scooter", "bike_id": "e724e29029c9f8fc37da74495d95dfd5", "lat": 38.919237333333335, "lon": -77.0097695, "rental_uris": {"android": "https://dc.lft.to/lastmile_qr_scan", "ios": "https://dc.lft.to/lastmile_qr_scan"}, "is_disabled": 0, "fusion_lat": 0.0, "name": "e724e29029c9f8fc37da74495d95dfd5", "fusion_lon": 0.0}, {"is_reserved": 0, "type": "electric_scooter", "bike_id": "17742c50606369916ab30dbe0a17746d", "lat": 38.90578883333333, "lon": -77.04658483333333, "rental_uris": {"android": "https://dc.lft.to/lastmile_qr_scan", "ios": "https://dc.lft.to/lastmile_qr_scan"}, "is_disabled": 0, "fusion_lat": 0.0, "name": "17742c50606369916ab30dbe0a17746d", "fusion_lon": 0.0}, {"is_reserved": 0, "type": "electric_scooter", "bike_id": "a1db198fbcd773a794d93eadb5df33eb", "lat": 38.9232555, "lon": -77.02968983333334, "rental_uris": {"android": "https://dc.lft.to/lastmile_qr_scan", "ios": "https://dc.lft.to/lastmile_qr_scan"}, "is_disabled": 0, "fusion_lat": 0.0, "name": "a1db198fbcd773a794d93eadb5df33eb", "fusion_lon": 0.0}, {"is_reserved": 0, "type": "electric_scooter", "bike_id": "5d6324afbbd698b659898997bed7f4b9", "lat": 38.8874045, "lon": -77.02615916666667, "rental_uris": {"android": "https://dc.lft.to/lastmile_qr_scan", "ios": "https://dc.lft.to/lastmile_qr_scan"}, "is_disabled": 0, "fusion_lat": 0.0, "name": "5d6324afbbd698b659898997bed7f4b9", "fusion_lon": 0.0}, {"is_reserved": 0, "type": "electric_scooter", "bike_id": "2914b6ecf521f45110e48f6c6988e69c", "lat": 38.915733, "lon": -76.98386533333333, "rental_uris": {"android": "https://dc.lft.to/lastmile_qr_scan", "ios": "https://dc.lft.to/lastmile_qr_scan"}, "is_disabled": 0, "fusion_lat": 0.0, "name": "2914b6ecf521f45110e48f6c6988e69c", "fusion_lon": 0.0}, {"is_reserved": 0, "type": "electric_scooter", "bike_id": "25e0cc0e758bd2b4aebc54ee405ea1e3", "lat": 38.949222166666665, "lon": -77.026983, "rental_uris": {"android": "https://dc.lft.to/lastmile_qr_scan", "ios": "https://dc.lft.to/lastmile_qr_scan"}, "is_disabled": 0, "fusion_lat": 0.0, "name": "25e0cc0e758bd2b4aebc54ee405ea1e3", "fusion_lon": 0.0}, {"is_reserved": 0, "type": "electric_scooter", "bike_id": "19c11a5df044794c08bdb3f02d5e6a19", "lat": 38.91687833333334, "lon": -77.02789266666667, "rental_uris": {"android": "https://dc.lft.to/lastmile_qr_scan", "ios": "https://dc.lft.to/lastmile_qr_scan"}, "is_disabled": 0, "fusion_lat": 0.0, "name": "19c11a5df044794c08bdb3f02d5e6a19", "fusion_lon": 0.0}, {"is_reserved": 0, "type": "electric_scooter", "bike_id": "4c0d3940c62ac64f27d6b7ec568871ac", "lat": 38.893447, "lon": -76.9938525, "rental_uris": {"android": "https://dc.lft.to/lastmile_qr_scan", "ios": "https://dc.lft.to/lastmile_qr_scan"}, "is_disabled": 0, "fusion_lat": 0.0, "name": "4c0d3940c62ac64f27d6b7ec568871ac", "fusion_lon": 0.0}, {"is_reserved": 0, "type": "electric_scooter", "bike_id": "989ed17c7401f9b1ae2897ba97248e7d", "lat": 38.899995, "lon": -77.029401, "rental_uris": {"android": "https://dc.lft.to/lastmile_qr_scan", "ios": "https://dc.lft.to/lastmile_qr_scan"}, "is_disabled": 0, "fusion_lat": 0.0, "name": "989ed17c7401f9b1ae2897ba97248e7d", "fusion_lon": 0.0}, {"is_reserved": 0, "type": "electric_scooter", "bike_id": "74e6194a24a8886b458785500dd08378", "lat": 38.93103116666666, "lon": -77.03486866666667, "rental_uris": {"android": "https://dc.lft.to/lastmile_qr_scan", "ios": "https://dc.lft.to/lastmile_qr_scan"}, "is_disabled": 0, "fusion_lat": 0.0, "name": "74e6194a24a8886b458785500dd08378", "fusion_lon": 0.0}, {"is_reserved": 0, "type": "electric_scooter", "bike_id": "e8837ad25457179872a0fd13be3e7afe", "lat": 38.910947666666665, "lon": -76.984792, "rental_uris": {"android": "https://dc.lft.to/lastmile_qr_scan", "ios": "https://dc.lft.to/lastmile_qr_scan"}, "is_disabled": 0, "fusion_lat": 0.0, "name": "e8837ad25457179872a0fd13be3e7afe", "fusion_lon": 0.0}, {"is_reserved": 0, "type": "electric_scooter", "bike_id": "49d532eebe72f7b24399fc3768788e7d", "lat": 38.9265775, "lon": -77.024224, "rental_uris": {"android": "https://dc.lft.to/lastmile_qr_scan", "ios": "https://dc.lft.to/lastmile_qr_scan"}, "is_disabled": 0, "fusion_lat": 0.0, "name": "49d532eebe72f7b24399fc3768788e7d", "fusion_lon": 0.0}, {"is_reserved": 0, "type": "electric_scooter", "bike_id": "7bf7c25ac7a650847ebd1d3d1448e39a", "lat": 38.95252516666667, "lon": -77.02400916666667, "rental_uris": {"android": "https://dc.lft.to/lastmile_qr_scan", "ios": "https://dc.lft.to/lastmile_qr_scan"}, "is_disabled": 0, "fusion_lat": 0.0, "name": "7bf7c25ac7a650847ebd1d3d1448e39a", "fusion_lon": 0.0}, {"is_reserved": 0, "type": "electric_scooter", "bike_id": "c1ecb5a86ba00f67282b01d370373904", "lat": 38.91712066666667, "lon": -77.0322395, "rental_uris": {"android": "https://dc.lft.to/lastmile_qr_scan", "ios": "https://dc.lft.to/lastmile_qr_scan"}, "is_disabled": 0, "fusion_lat": 0.0, "name": "c1ecb5a86ba00f67282b01d370373904", "fusion_lon": 0.0}, {"is_reserved": 0, "type": "electric_scooter", "bike_id": "efdcd7006c4a287f56b1a976d583dfff", "lat": 38.905863, "lon": -77.03640316666667, "rental_uris": {"android": "https://dc.lft.to/lastmile_qr_scan", "ios": "https://dc.lft.to/lastmile_qr_scan"}, "is_disabled": 0, "fusion_lat": 0.0, "name": "efdcd7006c4a287f56b1a976d583dfff", "fusion_lon": 0.0}, {"is_reserved": 0, "type": "electric_scooter", "bike_id": "ce5a15befe7ef62d5f9bee062a80cc6f", "lat": 38.918626833333335, "lon": -77.01355066666666, "rental_uris": {"android": "https://dc.lft.to/lastmile_qr_scan", "ios": "https://dc.lft.to/lastmile_qr_scan"}, "is_disabled": 0, "fusion_lat": 0.0, "name": "ce5a15befe7ef62d5f9bee062a80cc6f", "fusion_lon": 0.0}, {"is_reserved": 0, "type": "electric_scooter", "bike_id": "df3c78c58c9e61b5bf8a6bc3a4e9519f", "lat": 38.93861733333333, "lon": -77.02558866666666, "rental_uris": {"android": "https://dc.lft.to/lastmile_qr_scan", "ios": "https://dc.lft.to/lastmile_qr_scan"}, "is_disabled": 0, "fusion_lat": 0.0, "name": "df3c78c58c9e61b5bf8a6bc3a4e9519f", "fusion_lon": 0.0}, {"is_reserved": 0, "type": "electric_scooter", "bike_id": "8b1dc5a1b849ec5724113c4a4385bbab", "lat": 38.966479166666666, "lon": -77.0089285, "rental_uris": {"android": "https://dc.lft.to/lastmile_qr_scan", "ios": "https://dc.lft.to/lastmile_qr_scan"}, "is_disabled": 0, "fusion_lat": 0.0, "name": "8b1dc5a1b849ec5724113c4a4385bbab", "fusion_lon": 0.0}, {"is_reserved": 0, "type": "electric_bike", "bike_id": "2643e5ffdfdaed52a43c20ddb80a098f", "lat": 38.9955365, "lon": -77.07450766666666, "rental_uris": {"android": "https://dc.lft.to/lastmile_qr_scan", "ios": "https://dc.lft.to/lastmile_qr_scan"}, "is_disabled": 0, "fusion_lat": 0.0, "name": "2643e5ffdfdaed52a43c20ddb80a098f", "fusion_lon": 0.0}, {"is_reserved": 0, "type": "electric_scooter", "bike_id": "3179315cbc8c706f44886c5bb05a1d97", "lat": 38.926142166666665, "lon": -77.0216245, "rental_uris": {"android": "https://dc.lft.to/lastmile_qr_scan", "ios": "https://dc.lft.to/lastmile_qr_scan"}, "is_disabled": 0, "fusion_lat": 0.0, "name": "3179315cbc8c706f44886c5bb05a1d97", "fusion_lon": 0.0}, {"is_reserved": 0, "type": "electric_scooter", "bike_id": "ab1a97ed3f01ab18a0751da0ebe3027a", "lat": 38.90569383333333, "lon": -77.00596966666667, "rental_uris": {"android": "https://dc.lft.to/lastmile_qr_scan", "ios": "https://dc.lft.to/lastmile_qr_scan"}, "is_disabled": 0, "fusion_lat": 0.0, "name": "ab1a97ed3f01ab18a0751da0ebe3027a", "fusion_lon": 0.0}, {"is_reserved": 0, "type": "electric_scooter", "bike_id": "c4aa1236e5b312d713b80aaed909aafe", "lat": 38.90026016666667, "lon": -77.04498633333333, "rental_uris": {"android": "https://dc.lft.to/lastmile_qr_scan", "ios": "https://dc.lft.to/lastmile_qr_scan"}, "is_disabled": 0, "fusion_lat": 0.0, "name": "c4aa1236e5b312d713b80aaed909aafe", "fusion_lon": 0.0}, {"is_reserved": 0, "type": "electric_scooter", "bike_id": "e6d4120ec60de9b9cc98b0e7859a1d16", "lat": 38.8866275, "lon": -76.936759, "rental_uris": {"android": "https://dc.lft.to/lastmile_qr_scan", "ios": "https://dc.lft.to/lastmile_qr_scan"}, "is_disabled": 0, "fusion_lat": 0.0, "name": "e6d4120ec60de9b9cc98b0e7859a1d16", "fusion_lon": 0.0}, {"is_reserved": 0, "type": "electric_scooter", "bike_id": "ec40e64f919f3e9ee2346b28d0f2d2d2", "lat": 38.905276666666666, "lon": -77.0400365, "rental_uris": {"android": "https://dc.lft.to/lastmile_qr_scan", "ios": "https://dc.lft.to/lastmile_qr_scan"}, "is_disabled": 0, "fusion_lat": 0.0, "name": "ec40e64f919f3e9ee2346b28d0f2d2d2", "fusion_lon": 0.0}, {"is_reserved": 0, "type": "electric_scooter", "bike_id": "5a420532a6bc6d886762865d5881d9f7", "lat": 38.8924935, "lon": -77.039606, "rental_uris": {"android": "https://dc.lft.to/lastmile_qr_scan", "ios": "https://dc.lft.to/lastmile_qr_scan"}, "is_disabled": 0, "fusion_lat": 0.0, "name": "5a420532a6bc6d886762865d5881d9f7", "fusion_lon": 0.0}, {"is_reserved": 0, "type": "electric_bike", "bike_id": "0e95a23e412da5848fd4eca7d01de31c", "lat": 39.08430333333333, "lon": -76.95150816666667, "rental_uris": {"android": "https://dc.lft.to/lastmile_qr_scan", "ios": "https://dc.lft.to/lastmile_qr_scan"}, "is_disabled": 0, "fusion_lat": 0.0, "name": "0e95a23e412da5848fd4eca7d01de31c", "fusion_lon": 0.0}, {"is_reserved": 0, "type": "electric_scooter", "bike_id": "e1edb5ec7e56919c05d9200dab1a83fc", "lat": 38.899944833333336, "lon": -76.99013316666667, "rental_uris": {"android": "https://dc.lft.to/lastmile_qr_scan", "ios": "https://dc.lft.to/lastmile_qr_scan"}, "is_disabled": 0, "fusion_lat": 0.0, "name": "e1edb5ec7e56919c05d9200dab1a83fc", "fusion_lon": 0.0}, {"is_reserved": 0, "type": "electric_scooter", "bike_id": "c6bb0482435d403a7fdec6412262e216", "lat": 38.924513833333336, "lon": -77.02160316666667, "rental_uris": {"android": "https://dc.lft.to/lastmile_qr_scan", "ios": "https://dc.lft.to/lastmile_qr_scan"}, "is_disabled": 0, "fusion_lat": 0.0, "name": "c6bb0482435d403a7fdec6412262e216", "fusion_lon": 0.0}, {"is_reserved": 0, "type": "electric_bike", "bike_id": "dd5d43502d827f149a51b300ad85bba4", "lat": 38.835399, "lon": -77.0075155, "rental_uris": {"android": "https://dc.lft.to/lastmile_qr_scan", "ios": "https://dc.lft.to/lastmile_qr_scan"}, "is_disabled": 0, "fusion_lat": 0.0, "name": "dd5d43502d827f149a51b300ad85bba4", "fusion_lon": 0.0}, {"is_reserved": 0, "type": "electric_scooter", "bike_id": "eaf42045bba71cbc844ef557d2c775fc", "lat": 38.925382, "lon": -77.03366866666667, "rental_uris": {"android": "https://dc.lft.to/lastmile_qr_scan", "ios": "https://dc.lft.to/lastmile_qr_scan"}, "is_disabled": 0, "fusion_lat": 0.0, "name": "eaf42045bba71cbc844ef557d2c775fc", "fusion_lon": 0.0}, {"is_reserved": 0, "type": "electric_scooter", "bike_id": "f88a045d4d49994ca83431e311fa65fb", "lat": 38.86115266666667, "lon": -76.98385066666667, "rental_uris": {"android": "https://dc.lft.to/lastmile_qr_scan", "ios": "https://dc.lft.to/lastmile_qr_scan"}, "is_disabled": 0, "fusion_lat": 0.0, "name": "f88a045d4d49994ca83431e311fa65fb", "fusion_lon": 0.0}, {"is_reserved": 0, "type": "electric_bike", "bike_id": "0ad862e3edabab496505f9d9b3e4869c", "lat": 38.94536766666667, "lon": -77.3445515, "rental_uris": {"android": "https://dc.lft.to/lastmile_qr_scan", "ios": "https://dc.lft.to/lastmile_qr_scan"}, "is_disabled": 0, "fusion_lat": 0.0, "name": "0ad862e3edabab496505f9d9b3e4869c", "fusion_lon": 0.0}, {"is_reserved": 0, "type": "electric_scooter", "bike_id": "bd9adbeef111a855150cfcf4e1c1344d", "lat": 38.8960325, "lon": -77.00930516666666, "rental_uris": {"android": "https://dc.lft.to/lastmile_qr_scan", "ios": "https://dc.lft.to/lastmile_qr_scan"}, "is_disabled": 0, "fusion_lat": 0.0, "name": "bd9adbeef111a855150cfcf4e1c1344d", "fusion_lon": 0.0}, {"is_reserved": 0, "type": "electric_scooter", "bike_id": "3daf5c895c53a25ab04078ea53bae7d3", "lat": 38.911001166666665, "lon": -77.0481485, "rental_uris": {"android": "https://dc.lft.to/lastmile_qr_scan", "ios": "https://dc.lft.to/lastmile_qr_scan"}, "is_disabled": 0, "fusion_lat": 0.0, "name": "3daf5c895c53a25ab04078ea53bae7d3", "fusion_lon": 0.0}, {"is_reserved": 0, "type": "electric_scooter", "bike_id": "d6f9a2564dd5f93f3aa30a7ea89f57fc", "lat": 38.924153833333335, "lon": -77.022333, "rental_uris": {"android": "https://dc.lft.to/lastmile_qr_scan", "ios": "https://dc.lft.to/lastmile_qr_scan"}, "is_disabled": 0, "fusion_lat": 0.0, "name": "d6f9a2564dd5f93f3aa30a7ea89f57fc", "fusion_lon": 0.0}, {"is_reserved": 0, "type": "electric_scooter", "bike_id": "b79e2ba044bc16bdec11e5df37ccefa1", "lat": 38.87544916666667, "lon": -77.00539, "rental_uris": {"android": "https://dc.lft.to/lastmile_qr_scan", "ios": "https://dc.lft.to/lastmile_qr_scan"}, "is_disabled": 0, "fusion_lat": 0.0, "name": "b79e2ba044bc16bdec11e5df37ccefa1", "fusion_lon": 0.0}, {"is_reserved": 0, "type": "electric_scooter", "bike_id": "e6f538e3fe8508dc7a020e5e22b896d0", "lat": 38.919495833333336, "lon": -77.02511583333333, "rental_uris": {"android": "https://dc.lft.to/lastmile_qr_scan", "ios": "https://dc.lft.to/lastmile_qr_scan"}, "is_disabled": 0, "fusion_lat": 0.0, "name": "e6f538e3fe8508dc7a020e5e22b896d0", "fusion_lon": 0.0}, {"is_reserved": 0, "type": "electric_scooter", "bike_id": "92e6fa0f86cfaab8d079fd2784813a85", "lat": 38.867157666666664, "lon": -76.98070333333334, "rental_uris": {"android": "https://dc.lft.to/lastmile_qr_scan", "ios": "https://dc.lft.to/lastmile_qr_scan"}, "is_disabled": 0, "fusion_lat": 0.0, "name": "92e6fa0f86cfaab8d079fd2784813a85", "fusion_lon": 0.0}, {"is_reserved": 0, "type": "electric_scooter", "bike_id": "a8d4f7543e066e43ca97313a2dca61ac", "lat": 38.8765235, "lon": -77.02077716666666, "rental_uris": {"android": "https://dc.lft.to/lastmile_qr_scan", "ios": "https://dc.lft.to/lastmile_qr_scan"}, "is_disabled": 0, "fusion_lat": 0.0, "name": "a8d4f7543e066e43ca97313a2dca61ac", "fusion_lon": 0.0}, {"is_reserved": 0, "type": "electric_scooter", "bike_id": "5359c2dd402c16c22fa0b7bdcfe04bbf", "lat": 38.90030183333333, "lon": -77.0019555, "rental_uris": {"android": "https://dc.lft.to/lastmile_qr_scan", "ios": "https://dc.lft.to/lastmile_qr_scan"}, "is_disabled": 0, "fusion_lat": 0.0, "name": "5359c2dd402c16c22fa0b7bdcfe04bbf", "fusion_lon": 0.0}, {"is_reserved": 0, "type": "electric_scooter", "bike_id": "fd41b06aa5aaa29e808bad7fa641541d", "lat": 38.88534466666667, "lon": -76.9806085, "rental_uris": {"android": "https://dc.lft.to/lastmile_qr_scan", "ios": "https://dc.lft.to/lastmile_qr_scan"}, "is_disabled": 0, "fusion_lat": 0.0, "name": "fd41b06aa5aaa29e808bad7fa641541d", "fusion_lon": 0.0}, {"is_reserved": 0, "type": "electric_scooter", "bike_id": "467e663873413456430ba36cfd8c4131", "lat": 38.924899833333335, "lon": -77.03051133333334, "rental_uris": {"android": "https://dc.lft.to/lastmile_qr_scan", "ios": "https://dc.lft.to/lastmile_qr_scan"}, "is_disabled": 0, "fusion_lat": 0.0, "name": "467e663873413456430ba36cfd8c4131", "fusion_lon": 0.0},