{"data": {"bikes": [{"bike_id": "a1700990a3a1ece27a0d9780a93a3bbe", "lat": 38.874623166666666, "is_reserved": 0, "fusion_lat": 0.0, "rental_uris": {"android": "https://dc.lft.to/lastmile_qr_scan", "ios": "https://dc.lft.to/lastmile_qr_scan"}, "fusion_lon": 0.0, "name": "a1700990a3a1ece27a0d9780a93a3bbe", "lon": -77.00937766666667, "is_disabled": 0, "type": "electric_scooter"}, {"bike_id": "8b29f2f891662a5e1aac3abd55ed3aa5", "lat": 38.89359233333333, "is_reserved": 0, "fusion_lat": 0.0, "rental_uris": {"android": "https://dc.lft.to/lastmile_qr_scan", "ios": "https://dc.lft.to/lastmile_qr_scan"}, "fusion_lon": 0.0, "name": "8b29f2f891662a5e1aac3abd55ed3aa5", "lon": -76.94932483333334, "is_disabled": 0, "type": "electric_scooter"}, {"bike_id": "f0068fcabf7258c4f833a7107f9f1ce8", "lat": 38.900428166666664, "is_reserved": 0, "fusion_lat": 0.0, "rental_uris": {"android": "https://dc.lft.to/lastmile_qr_scan", "ios": "https://dc.lft.to/lastmile_qr_scan"}, "fusion_lon": 0.0, "name": "f0068fcabf7258c4f833a7107f9f1ce8", "lon": -77.023724, "is_disabled": 0, "type": "electric_scooter"}, {"bike_id": "69b9917e8ce7f4cda39f84806dea5547", "lat": 38.876886999999996, "is_reserved": 0, "fusion_lat": 0.0, "rental_uris": {"android": "https://dc.lft.to/lastmile_qr_scan", "ios": "https://dc.lft.to/lastmile_qr_scan"}, "fusion_lon": 0.0, "name": "69b9917e8ce7f4cda39f84806dea5547", "lon": -77.017574, "is_disabled": 0, "type": "electric_scooter"}, {"bike_id": "171a4712a5c03b056b07de8aa0124550", "lat": 38.926125666666664, "is_reserved": 0, "fusion_lat": 0.0, "rental_uris": {"android": "https://dc.lft.to/lastmile_qr_scan", "ios": "https://dc.lft.to/lastmile_qr_scan"}, "fusion_lon": 0.0, "name": "171a4712a5c03b056b07de8aa0124550", "lon": -77.02164833333333, "is_disabled": 0, "type": "electric_scooter"}, {"bike_id": "3672a5eb619d95ee8dc6781a1f456d5f", "lat": 38.84597616666667, "is_reserved": 0, "fusion_lat": 0.0, "rental_uris": {"android": "https://dc.lft.to/lastmile_qr_scan", "ios": "https://dc.lft.to/lastmile_qr_scan"}, "fusion_lon": 0.0, "name": "3672a5eb619d95ee8dc6781a1f456d5f", "lon": -77.10859083333334, "is_disabled": 0, "type": "electric_bike"}, {"bike_id": "a2ec0e0f8708cefe0e5c4b83fd4b662b", "lat": 38.918293166666665, "is_reserved": 0, "fusion_lat": 0.0, "rental_uris": {"android": "https://dc.lft.to/lastmile_qr_scan", "ios": "https://dc.lft.to/lastmile_qr_scan"}, "fusion_lon": 0.0, "name": "a2ec0e0f8708cefe0e5c4b83fd4b662b", "lon": -77.024199, "is_disabled": 0, "type": "electric_scooter"}, {"bike_id": "e6cf2850ac8a501379a6d6fbec2653fa", "lat": 38.90368433333333, "is_reserved": 0, "fusion_lat": 0.0, "rental_uris": {"android": "https://dc.lft.to/lastmile_qr_scan", "ios": "https://dc.lft.to/lastmile_qr_scan"}, "fusion_lon": 0.0, "name": "e6cf2850ac8a501379a6d6fbec2653fa", "lon": -77.04483583333334, "is_disabled": 0, "type": "electric_scooter"}, {"bike_id": "5e27644e09f98e66d8e7130a076f8187", "lat": 38.91564316666667, "is_reserved": 0, "fusion_lat": 0.0, "rental_uris": {"android": "https://dc.lft.to/lastmile_qr_scan", "ios": "https://dc.lft.to/lastmile_qr_scan"}, "fusion_lon": 0.0, "name": "5e27644e09f98e66d8e7130a076f8187", "lon": -77.020047, "is_disabled": 0, "type": "electric_scooter"}, {"bike_id": "72901eccc324aa1ecb58faa5fac7cf6f", "lat": 38.87174316666667, "is_reserved": 0, "fusion_lat": 0.0, "rental_uris": {"android": "https://dc.lft.to/lastmile_qr_scan", "ios": "https://dc.lft.to/lastmile_qr_scan"}, "fusion_lon": 0.0, "name": "72901eccc324aa1ecb58faa5fac7cf6f", "lon": -77.00679666666667, "is_disabled": 0, "type": "electric_scooter"}, {"bike_id": "30c31c764ffad5c020390a2c698abe60", "lat": 38.89325816666667, "is_reserved": 0, "fusion_lat": 0.0, "rental_uris": {"android": "https://dc.lft.to/lastmile_qr_scan", "ios": "https://dc.lft.to/lastmile_qr_scan"}, "fusion_lon": 0.0, "name": "30c31c764ffad5c020390a2c698abe60", "lon": -77.0317615, "is_disabled": 0, "type": "electric_scooter"}, {"bike_id": "7baf1bd6b51dbc2abf9e8f69b5ed4d55", "lat": 38.905628666666665, "is_reserved": 0, "fusion_lat": 0.0, "rental_uris": {"android": "https://dc.lft.to/lastmile_qr_scan", "ios": "https://dc.lft.to/lastmile_qr_scan"}, "fusion_lon": 0.0, "name": "7baf1bd6b51dbc2abf9e8f69b5ed4d55", "lon": -77.06524666666667, "is_disabled": 0, "type": "electric_scooter"}, {"bike_id": "f816e68493c1337356a1fc3f93159737", "lat": 38.82175183333333, "is_reserved": 0, "fusion_lat": 0.0, "rental_uris": {"android": "https://dc.lft.to/lastmile_qr_scan", "ios": "https://dc.lft.to/lastmile_qr_scan"}, "fusion_lon": 0.0, "name": "f816e68493c1337356a1fc3f93159737", "lon": -76.995068, "is_disabled": 0, "type": "electric_bike"}, {"bike_id": "9c93273cf324018eba959299e4c2facc", "lat": 38.91906433333333, "is_reserved": 0, "fusion_lat": 0.0, "rental_uris": {"android": "https://dc.lft.to/lastmile_qr_scan", "ios": "https://dc.lft.to/lastmile_qr_scan"}, "fusion_lon": 0.0, "name": "9c93273cf324018eba959299e4c2facc", "lon": -77.01958833333333, "is_disabled": 0, "type": "electric_scooter"}, {"bike_id": "54ecaaaa16a7529ef46f9e99fa0e2cc4", "lat": 38.84643, "is_reserved": 0, "fusion_lat": 0.0, "rental_uris": {"android": "https://dc.lft.to/lastmile_qr_scan", "ios": "https://dc.lft.to/lastmile_qr_scan"}, "fusion_lon": 0.0, "name": "54ecaaaa16a7529ef46f9e99fa0e2cc4", "lon": -76.99129866666667, "is_disabled": 0, "type": "electric_scooter"}, {"bike_id": "20c9b5de126e09ed0933c5d390bcc6fa", "lat": 38.90551, "is_reserved": 0, "fusion_lat": 0.0, "rental_uris": {"android": "https://dc.lft.to/lastmile_qr_scan", "ios": "https://dc.lft.to/lastmile_qr_scan"}, "fusion_lon": 0.0, "name": "20c9b5de126e09ed0933c5d390bcc6fa", "lon": -77.0414465, "is_disabled": 0, "type": "electric_scooter"}, {"bike_id": "0fc70139d2e10863b071645c267ef3ea", "lat": 38.90158916666667, "is_reserved": 0, "fusion_lat": 0.0, "rental_uris": {"android": "https://dc.lft.to/lastmile_qr_scan", "ios": "https://dc.lft.to/lastmile_qr_scan"}, "fusion_lon": 0.0, "name": "0fc70139d2e10863b071645c267ef3ea", "lon": -77.02923383333334, "is_disabled": 0, "type": "electric_scooter"}, {"bike_id": "afea436f2b5915f09283260a88ea5ca0", "lat": 38.918297333333335, "is_reserved": 0, "fusion_lat": 0.0, "rental_uris": {"android": "https://dc.lft.to/lastmile_qr_scan", "ios": "https://dc.lft.to/lastmile_qr_scan"}, "fusion_lon": 0.0, "name": "afea436f2b5915f09283260a88ea5ca0", "lon": -77.03945, "is_disabled": 0, "type": "electric_scooter"}, {"bike_id": "3a0d6a1169258c2b619f03aaecc0badc", "lat": 38.914721666666665, "is_reserved": 0, "fusion_lat": 0.0, "rental_uris": {"android": "https://dc.lft.to/lastmile_qr_scan", "ios": "https://dc.lft.to/lastmile_qr_scan"}, "fusion_lon": 0.0, "name": "3a0d6a1169258c2b619f03aaecc0badc", "lon": -76.98112883333333, "is_disabled": 0, "type": "electric_scooter"}, {"bike_id": "716c16511d6caf04b222d19013da88b5", "lat": 38.91404816666667, "is_reserved": 0, "fusion_lat": 0.0, "rental_uris": {"android": "https://dc.lft.to/lastmile_qr_scan", "ios": "https://dc.lft.to/lastmile_qr_scan"}, "fusion_lon": 0.0, "name": "716c16511d6caf04b222d19013da88b5", "lon": -77.03220233333333, "is_disabled": 0, "type": "electric_scooter"}, {"bike_id": "fad3c5f27b2d6d95c6a9c147ab5f6229", "lat": 38.905279166666666, "is_reserved": 0, "fusion_lat": 0.0, "rental_uris": {"android": "https://dc.lft.to/lastmile_qr_scan", "ios": "https://dc.lft.to/lastmile_qr_scan"}, "fusion_lon": 0.0, "name": "fad3c5f27b2d6d95c6a9c147ab5f6229", "lon": -77.05820266666667, "is_disabled": 0, "type": "electric_scooter"}, {"bike_id": "bf0412c0f0704b869bffea39c3d607eb", "lat": 38.88123433333333, "is_reserved": 0, "fusion_lat": 0.0, "rental_uris": {"android": "https://dc.lft.to/lastmile_qr_scan", "ios": "https://dc.lft.to/lastmile_qr_scan"}, "fusion_lon": 0.0, "name": "bf0412c0f0704b869bffea39c3d607eb", "lon": -77.016497, "is_disabled": 0, "type": "electric_scooter"}, {"bike_id": "5d0a8eed06357930f5ee218a2ccd1cc5", "lat": 38.932322166666665, "is_reserved": 0, "fusion_lat": 0.0, "rental_uris": {"android": "https://dc.lft.to/lastmile_qr_scan", "ios": "https://dc.lft.to/lastmile_qr_scan"}, "fusion_lon": 0.0, "name": "5d0a8eed06357930f5ee218a2ccd1cc5", "lon": -77.18123066666666, "is_disabled": 0, "type": "electric_bike"}, {"bike_id": "bcc83e0022bba93008212eed71ba5c83", "lat": 38.885199, "is_reserved": 0, "fusion_lat": 0.0, "rental_uris": {"android": "https://dc.lft.to/lastmile_qr_scan", "ios": "https://dc.lft.to/lastmile_qr_scan"}, "fusion_lon": 0.0, "name": "bcc83e0022bba93008212eed71ba5c83", "lon": -76.95633733333334, "is_disabled": 0, "type": "electric_bike"}, {"bike_id": "7297ba009152f6252f681f489a013779", "lat": 38.89222083333333, "is_reserved": 0, "fusion_lat": 0.0, "rental_uris": {"android": "https://dc.lft.to/lastmile_qr_scan", "ios": "https://dc.lft.to/lastmile_qr_scan"}, "fusion_lon": 0.0, "name": "7297ba009152f6252f681f489a013779", "lon": -77.03020266666667, "is_disabled": 0, "type": "electric_scooter"}, {"bike_id": "23b99106bffdbf6b8a08b94e128a501a", "lat": 38.8729575, "is_reserved": 0, "fusion_lat": 0.0, "rental_uris": {"android": "https://dc.lft.to/lastmile_qr_scan", "ios": "https://dc.lft.to/lastmile_qr_scan"}, "fusion_lon": 0.0, "name": "23b99106bffdbf6b8a08b94e128a501a", "lon": -77.00988216666667, "is_disabled": 0, "type": "electric_scooter"}, {"bike_id": "c9d8bbfe4a1cc812397ae21a395c49bf", "lat": 38.93159133333333, "is_reserved": 0, "fusion_lat": 0.0, "rental_uris": {"android": "https://dc.lft.to/lastmile_qr_scan", "ios": "https://dc.lft.to/lastmile_qr_scan"}, "fusion_lon": 0.0, "name": "c9d8bbfe4a1cc812397ae21a395c49bf", "lon": -77.04541933333333, "is_disabled": 0, "type": "electric_scooter"}, {"bike_id": "de4a72c9f46bb5b51c18445e96974786", "lat": 38.9170895, "is_reserved": 0, "fusion_lat": 0.0, "rental_uris": {"android": "https://dc.lft.to/lastmile_qr_scan", "ios": "https://dc.lft.to/lastmile_qr_scan"}, "fusion_lon": 0.0, "name": "de4a72c9f46bb5b51c18445e96974786", "lon": -77.03197116666666, "is_disabled": 0, "type": "electric_scooter"}, {"bike_id": "236c67c6b209edbd65ae0a09cb003bc8", "lat": 38.9046565, "is_reserved": 0, "fusion_lat": 0.0, "rental_uris": {"android": "https://dc.lft.to/lastmile_qr_scan", "ios": "https://dc.lft.to/lastmile_qr_scan"}, "fusion_lon": 0.0, "name": "236c67c6b209edbd65ae0a09cb003bc8", "lon": -77.04354983333333, "is_disabled": 0, "type": "electric_scooter"}, {"bike_id": "64ae8b6c7ba4ad29dc1381b96ad65fd2", "lat": 38.903540166666666, "is_reserved": 0, "fusion_lat": 0.0, "rental_uris": {"android": "https://dc.lft.to/lastmile_qr_scan", "ios": "https://dc.lft.to/lastmile_qr_scan"}, "fusion_lon": 0.0, "name": "64ae8b6c7ba4ad29dc1381b96ad65fd2", "lon": -76.974767, "is_disabled": 0, "type": "electric_scooter"}, {"bike_id": "2a939ed2b7b36c59cdd06f478df7a4c9", "lat": 38.904695, "is_reserved": 0, "fusion_lat": 0.0, "rental_uris": {"android": "https://dc.lft.to/lastmile_qr_scan", "ios": "https://dc.lft.to/lastmile_qr_scan"}, "fusion_lon": 0.0, "name": "2a939ed2b7b36c59cdd06f478df7a4c9", "lon": -76.97609916666667, "is_disabled": 0, "type": "electric_scooter"}, {"bike_id": "765991512bcc502469e12ecc71c8609d", "lat": 38.884956833333334, "is_reserved": 0, "fusion_lat": 0.0, "rental_uris": {"android": "https://dc.lft.to/lastmile_qr_scan", "ios": "https://dc.lft.to/lastmile_qr_scan"}, "fusion_lon": 0.0, "name": "765991512bcc502469e12ecc71c8609d", "lon": -77.00713, "is_disabled": 0, "type": "electric_scooter"}, {"bike_id": "713be31d57ed6a39a245ecdc9abfb9f1", "lat": 38.928717, "is_reserved": 0, "fusion_lat": 0.0, "rental_uris": {"android": "https://dc.lft.to/lastmile_qr_scan", "ios": "https://dc.lft.to/lastmile_qr_scan"}, "fusion_lon": 0.0, "name": "713be31d57ed6a39a245ecdc9abfb9f1", "lon": -77.02774283333333, "is_disabled": 0, "type": "electric_scooter"}, {"bike_id": "14da3c700f53f8c0bd51282329201caa", "lat": 38.91686583333333, "is_reserved": 0, "fusion_lat": 0.0, "rental_uris": {"android": "https://dc.lft.to/lastmile_qr_scan", "ios": "https://dc.lft.to/lastmile_qr_scan"}, "fusion_lon": 0.0, "name": "14da3c700f53f8c0bd51282329201caa", "lon": -77.02376733333334, "is_disabled": 0, "type": "electric_scooter"}, {"bike_id": "4b0e3a113959a3360257c92d388d97f3", "lat": 38.906817833333335, "is_reserved": 0, "fusion_lat": 0.0, "rental_uris": {"android": "https://dc.lft.to/lastmile_qr_scan", "ios": "https://dc.lft.to/lastmile_qr_scan"}, "fusion_lon": 0.0, "name": "4b0e3a113959a3360257c92d388d97f3", "lon": -76.98002816666667, "is_disabled": 0, "type": "electric_scooter"}, {"bike_id": "726304c0b78132df1cedb3a8cf794cd3", "lat": 38.912115666666665, "is_reserved": 0, "fusion_lat": 0.0, "rental_uris": {"android": "https://dc.lft.to/lastmile_qr_scan", "ios": "https://dc.lft.to/lastmile_qr_scan"}, "fusion_lon": 0.0, "name": "726304c0b78132df1cedb3a8cf794cd3", "lon": -77.0446175, "is_disabled": 0, "type": "electric_scooter"}, {"bike_id": "991f500edf03d7709946bd019d3490b6", "lat": 38.91615933333333, "is_reserved": 0, "fusion_lat": 0.0, "rental_uris": {"android": "https://dc.lft.to/lastmile_qr_scan", "ios": "https://dc.lft.to/lastmile_qr_scan"}, "fusion_lon": 0.0, "name": "991f500edf03d7709946bd019d3490b6", "lon": -77.04878783333334, "is_disabled": 0, "type": "electric_scooter"}, {"bike_id": "6eff694b02d5fc88315ea403add13412", "lat": 38.89484133333333, "is_reserved": 0, "fusion_lat": 0.0, "rental_uris": {"android": "https://dc.lft.to/lastmile_qr_scan", "ios": "https://dc.lft.to/lastmile_qr_scan"}, "fusion_lon": 0.0, "name": "6eff694b02d5fc88315ea403add13412", "lon": -77.02171866666667, "is_disabled": 0, "type": "electric_scooter"}, {"bike_id": "ff95718b2e323c9497fa42a9a7f355d1", "lat": 38.921676166666664, "is_reserved": 0, "fusion_lat": 0.0, "rental_uris": {"android": "https://dc.lft.to/lastmile_qr_scan", "ios": "https://dc.lft.to/lastmile_qr_scan"}, "fusion_lon": 0.0, "name": "ff95718b2e323c9497fa42a9a7f355d1", "lon": -77.03381733333333, "is_disabled": 0, "type": "electric_scooter"}, {"bike_id": "8456794d73afdf939453fe2e9e40f13f", "lat": 38.87369666666667, "is_reserved": 0, "fusion_lat": 0.0, "rental_uris": {"android": "https://dc.lft.to/lastmile_qr_scan", "ios": "https://dc.lft.to/lastmile_qr_scan"}, "fusion_lon": 0.0, "name": "8456794d73afdf939453fe2e9e40f13f", "lon": -77.0010895, "is_disabled": 0, "type": "electric_scooter"}, {"bike_id": "388339c304ebb13f469482141e5a684c", "lat": 38.89264683333333, "is_reserved": 0, "fusion_lat": 0.0, "rental_uris": {"android": "https://dc.lft.to/lastmile_qr_scan", "ios": "https://dc.lft.to/lastmile_qr_scan"}, "fusion_lon": 0.0, "name": "388339c304ebb13f469482141e5a684c", "lon": -77.0127555, "is_disabled": 0, "type": "electric_scooter"}, {"bike_id": "4f6004ebe66850fed8d8eea0f6e59804", "lat": 38.911485666666664, "is_reserved": 0, "fusion_lat": 0.0, "rental_uris": {"android": "https://dc.lft.to/lastmile_qr_scan", "ios": "https://dc.lft.to/lastmile_qr_scan"}, "fusion_lon": 0.0, "name": "4f6004ebe66850fed8d8eea0f6e59804", "lon": -77.048386, "is_disabled": 0, "type": "electric_scooter"}, {"bike_id": "fb7f2483c3c718eb132fed2f5219e238", "lat": 38.91122633333333, "is_reserved": 0, "fusion_lat": 0.0, "rental_uris": {"android": "https://dc.lft.to/lastmile_qr_scan", "ios": "https://dc.lft.to/lastmile_qr_scan"}, "fusion_lon": 0.0, "name": "fb7f2483c3c718eb132fed2f5219e238", "lon": -77.04218283333333, "is_disabled": 0, "type": "electric_scooter"}, {"bike_id": "877cdb092e6965fe179f4ce34eb28ab5", "lat": 38.902314833333335, "is_reserved": 0, "fusion_lat": 0.0, "rental_uris": {"android": "https://dc.lft.to/lastmile_qr_scan", "ios": "https://dc.lft.to/lastmile_qr_scan"}, "fusion_lon": 0.0, "name": "877cdb092e6965fe179f4ce34eb28ab5", "lon": -77.02683066666667, "is_disabled": 0, "type": "electric_scooter"}, {"bike_id": "6062f538b30ce3dcbf28dcb51d5403e1", "lat": 38.84439, "is_reserved": 0, "fusion_lat": 0.0, "rental_uris": {"android": "https://dc.lft.to/lastmile_qr_scan", "ios": "https://dc.lft.to/lastmile_qr_scan"}, "fusion_lon": 0.0, "name": "6062f538b30ce3dcbf28dcb51d5403e1", "lon": -76.99866716666666, "is_disabled": 0, "type": "electric_scooter"}, {"bike_id": "04acfe7902ccff68360ed8c709a4a5fd", "lat": 38.90677133333333, "is_reserved": 0, "fusion_lat": 0.0, "rental_uris": {"android": "https://dc.lft.to/lastmile_qr_scan", "ios": "https://dc.lft.to/lastmile_qr_scan"}, "fusion_lon": 0.0, "name": "04acfe7902ccff68360ed8c709a4a5fd", "lon": -77.0295915, "is_disabled": 0, "type": "electric_scooter"}, {"bike_id": "ad3b833e465a0b745c30a3133ee2acd0", "lat": 38.9389165, "is_reserved": 0, "fusion_lat": 0.0, "rental_uris": {"android": "https://dc.lft.to/lastmile_qr_scan", "ios": "https://dc.lft.to/lastmile_qr_scan"}, "fusion_lon": 0.0, "name": "ad3b833e465a0b745c30a3133ee2acd0", "lon": -77.06356483333333, "is_disabled": 0, "type": "electric_bike"}, {"bike_id": "a785ef38713d13074321f6f406a54974", "lat": 38.91484483333333, "is_reserved": 0, "fusion_lat": 0.0, "rental_uris": {"android": "https://dc.lft.to/lastmile_qr_scan", "ios": "https://dc.lft.to/lastmile_qr_scan"}, "fusion_lon": 0.0, "name": "a785ef38713d13074321f6f406a54974", "lon": -77.0455925, "is_disabled": 0, "type": "electric_scooter"}, {"bike_id": "605bf5c70d43a37b35adea36e2cb20d6", "lat": 38.910647166666664, "is_reserved": 0, "fusion_lat": 0.0, "rental_uris": {"android": "https://dc.lft.to/lastmile_qr_scan", "ios": "https://dc.lft.to/lastmile_qr_scan"}, "fusion_lon": 0.0, "name": "605bf5c70d43a37b35adea36e2cb20d6", "lon": -77.02187366666666, "is_disabled": 0, "type": "electric_scooter"}, {"bike_id": "df2da70fc060163f9ba31627e2f6d9ed", "lat": 38.96503216666667, "is_reserved": 0, "fusion_lat": 0.0, "rental_uris": {"android": "https://dc.lft.to/lastmile_qr_scan", "ios": "https://dc.lft.to/lastmile_qr_scan"}, "fusion_lon": 0.0, "name": "df2da70fc060163f9ba31627e2f6d9ed", "lon": -77.00200433333333, "is_disabled": 0, "type": "electric_scooter"}, {"bike_id": "f9157771b1f18cad7d192e49441b262b", "lat": 38.9171735, "is_reserved": 0, "fusion_lat": 0.0, "rental_uris": {"android": "https://dc.lft.to/lastmile_qr_scan", "ios": "https://dc.lft.to/lastmile_qr_scan"}, "fusion_lon": 0.0, "name": "f9157771b1f18cad7d192e49441b262b", "lon": -77.04684516666667, "is_disabled": 0, "type": "electric_scooter"}, {"bike_id": "3f45385f249862d07975ceb5d5488ee2", "lat": 38.902703, "is_reserved": 0, "fusion_lat": 0.0, "rental_uris": {"android": "https://dc.lft.to/lastmile_qr_scan", "ios": "https://dc.lft.to/lastmile_qr_scan"}, "fusion_lon": 0.0, "name": "3f45385f249862d07975ceb5d5488ee2", "lon": -77.03932166666667, "is_disabled": 0, "type": "electric_scooter"}, {"bike_id": "85a93af8fc205c4cc527cfb9fa858807", "lat": 38.898391333333336, "is_reserved": 0, "fusion_lat": 0.0, "rental_uris": {"android": "https://dc.lft.to/lastmile_qr_scan", "ios": "https://dc.lft.to/lastmile_qr_scan"}, "fusion_lon": 0.0, "name": "85a93af8fc205c4cc527cfb9fa858807", "lon": -77.030143, "is_disabled": 0, "type": "electric_scooter"}, {"bike_id": "43091ac5aefa9d27f6d82cbc11edef5a", "lat": 38.90391283333334, "is_reserved": 0, "fusion_lat": 0.0, "rental_uris": {"android": "https://dc.lft.to/lastmile_qr_scan", "ios": "https://dc.lft.to/lastmile_qr_scan"}, "fusion_lon": 0.0, "name": "43091ac5aefa9d27f6d82cbc11edef5a", "lon": -77.0484075, "is_disabled": 0, "type": "electric_scooter"}, {"bike_id": "70e7c094427107ff5c7c8dbbcbaf7a09", "lat": 38.9127465, "is_reserved": 0, "fusion_lat": 0.0, "rental_uris": {"android": "https://dc.lft.to/lastmile_qr_scan", "ios": "https://dc.lft.to/lastmile_qr_scan"}, "fusion_lon": 0.0, "name": "70e7c094427107ff5c7c8dbbcbaf7a09", "lon": -77.03229266666666, "is_disabled": 0, "type": "electric_scooter"}, {"bike_id": "bf8ec4968200aa1385881de201669924", "lat": 38.949381333333335, "is_reserved": 0, "fusion_lat": 0.0, "rental_uris": {"android": "https://dc.lft.to/lastmile_qr_scan", "ios": "https://dc.lft.to/lastmile_qr_scan"}, "fusion_lon": 0.0, "name": "bf8ec4968200aa1385881de201669924", "lon": -77.02030383333333, "is_disabled": 0, "type": "electric_scooter"}, {"bike_id": "398bbd3da3312d4410ffcc22597210fa", "lat": 38.90856733333333, "is_reserved": 0, "fusion_lat": 0.0, "rental_uris": {"android": "https://dc.lft.to/lastmile_qr_scan", "ios": "https://dc.lft.to/lastmile_qr_scan"}, "fusion_lon": 0.0, "name": "398bbd3da3312d4410ffcc22597210fa", "lon": -76.99799066666667, "is_disabled": 0, "type": "electric_scooter"}, {"bike_id": "b91c9706dbe168dfe99d8f2019ed6147", "lat": 38.900862000000004, "is_reserved": 0, "fusion_lat": 0.0, "rental_uris": {"android": "https://dc.lft.to/lastmile_qr_scan", "ios": "https://dc.lft.to/lastmile_qr_scan"}, "fusion_lon": 0.0, "name": "b91c9706dbe168dfe99d8f2019ed6147", "lon": -77.02702533333333, "is_disabled": 0, "type": "electric_scooter"}, {"bike_id": "b4b66336bf14615a8a8f62d99caf3d82", "lat": 38.928659, "is_reserved": 0, "fusion_lat": 0.0, "rental_uris": {"android": "https://dc.lft.to/lastmile_qr_scan", "ios": "https://dc.lft.to/lastmile_qr_scan"}, "fusion_lon": 0.0, "name": "b4b66336bf14615a8a8f62d99caf3d82", "lon": -77.0055705, "is_disabled": 0, "type": "electric_scooter"}, {"bike_id": "319cd163b249fe608807c766fa0f278d", "lat": 38.905691833333336, "is_reserved": 0, "fusion_lat": 0.0, "rental_uris": {"android": "https://dc.lft.to/lastmile_qr_scan", "ios": "https://dc.lft.to/lastmile_qr_scan"}, "fusion_lon": 0.0, "name": "319cd163b249fe608807c766fa0f278d", "lon": -76.97783633333333, "is_disabled": 0, "type": "electric_scooter"}, {"bike_id": "d9b83e0856b8ba75c0ff45629ee0060f", "lat": 38.832471, "is_reserved": 0, "fusion_lat": 0.0, "rental_uris": {"android": "https://dc.lft.to/lastmile_qr_scan", "ios": "https://dc.lft.to/lastmile_qr_scan"}, "fusion_lon": 0.0, "name": "d9b83e0856b8ba75c0ff45629ee0060f", "lon": -76.946303, "is_disabled": 0, "type": "electric_bike"}, {"bike_id": "949120d22e51135937af521246280549", "lat": 39.034299, "is_reserved": 0, "fusion_lat": 0.0, "rental_uris": {"android": "https://dc.lft.to/lastmile_qr_scan", "ios": "https://dc.lft.to/lastmile_qr_scan"}, "fusion_lon": 0.0, "name": "949120d22e51135937af521246280549", "lon": -77.04307116666666, "is_disabled": 0, "type": "electric_bike"}, {"bike_id": "a3216162bf810ee1e423c0c8787bdd47", "lat": 38.87758216666667, "is_reserved": 0, "fusion_lat": 0.0, "rental_uris": {"android": "https://dc.lft.to/lastmile_qr_scan", "ios": "https://dc.lft.to/lastmile_qr_scan"}, "fusion_lon": 0.0, "name": "a3216162bf810ee1e423c0c8787bdd47", "lon": -76.986833, "is_disabled": 0, "type": "electric_scooter"}, {"bike_id": "4ccb76050799301fdf3065ad1aa0d873", "lat": 38.921213, "is_reserved": 0, "fusion_lat": 0.0, "rental_uris": {"android": "https://dc.lft.to/lastmile_qr_scan", "ios": "https://dc.lft.to/lastmile_qr_scan"}, "fusion_lon": 0.0, "name": "4ccb76050799301fdf3065ad1aa0d873", "lon": -77.01751016666667, "is_disabled": 0, "type": "electric_scooter"}, {"bike_id": "cc2c04a72bcaa5fa921f942931ef07f2", "lat": 38.8957095, "is_reserved": 0, "fusion_lat": 0.0, "rental_uris": {"android": "https://dc.lft.to/lastmile_qr_scan", "ios": "https://dc.lft.to/lastmile_qr_scan"}, "fusion_lon": 0.0, "name": "cc2c04a72bcaa5fa921f942931ef07f2", "lon": -76.9302485, "is_disabled": 0, "type": "electric_scooter"}, {"bike_id": "dd7d33190b6a087c60107afdd6590e61", "lat": 38.919256833333336, "is_reserved": 0, "fusion_lat": 0.0, "rental_uris": {"android": "https://dc.lft.to/lastmile_qr_scan", "ios": "https://dc.lft.to/lastmile_qr_scan"}, "fusion_lon": 0.0, "name": "dd7d33190b6a087c60107afdd6590e61", "lon": -77.02376466666666, "is_disabled": 0, "type": "electric_scooter"}, {"bike_id": "3ee62376023278f8b2fc0f8898bcd0fe", "lat": 38.903904, "is_reserved": 0, "fusion_lat": 0.0, "rental_uris": {"android": "https://dc.lft.to/lastmile_qr_scan", "ios": "https://dc.lft.to/lastmile_qr_scan"}, "fusion_lon": 0.0, "name": "3ee62376023278f8b2fc0f8898bcd0fe", "lon": -77.00877916666667, "is_disabled": 0, "type": "electric_scooter"}, {"bike_id": "b6957fd2d2c74ef40413c58fa48514c3", "lat": 38.9291675, "is_reserved": 0, "fusion_lat": 0.0, "rental_uris": {"android": "https://dc.lft.to/lastmile_qr_scan", "ios": "https://dc.lft.to/lastmile_qr_scan"}, "fusion_lon": 0.0, "name": "b6957fd2d2c74ef40413c58fa48514c3", "lon": -77.03288433333333, "is_disabled": 0, "type": "electric_scooter"}, {"bike_id": "4db74a199a157234dd12122acd2b2f6f", "lat": 38.914177333333335, "is_reserved": 0, "fusion_lat": 0.0, "rental_uris": {"android": "https://dc.lft.to/lastmile_qr_scan", "ios": "https://dc.lft.to/lastmile_qr_scan"}, "fusion_lon": 0.0, "name": "4db74a199a157234dd12122acd2b2f6f", "lon": -77.02407466666666, "is_disabled": 0, "type": "electric_scooter"}, {"bike_id": "d49f9dfbee9dfadbc6d0510c3855ff80", "lat": 38.921795833333334, "is_reserved": 0, "fusion_lat": 0.0, "rental_uris": {"android": "https://dc.lft.to/lastmile_qr_scan", "ios": "https://dc.lft.to/lastmile_qr_scan"}, "fusion_lon": 0.0, "name": "d49f9dfbee9dfadbc6d0510c3855ff80", "lon": -77.02658783333334, "is_disabled": 0, "type": "electric_scooter"}, {"bike_id": "f48b8f6b4270e820b61e27ee46f68515", "lat": 38.9001785, "is_reserved": 0, "fusion_lat": 0.0, "rental_uris": {"android": "https://dc.lft.to/lastmile_qr_scan", "ios": "https://dc.lft.to/lastmile_qr_scan"}, "fusion_lon": 0.0, "name": "f48b8f6b4270e820b61e27ee46f68515", "lon": -77.0020865, "is_disabled": 0, "type": "electric_scooter"}, {"bike_id": "1e901ee8c558668f6038b3ac7b826c18", "lat": 38.90003933333333, "is_reserved": 0, "fusion_lat": 0.0, "rental_uris": {"android": "https://dc.lft.to/lastmile_qr_scan", "ios": "https://dc.lft.to/lastmile_qr_scan"}, "fusion_lon": 0.0, "name": "1e901ee8c558668f6038b3ac7b826c18", "lon": -77.03802666666667, "is_disabled": 0, "type": "electric_scooter"}, {"bike_id": "0dd66d726d5d98e184d30b1817755c6b", "lat": 38.9339845, "is_reserved": 0, "fusion_lat": 0.0, "rental_uris": {"android": "https://dc.lft.to/lastmile_qr_scan", "ios": "https://dc.lft.to/lastmile_qr_scan"}, "fusion_lon": 0.0, "name": "0dd66d726d5d98e184d30b1817755c6b", "lon": -77.057447, "is_disabled": 0, "type": "electric_scooter"}, {"bike_id": "4116e1a0cc93dc8c8196c311176d6f33", "lat": 38.89754116666667, "is_reserved": 0, "fusion_lat": 0.0, "rental_uris": {"android": "https://dc.lft.to/lastmile_qr_scan", "ios": "https://dc.lft.to/lastmile_qr_scan"}, "fusion_lon": 0.0, "name": "4116e1a0cc93dc8c8196c311176d6f33", "lon": -77.02984316666667, "is_disabled": 0, "type": "electric_scooter"}, {"bike_id": "53f69439c5864195aa73b1f1052ec264", "lat": 38.92396866666667, "is_reserved": 0, "fusion_lat": 0.0, "rental_uris": {"android": "https://dc.lft.to/lastmile_qr_scan", "ios": "https://dc.lft.to/lastmile_qr_scan"}, "fusion_lon": 0.0, "name": "53f69439c5864195aa73b1f1052ec264", "lon": -77.02966783333333, "is_disabled": 0, "type": "electric_scooter"}, {"bike_id": "c685d0eb48079b6e8f4d4c5701cea8fb", "lat": 38.83100233333333, "is_reserved": 0, "fusion_lat": 0.0, "rental_uris": {"android": "https://dc.lft.to/lastmile_qr_scan", "ios": "https://dc.lft.to/lastmile_qr_scan"}, "fusion_lon": 0.0, "name": "c685d0eb48079b6e8f4d4c5701cea8fb", "lon": -77.042925, "is_disabled": 0, "type": "electric_bike"}, {"bike_id": "57d496b4993eb66130150412cc8d4d14", "lat": 38.88414183333333, "is_reserved": 0, "fusion_lat": 0.0, "rental_uris": {"android": "https://dc.lft.to/lastmile_qr_scan", "ios": "https://dc.lft.to/lastmile_qr_scan"}, "fusion_lon": 0.0, "name": "57d496b4993eb66130150412cc8d4d14", "lon": -76.94819933333333, "is_disabled": 0, "type": "electric_scooter"}, {"bike_id": "ae7c20b48ebf2e6d23d000a3699a8104", "lat": 38.89640216666667, "is_reserved": 0, "fusion_lat": 0.0, "rental_uris": {"android": "https://dc.lft.to/lastmile_qr_scan", "ios": "https://dc.lft.to/lastmile_qr_scan"}, "fusion_lon": 0.0, "name": "ae7c20b48ebf2e6d23d000a3699a8104", "lon": -77.02587216666667, "is_disabled": 0, "type": "electric_scooter"}, {"bike_id": "e5ed1a08a36fdef4cd7eac5402e6b220", "lat": 38.90554616666667, "is_reserved": 0, "fusion_lat": 0.0, "rental_uris": {"android": "https://dc.lft.to/lastmile_qr_scan", "ios": "https://dc.lft.to/lastmile_qr_scan"}, "fusion_lon": 0.0, "name": "e5ed1a08a36fdef4cd7eac5402e6b220", "lon": -77.04168133333333, "is_disabled": 0, "type": "electric_scooter"}, {"bike_id": "374ed71edba2864f6a4aae07c02fa82e", "lat": 38.86512233333333, "is_reserved": 0, "fusion_lat": 0.0, "rental_uris": {"android": "https://dc.lft.to/lastmile_qr_scan", "ios": "https://dc.lft.to/lastmile_qr_scan"}, "fusion_lon": 0.0, "name": "374ed71edba2864f6a4aae07c02fa82e", "lon": -76.99006583333333, "is_disabled": 0, "type": "electric_scooter"}, {"bike_id": "02b77db8bc15140ab726f002f046dd33", "lat": 38.902715666666666, "is_reserved": 0, "fusion_lat": 0.0, "rental_uris": {"android": "https://dc.lft.to/lastmile_qr_scan", "ios": "https://dc.lft.to/lastmile_qr_scan"}, "fusion_lon": 0.0, "name": "02b77db8bc15140ab726f002f046dd33", "lon": -77.039312, "is_disabled": 0, "type": "electric_scooter"}, {"bike_id": "2475d6f639af8ffb6a4fa76f3db1f218", "lat": 38.921621, "is_reserved": 0, "fusion_lat": 0.0, "rental_uris": {"android": "https://dc.lft.to/lastmile_qr_scan", "ios": "https://dc.lft.to/lastmile_qr_scan"}, "fusion_lon": 0.0, "name": "2475d6f639af8ffb6a4fa76f3db1f218", "lon": -77.02091683333333, "is_disabled": 0, "type": "electric_scooter"}, {"bike_id": "1c6d97838edd6110d45e70e16117b79e", "lat": 38.9177425, "is_reserved": 0, "fusion_lat": 0.0, "rental_uris": {"android": "https://dc.lft.to/lastmile_qr_scan", "ios": "https://dc.lft.to/lastmile_qr_scan"}, "fusion_lon": 0.0, "name": "1c6d97838edd6110d45e70e16117b79e", "lon": -77.0295355, "is_disabled": 0, "type": "electric_scooter"}, {"bike_id": "ce2203126c53f035e9b80721f668ea12", "lat": 38.92675633333333, "is_reserved": 0, "fusion_lat": 0.0, "rental_uris": {"android": "https://dc.lft.to/lastmile_qr_scan", "ios": "https://dc.lft.to/lastmile_qr_scan"}, "fusion_lon": 0.0, "name": "ce2203126c53f035e9b80721f668ea12", "lon": -77.07331266666667, "is_disabled": 0, "type": "electric_scooter"}, {"bike_id": "ef5d4eb3531a4a1be4dac76edcc353a4", "lat": 38.8924085, "is_reserved": 0, "fusion_lat": 0.0, "rental_uris": {"android": "https://dc.lft.to/lastmile_qr_scan", "ios": "https://dc.lft.to/lastmile_qr_scan"}, "fusion_lon": 0.0, "name": "ef5d4eb3531a4a1be4dac76edcc353a4", "lon": -76.95329233333334, "is_disabled": 0, "type": "electric_scooter"}, {"bike_id": "3cb6482726afe7164dfcd2059b093390", "lat": 38.89234833333333, "is_reserved": 0, "fusion_lat": 0.0, "rental_uris": {"android": "https://dc.lft.to/lastmile_qr_scan", "ios": "https://dc.lft.to/lastmile_qr_scan"}, "fusion_lon": 0.0, "name": "3cb6482726afe7164dfcd2059b093390", "lon": -77.04675166666667, "is_disabled": 0, "type": "electric_scooter"}, {"bike_id": "d9438fbeaf5ddd450cda91dfecde7cf0", "lat": 38.892501833333334, "is_reserved": 0, "fusion_lat": 0.0, "rental_uris": {"android": "https://dc.lft.to/lastmile_qr_scan", "ios": "https://dc.lft.to/lastmile_qr_scan"}, "fusion_lon": 0.0, "name": "d9438fbeaf5ddd450cda91dfecde7cf0", "lon": -77.048766, "is_disabled": 0, "type": "electric_scooter"}, {"bike_id": "a291d5ac7e7a89f64ee7f698c23ea155", "lat": 38.900958333333335, "is_reserved": 0, "fusion_lat": 0.0, "rental_uris": {"android": "https://dc.lft.to/lastmile_qr_scan", "ios": "https://dc.lft.to/lastmile_qr_scan"}, "fusion_lon": 0.0, "name": "a291d5ac7e7a89f64ee7f698c23ea155", "lon": -76.9833975, "is_disabled": 0, "type": "electric_scooter"}, {"bike_id": "d4b0bff4c45328745c654c80b506b187", "lat": 38.916465, "is_reserved": 0, "fusion_lat": 0.0, "rental_uris": {"android": "https://dc.lft.to/lastmile_qr_scan", "ios": "https://dc.lft.to/lastmile_qr_scan"}, "fusion_lon": 0.0, "name": "d4b0bff4c45328745c654c80b506b187", "lon": -77.03192516666667, "is_disabled": 0, "type": "electric_scooter"}, {"bike_id": "3b1fbcb3f8346d12209dace1b01462c0", "lat": 38.90371233333333, "is_reserved": 0, "fusion_lat": 0.0, "rental_uris": {"android": "https://dc.lft.to/lastmile_qr_scan", "ios": "https://dc.lft.to/lastmile_qr_scan"}, "fusion_lon": 0.0, "name": "3b1fbcb3f8346d12209dace1b01462c0", "lon": -77.038719, "is_disabled": 0, "type": "electric_scooter"}, {"bike_id": "a69c2d0a023a0fb01ee01d0e55cf91a2", "lat": 38.907554833333336, "is_reserved": 0, "fusion_lat": 0.0, "rental_uris": {"android": "https://dc.lft.to/lastmile_qr_scan", "ios": "https://dc.lft.to/lastmile_qr_scan"}, "fusion_lon": 0.0, "name": "a69c2d0a023a0fb01ee01d0e55cf91a2", "lon": -77.03204583333333, "is_disabled": 0, "type": "electric_scooter"}, {"bike_id": "38ba426da49238c394ceb1e15c8a7e3f", "lat": 38.915420833333336, "is_reserved": 0, "fusion_lat": 0.0, "rental_uris": {"android": "https://dc.lft.to/lastmile_qr_scan", "ios": "https://dc.lft.to/lastmile_qr_scan"}, "fusion_lon": 0.0, "name": "38ba426da49238c394ceb1e15c8a7e3f", "lon": -77.0445055, "is_disabled": 0, "type": "electric_scooter"}, {"bike_id": "f7df55bd761727d2924e96df8ed58dab", "lat": 38.875031666666665, "is_reserved": 0, "fusion_lat": 0.0, "rental_uris": {"android": "https://dc.lft.to/lastmile_qr_scan", "ios": "https://dc.lft.to/lastmile_qr_scan"}, "fusion_lon": 0.0, "name": "f7df55bd761727d2924e96df8ed58dab", "lon": -77.01233216666667, "is_disabled": 0, "type": "electric_scooter"}, {"bike_id": "63fc21d08c784d8a7e084546d78f7612", "lat": 38.8785205, "is_reserved": 0, "fusion_lat": 0.0, "rental_uris": {"android": "https://dc.lft.to/lastmile_qr_scan", "ios": "https://dc.lft.to/lastmile_qr_scan"}, "fusion_lon": 0.0, "name": "63fc21d08c784d8a7e084546d78f7612", "lon": -77.01774316666666, "is_disabled": 0, "type": "electric_scooter"}, {"bike_id": "89f6b062fcef1594b243d69cf46ac4f5", "lat": 38.809119, "is_reserved": 0, "fusion_lat": 0.0, "rental_uris": {"android": "https://dc.lft.to/lastmile_qr_scan", "ios": "https://dc.lft.to/lastmile_qr_scan"}, "fusion_lon": 0.0, "name": "89f6b062fcef1594b243d69cf46ac4f5", "lon": -77.08638083333334, "is_disabled": 0, "type": "electric_bike"}, {"bike_id": "08020346a5e4d76fd11041b3c77168d7", "lat": 38.90257533333333, "is_reserved": 0, "fusion_lat": 0.0, "rental_uris": {"android": "https://dc.lft.to/lastmile_qr_scan", "ios": "https://dc.lft.to/lastmile_qr_scan"}, "fusion_lon": 0.0, "name": "08020346a5e4d76fd11041b3c77168d7", "lon": -77.0347125, "is_disabled": 0, "type": "electric_scooter"}, {"bike_id": "e5304bf183981e8491993a702e502030", "lat": 38.913846166666666, "is_reserved": 0, "fusion_lat": 0.0, "rental_uris": {"android": "https://dc.lft.to/lastmile_qr_scan", "ios": "https://dc.lft.to/lastmile_qr_scan"}, "fusion_lon": 0.0, "name": "e5304bf183981e8491993a702e502030", "lon": -77.01705583333333, "is_disabled": 0, "type": "electric_scooter"}, {"bike_id": "622e65b867c730afbed59539e9a34631", "lat": 38.92040733333333, "is_reserved": 0, "fusion_lat": 0.0, "rental_uris": {"android": "https://dc.lft.to/lastmile_qr_scan", "ios": "https://dc.lft.to/lastmile_qr_scan"}, "fusion_lon": 0.0, "name": "622e65b867c730afbed59539e9a34631", "lon": -77.031096, "is_disabled": 0, "type": "electric_scooter"}, {"bike_id": "60a9bb9d11b2b2e84a357438c8b439ef", "lat": 38.952562666666665, "is_reserved": 0, "fusion_lat": 0.0, "rental_uris": {"android": "https://dc.lft.to/lastmile_qr_scan", "ios": "https://dc.lft.to/lastmile_qr_scan"}, "fusion_lon": 0.0, "name": "60a9bb9d11b2b2e84a357438c8b439ef", "lon": -77.01963483333333, "is_disabled": 0, "type": "electric_scooter"}, {"bike_id": "743e956bc5d4b9d526acac70353c18fa", "lat": 38.90335316666667, "is_reserved": 0, "fusion_lat": 0.0, "rental_uris": {"android": "https://dc.lft.to/lastmile_qr_scan", "ios": "https://dc.lft.to/lastmile_qr_scan"}, "fusion_lon": 0.0, "name": "743e956bc5d4b9d526acac70353c18fa", "lon": -77.03835933333333, "is_disabled": 0, "type": "electric_scooter"}, {"bike_id": "91408e2948833a10d6c05644785e8163", "lat": 38.916987166666665, "is_reserved": 0, "fusion_lat": 0.0, "rental_uris": {"android": "https://dc.lft.to/lastmile_qr_scan", "ios": "https://dc.lft.to/lastmile_qr_scan"}, "fusion_lon": 0.0, "name": "91408e2948833a10d6c05644785e8163", "lon": -77.04109033333333, "is_disabled": 0, "type": "electric_scooter"}, {"bike_id": "0b0c8695594adb89943ab58e835f43e5", "lat": 38.93093566666667, "is_reserved": 0, "fusion_lat": 0.0, "rental_uris": {"android": "https://dc.lft.to/lastmile_qr_scan", "ios": "https://dc.lft.to/lastmile_qr_scan"}, "fusion_lon": 0.0, "name": "0b0c8695594adb89943ab58e835f43e5", "lon": -77.02353233333334, "is_disabled": 0, "type": "electric_scooter"}, {"bike_id": "ef5ea6089caf9bf664c94c04d85769e1", "lat": 38.92769833333333, "is_reserved": 0, "fusion_lat": 0.0, "rental_uris": {"android": "https://dc.lft.to/lastmile_qr_scan", "ios": "https://dc.lft.to/lastmile_qr_scan"}, "fusion_lon": 0.0, "name": "ef5ea6089caf9bf664c94c04d85769e1", "lon": -77.02781316666666, "is_disabled": 0, "type": "electric_bike"}, {"bike_id": "98056300b79d66ada2220529f2580904", "lat": 38.984644333333335, "is_reserved": 0, "fusion_lat": 0.0, "rental_uris": {"android": "https://dc.lft.to/lastmile_qr_scan", "ios": "https://dc.lft.to/lastmile_qr_scan"}, "fusion_lon": 0.0, "name": "98056300b79d66ada2220529f2580904", "lon": -76.9705615, "is_disabled": 0, "type": "electric_bike"}, {"bike_id": "1993c3b1934446c6be4e677a617cdf0d", "lat": 38.866482833333336, "is_reserved": 0, "fusion_lat": 0.0, "rental_uris": {"android": "https://dc.lft.to/lastmile_qr_scan", "ios": "https://dc.lft.to/lastmile_qr_scan"}, "fusion_lon": 0.0, "name": "1993c3b1934446c6be4e677a617cdf0d", "lon": -76.9881855, "is_disabled": 0, "type": "electric_scooter"}, {"bike_id": "95924871670ef60e18214e2f8ae0b5eb", "lat": 38.86684066666667, "is_reserved": 0, "fusion_lat": 0.0, "rental_uris": {"android": "https://dc.lft.to/lastmile_qr_scan", "ios": "https://dc.lft.to/lastmile_qr_scan"}, "fusion_lon": 0.0, "name": "95924871670ef60e18214e2f8ae0b5eb", "lon": -76.98577883333333, "is_disabled": 0, "type": "electric_scooter"}, {"bike_id": "ca37734b61778c1fe04ed5ab47b732fa", "lat": 38.89288833333333, "is_reserved": 0, "fusion_lat": 0.0, "rental_uris": {"android": "https://dc.lft.to/lastmile_qr_scan", "ios": "https://dc.lft.to/lastmile_qr_scan"}, "fusion_lon": 0.0, "name": "ca37734b61778c1fe04ed5ab47b732fa", "lon": -77.01987166666666, "is_disabled": 0, "type": "electric_scooter"}, {"bike_id": "7d06612d6062eb934495edea9f5ad2a1", "lat": 38.8953425, "is_reserved": 0, "fusion_lat": 0.0, "rental_uris": {"android": "https://dc.lft.to/lastmile_qr_scan", "ios": "https://dc.lft.to/lastmile_qr_scan"}, "fusion_lon": 0.0, "name": "7d06612d6062eb934495edea9f5ad2a1", "lon": -77.003429, "is_disabled": 0, "type": "electric_scooter"}, {"bike_id": "55a2e1baa2c7224d78c9b8e24e13ca4f", "lat": 38.90273416666667, "is_reserved": 0, "fusion_lat": 0.0, "rental_uris": {"android": "https://dc.lft.to/lastmile_qr_scan", "ios": "https://dc.lft.to/lastmile_qr_scan"}, "fusion_lon": 0.0, "name": "55a2e1baa2c7224d78c9b8e24e13ca4f", "lon": -77.04547116666667, "is_disabled": 0, "type": "electric_scooter"}, {"bike_id": "1fdaf9a74f04b452f0b408042d13e38b", "lat": 38.8960675, "is_reserved": 0, "fusion_lat": 0.0, "rental_uris": {"android": "https://dc.lft.to/lastmile_qr_scan", "ios": "https://dc.lft.to/lastmile_qr_scan"}, "fusion_lon": 0.0, "name": "1fdaf9a74f04b452f0b408042d13e38b", "lon": -77.05038666666667, "is_disabled": 0, "type": "electric_scooter"}, {"bike_id": "376f6ba051120c3352643fb8bdcd5154", "lat": 38.90192566666666, "is_reserved": 0, "fusion_lat": 0.0, "rental_uris": {"android": "https://dc.lft.to/lastmile_qr_scan", "ios": "https://dc.lft.to/lastmile_qr_scan"}, "fusion_lon": 0.0, "name": "376f6ba051120c3352643fb8bdcd5154", "lon": -77.05043083333334, "is_disabled": 0, "type": "electric_scooter"}, {"bike_id": "49ddce0cc5c361c7a989a38dfcf3093f", "lat": 38.819919666666664, "is_reserved": 0, "fusion_lat": 0.0, "rental_uris": {"android": "https://dc.lft.to/lastmile_qr_scan", "ios": "https://dc.lft.to/lastmile_qr_scan"}, "fusion_lon": 0.0, "name": "49ddce0cc5c361c7a989a38dfcf3093f", "lon": -76.99819516666666, "is_disabled": 0, "type": "electric_bike"}, {"bike_id": "ce8148435fbb08893214f7d93e4dabaa", "lat": 39.05794016666667, "is_reserved": 0, "fusion_lat": 0.0, "rental_uris": {"android": "https://dc.lft.to/lastmile_qr_scan", "ios": "https://dc.lft.to/lastmile_qr_scan"}, "fusion_lon": 0.0, "name": "ce8148435fbb08893214f7d93e4dabaa", "lon": -77.15021816666666, "is_disabled": 0, "type": "electric_bike"}, {"bike_id": "6e5b65d305e3d96902734b80d56f7777", "lat": 38.9059635, "is_reserved": 0, "fusion_lat": 0.0, "rental_uris": {"android": "https://dc.lft.to/lastmile_qr_scan", "ios": "https://dc.lft.to/lastmile_qr_scan"}, "fusion_lon": 0.0, "name": "6e5b65d305e3d96902734b80d56f7777", "lon": -77.06979666666666, "is_disabled": 0, "type": "electric_bike"}, {"bike_id": "9c37ad61c7174391ef13dd861dc5b63d", "lat": 38.897805, "is_reserved": 0, "fusion_lat": 0.0, "rental_uris": {"android": "https://dc.lft.to/lastmile_qr_scan", "ios": "https://dc.lft.to/lastmile_qr_scan"}, "fusion_lon": 0.0, "name": "9c37ad61c7174391ef13dd861dc5b63d", "lon": -77.02690266666667, "is_disabled": 0, "type": "electric_scooter"}, {"bike_id": "87ccece48ea99874906e1ccb4b21994a", "lat": 38.90033966666667, "is_reserved": 0, "fusion_lat": 0.0, "rental_uris": {"android": "https://dc.lft.to/lastmile_qr_scan", "ios": "https://dc.lft.to/lastmile_qr_scan"}, "fusion_lon": 0.0, "name": "87ccece48ea99874906e1ccb4b21994a", "lon": -76.9865725, "is_disabled": 0, "type": "electric_scooter"}, {"bike_id": "8dee37bf166764656c0bbf43f7508f55", "lat": 38.857166, "is_reserved": 0, "fusion_lat": 0.0, "rental_uris": {"android": "https://dc.lft.to/lastmile_qr_scan", "ios": "https://dc.lft.to/lastmile_qr_scan"}, "fusion_lon": 0.0, "name": "8dee37bf166764656c0bbf43f7508f55", "lon": -76.989834, "is_disabled": 0, "type": "electric_scooter"}, {"bike_id": "6d8526fd9916d643be805bcaca1dcd18", "lat": 38.9055945, "is_reserved": 0, "fusion_lat": 0.0, "rental_uris": {"android": "https://dc.lft.to/lastmile_qr_scan", "ios": "https://dc.lft.to/lastmile_qr_scan"}, "fusion_lon": 0.0, "name": "6d8526fd9916d643be805bcaca1dcd18", "lon": -77.02200533333334, "is_disabled": 0, "type": "electric_scooter"}, {"bike_id": "13a4cce8611f247706486020828e895c", "lat": 38.871226166666666, "is_reserved": 0, "fusion_lat": 0.0, "rental_uris": {"android": "https://dc.lft.to/lastmile_qr_scan", "ios": "https://dc.lft.to/lastmile_qr_scan"}, "fusion_lon": 0.0, "name": "13a4cce8611f247706486020828e895c", "lon": -76.982439, "is_disabled": 0, "type": "electric_scooter"}, {"bike_id": "d43cdaa797bb734cbebc42a921dba0af", "lat": 38.92682216666667, "is_reserved": 0, "fusion_lat": 0.0, "rental_uris": {"android": "https://dc.lft.to/lastmile_qr_scan", "ios": "https://dc.lft.to/lastmile_qr_scan"}, "fusion_lon": 0.0, "name": "d43cdaa797bb734cbebc42a921dba0af", "lon": -77.0150135, "is_disabled": 0, "type": "electric_scooter"}, {"bike_id": "7e83ca7960872c2ddfe353ff66566fcf", "lat": 38.9074615, "is_reserved": 0, "fusion_lat": 0.0, "rental_uris": {"android": "https://dc.lft.to/lastmile_qr_scan", "ios": "https://dc.lft.to/lastmile_qr_scan"}, "fusion_lon": 0.0, "name": "7e83ca7960872c2ddfe353ff66566fcf", "lon": -77.04190916666667, "is_disabled": 0, "type": "electric_scooter"}, {"bike_id": "34e62fbd713d4d9040f36618b3f87a41", "lat": 38.9148675, "is_reserved": 0, "fusion_lat": 0.0, "rental_uris": {"android": "https://dc.lft.to/lastmile_qr_scan", "ios": "https://dc.lft.to/lastmile_qr_scan"}, "fusion_lon": 0.0, "name": "34e62fbd713d4d9040f36618b3f87a41", "lon": -77.04626666666667, "is_disabled": 0, "type": "electric_scooter"}, {"bike_id": "75662013b3b89fb4bb18504ae8946880", "lat": 38.911042333333334, "is_reserved": 0, "fusion_lat": 0.0, "rental_uris": {"android": "https://dc.lft.to/lastmile_qr_scan", "ios": "https://dc.lft.to/lastmile_qr_scan"}, "fusion_lon": 0.0, "name": "75662013b3b89fb4bb18504ae8946880", "lon": -77.04476416666667, "is_disabled": 0, "type": "electric_scooter"}, {"bike_id": "be4096985a1ca924bcb14f76af08fc1c", "lat": 38.89487233333333, "is_reserved": 0, "fusion_lat": 0.0, "rental_uris": {"android": "https://dc.lft.to/lastmile_qr_scan", "ios": "https://dc.lft.to/lastmile_qr_scan"}, "fusion_lon": 0.0, "name": "be4096985a1ca924bcb14f76af08fc1c", "lon": -76.94949183333334, "is_disabled": 0, "type": "electric_scooter"}, {"bike_id": "b22ab4bd39f91cf8623243d4d2e4baee", "lat": 38.893423, "is_reserved": 0, "fusion_lat": 0.0, "rental_uris": {"android": "https://dc.lft.to/lastmile_qr_scan", "ios": "https://dc.lft.to/lastmile_qr_scan"}, "fusion_lon": 0.0, "name": "b22ab4bd39f91cf8623243d4d2e4baee", "lon": -77.027786, "is_disabled": 0, "type": "electric_bike"}, {"bike_id": "e4db32c95138124e8097ff3c1c494f25", "lat": 38.91677133333334, "is_reserved": 0, "fusion_lat": 0.0, "rental_uris": {"android": "https://dc.lft.to/lastmile_qr_scan", "ios": "https://dc.lft.to/lastmile_qr_scan"}, "fusion_lon": 0.0, "name": "e4db32c95138124e8097ff3c1c494f25", "lon": -77.0296675, "is_disabled": 0, "type": "electric_scooter"}, {"bike_id": "173f068d93d50faba1f9fc7bd68099f4", "lat": 38.93299566666666, "is_reserved": 0, "fusion_lat": 0.0, "rental_uris": {"android": "https://dc.lft.to/lastmile_qr_scan", "ios": "https://dc.lft.to/lastmile_qr_scan"}, "fusion_lon": 0.0, "name": "173f068d93d50faba1f9fc7bd68099f4", "lon": -77.08540283333333, "is_disabled": 0, "type": "electric_scooter"}, {"bike_id": "e1338fa0737734e12f3e6eff7830ab32", "lat": 38.873907, "is_reserved": 0, "fusion_lat": 0.0, "rental_uris": {"android": "https://dc.lft.to/lastmile_qr_scan", "ios": "https://dc.lft.to/lastmile_qr_scan"}, "fusion_lon": 0.0, "name": "e1338fa0737734e12f3e6eff7830ab32", "lon": -77.000698, "is_disabled": 0, "type": "electric_scooter"}, {"bike_id": "1ed30e4970211e2a15887a0ba673e923", "lat": 38.88533, "is_reserved": 0, "fusion_lat": 0.0, "rental_uris": {"android": "https://dc.lft.to/lastmile_qr_scan", "ios": "https://dc.lft.to/lastmile_qr_scan"}, "fusion_lon": 0.0, "name": "1ed30e4970211e2a15887a0ba673e923", "lon": -76.998272, "is_disabled": 0, "type": "electric_scooter"}, {"bike_id": "8cd95c1e07d5c688c486209dcfacf31b", "lat": 38.91554033333333, "is_reserved": 0, "fusion_lat": 0.0, "rental_uris": {"android": "https://dc.lft.to/lastmile_qr_scan", "ios": "https://dc.lft.to/lastmile_qr_scan"}, "fusion_lon": 0.0, "name": "8cd95c1e07d5c688c486209dcfacf31b", "lon": -77.00647783333334, "is_disabled": 0, "type": "electric_scooter"}, {"bike_id": "528d0f768fb118506262d9ad679bf1b8", "lat": 38.911781500000004, "is_reserved": 0, "fusion_lat": 0.0, "rental_uris": {"android": "https://dc.lft.to/lastmile_qr_scan", "ios": "https://dc.lft.to/lastmile_qr_scan"}, "fusion_lon": 0.0, "name": "528d0f768fb118506262d9ad679bf1b8", "lon": -77.012126, "is_disabled": 0, "type": "electric_scooter"}, {"bike_id": "d8f7c4e98913d4470f295c445210c851", "lat": 38.917421, "is_reserved": 0, "fusion_lat": 0.0, "rental_uris": {"android": "https://dc.lft.to/lastmile_qr_scan", "ios": "https://dc.lft.to/lastmile_qr_scan"}, "fusion_lon": 0.0, "name": "d8f7c4e98913d4470f295c445210c851", "lon": -77.031904, "is_disabled": 0, "type": "electric_scooter"}, {"bike_id": "8f3087f4f4b2c41013c35ebdffe24ea7", "lat": 38.9578585, "is_reserved": 0, "fusion_lat": 0.0, "rental_uris": {"android": "https://dc.lft.to/lastmile_qr_scan", "ios": "https://dc.lft.to/lastmile_qr_scan"}, "fusion_lon": 0.0, "name": "8f3087f4f4b2c41013c35ebdffe24ea7", "lon": -77.03211333333333, "is_disabled": 0, "type": "electric_scooter"}, {"bike_id": "92677adef90e5969f6c7f1127bf9cea5", "lat": 38.923471166666666, "is_reserved": 0, "fusion_lat": 0.0, "rental_uris": {"android": "https://dc.lft.to/lastmile_qr_scan", "ios": "https://dc.lft.to/lastmile_qr_scan"}, "fusion_lon": 0.0, "name": "92677adef90e5969f6c7f1127bf9cea5", "lon": -77.05120616666666, "is_disabled": 0, "type": "electric_scooter"}, {"bike_id": "e6221f631929d256d588a14b572d4d6a", "lat": 38.974003833333335, "is_reserved": 0, "fusion_lat": 0.0, "rental_uris": {"android": "https://dc.lft.to/lastmile_qr_scan", "ios": "https://dc.lft.to/lastmile_qr_scan"}, "fusion_lon": 0.0, "name": "e6221f631929d256d588a14b572d4d6a", "lon": -77.06456383333334, "is_disabled": 0, "type": "electric_bike"}, {"bike_id": "b93755c78be50eb633c6a1cae0cad830", "lat": 38.9011115, "is_reserved": 0, "fusion_lat": 0.0, "rental_uris": {"android": "https://dc.lft.to/lastmile_qr_scan", "ios": "https://dc.lft.to/lastmile_qr_scan"}, "fusion_lon": 0.0, "name": "b93755c78be50eb633c6a1cae0cad830", "lon": -77.028126, "is_disabled": 0, "type": "electric_scooter"}, {"bike_id": "81cb36c41834f49bbcdd4986f4af05bb", "lat": 38.89758333333333, "is_reserved": 0, "fusion_lat": 0.0, "rental_uris": {"android": "https://dc.lft.to/lastmile_qr_scan", "ios": "https://dc.lft.to/lastmile_qr_scan"}, "fusion_lon": 0.0, "name": "81cb36c41834f49bbcdd4986f4af05bb", "lon": -77.02450783333333, "is_disabled": 0, "type": "electric_scooter"}, {"bike_id": "3e09d1b5e1013ed4c6f4db7fbc05f5d5", "lat": 38.89727933333333, "is_reserved": 0, "fusion_lat": 0.0, "rental_uris": {"android": "https://dc.lft.to/lastmile_qr_scan", "ios": "https://dc.lft.to/lastmile_qr_scan"}, "fusion_lon": 0.0, "name": "3e09d1b5e1013ed4c6f4db7fbc05f5d5", "lon": -77.01762733333334, "is_disabled": 0, "type": "electric_scooter"}, {"bike_id": "881add15338a5c71ebc4d591d85537a0", "lat": 38.91682266666667, "is_reserved": 0, "fusion_lat": 0.0, "rental_uris": {"android": "https://dc.lft.to/lastmile_qr_scan", "ios": "https://dc.lft.to/lastmile_qr_scan"}, "fusion_lon": 0.0, "name": "881add15338a5c71ebc4d591d85537a0", "lon": -77.02954083333333, "is_disabled": 0, "type": "electric_scooter"}, {"bike_id": "726e3525a40487db382c85c534cd0674", "lat": 38.9111065, "is_reserved": 0, "fusion_lat": 0.0, "rental_uris": {"android": "https://dc.lft.to/lastmile_qr_scan", "ios": "https://dc.lft.to/lastmile_qr_scan"}, "fusion_lon": 0.0, "name": "726e3525a40487db382c85c534cd0674", "lon": -77.04503516666666, "is_disabled": 0, "type": "electric_scooter"}, {"bike_id": "16865ad777ce757a5a7067e57844b5db", "lat": 38.8724665, "is_reserved": 0, "fusion_lat": 0.0, "rental_uris": {"android": "https://dc.lft.to/lastmile_qr_scan", "ios": "https://dc.lft.to/lastmile_qr_scan"}, "fusion_lon": 0.0, "name": "16865ad777ce757a5a7067e57844b5db", "lon": -76.977273, "is_disabled": 0, "type": "electric_scooter"}, {"bike_id": "ac489ea2ffde3d0cdc053bde8e7c36bf", "lat": 38.9241045, "is_reserved": 0, "fusion_lat": 0.0, "rental_uris": {"android": "https://dc.lft.to/lastmile_qr_scan", "ios": "https://dc.lft.to/lastmile_qr_scan"}, "fusion_lon": 0.0, "name": "ac489ea2ffde3d0cdc053bde8e7c36bf", "lon": -77.02079266666667, "is_disabled": 0, "type": "electric_scooter"}, {"bike_id": "d9fb65646b9998ecef6f511ccc173fae", "lat": 38.90734, "is_reserved": 0, "fusion_lat": 0.0, "rental_uris": {"android": "https://dc.lft.to/lastmile_qr_scan", "ios": "https://dc.lft.to/lastmile_qr_scan"}, "fusion_lon": 0.0, "name": "d9fb65646b9998ecef6f511ccc173fae", "lon": -77.02384816666667, "is_disabled": 0, "type": "electric_scooter"}, {"bike_id": "3bf6785e94cf9f4a5f06e134621ec9d6", "lat": 38.8674575, "is_reserved": 0, "fusion_lat": 0.0, "rental_uris": {"android": "https://dc.lft.to/lastmile_qr_scan", "ios": "https://dc.lft.to/lastmile_qr_scan"}, "fusion_lon": 0.0, "name": "3bf6785e94cf9f4a5f06e134621ec9d6", "lon": -76.978572, "is_disabled": 0, "type": "electric_scooter"}, {"bike_id": "6dd7324da6b6ca6d53ffcbb2942c0004", "lat": 38.92602683333333, "is_reserved": 0, "fusion_lat": 0.0, "rental_uris": {"android": "https://dc.lft.to/lastmile_qr_scan", "ios": "https://dc.lft.to/lastmile_qr_scan"}, "fusion_lon": 0.0, "name": "6dd7324da6b6ca6d53ffcbb2942c0004", "lon": -77.02386016666667, "is_disabled": 0, "type": "electric_scooter"}, {"bike_id": "1ca566e4abfe0be3dd56122a574fb4f0", "lat": 38.914219333333335, "is_reserved": 0, "fusion_lat": 0.0, "rental_uris": {"android": "https://dc.lft.to/lastmile_qr_scan", "ios": "https://dc.lft.to/lastmile_qr_scan"}, "fusion_lon": 0.0, "name": "1ca566e4abfe0be3dd56122a574fb4f0", "lon": -77.01803683333333, "is_disabled": 0, "type": "electric_scooter"}, {"bike_id": "0773ae7ce36a6b5490d56a355e27917f", "lat": 38.92317283333333, "is_reserved": 0, "fusion_lat": 0.0, "rental_uris": {"android": "https://dc.lft.to/lastmile_qr_scan", "ios": "https://dc.lft.to/lastmile_qr_scan"}, "fusion_lon": 0.0, "name": "0773ae7ce36a6b5490d56a355e27917f", "lon": -77.038084, "is_disabled": 0, "type": "electric_scooter"}, {"bike_id": "c2f94e582ba078239b919e99b0f3a2da", "lat": 38.92236966666667, "is_reserved": 0, "fusion_lat": 0.0, "rental_uris": {"android": "https://dc.lft.to/lastmile_qr_scan", "ios": "https://dc.lft.to/lastmile_qr_scan"}, "fusion_lon": 0.0, "name": "c2f94e582ba078239b919e99b0f3a2da", "lon": -77.0351995, "is_disabled": 0, "type": "electric_scooter"}, {"bike_id": "47b3e6ddef8d35124c1b35af09c243c4", "lat": 38.848608, "is_reserved": 0, "fusion_lat": 0.0, "rental_uris": {"android": "https://dc.lft.to/lastmile_qr_scan", "ios": "https://dc.lft.to/lastmile_qr_scan"}, "fusion_lon": 0.0, "name": "47b3e6ddef8d35124c1b35af09c243c4", "lon": -77.11195816666667, "is_disabled": 0, "type": "electric_bike"}, {"bike_id": "fe5c7a2b419813d17cd1cf465aa0b12c", "lat": 38.9155195, "is_reserved": 0, "fusion_lat": 0.0, "rental_uris": {"android": "https://dc.lft.to/lastmile_qr_scan", "ios": "https://dc.lft.to/lastmile_qr_scan"}, "fusion_lon": 0.0, "name": "fe5c7a2b419813d17cd1cf465aa0b12c", "lon": -77.022171, "is_disabled": 0, "type": "electric_scooter"}, {"bike_id": "ae0b3ced5e087d50c60aa52f631ce1e3", "lat": 38.92402333333333, "is_reserved": 0, "fusion_lat": 0.0, "rental_uris": {"android": "https://dc.lft.to/lastmile_qr_scan", "ios": "https://dc.lft.to/lastmile_qr_scan"}, "fusion_lon": 0.0, "name": "ae0b3ced5e087d50c60aa52f631ce1e3", "lon": -77.01220983333333, "is_disabled": 0, "type": "electric_scooter"}, {"bike_id": "fc8f22ce2b9f434e5bcdc555955ad452", "lat": 38.9044705, "is_reserved": 0, "fusion_lat": 0.0, "rental_uris": {"android": "https://dc.lft.to/lastmile_qr_scan", "ios": "https://dc.lft.to/lastmile_qr_scan"}, "fusion_lon": 0.0, "name": "fc8f22ce2b9f434e5bcdc555955ad452", "lon": -77.051363, "is_disabled": 0, "type": "electric_scooter"}, {"bike_id": "2068e3bde9e408e048bec562ce5e5946", "lat": 38.87364816666667, "is_reserved": 0, "fusion_lat": 0.0, "rental_uris": {"android": "https://dc.lft.to/lastmile_qr_scan", "ios": "https://dc.lft.to/lastmile_qr_scan"}, "fusion_lon": 0.0, "name": "2068e3bde9e408e048bec562ce5e5946", "lon": -77.00111533333333, "is_disabled": 0, "type": "electric_scooter"}, {"bike_id": "b8ea2943749530ea236950079e0ae89a", "lat": 38.924286, "is_reserved": 0, "fusion_lat": 0.0, "rental_uris": {"android": "https://dc.lft.to/lastmile_qr_scan", "ios": "https://dc.lft.to/lastmile_qr_scan"}, "fusion_lon": 0.0, "name": "b8ea2943749530ea236950079e0ae89a", "lon": -77.05203083333333, "is_disabled": 0, "type": "electric_scooter"}, {"bike_id": "247348724d2eba29b0ed5f7fdd112549", "lat": 38.93462183333333, "is_reserved": 0, "fusion_lat": 0.0, "rental_uris": {"android": "https://dc.lft.to/lastmile_qr_scan", "ios": "https://dc.lft.to/lastmile_qr_scan"}, "fusion_lon": 0.0, "name": "247348724d2eba29b0ed5f7fdd112549", "lon": -77.02771783333333, "is_disabled": 0, "type": "electric_scooter"}, {"bike_id": "3fe5d9d36bf14f854988742f9ca2e7d1", "lat": 38.908659666666665, "is_reserved": 0, "fusion_lat": 0.0, "rental_uris": {"android": "https://dc.lft.to/lastmile_qr_scan", "ios": "https://dc.lft.to/lastmile_qr_scan"}, "fusion_lon": 0.0, "name": "3fe5d9d36bf14f854988742f9ca2e7d1", "lon": -77.02442066666667, "is_disabled": 0, "type": "electric_scooter"}, {"bike_id": "1f903a1db82d3794b3f692cfb1b7da8d", "lat": 38.917834, "is_reserved": 0, "fusion_lat": 0.0, "rental_uris": {"android": "https://dc.lft.to/lastmile_qr_scan", "ios": "https://dc.lft.to/lastmile_qr_scan"}, "fusion_lon": 0.0, "name": "1f903a1db82d3794b3f692cfb1b7da8d", "lon": -77.0320175, "is_disabled": 0, "type": "electric_scooter"}, {"bike_id": "56bd51778f3175cf592d8155e999d3c5", "lat": 38.915543666666665, "is_reserved": 0, "fusion_lat": 0.0, "rental_uris": {"android": "https://dc.lft.to/lastmile_qr_scan", "ios": "https://dc.lft.to/lastmile_qr_scan"}, "fusion_lon": 0.0, "name": "56bd51778f3175cf592d8155e999d3c5", "lon": -77.02213566666667, "is_disabled": 0, "type": "electric_scooter"}, {"bike_id": "7193bf6e2e0e119fd003aa040bcde751", "lat": 39.056400333333336, "is_reserved": 0, "fusion_lat": 0.0, "rental_uris": {"android": "https://dc.lft.to/lastmile_qr_scan", "ios": "https://dc.lft.to/lastmile_qr_scan"}, "fusion_lon": 0.0, "name": "7193bf6e2e0e119fd003aa040bcde751", "lon": -77.12526866666667, "is_disabled": 0, "type": "electric_bike"}, {"bike_id": "2eca796c9861ba0d401b23cea8569af8", "lat": 38.94211083333333, "is_reserved": 0, "fusion_lat": 0.0, "rental_uris": {"android": "https://dc.lft.to/lastmile_qr_scan", "ios": "https://dc.lft.to/lastmile_qr_scan"}, "fusion_lon": 0.0, "name": "2eca796c9861ba0d401b23cea8569af8", "lon": -77.02584633333333, "is_disabled": 0, "type": "electric_scooter"}, {"bike_id": "c62abaab8a0a886661b75ee49e19405d", "lat": 38.93277466666667, "is_reserved": 0, "fusion_lat": 0.0, "rental_uris": {"android": "https://dc.lft.to/lastmile_qr_scan", "ios": "https://dc.lft.to/lastmile_qr_scan"}, "fusion_lon": 0.0, "name": "c62abaab8a0a886661b75ee49e19405d", "lon": -77.03489516666667, "is_disabled": 0, "type": "electric_scooter"}, {"bike_id": "495c362b75fbcf918969f838cbe2b114", "lat": 38.91984933333333, "is_reserved": 0, "fusion_lat": 0.0, "rental_uris": {"android": "https://dc.lft.to/lastmile_qr_scan", "ios": "https://dc.lft.to/lastmile_qr_scan"}, "fusion_lon": 0.0, "name": "495c362b75fbcf918969f838cbe2b114", "lon": -77.021683, "is_disabled": 0, "type": "electric_scooter"}, {"bike_id": "54f49d148cc903babb713f6f4fff491d", "lat": 38.93823916666667, "is_reserved": 0, "fusion_lat": 0.0, "rental_uris": {"android": "https://dc.lft.to/lastmile_qr_scan", "ios": "https://dc.lft.to/lastmile_qr_scan"}, "fusion_lon": 0.0, "name": "54f49d148cc903babb713f6f4fff491d", "lon": -77.0716435, "is_disabled": 0, "type": "electric_scooter"}, {"bike_id": "52f542da8dc3f8bc5bdbfac2a9e062ee", "lat": 38.904018666666666, "is_reserved": 0, "fusion_lat": 0.0, "rental_uris": {"android": "https://dc.lft.to/lastmile_qr_scan", "ios": "https://dc.lft.to/lastmile_qr_scan"}, "fusion_lon": 0.0, "name": "52f542da8dc3f8bc5bdbfac2a9e062ee", "lon": -77.0651425, "is_disabled": 0, "type": "electric_scooter"}, {"bike_id": "0987a122defd4e5ee9c9705f18ca60b0", "lat": 38.91101716666667, "is_reserved": 0, "fusion_lat": 0.0, "rental_uris": {"android": "https://dc.lft.to/lastmile_qr_scan", "ios": "https://dc.lft.to/lastmile_qr_scan"}, "fusion_lon": 0.0, "name": "0987a122defd4e5ee9c9705f18ca60b0", "lon": -77.034664, "is_disabled": 0, "type": "electric_scooter"}, {"bike_id": "062a30635e961685c08e28c2b81910d9", "lat": 38.908646166666664, "is_reserved": 0, "fusion_lat": 0.0, "rental_uris": {"android": "https://dc.lft.to/lastmile_qr_scan", "ios": "https://dc.lft.to/lastmile_qr_scan"}, "fusion_lon": 0.0, "name": "062a30635e961685c08e28c2b81910d9", "lon": -77.02710083333334, "is_disabled": 0, "type": "electric_scooter"}, {"bike_id": "2ab5cc68ab53f99ce9fe29923cb20e54", "lat": 38.911152, "is_reserved": 0, "fusion_lat": 0.0, "rental_uris": {"android": "https://dc.lft.to/lastmile_qr_scan", "ios": "https://dc.lft.to/lastmile_qr_scan"}, "fusion_lon": 0.0, "name": "2ab5cc68ab53f99ce9fe29923cb20e54", "lon": -77.0385655, "is_disabled": 0, "type": "electric_scooter"}, {"bike_id": "1c7da496b2065c5cf3b3399e6cc33653", "lat": 38.9234565, "is_reserved": 0, "fusion_lat": 0.0, "rental_uris": {"android": "https://dc.lft.to/lastmile_qr_scan", "ios": "https://dc.lft.to/lastmile_qr_scan"}, "fusion_lon": 0.0, "name": "1c7da496b2065c5cf3b3399e6cc33653", "lon": -77.051228, "is_disabled": 0, "type": "electric_scooter"}, {"bike_id": "8ad214d45d111d603a65ef2a09f5f1e0", "lat": 38.88822416666667, "is_reserved": 0, "fusion_lat": 0.0, "rental_uris": {"android": "https://dc.lft.to/lastmile_qr_scan", "ios": "https://dc.lft.to/lastmile_qr_scan"}, "fusion_lon": 0.0, "name": "8ad214d45d111d603a65ef2a09f5f1e0", "lon": -76.991633, "is_disabled": 0, "type": "electric_scooter"}, {"bike_id": "6dfa3165b1798b53bfeb789b9aadb846", "lat": 38.910133333333334, "is_reserved": 0, "fusion_lat": 0.0, "rental_uris": {"android": "https://dc.lft.to/lastmile_qr_scan", "ios": "https://dc.lft.to/lastmile_qr_scan"}, "fusion_lon": 0.0, "name": "6dfa3165b1798b53bfeb789b9aadb846", "lon": -77.016111, "is_disabled": 0, "type": "electric_scooter"}, {"bike_id": "1552e676b5d3fd4cd2d8f1e033203f30", "lat": 38.905826166666664, "is_reserved": 0, "fusion_lat": 0.0, "rental_uris": {"android": "https://dc.lft.to/lastmile_qr_scan", "ios": "https://dc.lft.to/lastmile_qr_scan"}, "fusion_lon": 0.0, "name": "1552e676b5d3fd4cd2d8f1e033203f30", "lon": -77.04565216666667, "is_disabled": 0, "type": "electric_scooter"}, {"bike_id": "35e81ef3618ced8271a41b282ef94540", "lat": 38.884664666666666, "is_reserved": 0, "fusion_lat": 0.0, "rental_uris": {"android": "https://dc.lft.to/lastmile_qr_scan", "ios": "https://dc.lft.to/lastmile_qr_scan"}, "fusion_lon": 0.0, "name": "35e81ef3618ced8271a41b282ef94540", "lon": -77.000538, "is_disabled": 0, "type": "electric_scooter"}, {"bike_id": "bc87cc31d571b4b8676a59461b94bea7", "lat": 38.900477, "is_reserved": 0, "fusion_lat": 0.0, "rental_uris": {"android": "https://dc.lft.to/lastmile_qr_scan", "ios": "https://dc.lft.to/lastmile_qr_scan"}, "fusion_lon": 0.0, "name": "bc87cc31d571b4b8676a59461b94bea7", "lon": -77.04344333333333, "is_disabled": 0, "type": "electric_bike"}, {"bike_id": "fdcdf490dad8f9e33a31a6cfb1f3a15b", "lat": 38.918072333333335, "is_reserved": 0, "fusion_lat": 0.0, "rental_uris": {"android": "https://dc.lft.to/lastmile_qr_scan", "ios": "https://dc.lft.to/lastmile_qr_scan"}, "fusion_lon": 0.0, "name": "fdcdf490dad8f9e33a31a6cfb1f3a15b", "lon": -77.03071233333333, "is_disabled": 0, "type": "electric_scooter"}, {"bike_id": "e34fdd7a2d6fec2e283e47e4dcf1b3b3", "lat": 38.89194616666666, "is_reserved": 0, "fusion_lat": 0.0, "rental_uris": {"android": "https://dc.lft.to/lastmile_qr_scan", "ios": "https://dc.lft.to/lastmile_qr_scan"}, "fusion_lon": 0.0, "name": "e34fdd7a2d6fec2e283e47e4dcf1b3b3", "lon": -77.02405683333333, "is_disabled": 0, "type": "electric_scooter"}, {"bike_id": "f8d2db4f792577a0be2826b61129ecb3", "lat": 38.9027545, "is_reserved": 0, "fusion_lat": 0.0, "rental_uris": {"android": "https://dc.lft.to/lastmile_qr_scan", "ios": "https://dc.lft.to/lastmile_qr_scan"}, "fusion_lon": 0.0, "name": "f8d2db4f792577a0be2826b61129ecb3", "lon": -77.04700066666666, "is_disabled": 0, "type": "electric_scooter"}, {"bike_id": "e8711b0dd89c3e3be1cdfeb02366e49a", "lat": 38.914044, "is_reserved": 0, "fusion_lat": 0.0, "rental_uris": {"android": "https://dc.lft.to/lastmile_qr_scan", "ios": "https://dc.lft.to/lastmile_qr_scan"}, "fusion_lon": 0.0, "name": "e8711b0dd89c3e3be1cdfeb02366e49a", "lon": -77.01644883333333, "is_disabled": 0, "type": "electric_scooter"}, {"bike_id": "aeaf1b74aec7a4646145011be4713c5e", "lat": 38.896472, "is_reserved": 0, "fusion_lat": 0.0, "rental_uris": {"android": "https://dc.lft.to/lastmile_qr_scan", "ios": "https://dc.lft.to/lastmile_qr_scan"}, "fusion_lon": 0.0, "name": "aeaf1b74aec7a4646145011be4713c5e", "lon": -77.02734683333334, "is_disabled": 0, "type": "electric_scooter"}, {"bike_id": "ff68b609fca91abd0756b5f094fe9979", "lat": 38.89661233333333, "is_reserved": 0, "fusion_lat": 0.0, "rental_uris": {"android": "https://dc.lft.to/lastmile_qr_scan", "ios": "https://dc.lft.to/lastmile_qr_scan"}, "fusion_lon": 0.0, "name": "ff68b609fca91abd0756b5f094fe9979", "lon": -77.05020866666666, "is_disabled": 0, "type": "electric_scooter"}, {"bike_id": "fd4ada0c5a55f75bf991e84173017380", "lat": 38.940029333333335, "is_reserved": 0, "fusion_lat": 0.0, "rental_uris": {"android": "https://dc.lft.to/lastmile_qr_scan", "ios": "https://dc.lft.to/lastmile_qr_scan"}, "fusion_lon": 0.0, "name": "fd4ada0c5a55f75bf991e84173017380", "lon": -77.0380405, "is_disabled": 0, "type": "electric_scooter"}, {"bike_id": "b6258048cf36770b3fb24455482ea226", "lat": 38.89869133333333, "is_reserved": 0, "fusion_lat": 0.0, "rental_uris": {"android": "https://dc.lft.to/lastmile_qr_scan", "ios": "https://dc.lft.to/lastmile_qr_scan"}, "fusion_lon": 0.0, "name": "b6258048cf36770b3fb24455482ea226", "lon": -77.0124595, "is_disabled": 0, "type": "electric_scooter"}, {"bike_id": "763e28faab7f44cefa482326a39e423c", "lat": 38.922297666666665, "is_reserved": 0, "fusion_lat": 0.0, "rental_uris": {"android": "https://dc.lft.to/lastmile_qr_scan", "ios": "https://dc.lft.to/lastmile_qr_scan"}, "fusion_lon": 0.0, "name": "763e28faab7f44cefa482326a39e423c", "lon": -77.04375166666667, "is_disabled": 0, "type": "electric_scooter"}, {"bike_id": "21e6fca97a6bdfd2061aecea3a15d224", "lat": 38.89509783333333, "is_reserved": 0, "fusion_lat": 0.0, "rental_uris": {"android": "https://dc.lft.to/lastmile_qr_scan", "ios": "https://dc.lft.to/lastmile_qr_scan"}, "fusion_lon": 0.0, "name": "21e6fca97a6bdfd2061aecea3a15d224", "lon": -77.00337, "is_disabled": 0, "type": "electric_scooter"}, {"bike_id": "6433098c65c0771159858a0aee8e13ea", "lat": 38.899836666666666, "is_reserved": 0, "fusion_lat": 0.0, "rental_uris": {"android": "https://dc.lft.to/lastmile_qr_scan", "ios": "https://dc.lft.to/lastmile_qr_scan"}, "fusion_lon": 0.0, "name": "6433098c65c0771159858a0aee8e13ea", "lon": -77.02724483333333, "is_disabled": 0, "type": "electric_scooter"}, {"bike_id": "6c7d555100791922aeee3055130efd60", "lat": 38.91836516666667, "is_reserved": 0, "fusion_lat": 0.0, "rental_uris": {"android": "https://dc.lft.to/lastmile_qr_scan", "ios": "https://dc.lft.to/lastmile_qr_scan"}, "fusion_lon": 0.0, "name": "6c7d555100791922aeee3055130efd60", "lon": -77.039433, "is_disabled": 0, "type": "electric_scooter"}, {"bike_id": "94734fcd8d367fd515fd8f02dfee802a", "lat": 38.907255, "is_reserved": 0, "fusion_lat": 0.0, "rental_uris": {"android": "https://dc.lft.to/lastmile_qr_scan", "ios": "https://dc.lft.to/lastmile_qr_scan"}, "fusion_lon": 0.0, "name": "94734fcd8d367fd515fd8f02dfee802a", "lon": -77.00274816666666, "is_disabled": 0, "type": "electric_scooter"}, {"bike_id": "0740ab1e7d630678c70757b25a4bba71", "lat": 38.922157166666665, "is_reserved": 0, "fusion_lat": 0.0, "rental_uris": {"android": "https://dc.lft.to/lastmile_qr_scan", "ios": "https://dc.lft.to/lastmile_qr_scan"}, "fusion_lon": 0.0, "name": "0740ab1e7d630678c70757b25a4bba71", "lon": -77.04240433333334, "is_disabled": 0, "type": "electric_scooter"}, {"bike_id": "0e43538302f45fbfce9fe378aaaae1e3", "lat": 38.89549683333333, "is_reserved": 0, "fusion_lat": 0.0, "rental_uris": {"android": "https://dc.lft.to/lastmile_qr_scan", "ios": "https://dc.lft.to/lastmile_qr_scan"}, "fusion_lon": 0.0, "name": "0e43538302f45fbfce9fe378aaaae1e3", "lon": -77.046838, "is_disabled": 0, "type": "electric_scooter"}, {"bike_id": "3aba1eb92682d7437f8e4fb444ba1258", "lat": 38.9242695, "is_reserved": 0, "fusion_lat": 0.0, "rental_uris": {"android": "https://dc.lft.to/lastmile_qr_scan", "ios": "https://dc.lft.to/lastmile_qr_scan"}, "fusion_lon": 0.0, "name": "3aba1eb92682d7437f8e4fb444ba1258", "lon": -77.05180266666666, "is_disabled": 0, "type": "electric_scooter"}, {"bike_id": "90fe3c8a381a4824bb650ea21e1c2292", "lat": 38.964083, "is_reserved": 0, "fusion_lat": 0.0, "rental_uris": {"android": "https://dc.lft.to/lastmile_qr_scan", "ios": "https://dc.lft.to/lastmile_qr_scan"}, "fusion_lon": 0.0, "name": "90fe3c8a381a4824bb650ea21e1c2292", "lon": -76.9999385, "is_disabled": 0, "type": "electric_bike"}, {"bike_id": "531be3fadfb57eec059388f7748cb228", "lat": 38.9324155, "is_reserved": 0, "fusion_lat": 0.0, "rental_uris": {"android": "https://dc.lft.to/lastmile_qr_scan", "ios": "https://dc.lft.to/lastmile_qr_scan"}, "fusion_lon": 0.0, "name": "531be3fadfb57eec059388f7748cb228", "lon": -77.02979233333333, "is_disabled": 0, "type": "electric_scooter"}, {"bike_id": "39429e8fcb0d9dcee03a99b52f2aa723", "lat": 38.90485183333333, "is_reserved": 0, "fusion_lat": 0.0, "rental_uris": {"android": "https://dc.lft.to/lastmile_qr_scan", "ios": "https://dc.lft.to/lastmile_qr_scan"}, "fusion_lon": 0.0, "name": "39429e8fcb0d9dcee03a99b52f2aa723", "lon": -77.04366916666666, "is_disabled": 0, "type": "electric_scooter"}, {"bike_id": "e7f1b6507f327fb21b3f56371b893e2c", "lat": 38.91820333333333, "is_reserved": 0, "fusion_lat": 0.0, "rental_uris": {"android": "https://dc.lft.to/lastmile_qr_scan", "ios": "https://dc.lft.to/lastmile_qr_scan"}, "fusion_lon": 0.0, "name": "e7f1b6507f327fb21b3f56371b893e2c", "lon": -77.04000133333334, "is_disabled": 0, "type": "electric_scooter"}, {"bike_id": "d960aef64b8826451182a84bcfa53eac", "lat": 38.91985116666667, "is_reserved": 0, "fusion_lat": 0.0, "rental_uris": {"android": "https://dc.lft.to/lastmile_qr_scan", "ios": "https://dc.lft.to/lastmile_qr_scan"}, "fusion_lon": 0.0, "name": "d960aef64b8826451182a84bcfa53eac", "lon": -77.017865, "is_disabled": 0, "type": "electric_scooter"}, {"bike_id": "2cd8383b76711a8db3be76f4bffc5ee9", "lat": 38.90422933333333, "is_reserved": 0, "fusion_lat": 0.0, "rental_uris": {"android": "https://dc.lft.to/lastmile_qr_scan", "ios": "https://dc.lft.to/lastmile_qr_scan"}, "fusion_lon": 0.0, "name": "2cd8383b76711a8db3be76f4bffc5ee9", "lon": -77.04870433333333, "is_disabled": 0, "type": "electric_scooter"}, {"bike_id": "a8f5bae95481337c4c872da27800b3a3", "lat": 38.941843, "is_reserved": 0, "fusion_lat": 0.0, "rental_uris": {"android": "https://dc.lft.to/lastmile_qr_scan", "ios": "https://dc.lft.to/lastmile_qr_scan"}, "fusion_lon": 0.0, "name": "a8f5bae95481337c4c872da27800b3a3", "lon": -77.02484583333333, "is_disabled": 0, "type": "electric_scooter"}, {"bike_id": "1af27215ce1b7a90d61e90b237f52f3d", "lat": 38.866979666666666, "is_reserved": 0, "fusion_lat": 0.0, "rental_uris": {"android": "https://dc.lft.to/lastmile_qr_scan", "ios": "https://dc.lft.to/lastmile_qr_scan"}, "fusion_lon": 0.0, "name": "1af27215ce1b7a90d61e90b237f52f3d", "lon": -76.98548633333333, "is_disabled": 0, "type": "electric_scooter"}, {"bike_id": "04bbf199c7b00402d6d9bc46aef58071", "lat": 38.9140885, "is_reserved": 0, "fusion_lat": 0.0, "rental_uris": {"android": "https://dc.lft.to/lastmile_qr_scan", "ios": "https://dc.lft.to/lastmile_qr_scan"}, "fusion_lon": 0.0, "name": "04bbf199c7b00402d6d9bc46aef58071", "lon": -77.02006883333334, "is_disabled": 0, "type": "electric_scooter"}, {"bike_id": "a1a8b1da70ab4a29b215cdbac30d447a", "lat": 38.9117445, "is_reserved": 0, "fusion_lat": 0.0, "rental_uris": {"android": "https://dc.lft.to/lastmile_qr_scan", "ios": "https://dc.lft.to/lastmile_qr_scan"}, "fusion_lon": 0.0, "name": "a1a8b1da70ab4a29b215cdbac30d447a", "lon": -77.03183116666666, "is_disabled": 0, "type": "electric_scooter"}, {"bike_id": "ae17a6e9517f76176f221d10a96e47ad", "lat": 38.9248255, "is_reserved": 0, "fusion_lat": 0.0, "rental_uris": {"android": "https://dc.lft.to/lastmile_qr_scan", "ios": "https://dc.lft.to/lastmile_qr_scan"}, "fusion_lon": 0.0, "name": "ae17a6e9517f76176f221d10a96e47ad", "lon": -77.02155216666667, "is_disabled": 0, "type": "electric_scooter"}, {"bike_id": "049cf60884b2d3ae264a1132515bf8cc", "lat": 38.908592, "is_reserved": 0, "fusion_lat": 0.0, "rental_uris": {"android": "https://dc.lft.to/lastmile_qr_scan", "ios": "https://dc.lft.to/lastmile_qr_scan"}, "fusion_lon": 0.0, "name": "049cf60884b2d3ae264a1132515bf8cc", "lon": -77.04284533333333, "is_disabled": 0, "type": "electric_scooter"}, {"bike_id": "2a13fb06e9abba39b62a6094dc5d1003", "lat": 38.915714333333334, "is_reserved": 0, "fusion_lat": 0.0, "rental_uris": {"android": "https://dc.lft.to/lastmile_qr_scan", "ios": "https://dc.lft.to/lastmile_qr_scan"}, "fusion_lon": 0.0, "name": "2a13fb06e9abba39b62a6094dc5d1003", "lon": -77.01957416666667, "is_disabled": 0, "type": "electric_scooter"}, {"bike_id": "d108da6fb8d847366c8b0f382b72897f", "lat": 38.9063415, "is_reserved": 0, "fusion_lat": 0.0, "rental_uris": {"android": "https://dc.lft.to/lastmile_qr_scan", "ios": "https://dc.lft.to/lastmile_qr_scan"}, "fusion_lon": 0.0, "name": "d108da6fb8d847366c8b0f382b72897f", "lon": -77.03977883333333, "is_disabled": 0, "type": "electric_scooter"}, {"bike_id": "cce51905bc69b68412a221c4ea54526b", "lat": 38.914217666666666, "is_reserved": 0, "fusion_lat": 0.0, "rental_uris": {"android": "https://dc.lft.to/lastmile_qr_scan", "ios": "https://dc.lft.to/lastmile_qr_scan"}, "fusion_lon": 0.0, "name": "cce51905bc69b68412a221c4ea54526b", "lon": -77.02406316666666, "is_disabled": 0, "type": "electric_scooter"}, {"bike_id": "57a80903c838421d66a6cdfff0e13cd5", "lat": 38.896061833333334, "is_reserved": 0, "fusion_lat": 0.0, "rental_uris": {"android": "https://dc.lft.to/lastmile_qr_scan", "ios": "https://dc.lft.to/lastmile_qr_scan"}, "fusion_lon": 0.0, "name": "57a80903c838421d66a6cdfff0e13cd5", "lon": -77.0232335, "is_disabled": 0, "type": "electric_scooter"}, {"bike_id": "88ce20288706c7f9d951c05973a42d6e", "lat": 38.897868, "is_reserved": 0, "fusion_lat": 0.0, "rental_uris": {"android": "https://dc.lft.to/lastmile_qr_scan", "ios": "https://dc.lft.to/lastmile_qr_scan"}, "fusion_lon": 0.0, "name": "88ce20288706c7f9d951c05973a42d6e", "lon": -76.94733116666667, "is_disabled": 0, "type": "electric_scooter"}, {"bike_id": "0da152610999ca64db972c25334950e1", "lat": 38.877141333333334, "is_reserved": 0, "fusion_lat": 0.0, "rental_uris": {"android": "https://dc.lft.to/lastmile_qr_scan", "ios": "https://dc.lft.to/lastmile_qr_scan"}, "fusion_lon": 0.0, "name": "0da152610999ca64db972c25334950e1", "lon": -77.003247, "is_disabled": 0, "type": "electric_scooter"}, {"bike_id": "bfb1df33a65447a5b9bff310d3c57ca3", "lat": 38.91426766666667, "is_reserved": 0, "fusion_lat": 0.0, "rental_uris": {"android": "https://dc.lft.to/lastmile_qr_scan", "ios": "https://dc.lft.to/lastmile_qr_scan"}, "fusion_lon": 0.0, "name": "bfb1df33a65447a5b9bff310d3c57ca3", "lon": -77.0318385, "is_disabled": 0, "type": "electric_scooter"}, {"bike_id": "aa31e148c46661bade49d78e096b49f8", "lat": 38.9032745, "is_reserved": 0, "fusion_lat": 0.0, "rental_uris": {"android": "https://dc.lft.to/lastmile_qr_scan", "ios": "https://dc.lft.to/lastmile_qr_scan"}, "fusion_lon": 0.0, "name": "aa31e148c46661bade49d78e096b49f8", "lon": -77.04505666666667, "is_disabled": 0, "type": "electric_bike"}, {"bike_id": "af39854e770a0bba60f2534b6cf08ca4", "lat": 38.92249266666666, "is_reserved": 0, "fusion_lat": 0.0, "rental_uris": {"android": "https://dc.lft.to/lastmile_qr_scan", "ios": "https://dc.lft.to/lastmile_qr_scan"}, "fusion_lon": 0.0, "name": "af39854e770a0bba60f2534b6cf08ca4", "lon": -77.04270466666667, "is_disabled": 0, "type": "electric_scooter"}, {"bike_id": "9320099b3f16179a7fd8be1fd655d5a7", "lat": 38.92405766666667, "is_reserved": 0, "fusion_lat": 0.0, "rental_uris": {"android": "https://dc.lft.to/lastmile_qr_scan", "ios": "https://dc.lft.to/lastmile_qr_scan"}, "fusion_lon": 0.0, "name": "9320099b3f16179a7fd8be1fd655d5a7", "lon": -77.0212335, "is_disabled": 0, "type": "electric_scooter"}, {"bike_id": "0b22e63807b52c870b9d15d600c2e55b", "lat": 38.930597666666664, "is_reserved": 0, "fusion_lat": 0.0, "rental_uris": {"android": "https://dc.lft.to/lastmile_qr_scan", "ios": "https://dc.lft.to/lastmile_qr_scan"}, "fusion_lon": 0.0, "name": "0b22e63807b52c870b9d15d600c2e55b", "lon": -77.0424905, "is_disabled": 0, "type": "electric_scooter"}, {"bike_id": "633d0bce35e7f604e2cec2609cfefa20", "lat": 38.87711733333333, "is_reserved": 0, "fusion_lat": 0.0, "rental_uris": {"android": "https://dc.lft.to/lastmile_qr_scan", "ios": "https://dc.lft.to/lastmile_qr_scan"}, "fusion_lon": 0.0, "name": "633d0bce35e7f604e2cec2609cfefa20", "lon": -77.01764433333334, "is_disabled": 0, "type": "electric_scooter"}, {"bike_id": "e349650ea7330476c8493547d7e6a8b5", "lat": 38.88361483333333, "is_reserved": 0, "fusion_lat": 0.0, "rental_uris": {"android": "https://dc.lft.to/lastmile_qr_scan", "ios": "https://dc.lft.to/lastmile_qr_scan"}, "fusion_lon": 0.0, "name": "e349650ea7330476c8493547d7e6a8b5", "lon": -77.0200665, "is_disabled": 0, "type": "electric_scooter"}, {"bike_id": "6b73be07716845920768817c341246c0", "lat": 38.906812333333335, "is_reserved": 0, "fusion_lat": 0.0, "rental_uris": {"android": "https://dc.lft.to/lastmile_qr_scan", "ios": "https://dc.lft.to/lastmile_qr_scan"}, "fusion_lon": 0.0, "name": "6b73be07716845920768817c341246c0", "lon": -76.98002416666667, "is_disabled": 0, "type": "electric_scooter"}, {"bike_id": "538c6b4956cbcc4677a1b1807025c7a5", "lat": 38.920568333333335, "is_reserved": 0, "fusion_lat": 0.0, "rental_uris": {"android": "https://dc.lft.to/lastmile_qr_scan", "ios": "https://dc.lft.to/lastmile_qr_scan"}, "fusion_lon": 0.0, "name": "538c6b4956cbcc4677a1b1807025c7a5", "lon": -77.03346616666667, "is_disabled": 0, "type": "electric_scooter"}, {"bike_id": "fe82890e343463b6fdd72e4cfeb3bed3", "lat": 38.85177733333333, "is_reserved": 0, "fusion_lat": 0.0, "rental_uris": {"android": "https://dc.lft.to/lastmile_qr_scan", "ios": "https://dc.lft.to/lastmile_qr_scan"}, "fusion_lon": 0.0, "name": "fe82890e343463b6fdd72e4cfeb3bed3", "lon": -76.99583283333334, "is_disabled": 0, "type": "electric_scooter"}, {"bike_id": "a3a38469449ed4625c46a269dbcb1fa1", "lat": 38.912692666666665, "is_reserved": 0, "fusion_lat": 0.0, "rental_uris": {"android": "https://dc.lft.to/lastmile_qr_scan", "ios": "https://dc.lft.to/lastmile_qr_scan"}, "fusion_lon": 0.0, "name": "a3a38469449ed4625c46a269dbcb1fa1", "lon": -77.02209966666666, "is_disabled": 0, "type": "electric_scooter"}, {"bike_id": "5f671ff7f6394fce38903ac35b0d3e07", "lat": 38.92509183333333, "is_reserved": 0, "fusion_lat": 0.0, "rental_uris": {"android": "https://dc.lft.to/lastmile_qr_scan", "ios": "https://dc.lft.to/lastmile_qr_scan"}, "fusion_lon": 0.0, "name": "5f671ff7f6394fce38903ac35b0d3e07", "lon": -77.00222516666666, "is_disabled": 0, "type": "electric_scooter"}, {"bike_id": "d2178c811b27e6d733c40a8a98268af0", "lat": 38.91392333333334, "is_reserved": 0, "fusion_lat": 0.0, "rental_uris": {"android": "https://dc.lft.to/lastmile_qr_scan", "ios": "https://dc.lft.to/lastmile_qr_scan"}, "fusion_lon": 0.0, "name": "d2178c811b27e6d733c40a8a98268af0", "lon": -77.04616216666666, "is_disabled": 0, "type": "electric_scooter"}, {"bike_id": "53e78735c468f9681f25fde97224ef4e", "lat": 38.8938575, "is_reserved": 0, "fusion_lat": 0.0, "rental_uris": {"android": "https://dc.lft.to/lastmile_qr_scan", "ios": "https://dc.lft.to/lastmile_qr_scan"}, "fusion_lon": 0.0, "name": "53e78735c468f9681f25fde97224ef4e", "lon": -77.02266383333334, "is_disabled": 0, "type": "electric_scooter"}, {"bike_id": "2b6686683cdae95a3350240c05844d41", "lat": 38.91824366666667, "is_reserved": 0, "fusion_lat": 0.0, "rental_uris": {"android": "https://dc.lft.to/lastmile_qr_scan", "ios": "https://dc.lft.to/lastmile_qr_scan"}, "fusion_lon": 0.0, "name": "2b6686683cdae95a3350240c05844d41", "lon": -77.04929316666667, "is_disabled": 0, "type": "electric_scooter"}, {"bike_id": "c88ce7f309d2afdbef755602a72182d6", "lat": 38.89848666666666, "is_reserved": 0, "fusion_lat": 0.0, "rental_uris": {"android": "https://dc.lft.to/lastmile_qr_scan", "ios": "https://dc.lft.to/lastmile_qr_scan"}, "fusion_lon": 0.0, "name": "c88ce7f309d2afdbef755602a72182d6", "lon": -76.92911133333334, "is_disabled": 0, "type": "electric_scooter"}, {"bike_id": "efd644fae674f44f4ea84728714f76fc", "lat": 38.948280833333335, "is_reserved": 0, "fusion_lat": 0.0, "rental_uris": {"android": "https://dc.lft.to/lastmile_qr_scan", "ios": "https://dc.lft.to/lastmile_qr_scan"}, "fusion_lon": 0.0, "name": "efd644fae674f44f4ea84728714f76fc", "lon": -77.0248755, "is_disabled": 0, "type": "electric_scooter"}, {"bike_id": "200ade29338b89fd5ddbc0a0fa815914", "lat": 38.902606, "is_reserved": 0, "fusion_lat": 0.0, "rental_uris": {"android": "https://dc.lft.to/lastmile_qr_scan", "ios": "https://dc.lft.to/lastmile_qr_scan"}, "fusion_lon": 0.0, "name": "200ade29338b89fd5ddbc0a0fa815914", "lon": -77.03420416666667, "is_disabled": 0, "type": "electric_scooter"}, {"bike_id": "2d1ede30b1d0b4ce48ded08ceb074220", "lat": 38.897463333333334, "is_reserved": 0, "fusion_lat": 0.0, "rental_uris": {"android": "https://dc.lft.to/lastmile_qr_scan", "ios": "https://dc.lft.to/lastmile_qr_scan"}, "fusion_lon": 0.0, "name": "2d1ede30b1d0b4ce48ded08ceb074220", "lon": -77.0268855, "is_disabled": 0, "type": "electric_scooter"}, {"bike_id": "1430ddd2316b725578172f8c1604fa1a", "lat": 38.894664, "is_reserved": 0, "fusion_lat": 0.0, "rental_uris": {"android": "https://dc.lft.to/lastmile_qr_scan", "ios": "https://dc.lft.to/lastmile_qr_scan"}, "fusion_lon": 0.0, "name": "1430ddd2316b725578172f8c1604fa1a", "lon": -77.00342566666667, "is_disabled": 0, "type": "electric_scooter"}, {"bike_id": "11f93d58cabacc5eef265eba962b7ec3", "lat": 38.92159316666667, "is_reserved": 0, "fusion_lat": 0.0, "rental_uris": {"android": "https://dc.lft.to/lastmile_qr_scan", "ios": "https://dc.lft.to/lastmile_qr_scan"}, "fusion_lon": 0.0, "name": "11f93d58cabacc5eef265eba962b7ec3", "lon": -77.03317883333334, "is_disabled": 0, "type": "electric_scooter"}, {"bike_id": "f96258b4de04fef7f64d2d7a078fe3c7", "lat": 38.9087985, "is_reserved": 0, "fusion_lat": 0.0, "rental_uris": {"android": "https://dc.lft.to/lastmile_qr_scan", "ios": "https://dc.lft.to/lastmile_qr_scan"}, "fusion_lon": 0.0, "name": "f96258b4de04fef7f64d2d7a078fe3c7", "lon": -76.99791633333334, "is_disabled": 0, "type": "electric_scooter"}, {"bike_id": "770f9c6dab97d3c292d95441f61c0d4d", "lat": 38.89220016666667, "is_reserved": 0, "fusion_lat": 0.0, "rental_uris": {"android": "https://dc.lft.to/lastmile_qr_scan", "ios": "https://dc.lft.to/lastmile_qr_scan"}, "fusion_lon": 0.0, "name": "770f9c6dab97d3c292d95441f61c0d4d", "lon": -77.02231283333333, "is_disabled": 0, "type": "electric_scooter"}, {"bike_id": "1c85cce7cc7e74ab4dbf257597a7dbb6", "lat": 38.89659066666667, "is_reserved": 0, "fusion_lat": 0.0, "rental_uris": {"android": "https://dc.lft.to/lastmile_qr_scan", "ios": "https://dc.lft.to/lastmile_qr_scan"}, "fusion_lon": 0.0, "name": "1c85cce7cc7e74ab4dbf257597a7dbb6", "lon": -77.0237945, "is_disabled": 0, "type": "electric_scooter"}, {"bike_id": "3a5c9150627cf9e6c1f9ff8c006379c4", "lat": 38.906000666666664, "is_reserved": 0, "fusion_lat": 0.0, "rental_uris": {"android": "https://dc.lft.to/lastmile_qr_scan", "ios": "https://dc.lft.to/lastmile_qr_scan"}, "fusion_lon": 0.0, "name": "3a5c9150627cf9e6c1f9ff8c006379c4", "lon": -77.00768983333333, "is_disabled": 0, "type": "electric_scooter"}, {"bike_id": "f3dbeaa20640c7bd85d6639f19b78f37", "lat": 38.914098333333335, "is_reserved": 0, "fusion_lat": 0.0, "rental_uris": {"android": "https://dc.lft.to/lastmile_qr_scan", "ios": "https://dc.lft.to/lastmile_qr_scan"}, "fusion_lon": 0.0, "name": "f3dbeaa20640c7bd85d6639f19b78f37", "lon": -77.012287, "is_disabled": 0, "type": "electric_scooter"}, {"bike_id": "8a0a0b2fc0e2eb6ab207645f18e4f386", "lat": 38.89973416666667, "is_reserved": 0, "fusion_lat": 0.0, "rental_uris": {"android": "https://dc.lft.to/lastmile_qr_scan", "ios": "https://dc.lft.to/lastmile_qr_scan"}, "fusion_lon": 0.0, "name": "8a0a0b2fc0e2eb6ab207645f18e4f386", "lon": -76.99609883333333, "is_disabled": 0, "type": "electric_scooter"}, {"bike_id": "0fb5d2987978a5127f5d2e8e830552af", "lat": 38.90032766666667, "is_reserved": 0, "fusion_lat": 0.0, "rental_uris": {"android": "https://dc.lft.to/lastmile_qr_scan", "ios": "https://dc.lft.to/lastmile_qr_scan"}, "fusion_lon": 0.0, "name": "0fb5d2987978a5127f5d2e8e830552af", "lon": -77.01182416666667, "is_disabled": 0, "type": "electric_scooter"}, {"bike_id": "3cf37860fccaae5cd8fd71d74facdc61", "lat": 38.887360666666666, "is_reserved": 0, "fusion_lat": 0.0, "rental_uris": {"android": "https://dc.lft.to/lastmile_qr_scan", "ios": "https://dc.lft.to/lastmile_qr_scan"}, "fusion_lon": 0.0, "name": "3cf37860fccaae5cd8fd71d74facdc61", "lon": -77.02837833333334, "is_disabled": 0, "type": "electric_scooter"}, {"bike_id": "e3f55f39fd03cd33b7e6bdb0dc6a2c98", "lat": 38.89963266666667, "is_reserved": 0, "fusion_lat": 0.0, "rental_uris": {"android": "https://dc.lft.to/lastmile_qr_scan", "ios": "https://dc.lft.to/lastmile_qr_scan"}, "fusion_lon": 0.0, "name": "e3f55f39fd03cd33b7e6bdb0dc6a2c98", "lon": -77.01611066666666, "is_disabled": 0, "type": "electric_scooter"}, {"bike_id": "6ef363f1b78d7ab0aabbc6e8b6e90c54", "lat": 38.91986883333333, "is_reserved": 0, "fusion_lat": 0.0, "rental_uris": {"android": "https://dc.lft.to/lastmile_qr_scan", "ios": "https://dc.lft.to/lastmile_qr_scan"}, "fusion_lon": 0.0, "name": "6ef363f1b78d7ab0aabbc6e8b6e90c54", "lon": -77.02389883333333, "is_disabled": 0, "type": "electric_scooter"}, {"bike_id": "1293552198bde929b88f0aaf90c69f36", "lat": 38.9045745, "is_reserved": 0, "fusion_lat": 0.0, "rental_uris": {"android": "https://dc.lft.to/lastmile_qr_scan", "ios": "https://dc.lft.to/lastmile_qr_scan"}, "fusion_lon": 0.0, "name": "1293552198bde929b88f0aaf90c69f36", "lon": -77.0448955, "is_disabled": 0, "type": "electric_scooter"}, {"bike_id": "ba8ef420f1a16bbc9bf4ebaffd67bb83", "lat": 38.9261655, "is_reserved": 0, "fusion_lat": 0.0, "rental_uris": {"android": "https://dc.lft.to/lastmile_qr_scan", "ios": "https://dc.lft.to/lastmile_qr_scan"}, "fusion_lon": 0.0, "name": "ba8ef420f1a16bbc9bf4ebaffd67bb83", "lon": -77.02165366666667, "is_disabled": 0, "type": "electric_scooter"}, {"bike_id": "0174fbbe89060d0b6fc5db35872e4ce7", "lat": 38.89221166666667, "is_reserved": 0, "fusion_lat": 0.0, "rental_uris": {"android": "https://dc.lft.to/lastmile_qr_scan", "ios": "https://dc.lft.to/lastmile_qr_scan"}, "fusion_lon": 0.0, "name": "0174fbbe89060d0b6fc5db35872e4ce7", "lon": -77.04365833333334, "is_disabled": 0, "type": "electric_scooter"}, {"bike_id": "8658bc1cbf242989d8cb79a63ce96e17", "lat": 38.94021516666667, "is_reserved": 0, "fusion_lat": 0.0, "rental_uris": {"android": "https://dc.lft.to/lastmile_qr_scan", "ios": "https://dc.lft.to/lastmile_qr_scan"}, "fusion_lon": 0.0, "name": "8658bc1cbf242989d8cb79a63ce96e17", "lon": -76.97605533333333, "is_disabled": 0, "type": "electric_scooter"}, {"bike_id": "97f8ae4a043b91d0d4934056905dfd68", "lat": 38.8943015, "is_reserved": 0, "fusion_lat": 0.0, "rental_uris": {"android": "https://dc.lft.to/lastmile_qr_scan", "ios": "https://dc.lft.to/lastmile_qr_scan"}, "fusion_lon": 0.0, "name": "97f8ae4a043b91d0d4934056905dfd68", "lon": -77.01046083333334, "is_disabled": 0, "type": "electric_scooter"}, {"bike_id": "2270c24b9ec139bcf161db3c7a2f4c08", "lat": 38.934741833333334, "is_reserved": 0, "fusion_lat": 0.0, "rental_uris": {"android": "https://dc.lft.to/lastmile_qr_scan", "ios": "https://dc.lft.to/lastmile_qr_scan"}, "fusion_lon": 0.0, "name": "2270c24b9ec139bcf161db3c7a2f4c08", "lon": -77.07265633333333, "is_disabled": 0, "type": "electric_scooter"}, {"bike_id": "2170f53e12d6cc8fb78775f00921db31", "lat": 38.932141666666666, "is_reserved": 0, "fusion_lat": 0.0, "rental_uris": {"android": "https://dc.lft.to/lastmile_qr_scan", "ios": "https://dc.lft.to/lastmile_qr_scan"}, "fusion_lon": 0.0, "name": "2170f53e12d6cc8fb78775f00921db31", "lon": -77.03510183333333, "is_disabled": 0, "type": "electric_scooter"}, {"bike_id": "817d463edc2f77b6c460369034ec9b3b", "lat": 38.894806, "is_reserved": 0, "fusion_lat": 0.0, "rental_uris": {"android": "https://dc.lft.to/lastmile_qr_scan", "ios": "https://dc.lft.to/lastmile_qr_scan"}, "fusion_lon": 0.0, "name": "817d463edc2f77b6c460369034ec9b3b", "lon": -76.94862, "is_disabled": 0, "type": "electric_scooter"}, {"bike_id": "a7a038815648258a4b459c88af889ae4", "lat": 38.877166, "is_reserved": 0, "fusion_lat": 0.0, "rental_uris": {"android": "https://dc.lft.to/lastmile_qr_scan", "ios": "https://dc.lft.to/lastmile_qr_scan"}, "fusion_lon": 0.0, "name": "a7a038815648258a4b459c88af889ae4", "lon": -77.00529766666666, "is_disabled": 0, "type": "electric_scooter"}, {"bike_id": "57bd207f141d4add4cc8f4ab7c5c0a6d", "lat": 38.90185666666667, "is_reserved": 0, "fusion_lat": 0.0, "rental_uris": {"android": "https://dc.lft.to/lastmile_qr_scan", "ios": "https://dc.lft.to/lastmile_qr_scan"}, "fusion_lon": 0.0, "name": "57bd207f141d4add4cc8f4ab7c5c0a6d", "lon": -77.04646916666667, "is_disabled": 0, "type": "electric_scooter"}, {"bike_id": "b260ec62966e9edc019ea9a988c888e9", "lat": 38.900634, "is_reserved": 0, "fusion_lat": 0.0, "rental_uris": {"android": "https://dc.lft.to/lastmile_qr_scan", "ios": "https://dc.lft.to/lastmile_qr_scan"}, "fusion_lon": 0.0, "name": "b260ec62966e9edc019ea9a988c888e9", "lon": -77.045332, "is_disabled": 0, "type": "electric_scooter"}, {"bike_id": "12c6ddf74f924d2958ee244fbf4b5e27", "lat": 38.920442666666666, "is_reserved": 0, "fusion_lat": 0.0, "rental_uris": {"android": "https://dc.lft.to/lastmile_qr_scan", "ios": "https://dc.lft.to/lastmile_qr_scan"}, "fusion_lon": 0.0, "name": "12c6ddf74f924d2958ee244fbf4b5e27", "lon": -77.0257745, "is_disabled": 0, "type": "electric_scooter"}, {"bike_id": "701d51b1a6dedbaea7ee62859efb993b", "lat": 38.899196333333336, "is_reserved": 0, "fusion_lat": 0.0, "rental_uris": {"android": "https://dc.lft.to/lastmile_qr_scan", "ios": "https://dc.lft.to/lastmile_qr_scan"}, "fusion_lon": 0.0, "name": "701d51b1a6dedbaea7ee62859efb993b", "lon": -77.00371666666666, "is_disabled": 0, "type": "electric_scooter"}, {"bike_id": "a5b52894675a816a1a15870e4569e169", "lat": 38.897427, "is_reserved": 0, "fusion_lat": 0.0, "rental_uris": {"android": "https://dc.lft.to/lastmile_qr_scan", "ios": "https://dc.lft.to/lastmile_qr_scan"}, "fusion_lon": 0.0, "name": "a5b52894675a816a1a15870e4569e169", "lon": -77.0274045, "is_disabled": 0, "type": "electric_scooter"}, {"bike_id": "2e58002f0477a5e29dcc205d9d2900d1", "lat": 38.896122, "is_reserved": 0, "fusion_lat": 0.0, "rental_uris": {"android": "https://dc.lft.to/lastmile_qr_scan", "ios": "https://dc.lft.to/lastmile_qr_scan"}, "fusion_lon": 0.0, "name": "2e58002f0477a5e29dcc205d9d2900d1", "lon": -76.90733716666666, "is_disabled": 0, "type": "electric_bike"}, {"bike_id": "9b524abef2ffadb15319791fe8f92eb7", "lat": 38.89903483333333, "is_reserved": 0, "fusion_lat": 0.0, "rental_uris": {"android": "https://dc.lft.to/lastmile_qr_scan", "ios": "https://dc.lft.to/lastmile_qr_scan"}, "fusion_lon": 0.0, "name": "9b524abef2ffadb15319791fe8f92eb7", "lon": -77.02175316666667, "is_disabled": 0, "type": "electric_scooter"}, {"bike_id": "a2cf61c25fdebf11a04b8b669b6b3f47", "lat": 38.902921166666665, "is_reserved": 0, "fusion_lat": 0.0, "rental_uris": {"android": "https://dc.lft.to/lastmile_qr_scan", "ios": "https://dc.lft.to/lastmile_qr_scan"}, "fusion_lon": 0.0, "name": "a2cf61c25fdebf11a04b8b669b6b3f47", "lon": -77.03356266666667, "is_disabled": 0, "type": "electric_scooter"}, {"bike_id": "2967d86dde0f3dcb15cd8e8895f69199", "lat": 38.892978666666664, "is_reserved": 0, "fusion_lat": 0.0, "rental_uris": {"android": "https://dc.lft.to/lastmile_qr_scan", "ios": "https://dc.lft.to/lastmile_qr_scan"}, "fusion_lon": 0.0, "name": "2967d86dde0f3dcb15cd8e8895f69199", "lon": -77.0198885, "is_disabled": 0, "type": "electric_scooter"}, {"bike_id": "e378816dd2a30135c597d3af0a2282ac", "lat": 38.90776616666667, "is_reserved": 0, "fusion_lat": 0.0, "rental_uris": {"android": "https://dc.lft.to/lastmile_qr_scan", "ios": "https://dc.lft.to/lastmile_qr_scan"}, "fusion_lon": 0.0, "name": "e378816dd2a30135c597d3af0a2282ac", "lon": -77.0344455, "is_disabled": 0, "type": "electric_scooter"}, {"bike_id": "bd6b731e6636a9e93c7d47a973fb9eca", "lat": 38.9156565, "is_reserved": 0, "fusion_lat": 0.0, "rental_uris": {"android": "https://dc.lft.to/lastmile_qr_scan", "ios": "https://dc.lft.to/lastmile_qr_scan"}, "fusion_lon": 0.0, "name": "bd6b731e6636a9e93c7d47a973fb9eca", "lon": -77.03124, "is_disabled": 0, "type": "electric_scooter"}, {"bike_id": "ddce7e53af58d7958624896c345cac21", "lat": 38.92625366666667, "is_reserved": 0, "fusion_lat": 0.0, "rental_uris": {"android": "https://dc.lft.to/lastmile_qr_scan", "ios": "https://dc.lft.to/lastmile_qr_scan"}, "fusion_lon": 0.0, "name": "ddce7e53af58d7958624896c345cac21", "lon": -77.03706766666667, "is_disabled": 0, "type": "electric_scooter"}, {"bike_id": "5d88a9858b5e28a16b847faaf5a382fb", "lat": 38.9041625, "is_reserved": 0, "fusion_lat": 0.0, "rental_uris": {"android": "https://dc.lft.to/lastmile_qr_scan", "ios": "https://dc.lft.to/lastmile_qr_scan"}, "fusion_lon": 0.0, "name": "5d88a9858b5e28a16b847faaf5a382fb", "lon": -76.97332316666666, "is_disabled": 0, "type": "electric_scooter"}, {"bike_id": "b15b3376efa6ad9c47d032932c479e4c", "lat": 38.9134485, "is_reserved": 0, "fusion_lat": 0.0, "rental_uris": {"android": "https://dc.lft.to/lastmile_qr_scan", "ios": "https://dc.lft.to/lastmile_qr_scan"}, "fusion_lon": 0.0, "name": "b15b3376efa6ad9c47d032932c479e4c", "lon": -77.04226216666666, "is_disabled": 0, "type": "electric_scooter"}, {"bike_id": "b5e525957c59bed8a5f3772e5e787200", "lat": 38.922536, "is_reserved": 0, "fusion_lat": 0.0, "rental_uris": {"android": "https://dc.lft.to/lastmile_qr_scan", "ios": "https://dc.lft.to/lastmile_qr_scan"}, "fusion_lon": 0.0, "name": "b5e525957c59bed8a5f3772e5e787200", "lon": -77.0289915, "is_disabled": 0, "type": "electric_scooter"}, {"bike_id": "ac335d346bbc1a3931fb7e73a8834e8e", "lat": 38.914137, "is_reserved": 0, "fusion_lat": 0.0, "rental_uris": {"android": "https://dc.lft.to/lastmile_qr_scan", "ios": "https://dc.lft.to/lastmile_qr_scan"}, "fusion_lon": 0.0, "name": "ac335d346bbc1a3931fb7e73a8834e8e", "lon": -77.0258745, "is_disabled": 0, "type": "electric_scooter"}, {"bike_id": "68813ef6ef9b9f384a693d36b9bca4e6", "lat": 38.916904, "is_reserved": 0, "fusion_lat": 0.0, "rental_uris": {"android": "https://dc.lft.to/lastmile_qr_scan", "ios": "https://dc.lft.to/lastmile_qr_scan"}, "fusion_lon": 0.0, "name": "68813ef6ef9b9f384a693d36b9bca4e6", "lon": -77.02304483333333, "is_disabled": 0, "type": "electric_scooter"}, {"bike_id": "85d0238f18c6dc92f24bd95a6ef42baa", "lat": 38.92473866666667, "is_reserved": 0, "fusion_lat": 0.0, "rental_uris": {"android": "https://dc.lft.to/lastmile_qr_scan", "ios": "https://dc.lft.to/lastmile_qr_scan"}, "fusion_lon": 0.0, "name": "85d0238f18c6dc92f24bd95a6ef42baa", "lon": -77.02205233333333, "is_disabled": 0, "type": "electric_scooter"}, {"bike_id": "e16d57655d4ca642b52998ca5e6a91b9", "lat": 38.92922316666667, "is_reserved": 0, "fusion_lat": 0.0, "rental_uris": {"android": "https://dc.lft.to/lastmile_qr_scan", "ios": "https://dc.lft.to/lastmile_qr_scan"}, "fusion_lon": 0.0, "name": "e16d57655d4ca642b52998ca5e6a91b9", "lon": -77.03263933333334, "is_disabled": 0, "type": "electric_bike"}, {"bike_id": "67e6575e4a82ee7ccc42d6769bffafc1", "lat": 38.887132666666666, "is_reserved": 0, "fusion_lat": 0.0, "rental_uris": {"android": "https://dc.lft.to/lastmile_qr_scan", "ios": "https://dc.lft.to/lastmile_qr_scan"}, "fusion_lon": 0.0, "name": "67e6575e4a82ee7ccc42d6769bffafc1", "lon": -77.01775816666667, "is_disabled": 0, "type": "electric_scooter"}, {"bike_id": "d376dc6ad940d5eb0f48e5598106880b", "lat": 38.901059000000004, "is_reserved": 0, "fusion_lat": 0.0, "rental_uris": {"android": "https://dc.lft.to/lastmile_qr_scan", "ios": "https://dc.lft.to/lastmile_qr_scan"}, "fusion_lon": 0.0, "name": "d376dc6ad940d5eb0f48e5598106880b", "lon": -77.01238666666667, "is_disabled": 0, "type": "electric_scooter"}, {"bike_id": "c23feb4c64bd90cd948aee5771b7905c", "lat": 38.920534333333336, "is_reserved": 0, "fusion_lat": 0.0, "rental_uris": {"android": "https://dc.lft.to/lastmile_qr_scan", "ios": "https://dc.lft.to/lastmile_qr_scan"}, "fusion_lon": 0.0, "name": "c23feb4c64bd90cd948aee5771b7905c", "lon": -77.03406883333334, "is_disabled": 0, "type": "electric_scooter"}, {"bike_id": "c3d9ae98a33511747bf59abac4fbe372", "lat": 38.937037333333336, "is_reserved": 0, "fusion_lat": 0.0, "rental_uris": {"android": "https://dc.lft.to/lastmile_qr_scan", "ios": "https://dc.lft.to/lastmile_qr_scan"}, "fusion_lon": 0.0, "name": "c3d9ae98a33511747bf59abac4fbe372", "lon": -77.05605916666667, "is_disabled": 0, "type": "electric_bike"}, {"bike_id": "8954316411b28a29fe83b62c9309bc88", "lat": 38.933135666666665, "is_reserved": 0, "fusion_lat": 0.0, "rental_uris": {"android": "https://dc.lft.to/lastmile_qr_scan", "ios": "https://dc.lft.to/lastmile_qr_scan"}, "fusion_lon": 0.0, "name": "8954316411b28a29fe83b62c9309bc88", "lon": -77.072537, "is_disabled": 0, "type": "electric_scooter"}, {"bike_id": "40bca7907a78e40e81f4ac1595fe6baa", "lat": 38.905026666666664, "is_reserved": 0, "fusion_lat": 0.0, "rental_uris": {"android": "https://dc.lft.to/lastmile_qr_scan", "ios": "https://dc.lft.to/lastmile_qr_scan"}, "fusion_lon": 0.0, "name": "40bca7907a78e40e81f4ac1595fe6baa", "lon": -77.06881183333333, "is_disabled": 0, "type": "electric_scooter"}, {"bike_id": "86d6ac4d1e7e6e7ac52aaed40abe809b", "lat": 38.897361333333336, "is_reserved": 0, "fusion_lat": 0.0, "rental_uris": {"android": "https://dc.lft.to/lastmile_qr_scan", "ios": "https://dc.lft.to/lastmile_qr_scan"}, "fusion_lon": 0.0, "name": "86d6ac4d1e7e6e7ac52aaed40abe809b", "lon": -77.02695133333333, "is_disabled": 0, "type": "electric_scooter"}, {"bike_id": "12e139bcc2768fbfb9a53806562b14bc", "lat": 38.900300333333334, "is_reserved": 0, "fusion_lat": 0.0, "rental_uris": {"android": "https://dc.lft.to/lastmile_qr_scan", "ios": "https://dc.lft.to/lastmile_qr_scan"}, "fusion_lon": 0.0, "name": "12e139bcc2768fbfb9a53806562b14bc", "lon": -76.98657433333334, "is_disabled": 0, "type": "electric_scooter"}, {"bike_id": "b38df2e06e434ce4665aeed26b35f91f", "lat": 38.9038495, "is_reserved": 0, "fusion_lat": 0.0, "rental_uris": {"android": "https://dc.lft.to/lastmile_qr_scan", "ios": "https://dc.lft.to/lastmile_qr_scan"}, "fusion_lon": 0.0, "name": "b38df2e06e434ce4665aeed26b35f91f", "lon": -77.007602, "is_disabled": 0, "type": "electric_scooter"}, {"bike_id": "ba1c0e3f2024b5ba67b91dc15541ae03", "lat": 38.90972033333333, "is_reserved": 0, "fusion_lat": 0.0, "rental_uris": {"android": "https://dc.lft.to/lastmile_qr_scan", "ios": "https://dc.lft.to/lastmile_qr_scan"}, "fusion_lon": 0.0, "name": "ba1c0e3f2024b5ba67b91dc15541ae03", "lon": -77.01716116666667, "is_disabled": 0, "type": "electric_scooter"}, {"bike_id": "ab42a9e33d392102b98ea4543e51e9ba", "lat": 38.915554, "is_reserved": 0, "fusion_lat": 0.0, "rental_uris": {"android": "https://dc.lft.to/lastmile_qr_scan", "ios": "https://dc.lft.to/lastmile_qr_scan"}, "fusion_lon": 0.0, "name": "ab42a9e33d392102b98ea4543e51e9ba", "lon": -77.03324233333333, "is_disabled": 0, "type": "electric_scooter"}, {"bike_id": "c721c63d6eb0935a83015bbaef304383", "lat": 38.92303616666667, "is_reserved": 0, "fusion_lat": 0.0, "rental_uris": {"android": "https://dc.lft.to/lastmile_qr_scan", "ios": "https://dc.lft.to/lastmile_qr_scan"}, "fusion_lon": 0.0, "name": "c721c63d6eb0935a83015bbaef304383", "lon": -77.0418205, "is_disabled": 0, "type": "electric_scooter"}, {"bike_id": "d99c10bcb06140084cdd8dcf9afed31f", "lat": 38.96556916666667, "is_reserved": 0, "fusion_lat": 0.0, "rental_uris": {"android": "https://dc.lft.to/lastmile_qr_scan", "ios": "https://dc.lft.to/lastmile_qr_scan"}, "fusion_lon": 0.0, "name": "d99c10bcb06140084cdd8dcf9afed31f", "lon": -77.00207316666666, "is_disabled": 0, "type": "electric_scooter"}, {"bike_id": "1a504a915e1c61d8e5e845e4609af64b", "lat": 38.905703333333335, "is_reserved": 0, "fusion_lat": 0.0, "rental_uris": {"android": "https://dc.lft.to/lastmile_qr_scan", "ios": "https://dc.lft.to/lastmile_qr_scan"}, "fusion_lon": 0.0, "name": "1a504a915e1c61d8e5e845e4609af64b", "lon": -77.04697166666666, "is_disabled": 0, "type": "electric_scooter"}, {"bike_id": "c0caaf29fbe3ea8b9123b4c8eb18e3e6", "lat": 38.892264833333336, "is_reserved": 0, "fusion_lat": 0.0, "rental_uris": {"android": "https://dc.lft.to/lastmile_qr_scan", "ios": "https://dc.lft.to/lastmile_qr_scan"}, "fusion_lon": 0.0, "name": "c0caaf29fbe3ea8b9123b4c8eb18e3e6", "lon": -77.043724, "is_disabled": 0, "type": "electric_scooter"}, {"bike_id": "0afd3bb5acecf486468c0b595889617f", "lat": 38.93248766666667, "is_reserved": 0, "fusion_lat": 0.0, "rental_uris": {"android": "https://dc.lft.to/lastmile_qr_scan", "ios": "https://dc.lft.to/lastmile_qr_scan"}, "fusion_lon": 0.0, "name": "0afd3bb5acecf486468c0b595889617f", "lon": -77.032781, "is_disabled": 0, "type": "electric_scooter"},