{"data": {"bikes": [{"lat": 38.91265333333333, "is_disabled": 0, "type": "electric_scooter", "lon": -77.039403, "bike_id": "18274870d79b52cc22d6e4672dadf445", "fusion_lat": 0.0, "name": "18274870d79b52cc22d6e4672dadf445", "is_reserved": 0, "rental_uris": {"android": "https://dc.lft.to/lastmile_qr_scan", "ios": "https://dc.lft.to/lastmile_qr_scan"}, "fusion_lon": 0.0}, {"lat": 38.909750333333335, "is_disabled": 0, "type": "electric_scooter", "lon": -77.0092645, "bike_id": "907bacb81bb543347e2d055efac1003c", "fusion_lat": 0.0, "name": "907bacb81bb543347e2d055efac1003c", "is_reserved": 0, "rental_uris": {"android": "https://dc.lft.to/lastmile_qr_scan", "ios": "https://dc.lft.to/lastmile_qr_scan"}, "fusion_lon": 0.0}, {"lat": 38.889888666666664, "is_disabled": 0, "type": "electric_bike", "lon": -77.071296, "bike_id": "e3c039277e05e1c71495054cc5cb0fb9", "fusion_lat": 0.0, "name": "e3c039277e05e1c71495054cc5cb0fb9", "is_reserved": 0, "rental_uris": {"android": "https://dc.lft.to/lastmile_qr_scan", "ios": "https://dc.lft.to/lastmile_qr_scan"}, "fusion_lon": 0.0}, {"lat": 38.90558716666666, "is_disabled": 0, "type": "electric_scooter", "lon": -77.034104, "bike_id": "22fd326d6358147b36c4e55042602d09", "fusion_lat": 0.0, "name": "22fd326d6358147b36c4e55042602d09", "is_reserved": 0, "rental_uris": {"android": "https://dc.lft.to/lastmile_qr_scan", "ios": "https://dc.lft.to/lastmile_qr_scan"}, "fusion_lon": 0.0}, {"lat": 38.90855883333333, "is_disabled": 0, "type": "electric_scooter", "lon": -77.0241155, "bike_id": "3fa214ad6a1b543e511add1e0b638fda", "fusion_lat": 0.0, "name": "3fa214ad6a1b543e511add1e0b638fda", "is_reserved": 0, "rental_uris": {"android": "https://dc.lft.to/lastmile_qr_scan", "ios": "https://dc.lft.to/lastmile_qr_scan"}, "fusion_lon": 0.0}, {"lat": 38.893410833333334, "is_disabled": 0, "type": "electric_scooter", "lon": -76.9494205, "bike_id": "58230e1293adfbae70b9bd641570616d", "fusion_lat": 0.0, "name": "58230e1293adfbae70b9bd641570616d", "is_reserved": 0, "rental_uris": {"android": "https://dc.lft.to/lastmile_qr_scan", "ios": "https://dc.lft.to/lastmile_qr_scan"}, "fusion_lon": 0.0}, {"lat": 38.917026, "is_disabled": 0, "type": "electric_scooter", "lon": -77.0239445, "bike_id": "b9e2534f76f899ec1ca09fe1f422a9bf", "fusion_lat": 0.0, "name": "b9e2534f76f899ec1ca09fe1f422a9bf", "is_reserved": 0, "rental_uris": {"android": "https://dc.lft.to/lastmile_qr_scan", "ios": "https://dc.lft.to/lastmile_qr_scan"}, "fusion_lon": 0.0}, {"lat": 38.88614966666667, "is_disabled": 0, "type": "electric_scooter", "lon": -77.02170516666666, "bike_id": "28e72c5dd1fc3dfef881937bc36ad56e", "fusion_lat": 0.0, "name": "28e72c5dd1fc3dfef881937bc36ad56e", "is_reserved": 0, "rental_uris": {"android": "https://dc.lft.to/lastmile_qr_scan", "ios": "https://dc.lft.to/lastmile_qr_scan"}, "fusion_lon": 0.0}, {"lat": 38.898489, "is_disabled": 0, "type": "electric_bike", "lon": -76.931997, "bike_id": "cb14e8c421615683e36df320f0717c05", "fusion_lat": 0.0, "name": "cb14e8c421615683e36df320f0717c05", "is_reserved": 0, "rental_uris": {"android": "https://dc.lft.to/lastmile_qr_scan", "ios": "https://dc.lft.to/lastmile_qr_scan"}, "fusion_lon": 0.0}, {"lat": 38.90100833333333, "is_disabled": 0, "type": "electric_scooter", "lon": -77.0591465, "bike_id": "81d51f0f57dee1b37e969d9a55e7f1bd", "fusion_lat": 0.0, "name": "81d51f0f57dee1b37e969d9a55e7f1bd", "is_reserved": 0, "rental_uris": {"android": "https://dc.lft.to/lastmile_qr_scan", "ios": "https://dc.lft.to/lastmile_qr_scan"}, "fusion_lon": 0.0}, {"lat": 38.971927666666666, "is_disabled": 0, "type": "electric_bike", "lon": -77.02723966666667, "bike_id": "31214747c8807750643111a247454a84", "fusion_lat": 0.0, "name": "31214747c8807750643111a247454a84", "is_reserved": 0, "rental_uris": {"android": "https://dc.lft.to/lastmile_qr_scan", "ios": "https://dc.lft.to/lastmile_qr_scan"}, "fusion_lon": 0.0}, {"lat": 38.92421216666666, "is_disabled": 0, "type": "electric_scooter", "lon": -77.05192516666666, "bike_id": "68b1aa3a1835727ec7c8d7309fd238ba", "fusion_lat": 0.0, "name": "68b1aa3a1835727ec7c8d7309fd238ba", "is_reserved": 0, "rental_uris": {"android": "https://dc.lft.to/lastmile_qr_scan", "ios": "https://dc.lft.to/lastmile_qr_scan"}, "fusion_lon": 0.0}, {"lat": 38.927501666666664, "is_disabled": 0, "type": "electric_scooter", "lon": -77.006019, "bike_id": "2bd58e127929d6727cbac44ffa6d9155", "fusion_lat": 0.0, "name": "2bd58e127929d6727cbac44ffa6d9155", "is_reserved": 0, "rental_uris": {"android": "https://dc.lft.to/lastmile_qr_scan", "ios": "https://dc.lft.to/lastmile_qr_scan"}, "fusion_lon": 0.0}, {"lat": 38.911045666666666, "is_disabled": 0, "type": "electric_scooter", "lon": -77.0383385, "bike_id": "83bc0f5dd16f7ce81182ee766451ef10", "fusion_lat": 0.0, "name": "83bc0f5dd16f7ce81182ee766451ef10", "is_reserved": 0, "rental_uris": {"android": "https://dc.lft.to/lastmile_qr_scan", "ios": "https://dc.lft.to/lastmile_qr_scan"}, "fusion_lon": 0.0}, {"lat": 38.89986533333333, "is_disabled": 0, "type": "electric_bike", "lon": -76.98123933333333, "bike_id": "7ed55ff2f0b5db81bf2fead5d7e1d5a2", "fusion_lat": 0.0, "name": "7ed55ff2f0b5db81bf2fead5d7e1d5a2", "is_reserved": 0, "rental_uris": {"android": "https://dc.lft.to/lastmile_qr_scan", "ios": "https://dc.lft.to/lastmile_qr_scan"}, "fusion_lon": 0.0}, {"lat": 38.9126865, "is_disabled": 0, "type": "electric_scooter", "lon": -77.03146816666667, "bike_id": "1afe6bf451d75f5c596072dc3e482125", "fusion_lat": 0.0, "name": "1afe6bf451d75f5c596072dc3e482125", "is_reserved": 0, "rental_uris": {"android": "https://dc.lft.to/lastmile_qr_scan", "ios": "https://dc.lft.to/lastmile_qr_scan"}, "fusion_lon": 0.0}, {"lat": 38.90006066666667, "is_disabled": 0, "type": "electric_scooter", "lon": -76.92224533333334, "bike_id": "4b9977f8541d7ee8db85829c1dbdf672", "fusion_lat": 0.0, "name": "4b9977f8541d7ee8db85829c1dbdf672", "is_reserved": 0, "rental_uris": {"android": "https://dc.lft.to/lastmile_qr_scan", "ios": "https://dc.lft.to/lastmile_qr_scan"}, "fusion_lon": 0.0}, {"lat": 38.924938166666664, "is_disabled": 0, "type": "electric_scooter", "lon": -77.05225733333333, "bike_id": "456e7a8b4fef855e219cad6e65f92a72", "fusion_lat": 0.0, "name": "456e7a8b4fef855e219cad6e65f92a72", "is_reserved": 0, "rental_uris": {"android": "https://dc.lft.to/lastmile_qr_scan", "ios": "https://dc.lft.to/lastmile_qr_scan"}, "fusion_lon": 0.0}, {"lat": 38.9069325, "is_disabled": 0, "type": "electric_scooter", "lon": -77.03528583333333, "bike_id": "c7339185ff0f81ad0764766240a83e63", "fusion_lat": 0.0, "name": "c7339185ff0f81ad0764766240a83e63", "is_reserved": 0, "rental_uris": {"android": "https://dc.lft.to/lastmile_qr_scan", "ios": "https://dc.lft.to/lastmile_qr_scan"}, "fusion_lon": 0.0}, {"lat": 38.9253855, "is_disabled": 0, "type": "electric_scooter", "lon": -77.0524815, "bike_id": "5ae106f46e21ab5e11c01c450c9b334f", "fusion_lat": 0.0, "name": "5ae106f46e21ab5e11c01c450c9b334f", "is_reserved": 0, "rental_uris": {"android": "https://dc.lft.to/lastmile_qr_scan", "ios": "https://dc.lft.to/lastmile_qr_scan"}, "fusion_lon": 0.0}, {"lat": 38.91685833333333, "is_disabled": 0, "type": "electric_scooter", "lon": -77.036444, "bike_id": "97d735644dd2a3f0436297fb1f722c10", "fusion_lat": 0.0, "name": "97d735644dd2a3f0436297fb1f722c10", "is_reserved": 0, "rental_uris": {"android": "https://dc.lft.to/lastmile_qr_scan", "ios": "https://dc.lft.to/lastmile_qr_scan"}, "fusion_lon": 0.0}, {"lat": 38.939575, "is_disabled": 0, "type": "electric_scooter", "lon": -77.02752666666666, "bike_id": "09180babcd549212d6be06ab5311d168", "fusion_lat": 0.0, "name": "09180babcd549212d6be06ab5311d168", "is_reserved": 0, "rental_uris": {"android": "https://dc.lft.to/lastmile_qr_scan", "ios": "https://dc.lft.to/lastmile_qr_scan"}, "fusion_lon": 0.0}, {"lat": 38.87374483333333, "is_disabled": 0, "type": "electric_scooter", "lon": -77.0020845, "bike_id": "34c28ca04e4e7b8cb7a3144b4c670691", "fusion_lat": 0.0, "name": "34c28ca04e4e7b8cb7a3144b4c670691", "is_reserved": 0, "rental_uris": {"android": "https://dc.lft.to/lastmile_qr_scan", "ios": "https://dc.lft.to/lastmile_qr_scan"}, "fusion_lon": 0.0}, {"lat": 38.89841583333333, "is_disabled": 0, "type": "electric_scooter", "lon": -77.0291465, "bike_id": "4f299066c28d9870af52c05294c62726", "fusion_lat": 0.0, "name": "4f299066c28d9870af52c05294c62726", "is_reserved": 0, "rental_uris": {"android": "https://dc.lft.to/lastmile_qr_scan", "ios": "https://dc.lft.to/lastmile_qr_scan"}, "fusion_lon": 0.0}, {"lat": 38.90588233333333, "is_disabled": 0, "type": "electric_scooter", "lon": -77.05817133333333, "bike_id": "dab171ce702ea8562bc7238803e2e399", "fusion_lat": 0.0, "name": "dab171ce702ea8562bc7238803e2e399", "is_reserved": 0, "rental_uris": {"android": "https://dc.lft.to/lastmile_qr_scan", "ios": "https://dc.lft.to/lastmile_qr_scan"}, "fusion_lon": 0.0}, {"lat": 38.899140833333334, "is_disabled": 0, "type": "electric_scooter", "lon": -76.933806, "bike_id": "15619843638e46a27cc2b45bd074f589", "fusion_lat": 0.0, "name": "15619843638e46a27cc2b45bd074f589", "is_reserved": 0, "rental_uris": {"android": "https://dc.lft.to/lastmile_qr_scan", "ios": "https://dc.lft.to/lastmile_qr_scan"}, "fusion_lon": 0.0}, {"lat": 38.8765715, "is_disabled": 0, "type": "electric_scooter", "lon": -77.00565316666666, "bike_id": "0ed4024d968472f6f4bd2cb461fc8eb9", "fusion_lat": 0.0, "name": "0ed4024d968472f6f4bd2cb461fc8eb9", "is_reserved": 0, "rental_uris": {"android": "https://dc.lft.to/lastmile_qr_scan", "ios": "https://dc.lft.to/lastmile_qr_scan"}, "fusion_lon": 0.0}, {"lat": 38.90734966666667, "is_disabled": 0, "type": "electric_scooter", "lon": -77.0422425, "bike_id": "244481f5bb875fc25e099ef6987a1421", "fusion_lat": 0.0, "name": "244481f5bb875fc25e099ef6987a1421", "is_reserved": 0, "rental_uris": {"android": "https://dc.lft.to/lastmile_qr_scan", "ios": "https://dc.lft.to/lastmile_qr_scan"}, "fusion_lon": 0.0}, {"lat": 38.84290416666666, "is_disabled": 0, "type": "electric_scooter", "lon": -76.99955566666667, "bike_id": "aa099b2f369988380dc2ddb30e2a4d4a", "fusion_lat": 0.0, "name": "aa099b2f369988380dc2ddb30e2a4d4a", "is_reserved": 0, "rental_uris": {"android": "https://dc.lft.to/lastmile_qr_scan", "ios": "https://dc.lft.to/lastmile_qr_scan"}, "fusion_lon": 0.0}, {"lat": 38.863448, "is_disabled": 0, "type": "electric_scooter", "lon": -76.9900545, "bike_id": "7253aeabfe07959d2fcfa27c764147d7", "fusion_lat": 0.0, "name": "7253aeabfe07959d2fcfa27c764147d7", "is_reserved": 0, "rental_uris": {"android": "https://dc.lft.to/lastmile_qr_scan", "ios": "https://dc.lft.to/lastmile_qr_scan"}, "fusion_lon": 0.0}, {"lat": 38.912692666666665, "is_disabled": 0, "type": "electric_scooter", "lon": -77.013082, "bike_id": "cb9d26ed6e0fb839742d3de0c3a1a24d", "fusion_lat": 0.0, "name": "cb9d26ed6e0fb839742d3de0c3a1a24d", "is_reserved": 0, "rental_uris": {"android": "https://dc.lft.to/lastmile_qr_scan", "ios": "https://dc.lft.to/lastmile_qr_scan"}, "fusion_lon": 0.0}, {"lat": 38.955475166666666, "is_disabled": 0, "type": "electric_bike", "lon": -76.93545166666667, "bike_id": "855080b180f63e1090eff9529dde0649", "fusion_lat": 0.0, "name": "855080b180f63e1090eff9529dde0649", "is_reserved": 0, "rental_uris": {"android": "https://dc.lft.to/lastmile_qr_scan", "ios": "https://dc.lft.to/lastmile_qr_scan"}, "fusion_lon": 0.0}, {"lat": 38.91924183333333, "is_disabled": 0, "type": "electric_scooter", "lon": -77.024147, "bike_id": "6c6ddbfcebef37e81b836449e3e0c95e", "fusion_lat": 0.0, "name": "6c6ddbfcebef37e81b836449e3e0c95e", "is_reserved": 0, "rental_uris": {"android": "https://dc.lft.to/lastmile_qr_scan", "ios": "https://dc.lft.to/lastmile_qr_scan"}, "fusion_lon": 0.0}, {"lat": 38.92672533333333, "is_disabled": 0, "type": "electric_scooter", "lon": -77.05126383333334, "bike_id": "ed97b82061b41efed0d50de8f6c044c2", "fusion_lat": 0.0, "name": "ed97b82061b41efed0d50de8f6c044c2", "is_reserved": 0, "rental_uris": {"android": "https://dc.lft.to/lastmile_qr_scan", "ios": "https://dc.lft.to/lastmile_qr_scan"}, "fusion_lon": 0.0}, {"lat": 38.89873683333333, "is_disabled": 0, "type": "electric_bike", "lon": -77.02144516666667, "bike_id": "cf5adbeb8f6d3ea2cd4a84f8747374cf", "fusion_lat": 0.0, "name": "cf5adbeb8f6d3ea2cd4a84f8747374cf", "is_reserved": 0, "rental_uris": {"android": "https://dc.lft.to/lastmile_qr_scan", "ios": "https://dc.lft.to/lastmile_qr_scan"}, "fusion_lon": 0.0}, {"lat": 38.95881966666666, "is_disabled": 0, "type": "electric_scooter", "lon": -77.02731683333333, "bike_id": "7557aed315d351b56643e0238e999b53", "fusion_lat": 0.0, "name": "7557aed315d351b56643e0238e999b53", "is_reserved": 0, "rental_uris": {"android": "https://dc.lft.to/lastmile_qr_scan", "ios": "https://dc.lft.to/lastmile_qr_scan"}, "fusion_lon": 0.0}, {"lat": 38.93569466666667, "is_disabled": 0, "type": "electric_scooter", "lon": -77.03262766666667, "bike_id": "1652d576a6b924f69007e6a0060f7ea7", "fusion_lat": 0.0, "name": "1652d576a6b924f69007e6a0060f7ea7", "is_reserved": 0, "rental_uris": {"android": "https://dc.lft.to/lastmile_qr_scan", "ios": "https://dc.lft.to/lastmile_qr_scan"}, "fusion_lon": 0.0}, {"lat": 38.90469816666667, "is_disabled": 0, "type": "electric_scooter", "lon": -77.0573425, "bike_id": "4d9afed79861f991da5ace1407450604", "fusion_lat": 0.0, "name": "4d9afed79861f991da5ace1407450604", "is_reserved": 0, "rental_uris": {"android": "https://dc.lft.to/lastmile_qr_scan", "ios": "https://dc.lft.to/lastmile_qr_scan"}, "fusion_lon": 0.0}, {"lat": 38.93236783333333, "is_disabled": 0, "type": "electric_scooter", "lon": -77.04671183333333, "bike_id": "9a70febad7e9cac36f6c01493cbe951a", "fusion_lat": 0.0, "name": "9a70febad7e9cac36f6c01493cbe951a", "is_reserved": 0, "rental_uris": {"android": "https://dc.lft.to/lastmile_qr_scan", "ios": "https://dc.lft.to/lastmile_qr_scan"}, "fusion_lon": 0.0}, {"lat": 38.86270116666667, "is_disabled": 0, "type": "electric_scooter", "lon": -76.9924865, "bike_id": "1fc445b7985575bd4930dfb8cd3c6453", "fusion_lat": 0.0, "name": "1fc445b7985575bd4930dfb8cd3c6453", "is_reserved": 0, "rental_uris": {"android": "https://dc.lft.to/lastmile_qr_scan", "ios": "https://dc.lft.to/lastmile_qr_scan"}, "fusion_lon": 0.0}, {"lat": 38.91370883333333, "is_disabled": 0, "type": "electric_scooter", "lon": -77.04577183333333, "bike_id": "d92109f897a886aad9e6d06d09e6bc45", "fusion_lat": 0.0, "name": "d92109f897a886aad9e6d06d09e6bc45", "is_reserved": 0, "rental_uris": {"android": "https://dc.lft.to/lastmile_qr_scan", "ios": "https://dc.lft.to/lastmile_qr_scan"}, "fusion_lon": 0.0}, {"lat": 38.896079, "is_disabled": 0, "type": "electric_scooter", "lon": -77.00928, "bike_id": "af3aa322a5aeb928e9d6400a0590bc46", "fusion_lat": 0.0, "name": "af3aa322a5aeb928e9d6400a0590bc46", "is_reserved": 0, "rental_uris": {"android": "https://dc.lft.to/lastmile_qr_scan", "ios": "https://dc.lft.to/lastmile_qr_scan"}, "fusion_lon": 0.0}, {"lat": 38.921692666666665, "is_disabled": 0, "type": "electric_scooter", "lon": -77.04251283333333, "bike_id": "99b9a822e502d69c1014fa2f07a1a30d", "fusion_lat": 0.0, "name": "99b9a822e502d69c1014fa2f07a1a30d", "is_reserved": 0, "rental_uris": {"android": "https://dc.lft.to/lastmile_qr_scan", "ios": "https://dc.lft.to/lastmile_qr_scan"}, "fusion_lon": 0.0}, {"lat": 38.902285666666664, "is_disabled": 0, "type": "electric_scooter", "lon": -77.01915916666667, "bike_id": "30f9e7aede8b1f643afce3377eda4e61", "fusion_lat": 0.0, "name": "30f9e7aede8b1f643afce3377eda4e61", "is_reserved": 0, "rental_uris": {"android": "https://dc.lft.to/lastmile_qr_scan", "ios": "https://dc.lft.to/lastmile_qr_scan"}, "fusion_lon": 0.0}, {"lat": 38.93700233333333, "is_disabled": 0, "type": "electric_scooter", "lon": -77.023956, "bike_id": "486cab1f9b2a5f347004efd648d85285", "fusion_lat": 0.0, "name": "486cab1f9b2a5f347004efd648d85285", "is_reserved": 0, "rental_uris": {"android": "https://dc.lft.to/lastmile_qr_scan", "ios": "https://dc.lft.to/lastmile_qr_scan"}, "fusion_lon": 0.0}, {"lat": 38.90892766666666, "is_disabled": 0, "type": "electric_scooter", "lon": -77.04308716666667, "bike_id": "ff6c1ea4cb892c1427970cdb2eb85d25", "fusion_lat": 0.0, "name": "ff6c1ea4cb892c1427970cdb2eb85d25", "is_reserved": 0, "rental_uris": {"android": "https://dc.lft.to/lastmile_qr_scan", "ios": "https://dc.lft.to/lastmile_qr_scan"}, "fusion_lon": 0.0}, {"lat": 38.9411865, "is_disabled": 0, "type": "electric_scooter", "lon": -77.0234615, "bike_id": "b9ada107cfe9a2d10adf6227dc7cba51", "fusion_lat": 0.0, "name": "b9ada107cfe9a2d10adf6227dc7cba51", "is_reserved": 0, "rental_uris": {"android": "https://dc.lft.to/lastmile_qr_scan", "ios": "https://dc.lft.to/lastmile_qr_scan"}, "fusion_lon": 0.0}, {"lat": 38.926436833333334, "is_disabled": 0, "type": "electric_scooter", "lon": -77.03566933333333, "bike_id": "935b192b90370dda297ad284eb918311", "fusion_lat": 0.0, "name": "935b192b90370dda297ad284eb918311", "is_reserved": 0, "rental_uris": {"android": "https://dc.lft.to/lastmile_qr_scan", "ios": "https://dc.lft.to/lastmile_qr_scan"}, "fusion_lon": 0.0}, {"lat": 38.91710066666667, "is_disabled": 0, "type": "electric_scooter", "lon": -77.03867416666667, "bike_id": "a3a01a8f6684d028d75e2bd7d716b5aa", "fusion_lat": 0.0, "name": "a3a01a8f6684d028d75e2bd7d716b5aa", "is_reserved": 0, "rental_uris": {"android": "https://dc.lft.to/lastmile_qr_scan", "ios": "https://dc.lft.to/lastmile_qr_scan"}, "fusion_lon": 0.0}, {"lat": 38.892472166666664, "is_disabled": 0, "type": "electric_scooter", "lon": -77.0200735, "bike_id": "f60bf3d4127f0778c16f4e0521db3dad", "fusion_lat": 0.0, "name": "f60bf3d4127f0778c16f4e0521db3dad", "is_reserved": 0, "rental_uris": {"android": "https://dc.lft.to/lastmile_qr_scan", "ios": "https://dc.lft.to/lastmile_qr_scan"}, "fusion_lon": 0.0}, {"lat": 38.90472583333333, "is_disabled": 0, "type": "electric_scooter", "lon": -77.0079225, "bike_id": "7b64c63324b10d9a5b25577ec5b5d24a", "fusion_lat": 0.0, "name": "7b64c63324b10d9a5b25577ec5b5d24a", "is_reserved": 0, "rental_uris": {"android": "https://dc.lft.to/lastmile_qr_scan", "ios": "https://dc.lft.to/lastmile_qr_scan"}, "fusion_lon": 0.0}, {"lat": 38.91051483333333, "is_disabled": 0, "type": "electric_scooter", "lon": -77.0458405, "bike_id": "65668020fa8c526df7d560a5320cf13b", "fusion_lat": 0.0, "name": "65668020fa8c526df7d560a5320cf13b", "is_reserved": 0, "rental_uris": {"android": "https://dc.lft.to/lastmile_qr_scan", "ios": "https://dc.lft.to/lastmile_qr_scan"}, "fusion_lon": 0.0}, {"lat": 38.93875333333333, "is_disabled": 0, "type": "electric_scooter", "lon": -77.03225233333333, "bike_id": "a6173c2a86d572b894c7530e1f233bd4", "fusion_lat": 0.0, "name": "a6173c2a86d572b894c7530e1f233bd4", "is_reserved": 0, "rental_uris": {"android": "https://dc.lft.to/lastmile_qr_scan", "ios": "https://dc.lft.to/lastmile_qr_scan"}, "fusion_lon": 0.0}, {"lat": 38.90577733333333, "is_disabled": 0, "type": "electric_scooter", "lon": -77.008924, "bike_id": "60d689f0f7094897618fff5e87e323f7", "fusion_lat": 0.0, "name": "60d689f0f7094897618fff5e87e323f7", "is_reserved": 0, "rental_uris": {"android": "https://dc.lft.to/lastmile_qr_scan", "ios": "https://dc.lft.to/lastmile_qr_scan"}, "fusion_lon": 0.0}, {"lat": 38.92135066666667, "is_disabled": 0, "type": "electric_scooter", "lon": -77.04136266666667, "bike_id": "5580ef73b53d5290f750cda61a17e8c3", "fusion_lat": 0.0, "name": "5580ef73b53d5290f750cda61a17e8c3", "is_reserved": 0, "rental_uris": {"android": "https://dc.lft.to/lastmile_qr_scan", "ios": "https://dc.lft.to/lastmile_qr_scan"}, "fusion_lon": 0.0}, {"lat": 38.9001145, "is_disabled": 0, "type": "electric_scooter", "lon": -76.99878516666666, "bike_id": "55df91ee43a17797f7984e38acddf8a2", "fusion_lat": 0.0, "name": "55df91ee43a17797f7984e38acddf8a2", "is_reserved": 0, "rental_uris": {"android": "https://dc.lft.to/lastmile_qr_scan", "ios": "https://dc.lft.to/lastmile_qr_scan"}, "fusion_lon": 0.0}, {"lat": 38.901497166666665, "is_disabled": 0, "type": "electric_scooter", "lon": -77.04163033333333, "bike_id": "da8efd5bfc20d643ab272d68e3105ff7", "fusion_lat": 0.0, "name": "da8efd5bfc20d643ab272d68e3105ff7", "is_reserved": 0, "rental_uris": {"android": "https://dc.lft.to/lastmile_qr_scan", "ios": "https://dc.lft.to/lastmile_qr_scan"}, "fusion_lon": 0.0}, {"lat": 38.89615283333333, "is_disabled": 0, "type": "electric_scooter", "lon": -76.95604966666667, "bike_id": "4fc908ae4f3f15597494211d88b505d9", "fusion_lat": 0.0, "name": "4fc908ae4f3f15597494211d88b505d9", "is_reserved": 0, "rental_uris": {"android": "https://dc.lft.to/lastmile_qr_scan", "ios": "https://dc.lft.to/lastmile_qr_scan"}, "fusion_lon": 0.0}, {"lat": 38.91885216666667, "is_disabled": 0, "type": "electric_scooter", "lon": -77.03900433333334, "bike_id": "47d585f8162c3a26ee3c00af6b1e08fd", "fusion_lat": 0.0, "name": "47d585f8162c3a26ee3c00af6b1e08fd", "is_reserved": 0, "rental_uris": {"android": "https://dc.lft.to/lastmile_qr_scan", "ios": "https://dc.lft.to/lastmile_qr_scan"}, "fusion_lon": 0.0}, {"lat": 38.933417166666665, "is_disabled": 0, "type": "electric_scooter", "lon": -77.05706333333333, "bike_id": "15cfe3296612b186134b11b7524356ee", "fusion_lat": 0.0, "name": "15cfe3296612b186134b11b7524356ee", "is_reserved": 0, "rental_uris": {"android": "https://dc.lft.to/lastmile_qr_scan", "ios": "https://dc.lft.to/lastmile_qr_scan"}, "fusion_lon": 0.0}, {"lat": 38.886480166666665, "is_disabled": 0, "type": "electric_bike", "lon": -77.1623335, "bike_id": "8bbb0c3c2f8b529dca12a71dc377f56b", "fusion_lat": 0.0, "name": "8bbb0c3c2f8b529dca12a71dc377f56b", "is_reserved": 0, "rental_uris": {"android": "https://dc.lft.to/lastmile_qr_scan", "ios": "https://dc.lft.to/lastmile_qr_scan"}, "fusion_lon": 0.0}, {"lat": 38.92148316666667, "is_disabled": 0, "type": "electric_scooter", "lon": -77.03508166666667, "bike_id": "c4eac43a0c021fb0911c3ff401b5d982", "fusion_lat": 0.0, "name": "c4eac43a0c021fb0911c3ff401b5d982", "is_reserved": 0, "rental_uris": {"android": "https://dc.lft.to/lastmile_qr_scan", "ios": "https://dc.lft.to/lastmile_qr_scan"}, "fusion_lon": 0.0}, {"lat": 39.00011933333333, "is_disabled": 0, "type": "electric_bike", "lon": -76.91083166666667, "bike_id": "4c8e22e3957195ec958de5ee845c083b", "fusion_lat": 0.0, "name": "4c8e22e3957195ec958de5ee845c083b", "is_reserved": 0, "rental_uris": {"android": "https://dc.lft.to/lastmile_qr_scan", "ios": "https://dc.lft.to/lastmile_qr_scan"}, "fusion_lon": 0.0}, {"lat": 38.893051, "is_disabled": 0, "type": "electric_bike", "lon": -77.03366383333334, "bike_id": "a4e6309ff421bd452b1ab71d3321f6ad", "fusion_lat": 0.0, "name": "a4e6309ff421bd452b1ab71d3321f6ad", "is_reserved": 0, "rental_uris": {"android": "https://dc.lft.to/lastmile_qr_scan", "ios": "https://dc.lft.to/lastmile_qr_scan"}, "fusion_lon": 0.0}, {"lat": 38.922915333333336, "is_disabled": 0, "type": "electric_scooter", "lon": -77.0242925, "bike_id": "196043c7ae268259a36751fbe8f56555", "fusion_lat": 0.0, "name": "196043c7ae268259a36751fbe8f56555", "is_reserved": 0, "rental_uris": {"android": "https://dc.lft.to/lastmile_qr_scan", "ios": "https://dc.lft.to/lastmile_qr_scan"}, "fusion_lon": 0.0}, {"lat": 38.901483999999996, "is_disabled": 0, "type": "electric_scooter", "lon": -77.04156616666667, "bike_id": "5d4dac1b5a3a18591a11b50c456c31f9", "fusion_lat": 0.0, "name": "5d4dac1b5a3a18591a11b50c456c31f9", "is_reserved": 0, "rental_uris": {"android": "https://dc.lft.to/lastmile_qr_scan", "ios": "https://dc.lft.to/lastmile_qr_scan"}, "fusion_lon": 0.0}, {"lat": 38.863852666666666, "is_disabled": 0, "type": "electric_bike", "lon": -76.98992416666667, "bike_id": "87b7b57e44da192a74c55e6e9aa0d4a9", "fusion_lat": 0.0, "name": "87b7b57e44da192a74c55e6e9aa0d4a9", "is_reserved": 0, "rental_uris": {"android": "https://dc.lft.to/lastmile_qr_scan", "ios": "https://dc.lft.to/lastmile_qr_scan"}, "fusion_lon": 0.0}, {"lat": 38.951941833333336, "is_disabled": 0, "type": "electric_bike", "lon": -76.96722066666666, "bike_id": "3b67747da955b0577c8466f735cb7a07", "fusion_lat": 0.0, "name": "3b67747da955b0577c8466f735cb7a07", "is_reserved": 0, "rental_uris": {"android": "https://dc.lft.to/lastmile_qr_scan", "ios": "https://dc.lft.to/lastmile_qr_scan"}, "fusion_lon": 0.0}, {"lat": 38.903573, "is_disabled": 0, "type": "electric_scooter", "lon": -77.01094116666667, "bike_id": "ca53a67bfbaf526a01ed687eb6dd94a3", "fusion_lat": 0.0, "name": "ca53a67bfbaf526a01ed687eb6dd94a3", "is_reserved": 0, "rental_uris": {"android": "https://dc.lft.to/lastmile_qr_scan", "ios": "https://dc.lft.to/lastmile_qr_scan"}, "fusion_lon": 0.0}, {"lat": 38.862309, "is_disabled": 0, "type": "electric_scooter", "lon": -76.9955105, "bike_id": "b5d7ed2a34bbf7320778de385a6dba52", "fusion_lat": 0.0, "name": "b5d7ed2a34bbf7320778de385a6dba52", "is_reserved": 0, "rental_uris": {"android": "https://dc.lft.to/lastmile_qr_scan", "ios": "https://dc.lft.to/lastmile_qr_scan"}, "fusion_lon": 0.0}, {"lat": 38.9067675, "is_disabled": 0, "type": "electric_scooter", "lon": -77.06357483333333, "bike_id": "95fafd2be70f502cf363c24d6611e1da", "fusion_lat": 0.0, "name": "95fafd2be70f502cf363c24d6611e1da", "is_reserved": 0, "rental_uris": {"android": "https://dc.lft.to/lastmile_qr_scan", "ios": "https://dc.lft.to/lastmile_qr_scan"}, "fusion_lon": 0.0}, {"lat": 38.92786016666667, "is_disabled": 0, "type": "electric_scooter", "lon": -77.055375, "bike_id": "710c5e9eddaaacd9fc1b9cf10dbc34bf", "fusion_lat": 0.0, "name": "710c5e9eddaaacd9fc1b9cf10dbc34bf", "is_reserved": 0, "rental_uris": {"android": "https://dc.lft.to/lastmile_qr_scan", "ios": "https://dc.lft.to/lastmile_qr_scan"}, "fusion_lon": 0.0}, {"lat": 38.892316, "is_disabled": 0, "type": "electric_scooter", "lon": -77.05008366666667, "bike_id": "c0bb2e3fbde97d45516307de2976ed0e", "fusion_lat": 0.0, "name": "c0bb2e3fbde97d45516307de2976ed0e", "is_reserved": 0, "rental_uris": {"android": "https://dc.lft.to/lastmile_qr_scan", "ios": "https://dc.lft.to/lastmile_qr_scan"}, "fusion_lon": 0.0}, {"lat": 38.935080666666664, "is_disabled": 0, "type": "electric_scooter", "lon": -77.03353733333333, "bike_id": "8347c66f7820a560457b38022e25e319", "fusion_lat": 0.0, "name": "8347c66f7820a560457b38022e25e319", "is_reserved": 0, "rental_uris": {"android": "https://dc.lft.to/lastmile_qr_scan", "ios": "https://dc.lft.to/lastmile_qr_scan"}, "fusion_lon": 0.0}, {"lat": 38.8532375, "is_disabled": 0, "type": "electric_bike", "lon": -76.98006933333333, "bike_id": "d480e1606aa07e5e6a6707e728461b10", "fusion_lat": 0.0, "name": "d480e1606aa07e5e6a6707e728461b10", "is_reserved": 0, "rental_uris": {"android": "https://dc.lft.to/lastmile_qr_scan", "ios": "https://dc.lft.to/lastmile_qr_scan"}, "fusion_lon": 0.0}, {"lat": 38.92150066666667, "is_disabled": 0, "type": "electric_scooter", "lon": -77.035242, "bike_id": "deca8e4c60caaaacabdd8c0ec59d433d", "fusion_lat": 0.0, "name": "deca8e4c60caaaacabdd8c0ec59d433d", "is_reserved": 0, "rental_uris": {"android": "https://dc.lft.to/lastmile_qr_scan", "ios": "https://dc.lft.to/lastmile_qr_scan"}, "fusion_lon": 0.0}, {"lat": 38.92274783333333, "is_disabled": 0, "type": "electric_scooter", "lon": -77.02246766666667, "bike_id": "896a89e183c854a7b0f92708edf996f9", "fusion_lat": 0.0, "name": "896a89e183c854a7b0f92708edf996f9", "is_reserved": 0, "rental_uris": {"android": "https://dc.lft.to/lastmile_qr_scan", "ios": "https://dc.lft.to/lastmile_qr_scan"}, "fusion_lon": 0.0}, {"lat": 38.909598333333335, "is_disabled": 0, "type": "electric_scooter", "lon": -77.04796566666667, "bike_id": "7d57756273c50abdc656adaae1b5290d", "fusion_lat": 0.0, "name": "7d57756273c50abdc656adaae1b5290d", "is_reserved": 0, "rental_uris": {"android": "https://dc.lft.to/lastmile_qr_scan", "ios": "https://dc.lft.to/lastmile_qr_scan"}, "fusion_lon": 0.0}, {"lat": 38.919665, "is_disabled": 0, "type": "electric_scooter", "lon": -77.01359466666666, "bike_id": "a80dfc5594b9e2eeace84931420ba1f2", "fusion_lat": 0.0, "name": "a80dfc5594b9e2eeace84931420ba1f2", "is_reserved": 0, "rental_uris": {"android": "https://dc.lft.to/lastmile_qr_scan", "ios": "https://dc.lft.to/lastmile_qr_scan"}, "fusion_lon": 0.0}, {"lat": 39.05202283333333, "is_disabled": 0, "type": "electric_bike", "lon": -77.10923366666667, "bike_id": "ec30c00888412c6b3f196190356ca0d6", "fusion_lat": 0.0, "name": "ec30c00888412c6b3f196190356ca0d6", "is_reserved": 0, "rental_uris": {"android": "https://dc.lft.to/lastmile_qr_scan", "ios": "https://dc.lft.to/lastmile_qr_scan"}, "fusion_lon": 0.0}, {"lat": 38.899633, "is_disabled": 0, "type": "electric_scooter", "lon": -76.92650233333333, "bike_id": "fba719702d6deef75b71d4969aeac131", "fusion_lat": 0.0, "name": "fba719702d6deef75b71d4969aeac131", "is_reserved": 0, "rental_uris": {"android": "https://dc.lft.to/lastmile_qr_scan", "ios": "https://dc.lft.to/lastmile_qr_scan"}, "fusion_lon": 0.0}, {"lat": 38.908206666666665, "is_disabled": 0, "type": "electric_scooter", "lon": -77.0447185, "bike_id": "dcf3c9311af34c0efd66b8660e7eb49f", "fusion_lat": 0.0, "name": "dcf3c9311af34c0efd66b8660e7eb49f", "is_reserved": 0, "rental_uris": {"android": "https://dc.lft.to/lastmile_qr_scan", "ios": "https://dc.lft.to/lastmile_qr_scan"}, "fusion_lon": 0.0}, {"lat": 38.917485666666664, "is_disabled": 0, "type": "electric_scooter", "lon": -77.0367, "bike_id": "d41ed45e6e3185e83d7ac55479480424", "fusion_lat": 0.0, "name": "d41ed45e6e3185e83d7ac55479480424", "is_reserved": 0, "rental_uris": {"android": "https://dc.lft.to/lastmile_qr_scan", "ios": "https://dc.lft.to/lastmile_qr_scan"}, "fusion_lon": 0.0}, {"lat": 38.9006695, "is_disabled": 0, "type": "electric_scooter", "lon": -77.025916, "bike_id": "6f490a4e966e75acea08fca56400ef10", "fusion_lat": 0.0, "name": "6f490a4e966e75acea08fca56400ef10", "is_reserved": 0, "rental_uris": {"android": "https://dc.lft.to/lastmile_qr_scan", "ios": "https://dc.lft.to/lastmile_qr_scan"}, "fusion_lon": 0.0}, {"lat": 38.90012683333333, "is_disabled": 0, "type": "electric_scooter", "lon": -77.0450425, "bike_id": "ea168d1d7ff3c73d7e6485adeb7ea752", "fusion_lat": 0.0, "name": "ea168d1d7ff3c73d7e6485adeb7ea752", "is_reserved": 0, "rental_uris": {"android": "https://dc.lft.to/lastmile_qr_scan", "ios": "https://dc.lft.to/lastmile_qr_scan"}, "fusion_lon": 0.0}, {"lat": 38.90394516666667, "is_disabled": 0, "type": "electric_scooter", "lon": -77.05369316666666, "bike_id": "890cfb857f1e7ebd4c44a344eac83b1e", "fusion_lat": 0.0, "name": "890cfb857f1e7ebd4c44a344eac83b1e", "is_reserved": 0, "rental_uris": {"android": "https://dc.lft.to/lastmile_qr_scan", "ios": "https://dc.lft.to/lastmile_qr_scan"}, "fusion_lon": 0.0}, {"lat": 38.915487666666664, "is_disabled": 0, "type": "electric_scooter", "lon": -77.03247783333333, "bike_id": "3ac9a57d9dbb5e000aa78348f7db4c5c", "fusion_lat": 0.0, "name": "3ac9a57d9dbb5e000aa78348f7db4c5c", "is_reserved": 0, "rental_uris": {"android": "https://dc.lft.to/lastmile_qr_scan", "ios": "https://dc.lft.to/lastmile_qr_scan"}, "fusion_lon": 0.0}, {"lat": 38.929471, "is_disabled": 0, "type": "electric_scooter", "lon": -77.01893133333333, "bike_id": "1a16eb4b8380283d9a6df23a87ed8b96", "fusion_lat": 0.0, "name": "1a16eb4b8380283d9a6df23a87ed8b96", "is_reserved": 0, "rental_uris": {"android": "https://dc.lft.to/lastmile_qr_scan", "ios": "https://dc.lft.to/lastmile_qr_scan"}, "fusion_lon": 0.0}, {"lat": 38.91934833333333, "is_disabled": 0, "type": "electric_scooter", "lon": -77.03128866666667, "bike_id": "3faaab36a16668b2fbbbdf34ecc77f61", "fusion_lat": 0.0, "name": "3faaab36a16668b2fbbbdf34ecc77f61", "is_reserved": 0, "rental_uris": {"android": "https://dc.lft.to/lastmile_qr_scan", "ios": "https://dc.lft.to/lastmile_qr_scan"}, "fusion_lon": 0.0}, {"lat": 38.91697416666667, "is_disabled": 0, "type": "electric_scooter", "lon": -77.030507, "bike_id": "016c812df8988e8cea59643e26860fde", "fusion_lat": 0.0, "name": "016c812df8988e8cea59643e26860fde", "is_reserved": 0, "rental_uris": {"android": "https://dc.lft.to/lastmile_qr_scan", "ios": "https://dc.lft.to/lastmile_qr_scan"}, "fusion_lon": 0.0}, {"lat": 38.92841466666667, "is_disabled": 0, "type": "electric_scooter", "lon": -77.0542615, "bike_id": "1e808fd34c811a3abcf3c82cf2cc2d96", "fusion_lat": 0.0, "name": "1e808fd34c811a3abcf3c82cf2cc2d96", "is_reserved": 0, "rental_uris": {"android": "https://dc.lft.to/lastmile_qr_scan", "ios": "https://dc.lft.to/lastmile_qr_scan"}, "fusion_lon": 0.0}, {"lat": 38.881347166666664, "is_disabled": 0, "type": "electric_scooter", "lon": -76.98724683333333, "bike_id": "3182287d28367c23035239a86dd4e3d3", "fusion_lat": 0.0, "name": "3182287d28367c23035239a86dd4e3d3", "is_reserved": 0, "rental_uris": {"android": "https://dc.lft.to/lastmile_qr_scan", "ios": "https://dc.lft.to/lastmile_qr_scan"}, "fusion_lon": 0.0}, {"lat": 38.9098535, "is_disabled": 0, "type": "electric_scooter", "lon": -76.99742583333334, "bike_id": "dd00d533214109c4f5918e1615f47438", "fusion_lat": 0.0, "name": "dd00d533214109c4f5918e1615f47438", "is_reserved": 0, "rental_uris": {"android": "https://dc.lft.to/lastmile_qr_scan", "ios": "https://dc.lft.to/lastmile_qr_scan"}, "fusion_lon": 0.0}, {"lat": 38.919374, "is_disabled": 0, "type": "electric_scooter", "lon": -77.041751, "bike_id": "ac701f66b52ef4e6867b358695170673", "fusion_lat": 0.0, "name": "ac701f66b52ef4e6867b358695170673", "is_reserved": 0, "rental_uris": {"android": "https://dc.lft.to/lastmile_qr_scan", "ios": "https://dc.lft.to/lastmile_qr_scan"}, "fusion_lon": 0.0}, {"lat": 38.931358333333336, "is_disabled": 0, "type": "electric_scooter", "lon": -77.02134583333333, "bike_id": "8d966c4a5bd2a96482d959cad4c67338", "fusion_lat": 0.0, "name": "8d966c4a5bd2a96482d959cad4c67338", "is_reserved": 0, "rental_uris": {"android": "https://dc.lft.to/lastmile_qr_scan", "ios": "https://dc.lft.to/lastmile_qr_scan"}, "fusion_lon": 0.0}, {"lat": 38.9064115, "is_disabled": 0, "type": "electric_scooter", "lon": -77.00838216666666, "bike_id": "1a59dc7dc458cda6e96f560798a72a2b", "fusion_lat": 0.0, "name": "1a59dc7dc458cda6e96f560798a72a2b", "is_reserved": 0, "rental_uris": {"android": "https://dc.lft.to/lastmile_qr_scan", "ios": "https://dc.lft.to/lastmile_qr_scan"}, "fusion_lon": 0.0}, {"lat": 38.91671183333333, "is_disabled": 0, "type": "electric_scooter", "lon": -77.02901483333333, "bike_id": "d5589386736ad522d496756032061bbe", "fusion_lat": 0.0, "name": "d5589386736ad522d496756032061bbe", "is_reserved": 0, "rental_uris": {"android": "https://dc.lft.to/lastmile_qr_scan", "ios": "https://dc.lft.to/lastmile_qr_scan"}, "fusion_lon": 0.0}, {"lat": 38.866587833333334, "is_disabled": 0, "type": "electric_scooter", "lon": -76.98900616666667, "bike_id": "f023174aee7e4c833fee45d60ac7a9f9", "fusion_lat": 0.0, "name": "f023174aee7e4c833fee45d60ac7a9f9", "is_reserved": 0, "rental_uris": {"android": "https://dc.lft.to/lastmile_qr_scan", "ios": "https://dc.lft.to/lastmile_qr_scan"}, "fusion_lon": 0.0}, {"lat": 38.896526, "is_disabled": 0, "type": "electric_scooter", "lon": -77.04684516666667, "bike_id": "5311efefa9683cd06d47d382ae385fae", "fusion_lat": 0.0, "name": "5311efefa9683cd06d47d382ae385fae", "is_reserved": 0, "rental_uris": {"android": "https://dc.lft.to/lastmile_qr_scan", "ios": "https://dc.lft.to/lastmile_qr_scan"}, "fusion_lon": 0.0}, {"lat": 38.90679983333333, "is_disabled": 0, "type": "electric_scooter", "lon": -77.06280116666667, "bike_id": "a8689ddfeaa73502afed1a25b172fd42", "fusion_lat": 0.0, "name": "a8689ddfeaa73502afed1a25b172fd42", "is_reserved": 0, "rental_uris": {"android": "https://dc.lft.to/lastmile_qr_scan", "ios": "https://dc.lft.to/lastmile_qr_scan"}, "fusion_lon": 0.0}, {"lat": 38.93844983333334, "is_disabled": 0, "type": "electric_scooter", "lon": -77.03393633333333, "bike_id": "522544629e99939693432a79728a6dd9", "fusion_lat": 0.0, "name": "522544629e99939693432a79728a6dd9", "is_reserved": 0, "rental_uris": {"android": "https://dc.lft.to/lastmile_qr_scan", "ios": "https://dc.lft.to/lastmile_qr_scan"}, "fusion_lon": 0.0}, {"lat": 38.9181085, "is_disabled": 0, "type": "electric_scooter", "lon": -77.02483083333334, "bike_id": "bffc75aea49be560f36792fdcdab0188", "fusion_lat": 0.0, "name": "bffc75aea49be560f36792fdcdab0188", "is_reserved": 0, "rental_uris": {"android": "https://dc.lft.to/lastmile_qr_scan", "ios": "https://dc.lft.to/lastmile_qr_scan"}, "fusion_lon": 0.0}, {"lat": 38.88210983333333, "is_disabled": 0, "type": "electric_scooter", "lon": -76.99044383333333, "bike_id": "9e66ce37c2cd8b2c0fbd6ce11c71b0b3", "fusion_lat": 0.0, "name": "9e66ce37c2cd8b2c0fbd6ce11c71b0b3", "is_reserved": 0, "rental_uris": {"android": "https://dc.lft.to/lastmile_qr_scan", "ios": "https://dc.lft.to/lastmile_qr_scan"}, "fusion_lon": 0.0}, {"lat": 38.922421, "is_disabled": 0, "type": "electric_scooter", "lon": -77.02888583333333, "bike_id": "79a91c13d51574defced7e23d3198038", "fusion_lat": 0.0, "name": "79a91c13d51574defced7e23d3198038", "is_reserved": 0, "rental_uris": {"android": "https://dc.lft.to/lastmile_qr_scan", "ios": "https://dc.lft.to/lastmile_qr_scan"}, "fusion_lon": 0.0}, {"lat": 38.9094135, "is_disabled": 0, "type": "electric_scooter", "lon": -77.042978, "bike_id": "f917580a6fe7d9d3ae33f78bf9af88eb", "fusion_lat": 0.0, "name": "f917580a6fe7d9d3ae33f78bf9af88eb", "is_reserved": 0, "rental_uris": {"android": "https://dc.lft.to/lastmile_qr_scan", "ios": "https://dc.lft.to/lastmile_qr_scan"}, "fusion_lon": 0.0}, {"lat": 38.923122666666664, "is_disabled": 0, "type": "electric_scooter", "lon": -77.02261533333333, "bike_id": "0a6ff1797c5f6c91970a6b9f750eb7d1", "fusion_lat": 0.0, "name": "0a6ff1797c5f6c91970a6b9f750eb7d1", "is_reserved": 0, "rental_uris": {"android": "https://dc.lft.to/lastmile_qr_scan", "ios": "https://dc.lft.to/lastmile_qr_scan"}, "fusion_lon": 0.0}, {"lat": 38.8695985, "is_disabled": 0, "type": "electric_bike", "lon": -77.01078583333333, "bike_id": "2e70347e3287859122bc0bbe184bf36e", "fusion_lat": 0.0, "name": "2e70347e3287859122bc0bbe184bf36e", "is_reserved": 0, "rental_uris": {"android": "https://dc.lft.to/lastmile_qr_scan", "ios": "https://dc.lft.to/lastmile_qr_scan"}, "fusion_lon": 0.0}, {"lat": 38.89673966666667, "is_disabled": 0, "type": "electric_scooter", "lon": -77.00517866666667, "bike_id": "1edf2be90c96b3d2a218cdffcfc2e1cf", "fusion_lat": 0.0, "name": "1edf2be90c96b3d2a218cdffcfc2e1cf", "is_reserved": 0, "rental_uris": {"android": "https://dc.lft.to/lastmile_qr_scan", "ios": "https://dc.lft.to/lastmile_qr_scan"}, "fusion_lon": 0.0}, {"lat": 38.90395933333333, "is_disabled": 0, "type": "electric_scooter", "lon": -76.9930745, "bike_id": "80ed39ead0bd7c14d430f46ff41379b3", "fusion_lat": 0.0, "name": "80ed39ead0bd7c14d430f46ff41379b3", "is_reserved": 0, "rental_uris": {"android": "https://dc.lft.to/lastmile_qr_scan", "ios": "https://dc.lft.to/lastmile_qr_scan"}, "fusion_lon": 0.0}, {"lat": 38.920595166666665, "is_disabled": 0, "type": "electric_scooter", "lon": -77.0340185, "bike_id": "eef9497cfc7bcc6501f230bb1b3772ae", "fusion_lat": 0.0, "name": "eef9497cfc7bcc6501f230bb1b3772ae", "is_reserved": 0, "rental_uris": {"android": "https://dc.lft.to/lastmile_qr_scan", "ios": "https://dc.lft.to/lastmile_qr_scan"}, "fusion_lon": 0.0}, {"lat": 38.898947, "is_disabled": 0, "type": "electric_scooter", "lon": -76.98425966666667, "bike_id": "10bbe71ad7531371ad23a8b118bf8e57", "fusion_lat": 0.0, "name": "10bbe71ad7531371ad23a8b118bf8e57", "is_reserved": 0, "rental_uris": {"android": "https://dc.lft.to/lastmile_qr_scan", "ios": "https://dc.lft.to/lastmile_qr_scan"}, "fusion_lon": 0.0}, {"lat": 38.9036735, "is_disabled": 0, "type": "electric_scooter", "lon": -77.05815016666666, "bike_id": "88478717ca0f9d743c8d44fabb98063d", "fusion_lat": 0.0, "name": "88478717ca0f9d743c8d44fabb98063d", "is_reserved": 0, "rental_uris": {"android": "https://dc.lft.to/lastmile_qr_scan", "ios": "https://dc.lft.to/lastmile_qr_scan"}, "fusion_lon": 0.0}, {"lat": 38.95867166666667, "is_disabled": 0, "type": "electric_bike", "lon": -77.00136, "bike_id": "8c691a75462a1e412db05b874f0db8e9", "fusion_lat": 0.0, "name": "8c691a75462a1e412db05b874f0db8e9", "is_reserved": 0, "rental_uris": {"android": "https://dc.lft.to/lastmile_qr_scan", "ios": "https://dc.lft.to/lastmile_qr_scan"}, "fusion_lon": 0.0}, {"lat": 38.897286, "is_disabled": 0, "type": "electric_scooter", "lon": -76.9472535, "bike_id": "a369c7b247dee1d33765f25e0931ec50", "fusion_lat": 0.0, "name": "a369c7b247dee1d33765f25e0931ec50", "is_reserved": 0, "rental_uris": {"android": "https://dc.lft.to/lastmile_qr_scan", "ios": "https://dc.lft.to/lastmile_qr_scan"}, "fusion_lon": 0.0}, {"lat": 38.9021215, "is_disabled": 0, "type": "electric_scooter", "lon": -77.02323816666667, "bike_id": "0b15f6665004344f57919750288b84a2", "fusion_lat": 0.0, "name": "0b15f6665004344f57919750288b84a2", "is_reserved": 0, "rental_uris": {"android": "https://dc.lft.to/lastmile_qr_scan", "ios": "https://dc.lft.to/lastmile_qr_scan"}, "fusion_lon": 0.0}, {"lat": 38.91413583333333, "is_disabled": 0, "type": "electric_scooter", "lon": -77.03534033333334, "bike_id": "50c76858feb84a16238f607ee0be4777", "fusion_lat": 0.0, "name": "50c76858feb84a16238f607ee0be4777", "is_reserved": 0, "rental_uris": {"android": "https://dc.lft.to/lastmile_qr_scan", "ios": "https://dc.lft.to/lastmile_qr_scan"}, "fusion_lon": 0.0}, {"lat": 38.902617666666664, "is_disabled": 0, "type": "electric_scooter", "lon": -77.0344355, "bike_id": "9046a917ca55c0a2c1b40b3e43324c41", "fusion_lat": 0.0, "name": "9046a917ca55c0a2c1b40b3e43324c41", "is_reserved": 0, "rental_uris": {"android": "https://dc.lft.to/lastmile_qr_scan", "ios": "https://dc.lft.to/lastmile_qr_scan"}, "fusion_lon": 0.0}, {"lat": 38.93230666666667, "is_disabled": 0, "type": "electric_scooter", "lon": -77.03093383333334, "bike_id": "9d158a093cf58a38613fa77e0f669a91", "fusion_lat": 0.0, "name": "9d158a093cf58a38613fa77e0f669a91", "is_reserved": 0, "rental_uris": {"android": "https://dc.lft.to/lastmile_qr_scan", "ios": "https://dc.lft.to/lastmile_qr_scan"}, "fusion_lon": 0.0}, {"lat": 38.859261833333335, "is_disabled": 0, "type": "electric_scooter", "lon": -76.99721016666666, "bike_id": "3abab5495a0b038a09abe3cbc5de8c53", "fusion_lat": 0.0, "name": "3abab5495a0b038a09abe3cbc5de8c53", "is_reserved": 0, "rental_uris": {"android": "https://dc.lft.to/lastmile_qr_scan", "ios": "https://dc.lft.to/lastmile_qr_scan"}, "fusion_lon": 0.0}, {"lat": 38.905701666666666, "is_disabled": 0, "type": "electric_scooter", "lon": -77.00896, "bike_id": "dcef561a983f79300d17363595beeff5", "fusion_lat": 0.0, "name": "dcef561a983f79300d17363595beeff5", "is_reserved": 0, "rental_uris": {"android": "https://dc.lft.to/lastmile_qr_scan", "ios": "https://dc.lft.to/lastmile_qr_scan"}, "fusion_lon": 0.0}, {"lat": 38.916505666666666, "is_disabled": 0, "type": "electric_scooter", "lon": -77.0192085, "bike_id": "5d4978f3ac02cd573d42259e415d1b97", "fusion_lat": 0.0, "name": "5d4978f3ac02cd573d42259e415d1b97", "is_reserved": 0, "rental_uris": {"android": "https://dc.lft.to/lastmile_qr_scan", "ios": "https://dc.lft.to/lastmile_qr_scan"}, "fusion_lon": 0.0}, {"lat": 38.91628083333333, "is_disabled": 0, "type": "electric_scooter", "lon": -77.03185916666666, "bike_id": "4e82701c740367b4c81fc0b80362c3df", "fusion_lat": 0.0, "name": "4e82701c740367b4c81fc0b80362c3df", "is_reserved": 0, "rental_uris": {"android": "https://dc.lft.to/lastmile_qr_scan", "ios": "https://dc.lft.to/lastmile_qr_scan"}, "fusion_lon": 0.0}, {"lat": 38.923997166666666, "is_disabled": 0, "type": "electric_scooter", "lon": -77.027509, "bike_id": "252d7b8874841adc681a91db0d6b61fc", "fusion_lat": 0.0, "name": "252d7b8874841adc681a91db0d6b61fc", "is_reserved": 0, "rental_uris": {"android": "https://dc.lft.to/lastmile_qr_scan", "ios": "https://dc.lft.to/lastmile_qr_scan"}, "fusion_lon": 0.0}, {"lat": 38.903727833333335, "is_disabled": 0, "type": "electric_scooter", "lon": -77.04232366666666, "bike_id": "c975dbdc61570719d50638f95d383456", "fusion_lat": 0.0, "name": "c975dbdc61570719d50638f95d383456", "is_reserved": 0, "rental_uris": {"android": "https://dc.lft.to/lastmile_qr_scan", "ios": "https://dc.lft.to/lastmile_qr_scan"}, "fusion_lon": 0.0}, {"lat": 38.90259916666667, "is_disabled": 0, "type": "electric_scooter", "lon": -77.04053233333333, "bike_id": "f0f6548d8be1bda27af90c9f1522e588", "fusion_lat": 0.0, "name": "f0f6548d8be1bda27af90c9f1522e588", "is_reserved": 0, "rental_uris": {"android": "https://dc.lft.to/lastmile_qr_scan", "ios": "https://dc.lft.to/lastmile_qr_scan"}, "fusion_lon": 0.0}, {"lat": 38.88909133333333, "is_disabled": 0, "type": "electric_scooter", "lon": -76.99747083333334, "bike_id": "acbcdfc707ef767f1581e45a011489f5", "fusion_lat": 0.0, "name": "acbcdfc707ef767f1581e45a011489f5", "is_reserved": 0, "rental_uris": {"android": "https://dc.lft.to/lastmile_qr_scan", "ios": "https://dc.lft.to/lastmile_qr_scan"}, "fusion_lon": 0.0}, {"lat": 38.86513433333333, "is_disabled": 0, "type": "electric_scooter", "lon": -76.99042916666667, "bike_id": "03d147e57a5670866bde8eb262883298", "fusion_lat": 0.0, "name": "03d147e57a5670866bde8eb262883298", "is_reserved": 0, "rental_uris": {"android": "https://dc.lft.to/lastmile_qr_scan", "ios": "https://dc.lft.to/lastmile_qr_scan"}, "fusion_lon": 0.0}, {"lat": 38.876284, "is_disabled": 0, "type": "electric_scooter", "lon": -76.9653675, "bike_id": "c0d1f8fde11fece18aa4a47aa4d940f9", "fusion_lat": 0.0, "name": "c0d1f8fde11fece18aa4a47aa4d940f9", "is_reserved": 0, "rental_uris": {"android": "https://dc.lft.to/lastmile_qr_scan", "ios": "https://dc.lft.to/lastmile_qr_scan"}, "fusion_lon": 0.0}, {"lat": 38.844605666666666, "is_disabled": 0, "type": "electric_bike", "lon": -76.9876315, "bike_id": "a061b15ce4da316657f0c3718c205ff0", "fusion_lat": 0.0, "name": "a061b15ce4da316657f0c3718c205ff0", "is_reserved": 0, "rental_uris": {"android": "https://dc.lft.to/lastmile_qr_scan", "ios": "https://dc.lft.to/lastmile_qr_scan"}, "fusion_lon": 0.0}, {"lat": 38.91695416666666, "is_disabled": 0, "type": "electric_scooter", "lon": -77.03112183333333, "bike_id": "68759deb3f66aaa7e213a182fe4a2940", "fusion_lat": 0.0, "name": "68759deb3f66aaa7e213a182fe4a2940", "is_reserved": 0, "rental_uris": {"android": "https://dc.lft.to/lastmile_qr_scan", "ios": "https://dc.lft.to/lastmile_qr_scan"}, "fusion_lon": 0.0}, {"lat": 38.8341675, "is_disabled": 0, "type": "electric_bike", "lon": -77.10378783333333, "bike_id": "0b538caddbc81f6622fc59401eec27a2", "fusion_lat": 0.0, "name": "0b538caddbc81f6622fc59401eec27a2", "is_reserved": 0, "rental_uris": {"android": "https://dc.lft.to/lastmile_qr_scan", "ios": "https://dc.lft.to/lastmile_qr_scan"}, "fusion_lon": 0.0}, {"lat": 38.9571125, "is_disabled": 0, "type": "electric_scooter", "lon": -77.02408066666666, "bike_id": "1c9ce2ffe1295433b221fbddf6c9334c", "fusion_lat": 0.0, "name": "1c9ce2ffe1295433b221fbddf6c9334c", "is_reserved": 0, "rental_uris": {"android": "https://dc.lft.to/lastmile_qr_scan", "ios": "https://dc.lft.to/lastmile_qr_scan"}, "fusion_lon": 0.0}, {"lat": 38.929003333333334, "is_disabled": 0, "type": "electric_scooter", "lon": -77.01656383333334, "bike_id": "5a7b1d540fb0d8491a83d3839833a943", "fusion_lat": 0.0, "name": "5a7b1d540fb0d8491a83d3839833a943", "is_reserved": 0, "rental_uris": {"android": "https://dc.lft.to/lastmile_qr_scan", "ios": "https://dc.lft.to/lastmile_qr_scan"}, "fusion_lon": 0.0}, {"lat": 38.931746, "is_disabled": 0, "type": "electric_scooter", "lon": -77.02381616666666, "bike_id": "544729f875d26bb3d99771c597b6f1e2", "fusion_lat": 0.0, "name": "544729f875d26bb3d99771c597b6f1e2", "is_reserved": 0, "rental_uris": {"android": "https://dc.lft.to/lastmile_qr_scan", "ios": "https://dc.lft.to/lastmile_qr_scan"}, "fusion_lon": 0.0}, {"lat": 38.9342945, "is_disabled": 0, "type": "electric_scooter", "lon": -76.965197, "bike_id": "24fa991406e6cc2e5f5543e85953af03", "fusion_lat": 0.0, "name": "24fa991406e6cc2e5f5543e85953af03", "is_reserved": 0, "rental_uris": {"android": "https://dc.lft.to/lastmile_qr_scan", "ios": "https://dc.lft.to/lastmile_qr_scan"}, "fusion_lon": 0.0}, {"lat": 38.93376166666667, "is_disabled": 0, "type": "electric_scooter", "lon": -77.0355625, "bike_id": "b2f32a648ca2cb4623338ce814e4df4b", "fusion_lat": 0.0, "name": "b2f32a648ca2cb4623338ce814e4df4b", "is_reserved": 0, "rental_uris": {"android": "https://dc.lft.to/lastmile_qr_scan", "ios": "https://dc.lft.to/lastmile_qr_scan"}, "fusion_lon": 0.0}, {"lat": 38.87541266666667, "is_disabled": 0, "type": "electric_scooter", "lon": -77.00542966666667, "bike_id": "da5b33c582be715ceb43aa3acb085ef7", "fusion_lat": 0.0, "name": "da5b33c582be715ceb43aa3acb085ef7", "is_reserved": 0, "rental_uris": {"android": "https://dc.lft.to/lastmile_qr_scan", "ios": "https://dc.lft.to/lastmile_qr_scan"}, "fusion_lon": 0.0}, {"lat": 38.90034433333334, "is_disabled": 0, "type": "electric_scooter", "lon": -77.0022235, "bike_id": "e8739d265ee6d3baa7f075549faecae2", "fusion_lat": 0.0, "name": "e8739d265ee6d3baa7f075549faecae2", "is_reserved": 0, "rental_uris": {"android": "https://dc.lft.to/lastmile_qr_scan", "ios": "https://dc.lft.to/lastmile_qr_scan"}, "fusion_lon": 0.0}, {"lat": 38.88546266666667, "is_disabled": 0, "type": "electric_bike", "lon": -77.11791583333333, "bike_id": "f89d8d386d98b7f3c2caf890bbea7cff", "fusion_lat": 0.0, "name": "f89d8d386d98b7f3c2caf890bbea7cff", "is_reserved": 0, "rental_uris": {"android": "https://dc.lft.to/lastmile_qr_scan", "ios": "https://dc.lft.to/lastmile_qr_scan"}, "fusion_lon": 0.0}, {"lat": 38.88451383333334, "is_disabled": 0, "type": "electric_scooter", "lon": -76.929639, "bike_id": "86f8e17627223cb55bba0218406a48c0", "fusion_lat": 0.0, "name": "86f8e17627223cb55bba0218406a48c0", "is_reserved": 0, "rental_uris": {"android": "https://dc.lft.to/lastmile_qr_scan", "ios": "https://dc.lft.to/lastmile_qr_scan"}, "fusion_lon": 0.0}, {"lat": 38.885999, "is_disabled": 0, "type": "electric_scooter", "lon": -77.01903183333333, "bike_id": "a81a3e7a0655e2772f43c2fec967d45f", "fusion_lat": 0.0, "name": "a81a3e7a0655e2772f43c2fec967d45f", "is_reserved": 0, "rental_uris": {"android": "https://dc.lft.to/lastmile_qr_scan", "ios": "https://dc.lft.to/lastmile_qr_scan"}, "fusion_lon": 0.0}, {"lat": 38.89564883333333, "is_disabled": 0, "type": "electric_bike", "lon": -77.12741, "bike_id": "15fb0d7c5864883131b588e6bf52df64", "fusion_lat": 0.0, "name": "15fb0d7c5864883131b588e6bf52df64", "is_reserved": 0, "rental_uris": {"android": "https://dc.lft.to/lastmile_qr_scan", "ios": "https://dc.lft.to/lastmile_qr_scan"}, "fusion_lon": 0.0}, {"lat": 38.89894233333333, "is_disabled": 0, "type": "electric_scooter", "lon": -77.03930116666666, "bike_id": "23d2525ba6631690de18953b2241890e", "fusion_lat": 0.0, "name": "23d2525ba6631690de18953b2241890e", "is_reserved": 0, "rental_uris": {"android": "https://dc.lft.to/lastmile_qr_scan", "ios": "https://dc.lft.to/lastmile_qr_scan"}, "fusion_lon": 0.0}, {"lat": 38.92236966666667, "is_disabled": 0, "type": "electric_scooter", "lon": -77.03670816666667, "bike_id": "3fcd8096310b56b1bdd9fb7be3a3974c", "fusion_lat": 0.0, "name": "3fcd8096310b56b1bdd9fb7be3a3974c", "is_reserved": 0, "rental_uris": {"android": "https://dc.lft.to/lastmile_qr_scan", "ios": "https://dc.lft.to/lastmile_qr_scan"}, "fusion_lon": 0.0}, {"lat": 38.908909333333334, "is_disabled": 0, "type": "electric_scooter", "lon": -77.0644395, "bike_id": "a41bbd2bcb116f0306ee0c4bd535cff5", "fusion_lat": 0.0, "name": "a41bbd2bcb116f0306ee0c4bd535cff5", "is_reserved": 0, "rental_uris": {"android": "https://dc.lft.to/lastmile_qr_scan", "ios": "https://dc.lft.to/lastmile_qr_scan"}, "fusion_lon": 0.0}, {"lat": 38.9139075, "is_disabled": 0, "type": "electric_scooter", "lon": -77.03662583333333, "bike_id": "b7609ccd71ba6bdb936c4e61249e8141", "fusion_lat": 0.0, "name": "b7609ccd71ba6bdb936c4e61249e8141", "is_reserved": 0, "rental_uris": {"android": "https://dc.lft.to/lastmile_qr_scan", "ios": "https://dc.lft.to/lastmile_qr_scan"}, "fusion_lon": 0.0}, {"lat": 38.93766566666667, "is_disabled": 0, "type": "electric_scooter", "lon": -77.03143866666667, "bike_id": "12c4796ecabacd0b62b189f27310d8bc", "fusion_lat": 0.0, "name": "12c4796ecabacd0b62b189f27310d8bc", "is_reserved": 0, "rental_uris": {"android": "https://dc.lft.to/lastmile_qr_scan", "ios": "https://dc.lft.to/lastmile_qr_scan"}, "fusion_lon": 0.0}, {"lat": 38.91861466666667, "is_disabled": 0, "type": "electric_scooter", "lon": -76.971263, "bike_id": "eb57d52adcc7b77494681fe262504277", "fusion_lat": 0.0, "name": "eb57d52adcc7b77494681fe262504277", "is_reserved": 0, "rental_uris": {"android": "https://dc.lft.to/lastmile_qr_scan", "ios": "https://dc.lft.to/lastmile_qr_scan"}, "fusion_lon": 0.0}, {"lat": 38.9027195, "is_disabled": 0, "type": "electric_scooter", "lon": -77.03945433333334, "bike_id": "1caa54d4fba78167cee405eb50181898", "fusion_lat": 0.0, "name": "1caa54d4fba78167cee405eb50181898", "is_reserved": 0, "rental_uris": {"android": "https://dc.lft.to/lastmile_qr_scan", "ios": "https://dc.lft.to/lastmile_qr_scan"}, "fusion_lon": 0.0}, {"lat": 38.93463716666667, "is_disabled": 0, "type": "electric_scooter", "lon": -77.02857116666667, "bike_id": "710456b1942d606bdbf2de9b792824ea", "fusion_lat": 0.0, "name": "710456b1942d606bdbf2de9b792824ea", "is_reserved": 0, "rental_uris": {"android": "https://dc.lft.to/lastmile_qr_scan", "ios": "https://dc.lft.to/lastmile_qr_scan"}, "fusion_lon": 0.0}, {"lat": 38.90849716666666, "is_disabled": 0, "type": "electric_scooter", "lon": -76.99958333333333, "bike_id": "4693b3d3b5f002e78a08d7497c44c533", "fusion_lat": 0.0, "name": "4693b3d3b5f002e78a08d7497c44c533", "is_reserved": 0, "rental_uris": {"android": "https://dc.lft.to/lastmile_qr_scan", "ios": "https://dc.lft.to/lastmile_qr_scan"}, "fusion_lon": 0.0}, {"lat": 38.911049, "is_disabled": 0, "type": "electric_scooter", "lon": -77.04398633333334, "bike_id": "1608a76139c8222c501a9ec33b134ab1", "fusion_lat": 0.0, "name": "1608a76139c8222c501a9ec33b134ab1", "is_reserved": 0, "rental_uris": {"android": "https://dc.lft.to/lastmile_qr_scan", "ios": "https://dc.lft.to/lastmile_qr_scan"}, "fusion_lon": 0.0}, {"lat": 38.9219175, "is_disabled": 0, "type": "electric_scooter", "lon": -77.04143516666667, "bike_id": "caad81ca52e58eda58710dd8412bfb2c", "fusion_lat": 0.0, "name": "caad81ca52e58eda58710dd8412bfb2c", "is_reserved": 0, "rental_uris": {"android": "https://dc.lft.to/lastmile_qr_scan", "ios": "https://dc.lft.to/lastmile_qr_scan"}, "fusion_lon": 0.0}, {"lat": 38.91011733333333, "is_disabled": 0, "type": "electric_scooter", "lon": -77.038499, "bike_id": "a83286d5557d0959ecb617ba156d74cb", "fusion_lat": 0.0, "name": "a83286d5557d0959ecb617ba156d74cb", "is_reserved": 0, "rental_uris": {"android": "https://dc.lft.to/lastmile_qr_scan", "ios": "https://dc.lft.to/lastmile_qr_scan"}, "fusion_lon": 0.0}, {"lat": 38.884554, "is_disabled": 0, "type": "electric_scooter", "lon": -76.926229, "bike_id": "6da3a02b25799d8f9a4eb03e0614b344", "fusion_lat": 0.0, "name": "6da3a02b25799d8f9a4eb03e0614b344", "is_reserved": 0, "rental_uris": {"android": "https://dc.lft.to/lastmile_qr_scan", "ios": "https://dc.lft.to/lastmile_qr_scan"}, "fusion_lon": 0.0}, {"lat": 38.88484366666667, "is_disabled": 0, "type": "electric_scooter", "lon": -77.03479633333333, "bike_id": "ad70da1f7dc3830ce182bbda06d52d56", "fusion_lat": 0.0, "name": "ad70da1f7dc3830ce182bbda06d52d56", "is_reserved": 0, "rental_uris": {"android": "https://dc.lft.to/lastmile_qr_scan", "ios": "https://dc.lft.to/lastmile_qr_scan"}, "fusion_lon": 0.0}, {"lat": 38.92849366666667, "is_disabled": 0, "type": "electric_bike", "lon": -77.106811, "bike_id": "521e2c57fd43915b2e35fa532fcc9ba7", "fusion_lat": 0.0, "name": "521e2c57fd43915b2e35fa532fcc9ba7", "is_reserved": 0, "rental_uris": {"android": "https://dc.lft.to/lastmile_qr_scan", "ios": "https://dc.lft.to/lastmile_qr_scan"}, "fusion_lon": 0.0}, {"lat": 38.90597916666667, "is_disabled": 0, "type": "electric_scooter", "lon": -77.06308266666667, "bike_id": "052dfe955005637a442ce4b75e516532", "fusion_lat": 0.0, "name": "052dfe955005637a442ce4b75e516532", "is_reserved": 0, "rental_uris": {"android": "https://dc.lft.to/lastmile_qr_scan", "ios": "https://dc.lft.to/lastmile_qr_scan"}, "fusion_lon": 0.0}, {"lat": 38.93869083333333, "is_disabled": 0, "type": "electric_scooter", "lon": -77.02445433333334, "bike_id": "245f5493c8ea7aef08ad876eb1783ec0", "fusion_lat": 0.0, "name": "245f5493c8ea7aef08ad876eb1783ec0", "is_reserved": 0, "rental_uris": {"android": "https://dc.lft.to/lastmile_qr_scan", "ios": "https://dc.lft.to/lastmile_qr_scan"}, "fusion_lon": 0.0}, {"lat": 38.80737366666666, "is_disabled": 0, "type": "electric_bike", "lon": -77.09435333333333, "bike_id": "48fccf0fc8adce57113c351f2e294a8a", "fusion_lat": 0.0, "name": "48fccf0fc8adce57113c351f2e294a8a", "is_reserved": 0, "rental_uris": {"android": "https://dc.lft.to/lastmile_qr_scan", "ios": "https://dc.lft.to/lastmile_qr_scan"}, "fusion_lon": 0.0}, {"lat": 38.902821333333335, "is_disabled": 0, "type": "electric_scooter", "lon": -77.03647416666666, "bike_id": "9e914d5909eda3341e56738d23fb4f5c", "fusion_lat": 0.0, "name": "9e914d5909eda3341e56738d23fb4f5c", "is_reserved": 0, "rental_uris": {"android": "https://dc.lft.to/lastmile_qr_scan", "ios": "https://dc.lft.to/lastmile_qr_scan"}, "fusion_lon": 0.0}, {"lat": 38.9083535, "is_disabled": 0, "type": "electric_scooter", "lon": -77.06362866666667, "bike_id": "23131904210a3bd93e6772bfa3f32283", "fusion_lat": 0.0, "name": "23131904210a3bd93e6772bfa3f32283", "is_reserved": 0, "rental_uris": {"android": "https://dc.lft.to/lastmile_qr_scan", "ios": "https://dc.lft.to/lastmile_qr_scan"}, "fusion_lon": 0.0}, {"lat": 38.92901833333333, "is_disabled": 0, "type": "electric_scooter", "lon": -77.03159166666667, "bike_id": "c69f36e09df91a7f724e0d0d023349d6", "fusion_lat": 0.0, "name": "c69f36e09df91a7f724e0d0d023349d6", "is_reserved": 0, "rental_uris": {"android": "https://dc.lft.to/lastmile_qr_scan", "ios": "https://dc.lft.to/lastmile_qr_scan"}, "fusion_lon": 0.0}, {"lat": 38.93086433333333, "is_disabled": 0, "type": "electric_scooter", "lon": -77.03758116666667, "bike_id": "5b7095e52792b5365760678ed5400712", "fusion_lat": 0.0, "name": "5b7095e52792b5365760678ed5400712", "is_reserved": 0, "rental_uris": {"android": "https://dc.lft.to/lastmile_qr_scan", "ios": "https://dc.lft.to/lastmile_qr_scan"}, "fusion_lon": 0.0}, {"lat": 38.890411, "is_disabled": 0, "type": "electric_scooter", "lon": -76.94095583333333, "bike_id": "48774b0393ec09ec9b3cbc9d72ae7498", "fusion_lat": 0.0, "name": "48774b0393ec09ec9b3cbc9d72ae7498", "is_reserved": 0, "rental_uris": {"android": "https://dc.lft.to/lastmile_qr_scan", "ios": "https://dc.lft.to/lastmile_qr_scan"}, "fusion_lon": 0.0}, {"lat": 38.92066283333333, "is_disabled": 0, "type": "electric_scooter", "lon": -77.02500983333333, "bike_id": "ae29792a6f6e70060e3712a33c408e17", "fusion_lat": 0.0, "name": "ae29792a6f6e70060e3712a33c408e17", "is_reserved": 0, "rental_uris": {"android": "https://dc.lft.to/lastmile_qr_scan", "ios": "https://dc.lft.to/lastmile_qr_scan"}, "fusion_lon": 0.0}, {"lat": 38.921179, "is_disabled": 0, "type": "electric_bike", "lon": -76.98580933333334, "bike_id": "daac804a04f3ee0cd15507705f2078d9", "fusion_lat": 0.0, "name": "daac804a04f3ee0cd15507705f2078d9", "is_reserved": 0, "rental_uris": {"android": "https://dc.lft.to/lastmile_qr_scan", "ios": "https://dc.lft.to/lastmile_qr_scan"}, "fusion_lon": 0.0}, {"lat": 38.89537133333333, "is_disabled": 0, "type": "electric_scooter", "lon": -77.050188, "bike_id": "5e91f4d4ff172167ea7cbf66d58702ee", "fusion_lat": 0.0, "name": "5e91f4d4ff172167ea7cbf66d58702ee", "is_reserved": 0, "rental_uris": {"android": "https://dc.lft.to/lastmile_qr_scan", "ios": "https://dc.lft.to/lastmile_qr_scan"}, "fusion_lon": 0.0}, {"lat": 38.8584625, "is_disabled": 0, "type": "electric_bike", "lon": -77.097605, "bike_id": "d86ff9b498d7a9a4c5bdbb4696d35867", "fusion_lat": 0.0, "name": "d86ff9b498d7a9a4c5bdbb4696d35867", "is_reserved": 0, "rental_uris": {"android": "https://dc.lft.to/lastmile_qr_scan", "ios": "https://dc.lft.to/lastmile_qr_scan"}, "fusion_lon": 0.0}, {"lat": 38.9173585, "is_disabled": 0, "type": "electric_scooter", "lon": -77.02309166666667, "bike_id": "7c6e7e4f9b5fc728cfa7abf14c28b258", "fusion_lat": 0.0, "name": "7c6e7e4f9b5fc728cfa7abf14c28b258", "is_reserved": 0, "rental_uris": {"android": "https://dc.lft.to/lastmile_qr_scan", "ios": "https://dc.lft.to/lastmile_qr_scan"}, "fusion_lon": 0.0}, {"lat": 38.914157833333334, "is_disabled": 0, "type": "electric_scooter", "lon": -77.03177016666666, "bike_id": "b4f82f69f3433a17b27fd84f9cf2f589", "fusion_lat": 0.0, "name": "b4f82f69f3433a17b27fd84f9cf2f589", "is_reserved": 0, "rental_uris": {"android": "https://dc.lft.to/lastmile_qr_scan", "ios": "https://dc.lft.to/lastmile_qr_scan"}, "fusion_lon": 0.0}, {"lat": 38.958880666666666, "is_disabled": 0, "type": "electric_bike", "lon": -76.92489866666666, "bike_id": "01e291774ceacd4804b2293dfb185197", "fusion_lat": 0.0, "name": "01e291774ceacd4804b2293dfb185197", "is_reserved": 0, "rental_uris": {"android": "https://dc.lft.to/lastmile_qr_scan", "ios": "https://dc.lft.to/lastmile_qr_scan"}, "fusion_lon": 0.0}, {"lat": 38.91928033333333, "is_disabled": 0, "type": "electric_scooter", "lon": -77.04471733333334, "bike_id": "2396007661f2105b54959498bf505344", "fusion_lat": 0.0, "name": "2396007661f2105b54959498bf505344", "is_reserved": 0, "rental_uris": {"android": "https://dc.lft.to/lastmile_qr_scan", "ios": "https://dc.lft.to/lastmile_qr_scan"}, "fusion_lon": 0.0}, {"lat": 38.87085, "is_disabled": 0, "type": "electric_scooter", "lon": -77.012264, "bike_id": "85a7943bd2306cde982fd97c1e344315", "fusion_lat": 0.0, "name": "85a7943bd2306cde982fd97c1e344315", "is_reserved": 0, "rental_uris": {"android": "https://dc.lft.to/lastmile_qr_scan", "ios": "https://dc.lft.to/lastmile_qr_scan"}, "fusion_lon": 0.0}, {"lat": 38.92266516666667, "is_disabled": 0, "type": "electric_scooter", "lon": -77.03909066666667, "bike_id": "80e3cb71d4b14ba8ce6ea08a9ee13879", "fusion_lat": 0.0, "name": "80e3cb71d4b14ba8ce6ea08a9ee13879", "is_reserved": 0, "rental_uris": {"android": "https://dc.lft.to/lastmile_qr_scan", "ios": "https://dc.lft.to/lastmile_qr_scan"}, "fusion_lon": 0.0}, {"lat": 38.900347333333336, "is_disabled": 0, "type": "electric_scooter", "lon": -77.0118255, "bike_id": "abfa7cc44ae083c6bb97324aeffc9031", "fusion_lat": 0.0, "name": "abfa7cc44ae083c6bb97324aeffc9031", "is_reserved": 0, "rental_uris": {"android": "https://dc.lft.to/lastmile_qr_scan", "ios": "https://dc.lft.to/lastmile_qr_scan"}, "fusion_lon": 0.0}, {"lat": 38.9573385, "is_disabled": 0, "type": "electric_scooter", "lon": -77.02406833333333, "bike_id": "cb81eecbfa087977f7c7ce5e03fd3b48", "fusion_lat": 0.0, "name": "cb81eecbfa087977f7c7ce5e03fd3b48", "is_reserved": 0, "rental_uris": {"android": "https://dc.lft.to/lastmile_qr_scan", "ios": "https://dc.lft.to/lastmile_qr_scan"}, "fusion_lon": 0.0}, {"lat": 38.9369105, "is_disabled": 0, "type": "electric_scooter", "lon": -77.0239915, "bike_id": "f9a666459132adb02dc4be6d2ef516d0", "fusion_lat": 0.0, "name": "f9a666459132adb02dc4be6d2ef516d0", "is_reserved": 0, "rental_uris": {"android": "https://dc.lft.to/lastmile_qr_scan", "ios": "https://dc.lft.to/lastmile_qr_scan"}, "fusion_lon": 0.0}, {"lat": 38.939732166666666, "is_disabled": 0, "type": "electric_scooter", "lon": -77.0193455, "bike_id": "1545f8e0c164611b107c47e879f673c6", "fusion_lat": 0.0, "name": "1545f8e0c164611b107c47e879f673c6", "is_reserved": 0, "rental_uris": {"android": "https://dc.lft.to/lastmile_qr_scan", "ios": "https://dc.lft.to/lastmile_qr_scan"}, "fusion_lon": 0.0}, {"lat": 38.9024525, "is_disabled": 0, "type": "electric_scooter", "lon": -77.02700066666667, "bike_id": "7b013fdbca5d27c0ab91636db910febd", "fusion_lat": 0.0, "name": "7b013fdbca5d27c0ab91636db910febd", "is_reserved": 0, "rental_uris": {"android": "https://dc.lft.to/lastmile_qr_scan", "ios": "https://dc.lft.to/lastmile_qr_scan"}, "fusion_lon": 0.0}, {"lat": 38.924687166666665, "is_disabled": 0, "type": "electric_scooter", "lon": -77.03969883333333, "bike_id": "3487ed5647206a0c595dea859b18d86b", "fusion_lat": 0.0, "name": "3487ed5647206a0c595dea859b18d86b", "is_reserved": 0, "rental_uris": {"android": "https://dc.lft.to/lastmile_qr_scan", "ios": "https://dc.lft.to/lastmile_qr_scan"}, "fusion_lon": 0.0}, {"lat": 38.90847466666666, "is_disabled": 0, "type": "electric_scooter", "lon": -77.04470366666666, "bike_id": "2e570813addb546fafecbf2ab5be9371", "fusion_lat": 0.0, "name": "2e570813addb546fafecbf2ab5be9371", "is_reserved": 0, "rental_uris": {"android": "https://dc.lft.to/lastmile_qr_scan", "ios": "https://dc.lft.to/lastmile_qr_scan"}, "fusion_lon": 0.0}, {"lat": 38.9463345, "is_disabled": 0, "type": "electric_scooter", "lon": -77.025256, "bike_id": "a7e2a4135beb6c10037ff607caea1e09", "fusion_lat": 0.0, "name": "a7e2a4135beb6c10037ff607caea1e09", "is_reserved": 0, "rental_uris": {"android": "https://dc.lft.to/lastmile_qr_scan", "ios": "https://dc.lft.to/lastmile_qr_scan"}, "fusion_lon": 0.0}, {"lat": 38.921489666666666, "is_disabled": 0, "type": "electric_scooter", "lon": -77.04239866666667, "bike_id": "2522433e5a04cffedfde04a494169d75", "fusion_lat": 0.0, "name": "2522433e5a04cffedfde04a494169d75", "is_reserved": 0, "rental_uris": {"android": "https://dc.lft.to/lastmile_qr_scan", "ios": "https://dc.lft.to/lastmile_qr_scan"}, "fusion_lon": 0.0}, {"lat": 38.92049883333333, "is_disabled": 0, "type": "electric_scooter", "lon": -77.04261583333333, "bike_id": "9a1d605889875b70c8c21b7d00cc0d89", "fusion_lat": 0.0, "name": "9a1d605889875b70c8c21b7d00cc0d89", "is_reserved": 0, "rental_uris": {"android": "https://dc.lft.to/lastmile_qr_scan", "ios": "https://dc.lft.to/lastmile_qr_scan"}, "fusion_lon": 0.0}, {"lat": 38.900267166666666, "is_disabled": 0, "type": "electric_scooter", "lon": -77.04031916666666, "bike_id": "6b2a6c253aed120d5939381700cbdaee", "fusion_lat": 0.0, "name": "6b2a6c253aed120d5939381700cbdaee", "is_reserved": 0, "rental_uris": {"android": "https://dc.lft.to/lastmile_qr_scan", "ios": "https://dc.lft.to/lastmile_qr_scan"}, "fusion_lon": 0.0}, {"lat": 38.92412683333333, "is_disabled": 0, "type": "electric_scooter", "lon": -77.05049133333333, "bike_id": "8dc7c2927e630e1f7e65e4313159833b", "fusion_lat": 0.0, "name": "8dc7c2927e630e1f7e65e4313159833b", "is_reserved": 0, "rental_uris": {"android": "https://dc.lft.to/lastmile_qr_scan", "ios": "https://dc.lft.to/lastmile_qr_scan"}, "fusion_lon": 0.0}, {"lat": 38.906822, "is_disabled": 0, "type": "electric_scooter", "lon": -77.05794, "bike_id": "cadf03863d473bcfda995686fb5a37ed", "fusion_lat": 0.0, "name": "cadf03863d473bcfda995686fb5a37ed", "is_reserved": 0, "rental_uris": {"android": "https://dc.lft.to/lastmile_qr_scan", "ios": "https://dc.lft.to/lastmile_qr_scan"}, "fusion_lon": 0.0}, {"lat": 38.915625, "is_disabled": 0, "type": "electric_scooter", "lon": -77.031582, "bike_id": "74eada9401a3205167a9c5a3cca0d51e", "fusion_lat": 0.0, "name": "74eada9401a3205167a9c5a3cca0d51e", "is_reserved": 0, "rental_uris": {"android": "https://dc.lft.to/lastmile_qr_scan", "ios": "https://dc.lft.to/lastmile_qr_scan"}, "fusion_lon": 0.0}, {"lat": 38.92235733333333, "is_disabled": 0, "type": "electric_scooter", "lon": -77.03671216666666, "bike_id": "3e329f64751050163a15dd73fe16678d", "fusion_lat": 0.0, "name": "3e329f64751050163a15dd73fe16678d", "is_reserved": 0, "rental_uris": {"android": "https://dc.lft.to/lastmile_qr_scan", "ios": "https://dc.lft.to/lastmile_qr_scan"}, "fusion_lon": 0.0}, {"lat": 38.840916666666665, "is_disabled": 0, "type": "electric_bike", "lon": -77.08922983333333, "bike_id": "f31bae4dc56aa425a74003e6f4ef3b8d", "fusion_lat": 0.0, "name": "f31bae4dc56aa425a74003e6f4ef3b8d", "is_reserved": 0, "rental_uris": {"android": "https://dc.lft.to/lastmile_qr_scan", "ios": "https://dc.lft.to/lastmile_qr_scan"}, "fusion_lon": 0.0}, {"lat": 38.92299716666667, "is_disabled": 0, "type": "electric_scooter", "lon": -77.02333033333333, "bike_id": "c011dd552bc39d8e4cb6be3b13383ca9", "fusion_lat": 0.0, "name": "c011dd552bc39d8e4cb6be3b13383ca9", "is_reserved": 0, "rental_uris": {"android": "https://dc.lft.to/lastmile_qr_scan", "ios": "https://dc.lft.to/lastmile_qr_scan"}, "fusion_lon": 0.0}, {"lat": 38.900991, "is_disabled": 0, "type": "electric_scooter", "lon": -77.05911, "bike_id": "dbf8da53c006f808626a91a12061833f", "fusion_lat": 0.0, "name": "dbf8da53c006f808626a91a12061833f", "is_reserved": 0, "rental_uris": {"android": "https://dc.lft.to/lastmile_qr_scan", "ios": "https://dc.lft.to/lastmile_qr_scan"}, "fusion_lon": 0.0}, {"lat": 38.88423366666667, "is_disabled": 0, "type": "electric_scooter", "lon": -77.0235865, "bike_id": "3991820a9deb3f5605c433f2fc791f7d", "fusion_lat": 0.0, "name": "3991820a9deb3f5605c433f2fc791f7d", "is_reserved": 0, "rental_uris": {"android": "https://dc.lft.to/lastmile_qr_scan", "ios": "https://dc.lft.to/lastmile_qr_scan"}, "fusion_lon": 0.0}, {"lat": 38.9169055, "is_disabled": 0, "type": "electric_scooter", "lon": -77.04617133333333, "bike_id": "8e25d63c8e84abca4f8b685bae4a3c63", "fusion_lat": 0.0, "name": "8e25d63c8e84abca4f8b685bae4a3c63", "is_reserved": 0, "rental_uris": {"android": "https://dc.lft.to/lastmile_qr_scan", "ios": "https://dc.lft.to/lastmile_qr_scan"}, "fusion_lon": 0.0}, {"lat": 38.91692, "is_disabled": 0, "type": "electric_scooter", "lon": -77.0314735, "bike_id": "f1d7f87dce9c68fd9e2f81f6adf10df7", "fusion_lat": 0.0, "name": "f1d7f87dce9c68fd9e2f81f6adf10df7", "is_reserved": 0, "rental_uris": {"android": "https://dc.lft.to/lastmile_qr_scan", "ios": "https://dc.lft.to/lastmile_qr_scan"}, "fusion_lon": 0.0}, {"lat": 38.862095833333335, "is_disabled": 0, "type": "electric_bike", "lon": -76.997826, "bike_id": "2d5e331598d1b4c2aebd3bfe4054a6a7", "fusion_lat": 0.0, "name": "2d5e331598d1b4c2aebd3bfe4054a6a7", "is_reserved": 0, "rental_uris": {"android": "https://dc.lft.to/lastmile_qr_scan", "ios": "https://dc.lft.to/lastmile_qr_scan"}, "fusion_lon": 0.0}, {"lat": 38.903886, "is_disabled": 0, "type": "electric_scooter", "lon": -77.0280425, "bike_id": "5a4fe86e4eaee5466d235333b426a9ce", "fusion_lat": 0.0, "name": "5a4fe86e4eaee5466d235333b426a9ce", "is_reserved": 0, "rental_uris": {"android": "https://dc.lft.to/lastmile_qr_scan", "ios": "https://dc.lft.to/lastmile_qr_scan"}, "fusion_lon": 0.0}, {"lat": 38.87064683333333, "is_disabled": 0, "type": "electric_scooter", "lon": -77.008441, "bike_id": "d8ba203d8c34b6129546309010f19238", "fusion_lat": 0.0, "name": "d8ba203d8c34b6129546309010f19238", "is_reserved": 0, "rental_uris": {"android": "https://dc.lft.to/lastmile_qr_scan", "ios": "https://dc.lft.to/lastmile_qr_scan"}, "fusion_lon": 0.0}, {"lat": 38.901760833333334, "is_disabled": 0, "type": "electric_scooter", "lon": -77.048551, "bike_id": "e75f720f27f70ae1a5c56cd3a7d4ffe7", "fusion_lat": 0.0, "name": "e75f720f27f70ae1a5c56cd3a7d4ffe7", "is_reserved": 0, "rental_uris": {"android": "https://dc.lft.to/lastmile_qr_scan", "ios": "https://dc.lft.to/lastmile_qr_scan"}, "fusion_lon": 0.0}, {"lat": 38.909729666666664, "is_disabled": 0, "type": "electric_scooter", "lon": -77.04807533333333, "bike_id": "11e96ef4cae54bc87d28a1117bfbb318", "fusion_lat": 0.0, "name": "11e96ef4cae54bc87d28a1117bfbb318", "is_reserved": 0, "rental_uris": {"android": "https://dc.lft.to/lastmile_qr_scan", "ios": "https://dc.lft.to/lastmile_qr_scan"}, "fusion_lon": 0.0}, {"lat": 38.904993166666664, "is_disabled": 0, "type": "electric_scooter", "lon": -77.058016, "bike_id": "d745c679c0a0d7a9aa304d75c8e36cbe", "fusion_lat": 0.0, "name": "d745c679c0a0d7a9aa304d75c8e36cbe", "is_reserved": 0, "rental_uris": {"android": "https://dc.lft.to/lastmile_qr_scan", "ios": "https://dc.lft.to/lastmile_qr_scan"}, "fusion_lon": 0.0}, {"lat": 38.907773, "is_disabled": 0, "type": "electric_scooter", "lon": -77.06938683333334, "bike_id": "0d57c81bf4e355b83e1c1b6f9fd4c70f", "fusion_lat": 0.0, "name": "0d57c81bf4e355b83e1c1b6f9fd4c70f", "is_reserved": 0, "rental_uris": {"android": "https://dc.lft.to/lastmile_qr_scan", "ios": "https://dc.lft.to/lastmile_qr_scan"}, "fusion_lon": 0.0}, {"lat": 38.873786333333335, "is_disabled": 0, "type": "electric_bike", "lon": -77.009365, "bike_id": "38b34a1b2b5e86771bb3c425c8966e63", "fusion_lat": 0.0, "name": "38b34a1b2b5e86771bb3c425c8966e63", "is_reserved": 0, "rental_uris": {"android": "https://dc.lft.to/lastmile_qr_scan", "ios": "https://dc.lft.to/lastmile_qr_scan"}, "fusion_lon": 0.0}, {"lat": 38.919088, "is_disabled": 0, "type": "electric_scooter", "lon": -77.04630733333333, "bike_id": "cec2706c1d04099fc7bd550efe553d22", "fusion_lat": 0.0, "name": "cec2706c1d04099fc7bd550efe553d22", "is_reserved": 0, "rental_uris": {"android": "https://dc.lft.to/lastmile_qr_scan", "ios": "https://dc.lft.to/lastmile_qr_scan"}, "fusion_lon": 0.0}, {"lat": 38.909552166666664, "is_disabled": 0, "type": "electric_scooter", "lon": -77.0372765, "bike_id": "9a78bb690b6b5661623b90d536c3bc35", "fusion_lat": 0.0, "name": "9a78bb690b6b5661623b90d536c3bc35", "is_reserved": 0, "rental_uris": {"android": "https://dc.lft.to/lastmile_qr_scan", "ios": "https://dc.lft.to/lastmile_qr_scan"}, "fusion_lon": 0.0}, {"lat": 38.86517966666667, "is_disabled": 0, "type": "electric_scooter", "lon": -76.9904945, "bike_id": "0b63ac2b51c8ca99f9ef1b6d85108544", "fusion_lat": 0.0, "name": "0b63ac2b51c8ca99f9ef1b6d85108544", "is_reserved": 0, "rental_uris": {"android": "https://dc.lft.to/lastmile_qr_scan", "ios": "https://dc.lft.to/lastmile_qr_scan"}, "fusion_lon": 0.0}, {"lat": 38.82250233333333, "is_disabled": 0, "type": "electric_scooter", "lon": -76.99990433333333, "bike_id": "a2aefff06d642933cafe8c46943577b6", "fusion_lat": 0.0, "name": "a2aefff06d642933cafe8c46943577b6", "is_reserved": 0, "rental_uris": {"android": "https://dc.lft.to/lastmile_qr_scan", "ios": "https://dc.lft.to/lastmile_qr_scan"}, "fusion_lon": 0.0}, {"lat": 38.9335755, "is_disabled": 0, "type": "electric_bike", "lon": -77.099675, "bike_id": "42fc5c56d5eec0964da354b7da8b3e4b", "fusion_lat": 0.0, "name": "42fc5c56d5eec0964da354b7da8b3e4b", "is_reserved": 0, "rental_uris": {"android": "https://dc.lft.to/lastmile_qr_scan", "ios": "https://dc.lft.to/lastmile_qr_scan"}, "fusion_lon": 0.0}, {"lat": 38.90095916666667, "is_disabled": 0, "type": "electric_scooter", "lon": -77.02038983333334, "bike_id": "8725bdc7b0ee60982736210514f71b31", "fusion_lat": 0.0, "name": "8725bdc7b0ee60982736210514f71b31", "is_reserved": 0, "rental_uris": {"android": "https://dc.lft.to/lastmile_qr_scan", "ios": "https://dc.lft.to/lastmile_qr_scan"}, "fusion_lon": 0.0}, {"lat": 38.9045545, "is_disabled": 0, "type": "electric_scooter", "lon": -77.03219733333333, "bike_id": "5325efefa02ab90182e7a4ba70218295", "fusion_lat": 0.0, "name": "5325efefa02ab90182e7a4ba70218295", "is_reserved": 0, "rental_uris": {"android": "https://dc.lft.to/lastmile_qr_scan", "ios": "https://dc.lft.to/lastmile_qr_scan"}, "fusion_lon": 0.0}, {"lat": 38.91921583333333, "is_disabled": 0, "type": "electric_scooter", "lon": -77.03139183333333, "bike_id": "10b22c206b5e11c91f0c0d51f7c84c08", "fusion_lat": 0.0, "name": "10b22c206b5e11c91f0c0d51f7c84c08", "is_reserved": 0, "rental_uris": {"android": "https://dc.lft.to/lastmile_qr_scan", "ios": "https://dc.lft.to/lastmile_qr_scan"}, "fusion_lon": 0.0}, {"lat": 38.897552166666664, "is_disabled": 0, "type": "electric_scooter", "lon": -77.02701, "bike_id": "dd0621cbc6e30395193c5c26e8b3e611", "fusion_lat": 0.0, "name": "dd0621cbc6e30395193c5c26e8b3e611", "is_reserved": 0, "rental_uris": {"android": "https://dc.lft.to/lastmile_qr_scan", "ios": "https://dc.lft.to/lastmile_qr_scan"}, "fusion_lon": 0.0}, {"lat": 38.905165333333336, "is_disabled": 0, "type": "electric_scooter", "lon": -77.00214816666667, "bike_id": "598152abb1dafc7fce8c7e79e00d23af", "fusion_lat": 0.0, "name": "598152abb1dafc7fce8c7e79e00d23af", "is_reserved": 0, "rental_uris": {"android": "https://dc.lft.to/lastmile_qr_scan", "ios": "https://dc.lft.to/lastmile_qr_scan"}, "fusion_lon": 0.0}, {"lat": 38.90960366666667, "is_disabled": 0, "type": "electric_scooter", "lon": -77.0338435, "bike_id": "3af21bf4a66be5d2d75a5b3351828893", "fusion_lat": 0.0, "name": "3af21bf4a66be5d2d75a5b3351828893", "is_reserved": 0, "rental_uris": {"android": "https://dc.lft.to/lastmile_qr_scan", "ios": "https://dc.lft.to/lastmile_qr_scan"}, "fusion_lon": 0.0}, {"lat": 38.923069166666664, "is_disabled": 0, "type": "electric_scooter", "lon": -77.03919, "bike_id": "f3b5409cbe2e7fac0f69483dacafa1bc", "fusion_lat": 0.0, "name": "f3b5409cbe2e7fac0f69483dacafa1bc", "is_reserved": 0, "rental_uris": {"android": "https://dc.lft.to/lastmile_qr_scan", "ios": "https://dc.lft.to/lastmile_qr_scan"}, "fusion_lon": 0.0}, {"lat": 38.92305983333333, "is_disabled": 0, "type": "electric_scooter", "lon": -77.02257666666667, "bike_id": "8824e8f7a98604d6ad1a285ea3307ea0", "fusion_lat": 0.0, "name": "8824e8f7a98604d6ad1a285ea3307ea0", "is_reserved": 0, "rental_uris": {"android": "https://dc.lft.to/lastmile_qr_scan", "ios": "https://dc.lft.to/lastmile_qr_scan"}, "fusion_lon": 0.0}, {"lat": 38.887631, "is_disabled": 0, "type": "electric_scooter", "lon": -76.95586366666667, "bike_id": "f214a8be3f50c3dc5e8245b673f65061", "fusion_lat": 0.0, "name": "f214a8be3f50c3dc5e8245b673f65061", "is_reserved": 0, "rental_uris": {"android": "https://dc.lft.to/lastmile_qr_scan", "ios": "https://dc.lft.to/lastmile_qr_scan"}, "fusion_lon": 0.0}, {"lat": 38.912694, "is_disabled": 0, "type": "electric_scooter", "lon": -77.03189816666666, "bike_id": "e6df95d204760d8f1541972f2d9ad7c9", "fusion_lat": 0.0, "name": "e6df95d204760d8f1541972f2d9ad7c9", "is_reserved": 0, "rental_uris": {"android": "https://dc.lft.to/lastmile_qr_scan", "ios": "https://dc.lft.to/lastmile_qr_scan"}, "fusion_lon": 0.0}, {"lat": 38.8851575, "is_disabled": 0, "type": "electric_scooter", "lon": -77.010723, "bike_id": "27a939ad869e12d113d0a81355ea83ff", "fusion_lat": 0.0, "name": "27a939ad869e12d113d0a81355ea83ff", "is_reserved": 0, "rental_uris": {"android": "https://dc.lft.to/lastmile_qr_scan", "ios": "https://dc.lft.to/lastmile_qr_scan"}, "fusion_lon": 0.0}, {"lat": 38.909547, "is_disabled": 0, "type": "electric_scooter", "lon": -77.0483135, "bike_id": "b105e66ccaa2a8d7df13916272d76b20", "fusion_lat": 0.0, "name": "b105e66ccaa2a8d7df13916272d76b20", "is_reserved": 0, "rental_uris": {"android": "https://dc.lft.to/lastmile_qr_scan", "ios": "https://dc.lft.to/lastmile_qr_scan"}, "fusion_lon": 0.0}, {"lat": 38.866192833333336, "is_disabled": 0, "type": "electric_scooter", "lon": -76.98668483333333, "bike_id": "3a2219dfd964205cdacae0ae8bb01a10", "fusion_lat": 0.0, "name": "3a2219dfd964205cdacae0ae8bb01a10", "is_reserved": 0, "rental_uris": {"android": "https://dc.lft.to/lastmile_qr_scan", "ios": "https://dc.lft.to/lastmile_qr_scan"}, "fusion_lon": 0.0}, {"lat": 38.88498466666667, "is_disabled": 0, "type": "electric_scooter", "lon": -77.00713066666667, "bike_id": "8d617784f108a0fd154bdfda525a4dd8", "fusion_lat": 0.0, "name": "8d617784f108a0fd154bdfda525a4dd8", "is_reserved": 0, "rental_uris": {"android": "https://dc.lft.to/lastmile_qr_scan", "ios": "https://dc.lft.to/lastmile_qr_scan"}, "fusion_lon": 0.0}, {"lat": 38.84590883333333, "is_disabled": 0, "type": "electric_bike", "lon": -77.0768465, "bike_id": "20e7051f1f8c3d5d0fac4737be939f43", "fusion_lat": 0.0, "name": "20e7051f1f8c3d5d0fac4737be939f43", "is_reserved": 0, "rental_uris": {"android": "https://dc.lft.to/lastmile_qr_scan", "ios": "https://dc.lft.to/lastmile_qr_scan"}, "fusion_lon": 0.0}, {"lat": 38.91395216666667, "is_disabled": 0, "type": "electric_scooter", "lon": -77.03205533333333, "bike_id": "48be2a671d42cd15c786b4db4b59e387", "fusion_lat": 0.0, "name": "48be2a671d42cd15c786b4db4b59e387", "is_reserved": 0, "rental_uris": {"android": "https://dc.lft.to/lastmile_qr_scan", "ios": "https://dc.lft.to/lastmile_qr_scan"}, "fusion_lon": 0.0}, {"lat": 38.892549833333334, "is_disabled": 0, "type": "electric_scooter", "lon": -77.0220615, "bike_id": "00766512eeaa1284f9b82aeb807bfea6", "fusion_lat": 0.0, "name": "00766512eeaa1284f9b82aeb807bfea6", "is_reserved": 0, "rental_uris": {"android": "https://dc.lft.to/lastmile_qr_scan", "ios": "https://dc.lft.to/lastmile_qr_scan"}, "fusion_lon": 0.0}, {"lat": 38.939856666666664, "is_disabled": 0, "type": "electric_scooter", "lon": -77.029639, "bike_id": "5bba5a13b0abbe5e7204967ea494b7f0", "fusion_lat": 0.0, "name": "5bba5a13b0abbe5e7204967ea494b7f0", "is_reserved": 0, "rental_uris": {"android": "https://dc.lft.to/lastmile_qr_scan", "ios": "https://dc.lft.to/lastmile_qr_scan"}, "fusion_lon": 0.0}, {"lat": 38.81430183333333, "is_disabled": 0, "type": "electric_bike", "lon": -77.11896733333333, "bike_id": "d0754e7f65fd2eb8cb416fbcbfe0195f", "fusion_lat": 0.0, "name": "d0754e7f65fd2eb8cb416fbcbfe0195f", "is_reserved": 0, "rental_uris": {"android": "https://dc.lft.to/lastmile_qr_scan", "ios": "https://dc.lft.to/lastmile_qr_scan"}, "fusion_lon": 0.0}, {"lat": 38.8978195, "is_disabled": 0, "type": "electric_bike", "lon": -76.90440616666666, "bike_id": "ac2ab4fa37ee25e44bcae187cd64575e", "fusion_lat": 0.0, "name": "ac2ab4fa37ee25e44bcae187cd64575e", "is_reserved": 0, "rental_uris": {"android": "https://dc.lft.to/lastmile_qr_scan", "ios": "https://dc.lft.to/lastmile_qr_scan"}, "fusion_lon": 0.0}, {"lat": 38.91475333333333, "is_disabled": 0, "type": "electric_scooter", "lon": -77.00367133333333, "bike_id": "2d7fb79a92ddaee5354b02c1677300c6", "fusion_lat": 0.0, "name": "2d7fb79a92ddaee5354b02c1677300c6", "is_reserved": 0, "rental_uris": {"android": "https://dc.lft.to/lastmile_qr_scan", "ios": "https://dc.lft.to/lastmile_qr_scan"}, "fusion_lon": 0.0}, {"lat": 38.9042675, "is_disabled": 0, "type": "electric_scooter", "lon": -77.0534435, "bike_id": "363de3c4792e0afc66088c93a4479f45", "fusion_lat": 0.0, "name": "363de3c4792e0afc66088c93a4479f45", "is_reserved": 0, "rental_uris": {"android": "https://dc.lft.to/lastmile_qr_scan", "ios": "https://dc.lft.to/lastmile_qr_scan"}, "fusion_lon": 0.0}, {"lat": 38.916735833333334, "is_disabled": 0, "type": "electric_scooter", "lon": -77.02296333333334, "bike_id": "1c797ab45041190d5f6256ea9600e6b3", "fusion_lat": 0.0, "name": "1c797ab45041190d5f6256ea9600e6b3", "is_reserved": 0, "rental_uris": {"android": "https://dc.lft.to/lastmile_qr_scan", "ios": "https://dc.lft.to/lastmile_qr_scan"}, "fusion_lon": 0.0}, {"lat": 38.9570015, "is_disabled": 0, "type": "electric_scooter", "lon": -77.070961, "bike_id": "bcb04b8c0fe934b5092d09965473f7b6", "fusion_lat": 0.0, "name": "bcb04b8c0fe934b5092d09965473f7b6", "is_reserved": 0, "rental_uris": {"android": "https://dc.lft.to/lastmile_qr_scan", "ios": "https://dc.lft.to/lastmile_qr_scan"}, "fusion_lon": 0.0}, {"lat": 38.901577, "is_disabled": 0, "type": "electric_scooter", "lon": -76.98637316666667, "bike_id": "2b48bd1aebb18ce889801e1a241cdc09", "fusion_lat": 0.0, "name": "2b48bd1aebb18ce889801e1a241cdc09", "is_reserved": 0, "rental_uris": {"android": "https://dc.lft.to/lastmile_qr_scan", "ios": "https://dc.lft.to/lastmile_qr_scan"}, "fusion_lon": 0.0}, {"lat": 38.885031833333336, "is_disabled": 0, "type": "electric_scooter", "lon": -77.0028355, "bike_id": "67e04cff7536219de636ddb6fab25779", "fusion_lat": 0.0, "name": "67e04cff7536219de636ddb6fab25779", "is_reserved": 0, "rental_uris": {"android": "https://dc.lft.to/lastmile_qr_scan", "ios": "https://dc.lft.to/lastmile_qr_scan"}, "fusion_lon": 0.0}, {"lat": 38.89242133333333, "is_disabled": 0, "type": "electric_scooter", "lon": -77.02816683333333, "bike_id": "9174b46dc62cc399800ba796f4ecbdc0", "fusion_lat": 0.0, "name": "9174b46dc62cc399800ba796f4ecbdc0", "is_reserved": 0, "rental_uris": {"android": "https://dc.lft.to/lastmile_qr_scan", "ios": "https://dc.lft.to/lastmile_qr_scan"}, "fusion_lon": 0.0}, {"lat": 38.916886833333336, "is_disabled": 0, "type": "electric_scooter", "lon": -77.03739466666667, "bike_id": "837c6de71d872ca6ad321520918e7a49", "fusion_lat": 0.0, "name": "837c6de71d872ca6ad321520918e7a49", "is_reserved": 0, "rental_uris": {"android": "https://dc.lft.to/lastmile_qr_scan", "ios": "https://dc.lft.to/lastmile_qr_scan"}, "fusion_lon": 0.0}, {"lat": 38.9035535, "is_disabled": 0, "type": "electric_scooter", "lon": -77.04018183333334, "bike_id": "a9ccea8fe42ceb8e81eb50ea448dfb03", "fusion_lat": 0.0, "name": "a9ccea8fe42ceb8e81eb50ea448dfb03", "is_reserved": 0, "rental_uris": {"android": "https://dc.lft.to/lastmile_qr_scan", "ios": "https://dc.lft.to/lastmile_qr_scan"}, "fusion_lon": 0.0}, {"lat": 38.90108633333333, "is_disabled": 0, "type": "electric_scooter", "lon": -77.01703866666666, "bike_id": "f66169840907142ad44fb825e9b07a0a", "fusion_lat": 0.0, "name": "f66169840907142ad44fb825e9b07a0a", "is_reserved": 0, "rental_uris": {"android": "https://dc.lft.to/lastmile_qr_scan", "ios": "https://dc.lft.to/lastmile_qr_scan"}, "fusion_lon": 0.0}, {"lat": 38.909541, "is_disabled": 0, "type": "electric_scooter", "lon": -77.03080666666666, "bike_id": "a54b4aed0bdb6e4a19c7bdb8fe76fd72", "fusion_lat": 0.0, "name": "a54b4aed0bdb6e4a19c7bdb8fe76fd72", "is_reserved": 0, "rental_uris": {"android": "https://dc.lft.to/lastmile_qr_scan", "ios": "https://dc.lft.to/lastmile_qr_scan"}, "fusion_lon": 0.0}, {"lat": 38.873731, "is_disabled": 0, "type": "electric_scooter", "lon": -77.00052316666667, "bike_id": "cbc6a0e27c0c66ef4eeafe572991ec32", "fusion_lat": 0.0, "name": "cbc6a0e27c0c66ef4eeafe572991ec32", "is_reserved": 0, "rental_uris": {"android": "https://dc.lft.to/lastmile_qr_scan", "ios": "https://dc.lft.to/lastmile_qr_scan"}, "fusion_lon": 0.0}, {"lat": 38.84274166666667, "is_disabled": 0, "type": "electric_bike", "lon": -76.98853233333334, "bike_id": "e9eb8b2dea3284b97887e1cb0d9b655c", "fusion_lat": 0.0, "name": "e9eb8b2dea3284b97887e1cb0d9b655c", "is_reserved": 0, "rental_uris": {"android": "https://dc.lft.to/lastmile_qr_scan", "ios": "https://dc.lft.to/lastmile_qr_scan"}, "fusion_lon": 0.0}, {"lat": 38.88738466666667, "is_disabled": 0, "type": "electric_scooter", "lon": -77.01544333333334, "bike_id": "ad91e6e536237bbcbe70eb9d3048d1bd", "fusion_lat": 0.0, "name": "ad91e6e536237bbcbe70eb9d3048d1bd", "is_reserved": 0, "rental_uris": {"android": "https://dc.lft.to/lastmile_qr_scan", "ios": "https://dc.lft.to/lastmile_qr_scan"}, "fusion_lon": 0.0}, {"lat": 38.92164066666667, "is_disabled": 0, "type": "electric_scooter", "lon": -77.04231616666667, "bike_id": "2639adabd0766e93a8285d79ddb5ee5d", "fusion_lat": 0.0, "name": "2639adabd0766e93a8285d79ddb5ee5d", "is_reserved": 0, "rental_uris": {"android": "https://dc.lft.to/lastmile_qr_scan", "ios": "https://dc.lft.to/lastmile_qr_scan"}, "fusion_lon": 0.0}, {"lat": 38.917773, "is_disabled": 0, "type": "electric_scooter", "lon": -77.02270983333334, "bike_id": "54a485f0c00825628b8b24ccd503c1d5", "fusion_lat": 0.0, "name": "54a485f0c00825628b8b24ccd503c1d5", "is_reserved": 0, "rental_uris": {"android": "https://dc.lft.to/lastmile_qr_scan", "ios": "https://dc.lft.to/lastmile_qr_scan"}, "fusion_lon": 0.0}, {"lat": 38.908705166666664, "is_disabled": 0, "type": "electric_scooter", "lon": -77.04346083333333, "bike_id": "a6dc5d212690b3ad9a9040b12136fd9b", "fusion_lat": 0.0, "name": "a6dc5d212690b3ad9a9040b12136fd9b", "is_reserved": 0, "rental_uris": {"android": "https://dc.lft.to/lastmile_qr_scan", "ios": "https://dc.lft.to/lastmile_qr_scan"}, "fusion_lon": 0.0}, {"lat": 38.8616, "is_disabled": 0, "type": "electric_bike", "lon": -77.130966, "bike_id": "6e47dea25abaf1c5ca6465ce9cc3d868", "fusion_lat": 0.0, "name": "6e47dea25abaf1c5ca6465ce9cc3d868", "is_reserved": 0, "rental_uris": {"android": "https://dc.lft.to/lastmile_qr_scan", "ios": "https://dc.lft.to/lastmile_qr_scan"}, "fusion_lon": 0.0}, {"lat": 38.96697866666667, "is_disabled": 0, "type": "electric_bike", "lon": -77.10225, "bike_id": "a10c34e8f4abb95def05dbabae5ff489", "fusion_lat": 0.0, "name": "a10c34e8f4abb95def05dbabae5ff489", "is_reserved": 0, "rental_uris": {"android": "https://dc.lft.to/lastmile_qr_scan", "ios": "https://dc.lft.to/lastmile_qr_scan"}, "fusion_lon": 0.0}, {"lat": 38.92047616666667, "is_disabled": 0, "type": "electric_scooter", "lon": -77.032974, "bike_id": "28ec9c90e3b432e9eb6a7621759df196", "fusion_lat": 0.0, "name": "28ec9c90e3b432e9eb6a7621759df196", "is_reserved": 0, "rental_uris": {"android": "https://dc.lft.to/lastmile_qr_scan", "ios": "https://dc.lft.to/lastmile_qr_scan"}, "fusion_lon": 0.0}, {"lat": 38.88928516666667, "is_disabled": 0, "type": "electric_scooter", "lon": -76.97378733333333, "bike_id": "7ecbccb0fb902c6f0eea55623ac5b0c5", "fusion_lat": 0.0, "name": "7ecbccb0fb902c6f0eea55623ac5b0c5", "is_reserved": 0, "rental_uris": {"android": "https://dc.lft.to/lastmile_qr_scan", "ios": "https://dc.lft.to/lastmile_qr_scan"}, "fusion_lon": 0.0}, {"lat": 38.90629083333334, "is_disabled": 0, "type": "electric_scooter", "lon": -77.0628845, "bike_id": "9c181f700cd6df9ffc2748683b06f2e5", "fusion_lat": 0.0, "name": "9c181f700cd6df9ffc2748683b06f2e5", "is_reserved": 0, "rental_uris": {"android": "https://dc.lft.to/lastmile_qr_scan", "ios": "https://dc.lft.to/lastmile_qr_scan"}, "fusion_lon": 0.0}, {"lat": 38.90536133333333, "is_disabled": 0, "type": "electric_scooter", "lon": -77.0220215, "bike_id": "76b4bfc215e3946e4198462d2d9551d4", "fusion_lat": 0.0, "name": "76b4bfc215e3946e4198462d2d9551d4", "is_reserved": 0, "rental_uris": {"android": "https://dc.lft.to/lastmile_qr_scan", "ios": "https://dc.lft.to/lastmile_qr_scan"}, "fusion_lon": 0.0}, {"lat": 38.86239033333333, "is_disabled": 0, "type": "electric_scooter", "lon": -76.992617, "bike_id": "7fb49abfd33fa217a50f4d0d3bff3497", "fusion_lat": 0.0, "name": "7fb49abfd33fa217a50f4d0d3bff3497", "is_reserved": 0, "rental_uris": {"android": "https://dc.lft.to/lastmile_qr_scan", "ios": "https://dc.lft.to/lastmile_qr_scan"}, "fusion_lon": 0.0}, {"lat": 38.9259395, "is_disabled": 0, "type": "electric_scooter", "lon": -77.02265666666666, "bike_id": "b8c767b1aa70fcba8176f0a2886a3833", "fusion_lat": 0.0, "name": "b8c767b1aa70fcba8176f0a2886a3833", "is_reserved": 0, "rental_uris": {"android": "https://dc.lft.to/lastmile_qr_scan", "ios": "https://dc.lft.to/lastmile_qr_scan"}, "fusion_lon": 0.0}, {"lat": 38.917082, "is_disabled": 0, "type": "electric_scooter", "lon": -77.03467633333334, "bike_id": "a19f2a75504de84c8000822ff1bd3860", "fusion_lat": 0.0, "name": "a19f2a75504de84c8000822ff1bd3860", "is_reserved": 0, "rental_uris": {"android": "https://dc.lft.to/lastmile_qr_scan", "ios": "https://dc.lft.to/lastmile_qr_scan"}, "fusion_lon": 0.0}, {"lat": 38.9192285, "is_disabled": 0, "type": "electric_scooter", "lon": -77.00101316666667, "bike_id": "26d688e674424ed544ee1760f81a28b0", "fusion_lat": 0.0, "name": "26d688e674424ed544ee1760f81a28b0", "is_reserved": 0, "rental_uris": {"android": "https://dc.lft.to/lastmile_qr_scan", "ios": "https://dc.lft.to/lastmile_qr_scan"}, "fusion_lon": 0.0}, {"lat": 38.88718016666667, "is_disabled": 0, "type": "electric_scooter", "lon": -77.01381533333333, "bike_id": "a0f1589a8ba63edb59f9a467032dbffd", "fusion_lat": 0.0, "name": "a0f1589a8ba63edb59f9a467032dbffd", "is_reserved": 0, "rental_uris": {"android": "https://dc.lft.to/lastmile_qr_scan", "ios": "https://dc.lft.to/lastmile_qr_scan"}, "fusion_lon": 0.0}, {"lat": 38.95778466666667, "is_disabled": 0, "type": "electric_scooter", "lon": -77.02753983333334, "bike_id": "18e8f2ea715e6ead48532871474cf9b6", "fusion_lat": 0.0, "name": "18e8f2ea715e6ead48532871474cf9b6", "is_reserved": 0, "rental_uris": {"android": "https://dc.lft.to/lastmile_qr_scan", "ios": "https://dc.lft.to/lastmile_qr_scan"}, "fusion_lon": 0.0}, {"lat": 38.90868733333333, "is_disabled": 0, "type": "electric_scooter", "lon": -77.0365895, "bike_id": "52389c1d5ed5b7c6c0baee672f61ff16", "fusion_lat": 0.0, "name": "52389c1d5ed5b7c6c0baee672f61ff16", "is_reserved": 0, "rental_uris": {"android": "https://dc.lft.to/lastmile_qr_scan", "ios": "https://dc.lft.to/lastmile_qr_scan"}, "fusion_lon": 0.0}, {"lat": 38.93973733333333, "is_disabled": 0, "type": "electric_scooter", "lon": -77.0359455, "bike_id": "1b2867e2c86e19016bced31d71d0a472", "fusion_lat": 0.0, "name": "1b2867e2c86e19016bced31d71d0a472", "is_reserved": 0, "rental_uris": {"android": "https://dc.lft.to/lastmile_qr_scan", "ios": "https://dc.lft.to/lastmile_qr_scan"}, "fusion_lon": 0.0}, {"lat": 38.920402833333334, "is_disabled": 0, "type": "electric_scooter", "lon": -77.03298116666667, "bike_id": "7580d06902efcdbe7b857793531a6cfd", "fusion_lat": 0.0, "name": "7580d06902efcdbe7b857793531a6cfd", "is_reserved": 0, "rental_uris": {"android": "https://dc.lft.to/lastmile_qr_scan", "ios": "https://dc.lft.to/lastmile_qr_scan"}, "fusion_lon": 0.0}, {"lat": 38.94438133333333, "is_disabled": 0, "type": "electric_scooter", "lon": -77.02342183333333, "bike_id": "41772f396f1f4176e4610487f180bb00", "fusion_lat": 0.0, "name": "41772f396f1f4176e4610487f180bb00", "is_reserved": 0, "rental_uris": {"android": "https://dc.lft.to/lastmile_qr_scan", "ios": "https://dc.lft.to/lastmile_qr_scan"}, "fusion_lon": 0.0}, {"lat": 38.909526166666666, "is_disabled": 0, "type": "electric_scooter", "lon": -77.04804483333334, "bike_id": "79a601665e048bab5c56b9f287046541", "fusion_lat": 0.0, "name": "79a601665e048bab5c56b9f287046541", "is_reserved": 0, "rental_uris": {"android": "https://dc.lft.to/lastmile_qr_scan", "ios": "https://dc.lft.to/lastmile_qr_scan"}, "fusion_lon": 0.0}, {"lat": 38.90969333333334, "is_disabled": 0, "type": "electric_scooter", "lon": -77.023868, "bike_id": "e45692d26429191719e6cf7fe5b2fe91", "fusion_lat": 0.0, "name": "e45692d26429191719e6cf7fe5b2fe91", "is_reserved": 0, "rental_uris": {"android": "https://dc.lft.to/lastmile_qr_scan", "ios": "https://dc.lft.to/lastmile_qr_scan"}, "fusion_lon": 0.0}, {"lat": 38.9169135, "is_disabled": 0, "type": "electric_scooter", "lon": -77.03739816666666, "bike_id": "c07a74ccf2fe54362e5286a8d75cb9ad", "fusion_lat": 0.0, "name": "c07a74ccf2fe54362e5286a8d75cb9ad", "is_reserved": 0, "rental_uris": {"android": "https://dc.lft.to/lastmile_qr_scan", "ios": "https://dc.lft.to/lastmile_qr_scan"}, "fusion_lon": 0.0}, {"lat": 38.85738333333333, "is_disabled": 0, "type": "electric_scooter", "lon": -76.9943935, "bike_id": "cbd75162dee4d2dcc0297cab63f47404", "fusion_lat": 0.0, "name": "cbd75162dee4d2dcc0297cab63f47404", "is_reserved": 0, "rental_uris": {"android": "https://dc.lft.to/lastmile_qr_scan", "ios": "https://dc.lft.to/lastmile_qr_scan"}, "fusion_lon": 0.0}, {"lat": 38.901487833333334, "is_disabled": 0, "type": "electric_scooter", "lon": -77.04141816666667, "bike_id": "eee833713f0fb595a526000917397d1a", "fusion_lat": 0.0, "name": "eee833713f0fb595a526000917397d1a", "is_reserved": 0, "rental_uris": {"android": "https://dc.lft.to/lastmile_qr_scan", "ios": "https://dc.lft.to/lastmile_qr_scan"}, "fusion_lon": 0.0}, {"lat": 38.902232, "is_disabled": 0, "type": "electric_scooter", "lon": -77.02974883333333, "bike_id": "a4d205c6c360efc1b17e90c8d9161533", "fusion_lat": 0.0, "name": "a4d205c6c360efc1b17e90c8d9161533", "is_reserved": 0, "rental_uris": {"android": "https://dc.lft.to/lastmile_qr_scan", "ios": "https://dc.lft.to/lastmile_qr_scan"}, "fusion_lon": 0.0}, {"lat": 38.90589666666666, "is_disabled": 0, "type": "electric_scooter", "lon": -76.9862105, "bike_id": "1185f2d64501307323644b24f12e2805", "fusion_lat": 0.0, "name": "1185f2d64501307323644b24f12e2805", "is_reserved": 0, "rental_uris": {"android": "https://dc.lft.to/lastmile_qr_scan", "ios": "https://dc.lft.to/lastmile_qr_scan"}, "fusion_lon": 0.0}, {"lat": 38.921206, "is_disabled": 0, "type": "electric_scooter", "lon": -77.04573433333333, "bike_id": "1441b258b55cb3fb85da1f160f8b1914", "fusion_lat": 0.0, "name": "1441b258b55cb3fb85da1f160f8b1914", "is_reserved": 0, "rental_uris": {"android": "https://dc.lft.to/lastmile_qr_scan", "ios": "https://dc.lft.to/lastmile_qr_scan"}, "fusion_lon": 0.0}, {"lat": 38.91745933333333, "is_disabled": 0, "type": "electric_scooter", "lon": -77.03187833333334, "bike_id": "2199cea6717ccb3aa3f4afbc058b7e5d", "fusion_lat": 0.0, "name": "2199cea6717ccb3aa3f4afbc058b7e5d", "is_reserved": 0, "rental_uris": {"android": "https://dc.lft.to/lastmile_qr_scan", "ios": "https://dc.lft.to/lastmile_qr_scan"}, "fusion_lon": 0.0}, {"lat": 38.93902, "is_disabled": 0, "type": "electric_scooter", "lon": -77.06684983333334, "bike_id": "ec8d8607ba6b7f0575f705d27378c6d5", "fusion_lat": 0.0, "name": "ec8d8607ba6b7f0575f705d27378c6d5", "is_reserved": 0, "rental_uris": {"android": "https://dc.lft.to/lastmile_qr_scan", "ios": "https://dc.lft.to/lastmile_qr_scan"}, "fusion_lon": 0.0}, {"lat": 38.908579833333334, "is_disabled": 0, "type": "electric_bike", "lon": -76.94014083333333, "bike_id": "9f8bc4ab18348c2548a860d0b3048b48", "fusion_lat": 0.0, "name": "9f8bc4ab18348c2548a860d0b3048b48", "is_reserved": 0, "rental_uris": {"android": "https://dc.lft.to/lastmile_qr_scan", "ios": "https://dc.lft.to/lastmile_qr_scan"}, "fusion_lon": 0.0}, {"lat": 38.92158, "is_disabled": 0, "type": "electric_scooter", "lon": -77.0337045, "bike_id": "00f58b73e503c55bd798606563d15aaa", "fusion_lat": 0.0, "name": "00f58b73e503c55bd798606563d15aaa", "is_reserved": 0, "rental_uris": {"android": "https://dc.lft.to/lastmile_qr_scan", "ios": "https://dc.lft.to/lastmile_qr_scan"}, "fusion_lon": 0.0}, {"lat": 38.922541, "is_disabled": 0, "type": "electric_scooter", "lon": -77.0703815, "bike_id": "4f61ba08d66ad240cc8263f0ad459ca7", "fusion_lat": 0.0, "name": "4f61ba08d66ad240cc8263f0ad459ca7", "is_reserved": 0, "rental_uris": {"android": "https://dc.lft.to/lastmile_qr_scan", "ios": "https://dc.lft.to/lastmile_qr_scan"}, "fusion_lon": 0.0}, {"lat": 38.86705166666667, "is_disabled": 0, "type": "electric_scooter", "lon": -76.98729566666667, "bike_id": "5d06d8cdcf75031b744a6b8288c90c53", "fusion_lat": 0.0, "name": "5d06d8cdcf75031b744a6b8288c90c53", "is_reserved": 0, "rental_uris": {"android": "https://dc.lft.to/lastmile_qr_scan", "ios": "https://dc.lft.to/lastmile_qr_scan"}, "fusion_lon": 0.0}, {"lat": 38.906488833333334, "is_disabled": 0, "type": "electric_scooter", "lon": -77.0420235, "bike_id": "d1c3ab397ded3ba81b5848c3dc41723b", "fusion_lat": 0.0, "name": "d1c3ab397ded3ba81b5848c3dc41723b", "is_reserved": 0, "rental_uris": {"android": "https://dc.lft.to/lastmile_qr_scan", "ios": "https://dc.lft.to/lastmile_qr_scan"}, "fusion_lon": 0.0}, {"lat": 38.90261366666667, "is_disabled": 0, "type": "electric_scooter", "lon": -77.03962733333333, "bike_id": "4c6290ab1b70faf534c645f390eba0a1", "fusion_lat": 0.0, "name": "4c6290ab1b70faf534c645f390eba0a1", "is_reserved": 0, "rental_uris": {"android": "https://dc.lft.to/lastmile_qr_scan", "ios": "https://dc.lft.to/lastmile_qr_scan"}, "fusion_lon": 0.0}, {"lat": 38.9058655, "is_disabled": 0, "type": "electric_scooter", "lon": -77.04693433333334, "bike_id": "c758c927cd6343f8f5cf6daeb108df1f", "fusion_lat": 0.0, "name": "c758c927cd6343f8f5cf6daeb108df1f", "is_reserved": 0, "rental_uris": {"android": "https://dc.lft.to/lastmile_qr_scan", "ios": "https://dc.lft.to/lastmile_qr_scan"}, "fusion_lon": 0.0}, {"lat": 38.931489166666665, "is_disabled": 0, "type": "electric_scooter", "lon": -77.02930066666667, "bike_id": "cbf52c2a5c36b7365488cc04beea6ee2", "fusion_lat": 0.0, "name": "cbf52c2a5c36b7365488cc04beea6ee2", "is_reserved": 0, "rental_uris": {"android": "https://dc.lft.to/lastmile_qr_scan", "ios": "https://dc.lft.to/lastmile_qr_scan"}, "fusion_lon": 0.0}, {"lat": 38.92011466666666, "is_disabled": 0, "type": "electric_scooter", "lon": -77.0388655, "bike_id": "b2dd42237d901a8df70d04b2de594026", "fusion_lat": 0.0, "name": "b2dd42237d901a8df70d04b2de594026", "is_reserved": 0, "rental_uris": {"android": "https://dc.lft.to/lastmile_qr_scan", "ios": "https://dc.lft.to/lastmile_qr_scan"}, "fusion_lon": 0.0}, {"lat": 38.927643333333336, "is_disabled": 0, "type": "electric_scooter", "lon": -77.03220533333334, "bike_id": "39638a07abf0bde3686321094543debc", "fusion_lat": 0.0, "name": "39638a07abf0bde3686321094543debc", "is_reserved": 0, "rental_uris": {"android": "https://dc.lft.to/lastmile_qr_scan", "ios": "https://dc.lft.to/lastmile_qr_scan"}, "fusion_lon": 0.0},