{"data": {"bikes": [{"name": "aa77c40dddb933176c680874a9fc0fdc", "lon": -77.02234516666667, "lat": 38.89975333333334, "type": "electric_scooter", "is_disabled": 0, "rental_uris": {"android": "https://dc.lft.to/lastmile_qr_scan", "ios": "https://dc.lft.to/lastmile_qr_scan"}, "fusion_lon": 0.0, "bike_id": "aa77c40dddb933176c680874a9fc0fdc", "fusion_lat": 0.0, "is_reserved": 0}, {"name": "70cac81c06bed6fa836d7798fdc5baae", "lon": -77.0019495, "lat": 38.941502, "type": "electric_bike", "is_disabled": 0, "rental_uris": {"android": "https://dc.lft.to/lastmile_qr_scan", "ios": "https://dc.lft.to/lastmile_qr_scan"}, "fusion_lon": 0.0, "bike_id": "70cac81c06bed6fa836d7798fdc5baae", "fusion_lat": 0.0, "is_reserved": 0}, {"name": "95749521ba77ed811a06b574278f2130", "lon": -77.0234245, "lat": 38.94458066666667, "type": "electric_scooter", "is_disabled": 0, "rental_uris": {"android": "https://dc.lft.to/lastmile_qr_scan", "ios": "https://dc.lft.to/lastmile_qr_scan"}, "fusion_lon": 0.0, "bike_id": "95749521ba77ed811a06b574278f2130", "fusion_lat": 0.0, "is_reserved": 0}, {"name": "d2b77d29a93d19b27d88fdf17b3ea86c", "lon": -77.00183633333333, "lat": 38.952420000000004, "type": "electric_scooter", "is_disabled": 0, "rental_uris": {"android": "https://dc.lft.to/lastmile_qr_scan", "ios": "https://dc.lft.to/lastmile_qr_scan"}, "fusion_lon": 0.0, "bike_id": "d2b77d29a93d19b27d88fdf17b3ea86c", "fusion_lat": 0.0, "is_reserved": 0}, {"name": "5b8081b5b7e34a44993d47e047353fe9", "lon": -77.08655, "lat": 38.938537, "type": "electric_scooter", "is_disabled": 0, "rental_uris": {"android": "https://dc.lft.to/lastmile_qr_scan", "ios": "https://dc.lft.to/lastmile_qr_scan"}, "fusion_lon": 0.0, "bike_id": "5b8081b5b7e34a44993d47e047353fe9", "fusion_lat": 0.0, "is_reserved": 0}, {"name": "ab640872dcfd7ed779c903dff4adf4c8", "lon": -77.050573, "lat": 38.910774833333335, "type": "electric_scooter", "is_disabled": 0, "rental_uris": {"android": "https://dc.lft.to/lastmile_qr_scan", "ios": "https://dc.lft.to/lastmile_qr_scan"}, "fusion_lon": 0.0, "bike_id": "ab640872dcfd7ed779c903dff4adf4c8", "fusion_lat": 0.0, "is_reserved": 0}, {"name": "ff2ef4c25dca4c3723c224e9625bd70d", "lon": -76.9854385, "lat": 38.866876166666664, "type": "electric_scooter", "is_disabled": 0, "rental_uris": {"android": "https://dc.lft.to/lastmile_qr_scan", "ios": "https://dc.lft.to/lastmile_qr_scan"}, "fusion_lon": 0.0, "bike_id": "ff2ef4c25dca4c3723c224e9625bd70d", "fusion_lat": 0.0, "is_reserved": 0}, {"name": "78b770d294825460279838d06c87e3f5", "lon": -77.02039966666666, "lat": 38.920845166666666, "type": "electric_scooter", "is_disabled": 0, "rental_uris": {"android": "https://dc.lft.to/lastmile_qr_scan", "ios": "https://dc.lft.to/lastmile_qr_scan"}, "fusion_lon": 0.0, "bike_id": "78b770d294825460279838d06c87e3f5", "fusion_lat": 0.0, "is_reserved": 0}, {"name": "b1b81db22f7544a4e993581891c3e786", "lon": -77.043456, "lat": 38.90397516666667, "type": "electric_scooter", "is_disabled": 0, "rental_uris": {"android": "https://dc.lft.to/lastmile_qr_scan", "ios": "https://dc.lft.to/lastmile_qr_scan"}, "fusion_lon": 0.0, "bike_id": "b1b81db22f7544a4e993581891c3e786", "fusion_lat": 0.0, "is_reserved": 0}, {"name": "5fa185e492cae52863d8511164eb40b8", "lon": -77.0321, "lat": 38.892304833333334, "type": "electric_scooter", "is_disabled": 0, "rental_uris": {"android": "https://dc.lft.to/lastmile_qr_scan", "ios": "https://dc.lft.to/lastmile_qr_scan"}, "fusion_lon": 0.0, "bike_id": "5fa185e492cae52863d8511164eb40b8", "fusion_lat": 0.0, "is_reserved": 0}, {"name": "1fc245775d56d9e038e97f8e63fa558c", "lon": -77.06196983333334, "lat": 38.91840283333333, "type": "electric_scooter", "is_disabled": 0, "rental_uris": {"android": "https://dc.lft.to/lastmile_qr_scan", "ios": "https://dc.lft.to/lastmile_qr_scan"}, "fusion_lon": 0.0, "bike_id": "1fc245775d56d9e038e97f8e63fa558c", "fusion_lat": 0.0, "is_reserved": 0}, {"name": "7427514ffc8061dec4dcc133309ebf9d", "lon": -77.04002966666667, "lat": 38.9077095, "type": "electric_scooter", "is_disabled": 0, "rental_uris": {"android": "https://dc.lft.to/lastmile_qr_scan", "ios": "https://dc.lft.to/lastmile_qr_scan"}, "fusion_lon": 0.0, "bike_id": "7427514ffc8061dec4dcc133309ebf9d", "fusion_lat": 0.0, "is_reserved": 0}, {"name": "ade74341447dc450534eed8d9814cdec", "lon": -77.02204166666667, "lat": 38.901749, "type": "electric_scooter", "is_disabled": 0, "rental_uris": {"android": "https://dc.lft.to/lastmile_qr_scan", "ios": "https://dc.lft.to/lastmile_qr_scan"}, "fusion_lon": 0.0, "bike_id": "ade74341447dc450534eed8d9814cdec", "fusion_lat": 0.0, "is_reserved": 0}, {"name": "1678d3a142879c697386430bad630bae", "lon": -77.03212566666667, "lat": 38.91689483333333, "type": "electric_scooter", "is_disabled": 0, "rental_uris": {"android": "https://dc.lft.to/lastmile_qr_scan", "ios": "https://dc.lft.to/lastmile_qr_scan"}, "fusion_lon": 0.0, "bike_id": "1678d3a142879c697386430bad630bae", "fusion_lat": 0.0, "is_reserved": 0}, {"name": "c9582f457f68bb9e1dda91183fc6b71c", "lon": -77.02348716666667, "lat": 38.93528466666667, "type": "electric_scooter", "is_disabled": 0, "rental_uris": {"android": "https://dc.lft.to/lastmile_qr_scan", "ios": "https://dc.lft.to/lastmile_qr_scan"}, "fusion_lon": 0.0, "bike_id": "c9582f457f68bb9e1dda91183fc6b71c", "fusion_lat": 0.0, "is_reserved": 0}, {"name": "12f8e1f1de193d2c5c3949644156ed31", "lon": -77.01998566666667, "lat": 38.96624283333333, "type": "electric_scooter", "is_disabled": 0, "rental_uris": {"android": "https://dc.lft.to/lastmile_qr_scan", "ios": "https://dc.lft.to/lastmile_qr_scan"}, "fusion_lon": 0.0, "bike_id": "12f8e1f1de193d2c5c3949644156ed31", "fusion_lat": 0.0, "is_reserved": 0}, {"name": "1b71ecfcc5551236fca7753cc822f9e2", "lon": -77.00557266666667, "lat": 38.87468033333333, "type": "electric_scooter", "is_disabled": 0, "rental_uris": {"android": "https://dc.lft.to/lastmile_qr_scan", "ios": "https://dc.lft.to/lastmile_qr_scan"}, "fusion_lon": 0.0, "bike_id": "1b71ecfcc5551236fca7753cc822f9e2", "fusion_lat": 0.0, "is_reserved": 0}, {"name": "8ae90669f625ad37ae3a0e5c77cb0b94", "lon": -77.04081366666666, "lat": 38.93279166666667, "type": "electric_scooter", "is_disabled": 0, "rental_uris": {"android": "https://dc.lft.to/lastmile_qr_scan", "ios": "https://dc.lft.to/lastmile_qr_scan"}, "fusion_lon": 0.0, "bike_id": "8ae90669f625ad37ae3a0e5c77cb0b94", "fusion_lat": 0.0, "is_reserved": 0}, {"name": "a2c3899123cce94d7f667a5d809cca55", "lon": -77.01700283333334, "lat": 38.90255033333333, "type": "electric_scooter", "is_disabled": 0, "rental_uris": {"android": "https://dc.lft.to/lastmile_qr_scan", "ios": "https://dc.lft.to/lastmile_qr_scan"}, "fusion_lon": 0.0, "bike_id": "a2c3899123cce94d7f667a5d809cca55", "fusion_lat": 0.0, "is_reserved": 0}, {"name": "e7275b3900814bff187e3b997e73792d", "lon": -77.00375866666667, "lat": 38.897285, "type": "electric_scooter", "is_disabled": 0, "rental_uris": {"android": "https://dc.lft.to/lastmile_qr_scan", "ios": "https://dc.lft.to/lastmile_qr_scan"}, "fusion_lon": 0.0, "bike_id": "e7275b3900814bff187e3b997e73792d", "fusion_lat": 0.0, "is_reserved": 0}, {"name": "ad7e5d1c8b932f9cab97395915ea29dc", "lon": -76.99672433333333, "lat": 38.856466166666664, "type": "electric_scooter", "is_disabled": 0, "rental_uris": {"android": "https://dc.lft.to/lastmile_qr_scan", "ios": "https://dc.lft.to/lastmile_qr_scan"}, "fusion_lon": 0.0, "bike_id": "ad7e5d1c8b932f9cab97395915ea29dc", "fusion_lat": 0.0, "is_reserved": 0}, {"name": "c3072107bcc6472231c332898f8cd9be", "lon": -77.02074366666666, "lat": 38.894639833333336, "type": "electric_scooter", "is_disabled": 0, "rental_uris": {"android": "https://dc.lft.to/lastmile_qr_scan", "ios": "https://dc.lft.to/lastmile_qr_scan"}, "fusion_lon": 0.0, "bike_id": "c3072107bcc6472231c332898f8cd9be", "fusion_lat": 0.0, "is_reserved": 0}, {"name": "4a224735412f4c9d09d70cd68c951711", "lon": -77.03947766666667, "lat": 38.9196565, "type": "electric_scooter", "is_disabled": 0, "rental_uris": {"android": "https://dc.lft.to/lastmile_qr_scan", "ios": "https://dc.lft.to/lastmile_qr_scan"}, "fusion_lon": 0.0, "bike_id": "4a224735412f4c9d09d70cd68c951711", "fusion_lat": 0.0, "is_reserved": 0}, {"name": "1bcde2ad8be00c74c8b9d8eba2f18b4c", "lon": -77.03926133333333, "lat": 38.9161745, "type": "electric_scooter", "is_disabled": 0, "rental_uris": {"android": "https://dc.lft.to/lastmile_qr_scan", "ios": "https://dc.lft.to/lastmile_qr_scan"}, "fusion_lon": 0.0, "bike_id": "1bcde2ad8be00c74c8b9d8eba2f18b4c", "fusion_lat": 0.0, "is_reserved": 0}, {"name": "222c2265827292e19120d3acc0a378d0", "lon": -76.93019666666666, "lat": 38.9015855, "type": "electric_scooter", "is_disabled": 0, "rental_uris": {"android": "https://dc.lft.to/lastmile_qr_scan", "ios": "https://dc.lft.to/lastmile_qr_scan"}, "fusion_lon": 0.0, "bike_id": "222c2265827292e19120d3acc0a378d0", "fusion_lat": 0.0, "is_reserved": 0}, {"name": "db8af44af7194c80fc50ece618afbf58", "lon": -76.9917345, "lat": 38.90011166666667, "type": "electric_scooter", "is_disabled": 0, "rental_uris": {"android": "https://dc.lft.to/lastmile_qr_scan", "ios": "https://dc.lft.to/lastmile_qr_scan"}, "fusion_lon": 0.0, "bike_id": "db8af44af7194c80fc50ece618afbf58", "fusion_lat": 0.0, "is_reserved": 0}, {"name": "5c20718eeab2a7ee90dcbcb53d0dc747", "lon": -76.92044933333334, "lat": 38.89730133333333, "type": "electric_bike", "is_disabled": 0, "rental_uris": {"android": "https://dc.lft.to/lastmile_qr_scan", "ios": "https://dc.lft.to/lastmile_qr_scan"}, "fusion_lon": 0.0, "bike_id": "5c20718eeab2a7ee90dcbcb53d0dc747", "fusion_lat": 0.0, "is_reserved": 0}, {"name": "f462d9cc9d135a1d83fc00af6c165570", "lon": -77.00338783333333, "lat": 38.8950425, "type": "electric_scooter", "is_disabled": 0, "rental_uris": {"android": "https://dc.lft.to/lastmile_qr_scan", "ios": "https://dc.lft.to/lastmile_qr_scan"}, "fusion_lon": 0.0, "bike_id": "f462d9cc9d135a1d83fc00af6c165570", "fusion_lat": 0.0, "is_reserved": 0}, {"name": "cf6f320c25a7bb91240aa36f6d0c0c84", "lon": -77.02158933333334, "lat": 38.9259585, "type": "electric_scooter", "is_disabled": 0, "rental_uris": {"android": "https://dc.lft.to/lastmile_qr_scan", "ios": "https://dc.lft.to/lastmile_qr_scan"}, "fusion_lon": 0.0, "bike_id": "cf6f320c25a7bb91240aa36f6d0c0c84", "fusion_lat": 0.0, "is_reserved": 0}, {"name": "d5ad2d9ec8e1012debc85fbb2d89045d", "lon": -76.99710516666667, "lat": 38.932243, "type": "electric_scooter", "is_disabled": 0, "rental_uris": {"android": "https://dc.lft.to/lastmile_qr_scan", "ios": "https://dc.lft.to/lastmile_qr_scan"}, "fusion_lon": 0.0, "bike_id": "d5ad2d9ec8e1012debc85fbb2d89045d", "fusion_lat": 0.0, "is_reserved": 0}, {"name": "d04e8529ac12635ec48fbc8dd7705676", "lon": -76.98815016666667, "lat": 38.90037733333333, "type": "electric_scooter", "is_disabled": 0, "rental_uris": {"android": "https://dc.lft.to/lastmile_qr_scan", "ios": "https://dc.lft.to/lastmile_qr_scan"}, "fusion_lon": 0.0, "bike_id": "d04e8529ac12635ec48fbc8dd7705676", "fusion_lat": 0.0, "is_reserved": 0}, {"name": "df63c27c4ac8e872960496961cc187cb", "lon": -77.026512, "lat": 38.98438483333334, "type": "electric_scooter", "is_disabled": 0, "rental_uris": {"android": "https://dc.lft.to/lastmile_qr_scan", "ios": "https://dc.lft.to/lastmile_qr_scan"}, "fusion_lon": 0.0, "bike_id": "df63c27c4ac8e872960496961cc187cb", "fusion_lat": 0.0, "is_reserved": 0}, {"name": "8d60538368d173435147bda27db1bf40", "lon": -76.9869865, "lat": 38.9190325, "type": "electric_scooter", "is_disabled": 0, "rental_uris": {"android": "https://dc.lft.to/lastmile_qr_scan", "ios": "https://dc.lft.to/lastmile_qr_scan"}, "fusion_lon": 0.0, "bike_id": "8d60538368d173435147bda27db1bf40", "fusion_lat": 0.0, "is_reserved": 0}, {"name": "607e63d54cdadde7696139db9f64fc44", "lon": -77.0270635, "lat": 38.928771, "type": "electric_scooter", "is_disabled": 0, "rental_uris": {"android": "https://dc.lft.to/lastmile_qr_scan", "ios": "https://dc.lft.to/lastmile_qr_scan"}, "fusion_lon": 0.0, "bike_id": "607e63d54cdadde7696139db9f64fc44", "fusion_lat": 0.0, "is_reserved": 0}, {"name": "5481a823c80c7f7933254df979105e15", "lon": -77.03949966666667, "lat": 38.89853033333333, "type": "electric_scooter", "is_disabled": 0, "rental_uris": {"android": "https://dc.lft.to/lastmile_qr_scan", "ios": "https://dc.lft.to/lastmile_qr_scan"}, "fusion_lon": 0.0, "bike_id": "5481a823c80c7f7933254df979105e15", "fusion_lat": 0.0, "is_reserved": 0}, {"name": "26502ed7189235dcfa17e2796af3a769", "lon": -77.00197666666666, "lat": 38.90032133333333, "type": "electric_scooter", "is_disabled": 0, "rental_uris": {"android": "https://dc.lft.to/lastmile_qr_scan", "ios": "https://dc.lft.to/lastmile_qr_scan"}, "fusion_lon": 0.0, "bike_id": "26502ed7189235dcfa17e2796af3a769", "fusion_lat": 0.0, "is_reserved": 0}, {"name": "c5c34dc8fd0ec99cde764f21307cbb56", "lon": -76.97331866666667, "lat": 38.90409566666666, "type": "electric_scooter", "is_disabled": 0, "rental_uris": {"android": "https://dc.lft.to/lastmile_qr_scan", "ios": "https://dc.lft.to/lastmile_qr_scan"}, "fusion_lon": 0.0, "bike_id": "c5c34dc8fd0ec99cde764f21307cbb56", "fusion_lat": 0.0, "is_reserved": 0}, {"name": "10450704f43df2135f708f066ba9059f", "lon": -77.00343266666667, "lat": 38.89504766666667, "type": "electric_scooter", "is_disabled": 0, "rental_uris": {"android": "https://dc.lft.to/lastmile_qr_scan", "ios": "https://dc.lft.to/lastmile_qr_scan"}, "fusion_lon": 0.0, "bike_id": "10450704f43df2135f708f066ba9059f", "fusion_lat": 0.0, "is_reserved": 0}, {"name": "083b1dd7a96e66fde1b05f7b848f073e", "lon": -77.04676666666667, "lat": 38.8950635, "type": "electric_scooter", "is_disabled": 0, "rental_uris": {"android": "https://dc.lft.to/lastmile_qr_scan", "ios": "https://dc.lft.to/lastmile_qr_scan"}, "fusion_lon": 0.0, "bike_id": "083b1dd7a96e66fde1b05f7b848f073e", "fusion_lat": 0.0, "is_reserved": 0}, {"name": "460780bfd8faa6da81321d0690f53675", "lon": -76.99945116666666, "lat": 38.901182166666665, "type": "electric_scooter", "is_disabled": 0, "rental_uris": {"android": "https://dc.lft.to/lastmile_qr_scan", "ios": "https://dc.lft.to/lastmile_qr_scan"}, "fusion_lon": 0.0, "bike_id": "460780bfd8faa6da81321d0690f53675", "fusion_lat": 0.0, "is_reserved": 0}, {"name": "31654ea6e22bc5b4d623743d9b3e4cc4", "lon": -77.02127466666667, "lat": 38.931076833333336, "type": "electric_scooter", "is_disabled": 0, "rental_uris": {"android": "https://dc.lft.to/lastmile_qr_scan", "ios": "https://dc.lft.to/lastmile_qr_scan"}, "fusion_lon": 0.0, "bike_id": "31654ea6e22bc5b4d623743d9b3e4cc4", "fusion_lat": 0.0, "is_reserved": 0}, {"name": "514b0f608d57f804df72a8c1a5937a3a", "lon": -77.02417816666667, "lat": 38.9120365, "type": "electric_scooter", "is_disabled": 0, "rental_uris": {"android": "https://dc.lft.to/lastmile_qr_scan", "ios": "https://dc.lft.to/lastmile_qr_scan"}, "fusion_lon": 0.0, "bike_id": "514b0f608d57f804df72a8c1a5937a3a", "fusion_lat": 0.0, "is_reserved": 0}, {"name": "426a78c8b39d45ab4c5ffeb1d48b79df", "lon": -77.0387565, "lat": 38.922566333333336, "type": "electric_scooter", "is_disabled": 0, "rental_uris": {"android": "https://dc.lft.to/lastmile_qr_scan", "ios": "https://dc.lft.to/lastmile_qr_scan"}, "fusion_lon": 0.0, "bike_id": "426a78c8b39d45ab4c5ffeb1d48b79df", "fusion_lat": 0.0, "is_reserved": 0}, {"name": "309637e51910f9898c80039cbbc21fc3", "lon": -77.00390316666666, "lat": 38.90561316666667, "type": "electric_scooter", "is_disabled": 0, "rental_uris": {"android": "https://dc.lft.to/lastmile_qr_scan", "ios": "https://dc.lft.to/lastmile_qr_scan"}, "fusion_lon": 0.0, "bike_id": "309637e51910f9898c80039cbbc21fc3", "fusion_lat": 0.0, "is_reserved": 0}, {"name": "71ce768e1aeabfd121433774532478ed", "lon": -77.03659483333334, "lat": 38.9100075, "type": "electric_scooter", "is_disabled": 0, "rental_uris": {"android": "https://dc.lft.to/lastmile_qr_scan", "ios": "https://dc.lft.to/lastmile_qr_scan"}, "fusion_lon": 0.0, "bike_id": "71ce768e1aeabfd121433774532478ed", "fusion_lat": 0.0, "is_reserved": 0}, {"name": "a62acf2874c7c0d253201f472f0c1fe8", "lon": -77.02140216666666, "lat": 38.92512933333333, "type": "electric_scooter", "is_disabled": 0, "rental_uris": {"android": "https://dc.lft.to/lastmile_qr_scan", "ios": "https://dc.lft.to/lastmile_qr_scan"}, "fusion_lon": 0.0, "bike_id": "a62acf2874c7c0d253201f472f0c1fe8", "fusion_lat": 0.0, "is_reserved": 0}, {"name": "b022a21504926ad813ffba287659b9b3", "lon": -77.0435495, "lat": 38.903987666666666, "type": "electric_scooter", "is_disabled": 0, "rental_uris": {"android": "https://dc.lft.to/lastmile_qr_scan", "ios": "https://dc.lft.to/lastmile_qr_scan"}, "fusion_lon": 0.0, "bike_id": "b022a21504926ad813ffba287659b9b3", "fusion_lat": 0.0, "is_reserved": 0}, {"name": "960fd74afcea9aed7916003f59ed7b54", "lon": -77.02398383333333, "lat": 38.919713, "type": "electric_scooter", "is_disabled": 0, "rental_uris": {"android": "https://dc.lft.to/lastmile_qr_scan", "ios": "https://dc.lft.to/lastmile_qr_scan"}, "fusion_lon": 0.0, "bike_id": "960fd74afcea9aed7916003f59ed7b54", "fusion_lat": 0.0, "is_reserved": 0}, {"name": "dd1229883dd531aa7cbfd35a2beadb82", "lon": -77.032241, "lat": 38.9104315, "type": "electric_scooter", "is_disabled": 0, "rental_uris": {"android": "https://dc.lft.to/lastmile_qr_scan", "ios": "https://dc.lft.to/lastmile_qr_scan"}, "fusion_lon": 0.0, "bike_id": "dd1229883dd531aa7cbfd35a2beadb82", "fusion_lat": 0.0, "is_reserved": 0}, {"name": "d688a0c2e3039d3a67cc56d3c3f05f6f", "lon": -77.02782766666667, "lat": 38.92953816666667, "type": "electric_scooter", "is_disabled": 0, "rental_uris": {"android": "https://dc.lft.to/lastmile_qr_scan", "ios": "https://dc.lft.to/lastmile_qr_scan"}, "fusion_lon": 0.0, "bike_id": "d688a0c2e3039d3a67cc56d3c3f05f6f", "fusion_lat": 0.0, "is_reserved": 0}, {"name": "76a1147e2128d6a8330dc748254bf35f", "lon": -76.97053433333333, "lat": 38.98456566666667, "type": "electric_bike", "is_disabled": 0, "rental_uris": {"android": "https://dc.lft.to/lastmile_qr_scan", "ios": "https://dc.lft.to/lastmile_qr_scan"}, "fusion_lon": 0.0, "bike_id": "76a1147e2128d6a8330dc748254bf35f", "fusion_lat": 0.0, "is_reserved": 0}, {"name": "a0d7d2be7c904606edaa4812f5e0044c", "lon": -77.05595616666666, "lat": 38.93697266666667, "type": "electric_scooter", "is_disabled": 0, "rental_uris": {"android": "https://dc.lft.to/lastmile_qr_scan", "ios": "https://dc.lft.to/lastmile_qr_scan"}, "fusion_lon": 0.0, "bike_id": "a0d7d2be7c904606edaa4812f5e0044c", "fusion_lat": 0.0, "is_reserved": 0}, {"name": "17b14c7b9ea5b17c4fe7a2242cc8461f", "lon": -77.01760083333333, "lat": 38.876829, "type": "electric_scooter", "is_disabled": 0, "rental_uris": {"android": "https://dc.lft.to/lastmile_qr_scan", "ios": "https://dc.lft.to/lastmile_qr_scan"}, "fusion_lon": 0.0, "bike_id": "17b14c7b9ea5b17c4fe7a2242cc8461f", "fusion_lat": 0.0, "is_reserved": 0}, {"name": "05ee4a0f5f1f1baf6db126e2e078f083", "lon": -77.03943516666666, "lat": 38.90823783333333, "type": "electric_scooter", "is_disabled": 0, "rental_uris": {"android": "https://dc.lft.to/lastmile_qr_scan", "ios": "https://dc.lft.to/lastmile_qr_scan"}, "fusion_lon": 0.0, "bike_id": "05ee4a0f5f1f1baf6db126e2e078f083", "fusion_lat": 0.0, "is_reserved": 0}, {"name": "40b68cd9346cf1400d0c0e2e30deee75", "lon": -76.98431516666666, "lat": 38.90576516666667, "type": "electric_scooter", "is_disabled": 0, "rental_uris": {"android": "https://dc.lft.to/lastmile_qr_scan", "ios": "https://dc.lft.to/lastmile_qr_scan"}, "fusion_lon": 0.0, "bike_id": "40b68cd9346cf1400d0c0e2e30deee75", "fusion_lat": 0.0, "is_reserved": 0}, {"name": "25c4cd51a7ab9167485e860e66c8d72d", "lon": -76.973429, "lat": 38.865127666666666, "type": "electric_scooter", "is_disabled": 0, "rental_uris": {"android": "https://dc.lft.to/lastmile_qr_scan", "ios": "https://dc.lft.to/lastmile_qr_scan"}, "fusion_lon": 0.0, "bike_id": "25c4cd51a7ab9167485e860e66c8d72d", "fusion_lat": 0.0, "is_reserved": 0}, {"name": "00e59f82b1094acb08fccc22b674501c", "lon": -77.02717316666667, "lat": 38.92370533333333, "type": "electric_scooter", "is_disabled": 0, "rental_uris": {"android": "https://dc.lft.to/lastmile_qr_scan", "ios": "https://dc.lft.to/lastmile_qr_scan"}, "fusion_lon": 0.0, "bike_id": "00e59f82b1094acb08fccc22b674501c", "fusion_lat": 0.0, "is_reserved": 0}, {"name": "5c2f791f3fd8e79084b14aaca9af2582", "lon": -77.042434, "lat": 38.924213, "type": "electric_scooter", "is_disabled": 0, "rental_uris": {"android": "https://dc.lft.to/lastmile_qr_scan", "ios": "https://dc.lft.to/lastmile_qr_scan"}, "fusion_lon": 0.0, "bike_id": "5c2f791f3fd8e79084b14aaca9af2582", "fusion_lat": 0.0, "is_reserved": 0}, {"name": "2af9ec358d50568ad6b9d6950bd9a936", "lon": -77.00665216666667, "lat": 39.0299335, "type": "electric_bike", "is_disabled": 0, "rental_uris": {"android": "https://dc.lft.to/lastmile_qr_scan", "ios": "https://dc.lft.to/lastmile_qr_scan"}, "fusion_lon": 0.0, "bike_id": "2af9ec358d50568ad6b9d6950bd9a936", "fusion_lat": 0.0, "is_reserved": 0}, {"name": "a83a3a9b4babdb28a6cc2194c5a22a71", "lon": -77.0312025, "lat": 38.905246, "type": "electric_scooter", "is_disabled": 0, "rental_uris": {"android": "https://dc.lft.to/lastmile_qr_scan", "ios": "https://dc.lft.to/lastmile_qr_scan"}, "fusion_lon": 0.0, "bike_id": "a83a3a9b4babdb28a6cc2194c5a22a71", "fusion_lat": 0.0, "is_reserved": 0}, {"name": "3fac9133eb9e1e283e65072e47c8a1c2", "lon": -77.01761633333334, "lat": 38.90263233333334, "type": "electric_scooter", "is_disabled": 0, "rental_uris": {"android": "https://dc.lft.to/lastmile_qr_scan", "ios": "https://dc.lft.to/lastmile_qr_scan"}, "fusion_lon": 0.0, "bike_id": "3fac9133eb9e1e283e65072e47c8a1c2", "fusion_lat": 0.0, "is_reserved": 0}, {"name": "75aa63f278fb725207a92b6e8570045e", "lon": -77.02577366666667, "lat": 38.88723266666667, "type": "electric_scooter", "is_disabled": 0, "rental_uris": {"android": "https://dc.lft.to/lastmile_qr_scan", "ios": "https://dc.lft.to/lastmile_qr_scan"}, "fusion_lon": 0.0, "bike_id": "75aa63f278fb725207a92b6e8570045e", "fusion_lat": 0.0, "is_reserved": 0}, {"name": "37b3202560f1321b676e5209dd520b03", "lon": -77.000593, "lat": 38.8744035, "type": "electric_scooter", "is_disabled": 0, "rental_uris": {"android": "https://dc.lft.to/lastmile_qr_scan", "ios": "https://dc.lft.to/lastmile_qr_scan"}, "fusion_lon": 0.0, "bike_id": "37b3202560f1321b676e5209dd520b03", "fusion_lat": 0.0, "is_reserved": 0}, {"name": "c6c3878cf7cbef1396ae0d544543fbf0", "lon": -77.01962733333333, "lat": 38.8783455, "type": "electric_scooter", "is_disabled": 0, "rental_uris": {"android": "https://dc.lft.to/lastmile_qr_scan", "ios": "https://dc.lft.to/lastmile_qr_scan"}, "fusion_lon": 0.0, "bike_id": "c6c3878cf7cbef1396ae0d544543fbf0", "fusion_lat": 0.0, "is_reserved": 0}, {"name": "4edfdd431ae4c4b6786dcbc9f84ab69d", "lon": -77.00368933333333, "lat": 38.89725266666667, "type": "electric_scooter", "is_disabled": 0, "rental_uris": {"android": "https://dc.lft.to/lastmile_qr_scan", "ios": "https://dc.lft.to/lastmile_qr_scan"}, "fusion_lon": 0.0, "bike_id": "4edfdd431ae4c4b6786dcbc9f84ab69d", "fusion_lat": 0.0, "is_reserved": 0}, {"name": "bbf000be78a92f59df6d703db618e26a", "lon": -76.99581133333334, "lat": 38.851773, "type": "electric_scooter", "is_disabled": 0, "rental_uris": {"android": "https://dc.lft.to/lastmile_qr_scan", "ios": "https://dc.lft.to/lastmile_qr_scan"}, "fusion_lon": 0.0, "bike_id": "bbf000be78a92f59df6d703db618e26a", "fusion_lat": 0.0, "is_reserved": 0}, {"name": "a595e4663f3bd54d916f969180bb249b", "lon": -77.04672033333334, "lat": 38.895518333333335, "type": "electric_scooter", "is_disabled": 0, "rental_uris": {"android": "https://dc.lft.to/lastmile_qr_scan", "ios": "https://dc.lft.to/lastmile_qr_scan"}, "fusion_lon": 0.0, "bike_id": "a595e4663f3bd54d916f969180bb249b", "fusion_lat": 0.0, "is_reserved": 0}, {"name": "7516d7c7fc1e984c0da4cadbfda3115f", "lon": -77.04871983333334, "lat": 38.904668, "type": "electric_scooter", "is_disabled": 0, "rental_uris": {"android": "https://dc.lft.to/lastmile_qr_scan", "ios": "https://dc.lft.to/lastmile_qr_scan"}, "fusion_lon": 0.0, "bike_id": "7516d7c7fc1e984c0da4cadbfda3115f", "fusion_lat": 0.0, "is_reserved": 0}, {"name": "d071730274f40a20dc6bda58d70753f2", "lon": -77.03609666666667, "lat": 38.9315465, "type": "electric_scooter", "is_disabled": 0, "rental_uris": {"android": "https://dc.lft.to/lastmile_qr_scan", "ios": "https://dc.lft.to/lastmile_qr_scan"}, "fusion_lon": 0.0, "bike_id": "d071730274f40a20dc6bda58d70753f2", "fusion_lat": 0.0, "is_reserved": 0}, {"name": "68ea2ed4db9bfaeded595e2d837bc251", "lon": -77.0176785, "lat": 38.878979, "type": "electric_scooter", "is_disabled": 0, "rental_uris": {"android": "https://dc.lft.to/lastmile_qr_scan", "ios": "https://dc.lft.to/lastmile_qr_scan"}, "fusion_lon": 0.0, "bike_id": "68ea2ed4db9bfaeded595e2d837bc251", "fusion_lat": 0.0, "is_reserved": 0}, {"name": "b1ec5328a0f33df544d43673f1463dcb", "lon": -77.0015565, "lat": 38.907709, "type": "electric_scooter", "is_disabled": 0, "rental_uris": {"android": "https://dc.lft.to/lastmile_qr_scan", "ios": "https://dc.lft.to/lastmile_qr_scan"}, "fusion_lon": 0.0, "bike_id": "b1ec5328a0f33df544d43673f1463dcb", "fusion_lat": 0.0, "is_reserved": 0}, {"name": "01bb137a0b2b763961ee1cc194f6228f", "lon": -76.98721566666667, "lat": 38.86623783333334, "type": "electric_scooter", "is_disabled": 0, "rental_uris": {"android": "https://dc.lft.to/lastmile_qr_scan", "ios": "https://dc.lft.to/lastmile_qr_scan"}, "fusion_lon": 0.0, "bike_id": "01bb137a0b2b763961ee1cc194f6228f", "fusion_lat": 0.0, "is_reserved": 0}, {"name": "f73d89275159499f73a834238af67b30", "lon": -77.0194955, "lat": 38.924096, "type": "electric_scooter", "is_disabled": 0, "rental_uris": {"android": "https://dc.lft.to/lastmile_qr_scan", "ios": "https://dc.lft.to/lastmile_qr_scan"}, "fusion_lon": 0.0, "bike_id": "f73d89275159499f73a834238af67b30", "fusion_lat": 0.0, "is_reserved": 0}, {"name": "eb6f7bdd8d4dc96e59651e868805695f", "lon": -77.03446233333334, "lat": 38.90359, "type": "electric_scooter", "is_disabled": 0, "rental_uris": {"android": "https://dc.lft.to/lastmile_qr_scan", "ios": "https://dc.lft.to/lastmile_qr_scan"}, "fusion_lon": 0.0, "bike_id": "eb6f7bdd8d4dc96e59651e868805695f", "fusion_lat": 0.0, "is_reserved": 0}, {"name": "f255abcbaea500f824f3212d95e978da", "lon": -77.0322075, "lat": 38.9170755, "type": "electric_scooter", "is_disabled": 0, "rental_uris": {"android": "https://dc.lft.to/lastmile_qr_scan", "ios": "https://dc.lft.to/lastmile_qr_scan"}, "fusion_lon": 0.0, "bike_id": "f255abcbaea500f824f3212d95e978da", "fusion_lat": 0.0, "is_reserved": 0}, {"name": "cce5c755ee86b912e8fab6956bbf1e61", "lon": -76.99997983333333, "lat": 38.8738965, "type": "electric_scooter", "is_disabled": 0, "rental_uris": {"android": "https://dc.lft.to/lastmile_qr_scan", "ios": "https://dc.lft.to/lastmile_qr_scan"}, "fusion_lon": 0.0, "bike_id": "cce5c755ee86b912e8fab6956bbf1e61", "fusion_lat": 0.0, "is_reserved": 0}, {"name": "d83b8ba15317637414da7702af72ec92", "lon": -76.9424795, "lat": 38.89302166666667, "type": "electric_scooter", "is_disabled": 0, "rental_uris": {"android": "https://dc.lft.to/lastmile_qr_scan", "ios": "https://dc.lft.to/lastmile_qr_scan"}, "fusion_lon": 0.0, "bike_id": "d83b8ba15317637414da7702af72ec92", "fusion_lat": 0.0, "is_reserved": 0}, {"name": "39adda177fb0b388fa6ce2e7a5181a5d", "lon": -77.03171216666667, "lat": 38.901125666666665, "type": "electric_scooter", "is_disabled": 0, "rental_uris": {"android": "https://dc.lft.to/lastmile_qr_scan", "ios": "https://dc.lft.to/lastmile_qr_scan"}, "fusion_lon": 0.0, "bike_id": "39adda177fb0b388fa6ce2e7a5181a5d", "fusion_lat": 0.0, "is_reserved": 0}, {"name": "0f1ff635c07cee569d6159a95476a83b", "lon": -77.04518766666666, "lat": 38.923162166666664, "type": "electric_scooter", "is_disabled": 0, "rental_uris": {"android": "https://dc.lft.to/lastmile_qr_scan", "ios": "https://dc.lft.to/lastmile_qr_scan"}, "fusion_lon": 0.0, "bike_id": "0f1ff635c07cee569d6159a95476a83b", "fusion_lat": 0.0, "is_reserved": 0}, {"name": "8400dad74a72f2c233446769a305ac8b", "lon": -77.03958783333333, "lat": 38.89241533333333, "type": "electric_scooter", "is_disabled": 0, "rental_uris": {"android": "https://dc.lft.to/lastmile_qr_scan", "ios": "https://dc.lft.to/lastmile_qr_scan"}, "fusion_lon": 0.0, "bike_id": "8400dad74a72f2c233446769a305ac8b", "fusion_lat": 0.0, "is_reserved": 0}, {"name": "3fbfbe6e337a23fd633084db5a8cdfa3", "lon": -77.03312483333333, "lat": 38.927513166666664, "type": "electric_scooter", "is_disabled": 0, "rental_uris": {"android": "https://dc.lft.to/lastmile_qr_scan", "ios": "https://dc.lft.to/lastmile_qr_scan"}, "fusion_lon": 0.0, "bike_id": "3fbfbe6e337a23fd633084db5a8cdfa3", "fusion_lat": 0.0, "is_reserved": 0}, {"name": "f031ead787b6dc36f3adee19b36f0ddb", "lon": -76.95754783333334, "lat": 38.88422766666667, "type": "electric_scooter", "is_disabled": 0, "rental_uris": {"android": "https://dc.lft.to/lastmile_qr_scan", "ios": "https://dc.lft.to/lastmile_qr_scan"}, "fusion_lon": 0.0, "bike_id": "f031ead787b6dc36f3adee19b36f0ddb", "fusion_lat": 0.0, "is_reserved": 0}, {"name": "e4cdf91f667c0f48f8a4f2d9f8de5eb6", "lon": -77.00491383333333, "lat": 38.874644333333336, "type": "electric_scooter", "is_disabled": 0, "rental_uris": {"android": "https://dc.lft.to/lastmile_qr_scan", "ios": "https://dc.lft.to/lastmile_qr_scan"}, "fusion_lon": 0.0, "bike_id": "e4cdf91f667c0f48f8a4f2d9f8de5eb6", "fusion_lat": 0.0, "is_reserved": 0}, {"name": "2028b8c37d7e1e4def8cfe95f41813f5", "lon": -77.03204466666666, "lat": 38.909160666666665, "type": "electric_scooter", "is_disabled": 0, "rental_uris": {"android": "https://dc.lft.to/lastmile_qr_scan", "ios": "https://dc.lft.to/lastmile_qr_scan"}, "fusion_lon": 0.0, "bike_id": "2028b8c37d7e1e4def8cfe95f41813f5", "fusion_lat": 0.0, "is_reserved": 0}, {"name": "d0b72a157c66ac74c83b3cad6246e56b", "lon": -77.02411966666666, "lat": 38.892186333333335, "type": "electric_scooter", "is_disabled": 0, "rental_uris": {"android": "https://dc.lft.to/lastmile_qr_scan", "ios": "https://dc.lft.to/lastmile_qr_scan"}, "fusion_lon": 0.0, "bike_id": "d0b72a157c66ac74c83b3cad6246e56b", "fusion_lat": 0.0, "is_reserved": 0}, {"name": "768bd510f2ec1f8bbe1c2219e6a03764", "lon": -77.038108, "lat": 38.93055283333333, "type": "electric_scooter", "is_disabled": 0, "rental_uris": {"android": "https://dc.lft.to/lastmile_qr_scan", "ios": "https://dc.lft.to/lastmile_qr_scan"}, "fusion_lon": 0.0, "bike_id": "768bd510f2ec1f8bbe1c2219e6a03764", "fusion_lat": 0.0, "is_reserved": 0}, {"name": "6f94602b8c3f349150b07a3739996afb", "lon": -77.02732366666666, "lat": 38.95200883333333, "type": "electric_scooter", "is_disabled": 0, "rental_uris": {"android": "https://dc.lft.to/lastmile_qr_scan", "ios": "https://dc.lft.to/lastmile_qr_scan"}, "fusion_lon": 0.0, "bike_id": "6f94602b8c3f349150b07a3739996afb", "fusion_lat": 0.0, "is_reserved": 0}, {"name": "5c1212bb425d9420303ef66b742d590a", "lon": -77.0221435, "lat": 38.92468816666667, "type": "electric_scooter", "is_disabled": 0, "rental_uris": {"android": "https://dc.lft.to/lastmile_qr_scan", "ios": "https://dc.lft.to/lastmile_qr_scan"}, "fusion_lon": 0.0, "bike_id": "5c1212bb425d9420303ef66b742d590a", "fusion_lat": 0.0, "is_reserved": 0}, {"name": "dc3c79b99c956bbae5e199e0f2c708ac", "lon": -77.02113283333334, "lat": 38.927510833333336, "type": "electric_scooter", "is_disabled": 0, "rental_uris": {"android": "https://dc.lft.to/lastmile_qr_scan", "ios": "https://dc.lft.to/lastmile_qr_scan"}, "fusion_lon": 0.0, "bike_id": "dc3c79b99c956bbae5e199e0f2c708ac", "fusion_lat": 0.0, "is_reserved": 0}, {"name": "920d87af708d0b0e53c2bb01da9229b0", "lon": -77.07184166666667, "lat": 38.909097, "type": "electric_scooter", "is_disabled": 0, "rental_uris": {"android": "https://dc.lft.to/lastmile_qr_scan", "ios": "https://dc.lft.to/lastmile_qr_scan"}, "fusion_lon": 0.0, "bike_id": "920d87af708d0b0e53c2bb01da9229b0", "fusion_lat": 0.0, "is_reserved": 0}, {"name": "c16f2a2ddbbaf0d7a3b2971775128468", "lon": -77.0345215, "lat": 38.90300533333333, "type": "electric_scooter", "is_disabled": 0, "rental_uris": {"android": "https://dc.lft.to/lastmile_qr_scan", "ios": "https://dc.lft.to/lastmile_qr_scan"}, "fusion_lon": 0.0, "bike_id": "c16f2a2ddbbaf0d7a3b2971775128468", "fusion_lat": 0.0, "is_reserved": 0}, {"name": "73ff9b3fb5c85faf086e6a46029198dd", "lon": -77.03073633333334, "lat": 38.9266805, "type": "electric_scooter", "is_disabled": 0, "rental_uris": {"android": "https://dc.lft.to/lastmile_qr_scan", "ios": "https://dc.lft.to/lastmile_qr_scan"}, "fusion_lon": 0.0, "bike_id": "73ff9b3fb5c85faf086e6a46029198dd", "fusion_lat": 0.0, "is_reserved": 0}, {"name": "986b8fda08c0f4678600f3fa07c3026c", "lon": -76.93474416666666, "lat": 38.8949885, "type": "electric_scooter", "is_disabled": 0, "rental_uris": {"android": "https://dc.lft.to/lastmile_qr_scan", "ios": "https://dc.lft.to/lastmile_qr_scan"}, "fusion_lon": 0.0, "bike_id": "986b8fda08c0f4678600f3fa07c3026c", "fusion_lat": 0.0, "is_reserved": 0}, {"name": "f37ddf3f16b886045e315c1176adaef9", "lon": -77.0370305, "lat": 38.9277465, "type": "electric_scooter", "is_disabled": 0, "rental_uris": {"android": "https://dc.lft.to/lastmile_qr_scan", "ios": "https://dc.lft.to/lastmile_qr_scan"}, "fusion_lon": 0.0, "bike_id": "f37ddf3f16b886045e315c1176adaef9", "fusion_lat": 0.0, "is_reserved": 0}, {"name": "7342e5a3302b06f66e696f1afae64455", "lon": -77.03249783333334, "lat": 38.92887833333333, "type": "electric_scooter", "is_disabled": 0, "rental_uris": {"android": "https://dc.lft.to/lastmile_qr_scan", "ios": "https://dc.lft.to/lastmile_qr_scan"}, "fusion_lon": 0.0, "bike_id": "7342e5a3302b06f66e696f1afae64455", "fusion_lat": 0.0, "is_reserved": 0}, {"name": "7ce692f6d417e771a56c9e3558067299", "lon": -77.07656416666667, "lat": 38.935216, "type": "electric_scooter", "is_disabled": 0, "rental_uris": {"android": "https://dc.lft.to/lastmile_qr_scan", "ios": "https://dc.lft.to/lastmile_qr_scan"}, "fusion_lon": 0.0, "bike_id": "7ce692f6d417e771a56c9e3558067299", "fusion_lat": 0.0, "is_reserved": 0}, {"name": "0b7e28374c295620d25d2378c880f68c", "lon": -77.02217466666667, "lat": 38.9247365, "type": "electric_scooter", "is_disabled": 0, "rental_uris": {"android": "https://dc.lft.to/lastmile_qr_scan", "ios": "https://dc.lft.to/lastmile_qr_scan"}, "fusion_lon": 0.0, "bike_id": "0b7e28374c295620d25d2378c880f68c", "fusion_lat": 0.0, "is_reserved": 0}, {"name": "3cfbe724cd87b65f1dbb85bdb01b6d3f", "lon": -77.03806483333334, "lat": 38.9206835, "type": "electric_scooter", "is_disabled": 0, "rental_uris": {"android": "https://dc.lft.to/lastmile_qr_scan", "ios": "https://dc.lft.to/lastmile_qr_scan"}, "fusion_lon": 0.0, "bike_id": "3cfbe724cd87b65f1dbb85bdb01b6d3f", "fusion_lat": 0.0, "is_reserved": 0}, {"name": "847d6be1ea8982f297a8731eead68b37", "lon": -77.03875666666667, "lat": 38.90129833333334, "type": "electric_scooter", "is_disabled": 0, "rental_uris": {"android": "https://dc.lft.to/lastmile_qr_scan", "ios": "https://dc.lft.to/lastmile_qr_scan"}, "fusion_lon": 0.0, "bike_id": "847d6be1ea8982f297a8731eead68b37", "fusion_lat": 0.0, "is_reserved": 0}, {"name": "97abfbe9c6e545202679422822afab12", "lon": -76.93925316666666, "lat": 38.893252833333335, "type": "electric_scooter", "is_disabled": 0, "rental_uris": {"android": "https://dc.lft.to/lastmile_qr_scan", "ios": "https://dc.lft.to/lastmile_qr_scan"}, "fusion_lon": 0.0, "bike_id": "97abfbe9c6e545202679422822afab12", "fusion_lat": 0.0, "is_reserved": 0}, {"name": "d7d6fc59638efb6384e571c24b7bf079", "lon": -77.02976433333333, "lat": 38.92230633333333, "type": "electric_scooter", "is_disabled": 0, "rental_uris": {"android": "https://dc.lft.to/lastmile_qr_scan", "ios": "https://dc.lft.to/lastmile_qr_scan"}, "fusion_lon": 0.0, "bike_id": "d7d6fc59638efb6384e571c24b7bf079", "fusion_lat": 0.0, "is_reserved": 0}, {"name": "a498f126c5161d41ac9cbc3454b58ee8", "lon": -77.01613383333333, "lat": 38.896968, "type": "electric_scooter", "is_disabled": 0, "rental_uris": {"android": "https://dc.lft.to/lastmile_qr_scan", "ios": "https://dc.lft.to/lastmile_qr_scan"}, "fusion_lon": 0.0, "bike_id": "a498f126c5161d41ac9cbc3454b58ee8", "fusion_lat": 0.0, "is_reserved": 0}, {"name": "cbca96d104a6068cbacf3fe6093929d4", "lon": -77.02186933333333, "lat": 38.911352, "type": "electric_scooter", "is_disabled": 0, "rental_uris": {"android": "https://dc.lft.to/lastmile_qr_scan", "ios": "https://dc.lft.to/lastmile_qr_scan"}, "fusion_lon": 0.0, "bike_id": "cbca96d104a6068cbacf3fe6093929d4", "fusion_lat": 0.0, "is_reserved": 0}, {"name": "b0c45e7b27fea993da0f27cb416d9d4a", "lon": -77.01841533333334, "lat": 38.915318166666665, "type": "electric_scooter", "is_disabled": 0, "rental_uris": {"android": "https://dc.lft.to/lastmile_qr_scan", "ios": "https://dc.lft.to/lastmile_qr_scan"}, "fusion_lon": 0.0, "bike_id": "b0c45e7b27fea993da0f27cb416d9d4a", "fusion_lat": 0.0, "is_reserved": 0}, {"name": "535285d4efc13d1177a7445d6a56728f", "lon": -77.038831, "lat": 38.918427, "type": "electric_scooter", "is_disabled": 0, "rental_uris": {"android": "https://dc.lft.to/lastmile_qr_scan", "ios": "https://dc.lft.to/lastmile_qr_scan"}, "fusion_lon": 0.0, "bike_id": "535285d4efc13d1177a7445d6a56728f", "fusion_lat": 0.0, "is_reserved": 0}, {"name": "89b6a3f77a37356ad67b8dca1fc24190", "lon": -76.9809715, "lat": 38.953503, "type": "electric_bike", "is_disabled": 0, "rental_uris": {"android": "https://dc.lft.to/lastmile_qr_scan", "ios": "https://dc.lft.to/lastmile_qr_scan"}, "fusion_lon": 0.0, "bike_id": "89b6a3f77a37356ad67b8dca1fc24190", "fusion_lat": 0.0, "is_reserved": 0}, {"name": "10b8f24f988bba63bb77f92e2be02aad", "lon": -77.025584, "lat": 38.9033595, "type": "electric_scooter", "is_disabled": 0, "rental_uris": {"android": "https://dc.lft.to/lastmile_qr_scan", "ios": "https://dc.lft.to/lastmile_qr_scan"}, "fusion_lon": 0.0, "bike_id": "10b8f24f988bba63bb77f92e2be02aad", "fusion_lat": 0.0, "is_reserved": 0}, {"name": "d61ce3c642b30fcd0ea810545cf3759a", "lon": -77.0060035, "lat": 38.907821166666665, "type": "electric_scooter", "is_disabled": 0, "rental_uris": {"android": "https://dc.lft.to/lastmile_qr_scan", "ios": "https://dc.lft.to/lastmile_qr_scan"}, "fusion_lon": 0.0, "bike_id": "d61ce3c642b30fcd0ea810545cf3759a", "fusion_lat": 0.0, "is_reserved": 0}, {"name": "1ea20bca504738cdc9cfe8c7bc8a7e1f", "lon": -77.04175283333333, "lat": 38.92018766666666, "type": "electric_scooter", "is_disabled": 0, "rental_uris": {"android": "https://dc.lft.to/lastmile_qr_scan", "ios": "https://dc.lft.to/lastmile_qr_scan"}, "fusion_lon": 0.0, "bike_id": "1ea20bca504738cdc9cfe8c7bc8a7e1f", "fusion_lat": 0.0, "is_reserved": 0}, {"name": "601e8347eef9e74996098e9bef047ed0", "lon": -76.98973783333334, "lat": 38.88225083333333, "type": "electric_scooter", "is_disabled": 0, "rental_uris": {"android": "https://dc.lft.to/lastmile_qr_scan", "ios": "https://dc.lft.to/lastmile_qr_scan"}, "fusion_lon": 0.0, "bike_id": "601e8347eef9e74996098e9bef047ed0", "fusion_lat": 0.0, "is_reserved": 0}, {"name": "ae3b4cf0fdaac9f30dd3b34dc1f9c617", "lon": -77.02371433333333, "lat": 38.89619533333333, "type": "electric_scooter", "is_disabled": 0, "rental_uris": {"android": "https://dc.lft.to/lastmile_qr_scan", "ios": "https://dc.lft.to/lastmile_qr_scan"}, "fusion_lon": 0.0, "bike_id": "ae3b4cf0fdaac9f30dd3b34dc1f9c617", "fusion_lat": 0.0, "is_reserved": 0}, {"name": "98d6af76ca956b5474d5b4fd148f72ad", "lon": -77.04690516666666, "lat": 38.90287766666667, "type": "electric_scooter", "is_disabled": 0, "rental_uris": {"android": "https://dc.lft.to/lastmile_qr_scan", "ios": "https://dc.lft.to/lastmile_qr_scan"}, "fusion_lon": 0.0, "bike_id": "98d6af76ca956b5474d5b4fd148f72ad", "fusion_lat": 0.0, "is_reserved": 0}, {"name": "a3223c95db890883a034d76fa00f4e87", "lon": -77.05116483333333, "lat": 38.81333933333333, "type": "electric_bike", "is_disabled": 0, "rental_uris": {"android": "https://dc.lft.to/lastmile_qr_scan", "ios": "https://dc.lft.to/lastmile_qr_scan"}, "fusion_lon": 0.0, "bike_id": "a3223c95db890883a034d76fa00f4e87", "fusion_lat": 0.0, "is_reserved": 0}, {"name": "57ce0182b87b7c3ab6e5a86b7b34a47f", "lon": -77.0093375, "lat": 38.876203333333336, "type": "electric_scooter", "is_disabled": 0, "rental_uris": {"android": "https://dc.lft.to/lastmile_qr_scan", "ios": "https://dc.lft.to/lastmile_qr_scan"}, "fusion_lon": 0.0, "bike_id": "57ce0182b87b7c3ab6e5a86b7b34a47f", "fusion_lat": 0.0, "is_reserved": 0}, {"name": "ffeff95acbb6c25c8a8c518ee0c29692", "lon": -76.96259583333334, "lat": 38.8824415, "type": "electric_bike", "is_disabled": 0, "rental_uris": {"android": "https://dc.lft.to/lastmile_qr_scan", "ios": "https://dc.lft.to/lastmile_qr_scan"}, "fusion_lon": 0.0, "bike_id": "ffeff95acbb6c25c8a8c518ee0c29692", "fusion_lat": 0.0, "is_reserved": 0}, {"name": "3b1f6105f91b98bb656f99e82c9b796a", "lon": -77.0228345, "lat": 38.895125166666666, "type": "electric_scooter", "is_disabled": 0, "rental_uris": {"android": "https://dc.lft.to/lastmile_qr_scan", "ios": "https://dc.lft.to/lastmile_qr_scan"}, "fusion_lon": 0.0, "bike_id": "3b1f6105f91b98bb656f99e82c9b796a", "fusion_lat": 0.0, "is_reserved": 0}, {"name": "19acce4c57f941cc0bb2d6e2ae0265ef", "lon": -77.02278533333333, "lat": 38.91653433333333, "type": "electric_scooter", "is_disabled": 0, "rental_uris": {"android": "https://dc.lft.to/lastmile_qr_scan", "ios": "https://dc.lft.to/lastmile_qr_scan"}, "fusion_lon": 0.0, "bike_id": "19acce4c57f941cc0bb2d6e2ae0265ef", "fusion_lat": 0.0, "is_reserved": 0}, {"name": "981bd32c1eb13e9b0e6d9612d2036dbc", "lon": -77.02164783333333, "lat": 38.9259795, "type": "electric_scooter", "is_disabled": 0, "rental_uris": {"android": "https://dc.lft.to/lastmile_qr_scan", "ios": "https://dc.lft.to/lastmile_qr_scan"}, "fusion_lon": 0.0, "bike_id": "981bd32c1eb13e9b0e6d9612d2036dbc", "fusion_lat": 0.0, "is_reserved": 0}, {"name": "bd200d0fde2346508d7869aafcb36f2c", "lon": -77.04441433333334, "lat": 38.91255833333334, "type": "electric_scooter", "is_disabled": 0, "rental_uris": {"android": "https://dc.lft.to/lastmile_qr_scan", "ios": "https://dc.lft.to/lastmile_qr_scan"}, "fusion_lon": 0.0, "bike_id": "bd200d0fde2346508d7869aafcb36f2c", "fusion_lat": 0.0, "is_reserved": 0}, {"name": "41530eb048dd91773c23d04111349dac", "lon": -77.01838416666666, "lat": 38.89884283333333, "type": "electric_scooter", "is_disabled": 0, "rental_uris": {"android": "https://dc.lft.to/lastmile_qr_scan", "ios": "https://dc.lft.to/lastmile_qr_scan"}, "fusion_lon": 0.0, "bike_id": "41530eb048dd91773c23d04111349dac", "fusion_lat": 0.0, "is_reserved": 0}, {"name": "e74ee7cde224c73d79c9a81326b83103", "lon": -77.03831533333333, "lat": 38.9077165, "type": "electric_scooter", "is_disabled": 0, "rental_uris": {"android": "https://dc.lft.to/lastmile_qr_scan", "ios": "https://dc.lft.to/lastmile_qr_scan"}, "fusion_lon": 0.0, "bike_id": "e74ee7cde224c73d79c9a81326b83103", "fusion_lat": 0.0, "is_reserved": 0}, {"name": "2773c65ca72fc045d187de8e935a6780", "lon": -76.9763055, "lat": 38.90153933333333, "type": "electric_scooter", "is_disabled": 0, "rental_uris": {"android": "https://dc.lft.to/lastmile_qr_scan", "ios": "https://dc.lft.to/lastmile_qr_scan"}, "fusion_lon": 0.0, "bike_id": "2773c65ca72fc045d187de8e935a6780", "fusion_lat": 0.0, "is_reserved": 0}, {"name": "0027fdaca5e46b1d1a5b12c00588c336", "lon": -77.04877183333333, "lat": 38.91617033333333, "type": "electric_scooter", "is_disabled": 0, "rental_uris": {"android": "https://dc.lft.to/lastmile_qr_scan", "ios": "https://dc.lft.to/lastmile_qr_scan"}, "fusion_lon": 0.0, "bike_id": "0027fdaca5e46b1d1a5b12c00588c336", "fusion_lat": 0.0, "is_reserved": 0}, {"name": "07a232d65bda405b06a2c5061c791d71", "lon": -77.022782, "lat": 38.9165645, "type": "electric_scooter", "is_disabled": 0, "rental_uris": {"android": "https://dc.lft.to/lastmile_qr_scan", "ios": "https://dc.lft.to/lastmile_qr_scan"}, "fusion_lon": 0.0, "bike_id": "07a232d65bda405b06a2c5061c791d71", "fusion_lat": 0.0, "is_reserved": 0}, {"name": "e462de331d62e89d0a6969e414e8f715", "lon": -77.01533216666667, "lat": 38.884819, "type": "electric_scooter", "is_disabled": 0, "rental_uris": {"android": "https://dc.lft.to/lastmile_qr_scan", "ios": "https://dc.lft.to/lastmile_qr_scan"}, "fusion_lon": 0.0, "bike_id": "e462de331d62e89d0a6969e414e8f715", "fusion_lat": 0.0, "is_reserved": 0}, {"name": "8363ba474f968c9e41342ea634b7eb73", "lon": -77.00299583333333, "lat": 38.877167, "type": "electric_scooter", "is_disabled": 0, "rental_uris": {"android": "https://dc.lft.to/lastmile_qr_scan", "ios": "https://dc.lft.to/lastmile_qr_scan"}, "fusion_lon": 0.0, "bike_id": "8363ba474f968c9e41342ea634b7eb73", "fusion_lat": 0.0, "is_reserved": 0}, {"name": "e166ed41dc633bcdce7ae3bf5109d9b7", "lon": -77.01217183333333, "lat": 38.91343333333333, "type": "electric_scooter", "is_disabled": 0, "rental_uris": {"android": "https://dc.lft.to/lastmile_qr_scan", "ios": "https://dc.lft.to/lastmile_qr_scan"}, "fusion_lon": 0.0, "bike_id": "e166ed41dc633bcdce7ae3bf5109d9b7", "fusion_lat": 0.0, "is_reserved": 0}, {"name": "34ef52ef8d37406471006597ad5bc33b", "lon": -77.01412666666667, "lat": 38.92795616666667, "type": "electric_scooter", "is_disabled": 0, "rental_uris": {"android": "https://dc.lft.to/lastmile_qr_scan", "ios": "https://dc.lft.to/lastmile_qr_scan"}, "fusion_lon": 0.0, "bike_id": "34ef52ef8d37406471006597ad5bc33b", "fusion_lat": 0.0, "is_reserved": 0}, {"name": "936ca71599940725a9ec7ab617299fc6", "lon": -77.03174216666666, "lat": 38.898383, "type": "electric_scooter", "is_disabled": 0, "rental_uris": {"android": "https://dc.lft.to/lastmile_qr_scan", "ios": "https://dc.lft.to/lastmile_qr_scan"}, "fusion_lon": 0.0, "bike_id": "936ca71599940725a9ec7ab617299fc6", "fusion_lat": 0.0, "is_reserved": 0}, {"name": "18d89ee3b627f64fc43a4913d3338330", "lon": -77.04338433333334, "lat": 38.931283666666666, "type": "electric_scooter", "is_disabled": 0, "rental_uris": {"android": "https://dc.lft.to/lastmile_qr_scan", "ios": "https://dc.lft.to/lastmile_qr_scan"}, "fusion_lon": 0.0, "bike_id": "18d89ee3b627f64fc43a4913d3338330", "fusion_lat": 0.0, "is_reserved": 0}, {"name": "f68b8cb0a0388fa11ece0f044947f43c", "lon": -77.064034, "lat": 38.8434335, "type": "electric_bike", "is_disabled": 0, "rental_uris": {"android": "https://dc.lft.to/lastmile_qr_scan", "ios": "https://dc.lft.to/lastmile_qr_scan"}, "fusion_lon": 0.0, "bike_id": "f68b8cb0a0388fa11ece0f044947f43c", "fusion_lat": 0.0, "is_reserved": 0}, {"name": "bf7400e5cf2d39b062571f2392a065a8", "lon": -77.0274015, "lat": 38.9276465, "type": "electric_scooter", "is_disabled": 0, "rental_uris": {"android": "https://dc.lft.to/lastmile_qr_scan", "ios": "https://dc.lft.to/lastmile_qr_scan"}, "fusion_lon": 0.0, "bike_id": "bf7400e5cf2d39b062571f2392a065a8", "fusion_lat": 0.0, "is_reserved": 0}, {"name": "b18d47ef519d62d57c17b6fe90891f68", "lon": -76.92892633333334, "lat": 38.883561666666665, "type": "electric_scooter", "is_disabled": 0, "rental_uris": {"android": "https://dc.lft.to/lastmile_qr_scan", "ios": "https://dc.lft.to/lastmile_qr_scan"}, "fusion_lon": 0.0, "bike_id": "b18d47ef519d62d57c17b6fe90891f68", "fusion_lat": 0.0, "is_reserved": 0}, {"name": "6641a94f7a71cc1b12b7fd707ad4c7ba", "lon": -76.9824165, "lat": 38.899822, "type": "electric_scooter", "is_disabled": 0, "rental_uris": {"android": "https://dc.lft.to/lastmile_qr_scan", "ios": "https://dc.lft.to/lastmile_qr_scan"}, "fusion_lon": 0.0, "bike_id": "6641a94f7a71cc1b12b7fd707ad4c7ba", "fusion_lat": 0.0, "is_reserved": 0}, {"name": "7fde57106f55dccd20de6d63cd37e9b0", "lon": -76.99030983333333, "lat": 38.93877783333333, "type": "electric_bike", "is_disabled": 0, "rental_uris": {"android": "https://dc.lft.to/lastmile_qr_scan", "ios": "https://dc.lft.to/lastmile_qr_scan"}, "fusion_lon": 0.0, "bike_id": "7fde57106f55dccd20de6d63cd37e9b0", "fusion_lat": 0.0, "is_reserved": 0}, {"name": "ee80fc770fa402c795302aed1adad9be", "lon": -77.039605, "lat": 38.90236266666667, "type": "electric_scooter", "is_disabled": 0, "rental_uris": {"android": "https://dc.lft.to/lastmile_qr_scan", "ios": "https://dc.lft.to/lastmile_qr_scan"}, "fusion_lon": 0.0, "bike_id": "ee80fc770fa402c795302aed1adad9be", "fusion_lat": 0.0, "is_reserved": 0}, {"name": "5102398b98307101794086b670f6a380", "lon": -77.043514, "lat": 38.90791816666667, "type": "electric_scooter", "is_disabled": 0, "rental_uris": {"android": "https://dc.lft.to/lastmile_qr_scan", "ios": "https://dc.lft.to/lastmile_qr_scan"}, "fusion_lon": 0.0, "bike_id": "5102398b98307101794086b670f6a380", "fusion_lat": 0.0, "is_reserved": 0}, {"name": "b64fc25b0b2332e3cf4d12c2b2c394e5", "lon": -77.02488533333333, "lat": 38.941825, "type": "electric_scooter", "is_disabled": 0, "rental_uris": {"android": "https://dc.lft.to/lastmile_qr_scan", "ios": "https://dc.lft.to/lastmile_qr_scan"}, "fusion_lon": 0.0, "bike_id": "b64fc25b0b2332e3cf4d12c2b2c394e5", "fusion_lat": 0.0, "is_reserved": 0}, {"name": "748ddf8e73d5c33552bd8fda906748f4", "lon": -77.13303966666666, "lat": 38.88711466666667, "type": "electric_bike", "is_disabled": 0, "rental_uris": {"android": "https://dc.lft.to/lastmile_qr_scan", "ios": "https://dc.lft.to/lastmile_qr_scan"}, "fusion_lon": 0.0, "bike_id": "748ddf8e73d5c33552bd8fda906748f4", "fusion_lat": 0.0, "is_reserved": 0}, {"name": "26c3eaaa1258396e53e4a0ff6a1d3ded", "lon": -77.02709583333333, "lat": 38.92293333333333, "type": "electric_scooter", "is_disabled": 0, "rental_uris": {"android": "https://dc.lft.to/lastmile_qr_scan", "ios": "https://dc.lft.to/lastmile_qr_scan"}, "fusion_lon": 0.0, "bike_id": "26c3eaaa1258396e53e4a0ff6a1d3ded", "fusion_lat": 0.0, "is_reserved": 0}, {"name": "dfb447311a9f88ff32d243eee2a09272", "lon": -77.00349333333334, "lat": 38.892589666666666, "type": "electric_scooter", "is_disabled": 0, "rental_uris": {"android": "https://dc.lft.to/lastmile_qr_scan", "ios": "https://dc.lft.to/lastmile_qr_scan"}, "fusion_lon": 0.0, "bike_id": "dfb447311a9f88ff32d243eee2a09272", "fusion_lat": 0.0, "is_reserved": 0}, {"name": "841b5607cde5a2cd0f0d4356d86c7b49", "lon": -77.02480433333334, "lat": 38.9387555, "type": "electric_scooter", "is_disabled": 0, "rental_uris": {"android": "https://dc.lft.to/lastmile_qr_scan", "ios": "https://dc.lft.to/lastmile_qr_scan"}, "fusion_lon": 0.0, "bike_id": "841b5607cde5a2cd0f0d4356d86c7b49", "fusion_lat": 0.0, "is_reserved": 0}, {"name": "360c7573390a33a32204a8ee4484f330", "lon": -77.02279833333333, "lat": 38.916520166666665, "type": "electric_scooter", "is_disabled": 0, "rental_uris": {"android": "https://dc.lft.to/lastmile_qr_scan", "ios": "https://dc.lft.to/lastmile_qr_scan"}, "fusion_lon": 0.0, "bike_id": "360c7573390a33a32204a8ee4484f330", "fusion_lat": 0.0, "is_reserved": 0}, {"name": "b9ad0e3f68c49a4a89ef7ff76726edf6", "lon": -77.03257816666667, "lat": 38.9356745, "type": "electric_scooter", "is_disabled": 0, "rental_uris": {"android": "https://dc.lft.to/lastmile_qr_scan", "ios": "https://dc.lft.to/lastmile_qr_scan"}, "fusion_lon": 0.0, "bike_id": "b9ad0e3f68c49a4a89ef7ff76726edf6", "fusion_lat": 0.0, "is_reserved": 0}, {"name": "b7909ccddc90db7745158a9159b230ee", "lon": -77.0098505, "lat": 38.87288, "type": "electric_scooter", "is_disabled": 0, "rental_uris": {"android": "https://dc.lft.to/lastmile_qr_scan", "ios": "https://dc.lft.to/lastmile_qr_scan"}, "fusion_lon": 0.0, "bike_id": "b7909ccddc90db7745158a9159b230ee", "fusion_lat": 0.0, "is_reserved": 0}, {"name": "204f32c5b55c2d152460d9ecb5206641", "lon": -77.0231305, "lat": 38.91775233333333, "type": "electric_scooter", "is_disabled": 0, "rental_uris": {"android": "https://dc.lft.to/lastmile_qr_scan", "ios": "https://dc.lft.to/lastmile_qr_scan"}, "fusion_lon": 0.0, "bike_id": "204f32c5b55c2d152460d9ecb5206641", "fusion_lat": 0.0, "is_reserved": 0}, {"name": "9d80fd5be3829418b390ad03adf6b3be", "lon": -77.02559616666667, "lat": 38.923947, "type": "electric_scooter", "is_disabled": 0, "rental_uris": {"android": "https://dc.lft.to/lastmile_qr_scan", "ios": "https://dc.lft.to/lastmile_qr_scan"}, "fusion_lon": 0.0, "bike_id": "9d80fd5be3829418b390ad03adf6b3be", "fusion_lat": 0.0, "is_reserved": 0}, {"name": "8ba5ec5a53ac6a335919efb9da2b24e4", "lon": -77.03199616666667, "lat": 38.9002765, "type": "electric_scooter", "is_disabled": 0, "rental_uris": {"android": "https://dc.lft.to/lastmile_qr_scan", "ios": "https://dc.lft.to/lastmile_qr_scan"}, "fusion_lon": 0.0, "bike_id": "8ba5ec5a53ac6a335919efb9da2b24e4", "fusion_lat": 0.0, "is_reserved": 0}, {"name": "05eea0df194c2d647dea0f8bda0a7c29", "lon": -77.0402905, "lat": 38.90574383333333, "type": "electric_scooter", "is_disabled": 0, "rental_uris": {"android": "https://dc.lft.to/lastmile_qr_scan", "ios": "https://dc.lft.to/lastmile_qr_scan"}, "fusion_lon": 0.0, "bike_id": "05eea0df194c2d647dea0f8bda0a7c29", "fusion_lat": 0.0, "is_reserved": 0}, {"name": "ba5d2e9a73b71445b2f993ac9a231eda", "lon": -77.02157716666666, "lat": 38.92457316666667, "type": "electric_scooter", "is_disabled": 0, "rental_uris": {"android": "https://dc.lft.to/lastmile_qr_scan", "ios": "https://dc.lft.to/lastmile_qr_scan"}, "fusion_lon": 0.0, "bike_id": "ba5d2e9a73b71445b2f993ac9a231eda", "fusion_lat": 0.0, "is_reserved": 0}, {"name": "b8c2778fe03e841fd4596db16fbe43eb", "lon": -76.946516, "lat": 38.89825033333334, "type": "electric_scooter", "is_disabled": 0, "rental_uris": {"android": "https://dc.lft.to/lastmile_qr_scan", "ios": "https://dc.lft.to/lastmile_qr_scan"}, "fusion_lon": 0.0, "bike_id": "b8c2778fe03e841fd4596db16fbe43eb", "fusion_lat": 0.0, "is_reserved": 0}, {"name": "413a74bdfe59762e0234184e4e7d01a5", "lon": -77.03268566666667, "lat": 38.9280425, "type": "electric_scooter", "is_disabled": 0, "rental_uris": {"android": "https://dc.lft.to/lastmile_qr_scan", "ios": "https://dc.lft.to/lastmile_qr_scan"}, "fusion_lon": 0.0, "bike_id": "413a74bdfe59762e0234184e4e7d01a5", "fusion_lat": 0.0, "is_reserved": 0}, {"name": "ecb1b4e31f18976e7fea326757646aa3", "lon": -77.00863183333334, "lat": 38.9646215, "type": "electric_bike", "is_disabled": 0, "rental_uris": {"android": "https://dc.lft.to/lastmile_qr_scan", "ios": "https://dc.lft.to/lastmile_qr_scan"}, "fusion_lon": 0.0, "bike_id": "ecb1b4e31f18976e7fea326757646aa3", "fusion_lat": 0.0, "is_reserved": 0}, {"name": "0ae0ba9511750f6513c4cfe9295ed62a", "lon": -76.95751916666667, "lat": 38.884222, "type": "electric_scooter", "is_disabled": 0, "rental_uris": {"android": "https://dc.lft.to/lastmile_qr_scan", "ios": "https://dc.lft.to/lastmile_qr_scan"}, "fusion_lon": 0.0, "bike_id": "0ae0ba9511750f6513c4cfe9295ed62a", "fusion_lat": 0.0, "is_reserved": 0}, {"name": "8c1cecde035be3edc0c5573c375364a3", "lon": -77.03547833333333, "lat": 38.924662, "type": "electric_scooter", "is_disabled": 0, "rental_uris": {"android": "https://dc.lft.to/lastmile_qr_scan", "ios": "https://dc.lft.to/lastmile_qr_scan"}, "fusion_lon": 0.0, "bike_id": "8c1cecde035be3edc0c5573c375364a3", "fusion_lat": 0.0, "is_reserved": 0}, {"name": "c75120f1a5bd7a771871a9fcd5e17a4f", "lon": -77.0057365, "lat": 38.929351833333335, "type": "electric_scooter", "is_disabled": 0, "rental_uris": {"android": "https://dc.lft.to/lastmile_qr_scan", "ios": "https://dc.lft.to/lastmile_qr_scan"}, "fusion_lon": 0.0, "bike_id": "c75120f1a5bd7a771871a9fcd5e17a4f", "fusion_lat": 0.0, "is_reserved": 0}, {"name": "aa061d36f34989ebf236c2b63a035ad1", "lon": -77.02459983333334, "lat": 38.93100066666667, "type": "electric_scooter", "is_disabled": 0, "rental_uris": {"android": "https://dc.lft.to/lastmile_qr_scan", "ios": "https://dc.lft.to/lastmile_qr_scan"}, "fusion_lon": 0.0, "bike_id": "aa061d36f34989ebf236c2b63a035ad1", "fusion_lat": 0.0, "is_reserved": 0}, {"name": "a148794f82bb58731d85491030fc19fb", "lon": -77.04986933333333, "lat": 38.90106766666667, "type": "electric_scooter", "is_disabled": 0, "rental_uris": {"android": "https://dc.lft.to/lastmile_qr_scan", "ios": "https://dc.lft.to/lastmile_qr_scan"}, "fusion_lon": 0.0, "bike_id": "a148794f82bb58731d85491030fc19fb", "fusion_lat": 0.0, "is_reserved": 0}, {"name": "566ae75d5f825b22166e3b9ae969460a", "lon": -77.04697416666667, "lat": 38.92173183333333, "type": "electric_scooter", "is_disabled": 0, "rental_uris": {"android": "https://dc.lft.to/lastmile_qr_scan", "ios": "https://dc.lft.to/lastmile_qr_scan"}, "fusion_lon": 0.0, "bike_id": "566ae75d5f825b22166e3b9ae969460a", "fusion_lat": 0.0, "is_reserved": 0}, {"name": "7412e2b6b68d215f7c7789e31bf66b62", "lon": -77.03896516666667, "lat": 38.9064735, "type": "electric_scooter", "is_disabled": 0, "rental_uris": {"android": "https://dc.lft.to/lastmile_qr_scan", "ios": "https://dc.lft.to/lastmile_qr_scan"}, "fusion_lon": 0.0, "bike_id": "7412e2b6b68d215f7c7789e31bf66b62", "fusion_lat": 0.0, "is_reserved": 0}, {"name": "f407d0f8fb8b06820f66263af3b02556", "lon": -77.0352265, "lat": 38.92530383333333, "type": "electric_scooter", "is_disabled": 0, "rental_uris": {"android": "https://dc.lft.to/lastmile_qr_scan", "ios": "https://dc.lft.to/lastmile_qr_scan"}, "fusion_lon": 0.0, "bike_id": "f407d0f8fb8b06820f66263af3b02556", "fusion_lat": 0.0, "is_reserved": 0}, {"name": "c50b92a5b121cc5460e1fd4d4acde8b9", "lon": -77.04261366666667, "lat": 38.90652516666667, "type": "electric_scooter", "is_disabled": 0, "rental_uris": {"android": "https://dc.lft.to/lastmile_qr_scan", "ios": "https://dc.lft.to/lastmile_qr_scan"}, "fusion_lon": 0.0, "bike_id": "c50b92a5b121cc5460e1fd4d4acde8b9", "fusion_lat": 0.0, "is_reserved": 0}, {"name": "0b6218712720dd5507d85971f93a4273", "lon": -77.0298585, "lat": 38.908535666666666, "type": "electric_scooter", "is_disabled": 0, "rental_uris": {"android": "https://dc.lft.to/lastmile_qr_scan", "ios": "https://dc.lft.to/lastmile_qr_scan"}, "fusion_lon": 0.0, "bike_id": "0b6218712720dd5507d85971f93a4273", "fusion_lat": 0.0, "is_reserved": 0}, {"name": "93ef8ee1e06e2ba6f897543f1bbf421f", "lon": -77.0513105, "lat": 38.92363066666667, "type": "electric_scooter", "is_disabled": 0, "rental_uris": {"android": "https://dc.lft.to/lastmile_qr_scan", "ios": "https://dc.lft.to/lastmile_qr_scan"}, "fusion_lon": 0.0, "bike_id": "93ef8ee1e06e2ba6f897543f1bbf421f", "fusion_lat": 0.0, "is_reserved": 0}, {"name": "79336e3d0e4c31b1d14b622e5aa21d5b", "lon": -77.00305816666666, "lat": 38.8336515, "type": "electric_bike", "is_disabled": 0, "rental_uris": {"android": "https://dc.lft.to/lastmile_qr_scan", "ios": "https://dc.lft.to/lastmile_qr_scan"}, "fusion_lon": 0.0, "bike_id": "79336e3d0e4c31b1d14b622e5aa21d5b", "fusion_lat": 0.0, "is_reserved": 0}, {"name": "9e4c3be65984bf2af92635aaed3896f5", "lon": -77.02915883333333, "lat": 38.91709183333333, "type": "electric_scooter", "is_disabled": 0, "rental_uris": {"android": "https://dc.lft.to/lastmile_qr_scan", "ios": "https://dc.lft.to/lastmile_qr_scan"}, "fusion_lon": 0.0, "bike_id": "9e4c3be65984bf2af92635aaed3896f5", "fusion_lat": 0.0, "is_reserved": 0}, {"name": "600fdc506f5bbe70405f7b874aef140b", "lon": -77.04333216666667, "lat": 38.90035266666667, "type": "electric_scooter", "is_disabled": 0, "rental_uris": {"android": "https://dc.lft.to/lastmile_qr_scan", "ios": "https://dc.lft.to/lastmile_qr_scan"}, "fusion_lon": 0.0, "bike_id": "600fdc506f5bbe70405f7b874aef140b", "fusion_lat": 0.0, "is_reserved": 0}, {"name": "aaa429bbadb672c0d49ef39d1ebf4909", "lon": -77.03103216666666, "lat": 38.88316433333333, "type": "electric_scooter", "is_disabled": 0, "rental_uris": {"android": "https://dc.lft.to/lastmile_qr_scan", "ios": "https://dc.lft.to/lastmile_qr_scan"}, "fusion_lon": 0.0, "bike_id": "aaa429bbadb672c0d49ef39d1ebf4909", "fusion_lat": 0.0, "is_reserved": 0}, {"name": "eac1a345f69e7c6238878df07b85603e", "lon": -77.02943783333333, "lat": 38.91679333333333, "type": "electric_scooter", "is_disabled": 0, "rental_uris": {"android": "https://dc.lft.to/lastmile_qr_scan", "ios": "https://dc.lft.to/lastmile_qr_scan"}, "fusion_lon": 0.0, "bike_id": "eac1a345f69e7c6238878df07b85603e", "fusion_lat": 0.0, "is_reserved": 0}, {"name": "95da392874fb6b47084a23b5f441755d", "lon": -77.04352016666667, "lat": 38.91102433333333, "type": "electric_scooter", "is_disabled": 0, "rental_uris": {"android": "https://dc.lft.to/lastmile_qr_scan", "ios": "https://dc.lft.to/lastmile_qr_scan"}, "fusion_lon": 0.0, "bike_id": "95da392874fb6b47084a23b5f441755d", "fusion_lat": 0.0, "is_reserved": 0}, {"name": "20a1af52e91c59df02be3ce37b831e0e", "lon": -77.07165266666667, "lat": 38.908691166666664, "type": "electric_scooter", "is_disabled": 0, "rental_uris": {"android": "https://dc.lft.to/lastmile_qr_scan", "ios": "https://dc.lft.to/lastmile_qr_scan"}, "fusion_lon": 0.0, "bike_id": "20a1af52e91c59df02be3ce37b831e0e", "fusion_lat": 0.0, "is_reserved": 0}, {"name": "f8a775a58878f4990300dfba751fb62f", "lon": -77.1068335, "lat": 38.864474333333334, "type": "electric_bike", "is_disabled": 0, "rental_uris": {"android": "https://dc.lft.to/lastmile_qr_scan", "ios": "https://dc.lft.to/lastmile_qr_scan"}, "fusion_lon": 0.0, "bike_id": "f8a775a58878f4990300dfba751fb62f", "fusion_lat": 0.0, "is_reserved": 0}, {"name": "1827d4bc0a4618e4446833311c048e85", "lon": -77.03852416666666, "lat": 38.917753166666664, "type": "electric_scooter", "is_disabled": 0, "rental_uris": {"android": "https://dc.lft.to/lastmile_qr_scan", "ios": "https://dc.lft.to/lastmile_qr_scan"}, "fusion_lon": 0.0, "bike_id": "1827d4bc0a4618e4446833311c048e85", "fusion_lat": 0.0, "is_reserved": 0}, {"name": "873379d164f6c00278bc797b05767c7d", "lon": -77.02993083333334, "lat": 38.902571, "type": "electric_scooter", "is_disabled": 0, "rental_uris": {"android": "https://dc.lft.to/lastmile_qr_scan", "ios": "https://dc.lft.to/lastmile_qr_scan"}, "fusion_lon": 0.0, "bike_id": "873379d164f6c00278bc797b05767c7d", "fusion_lat": 0.0, "is_reserved": 0}, {"name": "c92b0287b05bbf3ccec78d5a0c0bf625", "lon": -77.0389565, "lat": 38.901258166666665, "type": "electric_scooter", "is_disabled": 0, "rental_uris": {"android": "https://dc.lft.to/lastmile_qr_scan", "ios": "https://dc.lft.to/lastmile_qr_scan"}, "fusion_lon": 0.0, "bike_id": "c92b0287b05bbf3ccec78d5a0c0bf625", "fusion_lat": 0.0, "is_reserved": 0}, {"name": "11dce8763340f75b03053347e9f7f685", "lon": -77.044618, "lat": 38.903779666666665, "type": "electric_scooter", "is_disabled": 0, "rental_uris": {"android": "https://dc.lft.to/lastmile_qr_scan", "ios": "https://dc.lft.to/lastmile_qr_scan"}, "fusion_lon": 0.0, "bike_id": "11dce8763340f75b03053347e9f7f685", "fusion_lat": 0.0, "is_reserved": 0}, {"name": "2871842f6582a6f4378cf654fec37e6a", "lon": -77.01008783333333, "lat": 38.906616666666665, "type": "electric_scooter", "is_disabled": 0, "rental_uris": {"android": "https://dc.lft.to/lastmile_qr_scan", "ios": "https://dc.lft.to/lastmile_qr_scan"}, "fusion_lon": 0.0, "bike_id": "2871842f6582a6f4378cf654fec37e6a", "fusion_lat": 0.0, "is_reserved": 0}, {"name": "1813783087f79515684768c6ca617a12", "lon": -77.02692083333334, "lat": 38.90932866666667, "type": "electric_scooter", "is_disabled": 0, "rental_uris": {"android": "https://dc.lft.to/lastmile_qr_scan", "ios": "https://dc.lft.to/lastmile_qr_scan"}, "fusion_lon": 0.0, "bike_id": "1813783087f79515684768c6ca617a12", "fusion_lat": 0.0, "is_reserved": 0}, {"name": "e953789cb58026407619f47e372b21b9", "lon": -77.02794366666667, "lat": 38.939236333333334, "type": "electric_scooter", "is_disabled": 0, "rental_uris": {"android": "https://dc.lft.to/lastmile_qr_scan", "ios": "https://dc.lft.to/lastmile_qr_scan"}, "fusion_lon": 0.0, "bike_id": "e953789cb58026407619f47e372b21b9", "fusion_lat": 0.0, "is_reserved": 0}, {"name": "438c088456313621ab68a760eab5f857", "lon": -77.07765183333333, "lat": 38.925474333333334, "type": "electric_scooter", "is_disabled": 0, "rental_uris": {"android": "https://dc.lft.to/lastmile_qr_scan", "ios": "https://dc.lft.to/lastmile_qr_scan"}, "fusion_lon": 0.0, "bike_id": "438c088456313621ab68a760eab5f857", "fusion_lat": 0.0, "is_reserved": 0}, {"name": "5404efa45c5efed45516b03f5f49aaf1", "lon": -77.0558365, "lat": 38.93428683333333, "type": "electric_scooter", "is_disabled": 0, "rental_uris": {"android": "https://dc.lft.to/lastmile_qr_scan", "ios": "https://dc.lft.to/lastmile_qr_scan"}, "fusion_lon": 0.0, "bike_id": "5404efa45c5efed45516b03f5f49aaf1", "fusion_lat": 0.0, "is_reserved": 0}, {"name": "63f353781457fc878c98a0bf8675048d", "lon": -77.03828733333333, "lat": 38.903789333333336, "type": "electric_scooter", "is_disabled": 0, "rental_uris": {"android": "https://dc.lft.to/lastmile_qr_scan", "ios": "https://dc.lft.to/lastmile_qr_scan"}, "fusion_lon": 0.0, "bike_id": "63f353781457fc878c98a0bf8675048d", "fusion_lat": 0.0, "is_reserved": 0}, {"name": "7f03deabeed0e83762fd02f273242a31", "lon": -76.98661066666666, "lat": 38.910636833333335, "type": "electric_scooter", "is_disabled": 0, "rental_uris": {"android": "https://dc.lft.to/lastmile_qr_scan", "ios": "https://dc.lft.to/lastmile_qr_scan"}, "fusion_lon": 0.0, "bike_id": "7f03deabeed0e83762fd02f273242a31", "fusion_lat": 0.0, "is_reserved": 0}, {"name": "3a9f9e140a9d32193751fc68b9f9b9ce", "lon": -77.04386533333333, "lat": 38.923571333333335, "type": "electric_scooter", "is_disabled": 0, "rental_uris": {"android": "https://dc.lft.to/lastmile_qr_scan", "ios": "https://dc.lft.to/lastmile_qr_scan"}, "fusion_lon": 0.0, "bike_id": "3a9f9e140a9d32193751fc68b9f9b9ce", "fusion_lat": 0.0, "is_reserved": 0}, {"name": "347c374341b4e377f89453f3bbf1a105", "lon": -77.021834, "lat": 38.90181116666667, "type": "electric_scooter", "is_disabled": 0, "rental_uris": {"android": "https://dc.lft.to/lastmile_qr_scan", "ios": "https://dc.lft.to/lastmile_qr_scan"}, "fusion_lon": 0.0, "bike_id": "347c374341b4e377f89453f3bbf1a105", "fusion_lat": 0.0, "is_reserved": 0}, {"name": "32c9d75ca94b22ffd6fae5a3b2ba9205", "lon": -77.03142366666667, "lat": 38.916930666666666, "type": "electric_scooter", "is_disabled": 0, "rental_uris": {"android": "https://dc.lft.to/lastmile_qr_scan", "ios": "https://dc.lft.to/lastmile_qr_scan"}, "fusion_lon": 0.0, "bike_id": "32c9d75ca94b22ffd6fae5a3b2ba9205", "fusion_lat": 0.0, "is_reserved": 0}, {"name": "f7c8d1029392a599136bda3583c85f46", "lon": -77.0251085, "lat": 38.92075166666667, "type": "electric_scooter", "is_disabled": 0, "rental_uris": {"android": "https://dc.lft.to/lastmile_qr_scan", "ios": "https://dc.lft.to/lastmile_qr_scan"}, "fusion_lon": 0.0, "bike_id": "f7c8d1029392a599136bda3583c85f46", "fusion_lat": 0.0, "is_reserved": 0}, {"name": "1d9844264511a05c3a6e3e6b9c86f6e2", "lon": -76.9907005, "lat": 38.94254866666667, "type": "electric_bike", "is_disabled": 0, "rental_uris": {"android": "https://dc.lft.to/lastmile_qr_scan", "ios": "https://dc.lft.to/lastmile_qr_scan"}, "fusion_lon": 0.0, "bike_id": "1d9844264511a05c3a6e3e6b9c86f6e2", "fusion_lat": 0.0, "is_reserved": 0}, {"name": "b4c04aa75ffbeb349fb0dcb6d75bc44b", "lon": -77.03656016666666, "lat": 38.9297935, "type": "electric_scooter", "is_disabled": 0, "rental_uris": {"android": "https://dc.lft.to/lastmile_qr_scan", "ios": "https://dc.lft.to/lastmile_qr_scan"}, "fusion_lon": 0.0, "bike_id": "b4c04aa75ffbeb349fb0dcb6d75bc44b", "fusion_lat": 0.0, "is_reserved": 0}, {"name": "2ba32044193570d9b04d82d7d63528f3", "lon": -76.97548633333334, "lat": 38.90320633333333, "type": "electric_scooter", "is_disabled": 0, "rental_uris": {"android": "https://dc.lft.to/lastmile_qr_scan", "ios": "https://dc.lft.to/lastmile_qr_scan"}, "fusion_lon": 0.0, "bike_id": "2ba32044193570d9b04d82d7d63528f3", "fusion_lat": 0.0, "is_reserved": 0}, {"name": "48f4186e715953495384ab2143fb2905", "lon": -76.985626, "lat": 38.866818333333335, "type": "electric_scooter", "is_disabled": 0, "rental_uris": {"android": "https://dc.lft.to/lastmile_qr_scan", "ios": "https://dc.lft.to/lastmile_qr_scan"}, "fusion_lon": 0.0, "bike_id": "48f4186e715953495384ab2143fb2905", "fusion_lat": 0.0, "is_reserved": 0}, {"name": "01177b3ed1e582d6925723fdb5ccd7a0", "lon": -77.0130255, "lat": 38.900712166666665, "type": "electric_bike", "is_disabled": 0, "rental_uris": {"android": "https://dc.lft.to/lastmile_qr_scan", "ios": "https://dc.lft.to/lastmile_qr_scan"}, "fusion_lon": 0.0, "bike_id": "01177b3ed1e582d6925723fdb5ccd7a0", "fusion_lat": 0.0, "is_reserved": 0}, {"name": "deb8d23e4b16d46b41b526da44fd0653", "lon": -77.005641, "lat": 38.88497733333333, "type": "electric_scooter", "is_disabled": 0, "rental_uris": {"android": "https://dc.lft.to/lastmile_qr_scan", "ios": "https://dc.lft.to/lastmile_qr_scan"}, "fusion_lon": 0.0, "bike_id": "deb8d23e4b16d46b41b526da44fd0653", "fusion_lat": 0.0, "is_reserved": 0}, {"name": "c2ff2d892276b0e30c33828db7df156d", "lon": -76.94637483333334, "lat": 38.898554, "type": "electric_scooter", "is_disabled": 0, "rental_uris": {"android": "https://dc.lft.to/lastmile_qr_scan", "ios": "https://dc.lft.to/lastmile_qr_scan"}, "fusion_lon": 0.0, "bike_id": "c2ff2d892276b0e30c33828db7df156d", "fusion_lat": 0.0, "is_reserved": 0}, {"name": "05546a2334e62457850aa52bd29c29bd", "lon": -77.00044766666667, "lat": 38.87428383333334, "type": "electric_scooter", "is_disabled": 0, "rental_uris": {"android": "https://dc.lft.to/lastmile_qr_scan", "ios": "https://dc.lft.to/lastmile_qr_scan"}, "fusion_lon": 0.0, "bike_id": "05546a2334e62457850aa52bd29c29bd", "fusion_lat": 0.0, "is_reserved": 0}, {"name": "2cf95e0dd73c1b7eb0415ec11ef1737f", "lon": -77.0326255, "lat": 38.91110916666667, "type": "electric_scooter", "is_disabled": 0, "rental_uris": {"android": "https://dc.lft.to/lastmile_qr_scan", "ios": "https://dc.lft.to/lastmile_qr_scan"}, "fusion_lon": 0.0, "bike_id": "2cf95e0dd73c1b7eb0415ec11ef1737f", "fusion_lat": 0.0, "is_reserved": 0}, {"name": "c2895cb606c9fba175da9a9533d2dcc7", "lon": -77.063484, "lat": 38.9444085, "type": "electric_scooter", "is_disabled": 0, "rental_uris": {"android": "https://dc.lft.to/lastmile_qr_scan", "ios": "https://dc.lft.to/lastmile_qr_scan"}, "fusion_lon": 0.0, "bike_id": "c2895cb606c9fba175da9a9533d2dcc7", "fusion_lat": 0.0, "is_reserved": 0}, {"name": "8e7bd0f8519de9f22fe90c9b3825a2e9", "lon": -77.01287666666667, "lat": 39.003738166666665, "type": "electric_bike", "is_disabled": 0, "rental_uris": {"android": "https://dc.lft.to/lastmile_qr_scan", "ios": "https://dc.lft.to/lastmile_qr_scan"}, "fusion_lon": 0.0, "bike_id": "8e7bd0f8519de9f22fe90c9b3825a2e9", "fusion_lat": 0.0, "is_reserved": 0}, {"name": "9af90c0ff8ac6e93be80f1177a6c2380", "lon": -77.01354983333333, "lat": 38.91846116666667, "type": "electric_scooter", "is_disabled": 0, "rental_uris": {"android": "https://dc.lft.to/lastmile_qr_scan", "ios": "https://dc.lft.to/lastmile_qr_scan"}, "fusion_lon": 0.0, "bike_id": "9af90c0ff8ac6e93be80f1177a6c2380", "fusion_lat": 0.0, "is_reserved": 0}, {"name": "7cdd1f2d9aee02d333b1adb204a0b421", "lon": -77.05029916666666, "lat": 38.92360383333333, "type": "electric_scooter", "is_disabled": 0, "rental_uris": {"android": "https://dc.lft.to/lastmile_qr_scan", "ios": "https://dc.lft.to/lastmile_qr_scan"}, "fusion_lon": 0.0, "bike_id": "7cdd1f2d9aee02d333b1adb204a0b421", "fusion_lat": 0.0, "is_reserved": 0}, {"name": "24b841446088414ea758a5f7ddf78041", "lon": -76.98355166666667, "lat": 38.88289433333333, "type": "electric_scooter", "is_disabled": 0, "rental_uris": {"android": "https://dc.lft.to/lastmile_qr_scan", "ios": "https://dc.lft.to/lastmile_qr_scan"}, "fusion_lon": 0.0, "bike_id": "24b841446088414ea758a5f7ddf78041", "fusion_lat": 0.0, "is_reserved": 0}, {"name": "1ba6dbcc2d0f85d00e0490c8f24dd018", "lon": -77.02192833333334, "lat": 38.91441833333333, "type": "electric_scooter", "is_disabled": 0, "rental_uris": {"android": "https://dc.lft.to/lastmile_qr_scan", "ios": "https://dc.lft.to/lastmile_qr_scan"}, "fusion_lon": 0.0, "bike_id": "1ba6dbcc2d0f85d00e0490c8f24dd018", "fusion_lat": 0.0, "is_reserved": 0}, {"name": "f563a0b4e54e27effba792eea2e80d0f", "lon": -77.05995966666667, "lat": 38.9364145, "type": "electric_scooter", "is_disabled": 0, "rental_uris": {"android": "https://dc.lft.to/lastmile_qr_scan", "ios": "https://dc.lft.to/lastmile_qr_scan"}, "fusion_lon": 0.0, "bike_id": "f563a0b4e54e27effba792eea2e80d0f", "fusion_lat": 0.0, "is_reserved": 0}, {"name": "0c6611d68dc32298dce8617007da9289", "lon": -77.01408916666666, "lat": 38.896007, "type": "electric_scooter", "is_disabled": 0, "rental_uris": {"android": "https://dc.lft.to/lastmile_qr_scan", "ios": "https://dc.lft.to/lastmile_qr_scan"}, "fusion_lon": 0.0, "bike_id": "0c6611d68dc32298dce8617007da9289", "fusion_lat": 0.0, "is_reserved": 0}, {"name": "b4cba768580b30a1cc03cc41beb88300", "lon": -77.01557766666667, "lat": 38.92679116666667, "type": "electric_scooter", "is_disabled": 0, "rental_uris": {"android": "https://dc.lft.to/lastmile_qr_scan", "ios": "https://dc.lft.to/lastmile_qr_scan"}, "fusion_lon": 0.0, "bike_id": "b4cba768580b30a1cc03cc41beb88300", "fusion_lat": 0.0, "is_reserved": 0}, {"name": "6c21ea36c401d5c50fd2fff0d9d4868c", "lon": -77.0270115, "lat": 38.926385, "type": "electric_scooter", "is_disabled": 0, "rental_uris": {"android": "https://dc.lft.to/lastmile_qr_scan", "ios": "https://dc.lft.to/lastmile_qr_scan"}, "fusion_lon": 0.0, "bike_id": "6c21ea36c401d5c50fd2fff0d9d4868c", "fusion_lat": 0.0, "is_reserved": 0}, {"name": "13b747b6af7552e209bfeacf155a0b9d", "lon": -77.03254083333333, "lat": 38.901179166666665, "type": "electric_scooter", "is_disabled": 0, "rental_uris": {"android": "https://dc.lft.to/lastmile_qr_scan", "ios": "https://dc.lft.to/lastmile_qr_scan"}, "fusion_lon": 0.0, "bike_id": "13b747b6af7552e209bfeacf155a0b9d", "fusion_lat": 0.0, "is_reserved": 0}, {"name": "736cf8e08a7796c8af54c5d6b0c2f4bd", "lon": -77.0774955, "lat": 38.91164883333333, "type": "electric_scooter", "is_disabled": 0, "rental_uris": {"android": "https://dc.lft.to/lastmile_qr_scan", "ios": "https://dc.lft.to/lastmile_qr_scan"}, "fusion_lon": 0.0, "bike_id": "736cf8e08a7796c8af54c5d6b0c2f4bd", "fusion_lat": 0.0, "is_reserved": 0}, {"name": "89680db4f592e321f737423ce9d81cab", "lon": -77.02187233333333, "lat": 38.91506233333333, "type": "electric_scooter", "is_disabled": 0, "rental_uris": {"android": "https://dc.lft.to/lastmile_qr_scan", "ios": "https://dc.lft.to/lastmile_qr_scan"}, "fusion_lon": 0.0, "bike_id": "89680db4f592e321f737423ce9d81cab", "fusion_lat": 0.0, "is_reserved": 0}, {"name": "5e260146eb6db617e81b917549923d16", "lon": -77.02660383333334, "lat": 38.9257885, "type": "electric_scooter", "is_disabled": 0, "rental_uris": {"android": "https://dc.lft.to/lastmile_qr_scan", "ios": "https://dc.lft.to/lastmile_qr_scan"}, "fusion_lon": 0.0, "bike_id": "5e260146eb6db617e81b917549923d16", "fusion_lat": 0.0, "is_reserved": 0}, {"name": "513c10dc74e20d44745d7bb671876b77", "lon": -76.9901355, "lat": 38.8859855, "type": "electric_scooter", "is_disabled": 0, "rental_uris": {"android": "https://dc.lft.to/lastmile_qr_scan", "ios": "https://dc.lft.to/lastmile_qr_scan"}, "fusion_lon": 0.0, "bike_id": "513c10dc74e20d44745d7bb671876b77", "fusion_lat": 0.0, "is_reserved": 0}, {"name": "12f1b2f6cb30df39da39aee361a032aa", "lon": -77.04496316666666, "lat": 38.903793, "type": "electric_scooter", "is_disabled": 0, "rental_uris": {"android": "https://dc.lft.to/lastmile_qr_scan", "ios": "https://dc.lft.to/lastmile_qr_scan"}, "fusion_lon": 0.0, "bike_id": "12f1b2f6cb30df39da39aee361a032aa", "fusion_lat": 0.0, "is_reserved": 0}, {"name": "1f9986bfc4e40d068406734167ad60c9", "lon": -77.04656733333333, "lat": 38.90998866666666, "type": "electric_scooter", "is_disabled": 0, "rental_uris": {"android": "https://dc.lft.to/lastmile_qr_scan", "ios": "https://dc.lft.to/lastmile_qr_scan"}, "fusion_lon": 0.0, "bike_id": "1f9986bfc4e40d068406734167ad60c9", "fusion_lat": 0.0, "is_reserved": 0}, {"name": "b9da17e15113724550cbc2d8082c03cc", "lon": -77.0311725, "lat": 38.959319, "type": "electric_scooter", "is_disabled": 0, "rental_uris": {"android": "https://dc.lft.to/lastmile_qr_scan", "ios": "https://dc.lft.to/lastmile_qr_scan"}, "fusion_lon": 0.0, "bike_id": "b9da17e15113724550cbc2d8082c03cc", "fusion_lat": 0.0, "is_reserved": 0}, {"name": "3a1590b644317834bec29ead57ef6662", "lon": -77.02689183333334, "lat": 38.89722716666667, "type": "electric_scooter", "is_disabled": 0, "rental_uris": {"android": "https://dc.lft.to/lastmile_qr_scan", "ios": "https://dc.lft.to/lastmile_qr_scan"}, "fusion_lon": 0.0, "bike_id": "3a1590b644317834bec29ead57ef6662", "fusion_lat": 0.0, "is_reserved": 0}, {"name": "977e87e849a27adef868921470e60aa5", "lon": -77.04034116666666, "lat": 38.89918266666667, "type": "electric_scooter", "is_disabled": 0, "rental_uris": {"android": "https://dc.lft.to/lastmile_qr_scan", "ios": "https://dc.lft.to/lastmile_qr_scan"}, "fusion_lon": 0.0, "bike_id": "977e87e849a27adef868921470e60aa5", "fusion_lat": 0.0, "is_reserved": 0}, {"name": "dcb1e58c5756d4c69eda0e57d53935a3", "lon": -77.0137345, "lat": 38.8870335, "type": "electric_scooter", "is_disabled": 0, "rental_uris": {"android": "https://dc.lft.to/lastmile_qr_scan", "ios": "https://dc.lft.to/lastmile_qr_scan"}, "fusion_lon": 0.0, "bike_id": "dcb1e58c5756d4c69eda0e57d53935a3", "fusion_lat": 0.0, "is_reserved": 0}, {"name": "b3891c1c5e616444607271fa3faa9578", "lon": -77.03565466666667, "lat": 38.9269175, "type": "electric_scooter", "is_disabled": 0, "rental_uris": {"android": "https://dc.lft.to/lastmile_qr_scan", "ios": "https://dc.lft.to/lastmile_qr_scan"}, "fusion_lon": 0.0, "bike_id": "b3891c1c5e616444607271fa3faa9578", "fusion_lat": 0.0, "is_reserved": 0}, {"name": "e56debee98eb36f10acd7b756a2ea879", "lon": -76.9872095, "lat": 38.85589983333333, "type": "electric_scooter", "is_disabled": 0, "rental_uris": {"android": "https://dc.lft.to/lastmile_qr_scan", "ios": "https://dc.lft.to/lastmile_qr_scan"}, "fusion_lon": 0.0, "bike_id": "e56debee98eb36f10acd7b756a2ea879", "fusion_lat": 0.0, "is_reserved": 0}, {"name": "edb45ded97adf9b8b5fb016a3f48e83c", "lon": -77.02572933333333, "lat": 38.92044516666667, "type": "electric_scooter", "is_disabled": 0, "rental_uris": {"android": "https://dc.lft.to/lastmile_qr_scan", "ios": "https://dc.lft.to/lastmile_qr_scan"}, "fusion_lon": 0.0, "bike_id": "edb45ded97adf9b8b5fb016a3f48e83c", "fusion_lat": 0.0, "is_reserved": 0}, {"name": "7a1989d537cc859750b51775c01c9fab", "lon": -77.0073705, "lat": 38.89849566666667, "type": "electric_scooter", "is_disabled": 0, "rental_uris": {"android": "https://dc.lft.to/lastmile_qr_scan", "ios": "https://dc.lft.to/lastmile_qr_scan"}, "fusion_lon": 0.0, "bike_id": "7a1989d537cc859750b51775c01c9fab", "fusion_lat": 0.0, "is_reserved": 0}, {"name": "def0b7f71263628cd9c36ffb32ca766d", "lon": -76.991694, "lat": 38.900123666666666, "type": "electric_scooter", "is_disabled": 0, "rental_uris": {"android": "https://dc.lft.to/lastmile_qr_scan", "ios": "https://dc.lft.to/lastmile_qr_scan"}, "fusion_lon": 0.0, "bike_id": "def0b7f71263628cd9c36ffb32ca766d", "fusion_lat": 0.0, "is_reserved": 0}, {"name": "64e0c9aff8d2298e0b330d862d68b3e4", "lon": -77.0323045, "lat": 38.921652333333334, "type": "electric_scooter", "is_disabled": 0, "rental_uris": {"android": "https://dc.lft.to/lastmile_qr_scan", "ios": "https://dc.lft.to/lastmile_qr_scan"}, "fusion_lon": 0.0, "bike_id": "64e0c9aff8d2298e0b330d862d68b3e4", "fusion_lat": 0.0, "is_reserved": 0}, {"name": "defe9cf26dd142597cbc7b8efb86e176", "lon": -77.03288066666667, "lat": 38.92049766666667, "type": "electric_scooter", "is_disabled": 0, "rental_uris": {"android": "https://dc.lft.to/lastmile_qr_scan", "ios": "https://dc.lft.to/lastmile_qr_scan"}, "fusion_lon": 0.0, "bike_id": "defe9cf26dd142597cbc7b8efb86e176", "fusion_lat": 0.0, "is_reserved": 0}, {"name": "3f29ea524a20baf1752cc753afe6e9ae", "lon": -77.0295165, "lat": 38.90870783333333, "type": "electric_scooter", "is_disabled": 0, "rental_uris": {"android": "https://dc.lft.to/lastmile_qr_scan", "ios": "https://dc.lft.to/lastmile_qr_scan"}, "fusion_lon": 0.0, "bike_id": "3f29ea524a20baf1752cc753afe6e9ae", "fusion_lat": 0.0, "is_reserved": 0}, {"name": "2deab1f47b6916138820a5aac529dddf", "lon": -77.01750233333334, "lat": 38.974759166666665, "type": "electric_bike", "is_disabled": 0, "rental_uris": {"android": "https://dc.lft.to/lastmile_qr_scan", "ios": "https://dc.lft.to/lastmile_qr_scan"}, "fusion_lon": 0.0, "bike_id": "2deab1f47b6916138820a5aac529dddf", "fusion_lat": 0.0, "is_reserved": 0}, {"name": "deaefb3dff5f91685ea440b1bcaccebe", "lon": -77.02506183333334, "lat": 38.892246, "type": "electric_scooter", "is_disabled": 0, "rental_uris": {"android": "https://dc.lft.to/lastmile_qr_scan", "ios": "https://dc.lft.to/lastmile_qr_scan"}, "fusion_lon": 0.0, "bike_id": "deaefb3dff5f91685ea440b1bcaccebe", "fusion_lat": 0.0, "is_reserved": 0}, {"name": "c2d24ead5954290c1e5f7051d176e4bb", "lon": -76.9856615, "lat": 38.866784333333335, "type": "electric_scooter", "is_disabled": 0, "rental_uris": {"android": "https://dc.lft.to/lastmile_qr_scan", "ios": "https://dc.lft.to/lastmile_qr_scan"}, "fusion_lon": 0.0, "bike_id": "c2d24ead5954290c1e5f7051d176e4bb", "fusion_lat": 0.0, "is_reserved": 0}, {"name": "1f8d52c0ab5e4398120c0a4ccf146e3a", "lon": -76.981928, "lat": 38.920619, "type": "electric_scooter", "is_disabled": 0, "rental_uris": {"android": "https://dc.lft.to/lastmile_qr_scan", "ios": "https://dc.lft.to/lastmile_qr_scan"}, "fusion_lon": 0.0, "bike_id": "1f8d52c0ab5e4398120c0a4ccf146e3a", "fusion_lat": 0.0, "is_reserved": 0}, {"name": "441582ae23cacea2f75bafd66e1e3920", "lon": -77.050278, "lat": 38.923625666666666, "type": "electric_scooter", "is_disabled": 0, "rental_uris": {"android": "https://dc.lft.to/lastmile_qr_scan", "ios": "https://dc.lft.to/lastmile_qr_scan"}, "fusion_lon": 0.0, "bike_id": "441582ae23cacea2f75bafd66e1e3920", "fusion_lat": 0.0, "is_reserved": 0}, {"name": "aac04ddea04953b09b2eb20c3af92ebf", "lon": -77.02206716666667, "lat": 38.892262, "type": "electric_scooter", "is_disabled": 0, "rental_uris": {"android": "https://dc.lft.to/lastmile_qr_scan", "ios": "https://dc.lft.to/lastmile_qr_scan"}, "fusion_lon": 0.0, "bike_id": "aac04ddea04953b09b2eb20c3af92ebf", "fusion_lat": 0.0, "is_reserved": 0}, {"name": "86539799df7cf5c61a2db214817e0b05", "lon": -77.004287, "lat": 38.8771905, "type": "electric_scooter", "is_disabled": 0, "rental_uris": {"android": "https://dc.lft.to/lastmile_qr_scan", "ios": "https://dc.lft.to/lastmile_qr_scan"}, "fusion_lon": 0.0, "bike_id": "86539799df7cf5c61a2db214817e0b05", "fusion_lat": 0.0, "is_reserved": 0}, {"name": "951fe6681ae25d983aa186d69e682262", "lon": -76.990584, "lat": 38.9368785, "type": "electric_bike", "is_disabled": 0, "rental_uris": {"android": "https://dc.lft.to/lastmile_qr_scan", "ios": "https://dc.lft.to/lastmile_qr_scan"}, "fusion_lon": 0.0, "bike_id": "951fe6681ae25d983aa186d69e682262", "fusion_lat": 0.0, "is_reserved": 0}, {"name": "5d76c32542d15480cf8be3488ce8a3fc", "lon": -77.02661433333333, "lat": 38.93095916666667, "type": "electric_scooter", "is_disabled": 0, "rental_uris": {"android": "https://dc.lft.to/lastmile_qr_scan", "ios": "https://dc.lft.to/lastmile_qr_scan"}, "fusion_lon": 0.0, "bike_id": "5d76c32542d15480cf8be3488ce8a3fc", "fusion_lat": 0.0, "is_reserved": 0}, {"name": "f94a77febc7833cf0c32a90c95c5e381", "lon": -76.9936835, "lat": 38.990941166666666, "type": "electric_bike", "is_disabled": 0, "rental_uris": {"android": "https://dc.lft.to/lastmile_qr_scan", "ios": "https://dc.lft.to/lastmile_qr_scan"}, "fusion_lon": 0.0, "bike_id": "f94a77febc7833cf0c32a90c95c5e381", "fusion_lat": 0.0, "is_reserved": 0}, {"name": "0f3c6f134a3d30935152f36381fcf621", "lon": -77.027858, "lat": 38.938616833333334, "type": "electric_scooter", "is_disabled": 0, "rental_uris": {"android": "https://dc.lft.to/lastmile_qr_scan", "ios": "https://dc.lft.to/lastmile_qr_scan"}, "fusion_lon": 0.0, "bike_id": "0f3c6f134a3d30935152f36381fcf621", "fusion_lat": 0.0, "is_reserved": 0}, {"name": "2277fb6b9626b33de5d7f392e185aed2", "lon": -77.014591, "lat": 38.9749925, "type": "electric_scooter", "is_disabled": 0, "rental_uris": {"android": "https://dc.lft.to/lastmile_qr_scan", "ios": "https://dc.lft.to/lastmile_qr_scan"}, "fusion_lon": 0.0, "bike_id": "2277fb6b9626b33de5d7f392e185aed2", "fusion_lat": 0.0, "is_reserved": 0}, {"name": "0a4092ab958db1898ed0253c373c58d2", "lon": -77.013835, "lat": 38.88725083333333, "type": "electric_scooter", "is_disabled": 0, "rental_uris": {"android": "https://dc.lft.to/lastmile_qr_scan", "ios": "https://dc.lft.to/lastmile_qr_scan"}, "fusion_lon": 0.0, "bike_id": "0a4092ab958db1898ed0253c373c58d2", "fusion_lat": 0.0, "is_reserved": 0}, {"name": "490bb5c932e4363a3149b08ded60ff18", "lon": -77.02484216666667, "lat": 38.938791, "type": "electric_scooter", "is_disabled": 0, "rental_uris": {"android": "https://dc.lft.to/lastmile_qr_scan", "ios": "https://dc.lft.to/lastmile_qr_scan"}, "fusion_lon": 0.0, "bike_id": "490bb5c932e4363a3149b08ded60ff18", "fusion_lat": 0.0, "is_reserved": 0}, {"name": "2b93936d15bc94756e00772fc6538844", "lon": -77.02762883333334, "lat": 38.916884833333334, "type": "electric_scooter", "is_disabled": 0, "rental_uris": {"android": "https://dc.lft.to/lastmile_qr_scan", "ios": "https://dc.lft.to/lastmile_qr_scan"}, "fusion_lon": 0.0, "bike_id": "2b93936d15bc94756e00772fc6538844", "fusion_lat": 0.0, "is_reserved": 0}, {"name": "08c04f583e67f8dfa5e25a2a3c1d81aa", "lon": -77.02189066666666, "lat": 38.92825233333333, "type": "electric_scooter", "is_disabled": 0, "rental_uris": {"android": "https://dc.lft.to/lastmile_qr_scan", "ios": "https://dc.lft.to/lastmile_qr_scan"}, "fusion_lon": 0.0, "bike_id": "08c04f583e67f8dfa5e25a2a3c1d81aa", "fusion_lat": 0.0, "is_reserved": 0}, {"name": "7d4a48e255f6b993707c9961ad40b75c", "lon": -77.02823566666666, "lat": 38.91649316666667, "type": "electric_scooter", "is_disabled": 0, "rental_uris": {"android": "https://dc.lft.to/lastmile_qr_scan", "ios": "https://dc.lft.to/lastmile_qr_scan"}, "fusion_lon": 0.0, "bike_id": "7d4a48e255f6b993707c9961ad40b75c", "fusion_lat": 0.0, "is_reserved": 0}, {"name": "2351f4e31496a32c4765176dcb58faf7", "lon": -77.03995266666666, "lat": 38.9961615, "type": "electric_bike", "is_disabled": 0, "rental_uris": {"android": "https://dc.lft.to/lastmile_qr_scan", "ios": "https://dc.lft.to/lastmile_qr_scan"}, "fusion_lon": 0.0, "bike_id": "2351f4e31496a32c4765176dcb58faf7", "fusion_lat": 0.0, "is_reserved": 0}, {"name": "48c4ac2b1cd7ff8dc7db2972e8446ac7", "lon": -77.01513333333334, "lat": 38.89480266666666, "type": "electric_scooter", "is_disabled": 0, "rental_uris": {"android": "https://dc.lft.to/lastmile_qr_scan", "ios": "https://dc.lft.to/lastmile_qr_scan"}, "fusion_lon": 0.0, "bike_id": "48c4ac2b1cd7ff8dc7db2972e8446ac7", "fusion_lat": 0.0, "is_reserved": 0}, {"name": "d92b2e81f63f7cb80c7c67c7d017ff4f", "lon": -77.03424466666667, "lat": 38.902522, "type": "electric_scooter", "is_disabled": 0, "rental_uris": {"android": "https://dc.lft.to/lastmile_qr_scan", "ios": "https://dc.lft.to/lastmile_qr_scan"}, "fusion_lon": 0.0, "bike_id": "d92b2e81f63f7cb80c7c67c7d017ff4f", "fusion_lat": 0.0, "is_reserved": 0}, {"name": "681f17b6193f181bc87cd0c2620e88db", "lon": -77.04558566666667, "lat": 38.898359, "type": "electric_scooter", "is_disabled": 0, "rental_uris": {"android": "https://dc.lft.to/lastmile_qr_scan", "ios": "https://dc.lft.to/lastmile_qr_scan"}, "fusion_lon": 0.0, "bike_id": "681f17b6193f181bc87cd0c2620e88db", "fusion_lat": 0.0, "is_reserved": 0}, {"name": "ab3f45320e4c76c27c8a13c9c8db186f", "lon": -77.00056983333333, "lat": 38.87679383333333, "type": "electric_scooter", "is_disabled": 0, "rental_uris": {"android": "https://dc.lft.to/lastmile_qr_scan", "ios": "https://dc.lft.to/lastmile_qr_scan"}, "fusion_lon": 0.0, "bike_id": "ab3f45320e4c76c27c8a13c9c8db186f", "fusion_lat": 0.0, "is_reserved": 0}, {"name": "69c4c633766b9493fa270eb0acb1deb7", "lon": -76.99841333333333, "lat": 38.900285833333335, "type": "electric_scooter", "is_disabled": 0, "rental_uris": {"android": "https://dc.lft.to/lastmile_qr_scan", "ios": "https://dc.lft.to/lastmile_qr_scan"}, "fusion_lon": 0.0, "bike_id": "69c4c633766b9493fa270eb0acb1deb7", "fusion_lat": 0.0, "is_reserved": 0}, {"name": "274a02b3e975a76dda2d8350946ee18a", "lon": -77.01686566666666, "lat": 38.92052133333333, "type": "electric_scooter", "is_disabled": 0, "rental_uris": {"android": "https://dc.lft.to/lastmile_qr_scan", "ios": "https://dc.lft.to/lastmile_qr_scan"}, "fusion_lon": 0.0, "bike_id": "274a02b3e975a76dda2d8350946ee18a", "fusion_lat": 0.0, "is_reserved": 0}, {"name": "13d69b233b9d518aaf9e3a8e023875ab", "lon": -77.0118855, "lat": 38.915699833333335, "type": "electric_scooter", "is_disabled": 0, "rental_uris": {"android": "https://dc.lft.to/lastmile_qr_scan", "ios": "https://dc.lft.to/lastmile_qr_scan"}, "fusion_lon": 0.0, "bike_id": "13d69b233b9d518aaf9e3a8e023875ab", "fusion_lat": 0.0, "is_reserved": 0}, {"name": "7b727ae5f56fea23a01bb2775a2b9a12", "lon": -77.03066083333333, "lat": 38.930833166666666, "type": "electric_scooter", "is_disabled": 0, "rental_uris": {"android": "https://dc.lft.to/lastmile_qr_scan", "ios": "https://dc.lft.to/lastmile_qr_scan"}, "fusion_lon": 0.0, "bike_id": "7b727ae5f56fea23a01bb2775a2b9a12", "fusion_lat": 0.0, "is_reserved": 0}, {"name": "2c7ca3cc5ed4efcbaba56b842cca2623", "lon": -77.03547183333333, "lat": 38.924969833333336, "type": "electric_scooter", "is_disabled": 0, "rental_uris": {"android": "https://dc.lft.to/lastmile_qr_scan", "ios": "https://dc.lft.to/lastmile_qr_scan"}, "fusion_lon": 0.0, "bike_id": "2c7ca3cc5ed4efcbaba56b842cca2623", "fusion_lat": 0.0, "is_reserved": 0}, {"name": "966ef617f1401c81b083a9039f63e0c6", "lon": -76.97968933333334, "lat": 38.89224316666667, "type": "electric_scooter", "is_disabled": 0, "rental_uris": {"android": "https://dc.lft.to/lastmile_qr_scan", "ios": "https://dc.lft.to/lastmile_qr_scan"}, "fusion_lon": 0.0, "bike_id": "966ef617f1401c81b083a9039f63e0c6", "fusion_lat": 0.0, "is_reserved": 0}, {"name": "5d1d1965891017be4c7a4b1ec72f29fc", "lon": -77.04536866666666, "lat": 38.91321516666667, "type": "electric_scooter", "is_disabled": 0, "rental_uris": {"android": "https://dc.lft.to/lastmile_qr_scan", "ios": "https://dc.lft.to/lastmile_qr_scan"}, "fusion_lon": 0.0, "bike_id": "5d1d1965891017be4c7a4b1ec72f29fc", "fusion_lat": 0.0, "is_reserved": 0}, {"name": "522717881111a9a43cffca952ee2c0c4", "lon": -77.032118, "lat": 38.901419, "type": "electric_scooter", "is_disabled": 0, "rental_uris": {"android": "https://dc.lft.to/lastmile_qr_scan", "ios": "https://dc.lft.to/lastmile_qr_scan"}, "fusion_lon": 0.0, "bike_id": "522717881111a9a43cffca952ee2c0c4", "fusion_lat": 0.0, "is_reserved": 0}, {"name": "4e3b23a2ca5b24f3b0f51e7cd6024094", "lon": -77.04404283333334, "lat": 38.912169666666664, "type": "electric_scooter", "is_disabled": 0, "rental_uris": {"android": "https://dc.lft.to/lastmile_qr_scan", "ios": "https://dc.lft.to/lastmile_qr_scan"}, "fusion_lon": 0.0, "bike_id": "4e3b23a2ca5b24f3b0f51e7cd6024094", "fusion_lat": 0.0, "is_reserved": 0}, {"name": "d4e3bdbd89d7da09bab29f52cd77343d", "lon": -77.04870166666667, "lat": 38.897965666666664, "type": "electric_scooter", "is_disabled": 0, "rental_uris": {"android": "https://dc.lft.to/lastmile_qr_scan", "ios": "https://dc.lft.to/lastmile_qr_scan"}, "fusion_lon": 0.0, "bike_id": "d4e3bdbd89d7da09bab29f52cd77343d", "fusion_lat": 0.0, "is_reserved": 0}, {"name": "ed658364fdd15498ab04d99147f2d8a0", "lon": -77.04354433333333, "lat": 38.90414466666667, "type": "electric_scooter", "is_disabled": 0, "rental_uris": {"android": "https://dc.lft.to/lastmile_qr_scan", "ios": "https://dc.lft.to/lastmile_qr_scan"}, "fusion_lon": 0.0, "bike_id": "ed658364fdd15498ab04d99147f2d8a0", "fusion_lat": 0.0, "is_reserved": 0}, {"name": "0ac70ad8109c24186bd7d05aaab38fae", "lon": -77.0135675, "lat": 38.9162355, "type": "electric_scooter", "is_disabled": 0, "rental_uris": {"android": "https://dc.lft.to/lastmile_qr_scan", "ios": "https://dc.lft.to/lastmile_qr_scan"}, "fusion_lon": 0.0, "bike_id": "0ac70ad8109c24186bd7d05aaab38fae", "fusion_lat": 0.0, "is_reserved": 0}, {"name": "28eab73ac0911871b0129332ba0f5d13", "lon": -77.031222, "lat": 38.91692966666667, "type": "electric_scooter", "is_disabled": 0, "rental_uris": {"android": "https://dc.lft.to/lastmile_qr_scan", "ios": "https://dc.lft.to/lastmile_qr_scan"}, "fusion_lon": 0.0, "bike_id": "28eab73ac0911871b0129332ba0f5d13", "fusion_lat": 0.0, "is_reserved": 0}, {"name": "9f14c9a271b5ac9fe6221efe003799df", "lon": -76.9819905, "lat": 38.865972, "type": "electric_scooter", "is_disabled": 0, "rental_uris": {"android": "https://dc.lft.to/lastmile_qr_scan", "ios": "https://dc.lft.to/lastmile_qr_scan"}, "fusion_lon": 0.0, "bike_id": "9f14c9a271b5ac9fe6221efe003799df", "fusion_lat": 0.0, "is_reserved": 0}, {"name": "b07819c68fe56402a66e35e7e650d062", "lon": -77.04517883333334, "lat": 38.892216833333336, "type": "electric_scooter", "is_disabled": 0, "rental_uris": {"android": "https://dc.lft.to/lastmile_qr_scan", "ios": "https://dc.lft.to/lastmile_qr_scan"}, "fusion_lon": 0.0, "bike_id": "b07819c68fe56402a66e35e7e650d062", "fusion_lat": 0.0, "is_reserved": 0}, {"name": "00e1ec665ae8729a4cd3a665b2dc9c5c", "lon": -77.03334133333334, "lat": 38.898144333333335, "type": "electric_scooter", "is_disabled": 0, "rental_uris": {"android": "https://dc.lft.to/lastmile_qr_scan", "ios": "https://dc.lft.to/lastmile_qr_scan"}, "fusion_lon": 0.0, "bike_id": "00e1ec665ae8729a4cd3a665b2dc9c5c", "fusion_lat": 0.0, "is_reserved": 0}, {"name": "333a403726efb82764ff70d112221c8a", "lon": -77.03475266666666, "lat": 38.9155815, "type": "electric_scooter", "is_disabled": 0, "rental_uris": {"android": "https://dc.lft.to/lastmile_qr_scan", "ios": "https://dc.lft.to/lastmile_qr_scan"}, "fusion_lon": 0.0, "bike_id": "333a403726efb82764ff70d112221c8a", "fusion_lat": 0.0, "is_reserved": 0}, {"name": "8b1acc9caf6e33244bcdc78520da8feb", "lon": -77.017644, "lat": 38.921127, "type": "electric_scooter", "is_disabled": 0, "rental_uris": {"android": "https://dc.lft.to/lastmile_qr_scan", "ios": "https://dc.lft.to/lastmile_qr_scan"}, "fusion_lon": 0.0, "bike_id": "8b1acc9caf6e33244bcdc78520da8feb", "fusion_lat": 0.0, "is_reserved": 0}, {"name": "e698cd3b54cda10f07731a6492554d70", "lon": -76.97225216666666, "lat": 38.900277333333335, "type": "electric_bike", "is_disabled": 0, "rental_uris": {"android": "https://dc.lft.to/lastmile_qr_scan", "ios": "https://dc.lft.to/lastmile_qr_scan"}, "fusion_lon": 0.0, "bike_id": "e698cd3b54cda10f07731a6492554d70", "fusion_lat": 0.0, "is_reserved": 0}, {"name": "0c462c3cc5f1c3c6ce73fcf0c945eb6e", "lon": -76.984338, "lat": 38.855156, "type": "electric_bike", "is_disabled": 0, "rental_uris": {"android": "https://dc.lft.to/lastmile_qr_scan", "ios": "https://dc.lft.to/lastmile_qr_scan"}, "fusion_lon": 0.0, "bike_id": "0c462c3cc5f1c3c6ce73fcf0c945eb6e", "fusion_lat": 0.0, "is_reserved": 0}, {"name": "3c86e3afa9c0acfb08fa3c4107c3cc09", "lon": -77.02424583333334, "lat": 38.92656016666667, "type": "electric_scooter", "is_disabled": 0, "rental_uris": {"android": "https://dc.lft.to/lastmile_qr_scan", "ios": "https://dc.lft.to/lastmile_qr_scan"}, "fusion_lon": 0.0, "bike_id": "3c86e3afa9c0acfb08fa3c4107c3cc09", "fusion_lat": 0.0, "is_reserved": 0}, {"name": "bca95a0a494f0f4a3db7096fbd15289b", "lon": -77.023755, "lat": 38.90730666666666, "type": "electric_scooter", "is_disabled": 0, "rental_uris": {"android": "https://dc.lft.to/lastmile_qr_scan", "ios": "https://dc.lft.to/lastmile_qr_scan"}, "fusion_lon": 0.0, "bike_id": "bca95a0a494f0f4a3db7096fbd15289b", "fusion_lat": 0.0, "is_reserved": 0}, {"name": "6d3be645ad61f1f39d67ae5945a60923", "lon": -77.02692, "lat": 38.89454166666667, "type": "electric_scooter", "is_disabled": 0, "rental_uris": {"android": "https://dc.lft.to/lastmile_qr_scan", "ios": "https://dc.lft.to/lastmile_qr_scan"}, "fusion_lon": 0.0, "bike_id": "6d3be645ad61f1f39d67ae5945a60923", "fusion_lat": 0.0, "is_reserved": 0}, {"name": "30d00c381869380fd5fa5091e7812500", "lon": -77.02229316666667, "lat": 38.9085625, "type": "electric_scooter", "is_disabled": 0, "rental_uris": {"android": "https://dc.lft.to/lastmile_qr_scan", "ios": "https://dc.lft.to/lastmile_qr_scan"}, "fusion_lon": 0.0, "bike_id": "30d00c381869380fd5fa5091e7812500", "fusion_lat": 0.0, "is_reserved": 0}, {"name": "b46dd0a593ba184f45aa56fc910ae734", "lon": -77.0473925, "lat": 38.89726483333333, "type": "electric_scooter", "is_disabled": 0, "rental_uris": {"android": "https://dc.lft.to/lastmile_qr_scan", "ios": "https://dc.lft.to/lastmile_qr_scan"}, "fusion_lon": 0.0, "bike_id": "b46dd0a593ba184f45aa56fc910ae734", "fusion_lat": 0.0, "is_reserved": 0}, {"name": "9a9f71ac99f3bf5359fdaf6d0735f04e", "lon": -76.99554133333334, "lat": 38.90022666666667, "type": "electric_scooter", "is_disabled": 0, "rental_uris": {"android": "https://dc.lft.to/lastmile_qr_scan", "ios": "https://dc.lft.to/lastmile_qr_scan"}, "fusion_lon": 0.0, "bike_id": "9a9f71ac99f3bf5359fdaf6d0735f04e", "fusion_lat": 0.0, "is_reserved": 0}, {"name": "104e6fe192a4152fdf8532485f8e7b28", "lon": -76.98360733333334, "lat": 38.894313833333335, "type": "electric_scooter", "is_disabled": 0, "rental_uris": {"android": "https://dc.lft.to/lastmile_qr_scan", "ios": "https://dc.lft.to/lastmile_qr_scan"}, "fusion_lon": 0.0, "bike_id": "104e6fe192a4152fdf8532485f8e7b28", "fusion_lat": 0.0, "is_reserved": 0}, {"name": "2be9b8e2ff42100ada0f5803dac70b43", "lon": -77.03844366666667, "lat": 38.9120895, "type": "electric_scooter", "is_disabled": 0, "rental_uris": {"android": "https://dc.lft.to/lastmile_qr_scan", "ios": "https://dc.lft.to/lastmile_qr_scan"}, "fusion_lon": 0.0, "bike_id": "2be9b8e2ff42100ada0f5803dac70b43", "fusion_lat": 0.0, "is_reserved": 0}, {"name": "71452583cb99457486b13d3074457965", "lon": -77.01966816666666, "lat": 38.892566333333335, "type": "electric_scooter", "is_disabled": 0, "rental_uris": {"android": "https://dc.lft.to/lastmile_qr_scan", "ios": "https://dc.lft.to/lastmile_qr_scan"}, "fusion_lon": 0.0, "bike_id": "71452583cb99457486b13d3074457965", "fusion_lat": 0.0, "is_reserved": 0}, {"name": "bd65bee4fa2e2810beb9672bbdf595e5", "lon": -77.007961, "lat": 38.89717433333333, "type": "electric_scooter", "is_disabled": 0, "rental_uris": {"android": "https://dc.lft.to/lastmile_qr_scan", "ios": "https://dc.lft.to/lastmile_qr_scan"}, "fusion_lon": 0.0, "bike_id": "bd65bee4fa2e2810beb9672bbdf595e5", "fusion_lat": 0.0, "is_reserved": 0}, {"name": "2c962048e89454b4a6f6b8e3a2dcc0b7", "lon": -77.01411966666667, "lat": 38.914020666666666, "type": "electric_scooter", "is_disabled": 0, "rental_uris": {"android": "https://dc.lft.to/lastmile_qr_scan", "ios": "https://dc.lft.to/lastmile_qr_scan"}, "fusion_lon": 0.0, "bike_id": "2c962048e89454b4a6f6b8e3a2dcc0b7", "fusion_lat": 0.0, "is_reserved": 0}, {"name": "bcc33c42b12203757fb3a6eb58e5681a", "lon": -76.9835855, "lat": 38.914943666666666, "type": "electric_scooter", "is_disabled": 0, "rental_uris": {"android": "https://dc.lft.to/lastmile_qr_scan", "ios": "https://dc.lft.to/lastmile_qr_scan"}, "fusion_lon": 0.0, "bike_id": "bcc33c42b12203757fb3a6eb58e5681a", "fusion_lat": 0.0, "is_reserved": 0}, {"name": "a80c624eb90af12696d4670eaebc089e", "lon": -77.01746066666666, "lat": 38.9398635, "type": "electric_scooter", "is_disabled": 0, "rental_uris": {"android": "https://dc.lft.to/lastmile_qr_scan", "ios": "https://dc.lft.to/lastmile_qr_scan"}, "fusion_lon": 0.0, "bike_id": "a80c624eb90af12696d4670eaebc089e", "fusion_lat": 0.0, "is_reserved": 0}, {"name": "28002344de161804a70e85e0af0eacc4", "lon": -76.99029683333333, "lat": 38.89849016666667, "type": "electric_scooter", "is_disabled": 0, "rental_uris": {"android": "https://dc.lft.to/lastmile_qr_scan", "ios": "https://dc.lft.to/lastmile_qr_scan"}, "fusion_lon": 0.0, "bike_id": "28002344de161804a70e85e0af0eacc4", "fusion_lat": 0.0, "is_reserved": 0}, {"name": "71f64d6edce535d88e68a9f675ded126", "lon": -77.03825716666667, "lat": 38.90239583333333, "type": "electric_scooter", "is_disabled": 0, "rental_uris": {"android": "https://dc.lft.to/lastmile_qr_scan", "ios": "https://dc.lft.to/lastmile_qr_scan"}, "fusion_lon": 0.0, "bike_id": "71f64d6edce535d88e68a9f675ded126", "fusion_lat": 0.0, "is_reserved": 0},