{"data": {"bikes": [{"rental_uris": {"ios": "https://dc.lft.to/lastmile_qr_scan", "android": "https://dc.lft.to/lastmile_qr_scan"}, "type": "electric_scooter", "name": "ec7fc72856e4c7e06a54fe40541d9ade", "is_reserved": 0, "lon": -77.02816416666667, "is_disabled": 0, "fusion_lat": 0.0, "lat": 38.956436, "bike_id": "ec7fc72856e4c7e06a54fe40541d9ade", "fusion_lon": 0.0}, {"rental_uris": {"ios": "https://dc.lft.to/lastmile_qr_scan", "android": "https://dc.lft.to/lastmile_qr_scan"}, "type": "electric_scooter", "name": "8a2d0190c2c5196d7e815ea69a21d406", "is_reserved": 0, "lon": -77.0061025, "is_disabled": 0, "fusion_lat": 0.0, "lat": 38.8757455, "bike_id": "8a2d0190c2c5196d7e815ea69a21d406", "fusion_lon": 0.0}, {"rental_uris": {"ios": "https://dc.lft.to/lastmile_qr_scan", "android": "https://dc.lft.to/lastmile_qr_scan"}, "type": "electric_bike", "name": "d2b2fcc88ce44ec9b087a7434dbc2875", "is_reserved": 0, "lon": -77.00210533333333, "is_disabled": 0, "fusion_lat": 0.0, "lat": 38.9884855, "bike_id": "d2b2fcc88ce44ec9b087a7434dbc2875", "fusion_lon": 0.0}, {"rental_uris": {"ios": "https://dc.lft.to/lastmile_qr_scan", "android": "https://dc.lft.to/lastmile_qr_scan"}, "type": "electric_scooter", "name": "2919fb26501ada2cc308485e29a073ea", "is_reserved": 0, "lon": -77.04425566666667, "is_disabled": 0, "fusion_lat": 0.0, "lat": 38.8973995, "bike_id": "2919fb26501ada2cc308485e29a073ea", "fusion_lon": 0.0}, {"rental_uris": {"ios": "https://dc.lft.to/lastmile_qr_scan", "android": "https://dc.lft.to/lastmile_qr_scan"}, "type": "electric_scooter", "name": "71b1ae4e7242b0d6d212cd57516e14aa", "is_reserved": 0, "lon": -77.02300066666666, "is_disabled": 0, "fusion_lat": 0.0, "lat": 38.96129216666667, "bike_id": "71b1ae4e7242b0d6d212cd57516e14aa", "fusion_lon": 0.0}, {"rental_uris": {"ios": "https://dc.lft.to/lastmile_qr_scan", "android": "https://dc.lft.to/lastmile_qr_scan"}, "type": "electric_scooter", "name": "24bfd62f0b4e42b614288c52cc03c57d", "is_reserved": 0, "lon": -77.03336683333333, "is_disabled": 0, "fusion_lat": 0.0, "lat": 38.902434166666666, "bike_id": "24bfd62f0b4e42b614288c52cc03c57d", "fusion_lon": 0.0}, {"rental_uris": {"ios": "https://dc.lft.to/lastmile_qr_scan", "android": "https://dc.lft.to/lastmile_qr_scan"}, "type": "electric_scooter", "name": "879cc2cd2e5864c3702b785b1d181a4a", "is_reserved": 0, "lon": -77.03445916666666, "is_disabled": 0, "fusion_lat": 0.0, "lat": 38.90834916666667, "bike_id": "879cc2cd2e5864c3702b785b1d181a4a", "fusion_lon": 0.0}, {"rental_uris": {"ios": "https://dc.lft.to/lastmile_qr_scan", "android": "https://dc.lft.to/lastmile_qr_scan"}, "type": "electric_scooter", "name": "b87c990c26c1fbf2ebebc1fa6309ca47", "is_reserved": 0, "lon": -77.023983, "is_disabled": 0, "fusion_lat": 0.0, "lat": 38.9170865, "bike_id": "b87c990c26c1fbf2ebebc1fa6309ca47", "fusion_lon": 0.0}, {"rental_uris": {"ios": "https://dc.lft.to/lastmile_qr_scan", "android": "https://dc.lft.to/lastmile_qr_scan"}, "type": "electric_scooter", "name": "5cb43429ed1e7d0eb0a6cad90180f7e8", "is_reserved": 0, "lon": -77.033752, "is_disabled": 0, "fusion_lat": 0.0, "lat": 38.9103625, "bike_id": "5cb43429ed1e7d0eb0a6cad90180f7e8", "fusion_lon": 0.0}, {"rental_uris": {"ios": "https://dc.lft.to/lastmile_qr_scan", "android": "https://dc.lft.to/lastmile_qr_scan"}, "type": "electric_scooter", "name": "5c3d82871efb0f109586b807f8adc0a4", "is_reserved": 0, "lon": -77.0282, "is_disabled": 0, "fusion_lat": 0.0, "lat": 38.892359666666664, "bike_id": "5c3d82871efb0f109586b807f8adc0a4", "fusion_lon": 0.0}, {"rental_uris": {"ios": "https://dc.lft.to/lastmile_qr_scan", "android": "https://dc.lft.to/lastmile_qr_scan"}, "type": "electric_scooter", "name": "d66eaf312407e53a3ef912477e1de635", "is_reserved": 0, "lon": -77.0324295, "is_disabled": 0, "fusion_lat": 0.0, "lat": 38.91043, "bike_id": "d66eaf312407e53a3ef912477e1de635", "fusion_lon": 0.0}, {"rental_uris": {"ios": "https://dc.lft.to/lastmile_qr_scan", "android": "https://dc.lft.to/lastmile_qr_scan"}, "type": "electric_scooter", "name": "9d2633232a6bb7eb6be9b230d3c0848e", "is_reserved": 0, "lon": -77.00452416666667, "is_disabled": 0, "fusion_lat": 0.0, "lat": 38.9207375, "bike_id": "9d2633232a6bb7eb6be9b230d3c0848e", "fusion_lon": 0.0}, {"rental_uris": {"ios": "https://dc.lft.to/lastmile_qr_scan", "android": "https://dc.lft.to/lastmile_qr_scan"}, "type": "electric_scooter", "name": "278a89ef4dc7214a35491f95ae6887d4", "is_reserved": 0, "lon": -77.0343985, "is_disabled": 0, "fusion_lat": 0.0, "lat": 38.908186666666666, "bike_id": "278a89ef4dc7214a35491f95ae6887d4", "fusion_lon": 0.0}, {"rental_uris": {"ios": "https://dc.lft.to/lastmile_qr_scan", "android": "https://dc.lft.to/lastmile_qr_scan"}, "type": "electric_bike", "name": "4260f8f43b2715b0c80d304bf290c787", "is_reserved": 0, "lon": -76.99069916666667, "is_disabled": 0, "fusion_lat": 0.0, "lat": 38.9305245, "bike_id": "4260f8f43b2715b0c80d304bf290c787", "fusion_lon": 0.0}, {"rental_uris": {"ios": "https://dc.lft.to/lastmile_qr_scan", "android": "https://dc.lft.to/lastmile_qr_scan"}, "type": "electric_scooter", "name": "f9154f2b10a0a69b7d3bdef7ac5b381b", "is_reserved": 0, "lon": -77.053795, "is_disabled": 0, "fusion_lat": 0.0, "lat": 38.89834466666667, "bike_id": "f9154f2b10a0a69b7d3bdef7ac5b381b", "fusion_lon": 0.0}, {"rental_uris": {"ios": "https://dc.lft.to/lastmile_qr_scan", "android": "https://dc.lft.to/lastmile_qr_scan"}, "type": "electric_scooter", "name": "3284fa7d750471105c0fca32ecd39990", "is_reserved": 0, "lon": -77.04757883333333, "is_disabled": 0, "fusion_lat": 0.0, "lat": 38.91246116666667, "bike_id": "3284fa7d750471105c0fca32ecd39990", "fusion_lon": 0.0}, {"rental_uris": {"ios": "https://dc.lft.to/lastmile_qr_scan", "android": "https://dc.lft.to/lastmile_qr_scan"}, "type": "electric_bike", "name": "ff5abef4964b030ce82fbc6de01d334b", "is_reserved": 0, "lon": -77.23176533333333, "is_disabled": 0, "fusion_lat": 0.0, "lat": 38.928945166666665, "bike_id": "ff5abef4964b030ce82fbc6de01d334b", "fusion_lon": 0.0}, {"rental_uris": {"ios": "https://dc.lft.to/lastmile_qr_scan", "android": "https://dc.lft.to/lastmile_qr_scan"}, "type": "electric_bike", "name": "ccf8a500a1af219e34df340e5e4e1b8c", "is_reserved": 0, "lon": -76.97927316666667, "is_disabled": 0, "fusion_lat": 0.0, "lat": 38.91997533333333, "bike_id": "ccf8a500a1af219e34df340e5e4e1b8c", "fusion_lon": 0.0}, {"rental_uris": {"ios": "https://dc.lft.to/lastmile_qr_scan", "android": "https://dc.lft.to/lastmile_qr_scan"}, "type": "electric_scooter", "name": "fc8a00ef68e9dedd211ebf21059b6172", "is_reserved": 0, "lon": -77.02006866666666, "is_disabled": 0, "fusion_lat": 0.0, "lat": 38.928042166666664, "bike_id": "fc8a00ef68e9dedd211ebf21059b6172", "fusion_lon": 0.0}, {"rental_uris": {"ios": "https://dc.lft.to/lastmile_qr_scan", "android": "https://dc.lft.to/lastmile_qr_scan"}, "type": "electric_scooter", "name": "ebe5a2525f4c623f5c3d177054031f90", "is_reserved": 0, "lon": -77.005539, "is_disabled": 0, "fusion_lat": 0.0, "lat": 38.87651816666666, "bike_id": "ebe5a2525f4c623f5c3d177054031f90", "fusion_lon": 0.0}, {"rental_uris": {"ios": "https://dc.lft.to/lastmile_qr_scan", "android": "https://dc.lft.to/lastmile_qr_scan"}, "type": "electric_scooter", "name": "16a90a468de29829f7b9a7c399e48044", "is_reserved": 0, "lon": -77.015035, "is_disabled": 0, "fusion_lat": 0.0, "lat": 38.906557, "bike_id": "16a90a468de29829f7b9a7c399e48044", "fusion_lon": 0.0}, {"rental_uris": {"ios": "https://dc.lft.to/lastmile_qr_scan", "android": "https://dc.lft.to/lastmile_qr_scan"}, "type": "electric_scooter", "name": "dd88827e7fe27d77bb1f6b589761a8d4", "is_reserved": 0, "lon": -77.03404016666667, "is_disabled": 0, "fusion_lat": 0.0, "lat": 38.901259833333334, "bike_id": "dd88827e7fe27d77bb1f6b589761a8d4", "fusion_lon": 0.0}, {"rental_uris": {"ios": "https://dc.lft.to/lastmile_qr_scan", "android": "https://dc.lft.to/lastmile_qr_scan"}, "type": "electric_scooter", "name": "258140ad1987f090bc9d6a6f49875005", "is_reserved": 0, "lon": -76.92302783333334, "is_disabled": 0, "fusion_lat": 0.0, "lat": 38.89383466666666, "bike_id": "258140ad1987f090bc9d6a6f49875005", "fusion_lon": 0.0}, {"rental_uris": {"ios": "https://dc.lft.to/lastmile_qr_scan", "android": "https://dc.lft.to/lastmile_qr_scan"}, "type": "electric_bike", "name": "ddc17d75ec4519e3531fe9d7140043f0", "is_reserved": 0, "lon": -77.10290566666667, "is_disabled": 0, "fusion_lat": 0.0, "lat": 38.85253383333333, "bike_id": "ddc17d75ec4519e3531fe9d7140043f0", "fusion_lon": 0.0}, {"rental_uris": {"ios": "https://dc.lft.to/lastmile_qr_scan", "android": "https://dc.lft.to/lastmile_qr_scan"}, "type": "electric_scooter", "name": "6ba6b527f58b3be7956649cdcea9912b", "is_reserved": 0, "lon": -77.02567166666667, "is_disabled": 0, "fusion_lat": 0.0, "lat": 38.94847866666667, "bike_id": "6ba6b527f58b3be7956649cdcea9912b", "fusion_lon": 0.0}, {"rental_uris": {"ios": "https://dc.lft.to/lastmile_qr_scan", "android": "https://dc.lft.to/lastmile_qr_scan"}, "type": "electric_scooter", "name": "ff6a055fd4f8e14ea609579f3cf68abc", "is_reserved": 0, "lon": -76.98649416666666, "is_disabled": 0, "fusion_lat": 0.0, "lat": 38.90539366666667, "bike_id": "ff6a055fd4f8e14ea609579f3cf68abc", "fusion_lon": 0.0}, {"rental_uris": {"ios": "https://dc.lft.to/lastmile_qr_scan", "android": "https://dc.lft.to/lastmile_qr_scan"}, "type": "electric_scooter", "name": "7561cd7a366ee1a052746940ea1282d5", "is_reserved": 0, "lon": -76.9463725, "is_disabled": 0, "fusion_lat": 0.0, "lat": 38.898671, "bike_id": "7561cd7a366ee1a052746940ea1282d5", "fusion_lon": 0.0}, {"rental_uris": {"ios": "https://dc.lft.to/lastmile_qr_scan", "android": "https://dc.lft.to/lastmile_qr_scan"}, "type": "electric_scooter", "name": "bb717f91f6bd5074703e76bf0cbd6bac", "is_reserved": 0, "lon": -77.01999616666667, "is_disabled": 0, "fusion_lat": 0.0, "lat": 38.9305105, "bike_id": "bb717f91f6bd5074703e76bf0cbd6bac", "fusion_lon": 0.0}, {"rental_uris": {"ios": "https://dc.lft.to/lastmile_qr_scan", "android": "https://dc.lft.to/lastmile_qr_scan"}, "type": "electric_scooter", "name": "e032ce2d540cab123c0e6310ef691a78", "is_reserved": 0, "lon": -77.04167816666667, "is_disabled": 0, "fusion_lat": 0.0, "lat": 38.918518666666664, "bike_id": "e032ce2d540cab123c0e6310ef691a78", "fusion_lon": 0.0}, {"rental_uris": {"ios": "https://dc.lft.to/lastmile_qr_scan", "android": "https://dc.lft.to/lastmile_qr_scan"}, "type": "electric_scooter", "name": "662010ec91fb036a7d30c42e1057320e", "is_reserved": 0, "lon": -77.01643516666667, "is_disabled": 0, "fusion_lat": 0.0, "lat": 38.903760166666665, "bike_id": "662010ec91fb036a7d30c42e1057320e", "fusion_lon": 0.0}, {"rental_uris": {"ios": "https://dc.lft.to/lastmile_qr_scan", "android": "https://dc.lft.to/lastmile_qr_scan"}, "type": "electric_bike", "name": "0057a1c4d9c0301d6534e2a2d3c60080", "is_reserved": 0, "lon": -77.02456316666667, "is_disabled": 0, "fusion_lat": 0.0, "lat": 38.932861833333334, "bike_id": "0057a1c4d9c0301d6534e2a2d3c60080", "fusion_lon": 0.0}, {"rental_uris": {"ios": "https://dc.lft.to/lastmile_qr_scan", "android": "https://dc.lft.to/lastmile_qr_scan"}, "type": "electric_scooter", "name": "07eef1fa9eb808900e4f27b2d297a8d4", "is_reserved": 0, "lon": -77.02653866666667, "is_disabled": 0, "fusion_lat": 0.0, "lat": 38.9309995, "bike_id": "07eef1fa9eb808900e4f27b2d297a8d4", "fusion_lon": 0.0}, {"rental_uris": {"ios": "https://dc.lft.to/lastmile_qr_scan", "android": "https://dc.lft.to/lastmile_qr_scan"}, "type": "electric_scooter", "name": "fdcf021dd7fa94b1fa6a7090891d314c", "is_reserved": 0, "lon": -77.03192366666667, "is_disabled": 0, "fusion_lat": 0.0, "lat": 38.92179566666667, "bike_id": "fdcf021dd7fa94b1fa6a7090891d314c", "fusion_lon": 0.0}, {"rental_uris": {"ios": "https://dc.lft.to/lastmile_qr_scan", "android": "https://dc.lft.to/lastmile_qr_scan"}, "type": "electric_scooter", "name": "52dbea6435863e5a1442d6f638cb56ff", "is_reserved": 0, "lon": -77.0494585, "is_disabled": 0, "fusion_lat": 0.0, "lat": 38.920207166666664, "bike_id": "52dbea6435863e5a1442d6f638cb56ff", "fusion_lon": 0.0}, {"rental_uris": {"ios": "https://dc.lft.to/lastmile_qr_scan", "android": "https://dc.lft.to/lastmile_qr_scan"}, "type": "electric_scooter", "name": "4cddf20ea9dc90e299ea028625c21f15", "is_reserved": 0, "lon": -77.02601366666667, "is_disabled": 0, "fusion_lat": 0.0, "lat": 38.898438666666664, "bike_id": "4cddf20ea9dc90e299ea028625c21f15", "fusion_lon": 0.0}, {"rental_uris": {"ios": "https://dc.lft.to/lastmile_qr_scan", "android": "https://dc.lft.to/lastmile_qr_scan"}, "type": "electric_bike", "name": "f23ac3d1d1d944e62785be0b8df03ff3", "is_reserved": 0, "lon": -77.23409233333334, "is_disabled": 0, "fusion_lat": 0.0, "lat": 38.875785, "bike_id": "f23ac3d1d1d944e62785be0b8df03ff3", "fusion_lon": 0.0}, {"rental_uris": {"ios": "https://dc.lft.to/lastmile_qr_scan", "android": "https://dc.lft.to/lastmile_qr_scan"}, "type": "electric_scooter", "name": "b250800ad07f7270f716bd65c78847f4", "is_reserved": 0, "lon": -77.068365, "is_disabled": 0, "fusion_lat": 0.0, "lat": 38.917245, "bike_id": "b250800ad07f7270f716bd65c78847f4", "fusion_lon": 0.0}, {"rental_uris": {"ios": "https://dc.lft.to/lastmile_qr_scan", "android": "https://dc.lft.to/lastmile_qr_scan"}, "type": "electric_scooter", "name": "c9b3437ce4c9a6635d828cce2b6c6756", "is_reserved": 0, "lon": -77.05301233333333, "is_disabled": 0, "fusion_lat": 0.0, "lat": 38.925509, "bike_id": "c9b3437ce4c9a6635d828cce2b6c6756", "fusion_lon": 0.0}, {"rental_uris": {"ios": "https://dc.lft.to/lastmile_qr_scan", "android": "https://dc.lft.to/lastmile_qr_scan"}, "type": "electric_scooter", "name": "c26df9bf3c294286d33a042f5dc608c4", "is_reserved": 0, "lon": -77.03101983333333, "is_disabled": 0, "fusion_lat": 0.0, "lat": 38.92473866666667, "bike_id": "c26df9bf3c294286d33a042f5dc608c4", "fusion_lon": 0.0}, {"rental_uris": {"ios": "https://dc.lft.to/lastmile_qr_scan", "android": "https://dc.lft.to/lastmile_qr_scan"}, "type": "electric_scooter", "name": "a82cd7e3d997a5cad7769ec4cd0bad38", "is_reserved": 0, "lon": -77.024943, "is_disabled": 0, "fusion_lat": 0.0, "lat": 38.9031445, "bike_id": "a82cd7e3d997a5cad7769ec4cd0bad38", "fusion_lon": 0.0}, {"rental_uris": {"ios": "https://dc.lft.to/lastmile_qr_scan", "android": "https://dc.lft.to/lastmile_qr_scan"}, "type": "electric_scooter", "name": "5bcf798ee32d0bbfb4052f19df7cd4f0", "is_reserved": 0, "lon": -77.0386255, "is_disabled": 0, "fusion_lat": 0.0, "lat": 38.91546133333333, "bike_id": "5bcf798ee32d0bbfb4052f19df7cd4f0", "fusion_lon": 0.0}, {"rental_uris": {"ios": "https://dc.lft.to/lastmile_qr_scan", "android": "https://dc.lft.to/lastmile_qr_scan"}, "type": "electric_scooter", "name": "89ea84e6d722e4d4f0819710c26abd88", "is_reserved": 0, "lon": -77.03638566666666, "is_disabled": 0, "fusion_lat": 0.0, "lat": 38.91613683333333, "bike_id": "89ea84e6d722e4d4f0819710c26abd88", "fusion_lon": 0.0}, {"rental_uris": {"ios": "https://dc.lft.to/lastmile_qr_scan", "android": "https://dc.lft.to/lastmile_qr_scan"}, "type": "electric_scooter", "name": "53460277ba43fca4bd43f27cce34e170", "is_reserved": 0, "lon": -77.07348183333333, "is_disabled": 0, "fusion_lat": 0.0, "lat": 38.943267, "bike_id": "53460277ba43fca4bd43f27cce34e170", "fusion_lon": 0.0}, {"rental_uris": {"ios": "https://dc.lft.to/lastmile_qr_scan", "android": "https://dc.lft.to/lastmile_qr_scan"}, "type": "electric_scooter", "name": "9dfdf645765bb48381dd740cdea2a6be", "is_reserved": 0, "lon": -77.073412, "is_disabled": 0, "fusion_lat": 0.0, "lat": 38.96093416666667, "bike_id": "9dfdf645765bb48381dd740cdea2a6be", "fusion_lon": 0.0}, {"rental_uris": {"ios": "https://dc.lft.to/lastmile_qr_scan", "android": "https://dc.lft.to/lastmile_qr_scan"}, "type": "electric_scooter", "name": "e56b494716fd83551f3200650755ea67", "is_reserved": 0, "lon": -76.97630266666667, "is_disabled": 0, "fusion_lat": 0.0, "lat": 38.90567083333333, "bike_id": "e56b494716fd83551f3200650755ea67", "fusion_lon": 0.0}, {"rental_uris": {"ios": "https://dc.lft.to/lastmile_qr_scan", "android": "https://dc.lft.to/lastmile_qr_scan"}, "type": "electric_scooter", "name": "a291c80ee4824c3f8bea7fb85d993342", "is_reserved": 0, "lon": -77.01408733333334, "is_disabled": 0, "fusion_lat": 0.0, "lat": 38.9143445, "bike_id": "a291c80ee4824c3f8bea7fb85d993342", "fusion_lon": 0.0}, {"rental_uris": {"ios": "https://dc.lft.to/lastmile_qr_scan", "android": "https://dc.lft.to/lastmile_qr_scan"}, "type": "electric_scooter", "name": "3063eee3f18d5bd30a2be97192597212", "is_reserved": 0, "lon": -77.02093516666666, "is_disabled": 0, "fusion_lat": 0.0, "lat": 38.92915966666666, "bike_id": "3063eee3f18d5bd30a2be97192597212", "fusion_lon": 0.0}, {"rental_uris": {"ios": "https://dc.lft.to/lastmile_qr_scan", "android": "https://dc.lft.to/lastmile_qr_scan"}, "type": "electric_scooter", "name": "0159375e85a0d037c23b06f90460f9b3", "is_reserved": 0, "lon": -77.061119, "is_disabled": 0, "fusion_lat": 0.0, "lat": 38.912814, "bike_id": "0159375e85a0d037c23b06f90460f9b3", "fusion_lon": 0.0}, {"rental_uris": {"ios": "https://dc.lft.to/lastmile_qr_scan", "android": "https://dc.lft.to/lastmile_qr_scan"}, "type": "electric_scooter", "name": "0f459f29224e80a5f11015b59dce5fc8", "is_reserved": 0, "lon": -77.027243, "is_disabled": 0, "fusion_lat": 0.0, "lat": 38.91062316666667, "bike_id": "0f459f29224e80a5f11015b59dce5fc8", "fusion_lon": 0.0}, {"rental_uris": {"ios": "https://dc.lft.to/lastmile_qr_scan", "android": "https://dc.lft.to/lastmile_qr_scan"}, "type": "electric_scooter", "name": "6ef24336eb379ed8d8f5ef4ca7e256bd", "is_reserved": 0, "lon": -77.00296216666666, "is_disabled": 0, "fusion_lat": 0.0, "lat": 38.876576666666665, "bike_id": "6ef24336eb379ed8d8f5ef4ca7e256bd", "fusion_lon": 0.0}, {"rental_uris": {"ios": "https://dc.lft.to/lastmile_qr_scan", "android": "https://dc.lft.to/lastmile_qr_scan"}, "type": "electric_scooter", "name": "8df1e2a14dcb3fac477b51406129a3f5", "is_reserved": 0, "lon": -77.06121916666666, "is_disabled": 0, "fusion_lat": 0.0, "lat": 38.90381816666667, "bike_id": "8df1e2a14dcb3fac477b51406129a3f5", "fusion_lon": 0.0}, {"rental_uris": {"ios": "https://dc.lft.to/lastmile_qr_scan", "android": "https://dc.lft.to/lastmile_qr_scan"}, "type": "electric_scooter", "name": "dad2def3f9945b400af825fb297a90f2", "is_reserved": 0, "lon": -77.00255633333333, "is_disabled": 0, "fusion_lat": 0.0, "lat": 38.90257583333333, "bike_id": "dad2def3f9945b400af825fb297a90f2", "fusion_lon": 0.0}, {"rental_uris": {"ios": "https://dc.lft.to/lastmile_qr_scan", "android": "https://dc.lft.to/lastmile_qr_scan"}, "type": "electric_scooter", "name": "4cfb697f441cebf199e3803c177c7ad3", "is_reserved": 0, "lon": -77.003056, "is_disabled": 0, "fusion_lat": 0.0, "lat": 38.87705966666667, "bike_id": "4cfb697f441cebf199e3803c177c7ad3", "fusion_lon": 0.0}, {"rental_uris": {"ios": "https://dc.lft.to/lastmile_qr_scan", "android": "https://dc.lft.to/lastmile_qr_scan"}, "type": "electric_scooter", "name": "139061f7d519d13d065386716c6008c5", "is_reserved": 0, "lon": -77.01241883333333, "is_disabled": 0, "fusion_lat": 0.0, "lat": 38.88106483333333, "bike_id": "139061f7d519d13d065386716c6008c5", "fusion_lon": 0.0}, {"rental_uris": {"ios": "https://dc.lft.to/lastmile_qr_scan", "android": "https://dc.lft.to/lastmile_qr_scan"}, "type": "electric_scooter", "name": "2aa54af1ef091c448259557f08d8b9b8", "is_reserved": 0, "lon": -77.02970166666667, "is_disabled": 0, "fusion_lat": 0.0, "lat": 38.923143, "bike_id": "2aa54af1ef091c448259557f08d8b9b8", "fusion_lon": 0.0}, {"rental_uris": {"ios": "https://dc.lft.to/lastmile_qr_scan", "android": "https://dc.lft.to/lastmile_qr_scan"}, "type": "electric_scooter", "name": "add2c874fab0f61bd51e8c0cc6b3528d", "is_reserved": 0, "lon": -77.026835, "is_disabled": 0, "fusion_lat": 0.0, "lat": 38.89547783333333, "bike_id": "add2c874fab0f61bd51e8c0cc6b3528d", "fusion_lon": 0.0}, {"rental_uris": {"ios": "https://dc.lft.to/lastmile_qr_scan", "android": "https://dc.lft.to/lastmile_qr_scan"}, "type": "electric_scooter", "name": "cf809cd31ff97255523dadaaa463ab3e", "is_reserved": 0, "lon": -77.04465, "is_disabled": 0, "fusion_lat": 0.0, "lat": 38.924693833333336, "bike_id": "cf809cd31ff97255523dadaaa463ab3e", "fusion_lon": 0.0}, {"rental_uris": {"ios": "https://dc.lft.to/lastmile_qr_scan", "android": "https://dc.lft.to/lastmile_qr_scan"}, "type": "electric_scooter", "name": "ec36a85f87d4acf5d9f1f45479846646", "is_reserved": 0, "lon": -77.04841716666667, "is_disabled": 0, "fusion_lat": 0.0, "lat": 38.909555, "bike_id": "ec36a85f87d4acf5d9f1f45479846646", "fusion_lon": 0.0}, {"rental_uris": {"ios": "https://dc.lft.to/lastmile_qr_scan", "android": "https://dc.lft.to/lastmile_qr_scan"}, "type": "electric_scooter", "name": "cc0e1ccddde9556186dec6ebdce7174e", "is_reserved": 0, "lon": -77.031815, "is_disabled": 0, "fusion_lat": 0.0, "lat": 38.8945245, "bike_id": "cc0e1ccddde9556186dec6ebdce7174e", "fusion_lon": 0.0}, {"rental_uris": {"ios": "https://dc.lft.to/lastmile_qr_scan", "android": "https://dc.lft.to/lastmile_qr_scan"}, "type": "electric_bike", "name": "f5239f7bb459e3f63d6ba1de65008d2e", "is_reserved": 0, "lon": -76.98769516666667, "is_disabled": 0, "fusion_lat": 0.0, "lat": 38.8576755, "bike_id": "f5239f7bb459e3f63d6ba1de65008d2e", "fusion_lon": 0.0}, {"rental_uris": {"ios": "https://dc.lft.to/lastmile_qr_scan", "android": "https://dc.lft.to/lastmile_qr_scan"}, "type": "electric_scooter", "name": "4941ad76a884bffe1f26196cab31f3af", "is_reserved": 0, "lon": -77.03434783333333, "is_disabled": 0, "fusion_lat": 0.0, "lat": 38.908394, "bike_id": "4941ad76a884bffe1f26196cab31f3af", "fusion_lon": 0.0}, {"rental_uris": {"ios": "https://dc.lft.to/lastmile_qr_scan", "android": "https://dc.lft.to/lastmile_qr_scan"}, "type": "electric_scooter", "name": "e3c02e7fd0f5fb62a6d46731a3de0a80", "is_reserved": 0, "lon": -77.048839, "is_disabled": 0, "fusion_lat": 0.0, "lat": 38.90649066666667, "bike_id": "e3c02e7fd0f5fb62a6d46731a3de0a80", "fusion_lon": 0.0}, {"rental_uris": {"ios": "https://dc.lft.to/lastmile_qr_scan", "android": "https://dc.lft.to/lastmile_qr_scan"}, "type": "electric_scooter", "name": "c9e68645146d67befb7e6d7714623bcd", "is_reserved": 0, "lon": -77.04677, "is_disabled": 0, "fusion_lat": 0.0, "lat": 38.892281, "bike_id": "c9e68645146d67befb7e6d7714623bcd", "fusion_lon": 0.0}, {"rental_uris": {"ios": "https://dc.lft.to/lastmile_qr_scan", "android": "https://dc.lft.to/lastmile_qr_scan"}, "type": "electric_scooter", "name": "6f0b5ea5fe6e22ac9d2980b6ae2d5313", "is_reserved": 0, "lon": -77.023665, "is_disabled": 0, "fusion_lat": 0.0, "lat": 38.90211016666667, "bike_id": "6f0b5ea5fe6e22ac9d2980b6ae2d5313", "fusion_lon": 0.0}, {"rental_uris": {"ios": "https://dc.lft.to/lastmile_qr_scan", "android": "https://dc.lft.to/lastmile_qr_scan"}, "type": "electric_scooter", "name": "22296464ef3efd2d4b7ace28f9dd395a", "is_reserved": 0, "lon": -77.03727933333333, "is_disabled": 0, "fusion_lat": 0.0, "lat": 38.926445333333334, "bike_id": "22296464ef3efd2d4b7ace28f9dd395a", "fusion_lon": 0.0}, {"rental_uris": {"ios": "https://dc.lft.to/lastmile_qr_scan", "android": "https://dc.lft.to/lastmile_qr_scan"}, "type": "electric_bike", "name": "0896f08f0850217c7e9170b963893ae9", "is_reserved": 0, "lon": -76.94529833333333, "is_disabled": 0, "fusion_lat": 0.0, "lat": 38.867536333333334, "bike_id": "0896f08f0850217c7e9170b963893ae9", "fusion_lon": 0.0}, {"rental_uris": {"ios": "https://dc.lft.to/lastmile_qr_scan", "android": "https://dc.lft.to/lastmile_qr_scan"}, "type": "electric_scooter", "name": "67b970fba1ed2582d12795f9e861a1e3", "is_reserved": 0, "lon": -77.0222485, "is_disabled": 0, "fusion_lat": 0.0, "lat": 38.893552666666665, "bike_id": "67b970fba1ed2582d12795f9e861a1e3", "fusion_lon": 0.0}, {"rental_uris": {"ios": "https://dc.lft.to/lastmile_qr_scan", "android": "https://dc.lft.to/lastmile_qr_scan"}, "type": "electric_bike", "name": "b9214ad14fbefab178b22eb357e7a7b4", "is_reserved": 0, "lon": -77.01739666666667, "is_disabled": 0, "fusion_lat": 0.0, "lat": 38.94604483333333, "bike_id": "b9214ad14fbefab178b22eb357e7a7b4", "fusion_lon": 0.0}, {"rental_uris": {"ios": "https://dc.lft.to/lastmile_qr_scan", "android": "https://dc.lft.to/lastmile_qr_scan"}, "type": "electric_scooter", "name": "528723e8b0651d02fc72182d85e452d2", "is_reserved": 0, "lon": -77.06090666666667, "is_disabled": 0, "fusion_lat": 0.0, "lat": 38.93993283333333, "bike_id": "528723e8b0651d02fc72182d85e452d2", "fusion_lon": 0.0}, {"rental_uris": {"ios": "https://dc.lft.to/lastmile_qr_scan", "android": "https://dc.lft.to/lastmile_qr_scan"}, "type": "electric_scooter", "name": "7458cc7ee3c409ac3620007a39761b9b", "is_reserved": 0, "lon": -77.06846533333334, "is_disabled": 0, "fusion_lat": 0.0, "lat": 38.904083, "bike_id": "7458cc7ee3c409ac3620007a39761b9b", "fusion_lon": 0.0}, {"rental_uris": {"ios": "https://dc.lft.to/lastmile_qr_scan", "android": "https://dc.lft.to/lastmile_qr_scan"}, "type": "electric_scooter", "name": "e01c22272a0aa57c44298e8616dc0b96", "is_reserved": 0, "lon": -77.04835816666667, "is_disabled": 0, "fusion_lat": 0.0, "lat": 38.91490066666667, "bike_id": "e01c22272a0aa57c44298e8616dc0b96", "fusion_lon": 0.0}, {"rental_uris": {"ios": "https://dc.lft.to/lastmile_qr_scan", "android": "https://dc.lft.to/lastmile_qr_scan"}, "type": "electric_scooter", "name": "5bef21cb2e56b18032031cb43ed34964", "is_reserved": 0, "lon": -77.0152035, "is_disabled": 0, "fusion_lat": 0.0, "lat": 38.885012333333336, "bike_id": "5bef21cb2e56b18032031cb43ed34964", "fusion_lon": 0.0}, {"rental_uris": {"ios": "https://dc.lft.to/lastmile_qr_scan", "android": "https://dc.lft.to/lastmile_qr_scan"}, "type": "electric_scooter", "name": "32073a1339898d20a4a8cf7769168c54", "is_reserved": 0, "lon": -76.97329666666667, "is_disabled": 0, "fusion_lat": 0.0, "lat": 38.90411533333334, "bike_id": "32073a1339898d20a4a8cf7769168c54", "fusion_lon": 0.0}, {"rental_uris": {"ios": "https://dc.lft.to/lastmile_qr_scan", "android": "https://dc.lft.to/lastmile_qr_scan"}, "type": "electric_scooter", "name": "93105fa496bbe572f8bdb6fd31c09f85", "is_reserved": 0, "lon": -77.03977933333333, "is_disabled": 0, "fusion_lat": 0.0, "lat": 38.931481, "bike_id": "93105fa496bbe572f8bdb6fd31c09f85", "fusion_lon": 0.0}, {"rental_uris": {"ios": "https://dc.lft.to/lastmile_qr_scan", "android": "https://dc.lft.to/lastmile_qr_scan"}, "type": "electric_scooter", "name": "8e8a4b805003cdbb39f5e9103c61cf0a", "is_reserved": 0, "lon": -77.01150833333334, "is_disabled": 0, "fusion_lat": 0.0, "lat": 38.909649333333334, "bike_id": "8e8a4b805003cdbb39f5e9103c61cf0a", "fusion_lon": 0.0}, {"rental_uris": {"ios": "https://dc.lft.to/lastmile_qr_scan", "android": "https://dc.lft.to/lastmile_qr_scan"}, "type": "electric_bike", "name": "0edb73c786a2e9d72c7eecc64875dd5b", "is_reserved": 0, "lon": -77.0694865, "is_disabled": 0, "fusion_lat": 0.0, "lat": 38.83628983333333, "bike_id": "0edb73c786a2e9d72c7eecc64875dd5b", "fusion_lon": 0.0}, {"rental_uris": {"ios": "https://dc.lft.to/lastmile_qr_scan", "android": "https://dc.lft.to/lastmile_qr_scan"}, "type": "electric_bike", "name": "1c2e92ad791b8123ee56c23d9fc6394b", "is_reserved": 0, "lon": -76.99353416666666, "is_disabled": 0, "fusion_lat": 0.0, "lat": 38.84506533333333, "bike_id": "1c2e92ad791b8123ee56c23d9fc6394b", "fusion_lon": 0.0}, {"rental_uris": {"ios": "https://dc.lft.to/lastmile_qr_scan", "android": "https://dc.lft.to/lastmile_qr_scan"}, "type": "electric_scooter", "name": "dd610c5cd1396f1001e0d9c08b4e53d0", "is_reserved": 0, "lon": -77.0492495, "is_disabled": 0, "fusion_lat": 0.0, "lat": 38.90094783333333, "bike_id": "dd610c5cd1396f1001e0d9c08b4e53d0", "fusion_lon": 0.0}, {"rental_uris": {"ios": "https://dc.lft.to/lastmile_qr_scan", "android": "https://dc.lft.to/lastmile_qr_scan"}, "type": "electric_scooter", "name": "99544156414126beb25e1f13cae7ddaa", "is_reserved": 0, "lon": -76.9959125, "is_disabled": 0, "fusion_lat": 0.0, "lat": 38.909443, "bike_id": "99544156414126beb25e1f13cae7ddaa", "fusion_lon": 0.0}, {"rental_uris": {"ios": "https://dc.lft.to/lastmile_qr_scan", "android": "https://dc.lft.to/lastmile_qr_scan"}, "type": "electric_scooter", "name": "3c9befdc6d2517f4f86ed7f4172a913b", "is_reserved": 0, "lon": -77.03559416666667, "is_disabled": 0, "fusion_lat": 0.0, "lat": 38.927398, "bike_id": "3c9befdc6d2517f4f86ed7f4172a913b", "fusion_lon": 0.0}, {"rental_uris": {"ios": "https://dc.lft.to/lastmile_qr_scan", "android": "https://dc.lft.to/lastmile_qr_scan"}, "type": "electric_scooter", "name": "f4e88470e3355a6726e5c10f67b91253", "is_reserved": 0, "lon": -77.0207995, "is_disabled": 0, "fusion_lat": 0.0, "lat": 38.912515, "bike_id": "f4e88470e3355a6726e5c10f67b91253", "fusion_lon": 0.0}, {"rental_uris": {"ios": "https://dc.lft.to/lastmile_qr_scan", "android": "https://dc.lft.to/lastmile_qr_scan"}, "type": "electric_scooter", "name": "e6f01438c57b63ab87c3855121793bcd", "is_reserved": 0, "lon": -76.985427, "is_disabled": 0, "fusion_lat": 0.0, "lat": 38.87970933333333, "bike_id": "e6f01438c57b63ab87c3855121793bcd", "fusion_lon": 0.0}, {"rental_uris": {"ios": "https://dc.lft.to/lastmile_qr_scan", "android": "https://dc.lft.to/lastmile_qr_scan"}, "type": "electric_scooter", "name": "e51d33588a432022db20651f32ba0a19", "is_reserved": 0, "lon": -77.0189405, "is_disabled": 0, "fusion_lat": 0.0, "lat": 38.874745, "bike_id": "e51d33588a432022db20651f32ba0a19", "fusion_lon": 0.0}, {"rental_uris": {"ios": "https://dc.lft.to/lastmile_qr_scan", "android": "https://dc.lft.to/lastmile_qr_scan"}, "type": "electric_scooter", "name": "51e3da5317d1bb4c9fb80443e829302a", "is_reserved": 0, "lon": -77.04000266666667, "is_disabled": 0, "fusion_lat": 0.0, "lat": 38.93424566666667, "bike_id": "51e3da5317d1bb4c9fb80443e829302a", "fusion_lon": 0.0}, {"rental_uris": {"ios": "https://dc.lft.to/lastmile_qr_scan", "android": "https://dc.lft.to/lastmile_qr_scan"}, "type": "electric_scooter", "name": "67dfec5547bd2c3b3926e5b87ce8df54", "is_reserved": 0, "lon": -77.02379166666667, "is_disabled": 0, "fusion_lat": 0.0, "lat": 38.9031965, "bike_id": "67dfec5547bd2c3b3926e5b87ce8df54", "fusion_lon": 0.0}, {"rental_uris": {"ios": "https://dc.lft.to/lastmile_qr_scan", "android": "https://dc.lft.to/lastmile_qr_scan"}, "type": "electric_bike", "name": "a902f87f07a839ff0f3360f77ee79fe0", "is_reserved": 0, "lon": -77.128875, "is_disabled": 0, "fusion_lat": 0.0, "lat": 38.905989, "bike_id": "a902f87f07a839ff0f3360f77ee79fe0", "fusion_lon": 0.0}, {"rental_uris": {"ios": "https://dc.lft.to/lastmile_qr_scan", "android": "https://dc.lft.to/lastmile_qr_scan"}, "type": "electric_scooter", "name": "b46025e6cd3568a3be69b347e5a229a8", "is_reserved": 0, "lon": -77.06721333333333, "is_disabled": 0, "fusion_lat": 0.0, "lat": 38.914567166666664, "bike_id": "b46025e6cd3568a3be69b347e5a229a8", "fusion_lon": 0.0}, {"rental_uris": {"ios": "https://dc.lft.to/lastmile_qr_scan", "android": "https://dc.lft.to/lastmile_qr_scan"}, "type": "electric_scooter", "name": "f13041bf4f634a9b1cc4a44e889e5bb2", "is_reserved": 0, "lon": -77.05318933333334, "is_disabled": 0, "fusion_lat": 0.0, "lat": 38.940951, "bike_id": "f13041bf4f634a9b1cc4a44e889e5bb2", "fusion_lon": 0.0}, {"rental_uris": {"ios": "https://dc.lft.to/lastmile_qr_scan", "android": "https://dc.lft.to/lastmile_qr_scan"}, "type": "electric_bike", "name": "4306bd767f95ade9d864ea30e6d9a466", "is_reserved": 0, "lon": -76.96889316666666, "is_disabled": 0, "fusion_lat": 0.0, "lat": 38.86983216666667, "bike_id": "4306bd767f95ade9d864ea30e6d9a466", "fusion_lon": 0.0}, {"rental_uris": {"ios": "https://dc.lft.to/lastmile_qr_scan", "android": "https://dc.lft.to/lastmile_qr_scan"}, "type": "electric_scooter", "name": "984a331045f6a732c1197a5fceef6cad", "is_reserved": 0, "lon": -76.99142983333333, "is_disabled": 0, "fusion_lat": 0.0, "lat": 38.873363833333336, "bike_id": "984a331045f6a732c1197a5fceef6cad", "fusion_lon": 0.0}, {"rental_uris": {"ios": "https://dc.lft.to/lastmile_qr_scan", "android": "https://dc.lft.to/lastmile_qr_scan"}, "type": "electric_scooter", "name": "cfb9e3c4bd17d1adbd091740faf7139c", "is_reserved": 0, "lon": -77.06384933333334, "is_disabled": 0, "fusion_lat": 0.0, "lat": 38.90855766666667, "bike_id": "cfb9e3c4bd17d1adbd091740faf7139c", "fusion_lon": 0.0}, {"rental_uris": {"ios": "https://dc.lft.to/lastmile_qr_scan", "android": "https://dc.lft.to/lastmile_qr_scan"}, "type": "electric_scooter", "name": "29b9dea4e2d32cb2af9de84585d46661", "is_reserved": 0, "lon": -77.02462566666667, "is_disabled": 0, "fusion_lat": 0.0, "lat": 38.903312666666665, "bike_id": "29b9dea4e2d32cb2af9de84585d46661", "fusion_lon": 0.0}, {"rental_uris": {"ios": "https://dc.lft.to/lastmile_qr_scan", "android": "https://dc.lft.to/lastmile_qr_scan"}, "type": "electric_scooter", "name": "e66065ba1001573d0234c55d0e373ef5", "is_reserved": 0, "lon": -77.02176533333333, "is_disabled": 0, "fusion_lat": 0.0, "lat": 38.92829733333333, "bike_id": "e66065ba1001573d0234c55d0e373ef5", "fusion_lon": 0.0}, {"rental_uris": {"ios": "https://dc.lft.to/lastmile_qr_scan", "android": "https://dc.lft.to/lastmile_qr_scan"}, "type": "electric_scooter", "name": "bfb377f7a32e3a0353fb0439db4647fc", "is_reserved": 0, "lon": -77.03272133333333, "is_disabled": 0, "fusion_lat": 0.0, "lat": 38.904590166666665, "bike_id": "bfb377f7a32e3a0353fb0439db4647fc", "fusion_lon": 0.0}, {"rental_uris": {"ios": "https://dc.lft.to/lastmile_qr_scan", "android": "https://dc.lft.to/lastmile_qr_scan"}, "type": "electric_scooter", "name": "97af08a48d81faff5a48fdaee1db6d23", "is_reserved": 0, "lon": -77.014527, "is_disabled": 0, "fusion_lat": 0.0, "lat": 38.91777483333333, "bike_id": "97af08a48d81faff5a48fdaee1db6d23", "fusion_lon": 0.0}, {"rental_uris": {"ios": "https://dc.lft.to/lastmile_qr_scan", "android": "https://dc.lft.to/lastmile_qr_scan"}, "type": "electric_scooter", "name": "1caf74d3fbd8ac772c5ca1a26031253d", "is_reserved": 0, "lon": -77.02349783333334, "is_disabled": 0, "fusion_lat": 0.0, "lat": 38.941932333333334, "bike_id": "1caf74d3fbd8ac772c5ca1a26031253d", "fusion_lon": 0.0}, {"rental_uris": {"ios": "https://dc.lft.to/lastmile_qr_scan", "android": "https://dc.lft.to/lastmile_qr_scan"}, "type": "electric_scooter", "name": "786e4050ede82d9327fdaa340d5a3fe2", "is_reserved": 0, "lon": -77.0057655, "is_disabled": 0, "fusion_lat": 0.0, "lat": 38.9067025, "bike_id": "786e4050ede82d9327fdaa340d5a3fe2", "fusion_lon": 0.0}, {"rental_uris": {"ios": "https://dc.lft.to/lastmile_qr_scan", "android": "https://dc.lft.to/lastmile_qr_scan"}, "type": "electric_scooter", "name": "7e4c9c19ca57793dccbfa7754495f443", "is_reserved": 0, "lon": -76.92892216666667, "is_disabled": 0, "fusion_lat": 0.0, "lat": 38.87941583333333, "bike_id": "7e4c9c19ca57793dccbfa7754495f443", "fusion_lon": 0.0}, {"rental_uris": {"ios": "https://dc.lft.to/lastmile_qr_scan", "android": "https://dc.lft.to/lastmile_qr_scan"}, "type": "electric_scooter", "name": "c4ebe8f2df27b1a8b0fe2f3681049a1c", "is_reserved": 0, "lon": -77.00046283333333, "is_disabled": 0, "fusion_lat": 0.0, "lat": 38.900155166666664, "bike_id": "c4ebe8f2df27b1a8b0fe2f3681049a1c", "fusion_lon": 0.0}, {"rental_uris": {"ios": "https://dc.lft.to/lastmile_qr_scan", "android": "https://dc.lft.to/lastmile_qr_scan"}, "type": "electric_scooter", "name": "3f680ede83bbf38c9ed1167ac9a44b11", "is_reserved": 0, "lon": -77.03664666666667, "is_disabled": 0, "fusion_lat": 0.0, "lat": 38.9235215, "bike_id": "3f680ede83bbf38c9ed1167ac9a44b11", "fusion_lon": 0.0}, {"rental_uris": {"ios": "https://dc.lft.to/lastmile_qr_scan", "android": "https://dc.lft.to/lastmile_qr_scan"}, "type": "electric_scooter", "name": "279e0213905d17e543f7680f6a69f6a3", "is_reserved": 0, "lon": -77.0402815, "is_disabled": 0, "fusion_lat": 0.0, "lat": 38.924516, "bike_id": "279e0213905d17e543f7680f6a69f6a3", "fusion_lon": 0.0}, {"rental_uris": {"ios": "https://dc.lft.to/lastmile_qr_scan", "android": "https://dc.lft.to/lastmile_qr_scan"}, "type": "electric_scooter", "name": "c9d4e6556f39f48af2d9997f17b63857", "is_reserved": 0, "lon": -76.98495733333333, "is_disabled": 0, "fusion_lat": 0.0, "lat": 38.903603333333336, "bike_id": "c9d4e6556f39f48af2d9997f17b63857", "fusion_lon": 0.0}, {"rental_uris": {"ios": "https://dc.lft.to/lastmile_qr_scan", "android": "https://dc.lft.to/lastmile_qr_scan"}, "type": "electric_scooter", "name": "92e8a4b3396892f5b9d6f0891c14cd3b", "is_reserved": 0, "lon": -77.01148416666666, "is_disabled": 0, "fusion_lat": 0.0, "lat": 38.90652816666667, "bike_id": "92e8a4b3396892f5b9d6f0891c14cd3b", "fusion_lon": 0.0}, {"rental_uris": {"ios": "https://dc.lft.to/lastmile_qr_scan", "android": "https://dc.lft.to/lastmile_qr_scan"}, "type": "electric_scooter", "name": "17a27f85a8fafa7fa2235a520a0d9926", "is_reserved": 0, "lon": -77.00958116666666, "is_disabled": 0, "fusion_lat": 0.0, "lat": 38.874594, "bike_id": "17a27f85a8fafa7fa2235a520a0d9926", "fusion_lon": 0.0}, {"rental_uris": {"ios": "https://dc.lft.to/lastmile_qr_scan", "android": "https://dc.lft.to/lastmile_qr_scan"}, "type": "electric_scooter", "name": "cce741d3c6c70ff1860bcb9af7c75cdd", "is_reserved": 0, "lon": -77.00508333333333, "is_disabled": 0, "fusion_lat": 0.0, "lat": 38.87845883333333, "bike_id": "cce741d3c6c70ff1860bcb9af7c75cdd", "fusion_lon": 0.0}, {"rental_uris": {"ios": "https://dc.lft.to/lastmile_qr_scan", "android": "https://dc.lft.to/lastmile_qr_scan"}, "type": "electric_bike", "name": "18146fbf8e5007fb116f2afb7143199f", "is_reserved": 0, "lon": -76.9333005, "is_disabled": 0, "fusion_lat": 0.0, "lat": 38.951526666666666, "bike_id": "18146fbf8e5007fb116f2afb7143199f", "fusion_lon": 0.0}, {"rental_uris": {"ios": "https://dc.lft.to/lastmile_qr_scan", "android": "https://dc.lft.to/lastmile_qr_scan"}, "type": "electric_bike", "name": "fa27fdde7e603eb4d919fb471b115fc1", "is_reserved": 0, "lon": -77.02389783333334, "is_disabled": 0, "fusion_lat": 0.0, "lat": 38.919640333333334, "bike_id": "fa27fdde7e603eb4d919fb471b115fc1", "fusion_lon": 0.0}, {"rental_uris": {"ios": "https://dc.lft.to/lastmile_qr_scan", "android": "https://dc.lft.to/lastmile_qr_scan"}, "type": "electric_scooter", "name": "edb04e6387177baaca7a9d3490d97419", "is_reserved": 0, "lon": -77.07890316666666, "is_disabled": 0, "fusion_lat": 0.0, "lat": 38.9315935, "bike_id": "edb04e6387177baaca7a9d3490d97419", "fusion_lon": 0.0}, {"rental_uris": {"ios": "https://dc.lft.to/lastmile_qr_scan", "android": "https://dc.lft.to/lastmile_qr_scan"}, "type": "electric_scooter", "name": "668e021aa6b47ff3d397d74c9ab01af1", "is_reserved": 0, "lon": -77.029813, "is_disabled": 0, "fusion_lat": 0.0, "lat": 38.92363533333334, "bike_id": "668e021aa6b47ff3d397d74c9ab01af1", "fusion_lon": 0.0}, {"rental_uris": {"ios": "https://dc.lft.to/lastmile_qr_scan", "android": "https://dc.lft.to/lastmile_qr_scan"}, "type": "electric_scooter", "name": "0927c7e57dbf543482e753a7f552a543", "is_reserved": 0, "lon": -77.01908716666667, "is_disabled": 0, "fusion_lat": 0.0, "lat": 38.90573466666667, "bike_id": "0927c7e57dbf543482e753a7f552a543", "fusion_lon": 0.0}, {"rental_uris": {"ios": "https://dc.lft.to/lastmile_qr_scan", "android": "https://dc.lft.to/lastmile_qr_scan"}, "type": "electric_scooter", "name": "06ea8a3324072b28d75f662cad64ba1a", "is_reserved": 0, "lon": -77.0574145, "is_disabled": 0, "fusion_lat": 0.0, "lat": 38.930339000000004, "bike_id": "06ea8a3324072b28d75f662cad64ba1a", "fusion_lon": 0.0}, {"rental_uris": {"ios": "https://dc.lft.to/lastmile_qr_scan", "android": "https://dc.lft.to/lastmile_qr_scan"}, "type": "electric_bike", "name": "05f3c855c21d62658d58f218d0707b54", "is_reserved": 0, "lon": -77.0962145, "is_disabled": 0, "fusion_lat": 0.0, "lat": 38.97435683333333, "bike_id": "05f3c855c21d62658d58f218d0707b54", "fusion_lon": 0.0}, {"rental_uris": {"ios": "https://dc.lft.to/lastmile_qr_scan", "android": "https://dc.lft.to/lastmile_qr_scan"}, "type": "electric_scooter", "name": "80cbf03ae4e578bb4193db5c3f67b0ed", "is_reserved": 0, "lon": -77.04020816666667, "is_disabled": 0, "fusion_lat": 0.0, "lat": 38.92248083333333, "bike_id": "80cbf03ae4e578bb4193db5c3f67b0ed", "fusion_lon": 0.0}, {"rental_uris": {"ios": "https://dc.lft.to/lastmile_qr_scan", "android": "https://dc.lft.to/lastmile_qr_scan"}, "type": "electric_scooter", "name": "e0860e264ca67c7f367b86d2a50eb5fd", "is_reserved": 0, "lon": -77.02693483333333, "is_disabled": 0, "fusion_lat": 0.0, "lat": 38.90840033333333, "bike_id": "e0860e264ca67c7f367b86d2a50eb5fd", "fusion_lon": 0.0}, {"rental_uris": {"ios": "https://dc.lft.to/lastmile_qr_scan", "android": "https://dc.lft.to/lastmile_qr_scan"}, "type": "electric_bike", "name": "9616af9c0eb19e4173c9ce64ecd2953a", "is_reserved": 0, "lon": -77.13231083333334, "is_disabled": 0, "fusion_lat": 0.0, "lat": 38.80447383333333, "bike_id": "9616af9c0eb19e4173c9ce64ecd2953a", "fusion_lon": 0.0}, {"rental_uris": {"ios": "https://dc.lft.to/lastmile_qr_scan", "android": "https://dc.lft.to/lastmile_qr_scan"}, "type": "electric_bike", "name": "de14351b0dd7a2a1c0d0691fbe170fa2", "is_reserved": 0, "lon": -76.9834895, "is_disabled": 0, "fusion_lat": 0.0, "lat": 38.86264766666667, "bike_id": "de14351b0dd7a2a1c0d0691fbe170fa2", "fusion_lon": 0.0}, {"rental_uris": {"ios": "https://dc.lft.to/lastmile_qr_scan", "android": "https://dc.lft.to/lastmile_qr_scan"}, "type": "electric_scooter", "name": "f69bac194ca9a019c498bcff663cfec2", "is_reserved": 0, "lon": -77.0188385, "is_disabled": 0, "fusion_lat": 0.0, "lat": 38.9023285, "bike_id": "f69bac194ca9a019c498bcff663cfec2", "fusion_lon": 0.0}, {"rental_uris": {"ios": "https://dc.lft.to/lastmile_qr_scan", "android": "https://dc.lft.to/lastmile_qr_scan"}, "type": "electric_scooter", "name": "fa252c632dfd5d9666157505e4d98274", "is_reserved": 0, "lon": -77.06684333333334, "is_disabled": 0, "fusion_lat": 0.0, "lat": 38.903940666666664, "bike_id": "fa252c632dfd5d9666157505e4d98274", "fusion_lon": 0.0}, {"rental_uris": {"ios": "https://dc.lft.to/lastmile_qr_scan", "android": "https://dc.lft.to/lastmile_qr_scan"}, "type": "electric_bike", "name": "037069f9c242a294856c18bd0c7bd277", "is_reserved": 0, "lon": -76.91807133333333, "is_disabled": 0, "fusion_lat": 0.0, "lat": 38.99998316666667, "bike_id": "037069f9c242a294856c18bd0c7bd277", "fusion_lon": 0.0}, {"rental_uris": {"ios": "https://dc.lft.to/lastmile_qr_scan", "android": "https://dc.lft.to/lastmile_qr_scan"}, "type": "electric_scooter", "name": "b06fedf94d4985d66f9b1f5413e53f7a", "is_reserved": 0, "lon": -77.026342, "is_disabled": 0, "fusion_lat": 0.0, "lat": 38.9247285, "bike_id": "b06fedf94d4985d66f9b1f5413e53f7a", "fusion_lon": 0.0}, {"rental_uris": {"ios": "https://dc.lft.to/lastmile_qr_scan", "android": "https://dc.lft.to/lastmile_qr_scan"}, "type": "electric_scooter", "name": "8fe3d9a32a9b7d424d73913f615c98b7", "is_reserved": 0, "lon": -77.0005265, "is_disabled": 0, "fusion_lat": 0.0, "lat": 38.879241, "bike_id": "8fe3d9a32a9b7d424d73913f615c98b7", "fusion_lon": 0.0}, {"rental_uris": {"ios": "https://dc.lft.to/lastmile_qr_scan", "android": "https://dc.lft.to/lastmile_qr_scan"}, "type": "electric_scooter", "name": "5609fd15999a927e485a2214e42c7d75", "is_reserved": 0, "lon": -77.02713283333334, "is_disabled": 0, "fusion_lat": 0.0, "lat": 38.917691, "bike_id": "5609fd15999a927e485a2214e42c7d75", "fusion_lon": 0.0}, {"rental_uris": {"ios": "https://dc.lft.to/lastmile_qr_scan", "android": "https://dc.lft.to/lastmile_qr_scan"}, "type": "electric_scooter", "name": "85a95eee90c87ffceb77754c3ff5063c", "is_reserved": 0, "lon": -77.04746183333333, "is_disabled": 0, "fusion_lat": 0.0, "lat": 38.917730666666664, "bike_id": "85a95eee90c87ffceb77754c3ff5063c", "fusion_lon": 0.0}, {"rental_uris": {"ios": "https://dc.lft.to/lastmile_qr_scan", "android": "https://dc.lft.to/lastmile_qr_scan"}, "type": "electric_scooter", "name": "6c3532b617e8d4313fc05cf8c8130fcb", "is_reserved": 0, "lon": -77.043645, "is_disabled": 0, "fusion_lat": 0.0, "lat": 38.92243283333333, "bike_id": "6c3532b617e8d4313fc05cf8c8130fcb", "fusion_lon": 0.0}, {"rental_uris": {"ios": "https://dc.lft.to/lastmile_qr_scan", "android": "https://dc.lft.to/lastmile_qr_scan"}, "type": "electric_scooter", "name": "4b5c5f1aec75fd2ab3b4c1ccafaa6529", "is_reserved": 0, "lon": -77.03175533333334, "is_disabled": 0, "fusion_lat": 0.0, "lat": 38.91331816666667, "bike_id": "4b5c5f1aec75fd2ab3b4c1ccafaa6529", "fusion_lon": 0.0}, {"rental_uris": {"ios": "https://dc.lft.to/lastmile_qr_scan", "android": "https://dc.lft.to/lastmile_qr_scan"}, "type": "electric_scooter", "name": "bd862a1cd9e53ab6a2a2d27c6d731fb4", "is_reserved": 0, "lon": -77.04165633333334, "is_disabled": 0, "fusion_lat": 0.0, "lat": 38.9118665, "bike_id": "bd862a1cd9e53ab6a2a2d27c6d731fb4", "fusion_lon": 0.0}, {"rental_uris": {"ios": "https://dc.lft.to/lastmile_qr_scan", "android": "https://dc.lft.to/lastmile_qr_scan"}, "type": "electric_scooter", "name": "eed8e10a77587dee34a5796d52413df7", "is_reserved": 0, "lon": -77.03852, "is_disabled": 0, "fusion_lat": 0.0, "lat": 38.926436833333334, "bike_id": "eed8e10a77587dee34a5796d52413df7", "fusion_lon": 0.0}, {"rental_uris": {"ios": "https://dc.lft.to/lastmile_qr_scan", "android": "https://dc.lft.to/lastmile_qr_scan"}, "type": "electric_scooter", "name": "27f265de3884f6cef058885f77ae2fe3", "is_reserved": 0, "lon": -77.0179845, "is_disabled": 0, "fusion_lat": 0.0, "lat": 38.88598433333333, "bike_id": "27f265de3884f6cef058885f77ae2fe3", "fusion_lon": 0.0}, {"rental_uris": {"ios": "https://dc.lft.to/lastmile_qr_scan", "android": "https://dc.lft.to/lastmile_qr_scan"}, "type": "electric_scooter", "name": "cc5b6b7187f9c34fc28652c2595b5416", "is_reserved": 0, "lon": -77.00625583333333, "is_disabled": 0, "fusion_lat": 0.0, "lat": 38.8717435, "bike_id": "cc5b6b7187f9c34fc28652c2595b5416", "fusion_lon": 0.0}, {"rental_uris": {"ios": "https://dc.lft.to/lastmile_qr_scan", "android": "https://dc.lft.to/lastmile_qr_scan"}, "type": "electric_scooter", "name": "ab8e95d1010aa123214b96b284885c3f", "is_reserved": 0, "lon": -77.07170116666667, "is_disabled": 0, "fusion_lat": 0.0, "lat": 38.907813166666664, "bike_id": "ab8e95d1010aa123214b96b284885c3f", "fusion_lon": 0.0}, {"rental_uris": {"ios": "https://dc.lft.to/lastmile_qr_scan", "android": "https://dc.lft.to/lastmile_qr_scan"}, "type": "electric_scooter", "name": "6df2cbcfc6749a67aec47c51b4561f14", "is_reserved": 0, "lon": -76.9996175, "is_disabled": 0, "fusion_lat": 0.0, "lat": 38.89198283333333, "bike_id": "6df2cbcfc6749a67aec47c51b4561f14", "fusion_lon": 0.0}, {"rental_uris": {"ios": "https://dc.lft.to/lastmile_qr_scan", "android": "https://dc.lft.to/lastmile_qr_scan"}, "type": "electric_scooter", "name": "2158aac64946b0adbdf4ab8e13a7b0e1", "is_reserved": 0, "lon": -77.01770416666666, "is_disabled": 0, "fusion_lat": 0.0, "lat": 38.920475833333334, "bike_id": "2158aac64946b0adbdf4ab8e13a7b0e1", "fusion_lon": 0.0}, {"rental_uris": {"ios": "https://dc.lft.to/lastmile_qr_scan", "android": "https://dc.lft.to/lastmile_qr_scan"}, "type": "electric_scooter", "name": "24bc1eb3948178d80c27e2ee8de6763d", "is_reserved": 0, "lon": -77.02582566666666, "is_disabled": 0, "fusion_lat": 0.0, "lat": 38.88720383333333, "bike_id": "24bc1eb3948178d80c27e2ee8de6763d", "fusion_lon": 0.0}, {"rental_uris": {"ios": "https://dc.lft.to/lastmile_qr_scan", "android": "https://dc.lft.to/lastmile_qr_scan"}, "type": "electric_scooter", "name": "e1da674b4edf3d652fad6aa14cadb566", "is_reserved": 0, "lon": -77.0412465, "is_disabled": 0, "fusion_lat": 0.0, "lat": 38.9288005, "bike_id": "e1da674b4edf3d652fad6aa14cadb566", "fusion_lon": 0.0}, {"rental_uris": {"ios": "https://dc.lft.to/lastmile_qr_scan", "android": "https://dc.lft.to/lastmile_qr_scan"}, "type": "electric_scooter", "name": "e3e32a233d2ab61a1aaef856d6df867e", "is_reserved": 0, "lon": -77.05510916666667, "is_disabled": 0, "fusion_lat": 0.0, "lat": 38.928384, "bike_id": "e3e32a233d2ab61a1aaef856d6df867e", "fusion_lon": 0.0}, {"rental_uris": {"ios": "https://dc.lft.to/lastmile_qr_scan", "android": "https://dc.lft.to/lastmile_qr_scan"}, "type": "electric_scooter", "name": "d1c096b8a52675f8cb05a03d7f1b698a", "is_reserved": 0, "lon": -77.03338333333333, "is_disabled": 0, "fusion_lat": 0.0, "lat": 38.9155415, "bike_id": "d1c096b8a52675f8cb05a03d7f1b698a", "fusion_lon": 0.0}, {"rental_uris": {"ios": "https://dc.lft.to/lastmile_qr_scan", "android": "https://dc.lft.to/lastmile_qr_scan"}, "type": "electric_scooter", "name": "b15431a1658bb146265ffd1031fe4fe2", "is_reserved": 0, "lon": -77.046985, "is_disabled": 0, "fusion_lat": 0.0, "lat": 38.920574333333334, "bike_id": "b15431a1658bb146265ffd1031fe4fe2", "fusion_lon": 0.0}, {"rental_uris": {"ios": "https://dc.lft.to/lastmile_qr_scan", "android": "https://dc.lft.to/lastmile_qr_scan"}, "type": "electric_scooter", "name": "a09602102e3e95a4ca25f2bafe1e4416", "is_reserved": 0, "lon": -77.02839283333333, "is_disabled": 0, "fusion_lat": 0.0, "lat": 38.932340833333335, "bike_id": "a09602102e3e95a4ca25f2bafe1e4416", "fusion_lon": 0.0}, {"rental_uris": {"ios": "https://dc.lft.to/lastmile_qr_scan", "android": "https://dc.lft.to/lastmile_qr_scan"}, "type": "electric_scooter", "name": "996b0ae2346d27b56d679c3d2bfbb38f", "is_reserved": 0, "lon": -77.07235466666667, "is_disabled": 0, "fusion_lat": 0.0, "lat": 38.934448, "bike_id": "996b0ae2346d27b56d679c3d2bfbb38f", "fusion_lon": 0.0}, {"rental_uris": {"ios": "https://dc.lft.to/lastmile_qr_scan", "android": "https://dc.lft.to/lastmile_qr_scan"}, "type": "electric_scooter", "name": "61ff509d1cec0659b69f0d9699719cf6", "is_reserved": 0, "lon": -77.0436745, "is_disabled": 0, "fusion_lat": 0.0, "lat": 38.89219416666667, "bike_id": "61ff509d1cec0659b69f0d9699719cf6", "fusion_lon": 0.0}, {"rental_uris": {"ios": "https://dc.lft.to/lastmile_qr_scan", "android": "https://dc.lft.to/lastmile_qr_scan"}, "type": "electric_scooter", "name": "3f003b2968a315b9489268e6072a0f54", "is_reserved": 0, "lon": -77.05063333333334, "is_disabled": 0, "fusion_lat": 0.0, "lat": 38.92359966666667, "bike_id": "3f003b2968a315b9489268e6072a0f54", "fusion_lon": 0.0}, {"rental_uris": {"ios": "https://dc.lft.to/lastmile_qr_scan", "android": "https://dc.lft.to/lastmile_qr_scan"}, "type": "electric_scooter", "name": "7055e0ec40a3413ef27e18645b57bf65", "is_reserved": 0, "lon": -77.00625333333333, "is_disabled": 0, "fusion_lat": 0.0, "lat": 38.871727, "bike_id": "7055e0ec40a3413ef27e18645b57bf65", "fusion_lon": 0.0}, {"rental_uris": {"ios": "https://dc.lft.to/lastmile_qr_scan", "android": "https://dc.lft.to/lastmile_qr_scan"}, "type": "electric_bike", "name": "999e8b3391eefc5c3c409922b19d4dfe", "is_reserved": 0, "lon": -77.07904316666666, "is_disabled": 0, "fusion_lat": 0.0, "lat": 38.839331333333334, "bike_id": "999e8b3391eefc5c3c409922b19d4dfe", "fusion_lon": 0.0}, {"rental_uris": {"ios": "https://dc.lft.to/lastmile_qr_scan", "android": "https://dc.lft.to/lastmile_qr_scan"}, "type": "electric_scooter", "name": "7abb792779e21030581ee56fd5131721", "is_reserved": 0, "lon": -77.06374283333334, "is_disabled": 0, "fusion_lat": 0.0, "lat": 38.935622333333335, "bike_id": "7abb792779e21030581ee56fd5131721", "fusion_lon": 0.0}, {"rental_uris": {"ios": "https://dc.lft.to/lastmile_qr_scan", "android": "https://dc.lft.to/lastmile_qr_scan"}, "type": "electric_scooter", "name": "57f848ec7ca85f0fc893d8284bcebb45", "is_reserved": 0, "lon": -76.97720433333333, "is_disabled": 0, "fusion_lat": 0.0, "lat": 38.888186833333336, "bike_id": "57f848ec7ca85f0fc893d8284bcebb45", "fusion_lon": 0.0}, {"rental_uris": {"ios": "https://dc.lft.to/lastmile_qr_scan", "android": "https://dc.lft.to/lastmile_qr_scan"}, "type": "electric_scooter", "name": "f7488729cd727796293d747ad61e00bf", "is_reserved": 0, "lon": -77.03477833333334, "is_disabled": 0, "fusion_lat": 0.0, "lat": 38.9055665, "bike_id": "f7488729cd727796293d747ad61e00bf", "fusion_lon": 0.0}, {"rental_uris": {"ios": "https://dc.lft.to/lastmile_qr_scan", "android": "https://dc.lft.to/lastmile_qr_scan"}, "type": "electric_scooter", "name": "eed824ea4389df364754fc9e1c00b933", "is_reserved": 0, "lon": -77.038066, "is_disabled": 0, "fusion_lat": 0.0, "lat": 38.93113566666667, "bike_id": "eed824ea4389df364754fc9e1c00b933", "fusion_lon": 0.0}, {"rental_uris": {"ios": "https://dc.lft.to/lastmile_qr_scan", "android": "https://dc.lft.to/lastmile_qr_scan"}, "type": "electric_bike", "name": "b22e2b01a129077784b393223497a117", "is_reserved": 0, "lon": -77.032517, "is_disabled": 0, "fusion_lat": 0.0, "lat": 38.93209433333333, "bike_id": "b22e2b01a129077784b393223497a117", "fusion_lon": 0.0}, {"rental_uris": {"ios": "https://dc.lft.to/lastmile_qr_scan", "android": "https://dc.lft.to/lastmile_qr_scan"}, "type": "electric_scooter", "name": "6ca506db77fa58ba3180294d6b1692cb", "is_reserved": 0, "lon": -77.033515, "is_disabled": 0, "fusion_lat": 0.0, "lat": 38.9010185, "bike_id": "6ca506db77fa58ba3180294d6b1692cb", "fusion_lon": 0.0}, {"rental_uris": {"ios": "https://dc.lft.to/lastmile_qr_scan", "android": "https://dc.lft.to/lastmile_qr_scan"}, "type": "electric_scooter", "name": "551e2c93ae9466c62ae8a8b906bb2db3", "is_reserved": 0, "lon": -77.012845, "is_disabled": 0, "fusion_lat": 0.0, "lat": 38.9102855, "bike_id": "551e2c93ae9466c62ae8a8b906bb2db3", "fusion_lon": 0.0}, {"rental_uris": {"ios": "https://dc.lft.to/lastmile_qr_scan", "android": "https://dc.lft.to/lastmile_qr_scan"}, "type": "electric_scooter", "name": "036eef6debee7bf1c81bca2d81f44c5a", "is_reserved": 0, "lon": -77.02413866666667, "is_disabled": 0, "fusion_lat": 0.0, "lat": 38.90426583333333, "bike_id": "036eef6debee7bf1c81bca2d81f44c5a", "fusion_lon": 0.0}, {"rental_uris": {"ios": "https://dc.lft.to/lastmile_qr_scan", "android": "https://dc.lft.to/lastmile_qr_scan"}, "type": "electric_bike", "name": "1e65db431b4f417e398703870570ca65", "is_reserved": 0, "lon": -76.95250683333333, "is_disabled": 0, "fusion_lat": 0.0, "lat": 38.9069545, "bike_id": "1e65db431b4f417e398703870570ca65", "fusion_lon": 0.0}, {"rental_uris": {"ios": "https://dc.lft.to/lastmile_qr_scan", "android": "https://dc.lft.to/lastmile_qr_scan"}, "type": "electric_scooter", "name": "36c3617c9a16bae23e3821b904fb7acf", "is_reserved": 0, "lon": -77.03338366666667, "is_disabled": 0, "fusion_lat": 0.0, "lat": 38.9003165, "bike_id": "36c3617c9a16bae23e3821b904fb7acf", "fusion_lon": 0.0}, {"rental_uris": {"ios": "https://dc.lft.to/lastmile_qr_scan", "android": "https://dc.lft.to/lastmile_qr_scan"}, "type": "electric_scooter", "name": "65e9236229a3f3690d69028fcca801f1", "is_reserved": 0, "lon": -77.03491716666667, "is_disabled": 0, "fusion_lat": 0.0, "lat": 38.90682733333333, "bike_id": "65e9236229a3f3690d69028fcca801f1", "fusion_lon": 0.0}, {"rental_uris": {"ios": "https://dc.lft.to/lastmile_qr_scan", "android": "https://dc.lft.to/lastmile_qr_scan"}, "type": "electric_scooter", "name": "5f80f51469330200d795a2b703d0128b", "is_reserved": 0, "lon": -77.0358145, "is_disabled": 0, "fusion_lat": 0.0, "lat": 38.927820833333335, "bike_id": "5f80f51469330200d795a2b703d0128b", "fusion_lon": 0.0}, {"rental_uris": {"ios": "https://dc.lft.to/lastmile_qr_scan", "android": "https://dc.lft.to/lastmile_qr_scan"}, "type": "electric_scooter", "name": "f46559ef74e3c0a4e5305d108c9b8ac3", "is_reserved": 0, "lon": -77.03219116666666, "is_disabled": 0, "fusion_lat": 0.0, "lat": 38.907310333333335, "bike_id": "f46559ef74e3c0a4e5305d108c9b8ac3", "fusion_lon": 0.0}, {"rental_uris": {"ios": "https://dc.lft.to/lastmile_qr_scan", "android": "https://dc.lft.to/lastmile_qr_scan"}, "type": "electric_scooter", "name": "fa7121e95beb1c4e7d52c3732a21232f", "is_reserved": 0, "lon": -77.07224933333333, "is_disabled": 0, "fusion_lat": 0.0, "lat": 38.919705666666665, "bike_id": "fa7121e95beb1c4e7d52c3732a21232f", "fusion_lon": 0.0}, {"rental_uris": {"ios": "https://dc.lft.to/lastmile_qr_scan", "android": "https://dc.lft.to/lastmile_qr_scan"}, "type": "electric_bike", "name": "1e815826f0fceea17d08591d871b9cb0", "is_reserved": 0, "lon": -77.12650083333334, "is_disabled": 0, "fusion_lat": 0.0, "lat": 38.819079, "bike_id": "1e815826f0fceea17d08591d871b9cb0", "fusion_lon": 0.0}, {"rental_uris": {"ios": "https://dc.lft.to/lastmile_qr_scan", "android": "https://dc.lft.to/lastmile_qr_scan"}, "type": "electric_scooter", "name": "add077ea3f0a517c0705e375db4a305b", "is_reserved": 0, "lon": -76.926612, "is_disabled": 0, "fusion_lat": 0.0, "lat": 38.882328666666666, "bike_id": "add077ea3f0a517c0705e375db4a305b", "fusion_lon": 0.0}, {"rental_uris": {"ios": "https://dc.lft.to/lastmile_qr_scan", "android": "https://dc.lft.to/lastmile_qr_scan"}, "type": "electric_scooter", "name": "19a2351d27af8542dc8ec53b29c5a7e1", "is_reserved": 0, "lon": -77.02912666666667, "is_disabled": 0, "fusion_lat": 0.0, "lat": 38.9345395, "bike_id": "19a2351d27af8542dc8ec53b29c5a7e1", "fusion_lon": 0.0}, {"rental_uris": {"ios": "https://dc.lft.to/lastmile_qr_scan", "android": "https://dc.lft.to/lastmile_qr_scan"}, "type": "electric_scooter", "name": "be6b6a2e5a001122786b4b392aaa35e5", "is_reserved": 0, "lon": -77.04381666666667, "is_disabled": 0, "fusion_lat": 0.0, "lat": 38.8973, "bike_id": "be6b6a2e5a001122786b4b392aaa35e5", "fusion_lon": 0.0}, {"rental_uris": {"ios": "https://dc.lft.to/lastmile_qr_scan", "android": "https://dc.lft.to/lastmile_qr_scan"}, "type": "electric_bike", "name": "a362a8616abee14b24d16353ba35e90e", "is_reserved": 0, "lon": -76.98370033333333, "is_disabled": 0, "fusion_lat": 0.0, "lat": 38.91492683333333, "bike_id": "a362a8616abee14b24d16353ba35e90e", "fusion_lon": 0.0}, {"rental_uris": {"ios": "https://dc.lft.to/lastmile_qr_scan", "android": "https://dc.lft.to/lastmile_qr_scan"}, "type": "electric_bike", "name": "52a078abf0ba478b60c77b371e7daabc", "is_reserved": 0, "lon": -77.0281715, "is_disabled": 0, "fusion_lat": 0.0, "lat": 38.9655355, "bike_id": "52a078abf0ba478b60c77b371e7daabc", "fusion_lon": 0.0}, {"rental_uris": {"ios": "https://dc.lft.to/lastmile_qr_scan", "android": "https://dc.lft.to/lastmile_qr_scan"}, "type": "electric_bike", "name": "1699d91dfeb5d84dc816bcb4141beb9a", "is_reserved": 0, "lon": -77.00508816666667, "is_disabled": 0, "fusion_lat": 0.0, "lat": 38.87917683333333, "bike_id": "1699d91dfeb5d84dc816bcb4141beb9a", "fusion_lon": 0.0}, {"rental_uris": {"ios": "https://dc.lft.to/lastmile_qr_scan", "android": "https://dc.lft.to/lastmile_qr_scan"}, "type": "electric_scooter", "name": "5c36705e40c22e5a7eb6b32374eb4333", "is_reserved": 0, "lon": -77.08586933333333, "is_disabled": 0, "fusion_lat": 0.0, "lat": 38.90873166666667, "bike_id": "5c36705e40c22e5a7eb6b32374eb4333", "fusion_lon": 0.0}, {"rental_uris": {"ios": "https://dc.lft.to/lastmile_qr_scan", "android": "https://dc.lft.to/lastmile_qr_scan"}, "type": "electric_scooter", "name": "c62fc41f4632d74c85a0ce35a72d2d75", "is_reserved": 0, "lon": -77.04856233333334, "is_disabled": 0, "fusion_lat": 0.0, "lat": 38.90065666666667, "bike_id": "c62fc41f4632d74c85a0ce35a72d2d75", "fusion_lon": 0.0}, {"rental_uris": {"ios": "https://dc.lft.to/lastmile_qr_scan", "android": "https://dc.lft.to/lastmile_qr_scan"}, "type": "electric_scooter", "name": "6efd91647c904dab43f4504a117f6c8b", "is_reserved": 0, "lon": -76.98497533333334, "is_disabled": 0, "fusion_lat": 0.0, "lat": 38.9200575, "bike_id": "6efd91647c904dab43f4504a117f6c8b", "fusion_lon": 0.0}, {"rental_uris": {"ios": "https://dc.lft.to/lastmile_qr_scan", "android": "https://dc.lft.to/lastmile_qr_scan"}, "type": "electric_scooter", "name": "e1742b39af777dd6e335178d92dec945", "is_reserved": 0, "lon": -77.03723983333333, "is_disabled": 0, "fusion_lat": 0.0, "lat": 38.920245666666666, "bike_id": "e1742b39af777dd6e335178d92dec945", "fusion_lon": 0.0}, {"rental_uris": {"ios": "https://dc.lft.to/lastmile_qr_scan", "android": "https://dc.lft.to/lastmile_qr_scan"}, "type": "electric_scooter", "name": "1eb15aa38d29278135ea9e924fa09408", "is_reserved": 0, "lon": -76.98540133333333, "is_disabled": 0, "fusion_lat": 0.0, "lat": 38.858483666666665, "bike_id": "1eb15aa38d29278135ea9e924fa09408", "fusion_lon": 0.0}, {"rental_uris": {"ios": "https://dc.lft.to/lastmile_qr_scan", "android": "https://dc.lft.to/lastmile_qr_scan"}, "type": "electric_scooter", "name": "627279891d88e5fe0b6b2a110123782f", "is_reserved": 0, "lon": -77.00871683333334, "is_disabled": 0, "fusion_lat": 0.0, "lat": 38.9117575, "bike_id": "627279891d88e5fe0b6b2a110123782f", "fusion_lon": 0.0}, {"rental_uris": {"ios": "https://dc.lft.to/lastmile_qr_scan", "android": "https://dc.lft.to/lastmile_qr_scan"}, "type": "electric_scooter", "name": "9a1a4644490cd204dc2805dba5ec9968", "is_reserved": 0, "lon": -77.03020633333334, "is_disabled": 0, "fusion_lat": 0.0, "lat": 38.87846116666667, "bike_id": "9a1a4644490cd204dc2805dba5ec9968", "fusion_lon": 0.0}, {"rental_uris": {"ios": "https://dc.lft.to/lastmile_qr_scan", "android": "https://dc.lft.to/lastmile_qr_scan"}, "type": "electric_scooter", "name": "484baf8c4892346320bb41e074d80e30", "is_reserved": 0, "lon": -77.02413883333334, "is_disabled": 0, "fusion_lat": 0.0, "lat": 38.928079333333336, "bike_id": "484baf8c4892346320bb41e074d80e30", "fusion_lon": 0.0}, {"rental_uris": {"ios": "https://dc.lft.to/lastmile_qr_scan", "android": "https://dc.lft.to/lastmile_qr_scan"}, "type": "electric_scooter", "name": "e5076fa195095d9946a2c16738768484", "is_reserved": 0, "lon": -77.011591, "is_disabled": 0, "fusion_lat": 0.0, "lat": 38.897045166666665, "bike_id": "e5076fa195095d9946a2c16738768484", "fusion_lon": 0.0}, {"rental_uris": {"ios": "https://dc.lft.to/lastmile_qr_scan", "android": "https://dc.lft.to/lastmile_qr_scan"}, "type": "electric_bike", "name": "6ffe0eb513d0a5cb50706e7724179626", "is_reserved": 0, "lon": -77.099655, "is_disabled": 0, "fusion_lat": 0.0, "lat": 38.8579265, "bike_id": "6ffe0eb513d0a5cb50706e7724179626", "fusion_lon": 0.0}, {"rental_uris": {"ios": "https://dc.lft.to/lastmile_qr_scan", "android": "https://dc.lft.to/lastmile_qr_scan"}, "type": "electric_scooter", "name": "bfe5f1fc3930c60816dfd6a4e1282262", "is_reserved": 0, "lon": -76.97652133333334, "is_disabled": 0, "fusion_lat": 0.0, "lat": 38.90359616666667, "bike_id": "bfe5f1fc3930c60816dfd6a4e1282262", "fusion_lon": 0.0}, {"rental_uris": {"ios": "https://dc.lft.to/lastmile_qr_scan", "android": "https://dc.lft.to/lastmile_qr_scan"}, "type": "electric_scooter", "name": "73d5880734649106eb4aba564fce5e60", "is_reserved": 0, "lon": -76.94166433333334, "is_disabled": 0, "fusion_lat": 0.0, "lat": 38.901768, "bike_id": "73d5880734649106eb4aba564fce5e60", "fusion_lon": 0.0}, {"rental_uris": {"ios": "https://dc.lft.to/lastmile_qr_scan", "android": "https://dc.lft.to/lastmile_qr_scan"}, "type": "electric_scooter", "name": "a93f6f7e48d1f674c019e02215d95ac5", "is_reserved": 0, "lon": -77.02779133333334, "is_disabled": 0, "fusion_lat": 0.0, "lat": 38.96581066666667, "bike_id": "a93f6f7e48d1f674c019e02215d95ac5", "fusion_lon": 0.0}, {"rental_uris": {"ios": "https://dc.lft.to/lastmile_qr_scan", "android": "https://dc.lft.to/lastmile_qr_scan"}, "type": "electric_scooter", "name": "44258d6c3f0e1d51c1b5992228f48bf0", "is_reserved": 0, "lon": -77.02697783333333, "is_disabled": 0, "fusion_lat": 0.0, "lat": 38.91804166666667, "bike_id": "44258d6c3f0e1d51c1b5992228f48bf0", "fusion_lon": 0.0}, {"rental_uris": {"ios": "https://dc.lft.to/lastmile_qr_scan", "android": "https://dc.lft.to/lastmile_qr_scan"}, "type": "electric_scooter", "name": "6272af5e8ed92cc19ab42d9bc5917bcb", "is_reserved": 0, "lon": -77.032704, "is_disabled": 0, "fusion_lat": 0.0, "lat": 38.92163516666667, "bike_id": "6272af5e8ed92cc19ab42d9bc5917bcb", "fusion_lon": 0.0}, {"rental_uris": {"ios": "https://dc.lft.to/lastmile_qr_scan", "android": "https://dc.lft.to/lastmile_qr_scan"}, "type": "electric_scooter", "name": "52b06feb0e3651647e049420c32f0c35", "is_reserved": 0, "lon": -77.02187083333334, "is_disabled": 0, "fusion_lat": 0.0, "lat": 38.911237666666665, "bike_id": "52b06feb0e3651647e049420c32f0c35", "fusion_lon": 0.0}, {"rental_uris": {"ios": "https://dc.lft.to/lastmile_qr_scan", "android": "https://dc.lft.to/lastmile_qr_scan"}, "type": "electric_scooter", "name": "d303ad0edb211074a0240524d9c71b99", "is_reserved": 0, "lon": -77.040979, "is_disabled": 0, "fusion_lat": 0.0, "lat": 38.920813833333334, "bike_id": "d303ad0edb211074a0240524d9c71b99", "fusion_lon": 0.0}, {"rental_uris": {"ios": "https://dc.lft.to/lastmile_qr_scan", "android": "https://dc.lft.to/lastmile_qr_scan"}, "type": "electric_scooter", "name": "bbced22267ce47f9d7e642a75d247659", "is_reserved": 0, "lon": -77.0075605, "is_disabled": 0, "fusion_lat": 0.0, "lat": 38.871129333333336, "bike_id": "bbced22267ce47f9d7e642a75d247659", "fusion_lon": 0.0}, {"rental_uris": {"ios": "https://dc.lft.to/lastmile_qr_scan", "android": "https://dc.lft.to/lastmile_qr_scan"}, "type": "electric_scooter", "name": "f4756bc9b404cf8880cfad421833296d", "is_reserved": 0, "lon": -77.01776166666667, "is_disabled": 0, "fusion_lat": 0.0, "lat": 38.879179666666666, "bike_id": "f4756bc9b404cf8880cfad421833296d", "fusion_lon": 0.0}, {"rental_uris": {"ios": "https://dc.lft.to/lastmile_qr_scan", "android": "https://dc.lft.to/lastmile_qr_scan"}, "type": "electric_scooter", "name": "483d7f3f7823fad25529456702d5c728", "is_reserved": 0, "lon": -77.06103116666667, "is_disabled": 0, "fusion_lat": 0.0, "lat": 38.937045, "bike_id": "483d7f3f7823fad25529456702d5c728", "fusion_lon": 0.0}, {"rental_uris": {"ios": "https://dc.lft.to/lastmile_qr_scan", "android": "https://dc.lft.to/lastmile_qr_scan"}, "type": "electric_scooter", "name": "32d28b9c94ca0d0056993130a290570b", "is_reserved": 0, "lon": -77.02685083333333, "is_disabled": 0, "fusion_lat": 0.0, "lat": 38.97240766666667, "bike_id": "32d28b9c94ca0d0056993130a290570b", "fusion_lon": 0.0}, {"rental_uris": {"ios": "https://dc.lft.to/lastmile_qr_scan", "android": "https://dc.lft.to/lastmile_qr_scan"}, "type": "electric_scooter", "name": "a13a5025bfb2b1aa834c9f46bdaaef22", "is_reserved": 0, "lon": -77.022961, "is_disabled": 0, "fusion_lat": 0.0, "lat": 38.918408666666664, "bike_id": "a13a5025bfb2b1aa834c9f46bdaaef22", "fusion_lon": 0.0}, {"rental_uris": {"ios": "https://dc.lft.to/lastmile_qr_scan", "android": "https://dc.lft.to/lastmile_qr_scan"}, "type": "electric_scooter", "name": "016750eb277c34e188b86de1a202fb8f", "is_reserved": 0, "lon": -77.03835866666667, "is_disabled": 0, "fusion_lat": 0.0, "lat": 38.90984316666667, "bike_id": "016750eb277c34e188b86de1a202fb8f", "fusion_lon": 0.0}, {"rental_uris": {"ios": "https://dc.lft.to/lastmile_qr_scan", "android": "https://dc.lft.to/lastmile_qr_scan"}, "type": "electric_scooter", "name": "6bd577bfa8d96fd8bb8df73c24210ea2", "is_reserved": 0, "lon": -77.03065983333333, "is_disabled": 0, "fusion_lat": 0.0, "lat": 38.89751616666667, "bike_id": "6bd577bfa8d96fd8bb8df73c24210ea2", "fusion_lon": 0.0}, {"rental_uris": {"ios": "https://dc.lft.to/lastmile_qr_scan", "android": "https://dc.lft.to/lastmile_qr_scan"}, "type": "electric_scooter", "name": "c38bab184da2a1a6fe295dd56b0d4037", "is_reserved": 0, "lon": -77.04440133333334, "is_disabled": 0, "fusion_lat": 0.0, "lat": 38.9126635, "bike_id": "c38bab184da2a1a6fe295dd56b0d4037", "fusion_lon": 0.0}, {"rental_uris": {"ios": "https://dc.lft.to/lastmile_qr_scan", "android": "https://dc.lft.to/lastmile_qr_scan"}, "type": "electric_scooter", "name": "9390060bdd9353c39471af477677afbf", "is_reserved": 0, "lon": -76.98277616666667, "is_disabled": 0, "fusion_lat": 0.0, "lat": 38.90342833333333, "bike_id": "9390060bdd9353c39471af477677afbf", "fusion_lon": 0.0}, {"rental_uris": {"ios": "https://dc.lft.to/lastmile_qr_scan", "android": "https://dc.lft.to/lastmile_qr_scan"}, "type": "electric_scooter", "name": "2b86c17171cd27ba73bd4835bcde36b7", "is_reserved": 0, "lon": -77.001959, "is_disabled": 0, "fusion_lat": 0.0, "lat": 38.900287166666665, "bike_id": "2b86c17171cd27ba73bd4835bcde36b7", "fusion_lon": 0.0}, {"rental_uris": {"ios": "https://dc.lft.to/lastmile_qr_scan", "android": "https://dc.lft.to/lastmile_qr_scan"}, "type": "electric_scooter", "name": "e350ba21cd1851ca8bf1c9f17554bf42", "is_reserved": 0, "lon": -77.030745, "is_disabled": 0, "fusion_lat": 0.0, "lat": 38.92384966666667, "bike_id": "e350ba21cd1851ca8bf1c9f17554bf42", "fusion_lon": 0.0}, {"rental_uris": {"ios": "https://dc.lft.to/lastmile_qr_scan", "android": "https://dc.lft.to/lastmile_qr_scan"}, "type": "electric_scooter", "name": "e33c9d8208b5699446bf4e9537b7080c", "is_reserved": 0, "lon": -77.02936516666666, "is_disabled": 0, "fusion_lat": 0.0, "lat": 38.897535, "bike_id": "e33c9d8208b5699446bf4e9537b7080c", "fusion_lon": 0.0}, {"rental_uris": {"ios": "https://dc.lft.to/lastmile_qr_scan", "android": "https://dc.lft.to/lastmile_qr_scan"}, "type": "electric_bike", "name": "e2824ae9a9da59400ef031153603c993", "is_reserved": 0, "lon": -77.020652, "is_disabled": 0, "fusion_lat": 0.0, "lat": 38.964354666666665, "bike_id": "e2824ae9a9da59400ef031153603c993", "fusion_lon": 0.0}, {"rental_uris": {"ios": "https://dc.lft.to/lastmile_qr_scan", "android": "https://dc.lft.to/lastmile_qr_scan"}, "type": "electric_scooter", "name": "4a4e6c89ae63f020fc4682a1586dfcfc", "is_reserved": 0, "lon": -77.06028766666667, "is_disabled": 0, "fusion_lat": 0.0, "lat": 38.93875716666667, "bike_id": "4a4e6c89ae63f020fc4682a1586dfcfc", "fusion_lon": 0.0}, {"rental_uris": {"ios": "https://dc.lft.to/lastmile_qr_scan", "android": "https://dc.lft.to/lastmile_qr_scan"}, "type": "electric_scooter", "name": "6ff83811dad3e116d9c844dcdcdd3d02", "is_reserved": 0, "lon": -77.0326365, "is_disabled": 0, "fusion_lat": 0.0, "lat": 38.92541766666667, "bike_id": "6ff83811dad3e116d9c844dcdcdd3d02", "fusion_lon": 0.0}, {"rental_uris": {"ios": "https://dc.lft.to/lastmile_qr_scan", "android": "https://dc.lft.to/lastmile_qr_scan"}, "type": "electric_scooter", "name": "5cec347fa96d4d65b46e88741c726ba9", "is_reserved": 0, "lon": -77.046731, "is_disabled": 0, "fusion_lat": 0.0, "lat": 38.91251833333333, "bike_id": "5cec347fa96d4d65b46e88741c726ba9", "fusion_lon": 0.0}, {"rental_uris": {"ios": "https://dc.lft.to/lastmile_qr_scan", "android": "https://dc.lft.to/lastmile_qr_scan"}, "type": "electric_scooter", "name": "3557bd854f9ddd089c378e5299bfd704", "is_reserved": 0, "lon": -77.00584966666666, "is_disabled": 0, "fusion_lat": 0.0, "lat": 38.905748, "bike_id": "3557bd854f9ddd089c378e5299bfd704", "fusion_lon": 0.0}, {"rental_uris": {"ios": "https://dc.lft.to/lastmile_qr_scan", "android": "https://dc.lft.to/lastmile_qr_scan"}, "type": "electric_scooter", "name": "746a154202cacec31279619bb94c7ca1", "is_reserved": 0, "lon": -77.06090616666667, "is_disabled": 0, "fusion_lat": 0.0, "lat": 38.939881166666666, "bike_id": "746a154202cacec31279619bb94c7ca1", "fusion_lon": 0.0}, {"rental_uris": {"ios": "https://dc.lft.to/lastmile_qr_scan", "android": "https://dc.lft.to/lastmile_qr_scan"}, "type": "electric_scooter", "name": "115e82c8e2846ff64e7ae94b1a8caaff", "is_reserved": 0, "lon": -76.94654016666667, "is_disabled": 0, "fusion_lat": 0.0, "lat": 38.898270833333335, "bike_id": "115e82c8e2846ff64e7ae94b1a8caaff", "fusion_lon": 0.0}, {"rental_uris": {"ios": "https://dc.lft.to/lastmile_qr_scan", "android": "https://dc.lft.to/lastmile_qr_scan"}, "type": "electric_bike", "name": "75667dc454c581aad2e11f995a491961", "is_reserved": 0, "lon": -77.01906866666667, "is_disabled": 0, "fusion_lat": 0.0, "lat": 38.976763166666665, "bike_id": "75667dc454c581aad2e11f995a491961", "fusion_lon": 0.0}, {"rental_uris": {"ios": "https://dc.lft.to/lastmile_qr_scan", "android": "https://dc.lft.to/lastmile_qr_scan"}, "type": "electric_scooter", "name": "97dcbf3bdcd95836352c92e2c5929436", "is_reserved": 0, "lon": -77.02106416666666, "is_disabled": 0, "fusion_lat": 0.0, "lat": 38.966746666666666, "bike_id": "97dcbf3bdcd95836352c92e2c5929436", "fusion_lon": 0.0}, {"rental_uris": {"ios": "https://dc.lft.to/lastmile_qr_scan", "android": "https://dc.lft.to/lastmile_qr_scan"}, "type": "electric_scooter", "name": "1e91cee434249f95165954344e44eada", "is_reserved": 0, "lon": -77.0450725, "is_disabled": 0, "fusion_lat": 0.0, "lat": 38.89224183333333, "bike_id": "1e91cee434249f95165954344e44eada", "fusion_lon": 0.0}, {"rental_uris": {"ios": "https://dc.lft.to/lastmile_qr_scan", "android": "https://dc.lft.to/lastmile_qr_scan"}, "type": "electric_bike", "name": "c9d5f44021ed679e139ab21064ac397b", "is_reserved": 0, "lon": -77.07660733333333, "is_disabled": 0, "fusion_lat": 0.0, "lat": 38.80978966666667, "bike_id": "c9d5f44021ed679e139ab21064ac397b", "fusion_lon": 0.0}, {"rental_uris": {"ios": "https://dc.lft.to/lastmile_qr_scan", "android": "https://dc.lft.to/lastmile_qr_scan"}, "type": "electric_scooter", "name": "1aab229c4fb47fe9fe13683dd6bd0486", "is_reserved": 0, "lon": -76.9902315, "is_disabled": 0, "fusion_lat": 0.0, "lat": 38.88874, "bike_id": "1aab229c4fb47fe9fe13683dd6bd0486", "fusion_lon": 0.0}, {"rental_uris": {"ios": "https://dc.lft.to/lastmile_qr_scan", "android": "https://dc.lft.to/lastmile_qr_scan"}, "type": "electric_scooter", "name": "bee8686f392e4b93659792880105110a", "is_reserved": 0, "lon": -76.99963216666667, "is_disabled": 0, "fusion_lat": 0.0, "lat": 38.908498, "bike_id": "bee8686f392e4b93659792880105110a", "fusion_lon": 0.0}, {"rental_uris": {"ios": "https://dc.lft.to/lastmile_qr_scan", "android": "https://dc.lft.to/lastmile_qr_scan"}, "type": "electric_scooter", "name": "af88d00e2f24f7563f1f6f7f815eac3b", "is_reserved": 0, "lon": -77.02256283333334, "is_disabled": 0, "fusion_lat": 0.0, "lat": 38.928268333333335, "bike_id": "af88d00e2f24f7563f1f6f7f815eac3b", "fusion_lon": 0.0}, {"rental_uris": {"ios": "https://dc.lft.to/lastmile_qr_scan", "android": "https://dc.lft.to/lastmile_qr_scan"}, "type": "electric_bike", "name": "0b76fd237253e3ac400118231231e6fa", "is_reserved": 0, "lon": -76.987753, "is_disabled": 0, "fusion_lat": 0.0, "lat": 38.844722, "bike_id": "0b76fd237253e3ac400118231231e6fa", "fusion_lon": 0.0}, {"rental_uris": {"ios": "https://dc.lft.to/lastmile_qr_scan", "android": "https://dc.lft.to/lastmile_qr_scan"}, "type": "electric_scooter", "name": "6cce985179f85c226f2499cce84b2f15", "is_reserved": 0, "lon": -77.0418865, "is_disabled": 0, "fusion_lat": 0.0, "lat": 38.9037365, "bike_id": "6cce985179f85c226f2499cce84b2f15", "fusion_lon": 0.0}, {"rental_uris": {"ios": "https://dc.lft.to/lastmile_qr_scan", "android": "https://dc.lft.to/lastmile_qr_scan"}, "type": "electric_scooter", "name": "6914fd3165b5bb968936f0882b0e6e88", "is_reserved": 0, "lon": -77.01212633333333, "is_disabled": 0, "fusion_lat": 0.0, "lat": 38.921229, "bike_id": "6914fd3165b5bb968936f0882b0e6e88", "fusion_lon": 0.0}, {"rental_uris": {"ios": "https://dc.lft.to/lastmile_qr_scan", "android": "https://dc.lft.to/lastmile_qr_scan"}, "type": "electric_scooter", "name": "545503a814bc0e5e45d32004f619af1b", "is_reserved": 0, "lon": -77.05784066666666, "is_disabled": 0, "fusion_lat": 0.0, "lat": 38.901016166666665, "bike_id": "545503a814bc0e5e45d32004f619af1b", "fusion_lon": 0.0}, {"rental_uris": {"ios": "https://dc.lft.to/lastmile_qr_scan", "android": "https://dc.lft.to/lastmile_qr_scan"}, "type": "electric_scooter", "name": "5cca377c2fadc1a71433a3b1013172d1", "is_reserved": 0, "lon": -77.02087116666667, "is_disabled": 0, "fusion_lat": 0.0, "lat": 38.88187383333333, "bike_id": "5cca377c2fadc1a71433a3b1013172d1", "fusion_lon": 0.0}, {"rental_uris": {"ios": "https://dc.lft.to/lastmile_qr_scan", "android": "https://dc.lft.to/lastmile_qr_scan"}, "type": "electric_scooter", "name": "eb573f5e2216cd2ad509f3e4e298a498", "is_reserved": 0, "lon": -77.00910933333333, "is_disabled": 0, "fusion_lat": 0.0, "lat": 38.881875, "bike_id": "eb573f5e2216cd2ad509f3e4e298a498", "fusion_lon": 0.0}, {"rental_uris": {"ios": "https://dc.lft.to/lastmile_qr_scan", "android": "https://dc.lft.to/lastmile_qr_scan"}, "type": "electric_scooter", "name": "8356d8ed0ccb05326b6bb041f0c43e33", "is_reserved": 0, "lon": -77.02073766666666, "is_disabled": 0, "fusion_lat": 0.0, "lat": 38.926967, "bike_id": "8356d8ed0ccb05326b6bb041f0c43e33", "fusion_lon": 0.0}, {"rental_uris": {"ios": "https://dc.lft.to/lastmile_qr_scan", "android": "https://dc.lft.to/lastmile_qr_scan"}, "type": "electric_bike", "name": "9dcc4412dc3c04e6e172dca5fbb5dbf3", "is_reserved": 0, "lon": -76.986857, "is_disabled": 0, "fusion_lat": 0.0, "lat": 38.9447405, "bike_id": "9dcc4412dc3c04e6e172dca5fbb5dbf3", "fusion_lon": 0.0}, {"rental_uris": {"ios": "https://dc.lft.to/lastmile_qr_scan", "android": "https://dc.lft.to/lastmile_qr_scan"}, "type": "electric_scooter", "name": "5ab725c64b381863cb4a62b44c6e2288", "is_reserved": 0, "lon": -76.9835485, "is_disabled": 0, "fusion_lat": 0.0, "lat": 38.887411166666666, "bike_id": "5ab725c64b381863cb4a62b44c6e2288", "fusion_lon": 0.0}, {"rental_uris": {"ios": "https://dc.lft.to/lastmile_qr_scan", "android": "https://dc.lft.to/lastmile_qr_scan"}, "type": "electric_scooter", "name": "c7816f6297b34dde5d9b566c16073fc6", "is_reserved": 0, "lon": -77.02399666666666, "is_disabled": 0, "fusion_lat": 0.0, "lat": 38.93394116666666, "bike_id": "c7816f6297b34dde5d9b566c16073fc6", "fusion_lon": 0.0}, {"rental_uris": {"ios": "https://dc.lft.to/lastmile_qr_scan", "android": "https://dc.lft.to/lastmile_qr_scan"}, "type": "electric_scooter", "name": "630719c6f6a6bcc0726623399e73579a", "is_reserved": 0, "lon": -77.02429583333333, "is_disabled": 0, "fusion_lat": 0.0, "lat": 38.9372595, "bike_id": "630719c6f6a6bcc0726623399e73579a", "fusion_lon": 0.0}, {"rental_uris": {"ios": "https://dc.lft.to/lastmile_qr_scan", "android": "https://dc.lft.to/lastmile_qr_scan"}, "type": "electric_scooter", "name": "c1022415d85ae57f4b4b4b02beec1f83", "is_reserved": 0, "lon": -77.0383845, "is_disabled": 0, "fusion_lat": 0.0, "lat": 38.91171933333333, "bike_id": "c1022415d85ae57f4b4b4b02beec1f83", "fusion_lon": 0.0}, {"rental_uris": {"ios": "https://dc.lft.to/lastmile_qr_scan", "android": "https://dc.lft.to/lastmile_qr_scan"}, "type": "electric_scooter", "name": "d31206a7edca3d865e380b64d6c91da2", "is_reserved": 0, "lon": -77.01310733333334, "is_disabled": 0, "fusion_lat": 0.0, "lat": 38.90191083333333, "bike_id": "d31206a7edca3d865e380b64d6c91da2", "fusion_lon": 0.0}, {"rental_uris": {"ios": "https://dc.lft.to/lastmile_qr_scan", "android": "https://dc.lft.to/lastmile_qr_scan"}, "type": "electric_scooter", "name": "ba2c4c6d11708e9c339c7754cbcb6b9c", "is_reserved": 0, "lon": -77.03029033333334, "is_disabled": 0, "fusion_lat": 0.0, "lat": 38.92668283333333, "bike_id": "ba2c4c6d11708e9c339c7754cbcb6b9c", "fusion_lon": 0.0}, {"rental_uris": {"ios": "https://dc.lft.to/lastmile_qr_scan", "android": "https://dc.lft.to/lastmile_qr_scan"}, "type": "electric_scooter", "name": "cb9542ffc4e5e5629ae5bfe3c89db137", "is_reserved": 0, "lon": -76.99910916666667, "is_disabled": 0, "fusion_lat": 0.0, "lat": 38.93754333333333, "bike_id": "cb9542ffc4e5e5629ae5bfe3c89db137", "fusion_lon": 0.0}, {"rental_uris": {"ios": "https://dc.lft.to/lastmile_qr_scan", "android": "https://dc.lft.to/lastmile_qr_scan"}, "type": "electric_scooter", "name": "1fae49aa54a774a6a769df5678c2f20a", "is_reserved": 0, "lon": -77.05511533333333, "is_disabled": 0, "fusion_lat": 0.0, "lat": 38.92837933333333, "bike_id": "1fae49aa54a774a6a769df5678c2f20a", "fusion_lon": 0.0}, {"rental_uris": {"ios": "https://dc.lft.to/lastmile_qr_scan", "android": "https://dc.lft.to/lastmile_qr_scan"}, "type": "electric_bike", "name": "5b4ce9c40791f40ca52bc58676585b3c", "is_reserved": 0, "lon": -77.09726066666667, "is_disabled": 0, "fusion_lat": 0.0, "lat": 38.80742433333333, "bike_id": "5b4ce9c40791f40ca52bc58676585b3c", "fusion_lon": 0.0}, {"rental_uris": {"ios": "https://dc.lft.to/lastmile_qr_scan", "android": "https://dc.lft.to/lastmile_qr_scan"}, "type": "electric_scooter", "name": "1e439549bb429e0089a0a81cbc3325af", "is_reserved": 0, "lon": -77.04121333333333, "is_disabled": 0, "fusion_lat": 0.0, "lat": 38.933801333333335, "bike_id": "1e439549bb429e0089a0a81cbc3325af", "fusion_lon": 0.0}, {"rental_uris": {"ios": "https://dc.lft.to/lastmile_qr_scan", "android": "https://dc.lft.to/lastmile_qr_scan"}, "type": "electric_bike", "name": "10636014bd181b3376fc0a9756566647", "is_reserved": 0, "lon": -77.21667216666667, "is_disabled": 0, "fusion_lat": 0.0, "lat": 38.895087, "bike_id": "10636014bd181b3376fc0a9756566647", "fusion_lon": 0.0}, {"rental_uris": {"ios": "https://dc.lft.to/lastmile_qr_scan", "android": "https://dc.lft.to/lastmile_qr_scan"}, "type": "electric_bike", "name": "8dc61fdca0c36f08ceba02a1155de852", "is_reserved": 0, "lon": -77.0653335, "is_disabled": 0, "fusion_lat": 0.0, "lat": 38.992339333333334, "bike_id": "8dc61fdca0c36f08ceba02a1155de852", "fusion_lon": 0.0}, {"rental_uris": {"ios": "https://dc.lft.to/lastmile_qr_scan", "android": "https://dc.lft.to/lastmile_qr_scan"}, "type": "electric_scooter", "name": "345ae36c5a5faef03b16a69d6c94f049", "is_reserved": 0, "lon": -77.02601183333333, "is_disabled": 0, "fusion_lat": 0.0, "lat": 38.94610133333333, "bike_id": "345ae36c5a5faef03b16a69d6c94f049", "fusion_lon": 0.0}, {"rental_uris": {"ios": "https://dc.lft.to/lastmile_qr_scan", "android": "https://dc.lft.to/lastmile_qr_scan"}, "type": "electric_scooter", "name": "14a3e54b7c04078cfb2db5c0ab5b16fe", "is_reserved": 0, "lon": -77.015051, "is_disabled": 0, "fusion_lat": 0.0, "lat": 38.9097395, "bike_id": "14a3e54b7c04078cfb2db5c0ab5b16fe", "fusion_lon": 0.0}, {"rental_uris": {"ios": "https://dc.lft.to/lastmile_qr_scan", "android": "https://dc.lft.to/lastmile_qr_scan"}, "type": "electric_scooter", "name": "9e743004d1d6d5a10b97c52af897184b", "is_reserved": 0, "lon": -77.04074716666666, "is_disabled": 0, "fusion_lat": 0.0, "lat": 38.905446166666664, "bike_id": "9e743004d1d6d5a10b97c52af897184b", "fusion_lon": 0.0}, {"rental_uris": {"ios": "https://dc.lft.to/lastmile_qr_scan", "android": "https://dc.lft.to/lastmile_qr_scan"}, "type": "electric_scooter", "name": "b8a6da3671f61c10cbc545beff635daf", "is_reserved": 0, "lon": -77.01598616666666, "is_disabled": 0, "fusion_lat": 0.0, "lat": 38.876178833333334, "bike_id": "b8a6da3671f61c10cbc545beff635daf", "fusion_lon": 0.0}, {"rental_uris": {"ios": "https://dc.lft.to/lastmile_qr_scan", "android": "https://dc.lft.to/lastmile_qr_scan"}, "type": "electric_scooter", "name": "4f3c1f30f1baa185c2ea5ae3a0720fb7", "is_reserved": 0, "lon": -77.00567033333333, "is_disabled": 0, "fusion_lat": 0.0, "lat": 38.8744755, "bike_id": "4f3c1f30f1baa185c2ea5ae3a0720fb7", "fusion_lon": 0.0}, {"rental_uris": {"ios": "https://dc.lft.to/lastmile_qr_scan", "android": "https://dc.lft.to/lastmile_qr_scan"}, "type": "electric_scooter", "name": "2f19c5f099bb57fe70265c70d5e4bb69", "is_reserved": 0, "lon": -76.9870725, "is_disabled": 0, "fusion_lat": 0.0, "lat": 38.888445, "bike_id": "2f19c5f099bb57fe70265c70d5e4bb69", "fusion_lon": 0.0}, {"rental_uris": {"ios": "https://dc.lft.to/lastmile_qr_scan", "android": "https://dc.lft.to/lastmile_qr_scan"}, "type": "electric_scooter", "name": "4a32e30e07a2cf0dcede539894b3b12a", "is_reserved": 0, "lon": -77.063331, "is_disabled": 0, "fusion_lat": 0.0, "lat": 38.94364616666667, "bike_id": "4a32e30e07a2cf0dcede539894b3b12a", "fusion_lon": 0.0}, {"rental_uris": {"ios": "https://dc.lft.to/lastmile_qr_scan", "android": "https://dc.lft.to/lastmile_qr_scan"}, "type": "electric_scooter", "name": "ec6b91ab371662d3b16e06e00604dcb6", "is_reserved": 0, "lon": -77.018454, "is_disabled": 0, "fusion_lat": 0.0, "lat": 38.94998533333333, "bike_id": "ec6b91ab371662d3b16e06e00604dcb6", "fusion_lon": 0.0}, {"rental_uris": {"ios": "https://dc.lft.to/lastmile_qr_scan", "android": "https://dc.lft.to/lastmile_qr_scan"}, "type": "electric_scooter", "name": "ae6d65c544a4bb21a82b5103801ab63b", "is_reserved": 0, "lon": -76.973354, "is_disabled": 0, "fusion_lat": 0.0, "lat": 38.90412033333333, "bike_id": "ae6d65c544a4bb21a82b5103801ab63b", "fusion_lon": 0.0}, {"rental_uris": {"ios": "https://dc.lft.to/lastmile_qr_scan", "android": "https://dc.lft.to/lastmile_qr_scan"}, "type": "electric_scooter", "name": "e274fb77cd9cdb5f704b1d4ba28b987b", "is_reserved": 0, "lon": -76.97938066666667, "is_disabled": 0, "fusion_lat": 0.0, "lat": 38.91600433333333, "bike_id": "e274fb77cd9cdb5f704b1d4ba28b987b", "fusion_lon": 0.0}, {"rental_uris": {"ios": "https://dc.lft.to/lastmile_qr_scan", "android": "https://dc.lft.to/lastmile_qr_scan"}, "type": "electric_bike", "name": "025f3c64b79c96289f2a3df0eff01b79", "is_reserved": 0, "lon": -76.978574, "is_disabled": 0, "fusion_lat": 0.0, "lat": 38.983832166666666, "bike_id": "025f3c64b79c96289f2a3df0eff01b79", "fusion_lon": 0.0}, {"rental_uris": {"ios": "https://dc.lft.to/lastmile_qr_scan", "android": "https://dc.lft.to/lastmile_qr_scan"}, "type": "electric_scooter", "name": "911bbd2f5f8654030498e0204bb5afc1", "is_reserved": 0, "lon": -77.03276733333334, "is_disabled": 0, "fusion_lat": 0.0, "lat": 38.920055166666664, "bike_id": "911bbd2f5f8654030498e0204bb5afc1", "fusion_lon": 0.0}, {"rental_uris": {"ios": "https://dc.lft.to/lastmile_qr_scan", "android": "https://dc.lft.to/lastmile_qr_scan"}, "type": "electric_scooter", "name": "cfcc9c145c75a1469c610b8260836737", "is_reserved": 0, "lon": -77.026462, "is_disabled": 0, "fusion_lat": 0.0, "lat": 38.89608, "bike_id": "cfcc9c145c75a1469c610b8260836737", "fusion_lon": 0.0}, {"rental_uris": {"ios": "https://dc.lft.to/lastmile_qr_scan", "android": "https://dc.lft.to/lastmile_qr_scan"}, "type": "electric_bike", "name": "ab18e02154f3676d5f3bfe08b0a851d2", "is_reserved": 0, "lon": -77.08854316666667, "is_disabled": 0, "fusion_lat": 0.0, "lat": 38.938819333333335, "bike_id": "ab18e02154f3676d5f3bfe08b0a851d2", "fusion_lon": 0.0}, {"rental_uris": {"ios": "https://dc.lft.to/lastmile_qr_scan", "android": "https://dc.lft.to/lastmile_qr_scan"}, "type": "electric_bike", "name": "66fd76553459eaedf8a13a96e06bf69f", "is_reserved": 0, "lon": -77.099598, "is_disabled": 0, "fusion_lat": 0.0, "lat": 38.857909, "bike_id": "66fd76553459eaedf8a13a96e06bf69f", "fusion_lon": 0.0}, {"rental_uris": {"ios": "https://dc.lft.to/lastmile_qr_scan", "android": "https://dc.lft.to/lastmile_qr_scan"}, "type": "electric_scooter", "name": "2027913e5bbe135f8e2a280f2a867b7e", "is_reserved": 0, "lon": -77.0134825, "is_disabled": 0, "fusion_lat": 0.0, "lat": 38.919188166666665, "bike_id": "2027913e5bbe135f8e2a280f2a867b7e", "fusion_lon": 0.0}, {"rental_uris": {"ios": "https://dc.lft.to/lastmile_qr_scan", "android": "https://dc.lft.to/lastmile_qr_scan"}, "type": "electric_scooter", "name": "f7fe0abcf6f51d4c47ed9a3a25faf2f6", "is_reserved": 0, "lon": -77.03781366666666, "is_disabled": 0, "fusion_lat": 0.0, "lat": 38.916877, "bike_id": "f7fe0abcf6f51d4c47ed9a3a25faf2f6", "fusion_lon": 0.0}, {"rental_uris": {"ios": "https://dc.lft.to/lastmile_qr_scan", "android": "https://dc.lft.to/lastmile_qr_scan"}, "type": "electric_scooter", "name": "dd28a3280de7efebad68cc32328a88ee", "is_reserved": 0, "lon": -77.01207016666666, "is_disabled": 0, "fusion_lat": 0.0, "lat": 38.9181955, "bike_id": "dd28a3280de7efebad68cc32328a88ee", "fusion_lon": 0.0}, {"rental_uris": {"ios": "https://dc.lft.to/lastmile_qr_scan", "android": "https://dc.lft.to/lastmile_qr_scan"}, "type": "electric_scooter", "name": "45be97cd8a0298fed9acfc17aa4eab1f", "is_reserved": 0, "lon": -77.00938916666667, "is_disabled": 0, "fusion_lat": 0.0, "lat": 38.9126205, "bike_id": "45be97cd8a0298fed9acfc17aa4eab1f", "fusion_lon": 0.0}, {"rental_uris": {"ios": "https://dc.lft.to/lastmile_qr_scan", "android": "https://dc.lft.to/lastmile_qr_scan"}, "type": "electric_scooter", "name": "c2d4095d11764908370e2697373fa27c", "is_reserved": 0, "lon": -77.02945383333333, "is_disabled": 0, "fusion_lat": 0.0, "lat": 38.90271966666667, "bike_id": "c2d4095d11764908370e2697373fa27c", "fusion_lon": 0.0}, {"rental_uris": {"ios": "https://dc.lft.to/lastmile_qr_scan", "android": "https://dc.lft.to/lastmile_qr_scan"}, "type": "electric_scooter", "name": "5921619f29f40fd038001f83c5b83641", "is_reserved": 0, "lon": -76.99116066666667, "is_disabled": 0, "fusion_lat": 0.0, "lat": 38.90905466666667, "bike_id": "5921619f29f40fd038001f83c5b83641", "fusion_lon": 0.0}, {"rental_uris": {"ios": "https://dc.lft.to/lastmile_qr_scan", "android": "https://dc.lft.to/lastmile_qr_scan"}, "type": "electric_scooter", "name": "7fd264e864ad93034f39cb33c78f4af5", "is_reserved": 0, "lon": -77.02725933333333, "is_disabled": 0, "fusion_lat": 0.0, "lat": 38.934588, "bike_id": "7fd264e864ad93034f39cb33c78f4af5", "fusion_lon": 0.0}, {"rental_uris": {"ios": "https://dc.lft.to/lastmile_qr_scan", "android": "https://dc.lft.to/lastmile_qr_scan"}, "type": "electric_scooter", "name": "4bb7ba30b7eb9e3e6cfb61841ca10834", "is_reserved": 0, "lon": -77.0030395, "is_disabled": 0, "fusion_lat": 0.0, "lat": 38.87650583333333, "bike_id": "4bb7ba30b7eb9e3e6cfb61841ca10834", "fusion_lon": 0.0}, {"rental_uris": {"ios": "https://dc.lft.to/lastmile_qr_scan", "android": "https://dc.lft.to/lastmile_qr_scan"}, "type": "electric_scooter", "name": "8163cbcfaa67b224813c05edd8cfb1e4", "is_reserved": 0, "lon": -77.01978316666667, "is_disabled": 0, "fusion_lat": 0.0, "lat": 38.87595816666666, "bike_id": "8163cbcfaa67b224813c05edd8cfb1e4", "fusion_lon": 0.0}, {"rental_uris": {"ios": "https://dc.lft.to/lastmile_qr_scan", "android": "https://dc.lft.to/lastmile_qr_scan"}, "type": "electric_bike", "name": "bc5a127da21a1d9e71e5ce70843c671e", "is_reserved": 0, "lon": -77.128407, "is_disabled": 0, "fusion_lat": 0.0, "lat": 38.80053366666667, "bike_id": "bc5a127da21a1d9e71e5ce70843c671e", "fusion_lon": 0.0}, {"rental_uris": {"ios": "https://dc.lft.to/lastmile_qr_scan", "android": "https://dc.lft.to/lastmile_qr_scan"}, "type": "electric_scooter", "name": "9405966fae4314eecf7fa2ae842c2e35", "is_reserved": 0, "lon": -77.03863866666667, "is_disabled": 0, "fusion_lat": 0.0, "lat": 38.912659833333336, "bike_id": "9405966fae4314eecf7fa2ae842c2e35", "fusion_lon": 0.0}, {"rental_uris": {"ios": "https://dc.lft.to/lastmile_qr_scan", "android": "https://dc.lft.to/lastmile_qr_scan"}, "type": "electric_scooter", "name": "e7cf7e7be14cec12a241d4e239af1e2d", "is_reserved": 0, "lon": -77.0020565, "is_disabled": 0, "fusion_lat": 0.0, "lat": 38.900444666666665, "bike_id": "e7cf7e7be14cec12a241d4e239af1e2d", "fusion_lon": 0.0}, {"rental_uris": {"ios": "https://dc.lft.to/lastmile_qr_scan", "android": "https://dc.lft.to/lastmile_qr_scan"}, "type": "electric_scooter", "name": "b042b3bb1863753958c9a0fa75cb8713", "is_reserved": 0, "lon": -77.02509283333333, "is_disabled": 0, "fusion_lat": 0.0, "lat": 38.90424433333333, "bike_id": "b042b3bb1863753958c9a0fa75cb8713", "fusion_lon": 0.0}, {"rental_uris": {"ios": "https://dc.lft.to/lastmile_qr_scan", "android": "https://dc.lft.to/lastmile_qr_scan"}, "type": "electric_bike", "name": "d06bfba5593b91573771ed51cf311cc0", "is_reserved": 0, "lon": -76.99076283333333, "is_disabled": 0, "fusion_lat": 0.0, "lat": 38.834515833333334, "bike_id": "d06bfba5593b91573771ed51cf311cc0", "fusion_lon": 0.0}, {"rental_uris": {"ios": "https://dc.lft.to/lastmile_qr_scan", "android": "https://dc.lft.to/lastmile_qr_scan"}, "type": "electric_bike", "name": "23795e0e6720faf84438eb75124b2ff9", "is_reserved": 0, "lon": -77.107184, "is_disabled": 0, "fusion_lat": 0.0, "lat": 38.85542233333334, "bike_id": "23795e0e6720faf84438eb75124b2ff9", "fusion_lon": 0.0}, {"rental_uris": {"ios": "https://dc.lft.to/lastmile_qr_scan", "android": "https://dc.lft.to/lastmile_qr_scan"}, "type": "electric_scooter", "name": "8cde5e238ff1031293c8544658655f47", "is_reserved": 0, "lon": -77.02225083333333, "is_disabled": 0, "fusion_lat": 0.0, "lat": 38.920721, "bike_id": "8cde5e238ff1031293c8544658655f47", "fusion_lon": 0.0}, {"rental_uris": {"ios": "https://dc.lft.to/lastmile_qr_scan", "android": "https://dc.lft.to/lastmile_qr_scan"}, "type": "electric_scooter", "name": "e2778d1b3222bf77b0ee5b25c199ce33", "is_reserved": 0, "lon": -77.01855516666667, "is_disabled": 0, "fusion_lat": 0.0, "lat": 38.899417666666665, "bike_id": "e2778d1b3222bf77b0ee5b25c199ce33", "fusion_lon": 0.0}, {"rental_uris": {"ios": "https://dc.lft.to/lastmile_qr_scan", "android": "https://dc.lft.to/lastmile_qr_scan"}, "type": "electric_scooter", "name": "4eee1aedb9034e880b95c39ec0cccc6c", "is_reserved": 0, "lon": -77.02567333333333, "is_disabled": 0, "fusion_lat": 0.0, "lat": 38.9257605, "bike_id": "4eee1aedb9034e880b95c39ec0cccc6c", "fusion_lon": 0.0}, {"rental_uris": {"ios": "https://dc.lft.to/lastmile_qr_scan", "android": "https://dc.lft.to/lastmile_qr_scan"}, "type": "electric_scooter", "name": "8721b77297207fae3df7f5cb5b75d70a", "is_reserved": 0, "lon": -77.03063566666667, "is_disabled": 0, "fusion_lat": 0.0, "lat": 38.92664083333333, "bike_id": "8721b77297207fae3df7f5cb5b75d70a", "fusion_lon": 0.0}, {"rental_uris": {"ios": "https://dc.lft.to/lastmile_qr_scan", "android": "https://dc.lft.to/lastmile_qr_scan"}, "type": "electric_scooter", "name": "a0e3176c191e87e729477d19eee56ec2", "is_reserved": 0, "lon": -77.04225933333333, "is_disabled": 0, "fusion_lat": 0.0, "lat": 38.921352666666664, "bike_id": "a0e3176c191e87e729477d19eee56ec2", "fusion_lon": 0.0}, {"rental_uris": {"ios": "https://dc.lft.to/lastmile_qr_scan", "android": "https://dc.lft.to/lastmile_qr_scan"}, "type": "electric_scooter", "name": "0aa0a080bfdc9ebe17269f7fd323d9ff", "is_reserved": 0, "lon": -77.03740016666667, "is_disabled": 0, "fusion_lat": 0.0, "lat": 38.9290945, "bike_id": "0aa0a080bfdc9ebe17269f7fd323d9ff", "fusion_lon": 0.0}, {"rental_uris": {"ios": "https://dc.lft.to/lastmile_qr_scan", "android": "https://dc.lft.to/lastmile_qr_scan"}, "type": "electric_scooter", "name": "618c0e99082ac138a1ebce0699e734c2", "is_reserved": 0, "lon": -77.048536, "is_disabled": 0, "fusion_lat": 0.0, "lat": 38.90552783333333, "bike_id": "618c0e99082ac138a1ebce0699e734c2", "fusion_lon": 0.0}, {"rental_uris": {"ios": "https://dc.lft.to/lastmile_qr_scan", "android": "https://dc.lft.to/lastmile_qr_scan"}, "type": "electric_scooter", "name": "145eed32c6124c542647c1a58465f5b6", "is_reserved": 0, "lon": -77.000715, "is_disabled": 0, "fusion_lat": 0.0, "lat": 38.8948035, "bike_id": "145eed32c6124c542647c1a58465f5b6", "fusion_lon": 0.0}, {"rental_uris": {"ios": "https://dc.lft.to/lastmile_qr_scan", "android": "https://dc.lft.to/lastmile_qr_scan"}, "type": "electric_scooter", "name": "42cbf9f530d4f44d76582a557d6599d4", "is_reserved": 0, "lon": -77.04396266666667, "is_disabled": 0, "fusion_lat": 0.0, "lat": 38.9088975, "bike_id": "42cbf9f530d4f44d76582a557d6599d4", "fusion_lon": 0.0}, {"rental_uris": {"ios": "https://dc.lft.to/lastmile_qr_scan", "android": "https://dc.lft.to/lastmile_qr_scan"}, "type": "electric_scooter", "name": "60b473fdae3b222c0c0f6822a4adc859", "is_reserved": 0, "lon": -77.02963316666667, "is_disabled": 0, "fusion_lat": 0.0, "lat": 38.93561116666667, "bike_id": "60b473fdae3b222c0c0f6822a4adc859", "fusion_lon": 0.0}, {"rental_uris": {"ios": "https://dc.lft.to/lastmile_qr_scan", "android": "https://dc.lft.to/lastmile_qr_scan"}, "type": "electric_bike", "name": "5b52f7b9dc083e180d127df4dbba0665", "is_reserved": 0, "lon": -77.050883, "is_disabled": 0, "fusion_lat": 0.0, "lat": 38.81329483333333, "bike_id": "5b52f7b9dc083e180d127df4dbba0665", "fusion_lon": 0.0}, {"rental_uris": {"ios": "https://dc.lft.to/lastmile_qr_scan", "android": "https://dc.lft.to/lastmile_qr_scan"}, "type": "electric_scooter", "name": "b7817d5621f690c72f8c2ea0b600072f", "is_reserved": 0, "lon": -76.98050833333333, "is_disabled": 0, "fusion_lat": 0.0, "lat": 38.90145716666667, "bike_id": "b7817d5621f690c72f8c2ea0b600072f", "fusion_lon": 0.0}, {"rental_uris": {"ios": "https://dc.lft.to/lastmile_qr_scan", "android": "https://dc.lft.to/lastmile_qr_scan"}, "type": "electric_scooter", "name": "94edc9d0dcb22c50723e2e089067f192", "is_reserved": 0, "lon": -77.03055833333333, "is_disabled": 0, "fusion_lat": 0.0, "lat": 38.9237555, "bike_id": "94edc9d0dcb22c50723e2e089067f192", "fusion_lon": 0.0}, {"rental_uris": {"ios": "https://dc.lft.to/lastmile_qr_scan", "android": "https://dc.lft.to/lastmile_qr_scan"}, "type": "electric_scooter", "name": "3ffd2315add9cb7e8c3ba45e0f36ce79", "is_reserved": 0, "lon": -77.0346605, "is_disabled": 0, "fusion_lat": 0.0, "lat": 38.9096975, "bike_id": "3ffd2315add9cb7e8c3ba45e0f36ce79", "fusion_lon": 0.0}, {"rental_uris": {"ios": "https://dc.lft.to/lastmile_qr_scan", "android": "https://dc.lft.to/lastmile_qr_scan"}, "type": "electric_scooter", "name": "263704900ecca033232ff3c2a8f20409", "is_reserved": 0, "lon": -77.02375316666667, "is_disabled": 0, "fusion_lat": 0.0, "lat": 38.916986666666666, "bike_id": "263704900ecca033232ff3c2a8f20409", "fusion_lon": 0.0}, {"rental_uris": {"ios": "https://dc.lft.to/lastmile_qr_scan", "android": "https://dc.lft.to/lastmile_qr_scan"}, "type": "electric_scooter", "name": "756e9a2d8e874bd4bff875db16a34030", "is_reserved": 0, "lon": -77.0048525, "is_disabled": 0, "fusion_lat": 0.0, "lat": 38.87460983333333, "bike_id": "756e9a2d8e874bd4bff875db16a34030", "fusion_lon": 0.0}, {"rental_uris": {"ios": "https://dc.lft.to/lastmile_qr_scan", "android": "https://dc.lft.to/lastmile_qr_scan"}, "type": "electric_scooter", "name": "f285591419d43a63f4c7a2231ff35195", "is_reserved": 0, "lon": -77.044265, "is_disabled": 0, "fusion_lat": 0.0, "lat": 38.921266333333335, "bike_id": "f285591419d43a63f4c7a2231ff35195", "fusion_lon": 0.0}, {"rental_uris": {"ios": "https://dc.lft.to/lastmile_qr_scan", "android": "https://dc.lft.to/lastmile_qr_scan"}, "type": "electric_bike", "name": "16e71981a90ccb50e80c6cf743979551", "is_reserved": 0, "lon": -76.98531266666667, "is_disabled": 0, "fusion_lat": 0.0, "lat": 38.883508166666665, "bike_id": "16e71981a90ccb50e80c6cf743979551", "fusion_lon": 0.0}, {"rental_uris": {"ios": "https://dc.lft.to/lastmile_qr_scan", "android": "https://dc.lft.to/lastmile_qr_scan"}, "type": "electric_bike", "name": "d5023c0800ea7809e60ab4f2ab786455", "is_reserved": 0, "lon": -76.93873583333334, "is_disabled": 0, "fusion_lat": 0.0, "lat": 38.97770116666667, "bike_id": "d5023c0800ea7809e60ab4f2ab786455", "fusion_lon": 0.0}, {"rental_uris": {"ios": "https://dc.lft.to/lastmile_qr_scan", "android": "https://dc.lft.to/lastmile_qr_scan"}, "type": "electric_scooter", "name": "fdb957eaef3431bef6718854cbf71127", "is_reserved": 0, "lon": -77.050642, "is_disabled": 0, "fusion_lat": 0.0, "lat": 38.923596, "bike_id": "fdb957eaef3431bef6718854cbf71127", "fusion_lon": 0.0}, {"rental_uris": {"ios": "https://dc.lft.to/lastmile_qr_scan", "android": "https://dc.lft.to/lastmile_qr_scan"}, "type": "electric_scooter", "name": "27935aa7dce2d23ca5a9f930a1937c1e", "is_reserved": 0, "lon": -77.05510766666667, "is_disabled": 0, "fusion_lat": 0.0, "lat": 38.928340666666664, "bike_id": "27935aa7dce2d23ca5a9f930a1937c1e", "fusion_lon": 0.0}, {"rental_uris": {"ios": "https://dc.lft.to/lastmile_qr_scan", "android": "https://dc.lft.to/lastmile_qr_scan"}, "type": "electric_bike", "name": "de1dc3ce63cca25671f4d2f75ee6c195", "is_reserved": 0, "lon": -76.95792716666666, "is_disabled": 0, "fusion_lat": 0.0, "lat": 38.980455, "bike_id": "de1dc3ce63cca25671f4d2f75ee6c195", "fusion_lon": 0.0}, {"rental_uris": {"ios": "https://dc.lft.to/lastmile_qr_scan", "android": "https://dc.lft.to/lastmile_qr_scan"}, "type": "electric_scooter", "name": "b434e388aeb661cd79cc817f71a40233", "is_reserved": 0, "lon": -76.937457, "is_disabled": 0, "fusion_lat": 0.0, "lat": 38.890079, "bike_id": "b434e388aeb661cd79cc817f71a40233", "fusion_lon": 0.0}, {"rental_uris": {"ios": "https://dc.lft.to/lastmile_qr_scan", "android": "https://dc.lft.to/lastmile_qr_scan"}, "type": "electric_scooter", "name": "d221dc13454dc24668fe81eecfd8d720", "is_reserved": 0, "lon": -77.02384466666666, "is_disabled": 0, "fusion_lat": 0.0, "lat": 38.93517283333333, "bike_id": "d221dc13454dc24668fe81eecfd8d720", "fusion_lon": 0.0}, {"rental_uris": {"ios": "https://dc.lft.to/lastmile_qr_scan", "android": "https://dc.lft.to/lastmile_qr_scan"}, "type": "electric_scooter", "name": "3e5dae2596d7506f597007b95880f8c3", "is_reserved": 0, "lon": -76.997916, "is_disabled": 0, "fusion_lat": 0.0, "lat": 38.8763095, "bike_id": "3e5dae2596d7506f597007b95880f8c3", "fusion_lon": 0.0}, {"rental_uris": {"ios": "https://dc.lft.to/lastmile_qr_scan", "android": "https://dc.lft.to/lastmile_qr_scan"},