{"data": {"bikes": [{"fusion_lat": 0.0, "name": "f34adffed9a65f256dd098fbfe4d6cb5", "is_disabled": 0, "rental_uris": {"android": "https://dc.lft.to/lastmile_qr_scan", "ios": "https://dc.lft.to/lastmile_qr_scan"}, "fusion_lon": 0.0, "lat": 38.9064935, "bike_id": "f34adffed9a65f256dd098fbfe4d6cb5", "type": "electric_scooter", "is_reserved": 0, "lon": -77.04333916666667}, {"fusion_lat": 0.0, "name": "06eab7d881353b7acc930667b0d758bc", "is_disabled": 0, "rental_uris": {"android": "https://dc.lft.to/lastmile_qr_scan", "ios": "https://dc.lft.to/lastmile_qr_scan"}, "fusion_lon": 0.0, "lat": 38.9242455, "bike_id": "06eab7d881353b7acc930667b0d758bc", "type": "electric_scooter", "is_reserved": 0, "lon": -77.02706616666667}, {"fusion_lat": 0.0, "name": "c51c977b9804645c1552e73e90fbc6c8", "is_disabled": 0, "rental_uris": {"android": "https://dc.lft.to/lastmile_qr_scan", "ios": "https://dc.lft.to/lastmile_qr_scan"}, "fusion_lon": 0.0, "lat": 38.90063333333333, "bike_id": "c51c977b9804645c1552e73e90fbc6c8", "type": "electric_scooter", "is_reserved": 0, "lon": -77.05069933333333}, {"fusion_lat": 0.0, "name": "d549d87cab80d42796657af0f2464924", "is_disabled": 0, "rental_uris": {"android": "https://dc.lft.to/lastmile_qr_scan", "ios": "https://dc.lft.to/lastmile_qr_scan"}, "fusion_lon": 0.0, "lat": 38.914882166666665, "bike_id": "d549d87cab80d42796657af0f2464924", "type": "electric_scooter", "is_reserved": 0, "lon": -77.04247616666666}, {"fusion_lat": 0.0, "name": "8dd018711f4471347b247d443fbc4530", "is_disabled": 0, "rental_uris": {"android": "https://dc.lft.to/lastmile_qr_scan", "ios": "https://dc.lft.to/lastmile_qr_scan"}, "fusion_lon": 0.0, "lat": 38.92154633333333, "bike_id": "8dd018711f4471347b247d443fbc4530", "type": "electric_scooter", "is_reserved": 0, "lon": -77.0436675}, {"fusion_lat": 0.0, "name": "a536b041a4af1dd13e76bbf40d349cb4", "is_disabled": 0, "rental_uris": {"android": "https://dc.lft.to/lastmile_qr_scan", "ios": "https://dc.lft.to/lastmile_qr_scan"}, "fusion_lon": 0.0, "lat": 38.907452666666664, "bike_id": "a536b041a4af1dd13e76bbf40d349cb4", "type": "electric_scooter", "is_reserved": 0, "lon": -77.0359135}, {"fusion_lat": 0.0, "name": "29ae4f114b68e90f0e8ab61db4bac79c", "is_disabled": 0, "rental_uris": {"android": "https://dc.lft.to/lastmile_qr_scan", "ios": "https://dc.lft.to/lastmile_qr_scan"}, "fusion_lon": 0.0, "lat": 38.91600416666667, "bike_id": "29ae4f114b68e90f0e8ab61db4bac79c", "type": "electric_scooter", "is_reserved": 0, "lon": -77.03201833333334}, {"fusion_lat": 0.0, "name": "bb096e886dca5dfc850b06329c7ee85a", "is_disabled": 0, "rental_uris": {"android": "https://dc.lft.to/lastmile_qr_scan", "ios": "https://dc.lft.to/lastmile_qr_scan"}, "fusion_lon": 0.0, "lat": 38.908117, "bike_id": "bb096e886dca5dfc850b06329c7ee85a", "type": "electric_scooter", "is_reserved": 0, "lon": -77.04168416666667}, {"fusion_lat": 0.0, "name": "4f0758a23322454ef6bf99bcb3840e25", "is_disabled": 0, "rental_uris": {"android": "https://dc.lft.to/lastmile_qr_scan", "ios": "https://dc.lft.to/lastmile_qr_scan"}, "fusion_lon": 0.0, "lat": 38.905719500000004, "bike_id": "4f0758a23322454ef6bf99bcb3840e25", "type": "electric_scooter", "is_reserved": 0, "lon": -77.0082375}, {"fusion_lat": 0.0, "name": "42ed51922fa1912c5b0cfb2d46f5de73", "is_disabled": 0, "rental_uris": {"android": "https://dc.lft.to/lastmile_qr_scan", "ios": "https://dc.lft.to/lastmile_qr_scan"}, "fusion_lon": 0.0, "lat": 38.89744233333333, "bike_id": "42ed51922fa1912c5b0cfb2d46f5de73", "type": "electric_scooter", "is_reserved": 0, "lon": -77.0328725}, {"fusion_lat": 0.0, "name": "166c000ff1e3529ec9afb2f3e7cbde6a", "is_disabled": 0, "rental_uris": {"android": "https://dc.lft.to/lastmile_qr_scan", "ios": "https://dc.lft.to/lastmile_qr_scan"}, "fusion_lon": 0.0, "lat": 38.912725333333334, "bike_id": "166c000ff1e3529ec9afb2f3e7cbde6a", "type": "electric_scooter", "is_reserved": 0, "lon": -77.04042733333333}, {"fusion_lat": 0.0, "name": "3c603cb927ba3b335826218e8b2217f2", "is_disabled": 0, "rental_uris": {"android": "https://dc.lft.to/lastmile_qr_scan", "ios": "https://dc.lft.to/lastmile_qr_scan"}, "fusion_lon": 0.0, "lat": 38.876675666666664, "bike_id": "3c603cb927ba3b335826218e8b2217f2", "type": "electric_scooter", "is_reserved": 0, "lon": -77.00317616666666}, {"fusion_lat": 0.0, "name": "25625c322ff71c398f7a949ad9cdd2f0", "is_disabled": 0, "rental_uris": {"android": "https://dc.lft.to/lastmile_qr_scan", "ios": "https://dc.lft.to/lastmile_qr_scan"}, "fusion_lon": 0.0, "lat": 38.897628166666664, "bike_id": "25625c322ff71c398f7a949ad9cdd2f0", "type": "electric_scooter", "is_reserved": 0, "lon": -77.04484066666667}, {"fusion_lat": 0.0, "name": "aa1aab9324db7197cbef062fbded2462", "is_disabled": 0, "rental_uris": {"android": "https://dc.lft.to/lastmile_qr_scan", "ios": "https://dc.lft.to/lastmile_qr_scan"}, "fusion_lon": 0.0, "lat": 38.9001755, "bike_id": "aa1aab9324db7197cbef062fbded2462", "type": "electric_scooter", "is_reserved": 0, "lon": -76.99978216666666}, {"fusion_lat": 0.0, "name": "ef6994d1c72db3bcdcbb6f243dc68b9b", "is_disabled": 0, "rental_uris": {"android": "https://dc.lft.to/lastmile_qr_scan", "ios": "https://dc.lft.to/lastmile_qr_scan"}, "fusion_lon": 0.0, "lat": 38.930519833333335, "bike_id": "ef6994d1c72db3bcdcbb6f243dc68b9b", "type": "electric_bike", "is_reserved": 0, "lon": -77.038884}, {"fusion_lat": 0.0, "name": "18af340cc00407ac96ee2390ce5eca47", "is_disabled": 0, "rental_uris": {"android": "https://dc.lft.to/lastmile_qr_scan", "ios": "https://dc.lft.to/lastmile_qr_scan"}, "fusion_lon": 0.0, "lat": 38.927683333333334, "bike_id": "18af340cc00407ac96ee2390ce5eca47", "type": "electric_scooter", "is_reserved": 0, "lon": -77.03244583333333}, {"fusion_lat": 0.0, "name": "29826febd02ded3dc9ddd29f2d7663d5", "is_disabled": 0, "rental_uris": {"android": "https://dc.lft.to/lastmile_qr_scan", "ios": "https://dc.lft.to/lastmile_qr_scan"}, "fusion_lon": 0.0, "lat": 38.928410666666664, "bike_id": "29826febd02ded3dc9ddd29f2d7663d5", "type": "electric_bike", "is_reserved": 0, "lon": -77.02050666666666}, {"fusion_lat": 0.0, "name": "97da7943b17f5d6001df4cefe195fbcc", "is_disabled": 0, "rental_uris": {"android": "https://dc.lft.to/lastmile_qr_scan", "ios": "https://dc.lft.to/lastmile_qr_scan"}, "fusion_lon": 0.0, "lat": 38.8990485, "bike_id": "97da7943b17f5d6001df4cefe195fbcc", "type": "electric_scooter", "is_reserved": 0, "lon": -76.99390133333333}, {"fusion_lat": 0.0, "name": "b710809e4d07394bdaace762ce6030dc", "is_disabled": 0, "rental_uris": {"android": "https://dc.lft.to/lastmile_qr_scan", "ios": "https://dc.lft.to/lastmile_qr_scan"}, "fusion_lon": 0.0, "lat": 38.916794, "bike_id": "b710809e4d07394bdaace762ce6030dc", "type": "electric_scooter", "is_reserved": 0, "lon": -77.01586283333333}, {"fusion_lat": 0.0, "name": "d275f2271d377a7765f825e34c04be3e", "is_disabled": 0, "rental_uris": {"android": "https://dc.lft.to/lastmile_qr_scan", "ios": "https://dc.lft.to/lastmile_qr_scan"}, "fusion_lon": 0.0, "lat": 38.877115333333336, "bike_id": "d275f2271d377a7765f825e34c04be3e", "type": "electric_scooter", "is_reserved": 0, "lon": -77.017653}, {"fusion_lat": 0.0, "name": "049cb548290d221f3d9629eff9a35dbd", "is_disabled": 0, "rental_uris": {"android": "https://dc.lft.to/lastmile_qr_scan", "ios": "https://dc.lft.to/lastmile_qr_scan"}, "fusion_lon": 0.0, "lat": 38.9112155, "bike_id": "049cb548290d221f3d9629eff9a35dbd", "type": "electric_scooter", "is_reserved": 0, "lon": -76.99762366666667}, {"fusion_lat": 0.0, "name": "3a1d875ed4698e8cb2aa5227b741e15c", "is_disabled": 0, "rental_uris": {"android": "https://dc.lft.to/lastmile_qr_scan", "ios": "https://dc.lft.to/lastmile_qr_scan"}, "fusion_lon": 0.0, "lat": 38.939516833333336, "bike_id": "3a1d875ed4698e8cb2aa5227b741e15c", "type": "electric_scooter", "is_reserved": 0, "lon": -77.021831}, {"fusion_lat": 0.0, "name": "27fbe4d198799ef5fcfe314adb2f6268", "is_disabled": 0, "rental_uris": {"android": "https://dc.lft.to/lastmile_qr_scan", "ios": "https://dc.lft.to/lastmile_qr_scan"}, "fusion_lon": 0.0, "lat": 38.89502, "bike_id": "27fbe4d198799ef5fcfe314adb2f6268", "type": "electric_scooter", "is_reserved": 0, "lon": -77.0396405}, {"fusion_lat": 0.0, "name": "916fd59fbf3e3f772c24a73516abdabe", "is_disabled": 0, "rental_uris": {"android": "https://dc.lft.to/lastmile_qr_scan", "ios": "https://dc.lft.to/lastmile_qr_scan"}, "fusion_lon": 0.0, "lat": 38.89841783333333, "bike_id": "916fd59fbf3e3f772c24a73516abdabe", "type": "electric_scooter", "is_reserved": 0, "lon": -77.02594816666667}, {"fusion_lat": 0.0, "name": "639ee255567b04458b61096e9d7e434c", "is_disabled": 0, "rental_uris": {"android": "https://dc.lft.to/lastmile_qr_scan", "ios": "https://dc.lft.to/lastmile_qr_scan"}, "fusion_lon": 0.0, "lat": 38.905158, "bike_id": "639ee255567b04458b61096e9d7e434c", "type": "electric_scooter", "is_reserved": 0, "lon": -77.064711}, {"fusion_lat": 0.0, "name": "969e8e5977c4a5fb0c55aa43cc35ab58", "is_disabled": 0, "rental_uris": {"android": "https://dc.lft.to/lastmile_qr_scan", "ios": "https://dc.lft.to/lastmile_qr_scan"}, "fusion_lon": 0.0, "lat": 38.90090566666667, "bike_id": "969e8e5977c4a5fb0c55aa43cc35ab58", "type": "electric_scooter", "is_reserved": 0, "lon": -76.983382}, {"fusion_lat": 0.0, "name": "f2b6d3839554485f6cada3785bcb517f", "is_disabled": 0, "rental_uris": {"android": "https://dc.lft.to/lastmile_qr_scan", "ios": "https://dc.lft.to/lastmile_qr_scan"}, "fusion_lon": 0.0, "lat": 38.911240666666664, "bike_id": "f2b6d3839554485f6cada3785bcb517f", "type": "electric_scooter", "is_reserved": 0, "lon": -76.99755933333333}, {"fusion_lat": 0.0, "name": "ea1c0d3b99c26b5325b0953f8474e5f9", "is_disabled": 0, "rental_uris": {"android": "https://dc.lft.to/lastmile_qr_scan", "ios": "https://dc.lft.to/lastmile_qr_scan"}, "fusion_lon": 0.0, "lat": 38.93131433333333, "bike_id": "ea1c0d3b99c26b5325b0953f8474e5f9", "type": "electric_scooter", "is_reserved": 0, "lon": -77.038573}, {"fusion_lat": 0.0, "name": "52cc856aecf907977a5d69ff7558ba6e", "is_disabled": 0, "rental_uris": {"android": "https://dc.lft.to/lastmile_qr_scan", "ios": "https://dc.lft.to/lastmile_qr_scan"}, "fusion_lon": 0.0, "lat": 38.956295, "bike_id": "52cc856aecf907977a5d69ff7558ba6e", "type": "electric_bike", "is_reserved": 0, "lon": -76.93902666666666}, {"fusion_lat": 0.0, "name": "2d2bc273f82b7c8834847d03356d2b73", "is_disabled": 0, "rental_uris": {"android": "https://dc.lft.to/lastmile_qr_scan", "ios": "https://dc.lft.to/lastmile_qr_scan"}, "fusion_lon": 0.0, "lat": 38.9197815, "bike_id": "2d2bc273f82b7c8834847d03356d2b73", "type": "electric_scooter", "is_reserved": 0, "lon": -77.0258565}, {"fusion_lat": 0.0, "name": "8ac3b83a0ee9ddc0022d3c689c91477c", "is_disabled": 0, "rental_uris": {"android": "https://dc.lft.to/lastmile_qr_scan", "ios": "https://dc.lft.to/lastmile_qr_scan"}, "fusion_lon": 0.0, "lat": 38.91481133333333, "bike_id": "8ac3b83a0ee9ddc0022d3c689c91477c", "type": "electric_scooter", "is_reserved": 0, "lon": -77.04608666666667}, {"fusion_lat": 0.0, "name": "58985e5600a8bb8e873bf2174bb86eab", "is_disabled": 0, "rental_uris": {"android": "https://dc.lft.to/lastmile_qr_scan", "ios": "https://dc.lft.to/lastmile_qr_scan"}, "fusion_lon": 0.0, "lat": 38.895283166666665, "bike_id": "58985e5600a8bb8e873bf2174bb86eab", "type": "electric_scooter", "is_reserved": 0, "lon": -76.93411366666666}, {"fusion_lat": 0.0, "name": "e717836faefb9a5c771d7645e31bd277", "is_disabled": 0, "rental_uris": {"android": "https://dc.lft.to/lastmile_qr_scan", "ios": "https://dc.lft.to/lastmile_qr_scan"}, "fusion_lon": 0.0, "lat": 38.87666083333333, "bike_id": "e717836faefb9a5c771d7645e31bd277", "type": "electric_scooter", "is_reserved": 0, "lon": -77.00426816666666}, {"fusion_lat": 0.0, "name": "9af8d6bbe56304400d5a3159d9f7ea03", "is_disabled": 0, "rental_uris": {"android": "https://dc.lft.to/lastmile_qr_scan", "ios": "https://dc.lft.to/lastmile_qr_scan"}, "fusion_lon": 0.0, "lat": 38.88747383333333, "bike_id": "9af8d6bbe56304400d5a3159d9f7ea03", "type": "electric_scooter", "is_reserved": 0, "lon": -76.9985315}, {"fusion_lat": 0.0, "name": "d5b21021eeadb8152f47ec820fc73444", "is_disabled": 0, "rental_uris": {"android": "https://dc.lft.to/lastmile_qr_scan", "ios": "https://dc.lft.to/lastmile_qr_scan"}, "fusion_lon": 0.0, "lat": 38.901759166666665, "bike_id": "d5b21021eeadb8152f47ec820fc73444", "type": "electric_scooter", "is_reserved": 0, "lon": -76.98078566666666}, {"fusion_lat": 0.0, "name": "f278d759ab5888e2acba5eb722e12d05", "is_disabled": 0, "rental_uris": {"android": "https://dc.lft.to/lastmile_qr_scan", "ios": "https://dc.lft.to/lastmile_qr_scan"}, "fusion_lon": 0.0, "lat": 38.905900833333334, "bike_id": "f278d759ab5888e2acba5eb722e12d05", "type": "electric_scooter", "is_reserved": 0, "lon": -77.0161855}, {"fusion_lat": 0.0, "name": "435efd6758acde5befd884916d655676", "is_disabled": 0, "rental_uris": {"android": "https://dc.lft.to/lastmile_qr_scan", "ios": "https://dc.lft.to/lastmile_qr_scan"}, "fusion_lon": 0.0, "lat": 38.92998566666667, "bike_id": "435efd6758acde5befd884916d655676", "type": "electric_scooter", "is_reserved": 0, "lon": -77.03804516666666}, {"fusion_lat": 0.0, "name": "ef6de8491e374db140ec994501051eac", "is_disabled": 0, "rental_uris": {"android": "https://dc.lft.to/lastmile_qr_scan", "ios": "https://dc.lft.to/lastmile_qr_scan"}, "fusion_lon": 0.0, "lat": 38.90816183333333, "bike_id": "ef6de8491e374db140ec994501051eac", "type": "electric_scooter", "is_reserved": 0, "lon": -77.04159433333334}, {"fusion_lat": 0.0, "name": "1f60a5358d8bad0096c6de5fad7d249c", "is_disabled": 0, "rental_uris": {"android": "https://dc.lft.to/lastmile_qr_scan", "ios": "https://dc.lft.to/lastmile_qr_scan"}, "fusion_lon": 0.0, "lat": 38.929913166666665, "bike_id": "1f60a5358d8bad0096c6de5fad7d249c", "type": "electric_scooter", "is_reserved": 0, "lon": -77.034784}, {"fusion_lat": 0.0, "name": "9c6b01a6e5dde5018a1bedb9f869f060", "is_disabled": 0, "rental_uris": {"android": "https://dc.lft.to/lastmile_qr_scan", "ios": "https://dc.lft.to/lastmile_qr_scan"}, "fusion_lon": 0.0, "lat": 38.83606533333333, "bike_id": "9c6b01a6e5dde5018a1bedb9f869f060", "type": "electric_bike", "is_reserved": 0, "lon": -77.00383083333334}, {"fusion_lat": 0.0, "name": "68f1cce6fff9d0f5dc60a7728da92410", "is_disabled": 0, "rental_uris": {"android": "https://dc.lft.to/lastmile_qr_scan", "ios": "https://dc.lft.to/lastmile_qr_scan"}, "fusion_lon": 0.0, "lat": 38.930682, "bike_id": "68f1cce6fff9d0f5dc60a7728da92410", "type": "electric_scooter", "is_reserved": 0, "lon": -77.03158816666667}, {"fusion_lat": 0.0, "name": "e8a8ed069c4e1a27fc131003a0580e4a", "is_disabled": 0, "rental_uris": {"android": "https://dc.lft.to/lastmile_qr_scan", "ios": "https://dc.lft.to/lastmile_qr_scan"}, "fusion_lon": 0.0, "lat": 38.88413583333333, "bike_id": "e8a8ed069c4e1a27fc131003a0580e4a", "type": "electric_scooter", "is_reserved": 0, "lon": -77.0298885}, {"fusion_lat": 0.0, "name": "be60f0e63bbed174c154a12c9f2daed2", "is_disabled": 0, "rental_uris": {"android": "https://dc.lft.to/lastmile_qr_scan", "ios": "https://dc.lft.to/lastmile_qr_scan"}, "fusion_lon": 0.0, "lat": 38.909621333333334, "bike_id": "be60f0e63bbed174c154a12c9f2daed2", "type": "electric_scooter", "is_reserved": 0, "lon": -77.03943383333333}, {"fusion_lat": 0.0, "name": "7f9c5eb7a02b75ca38e89fa9abe0bdd2", "is_disabled": 0, "rental_uris": {"android": "https://dc.lft.to/lastmile_qr_scan", "ios": "https://dc.lft.to/lastmile_qr_scan"}, "fusion_lon": 0.0, "lat": 38.9043905, "bike_id": "7f9c5eb7a02b75ca38e89fa9abe0bdd2", "type": "electric_scooter", "is_reserved": 0, "lon": -76.97953433333333}, {"fusion_lat": 0.0, "name": "e023d7d4427dfd91afb6b1de01a5b7ba", "is_disabled": 0, "rental_uris": {"android": "https://dc.lft.to/lastmile_qr_scan", "ios": "https://dc.lft.to/lastmile_qr_scan"}, "fusion_lon": 0.0, "lat": 38.90791216666667, "bike_id": "e023d7d4427dfd91afb6b1de01a5b7ba", "type": "electric_scooter", "is_reserved": 0, "lon": -77.04337283333334}, {"fusion_lat": 0.0, "name": "99e372e50ae195f0491dd6213ab22e7f", "is_disabled": 0, "rental_uris": {"android": "https://dc.lft.to/lastmile_qr_scan", "ios": "https://dc.lft.to/lastmile_qr_scan"}, "fusion_lon": 0.0, "lat": 38.879665, "bike_id": "99e372e50ae195f0491dd6213ab22e7f", "type": "electric_bike", "is_reserved": 0, "lon": -76.9161645}, {"fusion_lat": 0.0, "name": "787153fda384dcea1e50301e1b38df9a", "is_disabled": 0, "rental_uris": {"android": "https://dc.lft.to/lastmile_qr_scan", "ios": "https://dc.lft.to/lastmile_qr_scan"}, "fusion_lon": 0.0, "lat": 38.92795133333333, "bike_id": "787153fda384dcea1e50301e1b38df9a", "type": "electric_scooter", "is_reserved": 0, "lon": -77.02459583333334}, {"fusion_lat": 0.0, "name": "65272ef1309cd6949ab07caf66f28d53", "is_disabled": 0, "rental_uris": {"android": "https://dc.lft.to/lastmile_qr_scan", "ios": "https://dc.lft.to/lastmile_qr_scan"}, "fusion_lon": 0.0, "lat": 38.9009105, "bike_id": "65272ef1309cd6949ab07caf66f28d53", "type": "electric_scooter", "is_reserved": 0, "lon": -76.98324683333334}, {"fusion_lat": 0.0, "name": "e10d391f950f8ea833e05b7798e564c5", "is_disabled": 0, "rental_uris": {"android": "https://dc.lft.to/lastmile_qr_scan", "ios": "https://dc.lft.to/lastmile_qr_scan"}, "fusion_lon": 0.0, "lat": 38.95604633333333, "bike_id": "e10d391f950f8ea833e05b7798e564c5", "type": "electric_scooter", "is_reserved": 0, "lon": -77.0335555}, {"fusion_lat": 0.0, "name": "4fccc5d13b7798b69c9a96834da71b19", "is_disabled": 0, "rental_uris": {"android": "https://dc.lft.to/lastmile_qr_scan", "ios": "https://dc.lft.to/lastmile_qr_scan"}, "fusion_lon": 0.0, "lat": 38.91559216666667, "bike_id": "4fccc5d13b7798b69c9a96834da71b19", "type": "electric_scooter", "is_reserved": 0, "lon": -77.0313785}, {"fusion_lat": 0.0, "name": "ac3123fd2c9696758e4de5fe06268f37", "is_disabled": 0, "rental_uris": {"android": "https://dc.lft.to/lastmile_qr_scan", "ios": "https://dc.lft.to/lastmile_qr_scan"}, "fusion_lon": 0.0, "lat": 38.92242016666667, "bike_id": "ac3123fd2c9696758e4de5fe06268f37", "type": "electric_scooter", "is_reserved": 0, "lon": -77.036601}, {"fusion_lat": 0.0, "name": "ced461ad98d655eda3e8b1138636525b", "is_disabled": 0, "rental_uris": {"android": "https://dc.lft.to/lastmile_qr_scan", "ios": "https://dc.lft.to/lastmile_qr_scan"}, "fusion_lon": 0.0, "lat": 38.908083, "bike_id": "ced461ad98d655eda3e8b1138636525b", "type": "electric_scooter", "is_reserved": 0, "lon": -77.034445}, {"fusion_lat": 0.0, "name": "47e53796df509c9f14434ca1fb5e548f", "is_disabled": 0, "rental_uris": {"android": "https://dc.lft.to/lastmile_qr_scan", "ios": "https://dc.lft.to/lastmile_qr_scan"}, "fusion_lon": 0.0, "lat": 38.899619, "bike_id": "47e53796df509c9f14434ca1fb5e548f", "type": "electric_scooter", "is_reserved": 0, "lon": -77.0159845}, {"fusion_lat": 0.0, "name": "5a418bc65bf941ce154447b1c88e4934", "is_disabled": 0, "rental_uris": {"android": "https://dc.lft.to/lastmile_qr_scan", "ios": "https://dc.lft.to/lastmile_qr_scan"}, "fusion_lon": 0.0, "lat": 38.91925783333333, "bike_id": "5a418bc65bf941ce154447b1c88e4934", "type": "electric_scooter", "is_reserved": 0, "lon": -77.0322495}, {"fusion_lat": 0.0, "name": "665d0a9c7cd9605cd73ff221ab87fc4b", "is_disabled": 0, "rental_uris": {"android": "https://dc.lft.to/lastmile_qr_scan", "ios": "https://dc.lft.to/lastmile_qr_scan"}, "fusion_lon": 0.0, "lat": 38.91710233333333, "bike_id": "665d0a9c7cd9605cd73ff221ab87fc4b", "type": "electric_scooter", "is_reserved": 0, "lon": -76.97663716666666}, {"fusion_lat": 0.0, "name": "b187cb3b0b3b1f634c8ef8e700136e16", "is_disabled": 0, "rental_uris": {"android": "https://dc.lft.to/lastmile_qr_scan", "ios": "https://dc.lft.to/lastmile_qr_scan"}, "fusion_lon": 0.0, "lat": 38.9077055, "bike_id": "b187cb3b0b3b1f634c8ef8e700136e16", "type": "electric_scooter", "is_reserved": 0, "lon": -77.03856416666666}, {"fusion_lat": 0.0, "name": "34c679a77fcd64ef70d18877931580bb", "is_disabled": 0, "rental_uris": {"android": "https://dc.lft.to/lastmile_qr_scan", "ios": "https://dc.lft.to/lastmile_qr_scan"}, "fusion_lon": 0.0, "lat": 38.9208505, "bike_id": "34c679a77fcd64ef70d18877931580bb", "type": "electric_scooter", "is_reserved": 0, "lon": -77.02413283333334}, {"fusion_lat": 0.0, "name": "b795c590183522d1deafa94148445c9e", "is_disabled": 0, "rental_uris": {"android": "https://dc.lft.to/lastmile_qr_scan", "ios": "https://dc.lft.to/lastmile_qr_scan"}, "fusion_lon": 0.0, "lat": 38.9001445, "bike_id": "b795c590183522d1deafa94148445c9e", "type": "electric_scooter", "is_reserved": 0, "lon": -76.98810016666667}, {"fusion_lat": 0.0, "name": "98dbe41899a3ed6fd36c54352be655be", "is_disabled": 0, "rental_uris": {"android": "https://dc.lft.to/lastmile_qr_scan", "ios": "https://dc.lft.to/lastmile_qr_scan"}, "fusion_lon": 0.0, "lat": 38.8535815, "bike_id": "98dbe41899a3ed6fd36c54352be655be", "type": "electric_bike", "is_reserved": 0, "lon": -77.13462333333334}, {"fusion_lat": 0.0, "name": "1de41ea1a4fe4e4a64824171926d9803", "is_disabled": 0, "rental_uris": {"android": "https://dc.lft.to/lastmile_qr_scan", "ios": "https://dc.lft.to/lastmile_qr_scan"}, "fusion_lon": 0.0, "lat": 38.90730766666667, "bike_id": "1de41ea1a4fe4e4a64824171926d9803", "type": "electric_scooter", "is_reserved": 0, "lon": -77.0330755}, {"fusion_lat": 0.0, "name": "e5bcf0aae938a6fd8935cc4f8087276f", "is_disabled": 0, "rental_uris": {"android": "https://dc.lft.to/lastmile_qr_scan", "ios": "https://dc.lft.to/lastmile_qr_scan"}, "fusion_lon": 0.0, "lat": 38.92651266666667, "bike_id": "e5bcf0aae938a6fd8935cc4f8087276f", "type": "electric_scooter", "is_reserved": 0, "lon": -77.04316033333333}, {"fusion_lat": 0.0, "name": "533aed7eda81591852d9e612fd6814e8", "is_disabled": 0, "rental_uris": {"android": "https://dc.lft.to/lastmile_qr_scan", "ios": "https://dc.lft.to/lastmile_qr_scan"}, "fusion_lon": 0.0, "lat": 38.9542335, "bike_id": "533aed7eda81591852d9e612fd6814e8", "type": "electric_scooter", "is_reserved": 0, "lon": -77.027644}, {"fusion_lat": 0.0, "name": "e676c2149caeea52b60aebddec38d448", "is_disabled": 0, "rental_uris": {"android": "https://dc.lft.to/lastmile_qr_scan", "ios": "https://dc.lft.to/lastmile_qr_scan"}, "fusion_lon": 0.0, "lat": 38.8698655, "bike_id": "e676c2149caeea52b60aebddec38d448", "type": "electric_scooter", "is_reserved": 0, "lon": -76.97734866666667}, {"fusion_lat": 0.0, "name": "b2ce063e6caced3c1cbcb7bf2b3bbd89", "is_disabled": 0, "rental_uris": {"android": "https://dc.lft.to/lastmile_qr_scan", "ios": "https://dc.lft.to/lastmile_qr_scan"}, "fusion_lon": 0.0, "lat": 38.9068175, "bike_id": "b2ce063e6caced3c1cbcb7bf2b3bbd89", "type": "electric_scooter", "is_reserved": 0, "lon": -77.03650516666667}, {"fusion_lat": 0.0, "name": "1acf46dd8cedefa01881644d4264fcf0", "is_disabled": 0, "rental_uris": {"android": "https://dc.lft.to/lastmile_qr_scan", "ios": "https://dc.lft.to/lastmile_qr_scan"}, "fusion_lon": 0.0, "lat": 38.916837, "bike_id": "1acf46dd8cedefa01881644d4264fcf0", "type": "electric_scooter", "is_reserved": 0, "lon": -77.02976083333333}, {"fusion_lat": 0.0, "name": "35a771b60660b4cd05fefac65dc06b03", "is_disabled": 0, "rental_uris": {"android": "https://dc.lft.to/lastmile_qr_scan", "ios": "https://dc.lft.to/lastmile_qr_scan"}, "fusion_lon": 0.0, "lat": 38.8973565, "bike_id": "35a771b60660b4cd05fefac65dc06b03", "type": "electric_scooter", "is_reserved": 0, "lon": -77.05529866666667}, {"fusion_lat": 0.0, "name": "0ef957197e4557bcc1724606633b44c4", "is_disabled": 0, "rental_uris": {"android": "https://dc.lft.to/lastmile_qr_scan", "ios": "https://dc.lft.to/lastmile_qr_scan"}, "fusion_lon": 0.0, "lat": 38.847556, "bike_id": "0ef957197e4557bcc1724606633b44c4", "type": "electric_scooter", "is_reserved": 0, "lon": -76.9950425}, {"fusion_lat": 0.0, "name": "616df592107dd9c5e60331b0ffbcbcf7", "is_disabled": 0, "rental_uris": {"android": "https://dc.lft.to/lastmile_qr_scan", "ios": "https://dc.lft.to/lastmile_qr_scan"}, "fusion_lon": 0.0, "lat": 38.91599383333333, "bike_id": "616df592107dd9c5e60331b0ffbcbcf7", "type": "electric_scooter", "is_reserved": 0, "lon": -76.99363116666666}, {"fusion_lat": 0.0, "name": "f79144afb80930d8f393d70252f447ad", "is_disabled": 0, "rental_uris": {"android": "https://dc.lft.to/lastmile_qr_scan", "ios": "https://dc.lft.to/lastmile_qr_scan"}, "fusion_lon": 0.0, "lat": 38.9170475, "bike_id": "f79144afb80930d8f393d70252f447ad", "type": "electric_scooter", "is_reserved": 0, "lon": -77.02804033333334}, {"fusion_lat": 0.0, "name": "0f03c41e423d322bebbb32dbea7b761a", "is_disabled": 0, "rental_uris": {"android": "https://dc.lft.to/lastmile_qr_scan", "ios": "https://dc.lft.to/lastmile_qr_scan"}, "fusion_lon": 0.0, "lat": 38.9129065, "bike_id": "0f03c41e423d322bebbb32dbea7b761a", "type": "electric_scooter", "is_reserved": 0, "lon": -77.02385566666666}, {"fusion_lat": 0.0, "name": "17a89e031140079279236c8a9e190533", "is_disabled": 0, "rental_uris": {"android": "https://dc.lft.to/lastmile_qr_scan", "ios": "https://dc.lft.to/lastmile_qr_scan"}, "fusion_lon": 0.0, "lat": 38.897178, "bike_id": "17a89e031140079279236c8a9e190533", "type": "electric_scooter", "is_reserved": 0, "lon": -77.0272945}, {"fusion_lat": 0.0, "name": "7bc70e10ad04a335a006bcc337ccef6f", "is_disabled": 0, "rental_uris": {"android": "https://dc.lft.to/lastmile_qr_scan", "ios": "https://dc.lft.to/lastmile_qr_scan"}, "fusion_lon": 0.0, "lat": 38.916914166666665, "bike_id": "7bc70e10ad04a335a006bcc337ccef6f", "type": "electric_scooter", "is_reserved": 0, "lon": -77.0228365}, {"fusion_lat": 0.0, "name": "5173f516a85ba4b25fff577e6f241ed7", "is_disabled": 0, "rental_uris": {"android": "https://dc.lft.to/lastmile_qr_scan", "ios": "https://dc.lft.to/lastmile_qr_scan"}, "fusion_lon": 0.0, "lat": 38.86675566666667, "bike_id": "5173f516a85ba4b25fff577e6f241ed7", "type": "electric_scooter", "is_reserved": 0, "lon": -77.01063566666667}, {"fusion_lat": 0.0, "name": "6cb6b82d374d3c35c79d5123bfa3670c", "is_disabled": 0, "rental_uris": {"android": "https://dc.lft.to/lastmile_qr_scan", "ios": "https://dc.lft.to/lastmile_qr_scan"}, "fusion_lon": 0.0, "lat": 38.9185075, "bike_id": "6cb6b82d374d3c35c79d5123bfa3670c", "type": "electric_scooter", "is_reserved": 0, "lon": -77.0352755}, {"fusion_lat": 0.0, "name": "2e2d20c9cda06885c9b4553dd819245e", "is_disabled": 0, "rental_uris": {"android": "https://dc.lft.to/lastmile_qr_scan", "ios": "https://dc.lft.to/lastmile_qr_scan"}, "fusion_lon": 0.0, "lat": 38.92541883333333, "bike_id": "2e2d20c9cda06885c9b4553dd819245e", "type": "electric_scooter", "is_reserved": 0, "lon": -77.052504}, {"fusion_lat": 0.0, "name": "307e34904070acd1bd7d0f4adb287955", "is_disabled": 0, "rental_uris": {"android": "https://dc.lft.to/lastmile_qr_scan", "ios": "https://dc.lft.to/lastmile_qr_scan"}, "fusion_lon": 0.0, "lat": 38.917019, "bike_id": "307e34904070acd1bd7d0f4adb287955", "type": "electric_scooter", "is_reserved": 0, "lon": -77.0427515}, {"fusion_lat": 0.0, "name": "1a5eefb31b25f187566f478e7a3d8920", "is_disabled": 0, "rental_uris": {"android": "https://dc.lft.to/lastmile_qr_scan", "ios": "https://dc.lft.to/lastmile_qr_scan"}, "fusion_lon": 0.0, "lat": 38.8600845, "bike_id": "1a5eefb31b25f187566f478e7a3d8920", "type": "electric_scooter", "is_reserved": 0, "lon": -76.9852035}, {"fusion_lat": 0.0, "name": "04197f69d7f8abb8c70c6c01e3d6c7f6", "is_disabled": 0, "rental_uris": {"android": "https://dc.lft.to/lastmile_qr_scan", "ios": "https://dc.lft.to/lastmile_qr_scan"}, "fusion_lon": 0.0, "lat": 38.92672266666667, "bike_id": "04197f69d7f8abb8c70c6c01e3d6c7f6", "type": "electric_scooter", "is_reserved": 0, "lon": -77.030341}, {"fusion_lat": 0.0, "name": "3735df1913fae34921d67d08f79e1167", "is_disabled": 0, "rental_uris": {"android": "https://dc.lft.to/lastmile_qr_scan", "ios": "https://dc.lft.to/lastmile_qr_scan"}, "fusion_lon": 0.0, "lat": 38.926032166666666, "bike_id": "3735df1913fae34921d67d08f79e1167", "type": "electric_scooter", "is_reserved": 0, "lon": -77.02158083333333}, {"fusion_lat": 0.0, "name": "466967bb283672bd140da487cae59c35", "is_disabled": 0, "rental_uris": {"android": "https://dc.lft.to/lastmile_qr_scan", "ios": "https://dc.lft.to/lastmile_qr_scan"}, "fusion_lon": 0.0, "lat": 38.904554, "bike_id": "466967bb283672bd140da487cae59c35", "type": "electric_scooter", "is_reserved": 0, "lon": -77.0281395}, {"fusion_lat": 0.0, "name": "0dfb13df2941535a6af74a75ffec5417", "is_disabled": 0, "rental_uris": {"android": "https://dc.lft.to/lastmile_qr_scan", "ios": "https://dc.lft.to/lastmile_qr_scan"}, "fusion_lon": 0.0, "lat": 38.895777, "bike_id": "0dfb13df2941535a6af74a75ffec5417", "type": "electric_scooter", "is_reserved": 0, "lon": -76.98328316666667}, {"fusion_lat": 0.0, "name": "9e930aa41362386dfed95a6bd8cb054f", "is_disabled": 0, "rental_uris": {"android": "https://dc.lft.to/lastmile_qr_scan", "ios": "https://dc.lft.to/lastmile_qr_scan"}, "fusion_lon": 0.0, "lat": 38.959285666666666, "bike_id": "9e930aa41362386dfed95a6bd8cb054f", "type": "electric_bike", "is_reserved": 0, "lon": -76.92840383333333}, {"fusion_lat": 0.0, "name": "ebe71c601ac5b3207c6aa4edb07b507f", "is_disabled": 0, "rental_uris": {"android": "https://dc.lft.to/lastmile_qr_scan", "ios": "https://dc.lft.to/lastmile_qr_scan"}, "fusion_lon": 0.0, "lat": 38.8877055, "bike_id": "ebe71c601ac5b3207c6aa4edb07b507f", "type": "electric_scooter", "is_reserved": 0, "lon": -76.991631}, {"fusion_lat": 0.0, "name": "5981ddbeaf0dee89e1f84eb0a6b7155d", "is_disabled": 0, "rental_uris": {"android": "https://dc.lft.to/lastmile_qr_scan", "ios": "https://dc.lft.to/lastmile_qr_scan"}, "fusion_lon": 0.0, "lat": 38.920672833333334, "bike_id": "5981ddbeaf0dee89e1f84eb0a6b7155d", "type": "electric_scooter", "is_reserved": 0, "lon": -77.0437895}, {"fusion_lat": 0.0, "name": "5053ce8f5e53ae062f0b3cd52e2757d3", "is_disabled": 0, "rental_uris": {"android": "https://dc.lft.to/lastmile_qr_scan", "ios": "https://dc.lft.to/lastmile_qr_scan"}, "fusion_lon": 0.0, "lat": 38.900334, "bike_id": "5053ce8f5e53ae062f0b3cd52e2757d3", "type": "electric_scooter", "is_reserved": 0, "lon": -76.99639333333333}, {"fusion_lat": 0.0, "name": "524a57fbad02508971346d807d043e29", "is_disabled": 0, "rental_uris": {"android": "https://dc.lft.to/lastmile_qr_scan", "ios": "https://dc.lft.to/lastmile_qr_scan"}, "fusion_lon": 0.0, "lat": 38.877517833333336, "bike_id": "524a57fbad02508971346d807d043e29", "type": "electric_scooter", "is_reserved": 0, "lon": -77.00344366666667}, {"fusion_lat": 0.0, "name": "0ec1cf52992de2774080faca42e45b43", "is_disabled": 0, "rental_uris": {"android": "https://dc.lft.to/lastmile_qr_scan", "ios": "https://dc.lft.to/lastmile_qr_scan"}, "fusion_lon": 0.0, "lat": 38.90533416666667, "bike_id": "0ec1cf52992de2774080faca42e45b43", "type": "electric_bike", "is_reserved": 0, "lon": -76.99806216666667}, {"fusion_lat": 0.0, "name": "9acb81f1d4cb52fe04a6a917a01bc05d", "is_disabled": 0, "rental_uris": {"android": "https://dc.lft.to/lastmile_qr_scan", "ios": "https://dc.lft.to/lastmile_qr_scan"}, "fusion_lon": 0.0, "lat": 38.89726133333333, "bike_id": "9acb81f1d4cb52fe04a6a917a01bc05d", "type": "electric_scooter", "is_reserved": 0, "lon": -77.0191745}, {"fusion_lat": 0.0, "name": "db0793874da6c815bf5ab72bc3fc6f83", "is_disabled": 0, "rental_uris": {"android": "https://dc.lft.to/lastmile_qr_scan", "ios": "https://dc.lft.to/lastmile_qr_scan"}, "fusion_lon": 0.0, "lat": 38.909732166666664, "bike_id": "db0793874da6c815bf5ab72bc3fc6f83", "type": "electric_scooter", "is_reserved": 0, "lon": -77.03211083333333}, {"fusion_lat": 0.0, "name": "6c2915c76a5c691303174e519266ff69", "is_disabled": 0, "rental_uris": {"android": "https://dc.lft.to/lastmile_qr_scan", "ios": "https://dc.lft.to/lastmile_qr_scan"}, "fusion_lon": 0.0, "lat": 38.9033775, "bike_id": "6c2915c76a5c691303174e519266ff69", "type": "electric_scooter", "is_reserved": 0, "lon": -77.04483233333333}, {"fusion_lat": 0.0, "name": "a44dd67c18f2cfb51884ec613bfc7ba3", "is_disabled": 0, "rental_uris": {"android": "https://dc.lft.to/lastmile_qr_scan", "ios": "https://dc.lft.to/lastmile_qr_scan"}, "fusion_lon": 0.0, "lat": 38.90806416666667, "bike_id": "a44dd67c18f2cfb51884ec613bfc7ba3", "type": "electric_scooter", "is_reserved": 0, "lon": -77.02954816666667}, {"fusion_lat": 0.0, "name": "b6e56bf1631b479c3e636a81c64de40f", "is_disabled": 0, "rental_uris": {"android": "https://dc.lft.to/lastmile_qr_scan", "ios": "https://dc.lft.to/lastmile_qr_scan"}, "fusion_lon": 0.0, "lat": 38.90927583333333, "bike_id": "b6e56bf1631b479c3e636a81c64de40f", "type": "electric_scooter", "is_reserved": 0, "lon": -77.02814433333333}, {"fusion_lat": 0.0, "name": "b212294267162771083f472a06331f1f", "is_disabled": 0, "rental_uris": {"android": "https://dc.lft.to/lastmile_qr_scan", "ios": "https://dc.lft.to/lastmile_qr_scan"}, "fusion_lon": 0.0, "lat": 38.927230333333334, "bike_id": "b212294267162771083f472a06331f1f", "type": "electric_bike", "is_reserved": 0, "lon": -77.02958316666667}, {"fusion_lat": 0.0, "name": "d837f112532e79b1d5a48b75c20f5e99", "is_disabled": 0, "rental_uris": {"android": "https://dc.lft.to/lastmile_qr_scan", "ios": "https://dc.lft.to/lastmile_qr_scan"}, "fusion_lon": 0.0, "lat": 38.9125845, "bike_id": "d837f112532e79b1d5a48b75c20f5e99", "type": "electric_scooter", "is_reserved": 0, "lon": -77.02818983333333}, {"fusion_lat": 0.0, "name": "9b451d6e4a92409eb5f4430d789f3f95", "is_disabled": 0, "rental_uris": {"android": "https://dc.lft.to/lastmile_qr_scan", "ios": "https://dc.lft.to/lastmile_qr_scan"}, "fusion_lon": 0.0, "lat": 38.895537, "bike_id": "9b451d6e4a92409eb5f4430d789f3f95", "type": "electric_scooter", "is_reserved": 0, "lon": -76.94875333333333}, {"fusion_lat": 0.0, "name": "0f444e5c2d31c911ba51eb37f540ebb8", "is_disabled": 0, "rental_uris": {"android": "https://dc.lft.to/lastmile_qr_scan", "ios": "https://dc.lft.to/lastmile_qr_scan"}, "fusion_lon": 0.0, "lat": 38.92315416666667, "bike_id": "0f444e5c2d31c911ba51eb37f540ebb8", "type": "electric_scooter", "is_reserved": 0, "lon": -77.04021533333334}, {"fusion_lat": 0.0, "name": "fc75ec058ec8181995782561cc7bb346", "is_disabled": 0, "rental_uris": {"android": "https://dc.lft.to/lastmile_qr_scan", "ios": "https://dc.lft.to/lastmile_qr_scan"}, "fusion_lon": 0.0, "lat": 38.89888416666667, "bike_id": "fc75ec058ec8181995782561cc7bb346", "type": "electric_scooter", "is_reserved": 0, "lon": -77.03950233333333}, {"fusion_lat": 0.0, "name": "83977d22748ca3556b41a0427323a95c", "is_disabled": 0, "rental_uris": {"android": "https://dc.lft.to/lastmile_qr_scan", "ios": "https://dc.lft.to/lastmile_qr_scan"}, "fusion_lon": 0.0, "lat": 38.917393833333335, "bike_id": "83977d22748ca3556b41a0427323a95c", "type": "electric_scooter", "is_reserved": 0, "lon": -77.02304266666667}, {"fusion_lat": 0.0, "name": "42d92f8fa63cfec9beb4fb88a6ae4787", "is_disabled": 0, "rental_uris": {"android": "https://dc.lft.to/lastmile_qr_scan", "ios": "https://dc.lft.to/lastmile_qr_scan"}, "fusion_lon": 0.0, "lat": 38.877492833333335, "bike_id": "42d92f8fa63cfec9beb4fb88a6ae4787", "type": "electric_scooter", "is_reserved": 0, "lon": -77.0026725}, {"fusion_lat": 0.0, "name": "a69ac7a70e815101498a4c48cdd32ef0", "is_disabled": 0, "rental_uris": {"android": "https://dc.lft.to/lastmile_qr_scan", "ios": "https://dc.lft.to/lastmile_qr_scan"}, "fusion_lon": 0.0, "lat": 38.9003125, "bike_id": "a69ac7a70e815101498a4c48cdd32ef0", "type": "electric_scooter", "is_reserved": 0, "lon": -77.002021}, {"fusion_lat": 0.0, "name": "d696d5854ed764c8b9da16c2af132a98", "is_disabled": 0, "rental_uris": {"android": "https://dc.lft.to/lastmile_qr_scan", "ios": "https://dc.lft.to/lastmile_qr_scan"}, "fusion_lon": 0.0, "lat": 38.8920155, "bike_id": "d696d5854ed764c8b9da16c2af132a98", "type": "electric_scooter", "is_reserved": 0, "lon": -77.02642816666666}, {"fusion_lat": 0.0, "name": "6f22691eb1ac7120bd56af208c24b7f0", "is_disabled": 0, "rental_uris": {"android": "https://dc.lft.to/lastmile_qr_scan", "ios": "https://dc.lft.to/lastmile_qr_scan"}, "fusion_lon": 0.0, "lat": 38.91681066666666, "bike_id": "6f22691eb1ac7120bd56af208c24b7f0", "type": "electric_scooter", "is_reserved": 0, "lon": -77.01583}, {"fusion_lat": 0.0, "name": "bfe7444669a2161bf01a8943625e9bd5", "is_disabled": 0, "rental_uris": {"android": "https://dc.lft.to/lastmile_qr_scan", "ios": "https://dc.lft.to/lastmile_qr_scan"}, "fusion_lon": 0.0, "lat": 38.9166515, "bike_id": "bfe7444669a2161bf01a8943625e9bd5", "type": "electric_bike", "is_reserved": 0, "lon": -77.03852183333333}, {"fusion_lat": 0.0, "name": "42a0d5104b63804d43b876b545a9e6a1", "is_disabled": 0, "rental_uris": {"android": "https://dc.lft.to/lastmile_qr_scan", "ios": "https://dc.lft.to/lastmile_qr_scan"}, "fusion_lon": 0.0, "lat": 38.917912666666666, "bike_id": "42a0d5104b63804d43b876b545a9e6a1", "type": "electric_scooter", "is_reserved": 0, "lon": -77.03192333333334}, {"fusion_lat": 0.0, "name": "c897bb157aac9aeeab7f936453f369a7", "is_disabled": 0, "rental_uris": {"android": "https://dc.lft.to/lastmile_qr_scan", "ios": "https://dc.lft.to/lastmile_qr_scan"}, "fusion_lon": 0.0, "lat": 38.92482416666667, "bike_id": "c897bb157aac9aeeab7f936453f369a7", "type": "electric_scooter", "is_reserved": 0, "lon": -77.03040983333334}, {"fusion_lat": 0.0, "name": "7ef23732badcfcc6c84dc998c3d06021", "is_disabled": 0, "rental_uris": {"android": "https://dc.lft.to/lastmile_qr_scan", "ios": "https://dc.lft.to/lastmile_qr_scan"}, "fusion_lon": 0.0, "lat": 38.887326333333334, "bike_id": "7ef23732badcfcc6c84dc998c3d06021", "type": "electric_scooter", "is_reserved": 0, "lon": -77.01341733333334}, {"fusion_lat": 0.0, "name": "8a5aef1ce6c9e96e27f3ff18075ef83d", "is_disabled": 0, "rental_uris": {"android": "https://dc.lft.to/lastmile_qr_scan", "ios": "https://dc.lft.to/lastmile_qr_scan"}, "fusion_lon": 0.0, "lat": 38.9248905, "bike_id": "8a5aef1ce6c9e96e27f3ff18075ef83d", "type": "electric_scooter", "is_reserved": 0, "lon": -77.0271495}, {"fusion_lat": 0.0, "name": "d83a9106e4ca8da3cf13a31ae63b8976", "is_disabled": 0, "rental_uris": {"android": "https://dc.lft.to/lastmile_qr_scan", "ios": "https://dc.lft.to/lastmile_qr_scan"}, "fusion_lon": 0.0, "lat": 38.87311033333334, "bike_id": "d83a9106e4ca8da3cf13a31ae63b8976", "type": "electric_scooter", "is_reserved": 0, "lon": -77.00136416666666}, {"fusion_lat": 0.0, "name": "ed1c4fcbc875a7cd9372c9355125eefb", "is_disabled": 0, "rental_uris": {"android": "https://dc.lft.to/lastmile_qr_scan", "ios": "https://dc.lft.to/lastmile_qr_scan"}, "fusion_lon": 0.0, "lat": 38.94185083333333, "bike_id": "ed1c4fcbc875a7cd9372c9355125eefb", "type": "electric_scooter", "is_reserved": 0, "lon": -77.02489933333334}, {"fusion_lat": 0.0, "name": "f43d5444a5f4b3b8e240c7b77056d207", "is_disabled": 0, "rental_uris": {"android": "https://dc.lft.to/lastmile_qr_scan", "ios": "https://dc.lft.to/lastmile_qr_scan"}, "fusion_lon": 0.0, "lat": 38.933457833333335, "bike_id": "f43d5444a5f4b3b8e240c7b77056d207", "type": "electric_scooter", "is_reserved": 0, "lon": -77.06202016666667}, {"fusion_lat": 0.0, "name": "9de1d3b96f43a21fae2e2120780460ba", "is_disabled": 0, "rental_uris": {"android": "https://dc.lft.to/lastmile_qr_scan", "ios": "https://dc.lft.to/lastmile_qr_scan"}, "fusion_lon": 0.0, "lat": 38.89662166666667, "bike_id": "9de1d3b96f43a21fae2e2120780460ba", "type": "electric_scooter", "is_reserved": 0, "lon": -77.05037033333333}, {"fusion_lat": 0.0, "name": "d6593d1dfd4788c5449cc8af7297c2e9", "is_disabled": 0, "rental_uris": {"android": "https://dc.lft.to/lastmile_qr_scan", "ios": "https://dc.lft.to/lastmile_qr_scan"}, "fusion_lon": 0.0, "lat": 38.916744666666666, "bike_id": "d6593d1dfd4788c5449cc8af7297c2e9", "type": "electric_scooter", "is_reserved": 0, "lon": -77.024028}, {"fusion_lat": 0.0, "name": "dd639ddc77ad098ab69d21e02cb127d3", "is_disabled": 0, "rental_uris": {"android": "https://dc.lft.to/lastmile_qr_scan", "ios": "https://dc.lft.to/lastmile_qr_scan"}, "fusion_lon": 0.0, "lat": 38.914811666666665, "bike_id": "dd639ddc77ad098ab69d21e02cb127d3", "type": "electric_scooter", "is_reserved": 0, "lon": -77.04607716666666}, {"fusion_lat": 0.0, "name": "6a167d20fdd9ba361b4782c676029916", "is_disabled": 0, "rental_uris": {"android": "https://dc.lft.to/lastmile_qr_scan", "ios": "https://dc.lft.to/lastmile_qr_scan"}, "fusion_lon": 0.0, "lat": 38.9247315, "bike_id": "6a167d20fdd9ba361b4782c676029916", "type": "electric_scooter", "is_reserved": 0, "lon": -77.0356005}, {"fusion_lat": 0.0, "name": "dca8a9ff5dfac7a4b92d58370ebc9fee", "is_disabled": 0, "rental_uris": {"android": "https://dc.lft.to/lastmile_qr_scan", "ios": "https://dc.lft.to/lastmile_qr_scan"}, "fusion_lon": 0.0, "lat": 38.96992566666667, "bike_id": "dca8a9ff5dfac7a4b92d58370ebc9fee", "type": "electric_scooter", "is_reserved": 0, "lon": -77.01163916666667}, {"fusion_lat": 0.0, "name": "e5d76f195158c452e78c83e50c25b801", "is_disabled": 0, "rental_uris": {"android": "https://dc.lft.to/lastmile_qr_scan", "ios": "https://dc.lft.to/lastmile_qr_scan"}, "fusion_lon": 0.0, "lat": 38.87468, "bike_id": "e5d76f195158c452e78c83e50c25b801", "type": "electric_scooter", "is_reserved": 0, "lon": -77.00465566666666}, {"fusion_lat": 0.0, "name": "63f2d433abccccb6080363197c28a2aa", "is_disabled": 0, "rental_uris": {"android": "https://dc.lft.to/lastmile_qr_scan", "ios": "https://dc.lft.to/lastmile_qr_scan"}, "fusion_lon": 0.0, "lat": 38.897366833333336, "bike_id": "63f2d433abccccb6080363197c28a2aa", "type": "electric_scooter", "is_reserved": 0, "lon": -76.94721883333334}, {"fusion_lat": 0.0, "name": "7fde578febc74ac640a2149337fe741c", "is_disabled": 0, "rental_uris": {"android": "https://dc.lft.to/lastmile_qr_scan", "ios": "https://dc.lft.to/lastmile_qr_scan"}, "fusion_lon": 0.0, "lat": 38.900613, "bike_id": "7fde578febc74ac640a2149337fe741c", "type": "electric_scooter", "is_reserved": 0, "lon": -77.0219615}, {"fusion_lat": 0.0, "name": "eb4997601bbba30775b9838c5a6cec21", "is_disabled": 0, "rental_uris": {"android": "https://dc.lft.to/lastmile_qr_scan", "ios": "https://dc.lft.to/lastmile_qr_scan"}, "fusion_lon": 0.0, "lat": 38.948604333333336, "bike_id": "eb4997601bbba30775b9838c5a6cec21", "type": "electric_scooter", "is_reserved": 0, "lon": -77.02574533333333}, {"fusion_lat": 0.0, "name": "96faad804f469f79369d3aaddd021018", "is_disabled": 0, "rental_uris": {"android": "https://dc.lft.to/lastmile_qr_scan", "ios": "https://dc.lft.to/lastmile_qr_scan"}, "fusion_lon": 0.0, "lat": 38.95801783333334, "bike_id": "96faad804f469f79369d3aaddd021018", "type": "electric_bike", "is_reserved": 0, "lon": -76.96045716666667}, {"fusion_lat": 0.0, "name": "4245bf450f0a0caddee567ac2e7ff613", "is_disabled": 0, "rental_uris": {"android": "https://dc.lft.to/lastmile_qr_scan", "ios": "https://dc.lft.to/lastmile_qr_scan"}, "fusion_lon": 0.0, "lat": 38.917170166666665, "bike_id": "4245bf450f0a0caddee567ac2e7ff613", "type": "electric_scooter", "is_reserved": 0, "lon": -77.02817883333333}, {"fusion_lat": 0.0, "name": "cb7b2634181becff03eb017757fd0995", "is_disabled": 0, "rental_uris": {"android": "https://dc.lft.to/lastmile_qr_scan", "ios": "https://dc.lft.to/lastmile_qr_scan"}, "fusion_lon": 0.0, "lat": 38.90580516666667, "bike_id": "cb7b2634181becff03eb017757fd0995", "type": "electric_scooter", "is_reserved": 0, "lon": -77.00887783333333}, {"fusion_lat": 0.0, "name": "53d5d7c3c11633144ac156010f7406b5", "is_disabled": 0, "rental_uris": {"android": "https://dc.lft.to/lastmile_qr_scan", "ios": "https://dc.lft.to/lastmile_qr_scan"}, "fusion_lon": 0.0, "lat": 38.95487466666667, "bike_id": "53d5d7c3c11633144ac156010f7406b5", "type": "electric_bike", "is_reserved": 0, "lon": -77.02668683333333}, {"fusion_lat": 0.0, "name": "ef2ac529878ad74a5957c97c47d242f7", "is_disabled": 0, "rental_uris": {"android": "https://dc.lft.to/lastmile_qr_scan", "ios": "https://dc.lft.to/lastmile_qr_scan"}, "fusion_lon": 0.0, "lat": 38.914442, "bike_id": "ef2ac529878ad74a5957c97c47d242f7", "type": "electric_scooter", "is_reserved": 0, "lon": -77.04498233333334}, {"fusion_lat": 0.0, "name": "ef73ae8ae00560b6ba0882b688fa6e14", "is_disabled": 0, "rental_uris": {"android": "https://dc.lft.to/lastmile_qr_scan", "ios": "https://dc.lft.to/lastmile_qr_scan"}, "fusion_lon": 0.0, "lat": 38.90549683333333, "bike_id": "ef73ae8ae00560b6ba0882b688fa6e14", "type": "electric_scooter", "is_reserved": 0, "lon": -77.04662083333334}, {"fusion_lat": 0.0, "name": "d69bf3d861b12b0b3cbec21020e1bd94", "is_disabled": 0, "rental_uris": {"android": "https://dc.lft.to/lastmile_qr_scan", "ios": "https://dc.lft.to/lastmile_qr_scan"}, "fusion_lon": 0.0, "lat": 38.899574666666666, "bike_id": "d69bf3d861b12b0b3cbec21020e1bd94", "type": "electric_scooter", "is_reserved": 0, "lon": -76.98568583333333}, {"fusion_lat": 0.0, "name": "38562ff7ae48beffac15c43b3b8ae712", "is_disabled": 0, "rental_uris": {"android": "https://dc.lft.to/lastmile_qr_scan", "ios": "https://dc.lft.to/lastmile_qr_scan"}, "fusion_lon": 0.0, "lat": 38.905134, "bike_id": "38562ff7ae48beffac15c43b3b8ae712", "type": "electric_scooter", "is_reserved": 0, "lon": -77.04087616666666}, {"fusion_lat": 0.0, "name": "a6813952fee716d07b6ed5c8ba593508", "is_disabled": 0, "rental_uris": {"android": "https://dc.lft.to/lastmile_qr_scan", "ios": "https://dc.lft.to/lastmile_qr_scan"}, "fusion_lon": 0.0, "lat": 38.88991016666667, "bike_id": "a6813952fee716d07b6ed5c8ba593508", "type": "electric_scooter", "is_reserved": 0, "lon": -76.9141645}, {"fusion_lat": 0.0, "name": "1c42feac6a0576d7bcaf68041ce5e67a", "is_disabled": 0, "rental_uris": {"android": "https://dc.lft.to/lastmile_qr_scan", "ios": "https://dc.lft.to/lastmile_qr_scan"}, "fusion_lon": 0.0, "lat": 38.9063705, "bike_id": "1c42feac6a0576d7bcaf68041ce5e67a", "type": "electric_scooter", "is_reserved": 0, "lon": -77.0059045}, {"fusion_lat": 0.0, "name": "3e0f000d22a4d0153bf5ed204c7ae84b", "is_disabled": 0, "rental_uris": {"android": "https://dc.lft.to/lastmile_qr_scan", "ios": "https://dc.lft.to/lastmile_qr_scan"}, "fusion_lon": 0.0, "lat": 38.93174483333333, "bike_id": "3e0f000d22a4d0153bf5ed204c7ae84b", "type": "electric_scooter", "is_reserved": 0, "lon": -77.078644}, {"fusion_lat": 0.0, "name": "4a74606337ca47793a3c800f3ed38ef8", "is_disabled": 0, "rental_uris": {"android": "https://dc.lft.to/lastmile_qr_scan", "ios": "https://dc.lft.to/lastmile_qr_scan"}, "fusion_lon": 0.0, "lat": 38.91108933333334, "bike_id": "4a74606337ca47793a3c800f3ed38ef8", "type": "electric_scooter", "is_reserved": 0, "lon": -77.04203016666666}, {"fusion_lat": 0.0, "name": "e5c5235545dcfb67b98a46251f0a692f", "is_disabled": 0, "rental_uris": {"android": "https://dc.lft.to/lastmile_qr_scan", "ios": "https://dc.lft.to/lastmile_qr_scan"}, "fusion_lon": 0.0, "lat": 38.934716333333334, "bike_id": "e5c5235545dcfb67b98a46251f0a692f", "type": "electric_scooter", "is_reserved": 0, "lon": -77.07268433333333}, {"fusion_lat": 0.0, "name": "e872d8c40a020ae094f615064ca43c92", "is_disabled": 0, "rental_uris": {"android": "https://dc.lft.to/lastmile_qr_scan", "ios": "https://dc.lft.to/lastmile_qr_scan"}, "fusion_lon": 0.0, "lat": 38.8987625, "bike_id": "e872d8c40a020ae094f615064ca43c92", "type": "electric_scooter", "is_reserved": 0, "lon": -76.93182666666667}, {"fusion_lat": 0.0, "name": "4b6515b2c9d12ecaac93224e8fb0c6af", "is_disabled": 0, "rental_uris": {"android": "https://dc.lft.to/lastmile_qr_scan", "ios": "https://dc.lft.to/lastmile_qr_scan"}, "fusion_lon": 0.0, "lat": 38.909696, "bike_id": "4b6515b2c9d12ecaac93224e8fb0c6af", "type": "electric_scooter", "is_reserved": 0, "lon": -77.03204883333333}, {"fusion_lat": 0.0, "name": "f7d3c2088119e78dedef2645797c02dc", "is_disabled": 0, "rental_uris": {"android": "https://dc.lft.to/lastmile_qr_scan", "ios": "https://dc.lft.to/lastmile_qr_scan"}, "fusion_lon": 0.0, "lat": 38.883723, "bike_id": "f7d3c2088119e78dedef2645797c02dc", "type": "electric_scooter", "is_reserved": 0, "lon": -76.9952055}, {"fusion_lat": 0.0, "name": "c2e4f9be4bd7551c8f9c8442c73437f0", "is_disabled": 0, "rental_uris": {"android": "https://dc.lft.to/lastmile_qr_scan", "ios": "https://dc.lft.to/lastmile_qr_scan"}, "fusion_lon": 0.0, "lat": 38.907967, "bike_id": "c2e4f9be4bd7551c8f9c8442c73437f0", "type": "electric_scooter", "is_reserved": 0, "lon": -77.03453366666666}, {"fusion_lat": 0.0, "name": "9c062ffb111f3ddb960e7c91b82e499d", "is_disabled": 0, "rental_uris": {"android": "https://dc.lft.to/lastmile_qr_scan", "ios": "https://dc.lft.to/lastmile_qr_scan"}, "fusion_lon": 0.0, "lat": 38.902946166666666, "bike_id": "9c062ffb111f3ddb960e7c91b82e499d", "type": "electric_scooter", "is_reserved": 0, "lon": -77.05798566666667}, {"fusion_lat": 0.0, "name": "306b13920c0a51b6e424d8d57c67e433", "is_disabled": 0, "rental_uris": {"android": "https://dc.lft.to/lastmile_qr_scan", "ios": "https://dc.lft.to/lastmile_qr_scan"}, "fusion_lon": 0.0, "lat": 38.90054466666667, "bike_id": "306b13920c0a51b6e424d8d57c67e433", "type": "electric_scooter", "is_reserved": 0, "lon": -76.9994195}, {"fusion_lat": 0.0, "name": "fbed39d88b341270d362cb1ce8e92827", "is_disabled": 0, "rental_uris": {"android": "https://dc.lft.to/lastmile_qr_scan", "ios": "https://dc.lft.to/lastmile_qr_scan"}, "fusion_lon": 0.0, "lat": 38.8924985, "bike_id": "fbed39d88b341270d362cb1ce8e92827", "type": "electric_scooter", "is_reserved": 0, "lon": -77.03956783333334}, {"fusion_lat": 0.0, "name": "ee331f24d4570161a60f2daadbb923ee", "is_disabled": 0, "rental_uris": {"android": "https://dc.lft.to/lastmile_qr_scan", "ios": "https://dc.lft.to/lastmile_qr_scan"}, "fusion_lon": 0.0, "lat": 38.91124133333334, "bike_id": "ee331f24d4570161a60f2daadbb923ee", "type": "electric_scooter", "is_reserved": 0, "lon": -77.00754366666666}, {"fusion_lat": 0.0, "name": "aa1029f166c14a458ffb287fc132c991", "is_disabled": 0, "rental_uris": {"android": "https://dc.lft.to/lastmile_qr_scan", "ios": "https://dc.lft.to/lastmile_qr_scan"}, "fusion_lon": 0.0, "lat": 38.9261815, "bike_id": "aa1029f166c14a458ffb287fc132c991", "type": "electric_scooter", "is_reserved": 0, "lon": -77.03672816666666}, {"fusion_lat": 0.0, "name": "bfc1c398d3ab0ab4641fda84856a3d6f", "is_disabled": 0, "rental_uris": {"android": "https://dc.lft.to/lastmile_qr_scan", "ios": "https://dc.lft.to/lastmile_qr_scan"}, "fusion_lon": 0.0, "lat": 38.923204, "bike_id": "bfc1c398d3ab0ab4641fda84856a3d6f", "type": "electric_scooter", "is_reserved": 0, "lon": -77.04033583333333}, {"fusion_lat": 0.0, "name": "46a16dc08634e5f64a71f294f3979928", "is_disabled": 0, "rental_uris": {"android": "https://dc.lft.to/lastmile_qr_scan", "ios": "https://dc.lft.to/lastmile_qr_scan"}, "fusion_lon": 0.0, "lat": 38.9195995, "bike_id": "46a16dc08634e5f64a71f294f3979928", "type": "electric_scooter", "is_reserved": 0, "lon": -77.07849866666666}, {"fusion_lat": 0.0, "name": "1de40fc325df6e359d7bea93c10aa3c4", "is_disabled": 0, "rental_uris": {"android": "https://dc.lft.to/lastmile_qr_scan", "ios": "https://dc.lft.to/lastmile_qr_scan"}, "fusion_lon": 0.0, "lat": 38.92019533333333, "bike_id": "1de40fc325df6e359d7bea93c10aa3c4", "type": "electric_scooter", "is_reserved": 0, "lon": -77.01314983333333}, {"fusion_lat": 0.0, "name": "95f1ad7d5ff11dfaa267750e1e764581", "is_disabled": 0, "rental_uris": {"android": "https://dc.lft.to/lastmile_qr_scan", "ios": "https://dc.lft.to/lastmile_qr_scan"}, "fusion_lon": 0.0, "lat": 38.907191, "bike_id": "95f1ad7d5ff11dfaa267750e1e764581", "type": "electric_scooter", "is_reserved": 0, "lon": -77.04342883333334}, {"fusion_lat": 0.0, "name": "be9c4dccfd0e31a9521cf1db3b5e20e3", "is_disabled": 0, "rental_uris": {"android": "https://dc.lft.to/lastmile_qr_scan", "ios": "https://dc.lft.to/lastmile_qr_scan"}, "fusion_lon": 0.0, "lat": 38.887376, "bike_id": "be9c4dccfd0e31a9521cf1db3b5e20e3", "type": "electric_scooter", "is_reserved": 0, "lon": -77.02562633333334}, {"fusion_lat": 0.0, "name": "0bf088dfbf12d2399b3858e3d421a7b1", "is_disabled": 0, "rental_uris": {"android": "https://dc.lft.to/lastmile_qr_scan", "ios": "https://dc.lft.to/lastmile_qr_scan"}, "fusion_lon": 0.0, "lat": 38.93260333333333, "bike_id": "0bf088dfbf12d2399b3858e3d421a7b1", "type": "electric_scooter", "is_reserved": 0, "lon": -77.03263083333333}, {"fusion_lat": 0.0, "name": "22ac405f042e138b10b31dca1c6cad28", "is_disabled": 0, "rental_uris": {"android": "https://dc.lft.to/lastmile_qr_scan", "ios": "https://dc.lft.to/lastmile_qr_scan"}, "fusion_lon": 0.0, "lat": 38.87962066666667, "bike_id": "22ac405f042e138b10b31dca1c6cad28", "type": "electric_scooter", "is_reserved": 0, "lon": -77.00583983333334}, {"fusion_lat": 0.0, "name": "8b1609206686da5d571cdc31105c4d6f", "is_disabled": 0, "rental_uris": {"android": "https://dc.lft.to/lastmile_qr_scan", "ios": "https://dc.lft.to/lastmile_qr_scan"}, "fusion_lon": 0.0, "lat": 38.931386, "bike_id": "8b1609206686da5d571cdc31105c4d6f", "type": "electric_bike", "is_reserved": 0, "lon": -77.0197765}, {"fusion_lat": 0.0, "name": "eb332f6cc3a35067d4167870c9ef566c", "is_disabled": 0, "rental_uris": {"android": "https://dc.lft.to/lastmile_qr_scan", "ios": "https://dc.lft.to/lastmile_qr_scan"}, "fusion_lon": 0.0, "lat": 38.91838333333333, "bike_id": "eb332f6cc3a35067d4167870c9ef566c", "type": "electric_scooter", "is_reserved": 0, "lon": -77.031829}, {"fusion_lat": 0.0, "name": "77eeed9ac55ccb6044d79e962f4e4eeb", "is_disabled": 0, "rental_uris": {"android": "https://dc.lft.to/lastmile_qr_scan", "ios": "https://dc.lft.to/lastmile_qr_scan"}, "fusion_lon": 0.0, "lat": 38.9049525, "bike_id": "77eeed9ac55ccb6044d79e962f4e4eeb", "type": "electric_bike", "is_reserved": 0, "lon": -76.974484}, {"fusion_lat": 0.0, "name": "e5a0457165d6e4bd30f03136b11f08bb", "is_disabled": 0, "rental_uris": {"android": "https://dc.lft.to/lastmile_qr_scan", "ios": "https://dc.lft.to/lastmile_qr_scan"}, "fusion_lon": 0.0, "lat": 38.91787866666667, "bike_id": "e5a0457165d6e4bd30f03136b11f08bb", "type": "electric_bike", "is_reserved": 0, "lon": -77.0425795}, {"fusion_lat": 0.0, "name": "57f668a1a7de366f4862e968e20e186b", "is_disabled": 0, "rental_uris": {"android": "https://dc.lft.to/lastmile_qr_scan", "ios": "https://dc.lft.to/lastmile_qr_scan"}, "fusion_lon": 0.0, "lat": 38.843530666666666, "bike_id": "57f668a1a7de366f4862e968e20e186b", "type": "electric_bike", "is_reserved": 0, "lon": -76.97822016666667}, {"fusion_lat": 0.0, "name": "7c2e854278a0fcd856114033de363720", "is_disabled": 0, "rental_uris": {"android": "https://dc.lft.to/lastmile_qr_scan", "ios": "https://dc.lft.to/lastmile_qr_scan"}, "fusion_lon": 0.0, "lat": 38.896887166666666, "bike_id": "7c2e854278a0fcd856114033de363720", "type": "electric_scooter", "is_reserved": 0, "lon": -77.02497033333333}, {"fusion_lat": 0.0, "name": "4d3272030599f7b1a2e543a88b6d8f2c", "is_disabled": 0, "rental_uris": {"android": "https://dc.lft.to/lastmile_qr_scan", "ios": "https://dc.lft.to/lastmile_qr_scan"}, "fusion_lon": 0.0, "lat": 38.88009683333333, "bike_id": "4d3272030599f7b1a2e543a88b6d8f2c", "type": "electric_scooter", "is_reserved": 0, "lon": -77.02487666666667}, {"fusion_lat": 0.0, "name": "0637fde73b64b699c1d178874233b852", "is_disabled": 0, "rental_uris": {"android": "https://dc.lft.to/lastmile_qr_scan", "ios": "https://dc.lft.to/lastmile_qr_scan"}, "fusion_lon": 0.0, "lat": 38.8983255, "bike_id": "0637fde73b64b699c1d178874233b852", "type": "electric_scooter", "is_reserved": 0, "lon": -77.0335245}, {"fusion_lat": 0.0, "name": "d5a108c829e01da760ea363f44dc8483", "is_disabled": 0, "rental_uris": {"android": "https://dc.lft.to/lastmile_qr_scan", "ios": "https://dc.lft.to/lastmile_qr_scan"}, "fusion_lon": 0.0, "lat": 38.91574683333333, "bike_id": "d5a108c829e01da760ea363f44dc8483", "type": "electric_scooter", "is_reserved": 0, "lon": -76.98383866666667}, {"fusion_lat": 0.0, "name": "d3d5ea51947be7e361c8334e369d9758", "is_disabled": 0, "rental_uris": {"android": "https://dc.lft.to/lastmile_qr_scan", "ios": "https://dc.lft.to/lastmile_qr_scan"}, "fusion_lon": 0.0, "lat": 38.956346333333336, "bike_id": "d3d5ea51947be7e361c8334e369d9758", "type": "electric_scooter", "is_reserved": 0, "lon": -77.02839916666667}, {"fusion_lat": 0.0, "name": "590596025daf8d3f3547980bab64907d", "is_disabled": 0, "rental_uris": {"android": "https://dc.lft.to/lastmile_qr_scan", "ios": "https://dc.lft.to/lastmile_qr_scan"}, "fusion_lon": 0.0, "lat": 38.92345316666667, "bike_id": "590596025daf8d3f3547980bab64907d", "type": "electric_scooter", "is_reserved": 0, "lon": -77.052299}, {"fusion_lat": 0.0, "name": "94be78358f9834c0d929c198ee570241", "is_disabled": 0, "rental_uris": {"android": "https://dc.lft.to/lastmile_qr_scan", "ios": "https://dc.lft.to/lastmile_qr_scan"}, "fusion_lon": 0.0, "lat": 38.907359, "bike_id": "94be78358f9834c0d929c198ee570241", "type": "electric_scooter", "is_reserved": 0, "lon": -77.029513}, {"fusion_lat": 0.0, "name": "88d6a7351bcf43359540f93dbf38212b", "is_disabled": 0, "rental_uris": {"android": "https://dc.lft.to/lastmile_qr_scan", "ios": "https://dc.lft.to/lastmile_qr_scan"}, "fusion_lon": 0.0, "lat": 38.9172635, "bike_id": "88d6a7351bcf43359540f93dbf38212b", "type": "electric_scooter", "is_reserved": 0, "lon": -77.03251166666666}, {"fusion_lat": 0.0, "name": "0bae817cb95fbe3ea9809cdadddc3cda", "is_disabled": 0, "rental_uris": {"android": "https://dc.lft.to/lastmile_qr_scan", "ios": "https://dc.lft.to/lastmile_qr_scan"}, "fusion_lon": 0.0, "lat": 38.901635, "bike_id": "0bae817cb95fbe3ea9809cdadddc3cda", "type": "electric_scooter", "is_reserved": 0, "lon": -77.05909483333333}, {"fusion_lat": 0.0, "name": "b88f3e24305eee1787619d566f7614ac", "is_disabled": 0, "rental_uris": {"android": "https://dc.lft.to/lastmile_qr_scan", "ios": "https://dc.lft.to/lastmile_qr_scan"}, "fusion_lon": 0.0, "lat": 38.903120333333334, "bike_id": "b88f3e24305eee1787619d566f7614ac", "type": "electric_scooter", "is_reserved": 0, "lon": -77.01204633333333}, {"fusion_lat": 0.0, "name": "355e4cae301deb87e0f3efd71fc2e2a9", "is_disabled": 0, "rental_uris": {"android": "https://dc.lft.to/lastmile_qr_scan", "ios": "https://dc.lft.to/lastmile_qr_scan"}, "fusion_lon": 0.0, "lat": 38.887267333333334, "bike_id": "355e4cae301deb87e0f3efd71fc2e2a9", "type": "electric_scooter", "is_reserved": 0, "lon": -76.98357416666667}, {"fusion_lat": 0.0, "name": "22955e7a329518053ef353b37d76b924", "is_disabled": 0, "rental_uris": {"android": "https://dc.lft.to/lastmile_qr_scan", "ios": "https://dc.lft.to/lastmile_qr_scan"}, "fusion_lon": 0.0, "lat": 38.89993466666667, "bike_id": "22955e7a329518053ef353b37d76b924", "type": "electric_scooter", "is_reserved": 0, "lon": -77.02397983333333}, {"fusion_lat": 0.0, "name": "cc10910fe0c7c52ad67a21b38b7142fe", "is_disabled": 0, "rental_uris": {"android": "https://dc.lft.to/lastmile_qr_scan", "ios": "https://dc.lft.to/lastmile_qr_scan"}, "fusion_lon": 0.0, "lat": 38.9071955, "bike_id": "cc10910fe0c7c52ad67a21b38b7142fe", "type": "electric_scooter", "is_reserved": 0, "lon": -77.04814983333333}, {"fusion_lat": 0.0, "name": "74324fe3713c502c99c08574eceb5880", "is_disabled": 0, "rental_uris": {"android": "https://dc.lft.to/lastmile_qr_scan", "ios": "https://dc.lft.to/lastmile_qr_scan"}, "fusion_lon": 0.0, "lat": 38.8854795, "bike_id": "74324fe3713c502c99c08574eceb5880", "type": "electric_scooter", "is_reserved": 0, "lon": -77.02000916666667}, {"fusion_lat": 0.0, "name": "87de4dfbd8c0291b023e62d60db6171f", "is_disabled": 0, "rental_uris": {"android": "https://dc.lft.to/lastmile_qr_scan", "ios": "https://dc.lft.to/lastmile_qr_scan"}, "fusion_lon": 0.0, "lat": 38.935845666666665, "bike_id": "87de4dfbd8c0291b023e62d60db6171f", "type": "electric_scooter", "is_reserved": 0, "lon": -77.03786166666667}, {"fusion_lat": 0.0, "name": "9729a45f2810f2fa74bea7ccd52b23d9", "is_disabled": 0, "rental_uris": {"android": "https://dc.lft.to/lastmile_qr_scan", "ios": "https://dc.lft.to/lastmile_qr_scan"}, "fusion_lon": 0.0, "lat": 38.9054435, "bike_id": "9729a45f2810f2fa74bea7ccd52b23d9", "type": "electric_scooter", "is_reserved": 0, "lon": -77.06283933333333}, {"fusion_lat": 0.0, "name": "37fe1f20423be6f83b0398a0bcdfa6c4", "is_disabled": 0, "rental_uris": {"android": "https://dc.lft.to/lastmile_qr_scan", "ios": "https://dc.lft.to/lastmile_qr_scan"}, "fusion_lon": 0.0, "lat": 38.8873915, "bike_id": "37fe1f20423be6f83b0398a0bcdfa6c4", "type": "electric_scooter", "is_reserved": 0, "lon": -77.00347833333333}, {"fusion_lat": 0.0, "name": "115ded79d58fe6855e5b49d36f5366be", "is_disabled": 0, "rental_uris": {"android": "https://dc.lft.to/lastmile_qr_scan", "ios": "https://dc.lft.to/lastmile_qr_scan"}, "fusion_lon": 0.0, "lat": 38.900314333333334, "bike_id": "115ded79d58fe6855e5b49d36f5366be", "type": "electric_scooter", "is_reserved": 0, "lon": -77.01209116666666}, {"fusion_lat": 0.0, "name": "4962a336a7f1d7b2ccccf5d309d39d4f", "is_disabled": 0, "rental_uris": {"android": "https://dc.lft.to/lastmile_qr_scan", "ios": "https://dc.lft.to/lastmile_qr_scan"}, "fusion_lon": 0.0, "lat": 38.937731, "bike_id": "4962a336a7f1d7b2ccccf5d309d39d4f", "type": "electric_bike", "is_reserved": 0, "lon": -77.01880083333333}, {"fusion_lat": 0.0, "name": "da8e07c619519f51a3b91d3bcc2f13d2", "is_disabled": 0, "rental_uris": {"android": "https://dc.lft.to/lastmile_qr_scan", "ios": "https://dc.lft.to/lastmile_qr_scan"}, "fusion_lon": 0.0, "lat": 38.902846, "bike_id": "da8e07c619519f51a3b91d3bcc2f13d2", "type": "electric_scooter", "is_reserved": 0, "lon": -77.03646133333334}, {"fusion_lat": 0.0, "name": "da90b5e6a3e07f193cb1bfc454043f59", "is_disabled": 0, "rental_uris": {"android": "https://dc.lft.to/lastmile_qr_scan", "ios": "https://dc.lft.to/lastmile_qr_scan"}, "fusion_lon": 0.0, "lat": 38.90021933333333, "bike_id": "da90b5e6a3e07f193cb1bfc454043f59", "type": "electric_scooter", "is_reserved": 0, "lon": -76.9987075}, {"fusion_lat": 0.0, "name": "b8fa8e8b43517f42e97d926310f1355c", "is_disabled": 0, "rental_uris": {"android": "https://dc.lft.to/lastmile_qr_scan", "ios": "https://dc.lft.to/lastmile_qr_scan"}, "fusion_lon": 0.0, "lat": 38.91786833333333, "bike_id": "b8fa8e8b43517f42e97d926310f1355c", "type": "electric_scooter", "is_reserved": 0, "lon": -77.035812}, {"fusion_lat": 0.0, "name": "0fc6bc75d7b23b8962e54b5617805aa4", "is_disabled": 0, "rental_uris": {"android": "https://dc.lft.to/lastmile_qr_scan", "ios": "https://dc.lft.to/lastmile_qr_scan"}, "fusion_lon": 0.0, "lat": 38.8995425, "bike_id": "0fc6bc75d7b23b8962e54b5617805aa4", "type": "electric_scooter", "is_reserved": 0, "lon": -77.05705416666666}, {"fusion_lat": 0.0, "name": "865ffc06b2d23c05897acfb7568fdb3b", "is_disabled": 0, "rental_uris": {"android": "https://dc.lft.to/lastmile_qr_scan", "ios": "https://dc.lft.to/lastmile_qr_scan"}, "fusion_lon": 0.0, "lat": 38.92286383333333, "bike_id": "865ffc06b2d23c05897acfb7568fdb3b", "type": "electric_scooter", "is_reserved": 0, "lon": -77.03663283333333}, {"fusion_lat": 0.0, "name": "301f18009ae279de68f6f10265ff7c11", "is_disabled": 0, "rental_uris": {"android": "https://dc.lft.to/lastmile_qr_scan", "ios": "https://dc.lft.to/lastmile_qr_scan"}, "fusion_lon": 0.0, "lat": 38.915414166666665, "bike_id": "301f18009ae279de68f6f10265ff7c11", "type": "electric_scooter", "is_reserved": 0, "lon": -77.03207033333334}, {"fusion_lat": 0.0, "name": "fc8d20cb88aa903b60d55e554a703198", "is_disabled": 0, "rental_uris": {"android": "https://dc.lft.to/lastmile_qr_scan", "ios": "https://dc.lft.to/lastmile_qr_scan"}, "fusion_lon": 0.0, "lat": 38.887361166666665, "bike_id": "fc8d20cb88aa903b60d55e554a703198", "type": "electric_scooter", "is_reserved": 0, "lon": -77.02137533333334}, {"fusion_lat": 0.0, "name": "163f6dc1e783141c214a27202e3c40fd", "is_disabled": 0, "rental_uris": {"android": "https://dc.lft.to/lastmile_qr_scan", "ios": "https://dc.lft.to/lastmile_qr_scan"}, "fusion_lon": 0.0, "lat": 38.91401966666667, "bike_id": "163f6dc1e783141c214a27202e3c40fd", "type": "electric_scooter", "is_reserved": 0, "lon": -77.075545}, {"fusion_lat": 0.0, "name": "2acfcd688aa8f2687ade888127c72cdd", "is_disabled": 0, "rental_uris": {"android": "https://dc.lft.to/lastmile_qr_scan", "ios": "https://dc.lft.to/lastmile_qr_scan"}, "fusion_lon": 0.0, "lat": 38.907219, "bike_id": "2acfcd688aa8f2687ade888127c72cdd", "type": "electric_scooter", "is_reserved": 0, "lon": -77.04555066666667}, {"fusion_lat": 0.0, "name": "4eca4b70024bdd69a259d157c25abc0e", "is_disabled": 0, "rental_uris": {"android": "https://dc.lft.to/lastmile_qr_scan", "ios": "https://dc.lft.to/lastmile_qr_scan"}, "fusion_lon": 0.0, "lat": 38.90201483333333, "bike_id": "4eca4b70024bdd69a259d157c25abc0e", "type": "electric_scooter", "is_reserved": 0, "lon": -77.0248315}, {"fusion_lat": 0.0, "name": "3722f3efd1237738fb0cffebf97d28f6", "is_disabled": 0, "rental_uris": {"android": "https://dc.lft.to/lastmile_qr_scan", "ios": "https://dc.lft.to/lastmile_qr_scan"}, "fusion_lon": 0.0, "lat": 38.89833733333333, "bike_id": "3722f3efd1237738fb0cffebf97d28f6", "type": "electric_scooter", "is_reserved": 0, "lon": -76.94638016666667}, {"fusion_lat": 0.0, "name": "04fe2d2b5d6d2311e0a4d0e7dc6f2af4", "is_disabled": 0, "rental_uris": {"android": "https://dc.lft.to/lastmile_qr_scan", "ios": "https://dc.lft.to/lastmile_qr_scan"}, "fusion_lon": 0.0, "lat": 38.906219166666666, "bike_id": "04fe2d2b5d6d2311e0a4d0e7dc6f2af4", "type": "electric_scooter", "is_reserved": 0, "lon": -77.02598183333333}, {"fusion_lat": 0.0, "name": "37bad107a19ad624ec3103cd76b685ef", "is_disabled": 0, "rental_uris": {"android": "https://dc.lft.to/lastmile_qr_scan", "ios": "https://dc.lft.to/lastmile_qr_scan"}, "fusion_lon": 0.0, "lat": 38.919280666666666, "bike_id": "37bad107a19ad624ec3103cd76b685ef", "type": "electric_scooter", "is_reserved": 0, "lon": -77.03423266666667}, {"fusion_lat": 0.0, "name": "c7be8987e1a00290b835dae71eea85fc", "is_disabled": 0, "rental_uris": {"android": "https://dc.lft.to/lastmile_qr_scan", "ios": "https://dc.lft.to/lastmile_qr_scan"}, "fusion_lon": 0.0, "lat": 38.876580833333335, "bike_id": "c7be8987e1a00290b835dae71eea85fc", "type": "electric_scooter", "is_reserved": 0, "lon": -77.00077833333333}, {"fusion_lat": 0.0, "name": "d870cd32f9ced41a67c4d835fea68b7b", "is_disabled": 0, "rental_uris": {"android": "https://dc.lft.to/lastmile_qr_scan", "ios": "https://dc.lft.to/lastmile_qr_scan"}, "fusion_lon": 0.0, "lat": 38.90516433333333, "bike_id": "d870cd32f9ced41a67c4d835fea68b7b", "type": "electric_scooter", "is_reserved": 0, "lon": -77.048369}, {"fusion_lat": 0.0, "name": "96dffcd2629e8825498535921fbed578", "is_disabled": 0, "rental_uris": {"android": "https://dc.lft.to/lastmile_qr_scan", "ios": "https://dc.lft.to/lastmile_qr_scan"}, "fusion_lon": 0.0, "lat": 38.89710766666666, "bike_id": "96dffcd2629e8825498535921fbed578", "type": "electric_scooter", "is_reserved": 0, "lon": -77.02757683333333}, {"fusion_lat": 0.0, "name": "359f01efe3b8563bfec844e4994865fa", "is_disabled": 0, "rental_uris": {"android": "https://dc.lft.to/lastmile_qr_scan", "ios": "https://dc.lft.to/lastmile_qr_scan"}, "fusion_lon": 0.0, "lat": 38.90724766666666, "bike_id": "359f01efe3b8563bfec844e4994865fa", "type": "electric_scooter", "is_reserved": 0, "lon": -77.0433585}, {"fusion_lat": 0.0, "name": "63641f2db7894ed4514d30ff387bc99e", "is_disabled": 0, "rental_uris": {"android": "https://dc.lft.to/lastmile_qr_scan", "ios": "https://dc.lft.to/lastmile_qr_scan"}, "fusion_lon": 0.0, "lat": 38.92850166666667, "bike_id": "63641f2db7894ed4514d30ff387bc99e", "type": "electric_scooter", "is_reserved": 0, "lon": -77.03295433333334}, {"fusion_lat": 0.0, "name": "b4f5f6477bc69a18c7ff7be08ca79add", "is_disabled": 0, "rental_uris": {"android": "https://dc.lft.to/lastmile_qr_scan", "ios": "https://dc.lft.to/lastmile_qr_scan"}, "fusion_lon": 0.0, "lat": 38.90503233333333, "bike_id": "b4f5f6477bc69a18c7ff7be08ca79add", "type": "electric_scooter", "is_reserved": 0, "lon": -77.03006183333333}, {"fusion_lat": 0.0, "name": "431bf0cdc40983a6671156b158ad9ee8", "is_disabled": 0, "rental_uris": {"android": "https://dc.lft.to/lastmile_qr_scan", "ios": "https://dc.lft.to/lastmile_qr_scan"}, "fusion_lon": 0.0, "lat": 38.910333666666666, "bike_id": "431bf0cdc40983a6671156b158ad9ee8", "type": "electric_scooter", "is_reserved": 0, "lon": -77.04162033333333}, {"fusion_lat": 0.0, "name": "67f0442c7dd1a44e6e0407392315358a", "is_disabled": 0, "rental_uris": {"android": "https://dc.lft.to/lastmile_qr_scan", "ios": "https://dc.lft.to/lastmile_qr_scan"}, "fusion_lon": 0.0, "lat": 38.889277166666666, "bike_id": "67f0442c7dd1a44e6e0407392315358a", "type": "electric_bike", "is_reserved": 0, "lon": -76.99175783333334}, {"fusion_lat": 0.0, "name": "ad39511aeee4a2c9b0c6f981d411781f", "is_disabled": 0, "rental_uris": {"android": "https://dc.lft.to/lastmile_qr_scan", "ios": "https://dc.lft.to/lastmile_qr_scan"}, "fusion_lon": 0.0, "lat": 38.92376333333333, "bike_id": "ad39511aeee4a2c9b0c6f981d411781f", "type": "electric_scooter", "is_reserved": 0, "lon": -77.03522883333333}, {"fusion_lat": 0.0, "name": "382e457a08cb032f695f1355727f254a", "is_disabled": 0, "rental_uris": {"android": "https://dc.lft.to/lastmile_qr_scan", "ios": "https://dc.lft.to/lastmile_qr_scan"}, "fusion_lon": 0.0, "lat": 38.910137666666664, "bike_id": "382e457a08cb032f695f1355727f254a", "type": "electric_scooter", "is_reserved": 0, "lon": -77.02201516666666}, {"fusion_lat": 0.0, "name": "94ad448596d56f543885c84e94e0a93a", "is_disabled": 0, "rental_uris": {"android": "https://dc.lft.to/lastmile_qr_scan", "ios": "https://dc.lft.to/lastmile_qr_scan"}, "fusion_lon": 0.0, "lat": 38.877356, "bike_id": "94ad448596d56f543885c84e94e0a93a", "type": "electric_scooter", "is_reserved": 0, "lon": -77.0061205}, {"fusion_lat": 0.0, "name": "3da58e0c4e5ed369b1dca5bbeb080d0a", "is_disabled": 0, "rental_uris": {"android": "https://dc.lft.to/lastmile_qr_scan", "ios": "https://dc.lft.to/lastmile_qr_scan"}, "fusion_lon": 0.0, "lat": 38.9006515, "bike_id": "3da58e0c4e5ed369b1dca5bbeb080d0a", "type": "electric_scooter", "is_reserved": 0, "lon": -76.93387216666666}, {"fusion_lat": 0.0, "name": "f2cff96490d28a8c6a8acda259ec30ff", "is_disabled": 0, "rental_uris": {"android": "https://dc.lft.to/lastmile_qr_scan", "ios": "https://dc.lft.to/lastmile_qr_scan"}, "fusion_lon": 0.0, "lat": 38.905144666666665, "bike_id": "f2cff96490d28a8c6a8acda259ec30ff", "type": "electric_scooter", "is_reserved": 0, "lon": -77.04804266666666}, {"fusion_lat": 0.0, "name": "4d5feedc9e74b05d66786d8088070a30", "is_disabled": 0, "rental_uris": {"android": "https://dc.lft.to/lastmile_qr_scan", "ios": "https://dc.lft.to/lastmile_qr_scan"}, "fusion_lon": 0.0, "lat": 38.91981533333333, "bike_id": "4d5feedc9e74b05d66786d8088070a30", "type": "electric_scooter", "is_reserved": 0, "lon": -77.02606116666666}, {"fusion_lat": 0.0, "name": "bbb00e31dc1bdc37417249d8e9cf4f36", "is_disabled": 0, "rental_uris": {"android": "https://dc.lft.to/lastmile_qr_scan", "ios": "https://dc.lft.to/lastmile_qr_scan"}, "fusion_lon": 0.0, "lat": 38.9357145, "bike_id": "bbb00e31dc1bdc37417249d8e9cf4f36", "type": "electric_scooter", "is_reserved": 0, "lon": -77.03649016666667}, {"fusion_lat": 0.0, "name": "125573fdcfb9e8230a55784cef901683", "is_disabled": 0, "rental_uris": {"android": "https://dc.lft.to/lastmile_qr_scan", "ios": "https://dc.lft.to/lastmile_qr_scan"}, "fusion_lon": 0.0, "lat": 38.9017185, "bike_id": "125573fdcfb9e8230a55784cef901683", "type": "electric_scooter", "is_reserved": 0, "lon": -76.99258066666667}, {"fusion_lat": 0.0, "name": "0c41acc1152ff9a1fdfe0711eba08fbe", "is_disabled": 0, "rental_uris": {"android": "https://dc.lft.to/lastmile_qr_scan", "ios": "https://dc.lft.to/lastmile_qr_scan"}, "fusion_lon": 0.0, "lat": 38.907154166666665, "bike_id": "0c41acc1152ff9a1fdfe0711eba08fbe", "type": "electric_scooter", "is_reserved": 0, "lon": -77.027177}, {"fusion_lat": 0.0, "name": "eea13bb44a537ac5b2fd054fe1c2d17c", "is_disabled": 0, "rental_uris": {"android": "https://dc.lft.to/lastmile_qr_scan", "ios": "https://dc.lft.to/lastmile_qr_scan"}, "fusion_lon": 0.0, "lat": 38.883426666666665, "bike_id": "eea13bb44a537ac5b2fd054fe1c2d17c", "type": "electric_scooter", "is_reserved": 0, "lon": -77.03163033333334}, {"fusion_lat": 0.0, "name": "6033cb6b2d91a7cf7e4aa3af690c0d9a", "is_disabled": 0, "rental_uris": {"android": "https://dc.lft.to/lastmile_qr_scan", "ios": "https://dc.lft.to/lastmile_qr_scan"}, "fusion_lon": 0.0, "lat": 38.9231335, "bike_id": "6033cb6b2d91a7cf7e4aa3af690c0d9a", "type": "electric_scooter", "is_reserved": 0, "lon": -77.039757}, {"fusion_lat": 0.0, "name": "4e07956499511a71e43abc698984cfa4", "is_disabled": 0, "rental_uris": {"android": "https://dc.lft.to/lastmile_qr_scan", "ios": "https://dc.lft.to/lastmile_qr_scan"}, "fusion_lon": 0.0, "lat": 38.9418505, "bike_id": "4e07956499511a71e43abc698984cfa4", "type": "electric_scooter", "is_reserved": 0, "lon": -77.02617066666667}, {"fusion_lat": 0.0, "name": "ac56427704a57dfab5c43999f32057db", "is_disabled": 0, "rental_uris": {"android": "https://dc.lft.to/lastmile_qr_scan", "ios": "https://dc.lft.to/lastmile_qr_scan"}, "fusion_lon": 0.0, "lat": 38.91265966666667, "bike_id": "ac56427704a57dfab5c43999f32057db", "type": "electric_scooter", "is_reserved": 0, "lon": -77.0383785}, {"fusion_lat": 0.0, "name": "3a8317fceb27be99e30c78a1585a0625", "is_disabled": 0, "rental_uris": {"android": "https://dc.lft.to/lastmile_qr_scan", "ios": "https://dc.lft.to/lastmile_qr_scan"}, "fusion_lon": 0.0, "lat": 38.90562283333333, "bike_id": "3a8317fceb27be99e30c78a1585a0625", "type": "electric_scooter", "is_reserved": 0, "lon": -77.04671416666666}, {"fusion_lat": 0.0, "name": "41b871bf0172680f43cd8f213411e86b", "is_disabled": 0, "rental_uris": {"android": "https://dc.lft.to/lastmile_qr_scan", "ios": "https://dc.lft.to/lastmile_qr_scan"}, "fusion_lon": 0.0, "lat": 38.84756433333333, "bike_id": "41b871bf0172680f43cd8f213411e86b", "type": "electric_scooter", "is_reserved": 0, "lon": -76.9949865}, {"fusion_lat": 0.0, "name": "767a78526a8e1e05d0de85b18d5b753a", "is_disabled": 0, "rental_uris": {"android": "https://dc.lft.to/lastmile_qr_scan", "ios": "https://dc.lft.to/lastmile_qr_scan"}, "fusion_lon": 0.0, "lat": 38.9068425, "bike_id": "767a78526a8e1e05d0de85b18d5b753a", "type": "electric_scooter", "is_reserved": 0, "lon": -77.02697416666666}, {"fusion_lat": 0.0, "name": "767076217da34a487b06e532dfa20f30", "is_disabled": 0, "rental_uris": {"android": "https://dc.lft.to/lastmile_qr_scan", "ios": "https://dc.lft.to/lastmile_qr_scan"}, "fusion_lon": 0.0, "lat": 38.922486, "bike_id": "767076217da34a487b06e532dfa20f30", "type": "electric_scooter", "is_reserved": 0, "lon": -77.0280485}, {"fusion_lat": 0.0, "name": "bd36cfa86fec36b0485ae293045463aa", "is_disabled": 0, "rental_uris": {"android": "https://dc.lft.to/lastmile_qr_scan", "ios": "https://dc.lft.to/lastmile_qr_scan"}, "fusion_lon": 0.0, "lat": 38.92442783333333, "bike_id": "bd36cfa86fec36b0485ae293045463aa", "type": "electric_scooter", "is_reserved": 0, "lon": -77.02244433333334}, {"fusion_lat": 0.0, "name": "8719b6d10975d0794017938adbf68dfa", "is_disabled": 0, "rental_uris": {"android": "https://dc.lft.to/lastmile_qr_scan", "ios": "https://dc.lft.to/lastmile_qr_scan"}, "fusion_lon": 0.0, "lat": 38.90516183333333, "bike_id": "8719b6d10975d0794017938adbf68dfa", "type": "electric_scooter", "is_reserved": 0, "lon": -77.0512275}, {"fusion_lat": 0.0, "name": "f7e96d0ed5c5c35779bf41a10e2e3cf2", "is_disabled": 0, "rental_uris": {"android": "https://dc.lft.to/lastmile_qr_scan", "ios": "https://dc.lft.to/lastmile_qr_scan"}, "fusion_lon": 0.0, "lat": 38.941833, "bike_id": "f7e96d0ed5c5c35779bf41a10e2e3cf2", "type": "electric_scooter", "is_reserved": 0, "lon": -77.02486266666666}, {"fusion_lat": 0.0, "name": "182b67d9c964533fcbd871d44790aff4", "is_disabled": 0, "rental_uris": {"android": "https://dc.lft.to/lastmile_qr_scan", "ios": "https://dc.lft.to/lastmile_qr_scan"}, "fusion_lon": 0.0, "lat": 38.91703433333333, "bike_id": "182b67d9c964533fcbd871d44790aff4", "type": "electric_scooter", "is_reserved": 0, "lon": -77.02390766666667}, {"fusion_lat": 0.0, "name": "65758fd0f26b3496f0188c1e00ed43c5", "is_disabled": 0, "rental_uris": {"android": "https://dc.lft.to/lastmile_qr_scan", "ios": "https://dc.lft.to/lastmile_qr_scan"}, "fusion_lon": 0.0, "lat": 38.88702116666666, "bike_id": "65758fd0f26b3496f0188c1e00ed43c5", "type": "electric_bike", "is_reserved": 0, "lon": -76.99686116666666}, {"fusion_lat": 0.0, "name": "8b65a9929c7379e22f0cda0d5f027aae", "is_disabled": 0, "rental_uris": {"android": "https://dc.lft.to/lastmile_qr_scan", "ios": "https://dc.lft.to/lastmile_qr_scan"}, "fusion_lon": 0.0, "lat": 38.87385666666667, "bike_id": "8b65a9929c7379e22f0cda0d5f027aae", "type": "electric_scooter", "is_reserved": 0, "lon": -77.00034216666667}, {"fusion_lat": 0.0, "name": "6ae66af9a473d431ad3fb583ad184105", "is_disabled": 0, "rental_uris": {"android": "https://dc.lft.to/lastmile_qr_scan", "ios": "https://dc.lft.to/lastmile_qr_scan"}, "fusion_lon": 0.0, "lat": 38.87085883333334, "bike_id": "6ae66af9a473d431ad3fb583ad184105", "type": "electric_scooter", "is_reserved": 0, "lon": -76.965705}, {"fusion_lat": 0.0, "name": "2313623f427d710010d071faddc72eee", "is_disabled": 0, "rental_uris": {"android": "https://dc.lft.to/lastmile_qr_scan", "ios": "https://dc.lft.to/lastmile_qr_scan"}, "fusion_lon": 0.0, "lat": 38.92035, "bike_id": "2313623f427d710010d071faddc72eee", "type": "electric_scooter", "is_reserved": 0, "lon": -77.03386133333333}, {"fusion_lat": 0.0, "name": "770edafb98bb5de53c23eb037ec02e79", "is_disabled": 0, "rental_uris": {"android": "https://dc.lft.to/lastmile_qr_scan", "ios": "https://dc.lft.to/lastmile_qr_scan"}, "fusion_lon": 0.0, "lat": 38.9126625, "bike_id": "770edafb98bb5de53c23eb037ec02e79", "type": "electric_scooter", "is_reserved": 0, "lon": -77.03588383333333}, {"fusion_lat": 0.0, "name": "2f8ec73c03b2bfc8d23f7bd1968a36a1", "is_disabled": 0, "rental_uris": {"android": "https://dc.lft.to/lastmile_qr_scan", "ios": "https://dc.lft.to/lastmile_qr_scan"}, "fusion_lon": 0.0, "lat": 38.90051966666667, "bike_id": "2f8ec73c03b2bfc8d23f7bd1968a36a1", "type": "electric_scooter", "is_reserved": 0, "lon": -77.05033433333334}, {"fusion_lat": 0.0, "name": "7749283cf24c28e550d8cf70549a3317", "is_disabled": 0, "rental_uris": {"android": "https://dc.lft.to/lastmile_qr_scan", "ios": "https://dc.lft.to/lastmile_qr_scan"}, "fusion_lon": 0.0, "lat": 38.9074025, "bike_id": "7749283cf24c28e550d8cf70549a3317", "type": "electric_scooter", "is_reserved": 0, "lon": -77.02390616666666}, {"fusion_lat": 0.0, "name": "0a87c7a0596ed2dafc9a1df6c7d3c635", "is_disabled": 0, "rental_uris": {"android": "https://dc.lft.to/lastmile_qr_scan", "ios": "https://dc.lft.to/lastmile_qr_scan"}, "fusion_lon": 0.0, "lat": 38.90707066666667, "bike_id": "0a87c7a0596ed2dafc9a1df6c7d3c635", "type": "electric_scooter", "is_reserved": 0, "lon": -77.04159416666667}, {"fusion_lat": 0.0, "name": "06a391a44bacd4c90abd292e8dbee10d", "is_disabled": 0, "rental_uris": {"android": "https://dc.lft.to/lastmile_qr_scan", "ios": "https://dc.lft.to/lastmile_qr_scan"}, "fusion_lon": 0.0, "lat": 38.91922866666667, "bike_id": "06a391a44bacd4c90abd292e8dbee10d", "type": "electric_scooter", "is_reserved": 0, "lon": -77.03104016666667}, {"fusion_lat": 0.0, "name": "828964067a1f25a94d23b2d8f5e26155", "is_disabled": 0, "rental_uris": {"android": "https://dc.lft.to/lastmile_qr_scan", "ios": "https://dc.lft.to/lastmile_qr_scan"}, "fusion_lon": 0.0, "lat": 38.930547833333335, "bike_id": "828964067a1f25a94d23b2d8f5e26155", "type": "electric_scooter", "is_reserved": 0, "lon": -77.03216416666666}, {"fusion_lat": 0.0, "name": "3edba368ebb7474a60e33c476bfd1322", "is_disabled": 0, "rental_uris": {"android": "https://dc.lft.to/lastmile_qr_scan", "ios": "https://dc.lft.to/lastmile_qr_scan"}, "fusion_lon": 0.0, "lat": 38.8973255, "bike_id": "3edba368ebb7474a60e33c476bfd1322", "type": "electric_scooter", "is_reserved": 0, "lon": -77.04396516666667}, {"fusion_lat": 0.0, "name": "e4df4bfd1e16c7273ec40c73c4e4c41b", "is_disabled": 0, "rental_uris": {"android": "https://dc.lft.to/lastmile_qr_scan", "ios": "https://dc.lft.to/lastmile_qr_scan"}, "fusion_lon": 0.0, "lat": 38.87833366666667, "bike_id": "e4df4bfd1e16c7273ec40c73c4e4c41b", "type": "electric_scooter", "is_reserved": 0, "lon": -76.96324366666667}, {"fusion_lat": 0.0, "name": "0e321f85cc4a88bad4d85d34f63759dc", "is_disabled": 0, "rental_uris": {"android": "https://dc.lft.to/lastmile_qr_scan", "ios": "https://dc.lft.to/lastmile_qr_scan"}, "fusion_lon": 0.0, "lat": 38.940856, "bike_id": "0e321f85cc4a88bad4d85d34f63759dc", "type": "electric_scooter", "is_reserved": 0, "lon": -77.02638116666667}, {"fusion_lat": 0.0, "name": "5da0974ea1c1163f107a26ff1f64e574", "is_disabled": 0, "rental_uris": {"android": "https://dc.lft.to/lastmile_qr_scan", "ios": "https://dc.lft.to/lastmile_qr_scan"}, "fusion_lon": 0.0, "lat": 38.916129166666664, "bike_id": "5da0974ea1c1163f107a26ff1f64e574", "type": "electric_scooter", "is_reserved": 0, "lon": -77.0230615}, {"fusion_lat": 0.0, "name": "8f707a14fcbdf6350ae346ac52311aa4", "is_disabled": 0, "rental_uris": {"android": "https://dc.lft.to/lastmile_qr_scan", "ios": "https://dc.lft.to/lastmile_qr_scan"}, "fusion_lon": 0.0, "lat": 38.923311, "bike_id": "8f707a14fcbdf6350ae346ac52311aa4", "type": "electric_scooter", "is_reserved": 0, "lon": -77.05622816666667}, {"fusion_lat": 0.0, "name": "f751860a0bca6a137d41232e5733fb8f", "is_disabled": 0, "rental_uris": {"android": "https://dc.lft.to/lastmile_qr_scan", "ios": "https://dc.lft.to/lastmile_qr_scan"}, "fusion_lon": 0.0, "lat": 38.92225966666667, "bike_id": "f751860a0bca6a137d41232e5733fb8f", "type": "electric_bike", "is_reserved": 0, "lon": -77.02342233333333}, {"fusion_lat": 0.0, "name": "b3767477ce8a5a8f7de881fb77c58fd1", "is_disabled": 0, "rental_uris": {"android": "https://dc.lft.to/lastmile_qr_scan", "ios": "https://dc.lft.to/lastmile_qr_scan"}, "fusion_lon": 0.0, "lat": 38.877122666666665, "bike_id": "b3767477ce8a5a8f7de881fb77c58fd1", "type": "electric_scooter", "is_reserved": 0, "lon": -77.01762883333333}, {"fusion_lat": 0.0, "name": "5cd140a439c7146ae437576eeb890fd0", "is_disabled": 0, "rental_uris": {"android": "https://dc.lft.to/lastmile_qr_scan", "ios": "https://dc.lft.to/lastmile_qr_scan"}, "fusion_lon": 0.0, "lat": 38.900093166666665, "bike_id": "5cd140a439c7146ae437576eeb890fd0", "type": "electric_scooter", "is_reserved": 0, "lon": -76.99869616666666}, {"fusion_lat": 0.0, "name": "ff4f6626b298904f093ec1916c9b93a6", "is_disabled": 0, "rental_uris": {"android": "https://dc.lft.to/lastmile_qr_scan", "ios": "https://dc.lft.to/lastmile_qr_scan"}, "fusion_lon": 0.0, "lat": 38.914083166666664, "bike_id": "ff4f6626b298904f093ec1916c9b93a6", "type": "electric_scooter", "is_reserved": 0, "lon": -77.02428416666666}, {"fusion_lat": 0.0, "name": "0bf9055e817dfa82a4c7c2c0470f3139", "is_disabled": 0, "rental_uris": {"android": "https://dc.lft.to/lastmile_qr_scan", "ios": "https://dc.lft.to/lastmile_qr_scan"}, "fusion_lon": 0.0, "lat": 38.909484, "bike_id": "0bf9055e817dfa82a4c7c2c0470f3139", "type": "electric_scooter", "is_reserved": 0, "lon": -76.9877245}, {"fusion_lat": 0.0, "name": "5c51650ec51bd91ecc052ce88982badb", "is_disabled": 0, "rental_uris": {"android": "https://dc.lft.to/lastmile_qr_scan", "ios": "https://dc.lft.to/lastmile_qr_scan"}, "fusion_lon": 0.0, "lat": 38.90300033333333, "bike_id": "5c51650ec51bd91ecc052ce88982badb", "type": "electric_scooter", "is_reserved": 0, "lon": -77.04878366666667}, {"fusion_lat": 0.0, "name": "be3f6bc07fb60675ca4fe715ef808f93", "is_disabled": 0, "rental_uris": {"android": "https://dc.lft.to/lastmile_qr_scan", "ios": "https://dc.lft.to/lastmile_qr_scan"}, "fusion_lon": 0.0, "lat": 38.87922183333333, "bike_id": "be3f6bc07fb60675ca4fe715ef808f93", "type": "electric_scooter", "is_reserved": 0, "lon": -77.02154916666667}, {"fusion_lat": 0.0, "name": "45e6427da56c8b5c233cc0c943615ed9", "is_disabled": 0, "rental_uris": {"android": "https://dc.lft.to/lastmile_qr_scan", "ios": "https://dc.lft.to/lastmile_qr_scan"}, "fusion_lon": 0.0, "lat": 38.9132825, "bike_id": "45e6427da56c8b5c233cc0c943615ed9", "type": "electric_scooter", "is_reserved": 0, "lon": -77.03182183333334}, {"fusion_lat": 0.0, "name": "820d0452520f50ba809090dc04d8a3b7", "is_disabled": 0, "rental_uris": {"android": "https://dc.lft.to/lastmile_qr_scan", "ios": "https://dc.lft.to/lastmile_qr_scan"}, "fusion_lon": 0.0, "lat": 38.90687716666667, "bike_id": "820d0452520f50ba809090dc04d8a3b7", "type": "electric_scooter", "is_reserved": 0, "lon": -76.999571}, {"fusion_lat": 0.0, "name": "ab0cf6f26b2a46ab7bc8679004275067", "is_disabled": 0, "rental_uris": {"android": "https://dc.lft.to/lastmile_qr_scan", "ios": "https://dc.lft.to/lastmile_qr_scan"}, "fusion_lon": 0.0, "lat": 38.96445283333333, "bike_id": "ab0cf6f26b2a46ab7bc8679004275067", "type": "electric_bike", "is_reserved": 0, "lon": -77.02237516666666}, {"fusion_lat": 0.0, "name": "32c8a6330a34b9dc4b69808a8267fcca", "is_disabled": 0, "rental_uris": {"android": "https://dc.lft.to/lastmile_qr_scan", "ios": "https://dc.lft.to/lastmile_qr_scan"}, "fusion_lon": 0.0, "lat": 38.892671666666665, "bike_id": "32c8a6330a34b9dc4b69808a8267fcca", "type": "electric_scooter", "is_reserved": 0, "lon": -77.04657833333333}, {"fusion_lat": 0.0, "name": "8368f0b12354247e528d7669db6c335d", "is_disabled": 0, "rental_uris": {"android": "https://dc.lft.to/lastmile_qr_scan", "ios": "https://dc.lft.to/lastmile_qr_scan"}, "fusion_lon": 0.0, "lat": 38.900247666666665, "bike_id": "8368f0b12354247e528d7669db6c335d", "type": "electric_scooter", "is_reserved": 0, "lon": -76.97403216666666}, {"fusion_lat": 0.0, "name": "2a6453207c7d15b42f723f514638aa60", "is_disabled": 0, "rental_uris": {"android": "https://dc.lft.to/lastmile_qr_scan", "ios": "https://dc.lft.to/lastmile_qr_scan"}, "fusion_lon": 0.0, "lat": 38.92326383333333, "bike_id": "2a6453207c7d15b42f723f514638aa60", "type": "electric_scooter", "is_reserved": 0, "lon": -77.046165}, {"fusion_lat": 0.0, "name": "c34dcf39ecf1244f911f49aa50d2dfe6", "is_disabled": 0, "rental_uris": {"android": "https://dc.lft.to/lastmile_qr_scan", "ios": "https://dc.lft.to/lastmile_qr_scan"}, "fusion_lon": 0.0, "lat": 38.909581, "bike_id": "c34dcf39ecf1244f911f49aa50d2dfe6", "type": "electric_scooter", "is_reserved": 0, "lon": -77.04807716666667}, {"fusion_lat": 0.0, "name": "331841243a14de6d49a31f167dd8bbbb", "is_disabled": 0, "rental_uris": {"android": "https://dc.lft.to/lastmile_qr_scan", "ios": "https://dc.lft.to/lastmile_qr_scan"}, "fusion_lon": 0.0, "lat": 38.9256695, "bike_id": "331841243a14de6d49a31f167dd8bbbb", "type": "electric_scooter", "is_reserved": 0, "lon": -77.0377335}, {"fusion_lat": 0.0, "name": "4e76e02db0ab6caa44255783cca84245", "is_disabled": 0, "rental_uris": {"android": "https://dc.lft.to/lastmile_qr_scan", "ios": "https://dc.lft.to/lastmile_qr_scan"}, "fusion_lon": 0.0, "lat": 38.883007166666665, "bike_id": "4e76e02db0ab6caa44255783cca84245", "type": "electric_scooter", "is_reserved": 0, "lon": -76.94857883333333}, {"fusion_lat": 0.0, "name": "65db8cd2f86052307b6277fb29723b76", "is_disabled": 0, "rental_uris": {"android": "https://dc.lft.to/lastmile_qr_scan", "ios": "https://dc.lft.to/lastmile_qr_scan"}, "fusion_lon": 0.0, "lat": 38.87712366666667, "bike_id": "65db8cd2f86052307b6277fb29723b76", "type": "electric_scooter", "is_reserved": 0, "lon": -77.01765433333334}, {"fusion_lat": 0.0, "name": "2ee28bc23914a93be50e69ead7e82aef", "is_disabled": 0, "rental_uris": {"android": "https://dc.lft.to/lastmile_qr_scan", "ios": "https://dc.lft.to/lastmile_qr_scan"}, "fusion_lon": 0.0, "lat": 38.898356166666666, "bike_id": "2ee28bc23914a93be50e69ead7e82aef", "type": "electric_scooter", "is_reserved": 0, "lon": -77.02980133333334}, {"fusion_lat": 0.0, "name": "f503f3071221f9609cfb45a0f38a52a9", "is_disabled": 0, "rental_uris": {"android": "https://dc.lft.to/lastmile_qr_scan", "ios": "https://dc.lft.to/lastmile_qr_scan"}, "fusion_lon": 0.0, "lat": 38.88653733333334, "bike_id": "f503f3071221f9609cfb45a0f38a52a9", "type": "electric_scooter", "is_reserved": 0, "lon": -77.01979916666667}, {"fusion_lat": 0.0, "name": "fadb00d44524d8ee3d00119cc001b571", "is_disabled": 0, "rental_uris": {"android": "https://dc.lft.to/lastmile_qr_scan", "ios": "https://dc.lft.to/lastmile_qr_scan"}, "fusion_lon": 0.0, "lat": 38.931798, "bike_id": "fadb00d44524d8ee3d00119cc001b571", "type": "electric_bike", "is_reserved": 0, "lon": -77.03539883333333}, {"fusion_lat": 0.0, "name": "aa96b8136cd0fd13bd3d0a653dd70f83", "is_disabled": 0, "rental_uris": {"android": "https://dc.lft.to/lastmile_qr_scan", "ios": "https://dc.lft.to/lastmile_qr_scan"}, "fusion_lon": 0.0, "lat": 38.9275725, "bike_id": "aa96b8136cd0fd13bd3d0a653dd70f83", "type": "electric_scooter", "is_reserved": 0, "lon": -77.03281533333333}, {"fusion_lat": 0.0, "name": "4b2296c239e28bea54561b24b8a21155", "is_disabled": 0, "rental_uris": {"android": "https://dc.lft.to/lastmile_qr_scan", "ios": "https://dc.lft.to/lastmile_qr_scan"}, "fusion_lon": 0.0, "lat": 38.80756483333333, "bike_id": "4b2296c239e28bea54561b24b8a21155", "type": "electric_bike", "is_reserved": 0, "lon": -77.0945725}, {"fusion_lat": 0.0, "name": "769e22c5ee772b43930930c454558716", "is_disabled": 0, "rental_uris": {"android": "https://dc.lft.to/lastmile_qr_scan", "ios": "https://dc.lft.to/lastmile_qr_scan"}, "fusion_lon": 0.0, "lat": 38.848546666666664, "bike_id": "769e22c5ee772b43930930c454558716", "type": "electric_bike", "is_reserved": 0, "lon": -77.0989955}, {"fusion_lat": 0.0, "name": "c1441d2c3a4521962a515cf5b9aea8d9", "is_disabled": 0, "rental_uris": {"android": "https://dc.lft.to/lastmile_qr_scan", "ios": "https://dc.lft.to/lastmile_qr_scan"}, "fusion_lon": 0.0, "lat": 38.9100475, "bike_id": "c1441d2c3a4521962a515cf5b9aea8d9", "type": "electric_scooter", "is_reserved": 0, "lon": -77.04006383333333}, {"fusion_lat": 0.0, "name": "6b74e179f5b75dba09e7d61204fe8dbb", "is_disabled": 0, "rental_uris": {"android": "https://dc.lft.to/lastmile_qr_scan", "ios": "https://dc.lft.to/lastmile_qr_scan"}, "fusion_lon": 0.0, "lat": 38.86331116666667, "bike_id": "6b74e179f5b75dba09e7d61204fe8dbb", "type": "electric_bike", "is_reserved": 0, "lon": -76.987219}, {"fusion_lat": 0.0, "name": "a5a084089de80fac6a9a702cca78da4f", "is_disabled": 0, "rental_uris": {"android": "https://dc.lft.to/lastmile_qr_scan", "ios": "https://dc.lft.to/lastmile_qr_scan"}, "fusion_lon": 0.0, "lat": 38.92680633333333, "bike_id": "a5a084089de80fac6a9a702cca78da4f", "type": "electric_scooter", "is_reserved": 0, "lon": -77.02579666666666}, {"fusion_lat": 0.0, "name": "a2db6a904f47765ab2f21e9e60a16fa7", "is_disabled": 0, "rental_uris": {"android": "https://dc.lft.to/lastmile_qr_scan", "ios": "https://dc.lft.to/lastmile_qr_scan"}, "fusion_lon": 0.0, "lat": 38.93261783333333, "bike_id": "a2db6a904f47765ab2f21e9e60a16fa7", "type": "electric_scooter", "is_reserved": 0, "lon": -76.9889845}, {"fusion_lat": 0.0, "name": "54a54b517f919ddc7175b039865d9805", "is_disabled": 0, "rental_uris": {"android": "https://dc.lft.to/lastmile_qr_scan", "ios": "https://dc.lft.to/lastmile_qr_scan"}, "fusion_lon": 0.0, "lat": 38.90484416666666, "bike_id": "54a54b517f919ddc7175b039865d9805", "type": "electric_scooter", "is_reserved": 0, "lon": -76.99625783333333}, {"fusion_lat": 0.0, "name": "51bfb798cc5f07e71d4165e342f5d54c", "is_disabled": 0, "rental_uris": {"android": "https://dc.lft.to/lastmile_qr_scan", "ios": "https://dc.lft.to/lastmile_qr_scan"}, "fusion_lon": 0.0, "lat": 38.953484333333336, "bike_id": "51bfb798cc5f07e71d4165e342f5d54c", "type": "electric_scooter", "is_reserved": 0, "lon": -77.02556483333333}, {"fusion_lat": 0.0, "name": "61d112c8c1467ad7153ee84c9ec4489f", "is_disabled": 0, "rental_uris": {"android": "https://dc.lft.to/lastmile_qr_scan", "ios": "https://dc.lft.to/lastmile_qr_scan"}, "fusion_lon": 0.0, "lat": 38.90912633333333, "bike_id": "61d112c8c1467ad7153ee84c9ec4489f", "type": "electric_scooter", "is_reserved": 0, "lon": -77.06420633333333}, {"fusion_lat": 0.0, "name": "19fe3f5780367bca62f5e3ea5a4f0485", "is_disabled": 0, "rental_uris": {"android": "https://dc.lft.to/lastmile_qr_scan", "ios": "https://dc.lft.to/lastmile_qr_scan"}, "fusion_lon": 0.0, "lat": 38.907802, "bike_id": "19fe3f5780367bca62f5e3ea5a4f0485", "type": "electric_scooter", "is_reserved": 0, "lon": -77.038637}, {"fusion_lat": 0.0, "name": "9a7359cc163523bacc9c0d389b5fbd55", "is_disabled": 0, "rental_uris": {"android": "https://dc.lft.to/lastmile_qr_scan", "ios": "https://dc.lft.to/lastmile_qr_scan"}, "fusion_lon": 0.0, "lat": 38.89234283333333, "bike_id": "9a7359cc163523bacc9c0d389b5fbd55", "type": "electric_scooter", "is_reserved": 0, "lon": -77.02383983333333}, {"fusion_lat": 0.0, "name": "74e26fc5cea045241e8f4238bbe6b7c1", "is_disabled": 0, "rental_uris": {"android": "https://dc.lft.to/lastmile_qr_scan", "ios": "https://dc.lft.to/lastmile_qr_scan"}, "fusion_lon": 0.0, "lat": 38.91632766666667, "bike_id": "74e26fc5cea045241e8f4238bbe6b7c1", "type": "electric_scooter", "is_reserved": 0, "lon": -77.02972516666667}, {"fusion_lat": 0.0, "name": "e9d88fa7c71020a8ff9bc27ecce1e285", "is_disabled": 0, "rental_uris": {"android": "https://dc.lft.to/lastmile_qr_scan", "ios": "https://dc.lft.to/lastmile_qr_scan"}, "fusion_lon": 0.0, "lat": 38.962202833333336, "bike_id": "e9d88fa7c71020a8ff9bc27ecce1e285", "type": "electric_bike", "is_reserved": 0, "lon": -77.026308}, {"fusion_lat": 0.0, "name": "b143c5feab9c4be77f13176f4999bfbd", "is_disabled": 0, "rental_uris": {"android": "https://dc.lft.to/lastmile_qr_scan", "ios": "https://dc.lft.to/lastmile_qr_scan"}, "fusion_lon": 0.0, "lat": 38.9291265, "bike_id": "b143c5feab9c4be77f13176f4999bfbd", "type": "electric_scooter", "is_reserved": 0, "lon": -77.02163283333333}, {"fusion_lat": 0.0, "name": "dc2d35bf93041816edf83c43de8cb908", "is_disabled": 0, "rental_uris": {"android": "https://dc.lft.to/lastmile_qr_scan", "ios": "https://dc.lft.to/lastmile_qr_scan"}, "fusion_lon": 0.0, "lat": 38.90620916666666, "bike_id": "dc2d35bf93041816edf83c43de8cb908", "type": "electric_scooter", "is_reserved": 0, "lon": -77.02593866666666}, {"fusion_lat": 0.0, "name": "146277c359b06e6af60a9eaaba1ec521", "is_disabled": 0, "rental_uris": {"android": "https://dc.lft.to/lastmile_qr_scan", "ios": "https://dc.lft.to/lastmile_qr_scan"}, "fusion_lon": 0.0, "lat": 38.91749466666667, "bike_id": "146277c359b06e6af60a9eaaba1ec521", "type": "electric_scooter", "is_reserved": 0, "lon": -77.06940866666666}, {"fusion_lat": 0.0, "name": "ed93fa93da8d347605decf30793cc214", "is_disabled": 0, "rental_uris": {"android": "https://dc.lft.to/lastmile_qr_scan", "ios": "https://dc.lft.to/lastmile_qr_scan"}, "fusion_lon": 0.0, "lat": 38.912563666666664, "bike_id": "ed93fa93da8d347605decf30793cc214", "type": "electric_scooter", "is_reserved": 0, "lon": -77.03166016666667}, {"fusion_lat": 0.0, "name": "ca36199febf754655bdb8f2c7fdba074", "is_disabled": 0, "rental_uris": {"android": "https://dc.lft.to/lastmile_qr_scan", "ios": "https://dc.lft.to/lastmile_qr_scan"}, "fusion_lon": 0.0, "lat": 38.8801785, "bike_id": "ca36199febf754655bdb8f2c7fdba074", "type": "electric_scooter", "is_reserved": 0, "lon": -76.98068666666667}, {"fusion_lat": 0.0, "name": "138e26f714d0ed85b72964d73daa0255", "is_disabled": 0, "rental_uris": {"android": "https://dc.lft.to/lastmile_qr_scan", "ios": "https://dc.lft.to/lastmile_qr_scan"}, "fusion_lon": 0.0, "lat": 38.9118215, "bike_id": "138e26f714d0ed85b72964d73daa0255", "type": "electric_scooter", "is_reserved": 0, "lon": -77.0417955}, {"fusion_lat": 0.0, "name": "8e7592b368c5c2f09eac0b2edc528933", "is_disabled": 0, "rental_uris": {"android": "https://dc.lft.to/lastmile_qr_scan", "ios": "https://dc.lft.to/lastmile_qr_scan"}, "fusion_lon": 0.0, "lat": 38.91117466666667, "bike_id": "8e7592b368c5c2f09eac0b2edc528933", "type": "electric_scooter", "is_reserved": 0, "lon": -77.04373183333334}, {"fusion_lat": 0.0, "name": "62916526bc47165aa92bfff0ea125689", "is_disabled": 0, "rental_uris": {"android": "https://dc.lft.to/lastmile_qr_scan", "ios": "https://dc.lft.to/lastmile_qr_scan"}, "fusion_lon": 0.0, "lat": 38.89678283333333, "bike_id": "62916526bc47165aa92bfff0ea125689", "type": "electric_scooter", "is_reserved": 0, "lon": -76.93208083333333}, {"fusion_lat": 0.0, "name": "a73389e5e209946e0bbade148bb98ebd", "is_disabled": 0, "rental_uris": {"android": "https://dc.lft.to/lastmile_qr_scan", "ios": "https://dc.lft.to/lastmile_qr_scan"}, "fusion_lon": 0.0, "lat": 38.90969533333333, "bike_id": "a73389e5e209946e0bbade148bb98ebd", "type": "electric_scooter", "is_reserved": 0, "lon": -77.03426366666666}, {"fusion_lat": 0.0, "name": "89586c831b51ee3a6f2279291ea48d3e", "is_disabled": 0, "rental_uris": {"android": "https://dc.lft.to/lastmile_qr_scan", "ios": "https://dc.lft.to/lastmile_qr_scan"}, "fusion_lon": 0.0, "lat": 38.90194866666667, "bike_id": "89586c831b51ee3a6f2279291ea48d3e", "type": "electric_scooter", "is_reserved": 0, "lon": -77.02374133333333}, {"fusion_lat": 0.0, "name": "e1b8f85c7d6e9a82e4f1ccf4d43d7add", "is_disabled": 0, "rental_uris": {"android": "https://dc.lft.to/lastmile_qr_scan", "ios": "https://dc.lft.to/lastmile_qr_scan"}, "fusion_lon": 0.0, "lat": 38.92379416666667, "bike_id": "e1b8f85c7d6e9a82e4f1ccf4d43d7add", "type": "electric_scooter", "is_reserved": 0, "lon": -77.027345}, {"fusion_lat": 0.0, "name": "8862847411b46bd063f8a28c6a6222d7", "is_disabled": 0, "rental_uris": {"android": "https://dc.lft.to/lastmile_qr_scan", "ios": "https://dc.lft.to/lastmile_qr_scan"}, "fusion_lon": 0.0, "lat": 38.91036616666667, "bike_id": "8862847411b46bd063f8a28c6a6222d7", "type": "electric_scooter", "is_reserved": 0, "lon": -77.04269733333334}, {"fusion_lat": 0.0, "name": "21be3d5502c0cab3b45884e0d509ceb3", "is_disabled": 0, "rental_uris": {"android": "https://dc.lft.to/lastmile_qr_scan", "ios": "https://dc.lft.to/lastmile_qr_scan"}, "fusion_lon": 0.0, "lat": 38.906666, "bike_id": "21be3d5502c0cab3b45884e0d509ceb3", "type": "electric_scooter", "is_reserved": 0, "lon": -77.0271575}, {"fusion_lat": 0.0, "name": "145bc156ec8e418d09d592275f502cca", "is_disabled": 0, "rental_uris": {"android": "https://dc.lft.to/lastmile_qr_scan", "ios": "https://dc.lft.to/lastmile_qr_scan"}, "fusion_lon": 0.0, "lat": 38.924894333333334, "bike_id": "145bc156ec8e418d09d592275f502cca", "type": "electric_bike", "is_reserved": 0, "lon": -77.23346716666667}, {"fusion_lat": 0.0, "name": "f91f0292a0313d1c7a2b875f687a078a", "is_disabled": 0, "rental_uris": {"android": "https://dc.lft.to/lastmile_qr_scan", "ios": "https://dc.lft.to/lastmile_qr_scan"}, "fusion_lon": 0.0, "lat": 38.93255633333333, "bike_id": "f91f0292a0313d1c7a2b875f687a078a", "type": "electric_scooter", "is_reserved": 0, "lon": -77.01914366666666}, {"fusion_lat": 0.0, "name": "9190dc904a054dd8fadc2feda431765e", "is_disabled": 0, "rental_uris": {"android": "https://dc.lft.to/lastmile_qr_scan", "ios": "https://dc.lft.to/lastmile_qr_scan"}, "fusion_lon": 0.0, "lat": 38.90094116666667, "bike_id": "9190dc904a054dd8fadc2feda431765e", "type": "electric_scooter", "is_reserved": 0, "lon": -77.05691233333333}, {"fusion_lat": 0.0, "name": "6b3b57ac6a70840efa2fa377d89990bd", "is_disabled": 0, "rental_uris": {"android": "https://dc.lft.to/lastmile_qr_scan", "ios": "https://dc.lft.to/lastmile_qr_scan"}, "fusion_lon": 0.0, "lat": 38.9189025, "bike_id": "6b3b57ac6a70840efa2fa377d89990bd", "type": "electric_scooter", "is_reserved": 0, "lon": -77.03516533333334}, {"fusion_lat": 0.0, "name": "d7c238ef70c0a6d9e796ef4db0307239", "is_disabled": 0, "rental_uris": {"android": "https://dc.lft.to/lastmile_qr_scan", "ios": "https://dc.lft.to/lastmile_qr_scan"}, "fusion_lon": 0.0, "lat": 38.90731516666666, "bike_id": "d7c238ef70c0a6d9e796ef4db0307239", "type": "electric_scooter", "is_reserved": 0, "lon": -77.02951533333334}, {"fusion_lat": 0.0, "name": "e1c166b1ff586a8b67bf414e6fed1e08", "is_disabled": 0, "rental_uris": {"android": "https://dc.lft.to/lastmile_qr_scan", "ios": "https://dc.lft.to/lastmile_qr_scan"}, "fusion_lon": 0.0, "lat": 38.90682066666667, "bike_id": "e1c166b1ff586a8b67bf414e6fed1e08", "type": "electric_scooter", "is_reserved": 0, "lon": -77.03638433333333},