{"data": {"bikes": [{"rental_uris": {"ios": "https://dc.lft.to/lastmile_qr_scan", "android": "https://dc.lft.to/lastmile_qr_scan"}, "lon": -77.02264483333333, "type": "electric_scooter", "fusion_lat": 0.0, "lat": 38.912769, "name": "c7d78d853ffe2309bfaabaaf7cd4a1c4", "fusion_lon": 0.0, "bike_id": "c7d78d853ffe2309bfaabaaf7cd4a1c4", "is_disabled": 0, "is_reserved": 0}, {"rental_uris": {"ios": "https://dc.lft.to/lastmile_qr_scan", "android": "https://dc.lft.to/lastmile_qr_scan"}, "lon": -76.980197, "type": "electric_scooter", "fusion_lat": 0.0, "lat": 38.90379933333333, "name": "e2b5fe7ca46bded2ad359ccf38d3c92e", "fusion_lon": 0.0, "bike_id": "e2b5fe7ca46bded2ad359ccf38d3c92e", "is_disabled": 0, "is_reserved": 0}, {"rental_uris": {"ios": "https://dc.lft.to/lastmile_qr_scan", "android": "https://dc.lft.to/lastmile_qr_scan"}, "lon": -76.99836333333333, "type": "electric_bike", "fusion_lat": 0.0, "lat": 38.839170333333335, "name": "e60a6cb2f7cba8b0e1c24d44670c188c", "fusion_lon": 0.0, "bike_id": "e60a6cb2f7cba8b0e1c24d44670c188c", "is_disabled": 0, "is_reserved": 0}, {"rental_uris": {"ios": "https://dc.lft.to/lastmile_qr_scan", "android": "https://dc.lft.to/lastmile_qr_scan"}, "lon": -77.04330883333333, "type": "electric_scooter", "fusion_lat": 0.0, "lat": 38.9279615, "name": "28dc7c3e3499954f61461499c35f3df7", "fusion_lon": 0.0, "bike_id": "28dc7c3e3499954f61461499c35f3df7", "is_disabled": 0, "is_reserved": 0}, {"rental_uris": {"ios": "https://dc.lft.to/lastmile_qr_scan", "android": "https://dc.lft.to/lastmile_qr_scan"}, "lon": -77.0249735, "type": "electric_scooter", "fusion_lat": 0.0, "lat": 38.8974215, "name": "e7e43045d0d560f722c66fa84bb15e14", "fusion_lon": 0.0, "bike_id": "e7e43045d0d560f722c66fa84bb15e14", "is_disabled": 0, "is_reserved": 0}, {"rental_uris": {"ios": "https://dc.lft.to/lastmile_qr_scan", "android": "https://dc.lft.to/lastmile_qr_scan"}, "lon": -76.95746016666666, "type": "electric_scooter", "fusion_lat": 0.0, "lat": 38.886920333333336, "name": "81d5140dece2d80bf3086f4b5a4a9ce3", "fusion_lon": 0.0, "bike_id": "81d5140dece2d80bf3086f4b5a4a9ce3", "is_disabled": 0, "is_reserved": 0}, {"rental_uris": {"ios": "https://dc.lft.to/lastmile_qr_scan", "android": "https://dc.lft.to/lastmile_qr_scan"}, "lon": -77.00493783333333, "type": "electric_scooter", "fusion_lat": 0.0, "lat": 38.87891283333333, "name": "5b7012910a14d32b3d0f2657e53092d3", "fusion_lon": 0.0, "bike_id": "5b7012910a14d32b3d0f2657e53092d3", "is_disabled": 0, "is_reserved": 0}, {"rental_uris": {"ios": "https://dc.lft.to/lastmile_qr_scan", "android": "https://dc.lft.to/lastmile_qr_scan"}, "lon": -77.065323, "type": "electric_scooter", "fusion_lat": 0.0, "lat": 38.9047875, "name": "c9c3ee4c50eebed09493010986e40498", "fusion_lon": 0.0, "bike_id": "c9c3ee4c50eebed09493010986e40498", "is_disabled": 0, "is_reserved": 0}, {"rental_uris": {"ios": "https://dc.lft.to/lastmile_qr_scan", "android": "https://dc.lft.to/lastmile_qr_scan"}, "lon": -76.99502916666667, "type": "electric_scooter", "fusion_lat": 0.0, "lat": 38.886286, "name": "e386f45f523907c29e90b88db83e8db3", "fusion_lon": 0.0, "bike_id": "e386f45f523907c29e90b88db83e8db3", "is_disabled": 0, "is_reserved": 0}, {"rental_uris": {"ios": "https://dc.lft.to/lastmile_qr_scan", "android": "https://dc.lft.to/lastmile_qr_scan"}, "lon": -77.0417345, "type": "electric_scooter", "fusion_lat": 0.0, "lat": 38.919039833333336, "name": "1eac463859bed3d7fb391e965301c4d0", "fusion_lon": 0.0, "bike_id": "1eac463859bed3d7fb391e965301c4d0", "is_disabled": 0, "is_reserved": 0}, {"rental_uris": {"ios": "https://dc.lft.to/lastmile_qr_scan", "android": "https://dc.lft.to/lastmile_qr_scan"}, "lon": -76.958821, "type": "electric_scooter", "fusion_lat": 0.0, "lat": 38.85852, "name": "fc9991b37f5d0f1ff432afab77179d23", "fusion_lon": 0.0, "bike_id": "fc9991b37f5d0f1ff432afab77179d23", "is_disabled": 0, "is_reserved": 0}, {"rental_uris": {"ios": "https://dc.lft.to/lastmile_qr_scan", "android": "https://dc.lft.to/lastmile_qr_scan"}, "lon": -77.02199633333333, "type": "electric_scooter", "fusion_lat": 0.0, "lat": 38.909684166666665, "name": "84b13ebc1d19b446ad4a1a292d8f8297", "fusion_lon": 0.0, "bike_id": "84b13ebc1d19b446ad4a1a292d8f8297", "is_disabled": 0, "is_reserved": 0}, {"rental_uris": {"ios": "https://dc.lft.to/lastmile_qr_scan", "android": "https://dc.lft.to/lastmile_qr_scan"}, "lon": -76.99675316666666, "type": "electric_scooter", "fusion_lat": 0.0, "lat": 38.921702333333336, "name": "ac5f242a7db6ade6e24c1a47fa9f8924", "fusion_lon": 0.0, "bike_id": "ac5f242a7db6ade6e24c1a47fa9f8924", "is_disabled": 0, "is_reserved": 0}, {"rental_uris": {"ios": "https://dc.lft.to/lastmile_qr_scan", "android": "https://dc.lft.to/lastmile_qr_scan"}, "lon": -77.001398, "type": "electric_scooter", "fusion_lat": 0.0, "lat": 38.87373983333333, "name": "170b0c2e4c9d05671e5bedd73eaade37", "fusion_lon": 0.0, "bike_id": "170b0c2e4c9d05671e5bedd73eaade37", "is_disabled": 0, "is_reserved": 0}, {"rental_uris": {"ios": "https://dc.lft.to/lastmile_qr_scan", "android": "https://dc.lft.to/lastmile_qr_scan"}, "lon": -77.09134316666666, "type": "electric_bike", "fusion_lat": 0.0, "lat": 38.804177333333335, "name": "4830e76f5fe48da1724b3262390e9a89", "fusion_lon": 0.0, "bike_id": "4830e76f5fe48da1724b3262390e9a89", "is_disabled": 0, "is_reserved": 0}, {"rental_uris": {"ios": "https://dc.lft.to/lastmile_qr_scan", "android": "https://dc.lft.to/lastmile_qr_scan"}, "lon": -77.0538135, "type": "electric_scooter", "fusion_lat": 0.0, "lat": 38.935247833333335, "name": "4e06bb7a05f427da925f99b01b40ed5b", "fusion_lon": 0.0, "bike_id": "4e06bb7a05f427da925f99b01b40ed5b", "is_disabled": 0, "is_reserved": 0}, {"rental_uris": {"ios": "https://dc.lft.to/lastmile_qr_scan", "android": "https://dc.lft.to/lastmile_qr_scan"}, "lon": -76.97993366666667, "type": "electric_bike", "fusion_lat": 0.0, "lat": 38.900175833333336, "name": "f270c1bc6a97c28035ecc3897af7953a", "fusion_lon": 0.0, "bike_id": "f270c1bc6a97c28035ecc3897af7953a", "is_disabled": 0, "is_reserved": 0}, {"rental_uris": {"ios": "https://dc.lft.to/lastmile_qr_scan", "android": "https://dc.lft.to/lastmile_qr_scan"}, "lon": -77.04414566666667, "type": "electric_scooter", "fusion_lat": 0.0, "lat": 38.913143, "name": "a093e14460bca16462dfbdab0e09939e", "fusion_lon": 0.0, "bike_id": "a093e14460bca16462dfbdab0e09939e", "is_disabled": 0, "is_reserved": 0}, {"rental_uris": {"ios": "https://dc.lft.to/lastmile_qr_scan", "android": "https://dc.lft.to/lastmile_qr_scan"}, "lon": -77.04022716666667, "type": "electric_scooter", "fusion_lat": 0.0, "lat": 38.9237625, "name": "4e4d619b590aab06578c19207c9bd44e", "fusion_lon": 0.0, "bike_id": "4e4d619b590aab06578c19207c9bd44e", "is_disabled": 0, "is_reserved": 0}, {"rental_uris": {"ios": "https://dc.lft.to/lastmile_qr_scan", "android": "https://dc.lft.to/lastmile_qr_scan"}, "lon": -77.03002633333334, "type": "electric_scooter", "fusion_lat": 0.0, "lat": 38.89219166666667, "name": "42da80c2eab31e7ece7aebe32c975c3c", "fusion_lon": 0.0, "bike_id": "42da80c2eab31e7ece7aebe32c975c3c", "is_disabled": 0, "is_reserved": 0}, {"rental_uris": {"ios": "https://dc.lft.to/lastmile_qr_scan", "android": "https://dc.lft.to/lastmile_qr_scan"}, "lon": -77.0404195, "type": "electric_scooter", "fusion_lat": 0.0, "lat": 38.92406233333333, "name": "778c8e620f3c09083a8996b7f7ecbfac", "fusion_lon": 0.0, "bike_id": "778c8e620f3c09083a8996b7f7ecbfac", "is_disabled": 0, "is_reserved": 0}, {"rental_uris": {"ios": "https://dc.lft.to/lastmile_qr_scan", "android": "https://dc.lft.to/lastmile_qr_scan"}, "lon": -77.03210566666667, "type": "electric_scooter", "fusion_lat": 0.0, "lat": 38.907689, "name": "5598e11d4692641921d6382d66826b03", "fusion_lon": 0.0, "bike_id": "5598e11d4692641921d6382d66826b03", "is_disabled": 0, "is_reserved": 0}, {"rental_uris": {"ios": "https://dc.lft.to/lastmile_qr_scan", "android": "https://dc.lft.to/lastmile_qr_scan"}, "lon": -77.01317133333333, "type": "electric_scooter", "fusion_lat": 0.0, "lat": 38.89742316666667, "name": "a7ed96d95f7c5639cc5c75f671bd653a", "fusion_lon": 0.0, "bike_id": "a7ed96d95f7c5639cc5c75f671bd653a", "is_disabled": 0, "is_reserved": 0}, {"rental_uris": {"ios": "https://dc.lft.to/lastmile_qr_scan", "android": "https://dc.lft.to/lastmile_qr_scan"}, "lon": -76.95240133333333, "type": "electric_bike", "fusion_lat": 0.0, "lat": 38.907064, "name": "26374b38b3bf0e40570a6ed1c4a17cdd", "fusion_lon": 0.0, "bike_id": "26374b38b3bf0e40570a6ed1c4a17cdd", "is_disabled": 0, "is_reserved": 0}, {"rental_uris": {"ios": "https://dc.lft.to/lastmile_qr_scan", "android": "https://dc.lft.to/lastmile_qr_scan"}, "lon": -77.02326083333334, "type": "electric_scooter", "fusion_lat": 0.0, "lat": 38.8939855, "name": "60f6ca506bca138aad0631d15ec5da37", "fusion_lon": 0.0, "bike_id": "60f6ca506bca138aad0631d15ec5da37", "is_disabled": 0, "is_reserved": 0}, {"rental_uris": {"ios": "https://dc.lft.to/lastmile_qr_scan", "android": "https://dc.lft.to/lastmile_qr_scan"}, "lon": -77.054974, "type": "electric_scooter", "fusion_lat": 0.0, "lat": 38.929723, "name": "627f718b6e50cfceca4d56c2fb61ea00", "fusion_lon": 0.0, "bike_id": "627f718b6e50cfceca4d56c2fb61ea00", "is_disabled": 0, "is_reserved": 0}, {"rental_uris": {"ios": "https://dc.lft.to/lastmile_qr_scan", "android": "https://dc.lft.to/lastmile_qr_scan"}, "lon": -77.030699, "type": "electric_scooter", "fusion_lat": 0.0, "lat": 38.90754033333333, "name": "786ce63bfcfbd7f851c2e871348fdf7c", "fusion_lon": 0.0, "bike_id": "786ce63bfcfbd7f851c2e871348fdf7c", "is_disabled": 0, "is_reserved": 0}, {"rental_uris": {"ios": "https://dc.lft.to/lastmile_qr_scan", "android": "https://dc.lft.to/lastmile_qr_scan"}, "lon": -77.0322835, "type": "electric_scooter", "fusion_lat": 0.0, "lat": 38.91405666666667, "name": "6b1dcab01fbfe3788323e4b99808cc26", "fusion_lon": 0.0, "bike_id": "6b1dcab01fbfe3788323e4b99808cc26", "is_disabled": 0, "is_reserved": 0}, {"rental_uris": {"ios": "https://dc.lft.to/lastmile_qr_scan", "android": "https://dc.lft.to/lastmile_qr_scan"}, "lon": -77.04067683333334, "type": "electric_bike", "fusion_lat": 0.0, "lat": 38.93420833333333, "name": "ab4bf669b35b8d20f1549a03095943a2", "fusion_lon": 0.0, "bike_id": "ab4bf669b35b8d20f1549a03095943a2", "is_disabled": 0, "is_reserved": 0}, {"rental_uris": {"ios": "https://dc.lft.to/lastmile_qr_scan", "android": "https://dc.lft.to/lastmile_qr_scan"}, "lon": -76.95752683333333, "type": "electric_scooter", "fusion_lat": 0.0, "lat": 38.884306333333335, "name": "4143f5586c4df42f077d72ac48d3ff5e", "fusion_lon": 0.0, "bike_id": "4143f5586c4df42f077d72ac48d3ff5e", "is_disabled": 0, "is_reserved": 0}, {"rental_uris": {"ios": "https://dc.lft.to/lastmile_qr_scan", "android": "https://dc.lft.to/lastmile_qr_scan"}, "lon": -77.03211, "type": "electric_scooter", "fusion_lat": 0.0, "lat": 38.917859166666666, "name": "440f7189eb87e4dcacbd884d00b035ba", "fusion_lon": 0.0, "bike_id": "440f7189eb87e4dcacbd884d00b035ba", "is_disabled": 0, "is_reserved": 0}, {"rental_uris": {"ios": "https://dc.lft.to/lastmile_qr_scan", "android": "https://dc.lft.to/lastmile_qr_scan"}, "lon": -77.125007, "type": "electric_bike", "fusion_lat": 0.0, "lat": 39.0242815, "name": "c833891e036dc982db19e8987921fdad", "fusion_lon": 0.0, "bike_id": "c833891e036dc982db19e8987921fdad", "is_disabled": 0, "is_reserved": 0}, {"rental_uris": {"ios": "https://dc.lft.to/lastmile_qr_scan", "android": "https://dc.lft.to/lastmile_qr_scan"}, "lon": -77.01984283333333, "type": "electric_bike", "fusion_lat": 0.0, "lat": 38.9647935, "name": "ac16cbe89f6f234b92af9480c40ef812", "fusion_lon": 0.0, "bike_id": "ac16cbe89f6f234b92af9480c40ef812", "is_disabled": 0, "is_reserved": 0}, {"rental_uris": {"ios": "https://dc.lft.to/lastmile_qr_scan", "android": "https://dc.lft.to/lastmile_qr_scan"}, "lon": -77.07563716666667, "type": "electric_scooter", "fusion_lat": 0.0, "lat": 38.920926, "name": "1f277b3f11d3458f707b4c563b73afdc", "fusion_lon": 0.0, "bike_id": "1f277b3f11d3458f707b4c563b73afdc", "is_disabled": 0, "is_reserved": 0}, {"rental_uris": {"ios": "https://dc.lft.to/lastmile_qr_scan", "android": "https://dc.lft.to/lastmile_qr_scan"}, "lon": -77.02637216666666, "type": "electric_scooter", "fusion_lat": 0.0, "lat": 38.8984745, "name": "fc34bbc5e01407c5f961bee296cf4869", "fusion_lon": 0.0, "bike_id": "fc34bbc5e01407c5f961bee296cf4869", "is_disabled": 0, "is_reserved": 0}, {"rental_uris": {"ios": "https://dc.lft.to/lastmile_qr_scan", "android": "https://dc.lft.to/lastmile_qr_scan"}, "lon": -77.0426125, "type": "electric_scooter", "fusion_lat": 0.0, "lat": 38.90544366666666, "name": "446b208ebc62776f0e465ae2fd9ff51c", "fusion_lon": 0.0, "bike_id": "446b208ebc62776f0e465ae2fd9ff51c", "is_disabled": 0, "is_reserved": 0}, {"rental_uris": {"ios": "https://dc.lft.to/lastmile_qr_scan", "android": "https://dc.lft.to/lastmile_qr_scan"}, "lon": -76.93369116666666, "type": "electric_scooter", "fusion_lat": 0.0, "lat": 38.89918433333333, "name": "f5b3c3e11db0910a2421d0038ecd932e", "fusion_lon": 0.0, "bike_id": "f5b3c3e11db0910a2421d0038ecd932e", "is_disabled": 0, "is_reserved": 0}, {"rental_uris": {"ios": "https://dc.lft.to/lastmile_qr_scan", "android": "https://dc.lft.to/lastmile_qr_scan"}, "lon": -76.9989535, "type": "electric_scooter", "fusion_lat": 0.0, "lat": 38.90952266666667, "name": "fb8c6e2d112a8af52370531eb2c21b91", "fusion_lon": 0.0, "bike_id": "fb8c6e2d112a8af52370531eb2c21b91", "is_disabled": 0, "is_reserved": 0}, {"rental_uris": {"ios": "https://dc.lft.to/lastmile_qr_scan", "android": "https://dc.lft.to/lastmile_qr_scan"}, "lon": -77.0346005, "type": "electric_scooter", "fusion_lat": 0.0, "lat": 38.90948366666667, "name": "433d7dc39aa79baa07c8a28d0c02a45a", "fusion_lon": 0.0, "bike_id": "433d7dc39aa79baa07c8a28d0c02a45a", "is_disabled": 0, "is_reserved": 0}, {"rental_uris": {"ios": "https://dc.lft.to/lastmile_qr_scan", "android": "https://dc.lft.to/lastmile_qr_scan"}, "lon": -77.0466825, "type": "electric_scooter", "fusion_lat": 0.0, "lat": 38.90953116666667, "name": "09d0429db373f55e9e8f9d1c8c06bde6", "fusion_lon": 0.0, "bike_id": "09d0429db373f55e9e8f9d1c8c06bde6", "is_disabled": 0, "is_reserved": 0}, {"rental_uris": {"ios": "https://dc.lft.to/lastmile_qr_scan", "android": "https://dc.lft.to/lastmile_qr_scan"}, "lon": -77.0314235, "type": "electric_scooter", "fusion_lat": 0.0, "lat": 38.92015933333333, "name": "8d19fbf8d8f1f94a7111d395d47a4f6e", "fusion_lon": 0.0, "bike_id": "8d19fbf8d8f1f94a7111d395d47a4f6e", "is_disabled": 0, "is_reserved": 0}, {"rental_uris": {"ios": "https://dc.lft.to/lastmile_qr_scan", "android": "https://dc.lft.to/lastmile_qr_scan"}, "lon": -77.00590766666667, "type": "electric_scooter", "fusion_lat": 0.0, "lat": 38.906295, "name": "1294e3ffe9a068bb20c5b510d152729c", "fusion_lon": 0.0, "bike_id": "1294e3ffe9a068bb20c5b510d152729c", "is_disabled": 0, "is_reserved": 0}, {"rental_uris": {"ios": "https://dc.lft.to/lastmile_qr_scan", "android": "https://dc.lft.to/lastmile_qr_scan"}, "lon": -76.9950275, "type": "electric_scooter", "fusion_lat": 0.0, "lat": 38.88311, "name": "b178d341acd706c00ac3b4e8df15e39f", "fusion_lon": 0.0, "bike_id": "b178d341acd706c00ac3b4e8df15e39f", "is_disabled": 0, "is_reserved": 0}, {"rental_uris": {"ios": "https://dc.lft.to/lastmile_qr_scan", "android": "https://dc.lft.to/lastmile_qr_scan"}, "lon": -76.93643033333333, "type": "electric_scooter", "fusion_lat": 0.0, "lat": 38.890001, "name": "fc6fe3496eb86d8c8f8afde0f94ef6d8", "fusion_lon": 0.0, "bike_id": "fc6fe3496eb86d8c8f8afde0f94ef6d8", "is_disabled": 0, "is_reserved": 0}, {"rental_uris": {"ios": "https://dc.lft.to/lastmile_qr_scan", "android": "https://dc.lft.to/lastmile_qr_scan"}, "lon": -77.06362566666667, "type": "electric_scooter", "fusion_lat": 0.0, "lat": 38.909311833333334, "name": "4701837a11a81186faf2a09b4cfe8c57", "fusion_lon": 0.0, "bike_id": "4701837a11a81186faf2a09b4cfe8c57", "is_disabled": 0, "is_reserved": 0}, {"rental_uris": {"ios": "https://dc.lft.to/lastmile_qr_scan", "android": "https://dc.lft.to/lastmile_qr_scan"}, "lon": -77.048133, "type": "electric_scooter", "fusion_lat": 0.0, "lat": 38.89622116666666, "name": "0ce4f791b3622221de0196931a1f928e", "fusion_lon": 0.0, "bike_id": "0ce4f791b3622221de0196931a1f928e", "is_disabled": 0, "is_reserved": 0}, {"rental_uris": {"ios": "https://dc.lft.to/lastmile_qr_scan", "android": "https://dc.lft.to/lastmile_qr_scan"}, "lon": -77.05881883333333, "type": "electric_scooter", "fusion_lat": 0.0, "lat": 38.93637783333333, "name": "396abbe306fba6975aa426fd3b024c42", "fusion_lon": 0.0, "bike_id": "396abbe306fba6975aa426fd3b024c42", "is_disabled": 0, "is_reserved": 0}, {"rental_uris": {"ios": "https://dc.lft.to/lastmile_qr_scan", "android": "https://dc.lft.to/lastmile_qr_scan"}, "lon": -77.02705616666667, "type": "electric_scooter", "fusion_lat": 0.0, "lat": 38.90668483333334, "name": "5dc0ef5b6cf3ac25a6f7a34d7f870d41", "fusion_lon": 0.0, "bike_id": "5dc0ef5b6cf3ac25a6f7a34d7f870d41", "is_disabled": 0, "is_reserved": 0}, {"rental_uris": {"ios": "https://dc.lft.to/lastmile_qr_scan", "android": "https://dc.lft.to/lastmile_qr_scan"}, "lon": -77.0378965, "type": "electric_scooter", "fusion_lat": 0.0, "lat": 38.90563016666667, "name": "a55426c157dc23cb897b9496eae5ba0b", "fusion_lon": 0.0, "bike_id": "a55426c157dc23cb897b9496eae5ba0b", "is_disabled": 0, "is_reserved": 0}, {"rental_uris": {"ios": "https://dc.lft.to/lastmile_qr_scan", "android": "https://dc.lft.to/lastmile_qr_scan"}, "lon": -77.00212333333333, "type": "electric_scooter", "fusion_lat": 0.0, "lat": 38.91107433333333, "name": "b13a4dac15d013c6181072296fe5392b", "fusion_lon": 0.0, "bike_id": "b13a4dac15d013c6181072296fe5392b", "is_disabled": 0, "is_reserved": 0}, {"rental_uris": {"ios": "https://dc.lft.to/lastmile_qr_scan", "android": "https://dc.lft.to/lastmile_qr_scan"}, "lon": -77.0215085, "type": "electric_scooter", "fusion_lat": 0.0, "lat": 38.926047, "name": "0350a55e55c64ecbef750404af589a4c", "fusion_lon": 0.0, "bike_id": "0350a55e55c64ecbef750404af589a4c", "is_disabled": 0, "is_reserved": 0}, {"rental_uris": {"ios": "https://dc.lft.to/lastmile_qr_scan", "android": "https://dc.lft.to/lastmile_qr_scan"}, "lon": -77.01347533333333, "type": "electric_scooter", "fusion_lat": 0.0, "lat": 38.867275, "name": "a41b660f58a030848c606f53e5fcfd56", "fusion_lon": 0.0, "bike_id": "a41b660f58a030848c606f53e5fcfd56", "is_disabled": 0, "is_reserved": 0}, {"rental_uris": {"ios": "https://dc.lft.to/lastmile_qr_scan", "android": "https://dc.lft.to/lastmile_qr_scan"}, "lon": -77.022289, "type": "electric_scooter", "fusion_lat": 0.0, "lat": 38.9142465, "name": "0cc517c32bc478c42cc18c88be03559d", "fusion_lon": 0.0, "bike_id": "0cc517c32bc478c42cc18c88be03559d", "is_disabled": 0, "is_reserved": 0}, {"rental_uris": {"ios": "https://dc.lft.to/lastmile_qr_scan", "android": "https://dc.lft.to/lastmile_qr_scan"}, "lon": -77.06949116666667, "type": "electric_bike", "fusion_lat": 0.0, "lat": 38.99042883333333, "name": "6b06de260c3dd6b72d72c1fb385b5723", "fusion_lon": 0.0, "bike_id": "6b06de260c3dd6b72d72c1fb385b5723", "is_disabled": 0, "is_reserved": 0}, {"rental_uris": {"ios": "https://dc.lft.to/lastmile_qr_scan", "android": "https://dc.lft.to/lastmile_qr_scan"}, "lon": -77.02219583333333, "type": "electric_scooter", "fusion_lat": 0.0, "lat": 38.93873383333333, "name": "d5f308dc6a3855d45ab0f453b5750541", "fusion_lon": 0.0, "bike_id": "d5f308dc6a3855d45ab0f453b5750541", "is_disabled": 0, "is_reserved": 0}, {"rental_uris": {"ios": "https://dc.lft.to/lastmile_qr_scan", "android": "https://dc.lft.to/lastmile_qr_scan"}, "lon": -77.00829533333334, "type": "electric_scooter", "fusion_lat": 0.0, "lat": 38.91265766666667, "name": "bf39718fb9ccc9d1213ccb5efdcb93f5", "fusion_lon": 0.0, "bike_id": "bf39718fb9ccc9d1213ccb5efdcb93f5", "is_disabled": 0, "is_reserved": 0}, {"rental_uris": {"ios": "https://dc.lft.to/lastmile_qr_scan", "android": "https://dc.lft.to/lastmile_qr_scan"}, "lon": -77.02261483333334, "type": "electric_scooter", "fusion_lat": 0.0, "lat": 38.9184615, "name": "ffb724c78d650f73ae9d40e00be4aeab", "fusion_lon": 0.0, "bike_id": "ffb724c78d650f73ae9d40e00be4aeab", "is_disabled": 0, "is_reserved": 0}, {"rental_uris": {"ios": "https://dc.lft.to/lastmile_qr_scan", "android": "https://dc.lft.to/lastmile_qr_scan"}, "lon": -77.04170266666667, "type": "electric_scooter", "fusion_lat": 0.0, "lat": 38.919396666666664, "name": "bc292aecd43bfd22790da6455e429350", "fusion_lon": 0.0, "bike_id": "bc292aecd43bfd22790da6455e429350", "is_disabled": 0, "is_reserved": 0}, {"rental_uris": {"ios": "https://dc.lft.to/lastmile_qr_scan", "android": "https://dc.lft.to/lastmile_qr_scan"}, "lon": -77.04055566666666, "type": "electric_scooter", "fusion_lat": 0.0, "lat": 38.926509833333334, "name": "c1ff6afec26f8a8cdc9fe4233c655518", "fusion_lon": 0.0, "bike_id": "c1ff6afec26f8a8cdc9fe4233c655518", "is_disabled": 0, "is_reserved": 0}, {"rental_uris": {"ios": "https://dc.lft.to/lastmile_qr_scan", "android": "https://dc.lft.to/lastmile_qr_scan"}, "lon": -77.04126666666667, "type": "electric_scooter", "fusion_lat": 0.0, "lat": 38.92213116666667, "name": "90ea9f30bf2e4da3e3915e975082f172", "fusion_lon": 0.0, "bike_id": "90ea9f30bf2e4da3e3915e975082f172", "is_disabled": 0, "is_reserved": 0}, {"rental_uris": {"ios": "https://dc.lft.to/lastmile_qr_scan", "android": "https://dc.lft.to/lastmile_qr_scan"}, "lon": -77.02244583333334, "type": "electric_scooter", "fusion_lat": 0.0, "lat": 38.91640816666666, "name": "4358f82dcd15bbe6d70d6271725a8ad3", "fusion_lon": 0.0, "bike_id": "4358f82dcd15bbe6d70d6271725a8ad3", "is_disabled": 0, "is_reserved": 0}, {"rental_uris": {"ios": "https://dc.lft.to/lastmile_qr_scan", "android": "https://dc.lft.to/lastmile_qr_scan"}, "lon": -77.02439383333333, "type": "electric_bike", "fusion_lat": 0.0, "lat": 38.99425633333333, "name": "f2c800a1cb3976457d4df0031b1cb37f", "fusion_lon": 0.0, "bike_id": "f2c800a1cb3976457d4df0031b1cb37f", "is_disabled": 0, "is_reserved": 0}, {"rental_uris": {"ios": "https://dc.lft.to/lastmile_qr_scan", "android": "https://dc.lft.to/lastmile_qr_scan"}, "lon": -77.040212, "type": "electric_scooter", "fusion_lat": 0.0, "lat": 38.917939, "name": "932012ec3d04d35491b3864d182dd0b1", "fusion_lon": 0.0, "bike_id": "932012ec3d04d35491b3864d182dd0b1", "is_disabled": 0, "is_reserved": 0}, {"rental_uris": {"ios": "https://dc.lft.to/lastmile_qr_scan", "android": "https://dc.lft.to/lastmile_qr_scan"}, "lon": -76.91594683333334, "type": "electric_bike", "fusion_lat": 0.0, "lat": 38.8797905, "name": "cce862abd5a653ab0f6e9a91bd4ce1b7", "fusion_lon": 0.0, "bike_id": "cce862abd5a653ab0f6e9a91bd4ce1b7", "is_disabled": 0, "is_reserved": 0}, {"rental_uris": {"ios": "https://dc.lft.to/lastmile_qr_scan", "android": "https://dc.lft.to/lastmile_qr_scan"}, "lon": -77.02002816666666, "type": "electric_scooter", "fusion_lat": 0.0, "lat": 38.90948383333333, "name": "63ca90f507047e7b96a5a48c4ebdb207", "fusion_lon": 0.0, "bike_id": "63ca90f507047e7b96a5a48c4ebdb207", "is_disabled": 0, "is_reserved": 0}, {"rental_uris": {"ios": "https://dc.lft.to/lastmile_qr_scan", "android": "https://dc.lft.to/lastmile_qr_scan"}, "lon": -76.9994595, "type": "electric_scooter", "fusion_lat": 0.0, "lat": 38.842938, "name": "9ff4b98b7388f3034caa581591d0f81a", "fusion_lon": 0.0, "bike_id": "9ff4b98b7388f3034caa581591d0f81a", "is_disabled": 0, "is_reserved": 0}, {"rental_uris": {"ios": "https://dc.lft.to/lastmile_qr_scan", "android": "https://dc.lft.to/lastmile_qr_scan"}, "lon": -77.06391016666667, "type": "electric_scooter", "fusion_lat": 0.0, "lat": 38.92905483333333, "name": "a8fbd00eaababe2bd86a8687498281e8", "fusion_lon": 0.0, "bike_id": "a8fbd00eaababe2bd86a8687498281e8", "is_disabled": 0, "is_reserved": 0}, {"rental_uris": {"ios": "https://dc.lft.to/lastmile_qr_scan", "android": "https://dc.lft.to/lastmile_qr_scan"}, "lon": -77.05040116666666, "type": "electric_bike", "fusion_lat": 0.0, "lat": 38.924244, "name": "821606f950dc746ac8817c3d396b9c68", "fusion_lon": 0.0, "bike_id": "821606f950dc746ac8817c3d396b9c68", "is_disabled": 0, "is_reserved": 0}, {"rental_uris": {"ios": "https://dc.lft.to/lastmile_qr_scan", "android": "https://dc.lft.to/lastmile_qr_scan"}, "lon": -77.06363183333333, "type": "electric_scooter", "fusion_lat": 0.0, "lat": 38.90926066666667, "name": "a6f2ea39149ed28c389a12b80189dbe5", "fusion_lon": 0.0, "bike_id": "a6f2ea39149ed28c389a12b80189dbe5", "is_disabled": 0, "is_reserved": 0}, {"rental_uris": {"ios": "https://dc.lft.to/lastmile_qr_scan", "android": "https://dc.lft.to/lastmile_qr_scan"}, "lon": -77.07042983333334, "type": "electric_bike", "fusion_lat": 0.0, "lat": 38.824472666666665, "name": "004242545804eeed21e54a535dc8c74b", "fusion_lon": 0.0, "bike_id": "004242545804eeed21e54a535dc8c74b", "is_disabled": 0, "is_reserved": 0}, {"rental_uris": {"ios": "https://dc.lft.to/lastmile_qr_scan", "android": "https://dc.lft.to/lastmile_qr_scan"}, "lon": -77.03760983333333, "type": "electric_scooter", "fusion_lat": 0.0, "lat": 38.916971, "name": "d6a39f131fbb6d12883359eac7da4a6b", "fusion_lon": 0.0, "bike_id": "d6a39f131fbb6d12883359eac7da4a6b", "is_disabled": 0, "is_reserved": 0}, {"rental_uris": {"ios": "https://dc.lft.to/lastmile_qr_scan", "android": "https://dc.lft.to/lastmile_qr_scan"}, "lon": -77.03973133333334, "type": "electric_scooter", "fusion_lat": 0.0, "lat": 38.902750833333336, "name": "eaa0dae0320a471f6a955d7fa6703adc", "fusion_lon": 0.0, "bike_id": "eaa0dae0320a471f6a955d7fa6703adc", "is_disabled": 0, "is_reserved": 0}, {"rental_uris": {"ios": "https://dc.lft.to/lastmile_qr_scan", "android": "https://dc.lft.to/lastmile_qr_scan"}, "lon": -77.03636733333333, "type": "electric_scooter", "fusion_lat": 0.0, "lat": 38.91764533333333, "name": "e84127ac8a212c9a55dddb41533a2a7c", "fusion_lon": 0.0, "bike_id": "e84127ac8a212c9a55dddb41533a2a7c", "is_disabled": 0, "is_reserved": 0}, {"rental_uris": {"ios": "https://dc.lft.to/lastmile_qr_scan", "android": "https://dc.lft.to/lastmile_qr_scan"}, "lon": -77.041673, "type": "electric_scooter", "fusion_lat": 0.0, "lat": 38.91772683333333, "name": "f6ce82461fce76d31df4dd0854b1d099", "fusion_lon": 0.0, "bike_id": "f6ce82461fce76d31df4dd0854b1d099", "is_disabled": 0, "is_reserved": 0}, {"rental_uris": {"ios": "https://dc.lft.to/lastmile_qr_scan", "android": "https://dc.lft.to/lastmile_qr_scan"}, "lon": -77.0321865, "type": "electric_scooter", "fusion_lat": 0.0, "lat": 38.918185333333334, "name": "9f9fd5d260e28aa03620d70be86c7da6", "fusion_lon": 0.0, "bike_id": "9f9fd5d260e28aa03620d70be86c7da6", "is_disabled": 0, "is_reserved": 0}, {"rental_uris": {"ios": "https://dc.lft.to/lastmile_qr_scan", "android": "https://dc.lft.to/lastmile_qr_scan"}, "lon": -77.0362725, "type": "electric_scooter", "fusion_lat": 0.0, "lat": 38.9564485, "name": "87260ff1a9fc812b06535ea1e7c86865", "fusion_lon": 0.0, "bike_id": "87260ff1a9fc812b06535ea1e7c86865", "is_disabled": 0, "is_reserved": 0}, {"rental_uris": {"ios": "https://dc.lft.to/lastmile_qr_scan", "android": "https://dc.lft.to/lastmile_qr_scan"}, "lon": -76.99553833333333, "type": "electric_scooter", "fusion_lat": 0.0, "lat": 38.923072, "name": "5d51bc5304cce19439629499c570878c", "fusion_lon": 0.0, "bike_id": "5d51bc5304cce19439629499c570878c", "is_disabled": 0, "is_reserved": 0}, {"rental_uris": {"ios": "https://dc.lft.to/lastmile_qr_scan", "android": "https://dc.lft.to/lastmile_qr_scan"}, "lon": -77.0173775, "type": "electric_scooter", "fusion_lat": 0.0, "lat": 38.974835666666664, "name": "00696fbe8309b8b6998632a2e59bb55e", "fusion_lon": 0.0, "bike_id": "00696fbe8309b8b6998632a2e59bb55e", "is_disabled": 0, "is_reserved": 0}, {"rental_uris": {"ios": "https://dc.lft.to/lastmile_qr_scan", "android": "https://dc.lft.to/lastmile_qr_scan"}, "lon": -77.02003166666667, "type": "electric_scooter", "fusion_lat": 0.0, "lat": 38.90265433333333, "name": "4d8ef016d8f57cd391f68000d8f34381", "fusion_lon": 0.0, "bike_id": "4d8ef016d8f57cd391f68000d8f34381", "is_disabled": 0, "is_reserved": 0}, {"rental_uris": {"ios": "https://dc.lft.to/lastmile_qr_scan", "android": "https://dc.lft.to/lastmile_qr_scan"}, "lon": -77.04532383333333, "type": "electric_scooter", "fusion_lat": 0.0, "lat": 38.91940916666667, "name": "f129eb1d5f8c9471e66027d94c861796", "fusion_lon": 0.0, "bike_id": "f129eb1d5f8c9471e66027d94c861796", "is_disabled": 0, "is_reserved": 0}, {"rental_uris": {"ios": "https://dc.lft.to/lastmile_qr_scan", "android": "https://dc.lft.to/lastmile_qr_scan"}, "lon": -77.00884233333333, "type": "electric_scooter", "fusion_lat": 0.0, "lat": 38.923115833333334, "name": "2fbc964d86c207cbb18826cd6e440edc", "fusion_lon": 0.0, "bike_id": "2fbc964d86c207cbb18826cd6e440edc", "is_disabled": 0, "is_reserved": 0}, {"rental_uris": {"ios": "https://dc.lft.to/lastmile_qr_scan", "android": "https://dc.lft.to/lastmile_qr_scan"}, "lon": -76.973266, "type": "electric_bike", "fusion_lat": 0.0, "lat": 38.85064666666667, "name": "f09b2c4874bbab5ffec4d7695791b02a", "fusion_lon": 0.0, "bike_id": "f09b2c4874bbab5ffec4d7695791b02a", "is_disabled": 0, "is_reserved": 0}, {"rental_uris": {"ios": "https://dc.lft.to/lastmile_qr_scan", "android": "https://dc.lft.to/lastmile_qr_scan"}, "lon": -77.02958016666666, "type": "electric_bike", "fusion_lat": 0.0, "lat": 38.899388333333334, "name": "9ea12db883292516f7216bc34e85a0f4", "fusion_lon": 0.0, "bike_id": "9ea12db883292516f7216bc34e85a0f4", "is_disabled": 0, "is_reserved": 0}, {"rental_uris": {"ios": "https://dc.lft.to/lastmile_qr_scan", "android": "https://dc.lft.to/lastmile_qr_scan"}, "lon": -77.02202866666667, "type": "electric_scooter", "fusion_lat": 0.0, "lat": 38.880540833333335, "name": "9e3dc266f243939c7ec9ba14303e75c7", "fusion_lon": 0.0, "bike_id": "9e3dc266f243939c7ec9ba14303e75c7", "is_disabled": 0, "is_reserved": 0}, {"rental_uris": {"ios": "https://dc.lft.to/lastmile_qr_scan", "android": "https://dc.lft.to/lastmile_qr_scan"}, "lon": -77.0422745, "type": "electric_scooter", "fusion_lat": 0.0, "lat": 38.923137, "name": "8418673e2f9a063c25cf8e6a9076947a", "fusion_lon": 0.0, "bike_id": "8418673e2f9a063c25cf8e6a9076947a", "is_disabled": 0, "is_reserved": 0}, {"rental_uris": {"ios": "https://dc.lft.to/lastmile_qr_scan", "android": "https://dc.lft.to/lastmile_qr_scan"}, "lon": -77.03970683333333, "type": "electric_scooter", "fusion_lat": 0.0, "lat": 38.90281233333333, "name": "9c20a6d11d9808453af1b45c853b97bd", "fusion_lon": 0.0, "bike_id": "9c20a6d11d9808453af1b45c853b97bd", "is_disabled": 0, "is_reserved": 0}, {"rental_uris": {"ios": "https://dc.lft.to/lastmile_qr_scan", "android": "https://dc.lft.to/lastmile_qr_scan"}, "lon": -77.05275766666666, "type": "electric_scooter", "fusion_lat": 0.0, "lat": 38.910194, "name": "6136787b3cbbf0d7b78e3755a10697b2", "fusion_lon": 0.0, "bike_id": "6136787b3cbbf0d7b78e3755a10697b2", "is_disabled": 0, "is_reserved": 0}, {"rental_uris": {"ios": "https://dc.lft.to/lastmile_qr_scan", "android": "https://dc.lft.to/lastmile_qr_scan"}, "lon": -76.95354066666667, "type": "electric_bike", "fusion_lat": 0.0, "lat": 38.93956216666667, "name": "03fc61473abebb211d4be98f5c7ec371", "fusion_lon": 0.0, "bike_id": "03fc61473abebb211d4be98f5c7ec371", "is_disabled": 0, "is_reserved": 0}, {"rental_uris": {"ios": "https://dc.lft.to/lastmile_qr_scan", "android": "https://dc.lft.to/lastmile_qr_scan"}, "lon": -77.17836283333334, "type": "electric_bike", "fusion_lat": 0.0, "lat": 39.088576833333335, "name": "1fdb74268c5efb33914873174acc26f5", "fusion_lon": 0.0, "bike_id": "1fdb74268c5efb33914873174acc26f5", "is_disabled": 0, "is_reserved": 0}, {"rental_uris": {"ios": "https://dc.lft.to/lastmile_qr_scan", "android": "https://dc.lft.to/lastmile_qr_scan"}, "lon": -77.051454, "type": "electric_scooter", "fusion_lat": 0.0, "lat": 38.923727, "name": "fdd6e8ef729f9fe6a83f00d2c444fc0a", "fusion_lon": 0.0, "bike_id": "fdd6e8ef729f9fe6a83f00d2c444fc0a", "is_disabled": 0, "is_reserved": 0}, {"rental_uris": {"ios": "https://dc.lft.to/lastmile_qr_scan", "android": "https://dc.lft.to/lastmile_qr_scan"}, "lon": -77.04266566666666, "type": "electric_scooter", "fusion_lat": 0.0, "lat": 38.917843833333336, "name": "8385ad25e7967e880abdbc4c6b3df6ea", "fusion_lon": 0.0, "bike_id": "8385ad25e7967e880abdbc4c6b3df6ea", "is_disabled": 0, "is_reserved": 0}, {"rental_uris": {"ios": "https://dc.lft.to/lastmile_qr_scan", "android": "https://dc.lft.to/lastmile_qr_scan"}, "lon": -77.01995783333334, "type": "electric_scooter", "fusion_lat": 0.0, "lat": 38.87751566666667, "name": "ba0462b38c09b1348aa850edcbfcf58b", "fusion_lon": 0.0, "bike_id": "ba0462b38c09b1348aa850edcbfcf58b", "is_disabled": 0, "is_reserved": 0}, {"rental_uris": {"ios": "https://dc.lft.to/lastmile_qr_scan", "android": "https://dc.lft.to/lastmile_qr_scan"}, "lon": -76.9890325, "type": "electric_scooter", "fusion_lat": 0.0, "lat": 38.866956, "name": "5f7bccd78f944cf85e0ab1d496d0e169", "fusion_lon": 0.0, "bike_id": "5f7bccd78f944cf85e0ab1d496d0e169", "is_disabled": 0, "is_reserved": 0}, {"rental_uris": {"ios": "https://dc.lft.to/lastmile_qr_scan", "android": "https://dc.lft.to/lastmile_qr_scan"}, "lon": -77.04300483333333, "type": "electric_bike", "fusion_lat": 0.0, "lat": 39.054485666666665, "name": "e2831f32cbd19cc9a6e4c829a1d54954", "fusion_lon": 0.0, "bike_id": "e2831f32cbd19cc9a6e4c829a1d54954", "is_disabled": 0, "is_reserved": 0}, {"rental_uris": {"ios": "https://dc.lft.to/lastmile_qr_scan", "android": "https://dc.lft.to/lastmile_qr_scan"}, "lon": -77.02610466666667, "type": "electric_scooter", "fusion_lat": 0.0, "lat": 38.8975405, "name": "c7cf6dce890cb897ba519c1c6192237a", "fusion_lon": 0.0, "bike_id": "c7cf6dce890cb897ba519c1c6192237a", "is_disabled": 0, "is_reserved": 0}, {"rental_uris": {"ios": "https://dc.lft.to/lastmile_qr_scan", "android": "https://dc.lft.to/lastmile_qr_scan"}, "lon": -77.0512575, "type": "electric_scooter", "fusion_lat": 0.0, "lat": 38.90540466666667, "name": "b83be96682a97a72626df92abf0d5d4e", "fusion_lon": 0.0, "bike_id": "b83be96682a97a72626df92abf0d5d4e", "is_disabled": 0, "is_reserved": 0}, {"rental_uris": {"ios": "https://dc.lft.to/lastmile_qr_scan", "android": "https://dc.lft.to/lastmile_qr_scan"}, "lon": -77.032287, "type": "electric_scooter", "fusion_lat": 0.0, "lat": 38.914076666666666, "name": "d7bbd99d72ff6e1e541a5cd6e4e3bf30", "fusion_lon": 0.0, "bike_id": "d7bbd99d72ff6e1e541a5cd6e4e3bf30", "is_disabled": 0, "is_reserved": 0}, {"rental_uris": {"ios": "https://dc.lft.to/lastmile_qr_scan", "android": "https://dc.lft.to/lastmile_qr_scan"}, "lon": -77.03649133333333, "type": "electric_scooter", "fusion_lat": 0.0, "lat": 38.95640866666667, "name": "e2c5f1abc53857896193e9206bf28989", "fusion_lon": 0.0, "bike_id": "e2c5f1abc53857896193e9206bf28989", "is_disabled": 0, "is_reserved": 0}, {"rental_uris": {"ios": "https://dc.lft.to/lastmile_qr_scan", "android": "https://dc.lft.to/lastmile_qr_scan"}, "lon": -76.946267, "type": "electric_scooter", "fusion_lat": 0.0, "lat": 38.898469, "name": "25cc4dfe926bda651f07907e41880214", "fusion_lon": 0.0, "bike_id": "25cc4dfe926bda651f07907e41880214", "is_disabled": 0, "is_reserved": 0}, {"rental_uris": {"ios": "https://dc.lft.to/lastmile_qr_scan", "android": "https://dc.lft.to/lastmile_qr_scan"}, "lon": -76.9991635, "type": "electric_scooter", "fusion_lat": 0.0, "lat": 38.90033566666666, "name": "dfeeb0af670907dc6045450edb7d179c", "fusion_lon": 0.0, "bike_id": "dfeeb0af670907dc6045450edb7d179c", "is_disabled": 0, "is_reserved": 0}, {"rental_uris": {"ios": "https://dc.lft.to/lastmile_qr_scan", "android": "https://dc.lft.to/lastmile_qr_scan"}, "lon": -76.983378, "type": "electric_scooter", "fusion_lat": 0.0, "lat": 38.91545433333334, "name": "9cd6a084c52906ea7e9b3c4ad66bf03b", "fusion_lon": 0.0, "bike_id": "9cd6a084c52906ea7e9b3c4ad66bf03b", "is_disabled": 0, "is_reserved": 0}, {"rental_uris": {"ios": "https://dc.lft.to/lastmile_qr_scan", "android": "https://dc.lft.to/lastmile_qr_scan"}, "lon": -77.00924433333333, "type": "electric_scooter", "fusion_lat": 0.0, "lat": 38.87365233333333, "name": "016496a5f454a25e072badaee794cc85", "fusion_lon": 0.0, "bike_id": "016496a5f454a25e072badaee794cc85", "is_disabled": 0, "is_reserved": 0}, {"rental_uris": {"ios": "https://dc.lft.to/lastmile_qr_scan", "android": "https://dc.lft.to/lastmile_qr_scan"}, "lon": -77.03211966666667, "type": "electric_scooter", "fusion_lat": 0.0, "lat": 38.91698816666667, "name": "b836136b52340d29262c120c55f90080", "fusion_lon": 0.0, "bike_id": "b836136b52340d29262c120c55f90080", "is_disabled": 0, "is_reserved": 0}, {"rental_uris": {"ios": "https://dc.lft.to/lastmile_qr_scan", "android": "https://dc.lft.to/lastmile_qr_scan"}, "lon": -76.9740805, "type": "electric_scooter", "fusion_lat": 0.0, "lat": 38.902389666666664, "name": "fec5ae70167f34973899afca02a877db", "fusion_lon": 0.0, "bike_id": "fec5ae70167f34973899afca02a877db", "is_disabled": 0, "is_reserved": 0}, {"rental_uris": {"ios": "https://dc.lft.to/lastmile_qr_scan", "android": "https://dc.lft.to/lastmile_qr_scan"}, "lon": -76.95678133333334, "type": "electric_bike", "fusion_lat": 0.0, "lat": 38.947291166666666, "name": "11e5c708be97b01ce6d61f9d25c74d85", "fusion_lon": 0.0, "bike_id": "11e5c708be97b01ce6d61f9d25c74d85", "is_disabled": 0, "is_reserved": 0}, {"rental_uris": {"ios": "https://dc.lft.to/lastmile_qr_scan", "android": "https://dc.lft.to/lastmile_qr_scan"}, "lon": -77.03402383333334, "type": "electric_scooter", "fusion_lat": 0.0, "lat": 38.92427283333333, "name": "8ff18f4131990c39fe99194c7ea257a0", "fusion_lon": 0.0, "bike_id": "8ff18f4131990c39fe99194c7ea257a0", "is_disabled": 0, "is_reserved": 0}, {"rental_uris": {"ios": "https://dc.lft.to/lastmile_qr_scan", "android": "https://dc.lft.to/lastmile_qr_scan"}, "lon": -77.02299916666666, "type": "electric_scooter", "fusion_lat": 0.0, "lat": 38.915515, "name": "2984226390834109effa5027667e2894", "fusion_lon": 0.0, "bike_id": "2984226390834109effa5027667e2894", "is_disabled": 0, "is_reserved": 0}, {"rental_uris": {"ios": "https://dc.lft.to/lastmile_qr_scan", "android": "https://dc.lft.to/lastmile_qr_scan"}, "lon": -77.05988666666667, "type": "electric_scooter", "fusion_lat": 0.0, "lat": 38.905209166666666, "name": "abe374fd48699c999b22d2b2a1744577", "fusion_lon": 0.0, "bike_id": "abe374fd48699c999b22d2b2a1744577", "is_disabled": 0, "is_reserved": 0}, {"rental_uris": {"ios": "https://dc.lft.to/lastmile_qr_scan", "android": "https://dc.lft.to/lastmile_qr_scan"}, "lon": -76.939634, "type": "electric_scooter", "fusion_lat": 0.0, "lat": 38.899675333333334, "name": "e89a40ae8c25778520d4b2fadb99b5b0", "fusion_lon": 0.0, "bike_id": "e89a40ae8c25778520d4b2fadb99b5b0", "is_disabled": 0, "is_reserved": 0}, {"rental_uris": {"ios": "https://dc.lft.to/lastmile_qr_scan", "android": "https://dc.lft.to/lastmile_qr_scan"}, "lon": -76.99518366666666, "type": "electric_scooter", "fusion_lat": 0.0, "lat": 38.86264233333333, "name": "98f6a866675fe2a452ebff9d372d4f0c", "fusion_lon": 0.0, "bike_id": "98f6a866675fe2a452ebff9d372d4f0c", "is_disabled": 0, "is_reserved": 0}, {"rental_uris": {"ios": "https://dc.lft.to/lastmile_qr_scan", "android": "https://dc.lft.to/lastmile_qr_scan"}, "lon": -76.938791, "type": "electric_scooter", "fusion_lat": 0.0, "lat": 38.891039666666664, "name": "d3a8572dcb902bac36649781ea6d2b04", "fusion_lon": 0.0, "bike_id": "d3a8572dcb902bac36649781ea6d2b04", "is_disabled": 0, "is_reserved": 0}, {"rental_uris": {"ios": "https://dc.lft.to/lastmile_qr_scan", "android": "https://dc.lft.to/lastmile_qr_scan"}, "lon": -76.92874666666667, "type": "electric_scooter", "fusion_lat": 0.0, "lat": 38.884443, "name": "14c6f0b0f520fda859b28b2bd1ae90f9", "fusion_lon": 0.0, "bike_id": "14c6f0b0f520fda859b28b2bd1ae90f9", "is_disabled": 0, "is_reserved": 0}, {"rental_uris": {"ios": "https://dc.lft.to/lastmile_qr_scan", "android": "https://dc.lft.to/lastmile_qr_scan"}, "lon": -77.05540483333333, "type": "electric_scooter", "fusion_lat": 0.0, "lat": 38.92526316666667, "name": "56544015d4e75b8749faabcf455f2f3f", "fusion_lon": 0.0, "bike_id": "56544015d4e75b8749faabcf455f2f3f", "is_disabled": 0, "is_reserved": 0}, {"rental_uris": {"ios": "https://dc.lft.to/lastmile_qr_scan", "android": "https://dc.lft.to/lastmile_qr_scan"}, "lon": -76.95754883333333, "type": "electric_scooter", "fusion_lat": 0.0, "lat": 38.88430016666667, "name": "4fbbbf956bf689b30e37b9db396ba332", "fusion_lon": 0.0, "bike_id": "4fbbbf956bf689b30e37b9db396ba332", "is_disabled": 0, "is_reserved": 0}, {"rental_uris": {"ios": "https://dc.lft.to/lastmile_qr_scan", "android": "https://dc.lft.to/lastmile_qr_scan"}, "lon": -77.04863133333333, "type": "electric_scooter", "fusion_lat": 0.0, "lat": 38.892251, "name": "d8c6e07b96eaff50986098ec781c264b", "fusion_lon": 0.0, "bike_id": "d8c6e07b96eaff50986098ec781c264b", "is_disabled": 0, "is_reserved": 0}, {"rental_uris": {"ios": "https://dc.lft.to/lastmile_qr_scan", "android": "https://dc.lft.to/lastmile_qr_scan"}, "lon": -77.03955633333334, "type": "electric_scooter", "fusion_lat": 0.0, "lat": 38.901239, "name": "66c245ffd82b8535244c97fa803e84b3", "fusion_lon": 0.0, "bike_id": "66c245ffd82b8535244c97fa803e84b3", "is_disabled": 0, "is_reserved": 0}, {"rental_uris": {"ios": "https://dc.lft.to/lastmile_qr_scan", "android": "https://dc.lft.to/lastmile_qr_scan"}, "lon": -76.986058, "type": "electric_scooter", "fusion_lat": 0.0, "lat": 38.8784045, "name": "a70c6ef00273d92e22f5cd1522127d40", "fusion_lon": 0.0, "bike_id": "a70c6ef00273d92e22f5cd1522127d40", "is_disabled": 0, "is_reserved": 0}, {"rental_uris": {"ios": "https://dc.lft.to/lastmile_qr_scan", "android": "https://dc.lft.to/lastmile_qr_scan"}, "lon": -76.94820516666667, "type": "electric_scooter", "fusion_lat": 0.0, "lat": 38.884116666666664, "name": "503bf547943915b74ed907811e842efd", "fusion_lon": 0.0, "bike_id": "503bf547943915b74ed907811e842efd", "is_disabled": 0, "is_reserved": 0}, {"rental_uris": {"ios": "https://dc.lft.to/lastmile_qr_scan", "android": "https://dc.lft.to/lastmile_qr_scan"}, "lon": -76.99458583333333, "type": "electric_scooter", "fusion_lat": 0.0, "lat": 38.85165466666667, "name": "4cd4f76650eff9419dd2117c00e3af4d", "fusion_lon": 0.0, "bike_id": "4cd4f76650eff9419dd2117c00e3af4d", "is_disabled": 0, "is_reserved": 0}, {"rental_uris": {"ios": "https://dc.lft.to/lastmile_qr_scan", "android": "https://dc.lft.to/lastmile_qr_scan"}, "lon": -77.080458, "type": "electric_bike", "fusion_lat": 0.0, "lat": 38.84843683333333, "name": "ea13550f7521f7c9a846e2e464831444", "fusion_lon": 0.0, "bike_id": "ea13550f7521f7c9a846e2e464831444", "is_disabled": 0, "is_reserved": 0}, {"rental_uris": {"ios": "https://dc.lft.to/lastmile_qr_scan", "android": "https://dc.lft.to/lastmile_qr_scan"}, "lon": -77.03559916666667, "type": "electric_scooter", "fusion_lat": 0.0, "lat": 38.93982783333333, "name": "5bc3b22a4a323bda8d8e1357883015ea", "fusion_lon": 0.0, "bike_id": "5bc3b22a4a323bda8d8e1357883015ea", "is_disabled": 0, "is_reserved": 0}, {"rental_uris": {"ios": "https://dc.lft.to/lastmile_qr_scan", "android": "https://dc.lft.to/lastmile_qr_scan"}, "lon": -77.029452, "type": "electric_scooter", "fusion_lat": 0.0, "lat": 38.91721033333334, "name": "cf88c2d960bc68f273d0aec2977fc521", "fusion_lon": 0.0, "bike_id": "cf88c2d960bc68f273d0aec2977fc521", "is_disabled": 0, "is_reserved": 0}, {"rental_uris": {"ios": "https://dc.lft.to/lastmile_qr_scan", "android": "https://dc.lft.to/lastmile_qr_scan"}, "lon": -76.98748, "type": "electric_scooter", "fusion_lat": 0.0, "lat": 38.910201666666666, "name": "8d0f818096ef9c0b5dacd36d40f6f1e7", "fusion_lon": 0.0, "bike_id": "8d0f818096ef9c0b5dacd36d40f6f1e7", "is_disabled": 0, "is_reserved": 0}, {"rental_uris": {"ios": "https://dc.lft.to/lastmile_qr_scan", "android": "https://dc.lft.to/lastmile_qr_scan"}, "lon": -76.93168, "type": "electric_scooter", "fusion_lat": 0.0, "lat": 38.898863, "name": "10813ad446a80013210bc5b7fa9df4c3", "fusion_lon": 0.0, "bike_id": "10813ad446a80013210bc5b7fa9df4c3", "is_disabled": 0, "is_reserved": 0}, {"rental_uris": {"ios": "https://dc.lft.to/lastmile_qr_scan", "android": "https://dc.lft.to/lastmile_qr_scan"}, "lon": -76.92713066666667, "type": "electric_scooter", "fusion_lat": 0.0, "lat": 38.88766966666667, "name": "f47ca6d82abd1e88d41919847f2481a5", "fusion_lon": 0.0, "bike_id": "f47ca6d82abd1e88d41919847f2481a5", "is_disabled": 0, "is_reserved": 0}, {"rental_uris": {"ios": "https://dc.lft.to/lastmile_qr_scan", "android": "https://dc.lft.to/lastmile_qr_scan"}, "lon": -77.04547166666667, "type": "electric_scooter", "fusion_lat": 0.0, "lat": 38.91266733333333, "name": "75245d9eea1a02a887573034b758e85e", "fusion_lon": 0.0, "bike_id": "75245d9eea1a02a887573034b758e85e", "is_disabled": 0, "is_reserved": 0}, {"rental_uris": {"ios": "https://dc.lft.to/lastmile_qr_scan", "android": "https://dc.lft.to/lastmile_qr_scan"}, "lon": -77.03322833333333, "type": "electric_scooter", "fusion_lat": 0.0, "lat": 38.89632366666667, "name": "f0c3f6f18e20ec3fade2241d1d53d726", "fusion_lon": 0.0, "bike_id": "f0c3f6f18e20ec3fade2241d1d53d726", "is_disabled": 0, "is_reserved": 0}, {"rental_uris": {"ios": "https://dc.lft.to/lastmile_qr_scan", "android": "https://dc.lft.to/lastmile_qr_scan"}, "lon": -77.03199866666667, "type": "electric_scooter", "fusion_lat": 0.0, "lat": 38.9248145, "name": "f7a7d22efadb71283edc4c9ca6e3477f", "fusion_lon": 0.0, "bike_id": "f7a7d22efadb71283edc4c9ca6e3477f", "is_disabled": 0, "is_reserved": 0}, {"rental_uris": {"ios": "https://dc.lft.to/lastmile_qr_scan", "android": "https://dc.lft.to/lastmile_qr_scan"}, "lon": -77.00889883333333, "type": "electric_scooter", "fusion_lat": 0.0, "lat": 38.9123405, "name": "771968369d97ab01cfa638ddb78db03b", "fusion_lon": 0.0, "bike_id": "771968369d97ab01cfa638ddb78db03b", "is_disabled": 0, "is_reserved": 0}, {"rental_uris": {"ios": "https://dc.lft.to/lastmile_qr_scan", "android": "https://dc.lft.to/lastmile_qr_scan"}, "lon": -77.016073, "type": "electric_scooter", "fusion_lat": 0.0, "lat": 38.91132483333333, "name": "07f087c8ded87bae3921bd4eabc6f84d", "fusion_lon": 0.0, "bike_id": "07f087c8ded87bae3921bd4eabc6f84d", "is_disabled": 0, "is_reserved": 0}, {"rental_uris": {"ios": "https://dc.lft.to/lastmile_qr_scan", "android": "https://dc.lft.to/lastmile_qr_scan"}, "lon": -77.03330933333334, "type": "electric_scooter", "fusion_lat": 0.0, "lat": 38.903447666666665, "name": "f9981c31744d89ea2749c5e8f7ed1c24", "fusion_lon": 0.0, "bike_id": "f9981c31744d89ea2749c5e8f7ed1c24", "is_disabled": 0, "is_reserved": 0}, {"rental_uris": {"ios": "https://dc.lft.to/lastmile_qr_scan", "android": "https://dc.lft.to/lastmile_qr_scan"}, "lon": -77.0567785, "type": "electric_scooter", "fusion_lat": 0.0, "lat": 38.90518933333333, "name": "0e4394aa4f0f91678132aaeb952c9e4b", "fusion_lon": 0.0, "bike_id": "0e4394aa4f0f91678132aaeb952c9e4b", "is_disabled": 0, "is_reserved": 0}, {"rental_uris": {"ios": "https://dc.lft.to/lastmile_qr_scan", "android": "https://dc.lft.to/lastmile_qr_scan"}, "lon": -76.97549583333333, "type": "electric_scooter", "fusion_lat": 0.0, "lat": 38.90443833333333, "name": "4ec4b7929c41743b20d37ffe00f217c2", "fusion_lon": 0.0, "bike_id": "4ec4b7929c41743b20d37ffe00f217c2", "is_disabled": 0, "is_reserved": 0}, {"rental_uris": {"ios": "https://dc.lft.to/lastmile_qr_scan", "android": "https://dc.lft.to/lastmile_qr_scan"}, "lon": -77.0352845, "type": "electric_scooter", "fusion_lat": 0.0, "lat": 38.92862133333333, "name": "510eb2c2e2954970159ca125bcd36eb0", "fusion_lon": 0.0, "bike_id": "510eb2c2e2954970159ca125bcd36eb0", "is_disabled": 0, "is_reserved": 0}, {"rental_uris": {"ios": "https://dc.lft.to/lastmile_qr_scan", "android": "https://dc.lft.to/lastmile_qr_scan"}, "lon": -77.0422365, "type": "electric_scooter", "fusion_lat": 0.0, "lat": 38.92129033333333, "name": "fdc4a0e7dd98e8cefdde73e3b36c2fe1", "fusion_lon": 0.0, "bike_id": "fdc4a0e7dd98e8cefdde73e3b36c2fe1", "is_disabled": 0, "is_reserved": 0}, {"rental_uris": {"ios": "https://dc.lft.to/lastmile_qr_scan", "android": "https://dc.lft.to/lastmile_qr_scan"}, "lon": -76.996092, "type": "electric_scooter", "fusion_lat": 0.0, "lat": 38.88625016666667, "name": "0bf0cedae0459dd77cda64bfe6a460fc", "fusion_lon": 0.0, "bike_id": "0bf0cedae0459dd77cda64bfe6a460fc", "is_disabled": 0, "is_reserved": 0}, {"rental_uris": {"ios": "https://dc.lft.to/lastmile_qr_scan", "android": "https://dc.lft.to/lastmile_qr_scan"}, "lon": -77.02822, "type": "electric_scooter", "fusion_lat": 0.0, "lat": 38.89604416666667, "name": "66ebde85ac2ebb872ea869a1bb1e0986", "fusion_lon": 0.0, "bike_id": "66ebde85ac2ebb872ea869a1bb1e0986", "is_disabled": 0, "is_reserved": 0}, {"rental_uris": {"ios": "https://dc.lft.to/lastmile_qr_scan", "android": "https://dc.lft.to/lastmile_qr_scan"}, "lon": -76.98565716666667, "type": "electric_scooter", "fusion_lat": 0.0, "lat": 38.861493833333334, "name": "52b887b62c4e940a510d7b150e9d424b", "fusion_lon": 0.0, "bike_id": "52b887b62c4e940a510d7b150e9d424b", "is_disabled": 0, "is_reserved": 0}, {"rental_uris": {"ios": "https://dc.lft.to/lastmile_qr_scan", "android": "https://dc.lft.to/lastmile_qr_scan"}, "lon": -76.99861416666667, "type": "electric_scooter", "fusion_lat": 0.0, "lat": 38.90029166666667, "name": "e851f98cac13ab88e49a559f996dad0c", "fusion_lon": 0.0, "bike_id": "e851f98cac13ab88e49a559f996dad0c", "is_disabled": 0, "is_reserved": 0}, {"rental_uris": {"ios": "https://dc.lft.to/lastmile_qr_scan", "android": "https://dc.lft.to/lastmile_qr_scan"}, "lon": -76.97320666666667, "type": "electric_scooter", "fusion_lat": 0.0, "lat": 38.930276166666665, "name": "ab8ee4ffa34e26b8d3d09f5751be2df3", "fusion_lon": 0.0, "bike_id": "ab8ee4ffa34e26b8d3d09f5751be2df3", "is_disabled": 0, "is_reserved": 0}, {"rental_uris": {"ios": "https://dc.lft.to/lastmile_qr_scan", "android": "https://dc.lft.to/lastmile_qr_scan"}, "lon": -77.038549, "type": "electric_scooter", "fusion_lat": 0.0, "lat": 38.91044383333333, "name": "c6c6b46ef165ebf7460e1efd17e89d3b", "fusion_lon": 0.0, "bike_id": "c6c6b46ef165ebf7460e1efd17e89d3b", "is_disabled": 0, "is_reserved": 0}, {"rental_uris": {"ios": "https://dc.lft.to/lastmile_qr_scan", "android": "https://dc.lft.to/lastmile_qr_scan"}, "lon": -76.97503783333333, "type": "electric_bike", "fusion_lat": 0.0, "lat": 38.919334166666665, "name": "7b0dfec378fb861d154ebecb5e88b90b", "fusion_lon": 0.0, "bike_id": "7b0dfec378fb861d154ebecb5e88b90b", "is_disabled": 0, "is_reserved": 0}, {"rental_uris": {"ios": "https://dc.lft.to/lastmile_qr_scan", "android": "https://dc.lft.to/lastmile_qr_scan"}, "lon": -76.99179866666667, "type": "electric_scooter", "fusion_lat": 0.0, "lat": 38.90458616666667, "name": "1378e1220e8421790ae7f86fda0a6a7d", "fusion_lon": 0.0, "bike_id": "1378e1220e8421790ae7f86fda0a6a7d", "is_disabled": 0, "is_reserved": 0}, {"rental_uris": {"ios": "https://dc.lft.to/lastmile_qr_scan", "android": "https://dc.lft.to/lastmile_qr_scan"}, "lon": -76.99944766666667, "type": "electric_scooter", "fusion_lat": 0.0, "lat": 38.84291783333333, "name": "021740f2960d590d620367662c8e2dfc", "fusion_lon": 0.0, "bike_id": "021740f2960d590d620367662c8e2dfc", "is_disabled": 0, "is_reserved": 0}, {"rental_uris": {"ios": "https://dc.lft.to/lastmile_qr_scan", "android": "https://dc.lft.to/lastmile_qr_scan"}, "lon": -76.90822083333333, "type": "electric_bike", "fusion_lat": 0.0, "lat": 39.002540333333336, "name": "9a3e4a3dbd44e8577903966f390df15f", "fusion_lon": 0.0, "bike_id": "9a3e4a3dbd44e8577903966f390df15f", "is_disabled": 0, "is_reserved": 0}, {"rental_uris": {"ios": "https://dc.lft.to/lastmile_qr_scan", "android": "https://dc.lft.to/lastmile_qr_scan"}, "lon": -77.11218066666666, "type": "electric_bike", "fusion_lat": 0.0, "lat": 38.828761666666665, "name": "742dffcac5341d405968609968f90999", "fusion_lon": 0.0, "bike_id": "742dffcac5341d405968609968f90999", "is_disabled": 0, "is_reserved": 0}, {"rental_uris": {"ios": "https://dc.lft.to/lastmile_qr_scan", "android": "https://dc.lft.to/lastmile_qr_scan"}, "lon": -77.02402, "type": "electric_scooter", "fusion_lat": 0.0, "lat": 38.91568933333333, "name": "b76e9d57b9f8c3519638870d013fb534", "fusion_lon": 0.0, "bike_id": "b76e9d57b9f8c3519638870d013fb534", "is_disabled": 0, "is_reserved": 0}, {"rental_uris": {"ios": "https://dc.lft.to/lastmile_qr_scan", "android": "https://dc.lft.to/lastmile_qr_scan"}, "lon": -77.0248615, "type": "electric_scooter", "fusion_lat": 0.0, "lat": 38.93763916666666, "name": "9f90a665ad262cafb505ab3e8e523a21", "fusion_lon": 0.0, "bike_id": "9f90a665ad262cafb505ab3e8e523a21", "is_disabled": 0, "is_reserved": 0}, {"rental_uris": {"ios": "https://dc.lft.to/lastmile_qr_scan", "android": "https://dc.lft.to/lastmile_qr_scan"}, "lon": -77.01660216666667, "type": "electric_scooter", "fusion_lat": 0.0, "lat": 38.8811535, "name": "90cf57b5ef552b492d1492277e9798bf", "fusion_lon": 0.0, "bike_id": "90cf57b5ef552b492d1492277e9798bf", "is_disabled": 0, "is_reserved": 0}, {"rental_uris": {"ios": "https://dc.lft.to/lastmile_qr_scan", "android": "https://dc.lft.to/lastmile_qr_scan"}, "lon": -77.02351383333334, "type": "electric_scooter", "fusion_lat": 0.0, "lat": 38.9320435, "name": "aa504435eb713e830b27c97887d7e905", "fusion_lon": 0.0, "bike_id": "aa504435eb713e830b27c97887d7e905", "is_disabled": 0, "is_reserved": 0}, {"rental_uris": {"ios": "https://dc.lft.to/lastmile_qr_scan", "android": "https://dc.lft.to/lastmile_qr_scan"}, "lon": -77.03640983333334, "type": "electric_scooter", "fusion_lat": 0.0, "lat": 38.903288333333336, "name": "c27490f508d878aa94217f1db8aa1a86", "fusion_lon": 0.0, "bike_id": "c27490f508d878aa94217f1db8aa1a86", "is_disabled": 0, "is_reserved": 0}, {"rental_uris": {"ios": "https://dc.lft.to/lastmile_qr_scan", "android": "https://dc.lft.to/lastmile_qr_scan"}, "lon": -77.03169966666667, "type": "electric_scooter", "fusion_lat": 0.0, "lat": 38.92123766666667, "name": "68a2db5c0d955072957f1dae9681f495", "fusion_lon": 0.0, "bike_id": "68a2db5c0d955072957f1dae9681f495", "is_disabled": 0, "is_reserved": 0}, {"rental_uris": {"ios": "https://dc.lft.to/lastmile_qr_scan", "android": "https://dc.lft.to/lastmile_qr_scan"}, "lon": -77.02984416666666, "type": "electric_scooter", "fusion_lat": 0.0, "lat": 38.95632916666667, "name": "f4475873f5f3242ed95f8c9fc3731ed4", "fusion_lon": 0.0, "bike_id": "f4475873f5f3242ed95f8c9fc3731ed4", "is_disabled": 0, "is_reserved": 0}, {"rental_uris": {"ios": "https://dc.lft.to/lastmile_qr_scan", "android": "https://dc.lft.to/lastmile_qr_scan"}, "lon": -77.02644233333334, "type": "electric_scooter", "fusion_lat": 0.0, "lat": 38.97548966666667, "name": "14765b39edecc778021831c55173fd65", "fusion_lon": 0.0, "bike_id": "14765b39edecc778021831c55173fd65", "is_disabled": 0, "is_reserved": 0}, {"rental_uris": {"ios": "https://dc.lft.to/lastmile_qr_scan", "android": "https://dc.lft.to/lastmile_qr_scan"}, "lon": -77.0709005, "type": "electric_scooter", "fusion_lat": 0.0, "lat": 38.9336455, "name": "0d6f28e4d549588650b5130f8f2153f2", "fusion_lon": 0.0, "bike_id": "0d6f28e4d549588650b5130f8f2153f2", "is_disabled": 0, "is_reserved": 0}, {"rental_uris": {"ios": "https://dc.lft.to/lastmile_qr_scan", "android": "https://dc.lft.to/lastmile_qr_scan"}, "lon": -77.03943483333333, "type": "electric_scooter", "fusion_lat": 0.0, "lat": 38.9126995, "name": "cc428fe6e40a347c216ee1a4be189089", "fusion_lon": 0.0, "bike_id": "cc428fe6e40a347c216ee1a4be189089", "is_disabled": 0, "is_reserved": 0}, {"rental_uris": {"ios": "https://dc.lft.to/lastmile_qr_scan", "android": "https://dc.lft.to/lastmile_qr_scan"}, "lon": -77.03022366666667, "type": "electric_scooter", "fusion_lat": 0.0, "lat": 38.922432666666666, "name": "02336514ccfd4343e9b0f64a13cfa12a", "fusion_lon": 0.0, "bike_id": "02336514ccfd4343e9b0f64a13cfa12a", "is_disabled": 0, "is_reserved": 0}, {"rental_uris": {"ios": "https://dc.lft.to/lastmile_qr_scan", "android": "https://dc.lft.to/lastmile_qr_scan"}, "lon": -77.05499266666666, "type": "electric_scooter", "fusion_lat": 0.0, "lat": 38.929699666666664, "name": "f0b466d059d3f9f278634274aa4b159a", "fusion_lon": 0.0, "bike_id": "f0b466d059d3f9f278634274aa4b159a", "is_disabled": 0, "is_reserved": 0}, {"rental_uris": {"ios": "https://dc.lft.to/lastmile_qr_scan", "android": "https://dc.lft.to/lastmile_qr_scan"}, "lon": -77.0396175, "type": "electric_bike", "fusion_lat": 0.0, "lat": 38.80523733333333, "name": "7d617469b49e43f3c81dd25852cb280f", "fusion_lon": 0.0, "bike_id": "7d617469b49e43f3c81dd25852cb280f", "is_disabled": 0, "is_reserved": 0}, {"rental_uris": {"ios": "https://dc.lft.to/lastmile_qr_scan", "android": "https://dc.lft.to/lastmile_qr_scan"}, "lon": -77.08933, "type": "electric_bike", "fusion_lat": 0.0, "lat": 38.84101916666667, "name": "56518c8450f41fe70241126cb89a7ebf", "fusion_lon": 0.0, "bike_id": "56518c8450f41fe70241126cb89a7ebf", "is_disabled": 0, "is_reserved": 0}, {"rental_uris": {"ios": "https://dc.lft.to/lastmile_qr_scan", "android": "https://dc.lft.to/lastmile_qr_scan"}, "lon": -77.0261355, "type": "electric_scooter", "fusion_lat": 0.0, "lat": 38.951856166666666, "name": "a0cb927f86a40d3db4800f0f2ebaede0", "fusion_lon": 0.0, "bike_id": "a0cb927f86a40d3db4800f0f2ebaede0", "is_disabled": 0, "is_reserved": 0}, {"rental_uris": {"ios": "https://dc.lft.to/lastmile_qr_scan", "android": "https://dc.lft.to/lastmile_qr_scan"}, "lon": -77.04191466666667, "type": "electric_scooter", "fusion_lat": 0.0, "lat": 38.92205766666667, "name": "73a3a78cc52481dfc7669242ffb450c9", "fusion_lon": 0.0, "bike_id": "73a3a78cc52481dfc7669242ffb450c9", "is_disabled": 0, "is_reserved": 0}, {"rental_uris": {"ios": "https://dc.lft.to/lastmile_qr_scan", "android": "https://dc.lft.to/lastmile_qr_scan"}, "lon": -77.0297835, "type": "electric_scooter", "fusion_lat": 0.0, "lat": 38.95832633333333, "name": "51312b2d56f87d49f6b5eea0a02f3c68", "fusion_lon": 0.0, "bike_id": "51312b2d56f87d49f6b5eea0a02f3c68", "is_disabled": 0, "is_reserved": 0}, {"rental_uris": {"ios": "https://dc.lft.to/lastmile_qr_scan", "android": "https://dc.lft.to/lastmile_qr_scan"}, "lon": -77.03943883333334, "type": "electric_scooter", "fusion_lat": 0.0, "lat": 38.926131166666664, "name": "02f660e4bc36416622323aca86bba81d", "fusion_lon": 0.0, "bike_id": "02f660e4bc36416622323aca86bba81d", "is_disabled": 0, "is_reserved": 0}, {"rental_uris": {"ios": "https://dc.lft.to/lastmile_qr_scan", "android": "https://dc.lft.to/lastmile_qr_scan"}, "lon": -76.98047083333333, "type": "electric_bike", "fusion_lat": 0.0, "lat": 38.916892, "name": "db716ce40b2b16d344c4208019ee53ed", "fusion_lon": 0.0, "bike_id": "db716ce40b2b16d344c4208019ee53ed", "is_disabled": 0, "is_reserved": 0}, {"rental_uris": {"ios": "https://dc.lft.to/lastmile_qr_scan", "android": "https://dc.lft.to/lastmile_qr_scan"}, "lon": -77.01070816666666, "type": "electric_scooter", "fusion_lat": 0.0, "lat": 38.90378366666667, "name": "44a3f836a3f45ce23653f11517e96685", "fusion_lon": 0.0, "bike_id": "44a3f836a3f45ce23653f11517e96685", "is_disabled": 0, "is_reserved": 0}, {"rental_uris": {"ios": "https://dc.lft.to/lastmile_qr_scan", "android": "https://dc.lft.to/lastmile_qr_scan"}, "lon": -77.043678, "type": "electric_bike", "fusion_lat": 0.0, "lat": 38.928098166666665, "name": "5fec9e7d71d7bbf38087f6eb8ea1d3da", "fusion_lon": 0.0, "bike_id": "5fec9e7d71d7bbf38087f6eb8ea1d3da", "is_disabled": 0, "is_reserved": 0}, {"rental_uris": {"ios": "https://dc.lft.to/lastmile_qr_scan", "android": "https://dc.lft.to/lastmile_qr_scan"}, "lon": -76.9652465, "type": "electric_scooter", "fusion_lat": 0.0, "lat": 38.876308, "name": "4a5d2b54f22c4937ea68429bdef272de", "fusion_lon": 0.0, "bike_id": "4a5d2b54f22c4937ea68429bdef272de", "is_disabled": 0, "is_reserved": 0}, {"rental_uris": {"ios": "https://dc.lft.to/lastmile_qr_scan", "android": "https://dc.lft.to/lastmile_qr_scan"}, "lon": -77.0435535, "type": "electric_scooter", "fusion_lat": 0.0, "lat": 38.9065765, "name": "faa68e8f573779df682c3532ced72fc5", "fusion_lon": 0.0, "bike_id": "faa68e8f573779df682c3532ced72fc5", "is_disabled": 0, "is_reserved": 0}, {"rental_uris": {"ios": "https://dc.lft.to/lastmile_qr_scan", "android": "https://dc.lft.to/lastmile_qr_scan"}, "lon": -77.03294433333333, "type": "electric_scooter", "fusion_lat": 0.0, "lat": 38.9112515, "name": "f99e9244ed2f4ada76776f37cb134116", "fusion_lon": 0.0, "bike_id": "f99e9244ed2f4ada76776f37cb134116", "is_disabled": 0, "is_reserved": 0}, {"rental_uris": {"ios": "https://dc.lft.to/lastmile_qr_scan", "android": "https://dc.lft.to/lastmile_qr_scan"}, "lon": -76.9996375, "type": "electric_scooter", "fusion_lat": 0.0, "lat": 38.906957, "name": "6d27ca113995f81d6bd237672754df26", "fusion_lon": 0.0, "bike_id": "6d27ca113995f81d6bd237672754df26", "is_disabled": 0, "is_reserved": 0}, {"rental_uris": {"ios": "https://dc.lft.to/lastmile_qr_scan", "android": "https://dc.lft.to/lastmile_qr_scan"}, "lon": -77.05634233333333, "type": "electric_scooter", "fusion_lat": 0.0, "lat": 38.92751966666667, "name": "d0dde4f0ae3f769a1b088b22b8a7f7cb", "fusion_lon": 0.0, "bike_id": "d0dde4f0ae3f769a1b088b22b8a7f7cb", "is_disabled": 0, "is_reserved": 0}, {"rental_uris": {"ios": "https://dc.lft.to/lastmile_qr_scan", "android": "https://dc.lft.to/lastmile_qr_scan"}, "lon": -77.06413633333334, "type": "electric_scooter", "fusion_lat": 0.0, "lat": 38.9090885, "name": "0953237dbd609aa3fa50f827852c08ed", "fusion_lon": 0.0, "bike_id": "0953237dbd609aa3fa50f827852c08ed", "is_disabled": 0, "is_reserved": 0}, {"rental_uris": {"ios": "https://dc.lft.to/lastmile_qr_scan", "android": "https://dc.lft.to/lastmile_qr_scan"}, "lon": -77.04676683333334, "type": "electric_scooter", "fusion_lat": 0.0, "lat": 38.9052185, "name": "426ccc48cb76611aededbbf2a2c5eb1d", "fusion_lon": 0.0, "bike_id": "426ccc48cb76611aededbbf2a2c5eb1d", "is_disabled": 0, "is_reserved": 0}, {"rental_uris": {"ios": "https://dc.lft.to/lastmile_qr_scan", "android": "https://dc.lft.to/lastmile_qr_scan"}, "lon": -76.997976, "type": "electric_bike", "fusion_lat": 0.0, "lat": 38.88533533333333, "name": "1021eb84154b62a772ec37da03ef32f5", "fusion_lon": 0.0, "bike_id": "1021eb84154b62a772ec37da03ef32f5", "is_disabled": 0, "is_reserved": 0}, {"rental_uris": {"ios": "https://dc.lft.to/lastmile_qr_scan", "android": "https://dc.lft.to/lastmile_qr_scan"}, "lon": -77.0319105, "type": "electric_scooter", "fusion_lat": 0.0, "lat": 38.91792083333333, "name": "2f5c46e7a3fb45a973f96d1e4070e935", "fusion_lon": 0.0, "bike_id": "2f5c46e7a3fb45a973f96d1e4070e935", "is_disabled": 0, "is_reserved": 0}, {"rental_uris": {"ios": "https://dc.lft.to/lastmile_qr_scan", "android": "https://dc.lft.to/lastmile_qr_scan"}, "lon": -77.00499966666666, "type": "electric_scooter", "fusion_lat": 0.0, "lat": 38.89590916666667, "name": "913d1ec7abe5b950a285cd182f8d0062", "fusion_lon": 0.0, "bike_id": "913d1ec7abe5b950a285cd182f8d0062", "is_disabled": 0, "is_reserved": 0}, {"rental_uris": {"ios": "https://dc.lft.to/lastmile_qr_scan", "android": "https://dc.lft.to/lastmile_qr_scan"}, "lon": -77.07266316666667, "type": "electric_scooter", "fusion_lat": 0.0, "lat": 38.93482616666667, "name": "7e41a6041078894696ceac0214541a8a", "fusion_lon": 0.0, "bike_id": "7e41a6041078894696ceac0214541a8a", "is_disabled": 0, "is_reserved": 0}, {"rental_uris": {"ios": "https://dc.lft.to/lastmile_qr_scan", "android": "https://dc.lft.to/lastmile_qr_scan"}, "lon": -77.08024416666666, "type": "electric_scooter", "fusion_lat": 0.0, "lat": 38.95055033333333, "name": "fe57f82c4033118cb3c4a124be2eaa98", "fusion_lon": 0.0, "bike_id": "fe57f82c4033118cb3c4a124be2eaa98", "is_disabled": 0, "is_reserved": 0}, {"rental_uris": {"ios": "https://dc.lft.to/lastmile_qr_scan", "android": "https://dc.lft.to/lastmile_qr_scan"}, "lon": -77.013821, "type": "electric_scooter", "fusion_lat": 0.0, "lat": 38.919511, "name": "dcc4fb9d4d317a45d32dc8f1ec89e262", "fusion_lon": 0.0, "bike_id": "dcc4fb9d4d317a45d32dc8f1ec89e262", "is_disabled": 0, "is_reserved": 0}, {"rental_uris": {"ios": "https://dc.lft.to/lastmile_qr_scan", "android": "https://dc.lft.to/lastmile_qr_scan"}, "lon": -77.01188883333333, "type": "electric_scooter", "fusion_lat": 0.0, "lat": 38.9001965, "name": "77da7481f188d7c5a0f3f7d4fd69517d", "fusion_lon": 0.0, "bike_id": "77da7481f188d7c5a0f3f7d4fd69517d", "is_disabled": 0, "is_reserved": 0}, {"rental_uris": {"ios": "https://dc.lft.to/lastmile_qr_scan", "android": "https://dc.lft.to/lastmile_qr_scan"}, "lon": -77.04653633333334, "type": "electric_scooter", "fusion_lat": 0.0, "lat": 38.912731666666666, "name": "fc78fbc3c9312dc205bc76085494aec9", "fusion_lon": 0.0, "bike_id": "fc78fbc3c9312dc205bc76085494aec9", "is_disabled": 0, "is_reserved": 0}, {"rental_uris": {"ios": "https://dc.lft.to/lastmile_qr_scan", "android": "https://dc.lft.to/lastmile_qr_scan"}, "lon": -77.00509183333334, "type": "electric_scooter", "fusion_lat": 0.0, "lat": 38.929006333333334, "name": "8c53e52fd052152eccf85e9689487ad8", "fusion_lon": 0.0, "bike_id": "8c53e52fd052152eccf85e9689487ad8", "is_disabled": 0, "is_reserved": 0}, {"rental_uris": {"ios": "https://dc.lft.to/lastmile_qr_scan", "android": "https://dc.lft.to/lastmile_qr_scan"}, "lon": -77.0417835, "type": "electric_scooter", "fusion_lat": 0.0, "lat": 38.9198535, "name": "1dc509f82f70083622d93800c1f65fdc", "fusion_lon": 0.0, "bike_id": "1dc509f82f70083622d93800c1f65fdc", "is_disabled": 0, "is_reserved": 0}, {"rental_uris": {"ios": "https://dc.lft.to/lastmile_qr_scan", "android": "https://dc.lft.to/lastmile_qr_scan"}, "lon": -77.04027116666667, "type": "electric_scooter", "fusion_lat": 0.0, "lat": 38.924472333333334, "name": "2792ade26afc887b4db01d31476aeb47", "fusion_lon": 0.0, "bike_id": "2792ade26afc887b4db01d31476aeb47", "is_disabled": 0, "is_reserved": 0}, {"rental_uris": {"ios": "https://dc.lft.to/lastmile_qr_scan", "android": "https://dc.lft.to/lastmile_qr_scan"}, "lon": -77.007037, "type": "electric_scooter", "fusion_lat": 0.0, "lat": 38.90014733333334, "name": "6c78655beb1ae3ace51988c343bc3c57", "fusion_lon": 0.0, "bike_id": "6c78655beb1ae3ace51988c343bc3c57", "is_disabled": 0, "is_reserved": 0}, {"rental_uris": {"ios": "https://dc.lft.to/lastmile_qr_scan", "android": "https://dc.lft.to/lastmile_qr_scan"}, "lon": -77.05350883333334, "type": "electric_scooter", "fusion_lat": 0.0, "lat": 38.927200166666665, "name": "4767b9090aba6a0904666aa60712fcfe", "fusion_lon": 0.0, "bike_id": "4767b9090aba6a0904666aa60712fcfe", "is_disabled": 0, "is_reserved": 0}, {"rental_uris": {"ios": "https://dc.lft.to/lastmile_qr_scan", "android": "https://dc.lft.to/lastmile_qr_scan"}, "lon": -76.98408083333334, "type": "electric_scooter", "fusion_lat": 0.0, "lat": 38.859712333333334, "name": "d2d05d3c13bdd274b432ead09a425db0", "fusion_lon": 0.0, "bike_id": "d2d05d3c13bdd274b432ead09a425db0", "is_disabled": 0, "is_reserved": 0}, {"rental_uris": {"ios": "https://dc.lft.to/lastmile_qr_scan", "android": "https://dc.lft.to/lastmile_qr_scan"}, "lon": -77.08941383333334, "type": "electric_bike", "fusion_lat": 0.0, "lat": 38.840926333333336, "name": "5de785f423303dfbec0ddf135ac53e5b", "fusion_lon": 0.0, "bike_id": "5de785f423303dfbec0ddf135ac53e5b", "is_disabled": 0, "is_reserved": 0}, {"rental_uris": {"ios": "https://dc.lft.to/lastmile_qr_scan", "android": "https://dc.lft.to/lastmile_qr_scan"}, "lon": -77.02954183333334, "type": "electric_scooter", "fusion_lat": 0.0, "lat": 38.915871, "name": "3f50a5ba071fd68cfdc4852d1d55a964", "fusion_lon": 0.0, "bike_id": "3f50a5ba071fd68cfdc4852d1d55a964", "is_disabled": 0, "is_reserved": 0}, {"rental_uris": {"ios": "https://dc.lft.to/lastmile_qr_scan", "android": "https://dc.lft.to/lastmile_qr_scan"}, "lon": -77.0318445, "type": "electric_scooter", "fusion_lat": 0.0, "lat": 38.89331466666667, "name": "354792e84cdea5997f9af8c36fe22ff4", "fusion_lon": 0.0, "bike_id": "354792e84cdea5997f9af8c36fe22ff4", "is_disabled": 0, "is_reserved": 0}, {"rental_uris": {"ios": "https://dc.lft.to/lastmile_qr_scan", "android": "https://dc.lft.to/lastmile_qr_scan"}, "lon": -77.00277733333333, "type": "electric_scooter", "fusion_lat": 0.0, "lat": 38.897416166666666, "name": "1226156900834cf4abf31457f72d356c", "fusion_lon": 0.0, "bike_id": "1226156900834cf4abf31457f72d356c", "is_disabled": 0, "is_reserved": 0}, {"rental_uris": {"ios": "https://dc.lft.to/lastmile_qr_scan", "android": "https://dc.lft.to/lastmile_qr_scan"}, "lon": -77.04735016666666, "type": "electric_scooter", "fusion_lat": 0.0, "lat": 38.902154, "name": "9a2f5d3c89579849116d46c7d58b56f2", "fusion_lon": 0.0, "bike_id": "9a2f5d3c89579849116d46c7d58b56f2", "is_disabled": 0, "is_reserved": 0}, {"rental_uris": {"ios": "https://dc.lft.to/lastmile_qr_scan", "android": "https://dc.lft.to/lastmile_qr_scan"}, "lon": -77.0318155, "type": "electric_scooter", "fusion_lat": 0.0, "lat": 38.913351166666665, "name": "19268a288402f29e5a7563412fbc402c", "fusion_lon": 0.0, "bike_id": "19268a288402f29e5a7563412fbc402c", "is_disabled": 0, "is_reserved": 0}, {"rental_uris": {"ios": "https://dc.lft.to/lastmile_qr_scan", "android": "https://dc.lft.to/lastmile_qr_scan"}, "lon": -77.04871533333333, "type": "electric_scooter", "fusion_lat": 0.0, "lat": 38.903703, "name": "a272a174d6292235530b02bcbb57e7d5", "fusion_lon": 0.0, "bike_id": "a272a174d6292235530b02bcbb57e7d5", "is_disabled": 0, "is_reserved": 0}, {"rental_uris": {"ios": "https://dc.lft.to/lastmile_qr_scan", "android": "https://dc.lft.to/lastmile_qr_scan"}, "lon": -77.05176583333333, "type": "electric_scooter", "fusion_lat": 0.0, "lat": 38.924274, "name": "47e9ea66cf9f4a88b6f278d797567989", "fusion_lon": 0.0, "bike_id": "47e9ea66cf9f4a88b6f278d797567989", "is_disabled": 0, "is_reserved": 0}, {"rental_uris": {"ios": "https://dc.lft.to/lastmile_qr_scan", "android": "https://dc.lft.to/lastmile_qr_scan"}, "lon": -77.10505216666667, "type": "electric_bike", "fusion_lat": 0.0, "lat": 38.928498, "name": "25d6b8aef292a46b56c476ee68c89f8f", "fusion_lon": 0.0, "bike_id": "25d6b8aef292a46b56c476ee68c89f8f", "is_disabled": 0, "is_reserved": 0}, {"rental_uris": {"ios": "https://dc.lft.to/lastmile_qr_scan", "android": "https://dc.lft.to/lastmile_qr_scan"}, "lon": -77.0319985, "type": "electric_scooter", "fusion_lat": 0.0, "lat": 38.904484833333335, "name": "a1b8d0a93b77ea246d41f5d44f0e8fbd", "fusion_lon": 0.0, "bike_id": "a1b8d0a93b77ea246d41f5d44f0e8fbd", "is_disabled": 0, "is_reserved": 0}, {"rental_uris": {"ios": "https://dc.lft.to/lastmile_qr_scan", "android": "https://dc.lft.to/lastmile_qr_scan"}, "lon": -77.19907166666667, "type": "electric_bike", "fusion_lat": 0.0, "lat": 38.875281333333334, "name": "6ab41f8f11bf790bbba99901979a99ba", "fusion_lon": 0.0, "bike_id": "6ab41f8f11bf790bbba99901979a99ba", "is_disabled": 0, "is_reserved": 0}, {"rental_uris": {"ios": "https://dc.lft.to/lastmile_qr_scan", "android": "https://dc.lft.to/lastmile_qr_scan"}, "lon": -76.99794366666667, "type": "electric_bike", "fusion_lat": 0.0, "lat": 38.908608, "name": "ff036f1bdb65358ece20bdf4636eba39", "fusion_lon": 0.0, "bike_id": "ff036f1bdb65358ece20bdf4636eba39", "is_disabled": 0, "is_reserved": 0}, {"rental_uris": {"ios": "https://dc.lft.to/lastmile_qr_scan", "android": "https://dc.lft.to/lastmile_qr_scan"}, "lon": -77.0065065, "type": "electric_scooter", "fusion_lat": 0.0, "lat": 38.90862683333334, "name": "6ff52851419681a8c8835a4e223ef08b", "fusion_lon": 0.0, "bike_id": "6ff52851419681a8c8835a4e223ef08b", "is_disabled": 0, "is_reserved": 0}, {"rental_uris": {"ios": "https://dc.lft.to/lastmile_qr_scan", "android": "https://dc.lft.to/lastmile_qr_scan"}, "lon": -77.03563633333333, "type": "electric_scooter", "fusion_lat": 0.0, "lat": 38.9163695, "name": "256432712ba360db3ff5c8b4d36c1399", "fusion_lon": 0.0, "bike_id": "256432712ba360db3ff5c8b4d36c1399", "is_disabled": 0, "is_reserved": 0}, {"rental_uris": {"ios": "https://dc.lft.to/lastmile_qr_scan", "android": "https://dc.lft.to/lastmile_qr_scan"}, "lon": -77.14991716666667, "type": "electric_bike", "fusion_lat": 0.0, "lat": 39.094623166666665, "name": "6713f57f5afa26ffb93450e7619294e9", "fusion_lon": 0.0, "bike_id": "6713f57f5afa26ffb93450e7619294e9", "is_disabled": 0, "is_reserved": 0}, {"rental_uris": {"ios": "https://dc.lft.to/lastmile_qr_scan", "android": "https://dc.lft.to/lastmile_qr_scan"}, "lon": -76.933661, "type": "electric_scooter", "fusion_lat": 0.0, "lat": 38.8991645, "name": "45ca8f21adf3e933b809db02ddb55901", "fusion_lon": 0.0, "bike_id": "45ca8f21adf3e933b809db02ddb55901", "is_disabled": 0, "is_reserved": 0}, {"rental_uris": {"ios": "https://dc.lft.to/lastmile_qr_scan", "android": "https://dc.lft.to/lastmile_qr_scan"}, "lon": -77.0294525, "type": "electric_scooter", "fusion_lat": 0.0, "lat": 38.9038955, "name": "532419a8640ec9e0773c66ac88ffbfdf", "fusion_lon": 0.0, "bike_id": "532419a8640ec9e0773c66ac88ffbfdf", "is_disabled": 0, "is_reserved": 0}, {"rental_uris": {"ios": "https://dc.lft.to/lastmile_qr_scan", "android": "https://dc.lft.to/lastmile_qr_scan"}, "lon": -77.02351083333333, "type": "electric_scooter", "fusion_lat": 0.0, "lat": 38.9353875, "name": "27cb3b984cc602681b75d96e8b4ccd07", "fusion_lon": 0.0, "bike_id": "27cb3b984cc602681b75d96e8b4ccd07", "is_disabled": 0, "is_reserved": 0}, {"rental_uris": {"ios": "https://dc.lft.to/lastmile_qr_scan", "android": "https://dc.lft.to/lastmile_qr_scan"}, "lon": -76.96844016666667, "type": "electric_scooter", "fusion_lat": 0.0, "lat": 38.874663166666664, "name": "ec9a426f3ed144ec38264b426390596c", "fusion_lon": 0.0, "bike_id": "ec9a426f3ed144ec38264b426390596c", "is_disabled": 0, "is_reserved": 0}, {"rental_uris": {"ios": "https://dc.lft.to/lastmile_qr_scan", "android": "https://dc.lft.to/lastmile_qr_scan"}, "lon": -77.04820333333333, "type": "electric_scooter", "fusion_lat": 0.0, "lat": 38.90797766666667, "name": "ced26544f85dacecac33f21e6e9b9c28", "fusion_lon": 0.0, "bike_id": "ced26544f85dacecac33f21e6e9b9c28", "is_disabled": 0, "is_reserved": 0}, {"rental_uris": {"ios": "https://dc.lft.to/lastmile_qr_scan", "android": "https://dc.lft.to/lastmile_qr_scan"}, "lon": -77.00349833333334, "type": "electric_scooter", "fusion_lat": 0.0, "lat": 38.892655166666664, "name": "8285f28c92c051a7bd1c6b23d8cb8525", "fusion_lon": 0.0, "bike_id": "8285f28c92c051a7bd1c6b23d8cb8525", "is_disabled": 0, "is_reserved": 0}, {"rental_uris": {"ios": "https://dc.lft.to/lastmile_qr_scan", "android": "https://dc.lft.to/lastmile_qr_scan"}, "lon": -77.0886195, "type": "electric_scooter", "fusion_lat": 0.0, "lat": 38.90991666666667, "name": "aded4c72923a851e06f30d6bc3d08459", "fusion_lon": 0.0, "bike_id": "aded4c72923a851e06f30d6bc3d08459", "is_disabled": 0, "is_reserved": 0}, {"rental_uris": {"ios": "https://dc.lft.to/lastmile_qr_scan", "android": "https://dc.lft.to/lastmile_qr_scan"}, "lon": -77.004896, "type": "electric_scooter", "fusion_lat": 0.0, "lat": 38.87893483333333, "name": "96a097c5fd24bf800f91fdacabdd5849", "fusion_lon": 0.0, "bike_id": "96a097c5fd24bf800f91fdacabdd5849", "is_disabled": 0, "is_reserved": 0}, {"rental_uris": {"ios": "https://dc.lft.to/lastmile_qr_scan", "android": "https://dc.lft.to/lastmile_qr_scan"}, "lon": -77.02955783333333, "type": "electric_scooter", "fusion_lat": 0.0, "lat": 38.8993805, "name": "48c03274df03a92abcad3cd71848d9aa", "fusion_lon": 0.0, "bike_id": "48c03274df03a92abcad3cd71848d9aa", "is_disabled": 0, "is_reserved": 0}, {"rental_uris": {"ios": "https://dc.lft.to/lastmile_qr_scan", "android": "https://dc.lft.to/lastmile_qr_scan"}, "lon": -76.946311, "type": "electric_scooter", "fusion_lat": 0.0, "lat": 38.89843783333333, "name": "1a5400e9b75c27e11972e88c1d471239", "fusion_lon": 0.0, "bike_id": "1a5400e9b75c27e11972e88c1d471239", "is_disabled": 0, "is_reserved": 0}, {"rental_uris": {"ios": "https://dc.lft.to/lastmile_qr_scan", "android": "https://dc.lft.to/lastmile_qr_scan"}, "lon": -76.996781, "type": "electric_scooter", "fusion_lat": 0.0, "lat": 38.91017, "name": "fb5d28101d1184d6bbc0867ff3ba8252", "fusion_lon": 0.0, "bike_id": "fb5d28101d1184d6bbc0867ff3ba8252", "is_disabled": 0, "is_reserved": 0}, {"rental_uris": {"ios": "https://dc.lft.to/lastmile_qr_scan", "android": "https://dc.lft.to/lastmile_qr_scan"}, "lon": -76.99556016666666, "type": "electric_scooter", "fusion_lat": 0.0, "lat": 38.92881533333333, "name": "7173f9d481836b877dd74ba49a25c83e", "fusion_lon": 0.0, "bike_id": "7173f9d481836b877dd74ba49a25c83e", "is_disabled": 0, "is_reserved": 0}, {"rental_uris": {"ios": "https://dc.lft.to/lastmile_qr_scan", "android": "https://dc.lft.to/lastmile_qr_scan"}, "lon": -76.93864616666667, "type": "electric_scooter", "fusion_lat": 0.0, "lat": 38.900861666666664, "name": "c1dbdb35737dae560b07f7beee65016c", "fusion_lon": 0.0, "bike_id": "c1dbdb35737dae560b07f7beee65016c", "is_disabled": 0, "is_reserved": 0}, {"rental_uris": {"ios": "https://dc.lft.to/lastmile_qr_scan", "android": "https://dc.lft.to/lastmile_qr_scan"}, "lon": -77.0241615, "type": "electric_scooter", "fusion_lat": 0.0, "lat": 38.8950795, "name": "bbd924d10a03c5e74ad6d844d59f99eb", "fusion_lon": 0.0, "bike_id": "bbd924d10a03c5e74ad6d844d59f99eb", "is_disabled": 0, "is_reserved": 0}, {"rental_uris": {"ios": "https://dc.lft.to/lastmile_qr_scan", "android": "https://dc.lft.to/lastmile_qr_scan"}, "lon": -77.01230016666666, "type": "electric_scooter", "fusion_lat": 0.0, "lat": 38.900406, "name": "645c60a26f5b31339b874cb04b7ca237", "fusion_lon": 0.0, "bike_id": "645c60a26f5b31339b874cb04b7ca237", "is_disabled": 0, "is_reserved": 0}, {"rental_uris": {"ios": "https://dc.lft.to/lastmile_qr_scan", "android": "https://dc.lft.to/lastmile_qr_scan"}, "lon": -77.03553266666667, "type": "electric_scooter", "fusion_lat": 0.0, "lat": 38.92416933333333, "name": "a4c6ec75544f4e9cb4fc01030877dc8d", "fusion_lon": 0.0, "bike_id": "a4c6ec75544f4e9cb4fc01030877dc8d", "is_disabled": 0, "is_reserved": 0}, {"rental_uris": {"ios": "https://dc.lft.to/lastmile_qr_scan", "android": "https://dc.lft.to/lastmile_qr_scan"}, "lon": -76.98653483333334, "type": "electric_scooter", "fusion_lat": 0.0, "lat": 38.8580755, "name": "0b13730212a4648ccdfe002aa24c2b1f", "fusion_lon": 0.0, "bike_id": "0b13730212a4648ccdfe002aa24c2b1f", "is_disabled": 0, "is_reserved": 0}, {"rental_uris": {"ios": "https://dc.lft.to/lastmile_qr_scan", "android": "https://dc.lft.to/lastmile_qr_scan"}, "lon": -77.044784, "type": "electric_scooter", "fusion_lat": 0.0, "lat": 38.90026816666666, "name": "d5020e3a2252f9618c4b0fcc13b37f66", "fusion_lon": 0.0, "bike_id": "d5020e3a2252f9618c4b0fcc13b37f66", "is_disabled": 0, "is_reserved": 0}, {"rental_uris": {"ios": "https://dc.lft.to/lastmile_qr_scan", "android": "https://dc.lft.to/lastmile_qr_scan"}, "lon": -77.0321335, "type": "electric_scooter", "fusion_lat": 0.0, "lat": 38.9624155, "name": "cc98fabf1ebcb6b18fb8170f64b81f1a", "fusion_lon": 0.0, "bike_id": "cc98fabf1ebcb6b18fb8170f64b81f1a", "is_disabled": 0, "is_reserved": 0}, {"rental_uris": {"ios": "https://dc.lft.to/lastmile_qr_scan", "android": "https://dc.lft.to/lastmile_qr_scan"}, "lon": -77.10022683333334, "type": "electric_bike", "fusion_lat": 0.0, "lat": 38.990681, "name": "0623506d4ffa0ac791a1affcb9c462eb", "fusion_lon": 0.0, "bike_id": "0623506d4ffa0ac791a1affcb9c462eb", "is_disabled": 0, "is_reserved": 0}, {"rental_uris": {"ios": "https://dc.lft.to/lastmile_qr_scan", "android": "https://dc.lft.to/lastmile_qr_scan"}, "lon": -76.99942166666666, "type": "electric_scooter", "fusion_lat": 0.0, "lat": 38.8429535, "name": "a1c97c612fb4d5b694072aefe2c53981", "fusion_lon": 0.0, "bike_id": "a1c97c612fb4d5b694072aefe2c53981", "is_disabled": 0, "is_reserved": 0}, {"rental_uris": {"ios": "https://dc.lft.to/lastmile_qr_scan", "android": "https://dc.lft.to/lastmile_qr_scan"}, "lon": -77.02229883333334, "type": "electric_scooter", "fusion_lat": 0.0, "lat": 38.91424766666667, "name": "025a7b042adb188f20327cd66cd06803", "fusion_lon": 0.0, "bike_id": "025a7b042adb188f20327cd66cd06803", "is_disabled": 0, "is_reserved": 0}, {"rental_uris": {"ios": "https://dc.lft.to/lastmile_qr_scan", "android": "https://dc.lft.to/lastmile_qr_scan"}, "lon": -77.0231315, "type": "electric_scooter", "fusion_lat": 0.0, "lat": 38.917028, "name": "6865ad9ea341fb59a5e700ece2e9a0a8", "fusion_lon": 0.0, "bike_id": "6865ad9ea341fb59a5e700ece2e9a0a8", "is_disabled": 0, "is_reserved": 0}, {"rental_uris": {"ios": "https://dc.lft.to/lastmile_qr_scan", "android": "https://dc.lft.to/lastmile_qr_scan"}, "lon": -77.034695, "type": "electric_scooter", "fusion_lat": 0.0, "lat": 38.92994133333333, "name": "302544d78a4bae1a6455333d16b95495", "fusion_lon": 0.0, "bike_id": "302544d78a4bae1a6455333d16b95495", "is_disabled": 0, "is_reserved": 0}, {"rental_uris": {"ios": "https://dc.lft.to/lastmile_qr_scan", "android": "https://dc.lft.to/lastmile_qr_scan"}, "lon": -77.04897183333334, "type": "electric_bike", "fusion_lat": 0.0, "lat": 38.874951833333334, "name": "741d0cc44348a291444af56bf4ee7576", "fusion_lon": 0.0, "bike_id": "741d0cc44348a291444af56bf4ee7576", "is_disabled": 0, "is_reserved": 0}, {"rental_uris": {"ios": "https://dc.lft.to/lastmile_qr_scan", "android": "https://dc.lft.to/lastmile_qr_scan"}, "lon": -77.04500533333334, "type": "electric_scooter", "fusion_lat": 0.0, "lat": 38.892205833333335, "name": "32e7092d7598430238d022369dd26000", "fusion_lon": 0.0, "bike_id": "32e7092d7598430238d022369dd26000", "is_disabled": 0, "is_reserved": 0}, {"rental_uris": {"ios": "https://dc.lft.to/lastmile_qr_scan", "android": "https://dc.lft.to/lastmile_qr_scan"}, "lon": -76.97927333333334, "type": "electric_scooter", "fusion_lat": 0.0, "lat": 38.90498216666667, "name": "af1beef2e4026f110125da8e01a60f65", "fusion_lon": 0.0, "bike_id": "af1beef2e4026f110125da8e01a60f65", "is_disabled": 0, "is_reserved": 0}, {"rental_uris": {"ios": "https://dc.lft.to/lastmile_qr_scan", "android": "https://dc.lft.to/lastmile_qr_scan"}, "lon": -76.99041966666667, "type": "electric_scooter", "fusion_lat": 0.0, "lat": 38.90145283333333, "name": "87c629d5e3aea35046b7f26aae41f06e", "fusion_lon": 0.0, "bike_id": "87c629d5e3aea35046b7f26aae41f06e", "is_disabled": 0, "is_reserved": 0}, {"rental_uris": {"ios": "https://dc.lft.to/lastmile_qr_scan", "android": "https://dc.lft.to/lastmile_qr_scan"}, "lon": -77.06251633333333, "type": "electric_scooter", "fusion_lat": 0.0, "lat": 38.908494833333336, "name": "5e3cb472c3da54def76f4b0bbeb4588b", "fusion_lon": 0.0, "bike_id": "5e3cb472c3da54def76f4b0bbeb4588b", "is_disabled": 0, "is_reserved": 0}, {"rental_uris": {"ios": "https://dc.lft.to/lastmile_qr_scan", "android": "https://dc.lft.to/lastmile_qr_scan"}, "lon": -76.94649133333333, "type": "electric_scooter", "fusion_lat": 0.0, "lat": 38.898318333333336, "name": "aa272b0a2983e1d9ee32e54576086e71", "fusion_lon": 0.0, "bike_id": "aa272b0a2983e1d9ee32e54576086e71", "is_disabled": 0, "is_reserved": 0}, {"rental_uris": {"ios": "https://dc.lft.to/lastmile_qr_scan", "android": "https://dc.lft.to/lastmile_qr_scan"}, "lon": -76.98654, "type": "electric_scooter", "fusion_lat": 0.0, "lat": 38.858066, "name": "5509f1c75a933b616a9af52fc33dc2d6", "fusion_lon": 0.0, "bike_id": "5509f1c75a933b616a9af52fc33dc2d6", "is_disabled": 0, "is_reserved": 0}, {"rental_uris": {"ios": "https://dc.lft.to/lastmile_qr_scan", "android": "https://dc.lft.to/lastmile_qr_scan"}, "lon": -77.003472, "type": "electric_scooter", "fusion_lat": 0.0, "lat": 38.89764916666667, "name": "d95415f441aa50145aa8017507a98994", "fusion_lon": 0.0, "bike_id": "d95415f441aa50145aa8017507a98994", "is_disabled": 0, "is_reserved": 0}, {"rental_uris": {"ios": "https://dc.lft.to/lastmile_qr_scan", "android": "https://dc.lft.to/lastmile_qr_scan"}, "lon": -76.98654766666667, "type": "electric_scooter", "fusion_lat": 0.0, "lat": 38.858086, "name": "d2ce7833d7f77e5e1188f2c16f18666f", "fusion_lon": 0.0, "bike_id": "d2ce7833d7f77e5e1188f2c16f18666f", "is_disabled": 0, "is_reserved": 0}, {"rental_uris": {"ios": "https://dc.lft.to/lastmile_qr_scan", "android": "https://dc.lft.to/lastmile_qr_scan"}, "lon": -76.98569933333333, "type": "electric_scooter", "fusion_lat": 0.0, "lat": 38.89891216666667, "name": "021f9bc75e7fc0d636ead407cc99709a", "fusion_lon": 0.0, "bike_id": "021f9bc75e7fc0d636ead407cc99709a", "is_disabled": 0, "is_reserved": 0}, {"rental_uris": {"ios": "https://dc.lft.to/lastmile_qr_scan", "android": "https://dc.lft.to/lastmile_qr_scan"}, "lon": -77.038011, "type": "electric_bike", "fusion_lat": 0.0, "lat": 38.9967175, "name": "7b2ecb99ffca0b7894c02e23cc2cddab", "fusion_lon": 0.0, "bike_id": "7b2ecb99ffca0b7894c02e23cc2cddab", "is_disabled": 0, "is_reserved": 0}, {"rental_uris": {"ios": "https://dc.lft.to/lastmile_qr_scan", "android": "https://dc.lft.to/lastmile_qr_scan"}, "lon": -77.05072966666667, "type": "electric_scooter", "fusion_lat": 0.0, "lat": 38.90045516666667, "name": "5aa1531f4f8237cfd7932b547156102d", "fusion_lon": 0.0, "bike_id": "5aa1531f4f8237cfd7932b547156102d", "is_disabled": 0, "is_reserved": 0}, {"rental_uris": {"ios": "https://dc.lft.to/lastmile_qr_scan", "android": "https://dc.lft.to/lastmile_qr_scan"}, "lon": -77.1317135, "type": "electric_bike", "fusion_lat": 0.0, "lat": 38.869049, "name": "30e0e405eb4a42297401cfd14fe19532", "fusion_lon": 0.0, "bike_id": "30e0e405eb4a42297401cfd14fe19532", "is_disabled": 0, "is_reserved": 0}, {"rental_uris": {"ios": "https://dc.lft.to/lastmile_qr_scan", "android": "https://dc.lft.to/lastmile_qr_scan"}, "lon": -76.97441633333334, "type": "electric_bike", "fusion_lat": 0.0, "lat": 38.864021, "name": "c1a18530f760b07117555fcdad91512a", "fusion_lon": 0.0, "bike_id": "c1a18530f760b07117555fcdad91512a", "is_disabled": 0, "is_reserved": 0}, {"rental_uris": {"ios": "https://dc.lft.to/lastmile_qr_scan", "android": "https://dc.lft.to/lastmile_qr_scan"}, "lon": -77.02495466666667, "type": "electric_scooter", "fusion_lat": 0.0, "lat": 38.880346333333335, "name": "2957324c43d05f6c7215e5c97544eb44", "fusion_lon": 0.0, "bike_id": "2957324c43d05f6c7215e5c97544eb44", "is_disabled": 0, "is_reserved": 0}, {"rental_uris": {"ios": "https://dc.lft.to/lastmile_qr_scan", "android": "https://dc.lft.to/lastmile_qr_scan"}, "lon": -77.01981466666666, "type": "electric_bike", "fusion_lat": 0.0, "lat": 38.964789333333336, "name": "90d3ac8b28bf8e7766f28f2087635ed9", "fusion_lon": 0.0, "bike_id": "90d3ac8b28bf8e7766f28f2087635ed9", "is_disabled": 0, "is_reserved": 0}, {"rental_uris": {"ios": "https://dc.lft.to/lastmile_qr_scan", "android": "https://dc.lft.to/lastmile_qr_scan"}, "lon": -77.03144666666667, "type": "electric_scooter", "fusion_lat": 0.0, "lat": 38.912668, "name": "8e2b4c600c0cb3e681672010a2d4f558", "fusion_lon": 0.0, "bike_id": "8e2b4c600c0cb3e681672010a2d4f558", "is_disabled": 0, "is_reserved": 0}, {"rental_uris": {"ios": "https://dc.lft.to/lastmile_qr_scan", "android": "https://dc.lft.to/lastmile_qr_scan"}, "lon": -77.036341, "type": "electric_scooter", "fusion_lat": 0.0, "lat": 38.93717183333333, "name": "dfa957cc742b44643bf0613ed7d9d158", "fusion_lon": 0.0, "bike_id": "dfa957cc742b44643bf0613ed7d9d158", "is_disabled": 0, "is_reserved": 0}, {"rental_uris": {"ios": "https://dc.lft.to/lastmile_qr_scan", "android": "https://dc.lft.to/lastmile_qr_scan"}, "lon": -77.03918616666667, "type": "electric_scooter", "fusion_lat": 0.0, "lat": 38.92097716666667, "name": "64f59bbe86c4a1a7b0d26b8565f1509c", "fusion_lon": 0.0, "bike_id": "64f59bbe86c4a1a7b0d26b8565f1509c", "is_disabled": 0, "is_reserved": 0}, {"rental_uris": {"ios": "https://dc.lft.to/lastmile_qr_scan", "android": "https://dc.lft.to/lastmile_qr_scan"}, "lon": -76.94944883333334, "type": "electric_scooter", "fusion_lat": 0.0, "lat": 38.8837825, "name": "3eedfdf4bf7a5f29c9d241f9ab4919fb", "fusion_lon": 0.0, "bike_id": "3eedfdf4bf7a5f29c9d241f9ab4919fb", "is_disabled": 0, "is_reserved": 0}, {"rental_uris": {"ios": "https://dc.lft.to/lastmile_qr_scan", "android": "https://dc.lft.to/lastmile_qr_scan"}, "lon": -76.95742433333334, "type": "electric_scooter", "fusion_lat": 0.0, "lat": 38.89216966666667, "name": "0b4db5b24a6dafacc119aabd54c3f093", "fusion_lon": 0.0, "bike_id": "0b4db5b24a6dafacc119aabd54c3f093", "is_disabled": 0, "is_reserved": 0}, {"rental_uris": {"ios": "https://dc.lft.to/lastmile_qr_scan", "android": "https://dc.lft.to/lastmile_qr_scan"}, "lon": -77.03310433333333, "type": "electric_scooter", "fusion_lat": 0.0, "lat": 38.901443666666665, "name": "a96fb0d740fac7faeae59f8d419d6881", "fusion_lon": 0.0, "bike_id": "a96fb0d740fac7faeae59f8d419d6881", "is_disabled": 0, "is_reserved": 0}, {"rental_uris": {"ios": "https://dc.lft.to/lastmile_qr_scan", "android": "https://dc.lft.to/lastmile_qr_scan"}, "lon": -77.015346, "type": "electric_scooter", "fusion_lat": 0.0, "lat": 38.8982975, "name": "9d4cf98d56a37c86f05b900413784419", "fusion_lon": 0.0, "bike_id": "9d4cf98d56a37c86f05b900413784419", "is_disabled": 0, "is_reserved": 0}, {"rental_uris": {"ios": "https://dc.lft.to/lastmile_qr_scan", "android": "https://dc.lft.to/lastmile_qr_scan"}, "lon": -76.97727916666666, "type": "electric_scooter", "fusion_lat": 0.0, "lat": 38.87295483333333, "name": "f1015241a5406037d277a222531bba9c", "fusion_lon": 0.0, "bike_id": "f1015241a5406037d277a222531bba9c", "is_disabled": 0, "is_reserved": 0}, {"rental_uris": {"ios": "https://dc.lft.to/lastmile_qr_scan", "android": "https://dc.lft.to/lastmile_qr_scan"}, "lon": -76.99774566666666, "type": "electric_scooter", "fusion_lat": 0.0, "lat": 38.844263, "name": "6f0930a23a4b22bfea83bf344f4ebf17", "fusion_lon": 0.0, "bike_id": "6f0930a23a4b22bfea83bf344f4ebf17", "is_disabled": 0, "is_reserved": 0}, {"rental_uris": {"ios": "https://dc.lft.to/lastmile_qr_scan", "android": "https://dc.lft.to/lastmile_qr_scan"}, "lon": -77.0393945, "type": "electric_scooter", "fusion_lat": 0.0, "lat": 38.931526833333336, "name": "9d6e68cdb497cd0c70dcf463b71a6733", "fusion_lon": 0.0, "bike_id": "9d6e68cdb497cd0c70dcf463b71a6733", "is_disabled": 0, "is_reserved": 0}, {"rental_uris": {"ios": "https://dc.lft.to/lastmile_qr_scan", "android": "https://dc.lft.to/lastmile_qr_scan"}, "lon": -77.02256, "type": "electric_scooter", "fusion_lat": 0.0, "lat": 38.91644933333333, "name": "4d32b73172290f3620881df5fa61e91a", "fusion_lon": 0.0, "bike_id": "4d32b73172290f3620881df5fa61e91a", "is_disabled": 0, "is_reserved": 0}, {"rental_uris": {"ios": "https://dc.lft.to/lastmile_qr_scan", "android": "https://dc.lft.to/lastmile_qr_scan"}, "lon": -77.04282716666667, "type": "electric_scooter", "fusion_lat": 0.0, "lat": 38.9072025, "name": "18fa6f277e19c7a9a8699ccccfe700a9", "fusion_lon": 0.0, "bike_id": "18fa6f277e19c7a9a8699ccccfe700a9", "is_disabled": 0, "is_reserved": 0}, {"rental_uris": {"ios": "https://dc.lft.to/lastmile_qr_scan", "android": "https://dc.lft.to/lastmile_qr_scan"}, "lon": -77.02502233333334, "type": "electric_scooter", "fusion_lat": 0.0, "lat": 38.905626166666664, "name": "7256e14b9f08946777af20fe0bf24b9c", "fusion_lon": 0.0, "bike_id": "7256e14b9f08946777af20fe0bf24b9c", "is_disabled": 0, "is_reserved": 0}, {"rental_uris": {"ios": "https://dc.lft.to/lastmile_qr_scan", "android": "https://dc.lft.to/lastmile_qr_scan"}, "lon": -77.02970266666667, "type": "electric_scooter", "fusion_lat": 0.0, "lat": 38.900463333333335, "name": "4b57e8b99766b705b3e12b5824e6810b", "fusion_lon": 0.0, "bike_id": "4b57e8b99766b705b3e12b5824e6810b", "is_disabled": 0, "is_reserved": 0}, {"rental_uris": {"ios": "https://dc.lft.to/lastmile_qr_scan", "android": "https://dc.lft.to/lastmile_qr_scan"}, "lon": -77.044798, "type": "electric_scooter", "fusion_lat": 0.0, "lat": 38.911031666666666, "name": "a824bc788fe4a0c84258accbda05a646", "fusion_lon": 0.0, "bike_id": "a824bc788fe4a0c84258accbda05a646", "is_disabled": 0, "is_reserved": 0}, {"rental_uris": {"ios": "https://dc.lft.to/lastmile_qr_scan", "android": "https://dc.lft.to/lastmile_qr_scan"}, "lon": -77.05478066666667, "type": "electric_scooter", "fusion_lat": 0.0, "lat": 38.90504983333334, "name": "cd0993955d1d6fc0050055eda56c12b7", "fusion_lon": 0.0, "bike_id": "cd0993955d1d6fc0050055eda56c12b7", "is_disabled": 0, "is_reserved": 0}, {"rental_uris": {"ios": "https://dc.lft.to/lastmile_qr_scan", "android": "https://dc.lft.to/lastmile_qr_scan"}, "lon": -77.03910866666666, "type": "electric_scooter", "fusion_lat": 0.0, "lat": 38.91841266666667, "name": "6560c4a306c77a60a113aa6fac3d2dc5", "fusion_lon": 0.0, "bike_id": "6560c4a306c77a60a113aa6fac3d2dc5", "is_disabled": 0, "is_reserved": 0}, {"rental_uris": {"ios": "https://dc.lft.to/lastmile_qr_scan", "android": "https://dc.lft.to/lastmile_qr_scan"}, "lon": -76.98904, "type": "electric_scooter", "fusion_lat": 0.0, "lat": 38.90011783333333, "name": "12854197753132242aaab06d9cd49345", "fusion_lon": 0.0, "bike_id": "12854197753132242aaab06d9cd49345", "is_disabled": 0, "is_reserved": 0}, {"rental_uris": {"ios": "https://dc.lft.to/lastmile_qr_scan", "android": "https://dc.lft.to/lastmile_qr_scan"}, "lon": -77.02379316666666, "type": "electric_scooter", "fusion_lat": 0.0, "lat": 38.9322905, "name": "de22c510e3a8249314efde8a3bbaff41", "fusion_lon": 0.0, "bike_id": "de22c510e3a8249314efde8a3bbaff41", "is_disabled": 0, "is_reserved": 0}, {"rental_uris": {"ios": "https://dc.lft.to/lastmile_qr_scan", "android": "https://dc.lft.to/lastmile_qr_scan"}, "lon": -77.02005133333333, "type": "electric_scooter", "fusion_lat": 0.0, "lat": 38.91312766666667, "name": "4b26bbc46dbda31cab762040ddc3e5e7", "fusion_lon": 0.0, "bike_id": "4b26bbc46dbda31cab762040ddc3e5e7", "is_disabled": 0, "is_reserved": 0}, {"rental_uris": {"ios": "https://dc.lft.to/lastmile_qr_scan", "android": "https://dc.lft.to/lastmile_qr_scan"}, "lon": -77.01379616666667, "type": "electric_scooter", "fusion_lat": 0.0, "lat": 38.89917666666667, "name": "802ea3e4bd01f31881bfe460fc667300", "fusion_lon": 0.0, "bike_id": "802ea3e4bd01f31881bfe460fc667300", "is_disabled": 0, "is_reserved": 0}, {"rental_uris": {"ios": "https://dc.lft.to/lastmile_qr_scan", "android": "https://dc.lft.to/lastmile_qr_scan"}, "lon": -77.0270445, "type": "electric_scooter", "fusion_lat": 0.0, "lat": 38.94999466666667, "name": "c4d71dc607da28af541a20717448fab9", "fusion_lon": 0.0, "bike_id": "c4d71dc607da28af541a20717448fab9", "is_disabled": 0, "is_reserved": 0}, {"rental_uris": {"ios": "https://dc.lft.to/lastmile_qr_scan", "android": "https://dc.lft.to/lastmile_qr_scan"}, "lon": -77.10448416666667, "type": "electric_bike", "fusion_lat": 0.0, "lat": 38.896368333333335, "name": "acaad2bcb6bba0bfe43f082a3363e7be", "fusion_lon": 0.0, "bike_id": "acaad2bcb6bba0bfe43f082a3363e7be", "is_disabled": 0, "is_reserved": 0}, {"rental_uris": {"ios": "https://dc.lft.to/lastmile_qr_scan", "android": "https://dc.lft.to/lastmile_qr_scan"}, "lon": -76.946338, "type": "electric_scooter", "fusion_lat": 0.0, "lat": 38.89833466666666, "name": "44465f0626ee8a460cc090d82cfd85fd", "fusion_lon": 0.0, "bike_id": "44465f0626ee8a460cc090d82cfd85fd", "is_disabled": 0, "is_reserved": 0}, {"rental_uris": {"ios": "https://dc.lft.to/lastmile_qr_scan", "android": "https://dc.lft.to/lastmile_qr_scan"}, "lon": -77.03464316666667, "type": "electric_scooter", "fusion_lat": 0.0, "lat": 38.91885283333333, "name": "53566af3ff19433527d66326480f25a9", "fusion_lon": 0.0, "bike_id": "53566af3ff19433527d66326480f25a9", "is_disabled": 0, "is_reserved": 0}, {"rental_uris": {"ios": "https://dc.lft.to/lastmile_qr_scan", "android": "https://dc.lft.to/lastmile_qr_scan"}, "lon": -77.032116, "type": "electric_scooter", "fusion_lat": 0.0, "lat": 38.90774066666667, "name": "55b0d3970d4a73c37e4dff7f48ec6121", "fusion_lon": 0.0, "bike_id": "55b0d3970d4a73c37e4dff7f48ec6121", "is_disabled": 0, "is_reserved": 0}, {"rental_uris": {"ios": "https://dc.lft.to/lastmile_qr_scan", "android": "https://dc.lft.to/lastmile_qr_scan"}, "lon": -77.04540866666666, "type": "electric_scooter", "fusion_lat": 0.0, "lat": 38.9340985, "name": "1a7f755060d6b60a8e3ae33ed9cfdd58", "fusion_lon": 0.0, "bike_id": "1a7f755060d6b60a8e3ae33ed9cfdd58", "is_disabled": 0, "is_reserved": 0}, {"rental_uris": {"ios": "https://dc.lft.to/lastmile_qr_scan", "android": "https://dc.lft.to/lastmile_qr_scan"}, "lon": -76.98100983333333, "type": "electric_scooter", "fusion_lat": 0.0, "lat": 38.9054255, "name": "16f225a75a2f36c9017bd6794a64dbab", "fusion_lon": 0.0, "bike_id": "16f225a75a2f36c9017bd6794a64dbab", "is_disabled": 0, "is_reserved": 0}, {"rental_uris": {"ios": "https://dc.lft.to/lastmile_qr_scan", "android": "https://dc.lft.to/lastmile_qr_scan"}, "lon": -77.00302066666667, "type": "electric_scooter", "fusion_lat": 0.0, "lat": 38.88767933333333, "name": "c71683bc12cc4e6838672d364df287c9", "fusion_lon": 0.0, "bike_id": "c71683bc12cc4e6838672d364df287c9", "is_disabled": 0, "is_reserved": 0}, {"rental_uris": {"ios": "https://dc.lft.to/lastmile_qr_scan", "android": "https://dc.lft.to/lastmile_qr_scan"}, "lon": -77.00739633333333, "type": "electric_scooter", "fusion_lat": 0.0, "lat": 38.955251, "name": "bc3970dce5c441b7a7134e88afb7b1a4", "fusion_lon": 0.0, "bike_id": "bc3970dce5c441b7a7134e88afb7b1a4", "is_disabled": 0, "is_reserved": 0}, {"rental_uris": {"ios": "https://dc.lft.to/lastmile_qr_scan", "android": "https://dc.lft.to/lastmile_qr_scan"}, "lon": -77.0423315, "type": "electric_scooter", "fusion_lat": 0.0, "lat": 38.92153866666666, "name": "c9686337ece2d7fdb0db50fb986f1b47", "fusion_lon": 0.0, "bike_id": "c9686337ece2d7fdb0db50fb986f1b47", "is_disabled": 0, "is_reserved": 0}, {"rental_uris": {"ios": "https://dc.lft.to/lastmile_qr_scan", "android": "https://dc.lft.to/lastmile_qr_scan"}, "lon": -77.03997716666667, "type": "electric_scooter", "fusion_lat": 0.0, "lat": 38.90038783333333, "name": "5b253b81446517374ff712a209d54f96", "fusion_lon": 0.0, "bike_id": "5b253b81446517374ff712a209d54f96", "is_disabled": 0, "is_reserved": 0}, {"rental_uris": {"ios": "https://dc.lft.to/lastmile_qr_scan", "android": "https://dc.lft.to/lastmile_qr_scan"}, "lon": -77.06111166666666, "type": "electric_scooter", "fusion_lat": 0.0, "lat": 38.912966, "name": "a3b133b47cf85b6653e90ddde912a59b", "fusion_lon": 0.0, "bike_id": "a3b133b47cf85b6653e90ddde912a59b", "is_disabled": 0, "is_reserved": 0}, {"rental_uris": {"ios": "https://dc.lft.to/lastmile_qr_scan", "android": "https://dc.lft.to/lastmile_qr_scan"}, "lon": -76.98999916666666, "type": "electric_scooter", "fusion_lat": 0.0, "lat": 38.865053, "name": "152660f4212ab1ebbcfc36bf98e253b5", "fusion_lon": 0.0, "bike_id": "152660f4212ab1ebbcfc36bf98e253b5", "is_disabled": 0, "is_reserved": 0}, {"rental_uris": {"ios": "https://dc.lft.to/lastmile_qr_scan", "android": "https://dc.lft.to/lastmile_qr_scan"}, "lon": -77.032103, "type": "electric_scooter", "fusion_lat": 0.0, "lat": 38.9126405, "name": "a2bcba989f6d2a80f07ed0392fc17b39", "fusion_lon": 0.0, "bike_id": "a2bcba989f6d2a80f07ed0392fc17b39", "is_disabled": 0, "is_reserved": 0}, {"rental_uris": {"ios": "https://dc.lft.to/lastmile_qr_scan", "android": "https://dc.lft.to/lastmile_qr_scan"}, "lon": -77.03254083333333, "type": "electric_scooter", "fusion_lat": 0.0, "lat": 38.9374255, "name": "f01b13ad83ae2520d5f6e01b567e5a4f", "fusion_lon": 0.0, "bike_id": "f01b13ad83ae2520d5f6e01b567e5a4f", "is_disabled": 0, "is_reserved": 0}, {"rental_uris": {"ios": "https://dc.lft.to/lastmile_qr_scan", "android": "https://dc.lft.to/lastmile_qr_scan"}, "lon": -77.04035116666667, "type": "electric_scooter", "fusion_lat": 0.0, "lat": 38.92566683333333, "name": "7a47a8fdd8a58389f5f7642987fb6e5c", "fusion_lon": 0.0, "bike_id": "7a47a8fdd8a58389f5f7642987fb6e5c", "is_disabled": 0, "is_reserved": 0}, {"rental_uris": {"ios": "https://dc.lft.to/lastmile_qr_scan", "android": "https://dc.lft.to/lastmile_qr_scan"}, "lon": -77.02378616666667, "type": "electric_scooter", "fusion_lat": 0.0, "lat": 38.906718833333336, "name": "3e65fdb3c4ed1922ac7fe284e6bda2ec", "fusion_lon": 0.0, "bike_id": "3e65fdb3c4ed1922ac7fe284e6bda2ec", "is_disabled": 0, "is_reserved": 0}, {"rental_uris": {"ios": "https://dc.lft.to/lastmile_qr_scan", "android": "https://dc.lft.to/lastmile_qr_scan"}, "lon": -77.0491935, "type": "electric_scooter", "fusion_lat": 0.0, "lat": 38.8968565, "name": "3b91ba1c17cf537e99ca20a25c0be1e4", "fusion_lon": 0.0, "bike_id": "3b91ba1c17cf537e99ca20a25c0be1e4", "is_disabled": 0, "is_reserved": 0}, {"rental_uris": {"ios": "https://dc.lft.to/lastmile_qr_scan", "android": "https://dc.lft.to/lastmile_qr_scan"},