{"data": {"bikes": [{"type": "electric_scooter", "fusion_lon": 0.0, "bike_id": "e4b6e154aba3fb05b745ba63ff93d836", "is_disabled": 0, "lat": 38.87759666666667, "rental_uris": {"ios": "https://dc.lft.to/lastmile_qr_scan", "android": "https://dc.lft.to/lastmile_qr_scan"}, "is_reserved": 0, "lon": -77.0074165, "fusion_lat": 0.0, "name": "e4b6e154aba3fb05b745ba63ff93d836"}, {"type": "electric_scooter", "fusion_lon": 0.0, "bike_id": "71ae4e528a8977850fcec57637c3d30f", "is_disabled": 0, "lat": 38.91062616666667, "rental_uris": {"ios": "https://dc.lft.to/lastmile_qr_scan", "android": "https://dc.lft.to/lastmile_qr_scan"}, "is_reserved": 0, "lon": -77.02668016666667, "fusion_lat": 0.0, "name": "71ae4e528a8977850fcec57637c3d30f"}, {"type": "electric_scooter", "fusion_lon": 0.0, "bike_id": "3ad2ba14dcbd50cc2a96952e0a623bce", "is_disabled": 0, "lat": 38.85948966666667, "rental_uris": {"ios": "https://dc.lft.to/lastmile_qr_scan", "android": "https://dc.lft.to/lastmile_qr_scan"}, "is_reserved": 0, "lon": -76.9587845, "fusion_lat": 0.0, "name": "3ad2ba14dcbd50cc2a96952e0a623bce"}, {"type": "electric_scooter", "fusion_lon": 0.0, "bike_id": "0ccee3e87709ad888d2046517bab0a48", "is_disabled": 0, "lat": 38.92112083333333, "rental_uris": {"ios": "https://dc.lft.to/lastmile_qr_scan", "android": "https://dc.lft.to/lastmile_qr_scan"}, "is_reserved": 0, "lon": -77.04831216666666, "fusion_lat": 0.0, "name": "0ccee3e87709ad888d2046517bab0a48"}, {"type": "electric_scooter", "fusion_lon": 0.0, "bike_id": "ff3c4fabc9d355d9f172e632260501f1", "is_disabled": 0, "lat": 38.906584, "rental_uris": {"ios": "https://dc.lft.to/lastmile_qr_scan", "android": "https://dc.lft.to/lastmile_qr_scan"}, "is_reserved": 0, "lon": -77.011436, "fusion_lat": 0.0, "name": "ff3c4fabc9d355d9f172e632260501f1"}, {"type": "electric_scooter", "fusion_lon": 0.0, "bike_id": "5909b03048b5cc6d7c8b00dfe6680f46", "is_disabled": 0, "lat": 38.93223016666666, "rental_uris": {"ios": "https://dc.lft.to/lastmile_qr_scan", "android": "https://dc.lft.to/lastmile_qr_scan"}, "is_reserved": 0, "lon": -77.02388316666666, "fusion_lat": 0.0, "name": "5909b03048b5cc6d7c8b00dfe6680f46"}, {"type": "electric_scooter", "fusion_lon": 0.0, "bike_id": "2571b14885c9ed109c4b321ee5dc22d2", "is_disabled": 0, "lat": 38.92493833333333, "rental_uris": {"ios": "https://dc.lft.to/lastmile_qr_scan", "android": "https://dc.lft.to/lastmile_qr_scan"}, "is_reserved": 0, "lon": -77.02169283333333, "fusion_lat": 0.0, "name": "2571b14885c9ed109c4b321ee5dc22d2"}, {"type": "electric_scooter", "fusion_lon": 0.0, "bike_id": "b502fef2365e1485eda6eb5f027c2cb8", "is_disabled": 0, "lat": 38.94418266666667, "rental_uris": {"ios": "https://dc.lft.to/lastmile_qr_scan", "android": "https://dc.lft.to/lastmile_qr_scan"}, "is_reserved": 0, "lon": -77.00498033333334, "fusion_lat": 0.0, "name": "b502fef2365e1485eda6eb5f027c2cb8"}, {"type": "electric_bike", "fusion_lon": 0.0, "bike_id": "7d0f45457c7628421e3d4a989becb7de", "is_disabled": 0, "lat": 38.883023666666666, "rental_uris": {"ios": "https://dc.lft.to/lastmile_qr_scan", "android": "https://dc.lft.to/lastmile_qr_scan"}, "is_reserved": 0, "lon": -76.94975333333333, "fusion_lat": 0.0, "name": "7d0f45457c7628421e3d4a989becb7de"}, {"type": "electric_scooter", "fusion_lon": 0.0, "bike_id": "9dba0341b35b4436e25b5a90bb05ed56", "is_disabled": 0, "lat": 38.9366765, "rental_uris": {"ios": "https://dc.lft.to/lastmile_qr_scan", "android": "https://dc.lft.to/lastmile_qr_scan"}, "is_reserved": 0, "lon": -77.03392916666667, "fusion_lat": 0.0, "name": "9dba0341b35b4436e25b5a90bb05ed56"}, {"type": "electric_scooter", "fusion_lon": 0.0, "bike_id": "582100ce96d9ee752f230d362acd4021", "is_disabled": 0, "lat": 38.914758, "rental_uris": {"ios": "https://dc.lft.to/lastmile_qr_scan", "android": "https://dc.lft.to/lastmile_qr_scan"}, "is_reserved": 0, "lon": -77.014891, "fusion_lat": 0.0, "name": "582100ce96d9ee752f230d362acd4021"}, {"type": "electric_scooter", "fusion_lon": 0.0, "bike_id": "a5d3eea1e065f193ff0f807c0d81920d", "is_disabled": 0, "lat": 38.907157166666664, "rental_uris": {"ios": "https://dc.lft.to/lastmile_qr_scan", "android": "https://dc.lft.to/lastmile_qr_scan"}, "is_reserved": 0, "lon": -77.02422666666666, "fusion_lat": 0.0, "name": "a5d3eea1e065f193ff0f807c0d81920d"}, {"type": "electric_scooter", "fusion_lon": 0.0, "bike_id": "d96cfaed554c45c90bc42ece1e89e9b2", "is_disabled": 0, "lat": 38.881461333333334, "rental_uris": {"ios": "https://dc.lft.to/lastmile_qr_scan", "android": "https://dc.lft.to/lastmile_qr_scan"}, "is_reserved": 0, "lon": -77.01758416666667, "fusion_lat": 0.0, "name": "d96cfaed554c45c90bc42ece1e89e9b2"}, {"type": "electric_scooter", "fusion_lon": 0.0, "bike_id": "b8d1e31f6c39d0a3af8209b86cdd1096", "is_disabled": 0, "lat": 38.936054, "rental_uris": {"ios": "https://dc.lft.to/lastmile_qr_scan", "android": "https://dc.lft.to/lastmile_qr_scan"}, "is_reserved": 0, "lon": -77.057099, "fusion_lat": 0.0, "name": "b8d1e31f6c39d0a3af8209b86cdd1096"}, {"type": "electric_scooter", "fusion_lon": 0.0, "bike_id": "a0e83b7a0dffc14fd8b5d0e6a1c22269", "is_disabled": 0, "lat": 38.907394, "rental_uris": {"ios": "https://dc.lft.to/lastmile_qr_scan", "android": "https://dc.lft.to/lastmile_qr_scan"}, "is_reserved": 0, "lon": -77.04487766666666, "fusion_lat": 0.0, "name": "a0e83b7a0dffc14fd8b5d0e6a1c22269"}, {"type": "electric_scooter", "fusion_lon": 0.0, "bike_id": "a3dcddfc7aab57871b61c6677cdf057d", "is_disabled": 0, "lat": 38.919783333333335, "rental_uris": {"ios": "https://dc.lft.to/lastmile_qr_scan", "android": "https://dc.lft.to/lastmile_qr_scan"}, "is_reserved": 0, "lon": -77.02501733333334, "fusion_lat": 0.0, "name": "a3dcddfc7aab57871b61c6677cdf057d"}, {"type": "electric_scooter", "fusion_lon": 0.0, "bike_id": "22831128ff000d0a32942d9cb52b2b2c", "is_disabled": 0, "lat": 38.920585833333334, "rental_uris": {"ios": "https://dc.lft.to/lastmile_qr_scan", "android": "https://dc.lft.to/lastmile_qr_scan"}, "is_reserved": 0, "lon": -77.01694683333334, "fusion_lat": 0.0, "name": "22831128ff000d0a32942d9cb52b2b2c"}, {"type": "electric_scooter", "fusion_lon": 0.0, "bike_id": "40e1be683a13cd86539e8994925e14f5", "is_disabled": 0, "lat": 38.90731183333333, "rental_uris": {"ios": "https://dc.lft.to/lastmile_qr_scan", "android": "https://dc.lft.to/lastmile_qr_scan"}, "is_reserved": 0, "lon": -77.0476915, "fusion_lat": 0.0, "name": "40e1be683a13cd86539e8994925e14f5"}, {"type": "electric_scooter", "fusion_lon": 0.0, "bike_id": "3e9a21d541d87ce6b4cff133b18fc6dc", "is_disabled": 0, "lat": 38.917286833333335, "rental_uris": {"ios": "https://dc.lft.to/lastmile_qr_scan", "android": "https://dc.lft.to/lastmile_qr_scan"}, "is_reserved": 0, "lon": -77.0684375, "fusion_lat": 0.0, "name": "3e9a21d541d87ce6b4cff133b18fc6dc"}, {"type": "electric_scooter", "fusion_lon": 0.0, "bike_id": "7190e31daa330d70262066ad7d954404", "is_disabled": 0, "lat": 38.94196383333333, "rental_uris": {"ios": "https://dc.lft.to/lastmile_qr_scan", "android": "https://dc.lft.to/lastmile_qr_scan"}, "is_reserved": 0, "lon": -77.02481483333334, "fusion_lat": 0.0, "name": "7190e31daa330d70262066ad7d954404"}, {"type": "electric_scooter", "fusion_lon": 0.0, "bike_id": "6207c86020ff667c208874008022b323", "is_disabled": 0, "lat": 38.907397333333336, "rental_uris": {"ios": "https://dc.lft.to/lastmile_qr_scan", "android": "https://dc.lft.to/lastmile_qr_scan"}, "is_reserved": 0, "lon": -77.0015345, "fusion_lat": 0.0, "name": "6207c86020ff667c208874008022b323"}, {"type": "electric_scooter", "fusion_lon": 0.0, "bike_id": "dbccbb27749b10aae401ba3dc776dd25", "is_disabled": 0, "lat": 38.920817666666665, "rental_uris": {"ios": "https://dc.lft.to/lastmile_qr_scan", "android": "https://dc.lft.to/lastmile_qr_scan"}, "is_reserved": 0, "lon": -77.025159, "fusion_lat": 0.0, "name": "dbccbb27749b10aae401ba3dc776dd25"}, {"type": "electric_scooter", "fusion_lon": 0.0, "bike_id": "aeb4176642d9dc52e04a20411d9ab601", "is_disabled": 0, "lat": 38.90451183333333, "rental_uris": {"ios": "https://dc.lft.to/lastmile_qr_scan", "android": "https://dc.lft.to/lastmile_qr_scan"}, "is_reserved": 0, "lon": -77.04264766666667, "fusion_lat": 0.0, "name": "aeb4176642d9dc52e04a20411d9ab601"}, {"type": "electric_scooter", "fusion_lon": 0.0, "bike_id": "08cb395212015f439ec79fdefc7bc0c9", "is_disabled": 0, "lat": 38.9051005, "rental_uris": {"ios": "https://dc.lft.to/lastmile_qr_scan", "android": "https://dc.lft.to/lastmile_qr_scan"}, "is_reserved": 0, "lon": -76.95201916666667, "fusion_lat": 0.0, "name": "08cb395212015f439ec79fdefc7bc0c9"}, {"type": "electric_scooter", "fusion_lon": 0.0, "bike_id": "b73748f0b9bc5acc911ef016cae70910", "is_disabled": 0, "lat": 38.972151, "rental_uris": {"ios": "https://dc.lft.to/lastmile_qr_scan", "android": "https://dc.lft.to/lastmile_qr_scan"}, "is_reserved": 0, "lon": -77.03334266666667, "fusion_lat": 0.0, "name": "b73748f0b9bc5acc911ef016cae70910"}, {"type": "electric_scooter", "fusion_lon": 0.0, "bike_id": "93b37de70cf4e80f6a3e6ed2002801e3", "is_disabled": 0, "lat": 38.90010783333334, "rental_uris": {"ios": "https://dc.lft.to/lastmile_qr_scan", "android": "https://dc.lft.to/lastmile_qr_scan"}, "is_reserved": 0, "lon": -77.006737, "fusion_lat": 0.0, "name": "93b37de70cf4e80f6a3e6ed2002801e3"}, {"type": "electric_scooter", "fusion_lon": 0.0, "bike_id": "c2f9bdd9ff330c8f2d643d716ab01bc6", "is_disabled": 0, "lat": 38.9189435, "rental_uris": {"ios": "https://dc.lft.to/lastmile_qr_scan", "android": "https://dc.lft.to/lastmile_qr_scan"}, "is_reserved": 0, "lon": -77.0382855, "fusion_lat": 0.0, "name": "c2f9bdd9ff330c8f2d643d716ab01bc6"}, {"type": "electric_scooter", "fusion_lon": 0.0, "bike_id": "e13f9bfb097e5857d83fb363f074ac08", "is_disabled": 0, "lat": 38.90432233333333, "rental_uris": {"ios": "https://dc.lft.to/lastmile_qr_scan", "android": "https://dc.lft.to/lastmile_qr_scan"}, "is_reserved": 0, "lon": -77.03288766666667, "fusion_lat": 0.0, "name": "e13f9bfb097e5857d83fb363f074ac08"}, {"type": "electric_scooter", "fusion_lon": 0.0, "bike_id": "ccaafd14c3e16fd1c3fbbc7062aa6ca3", "is_disabled": 0, "lat": 38.891993166666666, "rental_uris": {"ios": "https://dc.lft.to/lastmile_qr_scan", "android": "https://dc.lft.to/lastmile_qr_scan"}, "is_reserved": 0, "lon": -77.0029305, "fusion_lat": 0.0, "name": "ccaafd14c3e16fd1c3fbbc7062aa6ca3"}, {"type": "electric_scooter", "fusion_lon": 0.0, "bike_id": "87c0e504558604441599c3bfdddc0e3f", "is_disabled": 0, "lat": 38.8922545, "rental_uris": {"ios": "https://dc.lft.to/lastmile_qr_scan", "android": "https://dc.lft.to/lastmile_qr_scan"}, "is_reserved": 0, "lon": -77.04333366666667, "fusion_lat": 0.0, "name": "87c0e504558604441599c3bfdddc0e3f"}, {"type": "electric_scooter", "fusion_lon": 0.0, "bike_id": "660dec74224ca38f1c80c89cb6ee606b", "is_disabled": 0, "lat": 38.9035035, "rental_uris": {"ios": "https://dc.lft.to/lastmile_qr_scan", "android": "https://dc.lft.to/lastmile_qr_scan"}, "is_reserved": 0, "lon": -77.02410166666667, "fusion_lat": 0.0, "name": "660dec74224ca38f1c80c89cb6ee606b"}, {"type": "electric_bike", "fusion_lon": 0.0, "bike_id": "318279c1dd99c8ef4d9288d3e0f226d3", "is_disabled": 0, "lat": 38.87134433333333, "rental_uris": {"ios": "https://dc.lft.to/lastmile_qr_scan", "android": "https://dc.lft.to/lastmile_qr_scan"}, "is_reserved": 0, "lon": -76.93732816666666, "fusion_lat": 0.0, "name": "318279c1dd99c8ef4d9288d3e0f226d3"}, {"type": "electric_scooter", "fusion_lon": 0.0, "bike_id": "0069a7d8631a4feb66911b1fe3a11b8f", "is_disabled": 0, "lat": 38.8696085, "rental_uris": {"ios": "https://dc.lft.to/lastmile_qr_scan", "android": "https://dc.lft.to/lastmile_qr_scan"}, "is_reserved": 0, "lon": -76.97862583333334, "fusion_lat": 0.0, "name": "0069a7d8631a4feb66911b1fe3a11b8f"}, {"type": "electric_scooter", "fusion_lon": 0.0, "bike_id": "113252f3acc1f5562c71dc92bc99cedc", "is_disabled": 0, "lat": 38.92648766666667, "rental_uris": {"ios": "https://dc.lft.to/lastmile_qr_scan", "android": "https://dc.lft.to/lastmile_qr_scan"}, "is_reserved": 0, "lon": -77.0330765, "fusion_lat": 0.0, "name": "113252f3acc1f5562c71dc92bc99cedc"}, {"type": "electric_scooter", "fusion_lon": 0.0, "bike_id": "9d5664f476e2222367aa679bf789949c", "is_disabled": 0, "lat": 38.919216166666665, "rental_uris": {"ios": "https://dc.lft.to/lastmile_qr_scan", "android": "https://dc.lft.to/lastmile_qr_scan"}, "is_reserved": 0, "lon": -77.03034583333333, "fusion_lat": 0.0, "name": "9d5664f476e2222367aa679bf789949c"}, {"type": "electric_scooter", "fusion_lon": 0.0, "bike_id": "b53167376905add02525b7eb00bda605", "is_disabled": 0, "lat": 38.920967, "rental_uris": {"ios": "https://dc.lft.to/lastmile_qr_scan", "android": "https://dc.lft.to/lastmile_qr_scan"}, "is_reserved": 0, "lon": -77.02591683333333, "fusion_lat": 0.0, "name": "b53167376905add02525b7eb00bda605"}, {"type": "electric_scooter", "fusion_lon": 0.0, "bike_id": "cb6105cfd80fa63ef9a66ff1cdbec443", "is_disabled": 0, "lat": 38.935378166666666, "rental_uris": {"ios": "https://dc.lft.to/lastmile_qr_scan", "android": "https://dc.lft.to/lastmile_qr_scan"}, "is_reserved": 0, "lon": -77.02347183333333, "fusion_lat": 0.0, "name": "cb6105cfd80fa63ef9a66ff1cdbec443"}, {"type": "electric_scooter", "fusion_lon": 0.0, "bike_id": "221689a4efd895009e3daec1b273d2fb", "is_disabled": 0, "lat": 38.9197175, "rental_uris": {"ios": "https://dc.lft.to/lastmile_qr_scan", "android": "https://dc.lft.to/lastmile_qr_scan"}, "is_reserved": 0, "lon": -77.03862133333334, "fusion_lat": 0.0, "name": "221689a4efd895009e3daec1b273d2fb"}, {"type": "electric_scooter", "fusion_lon": 0.0, "bike_id": "d46bcad4ef3132c4d27f2dced3cc3de1", "is_disabled": 0, "lat": 38.894079166666664, "rental_uris": {"ios": "https://dc.lft.to/lastmile_qr_scan", "android": "https://dc.lft.to/lastmile_qr_scan"}, "is_reserved": 0, "lon": -77.021504, "fusion_lat": 0.0, "name": "d46bcad4ef3132c4d27f2dced3cc3de1"}, {"type": "electric_scooter", "fusion_lon": 0.0, "bike_id": "ddfa930208eda903a2e24df321071efe", "is_disabled": 0, "lat": 38.9004175, "rental_uris": {"ios": "https://dc.lft.to/lastmile_qr_scan", "android": "https://dc.lft.to/lastmile_qr_scan"}, "is_reserved": 0, "lon": -77.04333433333333, "fusion_lat": 0.0, "name": "ddfa930208eda903a2e24df321071efe"}, {"type": "electric_scooter", "fusion_lon": 0.0, "bike_id": "dfcc3cce24778170761e231c59c613a6", "is_disabled": 0, "lat": 38.910145166666666, "rental_uris": {"ios": "https://dc.lft.to/lastmile_qr_scan", "android": "https://dc.lft.to/lastmile_qr_scan"}, "is_reserved": 0, "lon": -77.04006166666667, "fusion_lat": 0.0, "name": "dfcc3cce24778170761e231c59c613a6"}, {"type": "electric_scooter", "fusion_lon": 0.0, "bike_id": "9622c89bc5734cc1da146f3f2b9e869d", "is_disabled": 0, "lat": 38.90657233333334, "rental_uris": {"ios": "https://dc.lft.to/lastmile_qr_scan", "android": "https://dc.lft.to/lastmile_qr_scan"}, "is_reserved": 0, "lon": -77.02985766666667, "fusion_lat": 0.0, "name": "9622c89bc5734cc1da146f3f2b9e869d"}, {"type": "electric_scooter", "fusion_lon": 0.0, "bike_id": "eb6249448aa676fcafcbbeea7a3a4f06", "is_disabled": 0, "lat": 38.916878833333335, "rental_uris": {"ios": "https://dc.lft.to/lastmile_qr_scan", "android": "https://dc.lft.to/lastmile_qr_scan"}, "is_reserved": 0, "lon": -77.0252895, "fusion_lat": 0.0, "name": "eb6249448aa676fcafcbbeea7a3a4f06"}, {"type": "electric_scooter", "fusion_lon": 0.0, "bike_id": "dbcdbfa1fc9290ee2feb1d5e5aa61063", "is_disabled": 0, "lat": 38.894008166666666, "rental_uris": {"ios": "https://dc.lft.to/lastmile_qr_scan", "android": "https://dc.lft.to/lastmile_qr_scan"}, "is_reserved": 0, "lon": -77.02127933333334, "fusion_lat": 0.0, "name": "dbcdbfa1fc9290ee2feb1d5e5aa61063"}, {"type": "electric_scooter", "fusion_lon": 0.0, "bike_id": "bb11b1960aa88e60faa8fe7071aa3c40", "is_disabled": 0, "lat": 38.924823833333335, "rental_uris": {"ios": "https://dc.lft.to/lastmile_qr_scan", "android": "https://dc.lft.to/lastmile_qr_scan"}, "is_reserved": 0, "lon": -77.0255455, "fusion_lat": 0.0, "name": "bb11b1960aa88e60faa8fe7071aa3c40"}, {"type": "electric_bike", "fusion_lon": 0.0, "bike_id": "c56e136fb38afe5201df6b33166ea87c", "is_disabled": 0, "lat": 39.015685833333336, "rental_uris": {"ios": "https://dc.lft.to/lastmile_qr_scan", "android": "https://dc.lft.to/lastmile_qr_scan"}, "is_reserved": 0, "lon": -77.04422766666667, "fusion_lat": 0.0, "name": "c56e136fb38afe5201df6b33166ea87c"}, {"type": "electric_scooter", "fusion_lon": 0.0, "bike_id": "30df95390dd9928427447a7d8c19aef6", "is_disabled": 0, "lat": 38.88419416666667, "rental_uris": {"ios": "https://dc.lft.to/lastmile_qr_scan", "android": "https://dc.lft.to/lastmile_qr_scan"}, "is_reserved": 0, "lon": -77.02382433333334, "fusion_lat": 0.0, "name": "30df95390dd9928427447a7d8c19aef6"}, {"type": "electric_scooter", "fusion_lon": 0.0, "bike_id": "c143a80401f62d8f5cbe784e4447a50b", "is_disabled": 0, "lat": 38.89272316666667, "rental_uris": {"ios": "https://dc.lft.to/lastmile_qr_scan", "android": "https://dc.lft.to/lastmile_qr_scan"}, "is_reserved": 0, "lon": -77.04210133333333, "fusion_lat": 0.0, "name": "c143a80401f62d8f5cbe784e4447a50b"}, {"type": "electric_scooter", "fusion_lon": 0.0, "bike_id": "79a66d627eb3e85d7a7807d64cc9f64f", "is_disabled": 0, "lat": 38.913514166666666, "rental_uris": {"ios": "https://dc.lft.to/lastmile_qr_scan", "android": "https://dc.lft.to/lastmile_qr_scan"}, "is_reserved": 0, "lon": -77.03192983333334, "fusion_lat": 0.0, "name": "79a66d627eb3e85d7a7807d64cc9f64f"}, {"type": "electric_scooter", "fusion_lon": 0.0, "bike_id": "dd0fe08103263fbbc58a2016b526d4a2", "is_disabled": 0, "lat": 38.88331766666667, "rental_uris": {"ios": "https://dc.lft.to/lastmile_qr_scan", "android": "https://dc.lft.to/lastmile_qr_scan"}, "is_reserved": 0, "lon": -77.011421, "fusion_lat": 0.0, "name": "dd0fe08103263fbbc58a2016b526d4a2"}, {"type": "electric_scooter", "fusion_lon": 0.0, "bike_id": "a1a0de2ec996784810833777ebdbb13b", "is_disabled": 0, "lat": 38.92972683333333, "rental_uris": {"ios": "https://dc.lft.to/lastmile_qr_scan", "android": "https://dc.lft.to/lastmile_qr_scan"}, "is_reserved": 0, "lon": -77.02824283333334, "fusion_lat": 0.0, "name": "a1a0de2ec996784810833777ebdbb13b"}, {"type": "electric_scooter", "fusion_lon": 0.0, "bike_id": "52df8330d25acd5c2b61825dfc853fce", "is_disabled": 0, "lat": 38.896114833333336, "rental_uris": {"ios": "https://dc.lft.to/lastmile_qr_scan", "android": "https://dc.lft.to/lastmile_qr_scan"}, "is_reserved": 0, "lon": -76.98096416666667, "fusion_lat": 0.0, "name": "52df8330d25acd5c2b61825dfc853fce"}, {"type": "electric_scooter", "fusion_lon": 0.0, "bike_id": "36042149b294e8bf1ffe56ff50f3e1aa", "is_disabled": 0, "lat": 38.93463216666667, "rental_uris": {"ios": "https://dc.lft.to/lastmile_qr_scan", "android": "https://dc.lft.to/lastmile_qr_scan"}, "is_reserved": 0, "lon": -77.029197, "fusion_lat": 0.0, "name": "36042149b294e8bf1ffe56ff50f3e1aa"}, {"type": "electric_scooter", "fusion_lon": 0.0, "bike_id": "c38416181ddc0a5c582e0cfbaf8261f2", "is_disabled": 0, "lat": 38.9183445, "rental_uris": {"ios": "https://dc.lft.to/lastmile_qr_scan", "android": "https://dc.lft.to/lastmile_qr_scan"}, "is_reserved": 0, "lon": -77.0178415, "fusion_lat": 0.0, "name": "c38416181ddc0a5c582e0cfbaf8261f2"}, {"type": "electric_scooter", "fusion_lon": 0.0, "bike_id": "9d2946510331e076dc78c9bca21798e2", "is_disabled": 0, "lat": 38.905647, "rental_uris": {"ios": "https://dc.lft.to/lastmile_qr_scan", "android": "https://dc.lft.to/lastmile_qr_scan"}, "is_reserved": 0, "lon": -77.007015, "fusion_lat": 0.0, "name": "9d2946510331e076dc78c9bca21798e2"}, {"type": "electric_scooter", "fusion_lon": 0.0, "bike_id": "da744c0c287d4de07614be7fb3b65568", "is_disabled": 0, "lat": 38.92241333333333, "rental_uris": {"ios": "https://dc.lft.to/lastmile_qr_scan", "android": "https://dc.lft.to/lastmile_qr_scan"}, "is_reserved": 0, "lon": -77.0390405, "fusion_lat": 0.0, "name": "da744c0c287d4de07614be7fb3b65568"}, {"type": "electric_bike", "fusion_lon": 0.0, "bike_id": "ab8a65c653d3dbb88eed47c43fc80681", "is_disabled": 0, "lat": 38.9230775, "rental_uris": {"ios": "https://dc.lft.to/lastmile_qr_scan", "android": "https://dc.lft.to/lastmile_qr_scan"}, "is_reserved": 0, "lon": -76.99777766666666, "fusion_lat": 0.0, "name": "ab8a65c653d3dbb88eed47c43fc80681"}, {"type": "electric_scooter", "fusion_lon": 0.0, "bike_id": "1b16b99b4aa2ff29c7c44d597c1859a0", "is_disabled": 0, "lat": 38.91929366666667, "rental_uris": {"ios": "https://dc.lft.to/lastmile_qr_scan", "android": "https://dc.lft.to/lastmile_qr_scan"}, "is_reserved": 0, "lon": -77.03263566666666, "fusion_lat": 0.0, "name": "1b16b99b4aa2ff29c7c44d597c1859a0"}, {"type": "electric_scooter", "fusion_lon": 0.0, "bike_id": "812de34ab466b85cc75dfff27fcac50c", "is_disabled": 0, "lat": 38.901916166666666, "rental_uris": {"ios": "https://dc.lft.to/lastmile_qr_scan", "android": "https://dc.lft.to/lastmile_qr_scan"}, "is_reserved": 0, "lon": -76.92634516666666, "fusion_lat": 0.0, "name": "812de34ab466b85cc75dfff27fcac50c"}, {"type": "electric_scooter", "fusion_lon": 0.0, "bike_id": "6db56800d624f61e2b5134cd75f0c0e7", "is_disabled": 0, "lat": 38.91632416666667, "rental_uris": {"ios": "https://dc.lft.to/lastmile_qr_scan", "android": "https://dc.lft.to/lastmile_qr_scan"}, "is_reserved": 0, "lon": -77.04263766666666, "fusion_lat": 0.0, "name": "6db56800d624f61e2b5134cd75f0c0e7"}, {"type": "electric_scooter", "fusion_lon": 0.0, "bike_id": "61cc5afbc8061360eb3477774e56c623", "is_disabled": 0, "lat": 38.939867, "rental_uris": {"ios": "https://dc.lft.to/lastmile_qr_scan", "android": "https://dc.lft.to/lastmile_qr_scan"}, "is_reserved": 0, "lon": -77.02543, "fusion_lat": 0.0, "name": "61cc5afbc8061360eb3477774e56c623"}, {"type": "electric_scooter", "fusion_lon": 0.0, "bike_id": "aa847fa9fb23900a4596f50d4ed16f71", "is_disabled": 0, "lat": 38.89629333333333, "rental_uris": {"ios": "https://dc.lft.to/lastmile_qr_scan", "android": "https://dc.lft.to/lastmile_qr_scan"}, "is_reserved": 0, "lon": -77.01168366666667, "fusion_lat": 0.0, "name": "aa847fa9fb23900a4596f50d4ed16f71"}, {"type": "electric_scooter", "fusion_lon": 0.0, "bike_id": "39fb5ac2f6680c712462356be087d3fc", "is_disabled": 0, "lat": 38.9038945, "rental_uris": {"ios": "https://dc.lft.to/lastmile_qr_scan", "android": "https://dc.lft.to/lastmile_qr_scan"}, "is_reserved": 0, "lon": -76.9849485, "fusion_lat": 0.0, "name": "39fb5ac2f6680c712462356be087d3fc"}, {"type": "electric_scooter", "fusion_lon": 0.0, "bike_id": "804edeee78060e5af06946502794cc76", "is_disabled": 0, "lat": 38.924743166666666, "rental_uris": {"ios": "https://dc.lft.to/lastmile_qr_scan", "android": "https://dc.lft.to/lastmile_qr_scan"}, "is_reserved": 0, "lon": -77.022154, "fusion_lat": 0.0, "name": "804edeee78060e5af06946502794cc76"}, {"type": "electric_bike", "fusion_lon": 0.0, "bike_id": "c084eced3494b70dafd26c3bc6b43911", "is_disabled": 0, "lat": 38.957540333333334, "rental_uris": {"ios": "https://dc.lft.to/lastmile_qr_scan", "android": "https://dc.lft.to/lastmile_qr_scan"}, "is_reserved": 0, "lon": -76.98023366666666, "fusion_lat": 0.0, "name": "c084eced3494b70dafd26c3bc6b43911"}, {"type": "electric_scooter", "fusion_lon": 0.0, "bike_id": "3d2896cde946db95712a36e5918435f9", "is_disabled": 0, "lat": 38.9025485, "rental_uris": {"ios": "https://dc.lft.to/lastmile_qr_scan", "android": "https://dc.lft.to/lastmile_qr_scan"}, "is_reserved": 0, "lon": -77.06195333333334, "fusion_lat": 0.0, "name": "3d2896cde946db95712a36e5918435f9"}, {"type": "electric_scooter", "fusion_lon": 0.0, "bike_id": "c890efd82865cb1756af6d4a45c990b5", "is_disabled": 0, "lat": 38.91574633333333, "rental_uris": {"ios": "https://dc.lft.to/lastmile_qr_scan", "android": "https://dc.lft.to/lastmile_qr_scan"}, "is_reserved": 0, "lon": -77.03241083333333, "fusion_lat": 0.0, "name": "c890efd82865cb1756af6d4a45c990b5"}, {"type": "electric_scooter", "fusion_lon": 0.0, "bike_id": "313f154244543c1bdab2457386c95603", "is_disabled": 0, "lat": 38.8693695, "rental_uris": {"ios": "https://dc.lft.to/lastmile_qr_scan", "android": "https://dc.lft.to/lastmile_qr_scan"}, "is_reserved": 0, "lon": -77.01376966666666, "fusion_lat": 0.0, "name": "313f154244543c1bdab2457386c95603"}, {"type": "electric_scooter", "fusion_lon": 0.0, "bike_id": "34dabebd8c3b2a8119d3481af38745ad", "is_disabled": 0, "lat": 38.864716333333334, "rental_uris": {"ios": "https://dc.lft.to/lastmile_qr_scan", "android": "https://dc.lft.to/lastmile_qr_scan"}, "is_reserved": 0, "lon": -76.98232183333333, "fusion_lat": 0.0, "name": "34dabebd8c3b2a8119d3481af38745ad"}, {"type": "electric_bike", "fusion_lon": 0.0, "bike_id": "f1086c040733cec46c8880ed602636e8", "is_disabled": 0, "lat": 38.9415655, "rental_uris": {"ios": "https://dc.lft.to/lastmile_qr_scan", "android": "https://dc.lft.to/lastmile_qr_scan"}, "is_reserved": 0, "lon": -77.00201166666666, "fusion_lat": 0.0, "name": "f1086c040733cec46c8880ed602636e8"}, {"type": "electric_scooter", "fusion_lon": 0.0, "bike_id": "8a258d6f63172196a4711065ef3cdbb7", "is_disabled": 0, "lat": 38.92107, "rental_uris": {"ios": "https://dc.lft.to/lastmile_qr_scan", "android": "https://dc.lft.to/lastmile_qr_scan"}, "is_reserved": 0, "lon": -77.04677083333333, "fusion_lat": 0.0, "name": "8a258d6f63172196a4711065ef3cdbb7"}, {"type": "electric_scooter", "fusion_lon": 0.0, "bike_id": "7e34196ffb8a6a485909a5055a483c8f", "is_disabled": 0, "lat": 38.909172, "rental_uris": {"ios": "https://dc.lft.to/lastmile_qr_scan", "android": "https://dc.lft.to/lastmile_qr_scan"}, "is_reserved": 0, "lon": -76.99931533333333, "fusion_lat": 0.0, "name": "7e34196ffb8a6a485909a5055a483c8f"}, {"type": "electric_scooter", "fusion_lon": 0.0, "bike_id": "1efc12aea4083c048ff9eb9af8bbc7b0", "is_disabled": 0, "lat": 38.90014516666667, "rental_uris": {"ios": "https://dc.lft.to/lastmile_qr_scan", "android": "https://dc.lft.to/lastmile_qr_scan"}, "is_reserved": 0, "lon": -76.988944, "fusion_lat": 0.0, "name": "1efc12aea4083c048ff9eb9af8bbc7b0"}, {"type": "electric_scooter", "fusion_lon": 0.0, "bike_id": "e9b1abb683dffe9c67518122278a10f7", "is_disabled": 0, "lat": 38.92033933333333, "rental_uris": {"ios": "https://dc.lft.to/lastmile_qr_scan", "android": "https://dc.lft.to/lastmile_qr_scan"}, "is_reserved": 0, "lon": -77.0103375, "fusion_lat": 0.0, "name": "e9b1abb683dffe9c67518122278a10f7"}, {"type": "electric_scooter", "fusion_lon": 0.0, "bike_id": "7eca1369ceb150493275f2976f2966b4", "is_disabled": 0, "lat": 38.9371995, "rental_uris": {"ios": "https://dc.lft.to/lastmile_qr_scan", "android": "https://dc.lft.to/lastmile_qr_scan"}, "is_reserved": 0, "lon": -77.01906066666666, "fusion_lat": 0.0, "name": "7eca1369ceb150493275f2976f2966b4"}, {"type": "electric_scooter", "fusion_lon": 0.0, "bike_id": "b2bb81fea450f18f9605530b5b86047f", "is_disabled": 0, "lat": 38.920862666666665, "rental_uris": {"ios": "https://dc.lft.to/lastmile_qr_scan", "android": "https://dc.lft.to/lastmile_qr_scan"}, "is_reserved": 0, "lon": -77.04217366666667, "fusion_lat": 0.0, "name": "b2bb81fea450f18f9605530b5b86047f"}, {"type": "electric_scooter", "fusion_lon": 0.0, "bike_id": "463488da06928f8442cf7cb586191bd7", "is_disabled": 0, "lat": 38.897479833333335, "rental_uris": {"ios": "https://dc.lft.to/lastmile_qr_scan", "android": "https://dc.lft.to/lastmile_qr_scan"}, "is_reserved": 0, "lon": -77.044867, "fusion_lat": 0.0, "name": "463488da06928f8442cf7cb586191bd7"}, {"type": "electric_scooter", "fusion_lon": 0.0, "bike_id": "bcf2b99f55e9df0af73462158ccaf614", "is_disabled": 0, "lat": 38.940956666666665, "rental_uris": {"ios": "https://dc.lft.to/lastmile_qr_scan", "android": "https://dc.lft.to/lastmile_qr_scan"}, "is_reserved": 0, "lon": -77.026457, "fusion_lat": 0.0, "name": "bcf2b99f55e9df0af73462158ccaf614"}, {"type": "electric_scooter", "fusion_lon": 0.0, "bike_id": "6d381f23523dea5785285cab6af119ce", "is_disabled": 0, "lat": 38.90008233333333, "rental_uris": {"ios": "https://dc.lft.to/lastmile_qr_scan", "android": "https://dc.lft.to/lastmile_qr_scan"}, "is_reserved": 0, "lon": -77.00577633333333, "fusion_lat": 0.0, "name": "6d381f23523dea5785285cab6af119ce"}, {"type": "electric_scooter", "fusion_lon": 0.0, "bike_id": "929167bf4139178ecd14ab9b47140ffc", "is_disabled": 0, "lat": 38.91550983333333, "rental_uris": {"ios": "https://dc.lft.to/lastmile_qr_scan", "android": "https://dc.lft.to/lastmile_qr_scan"}, "is_reserved": 0, "lon": -77.038545, "fusion_lat": 0.0, "name": "929167bf4139178ecd14ab9b47140ffc"}, {"type": "electric_scooter", "fusion_lon": 0.0, "bike_id": "445c47355916fd270a2bd1db45a861c5", "is_disabled": 0, "lat": 38.89221766666667, "rental_uris": {"ios": "https://dc.lft.to/lastmile_qr_scan", "android": "https://dc.lft.to/lastmile_qr_scan"}, "is_reserved": 0, "lon": -77.02369983333334, "fusion_lat": 0.0, "name": "445c47355916fd270a2bd1db45a861c5"}, {"type": "electric_scooter", "fusion_lon": 0.0, "bike_id": "31a0a638d2b6a540a2c2b79790bf9273", "is_disabled": 0, "lat": 38.90393683333333, "rental_uris": {"ios": "https://dc.lft.to/lastmile_qr_scan", "android": "https://dc.lft.to/lastmile_qr_scan"}, "is_reserved": 0, "lon": -77.068082, "fusion_lat": 0.0, "name": "31a0a638d2b6a540a2c2b79790bf9273"}, {"type": "electric_scooter", "fusion_lon": 0.0, "bike_id": "447d2d751ba2c36f98e3c6610abbc446", "is_disabled": 0, "lat": 38.935355, "rental_uris": {"ios": "https://dc.lft.to/lastmile_qr_scan", "android": "https://dc.lft.to/lastmile_qr_scan"}, "is_reserved": 0, "lon": -77.02352616666667, "fusion_lat": 0.0, "name": "447d2d751ba2c36f98e3c6610abbc446"}, {"type": "electric_scooter", "fusion_lon": 0.0, "bike_id": "8d1249603a3516bf608924609cf069e8", "is_disabled": 0, "lat": 38.935314, "rental_uris": {"ios": "https://dc.lft.to/lastmile_qr_scan", "android": "https://dc.lft.to/lastmile_qr_scan"}, "is_reserved": 0, "lon": -77.03487716666666, "fusion_lat": 0.0, "name": "8d1249603a3516bf608924609cf069e8"}, {"type": "electric_bike", "fusion_lon": 0.0, "bike_id": "86aabb752932db5fb60f0366758a98ba", "is_disabled": 0, "lat": 38.96467283333333, "rental_uris": {"ios": "https://dc.lft.to/lastmile_qr_scan", "android": "https://dc.lft.to/lastmile_qr_scan"}, "is_reserved": 0, "lon": -77.03564416666667, "fusion_lat": 0.0, "name": "86aabb752932db5fb60f0366758a98ba"}, {"type": "electric_scooter", "fusion_lon": 0.0, "bike_id": "7f38963ef6286916978704015bd1afa1", "is_disabled": 0, "lat": 38.90273166666667, "rental_uris": {"ios": "https://dc.lft.to/lastmile_qr_scan", "android": "https://dc.lft.to/lastmile_qr_scan"}, "is_reserved": 0, "lon": -77.00321983333333, "fusion_lat": 0.0, "name": "7f38963ef6286916978704015bd1afa1"}, {"type": "electric_bike", "fusion_lon": 0.0, "bike_id": "e01b18dc92336d5714f3f78fe9a07288", "is_disabled": 0, "lat": 38.892052666666665, "rental_uris": {"ios": "https://dc.lft.to/lastmile_qr_scan", "android": "https://dc.lft.to/lastmile_qr_scan"}, "is_reserved": 0, "lon": -76.9939265, "fusion_lat": 0.0, "name": "e01b18dc92336d5714f3f78fe9a07288"}, {"type": "electric_scooter", "fusion_lon": 0.0, "bike_id": "e6f165b086aee2b44efa836a9aea5734", "is_disabled": 0, "lat": 38.8922825, "rental_uris": {"ios": "https://dc.lft.to/lastmile_qr_scan", "android": "https://dc.lft.to/lastmile_qr_scan"}, "is_reserved": 0, "lon": -77.04660583333333, "fusion_lat": 0.0, "name": "e6f165b086aee2b44efa836a9aea5734"}, {"type": "electric_scooter", "fusion_lon": 0.0, "bike_id": "3b5a3ec0f7268cbc88df58cc5579e70e", "is_disabled": 0, "lat": 38.93334016666667, "rental_uris": {"ios": "https://dc.lft.to/lastmile_qr_scan", "android": "https://dc.lft.to/lastmile_qr_scan"}, "is_reserved": 0, "lon": -77.0380745, "fusion_lat": 0.0, "name": "3b5a3ec0f7268cbc88df58cc5579e70e"}, {"type": "electric_scooter", "fusion_lon": 0.0, "bike_id": "d2beb3f59e61362c182d99362714a521", "is_disabled": 0, "lat": 38.8924055, "rental_uris": {"ios": "https://dc.lft.to/lastmile_qr_scan", "android": "https://dc.lft.to/lastmile_qr_scan"}, "is_reserved": 0, "lon": -77.03212566666667, "fusion_lat": 0.0, "name": "d2beb3f59e61362c182d99362714a521"}, {"type": "electric_scooter", "fusion_lon": 0.0, "bike_id": "7bb4541c0f0a7eb90ad1f7366017f011", "is_disabled": 0, "lat": 38.9056975, "rental_uris": {"ios": "https://dc.lft.to/lastmile_qr_scan", "android": "https://dc.lft.to/lastmile_qr_scan"}, "is_reserved": 0, "lon": -77.03448166666666, "fusion_lat": 0.0, "name": "7bb4541c0f0a7eb90ad1f7366017f011"}, {"type": "electric_scooter", "fusion_lon": 0.0, "bike_id": "75c87eb1c087236404c47f39666154c8", "is_disabled": 0, "lat": 38.92060466666667, "rental_uris": {"ios": "https://dc.lft.to/lastmile_qr_scan", "android": "https://dc.lft.to/lastmile_qr_scan"}, "is_reserved": 0, "lon": -77.034327, "fusion_lat": 0.0, "name": "75c87eb1c087236404c47f39666154c8"}, {"type": "electric_bike", "fusion_lon": 0.0, "bike_id": "e81e99c25e97643cde15e7ca463d9411", "is_disabled": 0, "lat": 38.89813916666667, "rental_uris": {"ios": "https://dc.lft.to/lastmile_qr_scan", "android": "https://dc.lft.to/lastmile_qr_scan"}, "is_reserved": 0, "lon": -76.99069866666666, "fusion_lat": 0.0, "name": "e81e99c25e97643cde15e7ca463d9411"}, {"type": "electric_scooter", "fusion_lon": 0.0, "bike_id": "083b9795130803e74b1a492ed325788c", "is_disabled": 0, "lat": 38.923481333333335, "rental_uris": {"ios": "https://dc.lft.to/lastmile_qr_scan", "android": "https://dc.lft.to/lastmile_qr_scan"}, "is_reserved": 0, "lon": -77.03641733333333, "fusion_lat": 0.0, "name": "083b9795130803e74b1a492ed325788c"}, {"type": "electric_scooter", "fusion_lon": 0.0, "bike_id": "a01edfadd30d942463a46e5328a978b1", "is_disabled": 0, "lat": 38.9490715, "rental_uris": {"ios": "https://dc.lft.to/lastmile_qr_scan", "android": "https://dc.lft.to/lastmile_qr_scan"}, "is_reserved": 0, "lon": -77.02387766666666, "fusion_lat": 0.0, "name": "a01edfadd30d942463a46e5328a978b1"}, {"type": "electric_scooter", "fusion_lon": 0.0, "bike_id": "dfbf671869ed8841bbf901476c6fd3ef", "is_disabled": 0, "lat": 38.90489766666666, "rental_uris": {"ios": "https://dc.lft.to/lastmile_qr_scan", "android": "https://dc.lft.to/lastmile_qr_scan"}, "is_reserved": 0, "lon": -77.02611766666666, "fusion_lat": 0.0, "name": "dfbf671869ed8841bbf901476c6fd3ef"}, {"type": "electric_scooter", "fusion_lon": 0.0, "bike_id": "096eb0769c3aee325abbb355c155cacb", "is_disabled": 0, "lat": 38.927977, "rental_uris": {"ios": "https://dc.lft.to/lastmile_qr_scan", "android": "https://dc.lft.to/lastmile_qr_scan"}, "is_reserved": 0, "lon": -77.05415183333334, "fusion_lat": 0.0, "name": "096eb0769c3aee325abbb355c155cacb"}, {"type": "electric_scooter", "fusion_lon": 0.0, "bike_id": "8dc6dc0e8201ea914a3f8aeed2dcb0d7", "is_disabled": 0, "lat": 38.92338266666667, "rental_uris": {"ios": "https://dc.lft.to/lastmile_qr_scan", "android": "https://dc.lft.to/lastmile_qr_scan"}, "is_reserved": 0, "lon": -77.03618583333333, "fusion_lat": 0.0, "name": "8dc6dc0e8201ea914a3f8aeed2dcb0d7"}, {"type": "electric_scooter", "fusion_lon": 0.0, "bike_id": "0df653353a1d558dd53e7b0b42837cb7", "is_disabled": 0, "lat": 38.91696116666667, "rental_uris": {"ios": "https://dc.lft.to/lastmile_qr_scan", "android": "https://dc.lft.to/lastmile_qr_scan"}, "is_reserved": 0, "lon": -77.02597266666666, "fusion_lat": 0.0, "name": "0df653353a1d558dd53e7b0b42837cb7"}, {"type": "electric_scooter", "fusion_lon": 0.0, "bike_id": "0298ce2c2fc8a06ef68c03844e3a44d3", "is_disabled": 0, "lat": 38.92632166666667, "rental_uris": {"ios": "https://dc.lft.to/lastmile_qr_scan", "android": "https://dc.lft.to/lastmile_qr_scan"}, "is_reserved": 0, "lon": -77.02270716666666, "fusion_lat": 0.0, "name": "0298ce2c2fc8a06ef68c03844e3a44d3"}, {"type": "electric_scooter", "fusion_lon": 0.0, "bike_id": "bf02334f7fc8992f3c5774165e52bf03", "is_disabled": 0, "lat": 38.924630666666665, "rental_uris": {"ios": "https://dc.lft.to/lastmile_qr_scan", "android": "https://dc.lft.to/lastmile_qr_scan"}, "is_reserved": 0, "lon": -77.04024633333333, "fusion_lat": 0.0, "name": "bf02334f7fc8992f3c5774165e52bf03"}, {"type": "electric_scooter", "fusion_lon": 0.0, "bike_id": "e69409fcc7fb6f21dd1ab984a23e42d9", "is_disabled": 0, "lat": 38.92474333333333, "rental_uris": {"ios": "https://dc.lft.to/lastmile_qr_scan", "android": "https://dc.lft.to/lastmile_qr_scan"}, "is_reserved": 0, "lon": -77.02551583333333, "fusion_lat": 0.0, "name": "e69409fcc7fb6f21dd1ab984a23e42d9"}, {"type": "electric_scooter", "fusion_lon": 0.0, "bike_id": "9259267c16c25af6893d01093e7072c4", "is_disabled": 0, "lat": 38.92320016666667, "rental_uris": {"ios": "https://dc.lft.to/lastmile_qr_scan", "android": "https://dc.lft.to/lastmile_qr_scan"}, "is_reserved": 0, "lon": -77.0304965, "fusion_lat": 0.0, "name": "9259267c16c25af6893d01093e7072c4"}, {"type": "electric_scooter", "fusion_lon": 0.0, "bike_id": "e7233d35c5411525f3977c1c32fd3e38", "is_disabled": 0, "lat": 38.93716233333333, "rental_uris": {"ios": "https://dc.lft.to/lastmile_qr_scan", "android": "https://dc.lft.to/lastmile_qr_scan"}, "is_reserved": 0, "lon": -77.02464616666667, "fusion_lat": 0.0, "name": "e7233d35c5411525f3977c1c32fd3e38"}, {"type": "electric_scooter", "fusion_lon": 0.0, "bike_id": "f58919e6cf38d34acc96f68e6079c824", "is_disabled": 0, "lat": 38.89207733333333, "rental_uris": {"ios": "https://dc.lft.to/lastmile_qr_scan", "android": "https://dc.lft.to/lastmile_qr_scan"}, "is_reserved": 0, "lon": -76.95700066666667, "fusion_lat": 0.0, "name": "f58919e6cf38d34acc96f68e6079c824"}, {"type": "electric_scooter", "fusion_lon": 0.0, "bike_id": "551da512210fec41a35c7d0593e0ce51", "is_disabled": 0, "lat": 38.91362733333333, "rental_uris": {"ios": "https://dc.lft.to/lastmile_qr_scan", "android": "https://dc.lft.to/lastmile_qr_scan"}, "is_reserved": 0, "lon": -77.020473, "fusion_lat": 0.0, "name": "551da512210fec41a35c7d0593e0ce51"}, {"type": "electric_scooter", "fusion_lon": 0.0, "bike_id": "970111a21be02e025a56f928607c851a", "is_disabled": 0, "lat": 38.900414166666664, "rental_uris": {"ios": "https://dc.lft.to/lastmile_qr_scan", "android": "https://dc.lft.to/lastmile_qr_scan"}, "is_reserved": 0, "lon": -76.9974955, "fusion_lat": 0.0, "name": "970111a21be02e025a56f928607c851a"}, {"type": "electric_scooter", "fusion_lon": 0.0, "bike_id": "0280240f18e72a2a4c34f5cf0453916e", "is_disabled": 0, "lat": 38.8953525, "rental_uris": {"ios": "https://dc.lft.to/lastmile_qr_scan", "android": "https://dc.lft.to/lastmile_qr_scan"}, "is_reserved": 0, "lon": -77.01606766666667, "fusion_lat": 0.0, "name": "0280240f18e72a2a4c34f5cf0453916e"}, {"type": "electric_scooter", "fusion_lon": 0.0, "bike_id": "18ce17097140d67f34eef58c14331bc7", "is_disabled": 0, "lat": 38.926506, "rental_uris": {"ios": "https://dc.lft.to/lastmile_qr_scan", "android": "https://dc.lft.to/lastmile_qr_scan"}, "is_reserved": 0, "lon": -77.033126, "fusion_lat": 0.0, "name": "18ce17097140d67f34eef58c14331bc7"}, {"type": "electric_scooter", "fusion_lon": 0.0, "bike_id": "908140228c3150cf0cd0be41bf98e8b5", "is_disabled": 0, "lat": 38.916587666666665, "rental_uris": {"ios": "https://dc.lft.to/lastmile_qr_scan", "android": "https://dc.lft.to/lastmile_qr_scan"}, "is_reserved": 0, "lon": -77.0367655, "fusion_lat": 0.0, "name": "908140228c3150cf0cd0be41bf98e8b5"}, {"type": "electric_scooter", "fusion_lon": 0.0, "bike_id": "7cd5ca1c9c79bfe392ed5c706ca49cea", "is_disabled": 0, "lat": 38.892292833333336, "rental_uris": {"ios": "https://dc.lft.to/lastmile_qr_scan", "android": "https://dc.lft.to/lastmile_qr_scan"}, "is_reserved": 0, "lon": -77.02419733333333, "fusion_lat": 0.0, "name": "7cd5ca1c9c79bfe392ed5c706ca49cea"}, {"type": "electric_scooter", "fusion_lon": 0.0, "bike_id": "6523a901bc4456257cb95ca24c5819d6", "is_disabled": 0, "lat": 38.8748065, "rental_uris": {"ios": "https://dc.lft.to/lastmile_qr_scan", "android": "https://dc.lft.to/lastmile_qr_scan"}, "is_reserved": 0, "lon": -77.00418233333333, "fusion_lat": 0.0, "name": "6523a901bc4456257cb95ca24c5819d6"}, {"type": "electric_scooter", "fusion_lon": 0.0, "bike_id": "ca15461270f36dc7f90f7717e7b04c48", "is_disabled": 0, "lat": 38.91990916666666, "rental_uris": {"ios": "https://dc.lft.to/lastmile_qr_scan", "android": "https://dc.lft.to/lastmile_qr_scan"}, "is_reserved": 0, "lon": -77.02396916666666, "fusion_lat": 0.0, "name": "ca15461270f36dc7f90f7717e7b04c48"}, {"type": "electric_scooter", "fusion_lon": 0.0, "bike_id": "b52314b61b431d67c07e210d195a7377", "is_disabled": 0, "lat": 38.916853833333334, "rental_uris": {"ios": "https://dc.lft.to/lastmile_qr_scan", "android": "https://dc.lft.to/lastmile_qr_scan"}, "is_reserved": 0, "lon": -77.03207533333334, "fusion_lat": 0.0, "name": "b52314b61b431d67c07e210d195a7377"}, {"type": "electric_scooter", "fusion_lon": 0.0, "bike_id": "b69bec68b49386ee0a4ee0007439aee3", "is_disabled": 0, "lat": 38.94756233333333, "rental_uris": {"ios": "https://dc.lft.to/lastmile_qr_scan", "android": "https://dc.lft.to/lastmile_qr_scan"}, "is_reserved": 0, "lon": -77.07974033333333, "fusion_lat": 0.0, "name": "b69bec68b49386ee0a4ee0007439aee3"}, {"type": "electric_scooter", "fusion_lon": 0.0, "bike_id": "45dd67a4e189fcf8bf9d473f9b5908c2", "is_disabled": 0, "lat": 38.85458966666667, "rental_uris": {"ios": "https://dc.lft.to/lastmile_qr_scan", "android": "https://dc.lft.to/lastmile_qr_scan"}, "is_reserved": 0, "lon": -76.97228733333333, "fusion_lat": 0.0, "name": "45dd67a4e189fcf8bf9d473f9b5908c2"}, {"type": "electric_bike", "fusion_lon": 0.0, "bike_id": "e58ab8a29bcbae4e052182f45a6e1773", "is_disabled": 0, "lat": 38.8565045, "rental_uris": {"ios": "https://dc.lft.to/lastmile_qr_scan", "android": "https://dc.lft.to/lastmile_qr_scan"}, "is_reserved": 0, "lon": -77.08529266666666, "fusion_lat": 0.0, "name": "e58ab8a29bcbae4e052182f45a6e1773"}, {"type": "electric_scooter", "fusion_lon": 0.0, "bike_id": "d805ddfdc2f6e612192ccd4e431106e0", "is_disabled": 0, "lat": 38.9279555, "rental_uris": {"ios": "https://dc.lft.to/lastmile_qr_scan", "android": "https://dc.lft.to/lastmile_qr_scan"}, "is_reserved": 0, "lon": -77.03153883333333, "fusion_lat": 0.0, "name": "d805ddfdc2f6e612192ccd4e431106e0"}, {"type": "electric_scooter", "fusion_lon": 0.0, "bike_id": "27b931f474cdeea032325c22f424d80a", "is_disabled": 0, "lat": 38.936913, "rental_uris": {"ios": "https://dc.lft.to/lastmile_qr_scan", "android": "https://dc.lft.to/lastmile_qr_scan"}, "is_reserved": 0, "lon": -77.06002766666667, "fusion_lat": 0.0, "name": "27b931f474cdeea032325c22f424d80a"}, {"type": "electric_scooter", "fusion_lon": 0.0, "bike_id": "72ab219133c8f0abe35de63b43fd062e", "is_disabled": 0, "lat": 38.8995885, "rental_uris": {"ios": "https://dc.lft.to/lastmile_qr_scan", "android": "https://dc.lft.to/lastmile_qr_scan"}, "is_reserved": 0, "lon": -77.0161335, "fusion_lat": 0.0, "name": "72ab219133c8f0abe35de63b43fd062e"}, {"type": "electric_scooter", "fusion_lon": 0.0, "bike_id": "4bb13d32e363fa6178dbadca063fa1bb", "is_disabled": 0, "lat": 38.91820633333333, "rental_uris": {"ios": "https://dc.lft.to/lastmile_qr_scan", "android": "https://dc.lft.to/lastmile_qr_scan"}, "is_reserved": 0, "lon": -77.02584516666667, "fusion_lat": 0.0, "name": "4bb13d32e363fa6178dbadca063fa1bb"}, {"type": "electric_scooter", "fusion_lon": 0.0, "bike_id": "fa1ad4a833f48a8e4f74410e9a12f8e7", "is_disabled": 0, "lat": 38.884131333333336, "rental_uris": {"ios": "https://dc.lft.to/lastmile_qr_scan", "android": "https://dc.lft.to/lastmile_qr_scan"}, "is_reserved": 0, "lon": -77.00449583333334, "fusion_lat": 0.0, "name": "fa1ad4a833f48a8e4f74410e9a12f8e7"}, {"type": "electric_scooter", "fusion_lon": 0.0, "bike_id": "d6a5c79d0dc393affc0f142c2e857152", "is_disabled": 0, "lat": 38.9175745, "rental_uris": {"ios": "https://dc.lft.to/lastmile_qr_scan", "android": "https://dc.lft.to/lastmile_qr_scan"}, "is_reserved": 0, "lon": -77.04056283333334, "fusion_lat": 0.0, "name": "d6a5c79d0dc393affc0f142c2e857152"}, {"type": "electric_scooter", "fusion_lon": 0.0, "bike_id": "5c1a74e5786514076a6873e407f0243c", "is_disabled": 0, "lat": 38.91489133333333, "rental_uris": {"ios": "https://dc.lft.to/lastmile_qr_scan", "android": "https://dc.lft.to/lastmile_qr_scan"}, "is_reserved": 0, "lon": -77.02174083333334, "fusion_lat": 0.0, "name": "5c1a74e5786514076a6873e407f0243c"}, {"type": "electric_scooter", "fusion_lon": 0.0, "bike_id": "81fdfa9f8fb0062d36c6aba5b5a72dcb", "is_disabled": 0, "lat": 38.904120166666665, "rental_uris": {"ios": "https://dc.lft.to/lastmile_qr_scan", "android": "https://dc.lft.to/lastmile_qr_scan"}, "is_reserved": 0, "lon": -76.973272, "fusion_lat": 0.0, "name": "81fdfa9f8fb0062d36c6aba5b5a72dcb"}, {"type": "electric_scooter", "fusion_lon": 0.0, "bike_id": "7e0407406f22f7a526f35695f91ea5a3", "is_disabled": 0, "lat": 38.905628, "rental_uris": {"ios": "https://dc.lft.to/lastmile_qr_scan", "android": "https://dc.lft.to/lastmile_qr_scan"}, "is_reserved": 0, "lon": -77.02212283333333, "fusion_lat": 0.0, "name": "7e0407406f22f7a526f35695f91ea5a3"}, {"type": "electric_scooter", "fusion_lon": 0.0, "bike_id": "1f30126337d615c212ef358ebae8de18", "is_disabled": 0, "lat": 38.917809, "rental_uris": {"ios": "https://dc.lft.to/lastmile_qr_scan", "android": "https://dc.lft.to/lastmile_qr_scan"}, "is_reserved": 0, "lon": -77.04097933333334, "fusion_lat": 0.0, "name": "1f30126337d615c212ef358ebae8de18"}, {"type": "electric_scooter", "fusion_lon": 0.0, "bike_id": "9e5a818b75b958ecdafd51bd946741b1", "is_disabled": 0, "lat": 38.8834675, "rental_uris": {"ios": "https://dc.lft.to/lastmile_qr_scan", "android": "https://dc.lft.to/lastmile_qr_scan"}, "is_reserved": 0, "lon": -76.9350545, "fusion_lat": 0.0, "name": "9e5a818b75b958ecdafd51bd946741b1"}, {"type": "electric_scooter", "fusion_lon": 0.0, "bike_id": "95ec3e5435e33d822a81f89ad327309b", "is_disabled": 0, "lat": 38.91902133333333, "rental_uris": {"ios": "https://dc.lft.to/lastmile_qr_scan", "android": "https://dc.lft.to/lastmile_qr_scan"}, "is_reserved": 0, "lon": -77.0382805, "fusion_lat": 0.0, "name": "95ec3e5435e33d822a81f89ad327309b"}, {"type": "electric_scooter", "fusion_lon": 0.0, "bike_id": "4733363d61d85a617e814702b05e98f5", "is_disabled": 0, "lat": 38.9012795, "rental_uris": {"ios": "https://dc.lft.to/lastmile_qr_scan", "android": "https://dc.lft.to/lastmile_qr_scan"}, "is_reserved": 0, "lon": -77.0441695, "fusion_lat": 0.0, "name": "4733363d61d85a617e814702b05e98f5"}, {"type": "electric_scooter", "fusion_lon": 0.0, "bike_id": "a811d48f5623c9e406462b66f229ebe2", "is_disabled": 0, "lat": 38.920883333333336, "rental_uris": {"ios": "https://dc.lft.to/lastmile_qr_scan", "android": "https://dc.lft.to/lastmile_qr_scan"}, "is_reserved": 0, "lon": -77.02506833333334, "fusion_lat": 0.0, "name": "a811d48f5623c9e406462b66f229ebe2"}, {"type": "electric_scooter", "fusion_lon": 0.0, "bike_id": "1d74ba248550babb3a46a71fe49bde57", "is_disabled": 0, "lat": 38.92285966666667, "rental_uris": {"ios": "https://dc.lft.to/lastmile_qr_scan", "android": "https://dc.lft.to/lastmile_qr_scan"}, "is_reserved": 0, "lon": -77.03661983333333, "fusion_lat": 0.0, "name": "1d74ba248550babb3a46a71fe49bde57"}, {"type": "electric_scooter", "fusion_lon": 0.0, "bike_id": "dc8c866be2ea0dd0a000130f4d704568", "is_disabled": 0, "lat": 38.89236283333334, "rental_uris": {"ios": "https://dc.lft.to/lastmile_qr_scan", "android": "https://dc.lft.to/lastmile_qr_scan"}, "is_reserved": 0, "lon": -77.050001, "fusion_lat": 0.0, "name": "dc8c866be2ea0dd0a000130f4d704568"}, {"type": "electric_scooter", "fusion_lon": 0.0, "bike_id": "cd5573dc01761ea68c9ef2d544789ab0", "is_disabled": 0, "lat": 38.929177333333335, "rental_uris": {"ios": "https://dc.lft.to/lastmile_qr_scan", "android": "https://dc.lft.to/lastmile_qr_scan"}, "is_reserved": 0, "lon": -77.02158233333333, "fusion_lat": 0.0, "name": "cd5573dc01761ea68c9ef2d544789ab0"}, {"type": "electric_bike", "fusion_lon": 0.0, "bike_id": "e5abba03d58f4365e9f1d124f5780205", "is_disabled": 0, "lat": 38.841123, "rental_uris": {"ios": "https://dc.lft.to/lastmile_qr_scan", "android": "https://dc.lft.to/lastmile_qr_scan"}, "is_reserved": 0, "lon": -77.07017583333334, "fusion_lat": 0.0, "name": "e5abba03d58f4365e9f1d124f5780205"}, {"type": "electric_scooter", "fusion_lon": 0.0, "bike_id": "da5f189a53fb74e5e3c91234fafababd", "is_disabled": 0, "lat": 38.898911166666664, "rental_uris": {"ios": "https://dc.lft.to/lastmile_qr_scan", "android": "https://dc.lft.to/lastmile_qr_scan"}, "is_reserved": 0, "lon": -77.04890766666666, "fusion_lat": 0.0, "name": "da5f189a53fb74e5e3c91234fafababd"}, {"type": "electric_scooter", "fusion_lon": 0.0, "bike_id": "7c99dfbe5e63bef2b7edcd8a53a03c03", "is_disabled": 0, "lat": 38.915550333333336, "rental_uris": {"ios": "https://dc.lft.to/lastmile_qr_scan", "android": "https://dc.lft.to/lastmile_qr_scan"}, "is_reserved": 0, "lon": -77.054141, "fusion_lat": 0.0, "name": "7c99dfbe5e63bef2b7edcd8a53a03c03"}, {"type": "electric_scooter", "fusion_lon": 0.0, "bike_id": "90d6e623e29dac1fbf32d8e54c76a253", "is_disabled": 0, "lat": 38.876480666666666, "rental_uris": {"ios": "https://dc.lft.to/lastmile_qr_scan", "android": "https://dc.lft.to/lastmile_qr_scan"}, "is_reserved": 0, "lon": -76.9650625, "fusion_lat": 0.0, "name": "90d6e623e29dac1fbf32d8e54c76a253"}, {"type": "electric_scooter", "fusion_lon": 0.0, "bike_id": "cebb42c3283b043c0cbdc274e0ff0f5b", "is_disabled": 0, "lat": 38.92359916666667, "rental_uris": {"ios": "https://dc.lft.to/lastmile_qr_scan", "android": "https://dc.lft.to/lastmile_qr_scan"}, "is_reserved": 0, "lon": -77.0523925, "fusion_lat": 0.0, "name": "cebb42c3283b043c0cbdc274e0ff0f5b"}, {"type": "electric_scooter", "fusion_lon": 0.0, "bike_id": "25f9e8b1d0781d9466b58525f09a336a", "is_disabled": 0, "lat": 38.938930666666664, "rental_uris": {"ios": "https://dc.lft.to/lastmile_qr_scan", "android": "https://dc.lft.to/lastmile_qr_scan"}, "is_reserved": 0, "lon": -77.01761566666667, "fusion_lat": 0.0, "name": "25f9e8b1d0781d9466b58525f09a336a"}, {"type": "electric_scooter", "fusion_lon": 0.0, "bike_id": "1afa7478f055a2ae8eceeac17fdf9a16", "is_disabled": 0, "lat": 38.89223666666667, "rental_uris": {"ios": "https://dc.lft.to/lastmile_qr_scan", "android": "https://dc.lft.to/lastmile_qr_scan"}, "is_reserved": 0, "lon": -77.043335, "fusion_lat": 0.0, "name": "1afa7478f055a2ae8eceeac17fdf9a16"}, {"type": "electric_scooter", "fusion_lon": 0.0, "bike_id": "9cd6f336b4298cc47d43b1f358805356", "is_disabled": 0, "lat": 38.87383783333333, "rental_uris": {"ios": "https://dc.lft.to/lastmile_qr_scan", "android": "https://dc.lft.to/lastmile_qr_scan"}, "is_reserved": 0, "lon": -76.96983533333334, "fusion_lat": 0.0, "name": "9cd6f336b4298cc47d43b1f358805356"}, {"type": "electric_scooter", "fusion_lon": 0.0, "bike_id": "c5e5c9088034e2bdb3390abd6565ea8f", "is_disabled": 0, "lat": 38.904144, "rental_uris": {"ios": "https://dc.lft.to/lastmile_qr_scan", "android": "https://dc.lft.to/lastmile_qr_scan"}, "is_reserved": 0, "lon": -76.97330233333334, "fusion_lat": 0.0, "name": "c5e5c9088034e2bdb3390abd6565ea8f"}, {"type": "electric_scooter", "fusion_lon": 0.0, "bike_id": "80be42fd5e92e8fc58af2e81e854036d", "is_disabled": 0, "lat": 38.931407166666666, "rental_uris": {"ios": "https://dc.lft.to/lastmile_qr_scan", "android": "https://dc.lft.to/lastmile_qr_scan"}, "is_reserved": 0, "lon": -77.02194316666667, "fusion_lat": 0.0, "name": "80be42fd5e92e8fc58af2e81e854036d"}, {"type": "electric_scooter", "fusion_lon": 0.0, "bike_id": "b7f4eff7114cb493954fad3ee0b1f443", "is_disabled": 0, "lat": 38.9570785, "rental_uris": {"ios": "https://dc.lft.to/lastmile_qr_scan", "android": "https://dc.lft.to/lastmile_qr_scan"}, "is_reserved": 0, "lon": -77.02411216666667, "fusion_lat": 0.0, "name": "b7f4eff7114cb493954fad3ee0b1f443"}, {"type": "electric_scooter", "fusion_lon": 0.0, "bike_id": "4a7edc9791be9eed0b060604b6ef636b", "is_disabled": 0, "lat": 38.927080833333335, "rental_uris": {"ios": "https://dc.lft.to/lastmile_qr_scan", "android": "https://dc.lft.to/lastmile_qr_scan"}, "is_reserved": 0, "lon": -77.03759583333333, "fusion_lat": 0.0, "name": "4a7edc9791be9eed0b060604b6ef636b"}, {"type": "electric_scooter", "fusion_lon": 0.0, "bike_id": "ec6aa53a414362d894603d16f162819e", "is_disabled": 0, "lat": 38.9073105, "rental_uris": {"ios": "https://dc.lft.to/lastmile_qr_scan", "android": "https://dc.lft.to/lastmile_qr_scan"}, "is_reserved": 0, "lon": -77.03198033333334, "fusion_lat": 0.0, "name": "ec6aa53a414362d894603d16f162819e"}, {"type": "electric_scooter", "fusion_lon": 0.0, "bike_id": "a0eef24322abf151ad94da4a79a47ad8", "is_disabled": 0, "lat": 38.90415983333333, "rental_uris": {"ios": "https://dc.lft.to/lastmile_qr_scan", "android": "https://dc.lft.to/lastmile_qr_scan"}, "is_reserved": 0, "lon": -76.97329583333334, "fusion_lat": 0.0, "name": "a0eef24322abf151ad94da4a79a47ad8"}, {"type": "electric_bike", "fusion_lon": 0.0, "bike_id": "7833f8ff743044801d31bd772a8ab59a", "is_disabled": 0, "lat": 38.9114455, "rental_uris": {"ios": "https://dc.lft.to/lastmile_qr_scan", "android": "https://dc.lft.to/lastmile_qr_scan"}, "is_reserved": 0, "lon": -77.06564283333333, "fusion_lat": 0.0, "name": "7833f8ff743044801d31bd772a8ab59a"}, {"type": "electric_scooter", "fusion_lon": 0.0, "bike_id": "9471c7aaa6e163bfe8c5666e9402f11d", "is_disabled": 0, "lat": 38.902688, "rental_uris": {"ios": "https://dc.lft.to/lastmile_qr_scan", "android": "https://dc.lft.to/lastmile_qr_scan"}, "is_reserved": 0, "lon": -77.032926, "fusion_lat": 0.0, "name": "9471c7aaa6e163bfe8c5666e9402f11d"}, {"type": "electric_scooter", "fusion_lon": 0.0, "bike_id": "72c1b2fb3b35d5dc904655b4172b9836", "is_disabled": 0, "lat": 38.8923075, "rental_uris": {"ios": "https://dc.lft.to/lastmile_qr_scan", "android": "https://dc.lft.to/lastmile_qr_scan"}, "is_reserved": 0, "lon": -77.002904, "fusion_lat": 0.0, "name": "72c1b2fb3b35d5dc904655b4172b9836"}, {"type": "electric_scooter", "fusion_lon": 0.0, "bike_id": "035fd759053909da77ec89a4a3a2d688", "is_disabled": 0, "lat": 38.92229483333333, "rental_uris": {"ios": "https://dc.lft.to/lastmile_qr_scan", "android": "https://dc.lft.to/lastmile_qr_scan"}, "is_reserved": 0, "lon": -77.04716633333334, "fusion_lat": 0.0, "name": "035fd759053909da77ec89a4a3a2d688"}, {"type": "electric_scooter", "fusion_lon": 0.0, "bike_id": "5cce4fb11497bb6ec6d8880bf5053dea", "is_disabled": 0, "lat": 38.91024216666667, "rental_uris": {"ios": "https://dc.lft.to/lastmile_qr_scan", "android": "https://dc.lft.to/lastmile_qr_scan"}, "is_reserved": 0, "lon": -77.0465715, "fusion_lat": 0.0, "name": "5cce4fb11497bb6ec6d8880bf5053dea"}, {"type": "electric_bike", "fusion_lon": 0.0, "bike_id": "cf5579997a98babb3692d4658dc40479", "is_disabled": 0, "lat": 38.925677, "rental_uris": {"ios": "https://dc.lft.to/lastmile_qr_scan", "android": "https://dc.lft.to/lastmile_qr_scan"}, "is_reserved": 0, "lon": -76.9597515, "fusion_lat": 0.0, "name": "cf5579997a98babb3692d4658dc40479"}, {"type": "electric_scooter", "fusion_lon": 0.0, "bike_id": "f0fcdf74d653d6d8d1872281535fc02a", "is_disabled": 0, "lat": 38.922604666666665, "rental_uris": {"ios": "https://dc.lft.to/lastmile_qr_scan", "android": "https://dc.lft.to/lastmile_qr_scan"}, "is_reserved": 0, "lon": -77.018257, "fusion_lat": 0.0, "name": "f0fcdf74d653d6d8d1872281535fc02a"}, {"type": "electric_scooter", "fusion_lon": 0.0, "bike_id": "7314557a3a1311a3f7d74081ba86fcec", "is_disabled": 0, "lat": 38.885401, "rental_uris": {"ios": "https://dc.lft.to/lastmile_qr_scan", "android": "https://dc.lft.to/lastmile_qr_scan"}, "is_reserved": 0, "lon": -77.01100966666667, "fusion_lat": 0.0, "name": "7314557a3a1311a3f7d74081ba86fcec"}, {"type": "electric_scooter", "fusion_lon": 0.0, "bike_id": "313285075748ee4a2489629a896dc6dd", "is_disabled": 0, "lat": 38.8841125, "rental_uris": {"ios": "https://dc.lft.to/lastmile_qr_scan", "android": "https://dc.lft.to/lastmile_qr_scan"}, "is_reserved": 0, "lon": -77.02976366666667, "fusion_lat": 0.0, "name": "313285075748ee4a2489629a896dc6dd"}, {"type": "electric_scooter", "fusion_lon": 0.0, "bike_id": "228373acef2eb3988110b9598b6ba507", "is_disabled": 0, "lat": 38.88733833333333, "rental_uris": {"ios": "https://dc.lft.to/lastmile_qr_scan", "android": "https://dc.lft.to/lastmile_qr_scan"}, "is_reserved": 0, "lon": -77.03179416666667, "fusion_lat": 0.0, "name": "228373acef2eb3988110b9598b6ba507"}, {"type": "electric_scooter", "fusion_lon": 0.0, "bike_id": "401f5a5efea860ada22fa6d50e23ad24", "is_disabled": 0, "lat": 38.897355, "rental_uris": {"ios": "https://dc.lft.to/lastmile_qr_scan", "android": "https://dc.lft.to/lastmile_qr_scan"}, "is_reserved": 0, "lon": -77.01927633333334, "fusion_lat": 0.0, "name": "401f5a5efea860ada22fa6d50e23ad24"}, {"type": "electric_bike", "fusion_lon": 0.0, "bike_id": "95f001c12246da5ee604b5e012871881", "is_disabled": 0, "lat": 38.935797666666666, "rental_uris": {"ios": "https://dc.lft.to/lastmile_qr_scan", "android": "https://dc.lft.to/lastmile_qr_scan"}, "is_reserved": 0, "lon": -77.03747766666666, "fusion_lat": 0.0, "name": "95f001c12246da5ee604b5e012871881"}, {"type": "electric_scooter", "fusion_lon": 0.0, "bike_id": "339f89bb1104f37e81856002abfaaa68", "is_disabled": 0, "lat": 38.90348933333333, "rental_uris": {"ios": "https://dc.lft.to/lastmile_qr_scan", "android": "https://dc.lft.to/lastmile_qr_scan"}, "is_reserved": 0, "lon": -77.049438, "fusion_lat": 0.0, "name": "339f89bb1104f37e81856002abfaaa68"}, {"type": "electric_scooter", "fusion_lon": 0.0, "bike_id": "b96b28432e34dbeb82f16be2e63931a5", "is_disabled": 0, "lat": 38.9133945, "rental_uris": {"ios": "https://dc.lft.to/lastmile_qr_scan", "android": "https://dc.lft.to/lastmile_qr_scan"}, "is_reserved": 0, "lon": -77.0631965, "fusion_lat": 0.0, "name": "b96b28432e34dbeb82f16be2e63931a5"}, {"type": "electric_scooter", "fusion_lon": 0.0, "bike_id": "6f7c24780e70844b9ff0f712fe28bb4c", "is_disabled": 0, "lat": 38.907629166666666, "rental_uris": {"ios": "https://dc.lft.to/lastmile_qr_scan", "android": "https://dc.lft.to/lastmile_qr_scan"}, "is_reserved": 0, "lon": -77.03001383333333, "fusion_lat": 0.0, "name": "6f7c24780e70844b9ff0f712fe28bb4c"}, {"type": "electric_scooter", "fusion_lon": 0.0, "bike_id": "39cec59bf643e648fdfe222e24c509a5", "is_disabled": 0, "lat": 38.92896733333333, "rental_uris": {"ios": "https://dc.lft.to/lastmile_qr_scan", "android": "https://dc.lft.to/lastmile_qr_scan"}, "is_reserved": 0, "lon": -77.05806283333334, "fusion_lat": 0.0, "name": "39cec59bf643e648fdfe222e24c509a5"}, {"type": "electric_bike", "fusion_lon": 0.0, "bike_id": "136592cfde130cab28c89c908f5d3e6e", "is_disabled": 0, "lat": 38.83106033333333, "rental_uris": {"ios": "https://dc.lft.to/lastmile_qr_scan", "android": "https://dc.lft.to/lastmile_qr_scan"}, "is_reserved": 0, "lon": -77.11280316666667, "fusion_lat": 0.0, "name": "136592cfde130cab28c89c908f5d3e6e"}, {"type": "electric_scooter", "fusion_lon": 0.0, "bike_id": "63b53c579237bede88a5ccd4989b7f17", "is_disabled": 0, "lat": 38.913475166666665, "rental_uris": {"ios": "https://dc.lft.to/lastmile_qr_scan", "android": "https://dc.lft.to/lastmile_qr_scan"}, "is_reserved": 0, "lon": -77.02949916666667, "fusion_lat": 0.0, "name": "63b53c579237bede88a5ccd4989b7f17"}, {"type": "electric_bike", "fusion_lon": 0.0, "bike_id": "e2f9d553fe633f8978a03999f3d046f0", "is_disabled": 0, "lat": 38.90005716666667, "rental_uris": {"ios": "https://dc.lft.to/lastmile_qr_scan", "android": "https://dc.lft.to/lastmile_qr_scan"}, "is_reserved": 0, "lon": -77.00548266666667, "fusion_lat": 0.0, "name": "e2f9d553fe633f8978a03999f3d046f0"}, {"type": "electric_scooter", "fusion_lon": 0.0, "bike_id": "7e70a2dc87cde31a8448c13783a0fdf9", "is_disabled": 0, "lat": 38.90869716666667, "rental_uris": {"ios": "https://dc.lft.to/lastmile_qr_scan", "android": "https://dc.lft.to/lastmile_qr_scan"}, "is_reserved": 0, "lon": -77.03491016666666, "fusion_lat": 0.0, "name": "7e70a2dc87cde31a8448c13783a0fdf9"}, {"type": "electric_scooter", "fusion_lon": 0.0, "bike_id": "ff16fe366ccb30a9db497ae8bece8eed", "is_disabled": 0, "lat": 38.90197716666667, "rental_uris": {"ios": "https://dc.lft.to/lastmile_qr_scan", "android": "https://dc.lft.to/lastmile_qr_scan"}, "is_reserved": 0, "lon": -77.032665, "fusion_lat": 0.0, "name": "ff16fe366ccb30a9db497ae8bece8eed"}, {"type": "electric_scooter", "fusion_lon": 0.0, "bike_id": "f51a2cda890fb32c0f45a09c41358313", "is_disabled": 0, "lat": 38.92458516666667, "rental_uris": {"ios": "https://dc.lft.to/lastmile_qr_scan", "android": "https://dc.lft.to/lastmile_qr_scan"}, "is_reserved": 0, "lon": -77.0328405, "fusion_lat": 0.0, "name": "f51a2cda890fb32c0f45a09c41358313"}, {"type": "electric_scooter", "fusion_lon": 0.0, "bike_id": "24332e2f501a37000a2c0ff1eccd33e2", "is_disabled": 0, "lat": 38.91559916666667, "rental_uris": {"ios": "https://dc.lft.to/lastmile_qr_scan", "android": "https://dc.lft.to/lastmile_qr_scan"}, "is_reserved": 0, "lon": -77.03154283333333, "fusion_lat": 0.0, "name": "24332e2f501a37000a2c0ff1eccd33e2"}, {"type": "electric_scooter", "fusion_lon": 0.0, "bike_id": "d937bedc44cf1ef322ef22ebeeaaaf59", "is_disabled": 0, "lat": 38.899043166666665, "rental_uris": {"ios": "https://dc.lft.to/lastmile_qr_scan", "android": "https://dc.lft.to/lastmile_qr_scan"}, "is_reserved": 0, "lon": -77.048848, "fusion_lat": 0.0, "name": "d937bedc44cf1ef322ef22ebeeaaaf59"}, {"type": "electric_scooter", "fusion_lon": 0.0, "bike_id": "071aa1413d2ec6e2096dc44dec16d71f", "is_disabled": 0, "lat": 38.908981, "rental_uris": {"ios": "https://dc.lft.to/lastmile_qr_scan", "android": "https://dc.lft.to/lastmile_qr_scan"}, "is_reserved": 0, "lon": -77.02316233333333, "fusion_lat": 0.0, "name": "071aa1413d2ec6e2096dc44dec16d71f"}, {"type": "electric_scooter", "fusion_lon": 0.0, "bike_id": "407a869df291e92c55b09b3e838f06fd", "is_disabled": 0, "lat": 38.92373966666667, "rental_uris": {"ios": "https://dc.lft.to/lastmile_qr_scan", "android": "https://dc.lft.to/lastmile_qr_scan"}, "is_reserved": 0, "lon": -77.02255416666667, "fusion_lat": 0.0, "name": "407a869df291e92c55b09b3e838f06fd"}, {"type": "electric_scooter", "fusion_lon": 0.0, "bike_id": "d55f0f08a70fb2da3f60c709282f61ba", "is_disabled": 0, "lat": 38.938979, "rental_uris": {"ios": "https://dc.lft.to/lastmile_qr_scan", "android": "https://dc.lft.to/lastmile_qr_scan"}, "is_reserved": 0, "lon": -76.9860935, "fusion_lat": 0.0, "name": "d55f0f08a70fb2da3f60c709282f61ba"}, {"type": "electric_scooter", "fusion_lon": 0.0, "bike_id": "6ddbf60ddea6ed767a7de94700491360", "is_disabled": 0, "lat": 38.920063999999996, "rental_uris": {"ios": "https://dc.lft.to/lastmile_qr_scan", "android": "https://dc.lft.to/lastmile_qr_scan"}, "is_reserved": 0, "lon": -76.9956945, "fusion_lat": 0.0, "name": "6ddbf60ddea6ed767a7de94700491360"}, {"type": "electric_scooter", "fusion_lon": 0.0, "bike_id": "a19b19435f5a931eae1705ba8c56bacc", "is_disabled": 0, "lat": 38.90266366666667, "rental_uris": {"ios": "https://dc.lft.to/lastmile_qr_scan", "android": "https://dc.lft.to/lastmile_qr_scan"}, "is_reserved": 0, "lon": -77.01777516666667, "fusion_lat": 0.0, "name": "a19b19435f5a931eae1705ba8c56bacc"}, {"type": "electric_scooter", "fusion_lon": 0.0, "bike_id": "ad00c80b12e770cc6055dcaba648abfe", "is_disabled": 0, "lat": 38.87541983333333, "rental_uris": {"ios": "https://dc.lft.to/lastmile_qr_scan", "android": "https://dc.lft.to/lastmile_qr_scan"}, "is_reserved": 0, "lon": -77.000713, "fusion_lat": 0.0, "name": "ad00c80b12e770cc6055dcaba648abfe"}, {"type": "electric_scooter", "fusion_lon": 0.0, "bike_id": "85ab9c0b8deaa9386c2d9243ee64a74c", "is_disabled": 0, "lat": 38.895307333333335, "rental_uris": {"ios": "https://dc.lft.to/lastmile_qr_scan", "android": "https://dc.lft.to/lastmile_qr_scan"}, "is_reserved": 0, "lon": -76.949334, "fusion_lat": 0.0, "name": "85ab9c0b8deaa9386c2d9243ee64a74c"}, {"type": "electric_scooter", "fusion_lon": 0.0, "bike_id": "67885888f7e5aaf3ca3c71c6244952b0", "is_disabled": 0, "lat": 38.92125983333333, "rental_uris": {"ios": "https://dc.lft.to/lastmile_qr_scan", "android": "https://dc.lft.to/lastmile_qr_scan"}, "is_reserved": 0, "lon": -77.04586216666667, "fusion_lat": 0.0, "name": "67885888f7e5aaf3ca3c71c6244952b0"}, {"type": "electric_scooter", "fusion_lon": 0.0, "bike_id": "05787c60caea0185f9413bd2a20b6ba7", "is_disabled": 0, "lat": 38.90011483333333, "rental_uris": {"ios": "https://dc.lft.to/lastmile_qr_scan", "android": "https://dc.lft.to/lastmile_qr_scan"}, "is_reserved": 0, "lon": -77.00185133333333, "fusion_lat": 0.0, "name": "05787c60caea0185f9413bd2a20b6ba7"}, {"type": "electric_scooter", "fusion_lon": 0.0, "bike_id": "eeea5a9a3cd7a1486620c04b99f29ab4", "is_disabled": 0, "lat": 38.9141625, "rental_uris": {"ios": "https://dc.lft.to/lastmile_qr_scan", "android": "https://dc.lft.to/lastmile_qr_scan"}, "is_reserved": 0, "lon": -77.038084, "fusion_lat": 0.0, "name": "eeea5a9a3cd7a1486620c04b99f29ab4"}, {"type": "electric_scooter", "fusion_lon": 0.0, "bike_id": "b6fc117288d7a3f07571ca24368b053c", "is_disabled": 0, "lat": 38.907105666666666, "rental_uris": {"ios": "https://dc.lft.to/lastmile_qr_scan", "android": "https://dc.lft.to/lastmile_qr_scan"}, "is_reserved": 0, "lon": -77.0076445, "fusion_lat": 0.0, "name": "b6fc117288d7a3f07571ca24368b053c"}, {"type": "electric_scooter", "fusion_lon": 0.0, "bike_id": "9bed356e00bbff1e9b089a3ce7306117", "is_disabled": 0, "lat": 38.9573445, "rental_uris": {"ios": "https://dc.lft.to/lastmile_qr_scan", "android": "https://dc.lft.to/lastmile_qr_scan"}, "is_reserved": 0, "lon": -77.02420883333333, "fusion_lat": 0.0, "name": "9bed356e00bbff1e9b089a3ce7306117"}, {"type": "electric_scooter", "fusion_lon": 0.0, "bike_id": "6857ea0a21f6f43fc57b81126265e180", "is_disabled": 0, "lat": 38.8922085, "rental_uris": {"ios": "https://dc.lft.to/lastmile_qr_scan", "android": "https://dc.lft.to/lastmile_qr_scan"}, "is_reserved": 0, "lon": -77.0221975, "fusion_lat": 0.0, "name": "6857ea0a21f6f43fc57b81126265e180"}, {"type": "electric_bike", "fusion_lon": 0.0, "bike_id": "da591eb8bdc8bbf9fb22f0e591dd6cc7", "is_disabled": 0, "lat": 38.888857333333334, "rental_uris": {"ios": "https://dc.lft.to/lastmile_qr_scan", "android": "https://dc.lft.to/lastmile_qr_scan"}, "is_reserved": 0, "lon": -77.07945583333333, "fusion_lat": 0.0, "name": "da591eb8bdc8bbf9fb22f0e591dd6cc7"}, {"type": "electric_scooter", "fusion_lon": 0.0, "bike_id": "e63b9a701d98db2e04727a730b6eaa84", "is_disabled": 0, "lat": 38.90787266666667, "rental_uris": {"ios": "https://dc.lft.to/lastmile_qr_scan", "android": "https://dc.lft.to/lastmile_qr_scan"}, "is_reserved": 0, "lon": -77.07254633333334, "fusion_lat": 0.0, "name": "e63b9a701d98db2e04727a730b6eaa84"}, {"type": "electric_scooter", "fusion_lon": 0.0, "bike_id": "6ee3842554ae0df70dd0fcc5567b2e4e", "is_disabled": 0, "lat": 38.912449333333335, "rental_uris": {"ios": "https://dc.lft.to/lastmile_qr_scan", "android": "https://dc.lft.to/lastmile_qr_scan"}, "is_reserved": 0, "lon": -77.062865, "fusion_lat": 0.0, "name": "6ee3842554ae0df70dd0fcc5567b2e4e"}, {"type": "electric_scooter", "fusion_lon": 0.0, "bike_id": "949a972ef9757a7ec37b6b63075fc5cb", "is_disabled": 0, "lat": 38.925824166666665, "rental_uris": {"ios": "https://dc.lft.to/lastmile_qr_scan", "android": "https://dc.lft.to/lastmile_qr_scan"}, "is_reserved": 0, "lon": -77.02606583333333, "fusion_lat": 0.0, "name": "949a972ef9757a7ec37b6b63075fc5cb"}, {"type": "electric_scooter", "fusion_lon": 0.0, "bike_id": "e4cb89c9f1e76eddec896b43538bbaf1", "is_disabled": 0, "lat": 38.90440866666667, "rental_uris": {"ios": "https://dc.lft.to/lastmile_qr_scan", "android": "https://dc.lft.to/lastmile_qr_scan"}, "is_reserved": 0, "lon": -77.048604, "fusion_lat": 0.0, "name": "e4cb89c9f1e76eddec896b43538bbaf1"}, {"type": "electric_scooter", "fusion_lon": 0.0, "bike_id": "f0689bd3ca83bfb6f344cd65a7660e3b", "is_disabled": 0, "lat": 38.924686333333334, "rental_uris": {"ios": "https://dc.lft.to/lastmile_qr_scan", "android": "https://dc.lft.to/lastmile_qr_scan"}, "is_reserved": 0, "lon": -77.02717016666666, "fusion_lat": 0.0, "name": "f0689bd3ca83bfb6f344cd65a7660e3b"}, {"type": "electric_scooter", "fusion_lon": 0.0, "bike_id": "a390f91bb73e118f3e21b5bcb1421a13", "is_disabled": 0, "lat": 38.94350583333333, "rental_uris": {"ios": "https://dc.lft.to/lastmile_qr_scan", "android": "https://dc.lft.to/lastmile_qr_scan"}, "is_reserved": 0, "lon": -77.0612245, "fusion_lat": 0.0, "name": "a390f91bb73e118f3e21b5bcb1421a13"}, {"type": "electric_scooter", "fusion_lon": 0.0, "bike_id": "b1636cd8367418e2f26af225be505c7d", "is_disabled": 0, "lat": 38.87661516666667, "rental_uris": {"ios": "https://dc.lft.to/lastmile_qr_scan", "android": "https://dc.lft.to/lastmile_qr_scan"}, "is_reserved": 0, "lon": -77.00464616666666, "fusion_lat": 0.0, "name": "b1636cd8367418e2f26af225be505c7d"}, {"type": "electric_scooter", "fusion_lon": 0.0, "bike_id": "bec736caac50e8b80a7074a8bde3c7f8", "is_disabled": 0, "lat": 38.922144833333334, "rental_uris": {"ios": "https://dc.lft.to/lastmile_qr_scan", "android": "https://dc.lft.to/lastmile_qr_scan"}, "is_reserved": 0, "lon": -77.041935, "fusion_lat": 0.0, "name": "bec736caac50e8b80a7074a8bde3c7f8"}, {"type": "electric_scooter", "fusion_lon": 0.0, "bike_id": "ca589ef9ec69ba9dfad2d1a3113c7dd5", "is_disabled": 0, "lat": 38.93629966666666, "rental_uris": {"ios": "https://dc.lft.to/lastmile_qr_scan", "android": "https://dc.lft.to/lastmile_qr_scan"}, "is_reserved": 0, "lon": -77.03664733333333, "fusion_lat": 0.0, "name": "ca589ef9ec69ba9dfad2d1a3113c7dd5"}, {"type": "electric_scooter", "fusion_lon": 0.0, "bike_id": "154d28b192884086cfced9caef75121c", "is_disabled": 0, "lat": 38.889617, "rental_uris": {"ios": "https://dc.lft.to/lastmile_qr_scan", "android": "https://dc.lft.to/lastmile_qr_scan"}, "is_reserved": 0, "lon": -76.98083866666667, "fusion_lat": 0.0, "name": "154d28b192884086cfced9caef75121c"}, {"type": "electric_scooter", "fusion_lon": 0.0, "bike_id": "d1f7f20731a036dcd44e1eedb9fbe1ab", "is_disabled": 0, "lat": 38.91921883333333, "rental_uris": {"ios": "https://dc.lft.to/lastmile_qr_scan", "android": "https://dc.lft.to/lastmile_qr_scan"}, "is_reserved": 0, "lon": -77.01900933333333, "fusion_lat": 0.0, "name": "d1f7f20731a036dcd44e1eedb9fbe1ab"}, {"type": "electric_scooter", "fusion_lon": 0.0, "bike_id": "7aef10c54d985ab4a049fcd767e3d7ec", "is_disabled": 0, "lat": 38.931932333333336, "rental_uris": {"ios": "https://dc.lft.to/lastmile_qr_scan", "android": "https://dc.lft.to/lastmile_qr_scan"}, "is_reserved": 0, "lon": -77.029618, "fusion_lat": 0.0, "name": "7aef10c54d985ab4a049fcd767e3d7ec"}, {"type": "electric_scooter", "fusion_lon": 0.0, "bike_id": "450fc174e9b265c6d1f4733f4c448641", "is_disabled": 0, "lat": 38.935347166666666, "rental_uris": {"ios": "https://dc.lft.to/lastmile_qr_scan", "android": "https://dc.lft.to/lastmile_qr_scan"}, "is_reserved": 0, "lon": -77.02863983333333, "fusion_lat": 0.0, "name": "450fc174e9b265c6d1f4733f4c448641"}, {"type": "electric_scooter", "fusion_lon": 0.0, "bike_id": "4a4e8c54f41d6e75c1705105be2573f9", "is_disabled": 0, "lat": 38.90236766666666, "rental_uris": {"ios": "https://dc.lft.to/lastmile_qr_scan", "android": "https://dc.lft.to/lastmile_qr_scan"}, "is_reserved": 0, "lon": -77.00207916666666, "fusion_lat": 0.0, "name": "4a4e8c54f41d6e75c1705105be2573f9"}, {"type": "electric_scooter", "fusion_lon": 0.0, "bike_id": "872384b9b508d641a63ee6a0b3373e09", "is_disabled": 0, "lat": 38.89856116666667, "rental_uris": {"ios": "https://dc.lft.to/lastmile_qr_scan", "android": "https://dc.lft.to/lastmile_qr_scan"}, "is_reserved": 0, "lon": -76.9903165, "fusion_lat": 0.0, "name": "872384b9b508d641a63ee6a0b3373e09"}, {"type": "electric_scooter", "fusion_lon": 0.0, "bike_id": "8c65f19f3631e0e1e8f24f64f61fcd87", "is_disabled": 0, "lat": 38.926723333333335, "rental_uris": {"ios": "https://dc.lft.to/lastmile_qr_scan", "android": "https://dc.lft.to/lastmile_qr_scan"}, "is_reserved": 0, "lon": -77.02115533333334, "fusion_lat": 0.0, "name": "8c65f19f3631e0e1e8f24f64f61fcd87"}, {"type": "electric_scooter", "fusion_lon": 0.0, "bike_id": "ee466873a05f014f92a11b5aab1afcef", "is_disabled": 0, "lat": 38.92121233333334, "rental_uris": {"ios": "https://dc.lft.to/lastmile_qr_scan", "android": "https://dc.lft.to/lastmile_qr_scan"}, "is_reserved": 0, "lon": -77.02487266666667, "fusion_lat": 0.0, "name": "ee466873a05f014f92a11b5aab1afcef"}, {"type": "electric_scooter", "fusion_lon": 0.0, "bike_id": "9ee0ed468f5d91d9004c76bceea4f0ee", "is_disabled": 0, "lat": 38.90452366666667, "rental_uris": {"ios": "https://dc.lft.to/lastmile_qr_scan", "android": "https://dc.lft.to/lastmile_qr_scan"}, "is_reserved": 0, "lon": -76.98251283333333, "fusion_lat": 0.0, "name": "9ee0ed468f5d91d9004c76bceea4f0ee"}, {"type": "electric_scooter", "fusion_lon": 0.0, "bike_id": "402e928ec5069c14bb2e27f729cedddf", "is_disabled": 0, "lat": 38.92337466666667, "rental_uris": {"ios": "https://dc.lft.to/lastmile_qr_scan", "android": "https://dc.lft.to/lastmile_qr_scan"}, "is_reserved": 0, "lon": -77.04149916666667, "fusion_lat": 0.0, "name": "402e928ec5069c14bb2e27f729cedddf"}, {"type": "electric_scooter", "fusion_lon": 0.0, "bike_id": "c952e272c0856718a723477624819a36", "is_disabled": 0, "lat": 38.909404333333335, "rental_uris": {"ios": "https://dc.lft.to/lastmile_qr_scan", "android": "https://dc.lft.to/lastmile_qr_scan"}, "is_reserved": 0, "lon": -77.055585, "fusion_lat": 0.0, "name": "c952e272c0856718a723477624819a36"}, {"type": "electric_scooter", "fusion_lon": 0.0, "bike_id": "67ab7e040255896bf125c3095027bf32", "is_disabled": 0, "lat": 38.90976783333333, "rental_uris": {"ios": "https://dc.lft.to/lastmile_qr_scan", "android": "https://dc.lft.to/lastmile_qr_scan"}, "is_reserved": 0, "lon": -77.03359816666666, "fusion_lat": 0.0, "name": "67ab7e040255896bf125c3095027bf32"}, {"type": "electric_scooter", "fusion_lon": 0.0, "bike_id": "bdcfa2fed09e374817d721c3f57d63aa", "is_disabled": 0, "lat": 38.896767833333335, "rental_uris": {"ios": "https://dc.lft.to/lastmile_qr_scan", "android": "https://dc.lft.to/lastmile_qr_scan"}, "is_reserved": 0, "lon": -77.04349716666667, "fusion_lat": 0.0, "name": "bdcfa2fed09e374817d721c3f57d63aa"}, {"type": "electric_scooter", "fusion_lon": 0.0, "bike_id": "3404d63de75453f20e899fa45922829a", "is_disabled": 0, "lat": 38.892508166666666, "rental_uris": {"ios": "https://dc.lft.to/lastmile_qr_scan", "android": "https://dc.lft.to/lastmile_qr_scan"}, "is_reserved": 0, "lon": -77.03338916666667, "fusion_lat": 0.0, "name": "3404d63de75453f20e899fa45922829a"}, {"type": "electric_scooter", "fusion_lon": 0.0, "bike_id": "a07eaf4923c8088dc63a754973c7e93e", "is_disabled": 0, "lat": 38.90406633333333, "rental_uris": {"ios": "https://dc.lft.to/lastmile_qr_scan", "android": "https://dc.lft.to/lastmile_qr_scan"}, "is_reserved": 0, "lon": -77.029457, "fusion_lat": 0.0, "name": "a07eaf4923c8088dc63a754973c7e93e"}, {"type": "electric_scooter", "fusion_lon": 0.0, "bike_id": "5f910f11cfb229e3c16e4604282d5ef1", "is_disabled": 0, "lat": 38.89808416666666, "rental_uris": {"ios": "https://dc.lft.to/lastmile_qr_scan", "android": "https://dc.lft.to/lastmile_qr_scan"}, "is_reserved": 0, "lon": -76.97950416666667, "fusion_lat": 0.0, "name": "5f910f11cfb229e3c16e4604282d5ef1"}, {"type": "electric_scooter", "fusion_lon": 0.0, "bike_id": "646022f180baca51c64a308e10238331", "is_disabled": 0, "lat": 38.908632833333336, "rental_uris": {"ios": "https://dc.lft.to/lastmile_qr_scan", "android": "https://dc.lft.to/lastmile_qr_scan"}, "is_reserved": 0, "lon": -77.043291, "fusion_lat": 0.0, "name": "646022f180baca51c64a308e10238331"}, {"type": "electric_scooter", "fusion_lon": 0.0, "bike_id": "b120585b28918216373da8f3ea741936", "is_disabled": 0, "lat": 38.87663766666667, "rental_uris": {"ios": "https://dc.lft.to/lastmile_qr_scan", "android": "https://dc.lft.to/lastmile_qr_scan"}, "is_reserved": 0, "lon": -77.00939583333333, "fusion_lat": 0.0, "name": "b120585b28918216373da8f3ea741936"}, {"type": "electric_scooter", "fusion_lon": 0.0, "bike_id": "ad3d221be3b58676d556315ae3b1e49a", "is_disabled": 0, "lat": 38.92030883333334, "rental_uris": {"ios": "https://dc.lft.to/lastmile_qr_scan", "android": "https://dc.lft.to/lastmile_qr_scan"}, "is_reserved": 0, "lon": -77.00283683333333, "fusion_lat": 0.0, "name": "ad3d221be3b58676d556315ae3b1e49a"}, {"type": "electric_scooter", "fusion_lon": 0.0, "bike_id": "3d18611aae5177be64807c2f9b4b6ef4", "is_disabled": 0, "lat": 38.89960416666667, "rental_uris": {"ios": "https://dc.lft.to/lastmile_qr_scan", "android": "https://dc.lft.to/lastmile_qr_scan"}, "is_reserved": 0, "lon": -77.02103016666666, "fusion_lat": 0.0, "name": "3d18611aae5177be64807c2f9b4b6ef4"}, {"type": "electric_scooter", "fusion_lon": 0.0, "bike_id": "3a9590642dcf655b9841806c15dc6262", "is_disabled": 0, "lat": 38.883714499999996, "rental_uris": {"ios": "https://dc.lft.to/lastmile_qr_scan", "android": "https://dc.lft.to/lastmile_qr_scan"}, "is_reserved": 0, "lon": -76.95708733333333, "fusion_lat": 0.0, "name": "3a9590642dcf655b9841806c15dc6262"}, {"type": "electric_bike", "fusion_lon": 0.0, "bike_id": "d9a6d30d696944a579e33ab47a54b73d", "is_disabled": 0, "lat": 38.890183, "rental_uris": {"ios": "https://dc.lft.to/lastmile_qr_scan", "android": "https://dc.lft.to/lastmile_qr_scan"}, "is_reserved": 0, "lon": -76.94167716666666, "fusion_lat": 0.0, "name": "d9a6d30d696944a579e33ab47a54b73d"}, {"type": "electric_scooter", "fusion_lon": 0.0, "bike_id": "bbe74ae57564162cf1ed035c5c53ce84", "is_disabled": 0, "lat": 38.892211833333334, "rental_uris": {"ios": "https://dc.lft.to/lastmile_qr_scan", "android": "https://dc.lft.to/lastmile_qr_scan"}, "is_reserved": 0, "lon": -77.04503116666666, "fusion_lat": 0.0, "name": "bbe74ae57564162cf1ed035c5c53ce84"}, {"type": "electric_scooter", "fusion_lon": 0.0, "bike_id": "f5843440bf75349cd47410dd9a1ed0bb", "is_disabled": 0, "lat": 38.899128, "rental_uris": {"ios": "https://dc.lft.to/lastmile_qr_scan", "android": "https://dc.lft.to/lastmile_qr_scan"}, "is_reserved": 0, "lon": -77.02797016666666, "fusion_lat": 0.0, "name": "f5843440bf75349cd47410dd9a1ed0bb"}, {"type": "electric_scooter", "fusion_lon": 0.0, "bike_id": "acd60088dbac9bb38c738e182c44b3b9", "is_disabled": 0, "lat": 38.918196, "rental_uris": {"ios": "https://dc.lft.to/lastmile_qr_scan", "android": "https://dc.lft.to/lastmile_qr_scan"}, "is_reserved": 0, "lon": -77.03447233333333, "fusion_lat": 0.0, "name": "acd60088dbac9bb38c738e182c44b3b9"}, {"type": "electric_scooter", "fusion_lon": 0.0, "bike_id": "1a202880dee40340e75636e0952c7c1f", "is_disabled": 0, "lat": 38.903575833333335, "rental_uris": {"ios": "https://dc.lft.to/lastmile_qr_scan", "android": "https://dc.lft.to/lastmile_qr_scan"}, "is_reserved": 0, "lon": -77.04351733333333, "fusion_lat": 0.0, "name": "1a202880dee40340e75636e0952c7c1f"}, {"type": "electric_scooter", "fusion_lon": 0.0, "bike_id": "c7f2eb07485a2edb2a581fbd5011a3b6", "is_disabled": 0, "lat": 38.8994525, "rental_uris": {"ios": "https://dc.lft.to/lastmile_qr_scan", "android": "https://dc.lft.to/lastmile_qr_scan"}, "is_reserved": 0, "lon": -77.04491266666666, "fusion_lat": 0.0, "name": "c7f2eb07485a2edb2a581fbd5011a3b6"}, {"type": "electric_scooter", "fusion_lon": 0.0, "bike_id": "88275fad73c91d3a355b6503a1f3dbcc", "is_disabled": 0, "lat": 38.918156, "rental_uris": {"ios": "https://dc.lft.to/lastmile_qr_scan", "android": "https://dc.lft.to/lastmile_qr_scan"}, "is_reserved": 0, "lon": -77.010969, "fusion_lat": 0.0, "name": "88275fad73c91d3a355b6503a1f3dbcc"}, {"type": "electric_scooter", "fusion_lon": 0.0, "bike_id": "8510dcf6e18a84c22215d66567198f7f", "is_disabled": 0, "lat": 38.878633, "rental_uris": {"ios": "https://dc.lft.to/lastmile_qr_scan", "android": "https://dc.lft.to/lastmile_qr_scan"}, "is_reserved": 0, "lon": -76.989276, "fusion_lat": 0.0, "name": "8510dcf6e18a84c22215d66567198f7f"}, {"type": "electric_scooter", "fusion_lon": 0.0, "bike_id": "01bed492a0c54beb9774c9af5ee410b4", "is_disabled": 0, "lat": 38.926619, "rental_uris": {"ios": "https://dc.lft.to/lastmile_qr_scan", "android": "https://dc.lft.to/lastmile_qr_scan"}, "is_reserved": 0, "lon": -77.037154, "fusion_lat": 0.0, "name": "01bed492a0c54beb9774c9af5ee410b4"}, {"type": "electric_scooter", "fusion_lon": 0.0, "bike_id": "b394c7cef3be83d9315bf0d6c7879a38", "is_disabled": 0, "lat": 38.943148666666666, "rental_uris": {"ios": "https://dc.lft.to/lastmile_qr_scan", "android": "https://dc.lft.to/lastmile_qr_scan"}, "is_reserved": 0, "lon": -77.06169583333333, "fusion_lat": 0.0, "name": "b394c7cef3be83d9315bf0d6c7879a38"}, {"type": "electric_scooter", "fusion_lon": 0.0, "bike_id": "86ab1d6605378ea91699e72a59cc9c8c", "is_disabled": 0, "lat": 38.90672816666667, "rental_uris": {"ios": "https://dc.lft.to/lastmile_qr_scan", "android": "https://dc.lft.to/lastmile_qr_scan"}, "is_reserved": 0, "lon": -77.02198266666667, "fusion_lat": 0.0, "name": "86ab1d6605378ea91699e72a59cc9c8c"}, {"type": "electric_scooter", "fusion_lon": 0.0, "bike_id": "0f85d4b960decde3f2772513b76902c1", "is_disabled": 0, "lat": 38.92394133333333, "rental_uris": {"ios": "https://dc.lft.to/lastmile_qr_scan", "android": "https://dc.lft.to/lastmile_qr_scan"}, "is_reserved": 0, "lon": -77.02968866666667, "fusion_lat": 0.0, "name": "0f85d4b960decde3f2772513b76902c1"}, {"type": "electric_scooter", "fusion_lon": 0.0, "bike_id": "177c8a16d6fa41dabbe5e87af8bcb341", "is_disabled": 0, "lat": 38.907955666666666, "rental_uris": {"ios": "https://dc.lft.to/lastmile_qr_scan", "android": "https://dc.lft.to/lastmile_qr_scan"}, "is_reserved": 0, "lon": -77.0004515, "fusion_lat": 0.0, "name": "177c8a16d6fa41dabbe5e87af8bcb341"}, {"type": "electric_scooter", "fusion_lon": 0.0, "bike_id": "cb8aa7d5d52edd0c4f9ac3114e81c2b4", "is_disabled": 0, "lat": 38.91265966666667, "rental_uris": {"ios": "https://dc.lft.to/lastmile_qr_scan", "android": "https://dc.lft.to/lastmile_qr_scan"}, "is_reserved": 0, "lon": -77.0083165, "fusion_lat": 0.0, "name": "cb8aa7d5d52edd0c4f9ac3114e81c2b4"}, {"type": "electric_scooter", "fusion_lon": 0.0, "bike_id": "1aed4ec901942275c101183ad70dd7b8", "is_disabled": 0, "lat": 38.950932, "rental_uris": {"ios": "https://dc.lft.to/lastmile_qr_scan", "android": "https://dc.lft.to/lastmile_qr_scan"}, "is_reserved": 0, "lon": -77.02801583333333, "fusion_lat": 0.0, "name": "1aed4ec901942275c101183ad70dd7b8"}, {"type": "electric_scooter", "fusion_lon": 0.0, "bike_id": "6006ed29e35821ac218a5dfae810e120", "is_disabled": 0, "lat": 38.91701183333333, "rental_uris": {"ios": "https://dc.lft.to/lastmile_qr_scan", "android": "https://dc.lft.to/lastmile_qr_scan"}, "is_reserved": 0, "lon": -77.01138033333334, "fusion_lat": 0.0, "name": "6006ed29e35821ac218a5dfae810e120"}, {"type": "electric_scooter", "fusion_lon": 0.0, "bike_id": "6f509c562deb88000cc13e9403dad8f5", "is_disabled": 0, "lat": 38.9242015, "rental_uris": {"ios": "https://dc.lft.to/lastmile_qr_scan", "android": "https://dc.lft.to/lastmile_qr_scan"}, "is_reserved": 0, "lon": -77.05756083333333, "fusion_lat": 0.0, "name": "6f509c562deb88000cc13e9403dad8f5"}, {"type": "electric_scooter", "fusion_lon": 0.0, "bike_id": "061daf49b9e9854c0ecd45aaa3219101", "is_disabled": 0, "lat": 38.910359666666665, "rental_uris": {"ios": "https://dc.lft.to/lastmile_qr_scan", "android": "https://dc.lft.to/lastmile_qr_scan"}, "is_reserved": 0, "lon": -77.02925566666667, "fusion_lat": 0.0, "name": "061daf49b9e9854c0ecd45aaa3219101"}, {"type": "electric_bike", "fusion_lon": 0.0, "bike_id": "1d5f071938a40fe618c29de9901eaf15", "is_disabled": 0, "lat": 38.8409615, "rental_uris": {"ios": "https://dc.lft.to/lastmile_qr_scan", "android": "https://dc.lft.to/lastmile_qr_scan"}, "is_reserved": 0, "lon": -77.089398, "fusion_lat": 0.0, "name": "1d5f071938a40fe618c29de9901eaf15"}, {"type": "electric_scooter", "fusion_lon": 0.0, "bike_id": "38e1450816c5a22346f10b7657adfd4d", "is_disabled": 0, "lat": 38.902638333333336, "rental_uris": {"ios": "https://dc.lft.to/lastmile_qr_scan", "android": "https://dc.lft.to/lastmile_qr_scan"}, "is_reserved": 0, "lon": -77.054039, "fusion_lat": 0.0, "name": "38e1450816c5a22346f10b7657adfd4d"}, {"type": "electric_scooter", "fusion_lon": 0.0, "bike_id": "931f98371c041628a851f98ef25a1647", "is_disabled": 0, "lat": 38.921860333333335, "rental_uris": {"ios": "https://dc.lft.to/lastmile_qr_scan", "android": "https://dc.lft.to/lastmile_qr_scan"}, "is_reserved": 0, "lon": -77.041838, "fusion_lat": 0.0, "name": "931f98371c041628a851f98ef25a1647"}, {"type": "electric_scooter", "fusion_lon": 0.0, "bike_id": "7326a7b3e2e9e0f4dcd3d8d950150345", "is_disabled": 0, "lat": 38.9225825, "rental_uris": {"ios": "https://dc.lft.to/lastmile_qr_scan", "android": "https://dc.lft.to/lastmile_qr_scan"}, "is_reserved": 0, "lon": -77.034011, "fusion_lat": 0.0, "name": "7326a7b3e2e9e0f4dcd3d8d950150345"}, {"type": "electric_scooter", "fusion_lon": 0.0, "bike_id": "973ebbc13179ef10998ffbdafdcd35ef", "is_disabled": 0, "lat": 38.916801166666666, "rental_uris": {"ios": "https://dc.lft.to/lastmile_qr_scan", "android": "https://dc.lft.to/lastmile_qr_scan"}, "is_reserved": 0, "lon": -76.98037466666666, "fusion_lat": 0.0, "name": "973ebbc13179ef10998ffbdafdcd35ef"}, {"type": "electric_scooter", "fusion_lon": 0.0, "bike_id": "40fcf34d079e59005b48f107c4d104d8", "is_disabled": 0, "lat": 38.92104033333333, "rental_uris": {"ios": "https://dc.lft.to/lastmile_qr_scan", "android": "https://dc.lft.to/lastmile_qr_scan"}, "is_reserved": 0, "lon": -77.01769216666666, "fusion_lat": 0.0, "name": "40fcf34d079e59005b48f107c4d104d8"}, {"type": "electric_scooter", "fusion_lon": 0.0, "bike_id": "aaaa984edcd75f91c999a568858e3148", "is_disabled": 0, "lat": 38.9347425, "rental_uris": {"ios": "https://dc.lft.to/lastmile_qr_scan", "android": "https://dc.lft.to/lastmile_qr_scan"}, "is_reserved": 0, "lon": -77.04109683333333, "fusion_lat": 0.0, "name": "aaaa984edcd75f91c999a568858e3148"}, {"type": "electric_scooter", "fusion_lon": 0.0, "bike_id": "901ee0bb4da50cc96d3eeabf8fe5c804", "is_disabled": 0, "lat": 38.9176895, "rental_uris": {"ios": "https://dc.lft.to/lastmile_qr_scan", "android": "https://dc.lft.to/lastmile_qr_scan"}, "is_reserved": 0, "lon": -77.0476165, "fusion_lat": 0.0, "name": "901ee0bb4da50cc96d3eeabf8fe5c804"}, {"type": "electric_scooter", "fusion_lon": 0.0, "bike_id": "3cf11487e793584b0097e165a08dbc8e", "is_disabled": 0, "lat": 38.92949383333333, "rental_uris": {"ios": "https://dc.lft.to/lastmile_qr_scan", "android": "https://dc.lft.to/lastmile_qr_scan"}, "is_reserved": 0, "lon": -77.01634633333333, "fusion_lat": 0.0, "name": "3cf11487e793584b0097e165a08dbc8e"}, {"type": "electric_scooter", "fusion_lon": 0.0, "bike_id": "c78e3c9933a0f10c00993411f42287db", "is_disabled": 0, "lat": 38.892268333333334, "rental_uris": {"ios": "https://dc.lft.to/lastmile_qr_scan", "android": "https://dc.lft.to/lastmile_qr_scan"}, "is_reserved": 0, "lon": -77.01397016666667, "fusion_lat": 0.0, "name": "c78e3c9933a0f10c00993411f42287db"}, {"type": "electric_bike", "fusion_lon": 0.0, "bike_id": "b742263b63ec88f58f2d783d7bc21464", "is_disabled": 0, "lat": 38.9447505, "rental_uris": {"ios": "https://dc.lft.to/lastmile_qr_scan", "android": "https://dc.lft.to/lastmile_qr_scan"}, "is_reserved": 0, "lon": -76.98689333333333, "fusion_lat": 0.0, "name": "b742263b63ec88f58f2d783d7bc21464"}, {"type": "electric_scooter", "fusion_lon": 0.0, "bike_id": "9bfe94d003b165729fafbf82ea182589", "is_disabled": 0, "lat": 38.91496516666667, "rental_uris": {"ios": "https://dc.lft.to/lastmile_qr_scan", "android": "https://dc.lft.to/lastmile_qr_scan"}, "is_reserved": 0, "lon": -77.01222333333334, "fusion_lat": 0.0, "name": "9bfe94d003b165729fafbf82ea182589"}, {"type": "electric_scooter", "fusion_lon": 0.0, "bike_id": "29f5c57a589184e7547204de1e5f0c8f", "is_disabled": 0, "lat": 38.906026, "rental_uris": {"ios": "https://dc.lft.to/lastmile_qr_scan", "android": "https://dc.lft.to/lastmile_qr_scan"}, "is_reserved": 0, "lon": -77.04341883333333, "fusion_lat": 0.0, "name": "29f5c57a589184e7547204de1e5f0c8f"}, {"type": "electric_scooter", "fusion_lon": 0.0, "bike_id": "acc92a984ac73ff9dedd2e24d5cfbe7a", "is_disabled": 0, "lat": 38.90564166666667, "rental_uris": {"ios": "https://dc.lft.to/lastmile_qr_scan", "android": "https://dc.lft.to/lastmile_qr_scan"}, "is_reserved": 0, "lon": -77.04749366666667, "fusion_lat": 0.0, "name": "acc92a984ac73ff9dedd2e24d5cfbe7a"}, {"type": "electric_scooter", "fusion_lon": 0.0, "bike_id": "4e938b643ab4b862ba0b0540a027e09b", "is_disabled": 0, "lat": 38.907103666666664, "rental_uris": {"ios": "https://dc.lft.to/lastmile_qr_scan", "android": "https://dc.lft.to/lastmile_qr_scan"}, "is_reserved": 0, "lon": -77.049656, "fusion_lat": 0.0, "name": "4e938b643ab4b862ba0b0540a027e09b"}, {"type": "electric_scooter", "fusion_lon": 0.0, "bike_id": "4f71b2dc770889a73d6389682605c859", "is_disabled": 0, "lat": 38.9051265, "rental_uris": {"ios": "https://dc.lft.to/lastmile_qr_scan", "android": "https://dc.lft.to/lastmile_qr_scan"}, "is_reserved": 0, "lon": -76.991832, "fusion_lat": 0.0, "name": "4f71b2dc770889a73d6389682605c859"}, {"type": "electric_scooter", "fusion_lon": 0.0, "bike_id": "25118478369568a93e7ef60ec847804b", "is_disabled": 0, "lat": 38.91040433333333, "rental_uris": {"ios": "https://dc.lft.to/lastmile_qr_scan", "android": "https://dc.lft.to/lastmile_qr_scan"}, "is_reserved": 0, "lon": -76.98572183333333, "fusion_lat": 0.0, "name": "25118478369568a93e7ef60ec847804b"}, {"type": "electric_scooter", "fusion_lon": 0.0, "bike_id": "940608d11d960020e476f118b7fba494", "is_disabled": 0, "lat": 38.91806966666667, "rental_uris": {"ios": "https://dc.lft.to/lastmile_qr_scan", "android": "https://dc.lft.to/lastmile_qr_scan"}, "is_reserved": 0, "lon": -77.03339033333333, "fusion_lat": 0.0, "name": "940608d11d960020e476f118b7fba494"}, {"type": "electric_scooter", "fusion_lon": 0.0, "bike_id": "d5e59e9aa6cda50234349614ba102112", "is_disabled": 0, "lat": 38.949202166666666, "rental_uris": {"ios": "https://dc.lft.to/lastmile_qr_scan", "android": "https://dc.lft.to/lastmile_qr_scan"}, "is_reserved": 0, "lon": -77.0232265, "fusion_lat": 0.0, "name": "d5e59e9aa6cda50234349614ba102112"}, {"type": "electric_scooter", "fusion_lon": 0.0, "bike_id": "533a8496cbd0bff4a9e2f6725d759d1a", "is_disabled": 0, "lat": 38.897942666666665, "rental_uris": {"ios": "https://dc.lft.to/lastmile_qr_scan", "android": "https://dc.lft.to/lastmile_qr_scan"}, "is_reserved": 0, "lon": -77.04186883333334, "fusion_lat": 0.0, "name": "533a8496cbd0bff4a9e2f6725d759d1a"}, {"type": "electric_scooter", "fusion_lon": 0.0, "bike_id": "d96f361f4192861e5485807862b1bbe6", "is_disabled": 0, "lat": 38.92642, "rental_uris": {"ios": "https://dc.lft.to/lastmile_qr_scan", "android": "https://dc.lft.to/lastmile_qr_scan"}, "is_reserved": 0, "lon": -77.03468816666667, "fusion_lat": 0.0, "name": "d96f361f4192861e5485807862b1bbe6"}, {"type": "electric_scooter", "fusion_lon": 0.0, "bike_id": "9246e6fc67cd27e0c681bf3a80be464e", "is_disabled": 0, "lat": 38.906977499999996, "rental_uris": {"ios": "https://dc.lft.to/lastmile_qr_scan", "android": "https://dc.lft.to/lastmile_qr_scan"}, "is_reserved": 0, "lon": -77.03568616666666, "fusion_lat": 0.0, "name": "9246e6fc67cd27e0c681bf3a80be464e"}, {"type": "electric_scooter", "fusion_lon": 0.0, "bike_id": "e88be8a1f6cdbd22cccb11e0960e4448", "is_disabled": 0, "lat": 38.8999535, "rental_uris": {"ios": "https://dc.lft.to/lastmile_qr_scan", "android": "https://dc.lft.to/lastmile_qr_scan"}, "is_reserved": 0, "lon": -77.02594383333333, "fusion_lat": 0.0, "name": "e88be8a1f6cdbd22cccb11e0960e4448"}, {"type": "electric_scooter", "fusion_lon": 0.0, "bike_id": "1052f770ba84d46fbb8fc8e6d0eac56a", "is_disabled": 0, "lat": 38.92681183333333, "rental_uris": {"ios": "https://dc.lft.to/lastmile_qr_scan", "android": "https://dc.lft.to/lastmile_qr_scan"}, "is_reserved": 0, "lon": -77.02251633333333, "fusion_lat": 0.0, "name": "1052f770ba84d46fbb8fc8e6d0eac56a"}, {"type": "electric_scooter", "fusion_lon": 0.0, "bike_id": "f2c64d86e39f60429337af6173af1fd9", "is_disabled": 0, "lat": 38.91197016666667, "rental_uris": {"ios": "https://dc.lft.to/lastmile_qr_scan", "android": "https://dc.lft.to/lastmile_qr_scan"}, "is_reserved": 0, "lon": -77.00195616666667, "fusion_lat": 0.0, "name": "f2c64d86e39f60429337af6173af1fd9"}, {"type": "electric_scooter", "fusion_lon": 0.0, "bike_id": "d3357a3d6c769c3aadeb4423ad55e68c", "is_disabled": 0, "lat": 38.9101785, "rental_uris": {"ios": "https://dc.lft.to/lastmile_qr_scan", "android": "https://dc.lft.to/lastmile_qr_scan"}, "is_reserved": 0, "lon": -77.03858683333333, "fusion_lat": 0.0, "name": "d3357a3d6c769c3aadeb4423ad55e68c"}, {"type": "electric_scooter", "fusion_lon": 0.0, "bike_id": "83f136c9486663fe8dcb1d5b60ccd315", "is_disabled": 0, "lat": 38.91274533333333, "rental_uris": {"ios": "https://dc.lft.to/lastmile_qr_scan", "android": "https://dc.lft.to/lastmile_qr_scan"}, "is_reserved": 0, "lon": -77.02964233333333, "fusion_lat": 0.0, "name": "83f136c9486663fe8dcb1d5b60ccd315"}, {"type": "electric_scooter", "fusion_lon": 0.0, "bike_id": "a783fa5cb24a085781f0d37844ff21da", "is_disabled": 0, "lat": 38.9356045, "rental_uris": {"ios": "https://dc.lft.to/lastmile_qr_scan", "android": "https://dc.lft.to/lastmile_qr_scan"}, "is_reserved": 0, "lon": -77.07459783333333, "fusion_lat": 0.0, "name": "a783fa5cb24a085781f0d37844ff21da"}, {"type": "electric_scooter", "fusion_lon": 0.0, "bike_id": "0acce98c0a3f67139b7da488a11dae62", "is_disabled": 0, "lat": 38.9213535, "rental_uris": {"ios": "https://dc.lft.to/lastmile_qr_scan", "android": "https://dc.lft.to/lastmile_qr_scan"}, "is_reserved": 0, "lon": -77.04138916666666, "fusion_lat": 0.0, "name": "0acce98c0a3f67139b7da488a11dae62"}, {"type": "electric_scooter", "fusion_lon": 0.0, "bike_id": "7ac8a48382e83b6c44da7de074091180", "is_disabled": 0, "lat": 38.887292333333335, "rental_uris": {"ios": "https://dc.lft.to/lastmile_qr_scan", "android": "https://dc.lft.to/lastmile_qr_scan"}, "is_reserved": 0, "lon": -76.98355216666667, "fusion_lat": 0.0, "name": "7ac8a48382e83b6c44da7de074091180"}, {"type": "electric_scooter", "fusion_lon": 0.0, "bike_id": "573f892d8cc7e19fa250155d81c9aa93", "is_disabled": 0, "lat": 38.892287333333336, "rental_uris": {"ios": "https://dc.lft.to/lastmile_qr_scan", "android": "https://dc.lft.to/lastmile_qr_scan"}, "is_reserved": 0, "lon": -77.0282545, "fusion_lat": 0.0, "name": "573f892d8cc7e19fa250155d81c9aa93"}, {"type": "electric_scooter", "fusion_lon": 0.0, "bike_id": "a28abfcf1193cbb059f6d39a4fff0e31", "is_disabled": 0, "lat": 38.929133, "rental_uris": {"ios": "https://dc.lft.to/lastmile_qr_scan", "android": "https://dc.lft.to/lastmile_qr_scan"}, "is_reserved": 0, "lon": -77.03265416666666, "fusion_lat": 0.0, "name": "a28abfcf1193cbb059f6d39a4fff0e31"}, {"type": "electric_scooter", "fusion_lon": 0.0, "bike_id": "82c30904ec170f37668ee63968727432", "is_disabled": 0, "lat": 38.8788845, "rental_uris": {"ios": "https://dc.lft.to/lastmile_qr_scan", "android": "https://dc.lft.to/lastmile_qr_scan"}, "is_reserved": 0, "lon": -76.9654715, "fusion_lat": 0.0, "name": "82c30904ec170f37668ee63968727432"}, {"type": "electric_scooter", "fusion_lon": 0.0, "bike_id": "7d17ee1403793517987925d265f28edd", "is_disabled": 0, "lat": 38.892070333333336, "rental_uris": {"ios": "https://dc.lft.to/lastmile_qr_scan", "android": "https://dc.lft.to/lastmile_qr_scan"}, "is_reserved": 0, "lon": -77.03169916666667, "fusion_lat": 0.0, "name": "7d17ee1403793517987925d265f28edd"}, {"type": "electric_scooter", "fusion_lon": 0.0, "bike_id": "0c3b4594e484feffba184110daaa766f", "is_disabled": 0, "lat": 38.892248, "rental_uris": {"ios": "https://dc.lft.to/lastmile_qr_scan", "android": "https://dc.lft.to/lastmile_qr_scan"}, "is_reserved": 0, "lon": -77.04686816666667, "fusion_lat": 0.0, "name": "0c3b4594e484feffba184110daaa766f"}, {"type": "electric_scooter", "fusion_lon": 0.0, "bike_id": "13e7d634310304e8a8f5df60f4c4a736", "is_disabled": 0, "lat": 38.90570316666667, "rental_uris": {"ios": "https://dc.lft.to/lastmile_qr_scan", "android": "https://dc.lft.to/lastmile_qr_scan"}, "is_reserved": 0, "lon": -77.01729133333333, "fusion_lat": 0.0, "name": "13e7d634310304e8a8f5df60f4c4a736"}, {"type": "electric_scooter", "fusion_lon": 0.0, "bike_id": "66a1be0bcbc46ce0a5a40b230790f224", "is_disabled": 0, "lat": 38.90146083333333, "rental_uris": {"ios": "https://dc.lft.to/lastmile_qr_scan", "android": "https://dc.lft.to/lastmile_qr_scan"}, "is_reserved": 0, "lon": -77.04034483333334, "fusion_lat": 0.0, "name": "66a1be0bcbc46ce0a5a40b230790f224"}, {"type": "electric_bike", "fusion_lon": 0.0, "bike_id": "759d9d7a617136a939ba95f397bcaf69", "is_disabled": 0, "lat": 38.831011833333335, "rental_uris": {"ios": "https://dc.lft.to/lastmile_qr_scan", "android": "https://dc.lft.to/lastmile_qr_scan"}, "is_reserved": 0, "lon": -76.99404016666666, "fusion_lat": 0.0, "name": "759d9d7a617136a939ba95f397bcaf69"}, {"type": "electric_scooter", "fusion_lon": 0.0, "bike_id": "5ccdf5b1e9d9202a1490580f26bc1775", "is_disabled": 0, "lat": 38.90767483333333, "rental_uris": {"ios": "https://dc.lft.to/lastmile_qr_scan", "android": "https://dc.lft.to/lastmile_qr_scan"}, "is_reserved": 0, "lon": -77.0374345, "fusion_lat": 0.0, "name": "5ccdf5b1e9d9202a1490580f26bc1775"}, {"type": "electric_scooter", "fusion_lon": 0.0, "bike_id": "a18a9b5bb287e91874e052af00e2c5b8", "is_disabled": 0, "lat": 38.92239816666667, "rental_uris": {"ios": "https://dc.lft.to/lastmile_qr_scan", "android": "https://dc.lft.to/lastmile_qr_scan"}, "is_reserved": 0, "lon": -77.04269266666667, "fusion_lat": 0.0, "name": "a18a9b5bb287e91874e052af00e2c5b8"}, {"type": "electric_scooter", "fusion_lon": 0.0, "bike_id": "5cb63f75a975af34e385ca6b34b4be66", "is_disabled": 0, "lat": 38.924859833333336, "rental_uris": {"ios": "https://dc.lft.to/lastmile_qr_scan", "android": "https://dc.lft.to/lastmile_qr_scan"}, "is_reserved": 0, "lon": -77.0255205, "fusion_lat": 0.0, "name": "5cb63f75a975af34e385ca6b34b4be66"}, {"type": "electric_scooter", "fusion_lon": 0.0, "bike_id": "d7d86177f830f289b6072d5ae97cff84", "is_disabled": 0, "lat": 38.920524, "rental_uris": {"ios": "https://dc.lft.to/lastmile_qr_scan", "android": "https://dc.lft.to/lastmile_qr_scan"}, "is_reserved": 0, "lon": -77.0339355, "fusion_lat": 0.0, "name": "d7d86177f830f289b6072d5ae97cff84"}, {"type": "electric_scooter", "fusion_lon": 0.0, "bike_id": "c556e7dbb577880e08513ae6d5410d14", "is_disabled": 0, "lat": 38.90866466666667, "rental_uris": {"ios": "https://dc.lft.to/lastmile_qr_scan", "android": "https://dc.lft.to/lastmile_qr_scan"}, "is_reserved": 0, "lon": -76.98497466666667, "fusion_lat": 0.0, "name": "c556e7dbb577880e08513ae6d5410d14"}, {"type": "electric_scooter", "fusion_lon": 0.0, "bike_id": "ebac8e1c09592acc43ef39d0b3ffaf5c", "is_disabled": 0, "lat": 38.926988, "rental_uris": {"ios": "https://dc.lft.to/lastmile_qr_scan", "android": "https://dc.lft.to/lastmile_qr_scan"}, "is_reserved": 0, "lon": -77.02092866666666, "fusion_lat": 0.0, "name": "ebac8e1c09592acc43ef39d0b3ffaf5c"}, {"type": "electric_scooter", "fusion_lon": 0.0, "bike_id": "bea4ab5108df67aa6ba0d95da210e079", "is_disabled": 0, "lat": 38.92607783333333, "rental_uris": {"ios": "https://dc.lft.to/lastmile_qr_scan", "android": "https://dc.lft.to/lastmile_qr_scan"}, "is_reserved": 0, "lon": -77.03219266666666, "fusion_lat": 0.0, "name": "bea4ab5108df67aa6ba0d95da210e079"}, {"type": "electric_scooter", "fusion_lon": 0.0, "bike_id": "406f0d4ed9c9d48ff3b37a32d5832a10", "is_disabled": 0, "lat": 38.91616533333333, "rental_uris": {"ios": "https://dc.lft.to/lastmile_qr_scan", "android": "https://dc.lft.to/lastmile_qr_scan"}, "is_reserved": 0, "lon": -77.03175383333334, "fusion_lat": 0.0, "name": "406f0d4ed9c9d48ff3b37a32d5832a10"}, {"type": "electric_scooter", "fusion_lon": 0.0, "bike_id": "cedfea85298914282d679d555990de2a", "is_disabled": 0, "lat": 38.9237565, "rental_uris": {"ios": "https://dc.lft.to/lastmile_qr_scan", "android": "https://dc.lft.to/lastmile_qr_scan"}, "is_reserved": 0, "lon": -77.01991266666667, "fusion_lat": 0.0, "name": "cedfea85298914282d679d555990de2a"}, {"type": "electric_scooter", "fusion_lon": 0.0, "bike_id": "407f551dcf5090ff9f1dd5aee6b7ac90", "is_disabled": 0, "lat": 38.8619865, "rental_uris": {"ios": "https://dc.lft.to/lastmile_qr_scan", "android": "https://dc.lft.to/lastmile_qr_scan"}, "is_reserved": 0, "lon": -76.995061, "fusion_lat": 0.0, "name": "407f551dcf5090ff9f1dd5aee6b7ac90"},