{"data": {"bikes": [{"bike_id": "993cb43e7f6e0aa5aefb0d9df5536d93", "type": "electric_bike", "is_disabled": 0, "lat": 38.83425666666667, "rental_uris": {"ios": "https://dc.lft.to/lastmile_qr_scan", "android": "https://dc.lft.to/lastmile_qr_scan"}, "is_reserved": 0, "fusion_lon": 0.0, "fusion_lat": 0.0, "lon": -77.05888316666666, "name": "993cb43e7f6e0aa5aefb0d9df5536d93"}, {"bike_id": "79af6a50fe3b3fa1f8f7e1e0058fc074", "type": "electric_scooter", "is_disabled": 0, "lat": 38.90086433333333, "rental_uris": {"ios": "https://dc.lft.to/lastmile_qr_scan", "android": "https://dc.lft.to/lastmile_qr_scan"}, "is_reserved": 0, "fusion_lon": 0.0, "fusion_lat": 0.0, "lon": -76.98334816666667, "name": "79af6a50fe3b3fa1f8f7e1e0058fc074"}, {"bike_id": "ad0389aaacef85bbbc62fefd24318306", "type": "electric_scooter", "is_disabled": 0, "lat": 38.893251, "rental_uris": {"ios": "https://dc.lft.to/lastmile_qr_scan", "android": "https://dc.lft.to/lastmile_qr_scan"}, "is_reserved": 0, "fusion_lon": 0.0, "fusion_lat": 0.0, "lon": -76.950496, "name": "ad0389aaacef85bbbc62fefd24318306"}, {"bike_id": "3aac8d9b4b57a53d9ecdd8e29a90effd", "type": "electric_scooter", "is_disabled": 0, "lat": 38.87383966666667, "rental_uris": {"ios": "https://dc.lft.to/lastmile_qr_scan", "android": "https://dc.lft.to/lastmile_qr_scan"}, "is_reserved": 0, "fusion_lon": 0.0, "fusion_lat": 0.0, "lon": -77.0433405, "name": "3aac8d9b4b57a53d9ecdd8e29a90effd"}, {"bike_id": "8e58d683358c0232ccfced2c711e7db6", "type": "electric_scooter", "is_disabled": 0, "lat": 38.90172533333333, "rental_uris": {"ios": "https://dc.lft.to/lastmile_qr_scan", "android": "https://dc.lft.to/lastmile_qr_scan"}, "is_reserved": 0, "fusion_lon": 0.0, "fusion_lat": 0.0, "lon": -77.0218155, "name": "8e58d683358c0232ccfced2c711e7db6"}, {"bike_id": "8f09aeab1e1ebd9ca75905b1cee924ef", "type": "electric_scooter", "is_disabled": 0, "lat": 38.9060905, "rental_uris": {"ios": "https://dc.lft.to/lastmile_qr_scan", "android": "https://dc.lft.to/lastmile_qr_scan"}, "is_reserved": 0, "fusion_lon": 0.0, "fusion_lat": 0.0, "lon": -77.0258095, "name": "8f09aeab1e1ebd9ca75905b1cee924ef"}, {"bike_id": "5d4b6db7d251544b365ad30cdfdbd4e0", "type": "electric_scooter", "is_disabled": 0, "lat": 38.90139883333333, "rental_uris": {"ios": "https://dc.lft.to/lastmile_qr_scan", "android": "https://dc.lft.to/lastmile_qr_scan"}, "is_reserved": 0, "fusion_lon": 0.0, "fusion_lat": 0.0, "lon": -77.06072866666666, "name": "5d4b6db7d251544b365ad30cdfdbd4e0"}, {"bike_id": "7c80bc7676c192203d0dae225ab63d03", "type": "electric_scooter", "is_disabled": 0, "lat": 38.91235833333333, "rental_uris": {"ios": "https://dc.lft.to/lastmile_qr_scan", "android": "https://dc.lft.to/lastmile_qr_scan"}, "is_reserved": 0, "fusion_lon": 0.0, "fusion_lat": 0.0, "lon": -77.03855533333333, "name": "7c80bc7676c192203d0dae225ab63d03"}, {"bike_id": "672f202ed9a61fdc3f41058a3e5cee20", "type": "electric_scooter", "is_disabled": 0, "lat": 38.928197833333336, "rental_uris": {"ios": "https://dc.lft.to/lastmile_qr_scan", "android": "https://dc.lft.to/lastmile_qr_scan"}, "is_reserved": 0, "fusion_lon": 0.0, "fusion_lat": 0.0, "lon": -77.02257516666667, "name": "672f202ed9a61fdc3f41058a3e5cee20"}, {"bike_id": "64074deedf0e1f7e70d2273d8cdcc052", "type": "electric_scooter", "is_disabled": 0, "lat": 38.919297, "rental_uris": {"ios": "https://dc.lft.to/lastmile_qr_scan", "android": "https://dc.lft.to/lastmile_qr_scan"}, "is_reserved": 0, "fusion_lon": 0.0, "fusion_lat": 0.0, "lon": -77.024315, "name": "64074deedf0e1f7e70d2273d8cdcc052"}, {"bike_id": "27fec0f9c3c472d266ad19f48d45a134", "type": "electric_scooter", "is_disabled": 0, "lat": 38.91137883333333, "rental_uris": {"ios": "https://dc.lft.to/lastmile_qr_scan", "android": "https://dc.lft.to/lastmile_qr_scan"}, "is_reserved": 0, "fusion_lon": 0.0, "fusion_lat": 0.0, "lon": -76.99011383333334, "name": "27fec0f9c3c472d266ad19f48d45a134"}, {"bike_id": "d71107df79772603f2624e396fd5eb12", "type": "electric_scooter", "is_disabled": 0, "lat": 38.9169685, "rental_uris": {"ios": "https://dc.lft.to/lastmile_qr_scan", "android": "https://dc.lft.to/lastmile_qr_scan"}, "is_reserved": 0, "fusion_lon": 0.0, "fusion_lat": 0.0, "lon": -77.031718, "name": "d71107df79772603f2624e396fd5eb12"}, {"bike_id": "c7a5f24f0db62b600c286734920a3087", "type": "electric_scooter", "is_disabled": 0, "lat": 38.875446333333336, "rental_uris": {"ios": "https://dc.lft.to/lastmile_qr_scan", "android": "https://dc.lft.to/lastmile_qr_scan"}, "is_reserved": 0, "fusion_lon": 0.0, "fusion_lat": 0.0, "lon": -77.00603883333333, "name": "c7a5f24f0db62b600c286734920a3087"}, {"bike_id": "d1d169bee9372130faf74d655c2052df", "type": "electric_scooter", "is_disabled": 0, "lat": 38.927708, "rental_uris": {"ios": "https://dc.lft.to/lastmile_qr_scan", "android": "https://dc.lft.to/lastmile_qr_scan"}, "is_reserved": 0, "fusion_lon": 0.0, "fusion_lat": 0.0, "lon": -77.02747516666666, "name": "d1d169bee9372130faf74d655c2052df"}, {"bike_id": "11d7cf1ae8a7be3a75cc8300306ef0c7", "type": "electric_bike", "is_disabled": 0, "lat": 38.93156783333333, "rental_uris": {"ios": "https://dc.lft.to/lastmile_qr_scan", "android": "https://dc.lft.to/lastmile_qr_scan"}, "is_reserved": 0, "fusion_lon": 0.0, "fusion_lat": 0.0, "lon": -77.00116383333334, "name": "11d7cf1ae8a7be3a75cc8300306ef0c7"}, {"bike_id": "6e87d9f56dbe4179614bb7d3cd3537e4", "type": "electric_scooter", "is_disabled": 0, "lat": 38.896123833333334, "rental_uris": {"ios": "https://dc.lft.to/lastmile_qr_scan", "android": "https://dc.lft.to/lastmile_qr_scan"}, "is_reserved": 0, "fusion_lon": 0.0, "fusion_lat": 0.0, "lon": -77.0447775, "name": "6e87d9f56dbe4179614bb7d3cd3537e4"}, {"bike_id": "7c548ef180aac2f85140499c34401225", "type": "electric_scooter", "is_disabled": 0, "lat": 38.923086833333336, "rental_uris": {"ios": "https://dc.lft.to/lastmile_qr_scan", "android": "https://dc.lft.to/lastmile_qr_scan"}, "is_reserved": 0, "fusion_lon": 0.0, "fusion_lat": 0.0, "lon": -77.02131316666667, "name": "7c548ef180aac2f85140499c34401225"}, {"bike_id": "55ab74fce5aca191cfe8e39cf6b2e119", "type": "electric_scooter", "is_disabled": 0, "lat": 38.895946333333335, "rental_uris": {"ios": "https://dc.lft.to/lastmile_qr_scan", "android": "https://dc.lft.to/lastmile_qr_scan"}, "is_reserved": 0, "fusion_lon": 0.0, "fusion_lat": 0.0, "lon": -77.02213933333333, "name": "55ab74fce5aca191cfe8e39cf6b2e119"}, {"bike_id": "5e6188d98bf30ccb4758b1f98da93b05", "type": "electric_scooter", "is_disabled": 0, "lat": 38.89829916666667, "rental_uris": {"ios": "https://dc.lft.to/lastmile_qr_scan", "android": "https://dc.lft.to/lastmile_qr_scan"}, "is_reserved": 0, "fusion_lon": 0.0, "fusion_lat": 0.0, "lon": -77.04830066666666, "name": "5e6188d98bf30ccb4758b1f98da93b05"}, {"bike_id": "3e4d86f023fd01ca313da0c7b844baf5", "type": "electric_scooter", "is_disabled": 0, "lat": 38.91774766666666, "rental_uris": {"ios": "https://dc.lft.to/lastmile_qr_scan", "android": "https://dc.lft.to/lastmile_qr_scan"}, "is_reserved": 0, "fusion_lon": 0.0, "fusion_lat": 0.0, "lon": -77.0230935, "name": "3e4d86f023fd01ca313da0c7b844baf5"}, {"bike_id": "c94b55a564b3a598dc7efaa817f0d781", "type": "electric_scooter", "is_disabled": 0, "lat": 38.87171933333333, "rental_uris": {"ios": "https://dc.lft.to/lastmile_qr_scan", "android": "https://dc.lft.to/lastmile_qr_scan"}, "is_reserved": 0, "fusion_lon": 0.0, "fusion_lat": 0.0, "lon": -77.0062625, "name": "c94b55a564b3a598dc7efaa817f0d781"}, {"bike_id": "cca756d4fc99727ac5b6d4b770f35abc", "type": "electric_bike", "is_disabled": 0, "lat": 38.8730155, "rental_uris": {"ios": "https://dc.lft.to/lastmile_qr_scan", "android": "https://dc.lft.to/lastmile_qr_scan"}, "is_reserved": 0, "fusion_lon": 0.0, "fusion_lat": 0.0, "lon": -77.1392005, "name": "cca756d4fc99727ac5b6d4b770f35abc"}, {"bike_id": "7fc4d420ca2645a3c85690fa49021bb3", "type": "electric_scooter", "is_disabled": 0, "lat": 38.9002405, "rental_uris": {"ios": "https://dc.lft.to/lastmile_qr_scan", "android": "https://dc.lft.to/lastmile_qr_scan"}, "is_reserved": 0, "fusion_lon": 0.0, "fusion_lat": 0.0, "lon": -77.00192383333334, "name": "7fc4d420ca2645a3c85690fa49021bb3"}, {"bike_id": "6aeb371842b4e22af6912216346c90b2", "type": "electric_scooter", "is_disabled": 0, "lat": 38.90230916666667, "rental_uris": {"ios": "https://dc.lft.to/lastmile_qr_scan", "android": "https://dc.lft.to/lastmile_qr_scan"}, "is_reserved": 0, "fusion_lon": 0.0, "fusion_lat": 0.0, "lon": -77.01757983333333, "name": "6aeb371842b4e22af6912216346c90b2"}, {"bike_id": "94aff89d6535e44ebacef86d22505272", "type": "electric_scooter", "is_disabled": 0, "lat": 38.949202666666665, "rental_uris": {"ios": "https://dc.lft.to/lastmile_qr_scan", "android": "https://dc.lft.to/lastmile_qr_scan"}, "is_reserved": 0, "fusion_lon": 0.0, "fusion_lat": 0.0, "lon": -77.01855483333334, "name": "94aff89d6535e44ebacef86d22505272"}, {"bike_id": "f2dde04bf41c73ffb175dec6cc4d6c86", "type": "electric_scooter", "is_disabled": 0, "lat": 38.909949, "rental_uris": {"ios": "https://dc.lft.to/lastmile_qr_scan", "android": "https://dc.lft.to/lastmile_qr_scan"}, "is_reserved": 0, "fusion_lon": 0.0, "fusion_lat": 0.0, "lon": -77.04158633333333, "name": "f2dde04bf41c73ffb175dec6cc4d6c86"}, {"bike_id": "74f86cd9b9b1033d42de48b628bb3076", "type": "electric_scooter", "is_disabled": 0, "lat": 38.892383833333334, "rental_uris": {"ios": "https://dc.lft.to/lastmile_qr_scan", "android": "https://dc.lft.to/lastmile_qr_scan"}, "is_reserved": 0, "fusion_lon": 0.0, "fusion_lat": 0.0, "lon": -77.0450145, "name": "74f86cd9b9b1033d42de48b628bb3076"}, {"bike_id": "4c9e1211e533f6dfdba9ca68b1bccf73", "type": "electric_scooter", "is_disabled": 0, "lat": 38.92081783333333, "rental_uris": {"ios": "https://dc.lft.to/lastmile_qr_scan", "android": "https://dc.lft.to/lastmile_qr_scan"}, "is_reserved": 0, "fusion_lon": 0.0, "fusion_lat": 0.0, "lon": -77.02301866666667, "name": "4c9e1211e533f6dfdba9ca68b1bccf73"}, {"bike_id": "481030f4deb4a118cf072f464c0b0c9c", "type": "electric_scooter", "is_disabled": 0, "lat": 38.9012375, "rental_uris": {"ios": "https://dc.lft.to/lastmile_qr_scan", "android": "https://dc.lft.to/lastmile_qr_scan"}, "is_reserved": 0, "fusion_lon": 0.0, "fusion_lat": 0.0, "lon": -77.01818266666666, "name": "481030f4deb4a118cf072f464c0b0c9c"}, {"bike_id": "91adc36914c459e6c18c3fd025fd3511", "type": "electric_scooter", "is_disabled": 0, "lat": 38.923167, "rental_uris": {"ios": "https://dc.lft.to/lastmile_qr_scan", "android": "https://dc.lft.to/lastmile_qr_scan"}, "is_reserved": 0, "fusion_lon": 0.0, "fusion_lat": 0.0, "lon": -77.03758583333334, "name": "91adc36914c459e6c18c3fd025fd3511"}, {"bike_id": "d6b4b48bab6f85e3a6709bcf8449e3b3", "type": "electric_scooter", "is_disabled": 0, "lat": 38.93076583333333, "rental_uris": {"ios": "https://dc.lft.to/lastmile_qr_scan", "android": "https://dc.lft.to/lastmile_qr_scan"}, "is_reserved": 0, "fusion_lon": 0.0, "fusion_lat": 0.0, "lon": -77.02794883333334, "name": "d6b4b48bab6f85e3a6709bcf8449e3b3"}, {"bike_id": "363228994578ed64581f187608311107", "type": "electric_scooter", "is_disabled": 0, "lat": 38.915603, "rental_uris": {"ios": "https://dc.lft.to/lastmile_qr_scan", "android": "https://dc.lft.to/lastmile_qr_scan"}, "is_reserved": 0, "fusion_lon": 0.0, "fusion_lat": 0.0, "lon": -77.01038933333334, "name": "363228994578ed64581f187608311107"}, {"bike_id": "c951193bbd5165fc806b39d0910523ac", "type": "electric_scooter", "is_disabled": 0, "lat": 38.915033333333334, "rental_uris": {"ios": "https://dc.lft.to/lastmile_qr_scan", "android": "https://dc.lft.to/lastmile_qr_scan"}, "is_reserved": 0, "fusion_lon": 0.0, "fusion_lat": 0.0, "lon": -77.01776783333334, "name": "c951193bbd5165fc806b39d0910523ac"}, {"bike_id": "64800feffaf32db8ace03198d5adc4a8", "type": "electric_scooter", "is_disabled": 0, "lat": 38.91552316666667, "rental_uris": {"ios": "https://dc.lft.to/lastmile_qr_scan", "android": "https://dc.lft.to/lastmile_qr_scan"}, "is_reserved": 0, "fusion_lon": 0.0, "fusion_lat": 0.0, "lon": -77.01232816666666, "name": "64800feffaf32db8ace03198d5adc4a8"}, {"bike_id": "977e6703039f397cabec598794aa3ef5", "type": "electric_scooter", "is_disabled": 0, "lat": 38.90230716666667, "rental_uris": {"ios": "https://dc.lft.to/lastmile_qr_scan", "android": "https://dc.lft.to/lastmile_qr_scan"}, "is_reserved": 0, "fusion_lon": 0.0, "fusion_lat": 0.0, "lon": -77.0325565, "name": "977e6703039f397cabec598794aa3ef5"}, {"bike_id": "0438f8a7ff184e0b0b5c467590d99eb8", "type": "electric_scooter", "is_disabled": 0, "lat": 38.912818, "rental_uris": {"ios": "https://dc.lft.to/lastmile_qr_scan", "android": "https://dc.lft.to/lastmile_qr_scan"}, "is_reserved": 0, "fusion_lon": 0.0, "fusion_lat": 0.0, "lon": -77.03208566666666, "name": "0438f8a7ff184e0b0b5c467590d99eb8"}, {"bike_id": "906d4b2576e4fc0ea3ca9978d160c91b", "type": "electric_scooter", "is_disabled": 0, "lat": 38.90951583333333, "rental_uris": {"ios": "https://dc.lft.to/lastmile_qr_scan", "android": "https://dc.lft.to/lastmile_qr_scan"}, "is_reserved": 0, "fusion_lon": 0.0, "fusion_lat": 0.0, "lon": -77.048691, "name": "906d4b2576e4fc0ea3ca9978d160c91b"}, {"bike_id": "8d2e1d699d5f8058a68b335be0df69ba", "type": "electric_bike", "is_disabled": 0, "lat": 38.91548266666667, "rental_uris": {"ios": "https://dc.lft.to/lastmile_qr_scan", "android": "https://dc.lft.to/lastmile_qr_scan"}, "is_reserved": 0, "fusion_lon": 0.0, "fusion_lat": 0.0, "lon": -77.06670716666666, "name": "8d2e1d699d5f8058a68b335be0df69ba"}, {"bike_id": "0028440575d0dc67aea6e7d6211a47af", "type": "electric_scooter", "is_disabled": 0, "lat": 38.91189516666667, "rental_uris": {"ios": "https://dc.lft.to/lastmile_qr_scan", "android": "https://dc.lft.to/lastmile_qr_scan"}, "is_reserved": 0, "fusion_lon": 0.0, "fusion_lat": 0.0, "lon": -77.03832516666667, "name": "0028440575d0dc67aea6e7d6211a47af"}, {"bike_id": "4fb50283a67c7d913a314223ffb5a9e2", "type": "electric_scooter", "is_disabled": 0, "lat": 38.897136833333334, "rental_uris": {"ios": "https://dc.lft.to/lastmile_qr_scan", "android": "https://dc.lft.to/lastmile_qr_scan"}, "is_reserved": 0, "fusion_lon": 0.0, "fusion_lat": 0.0, "lon": -76.9883615, "name": "4fb50283a67c7d913a314223ffb5a9e2"}, {"bike_id": "d280851582f6c522ea3554c95930b6c8", "type": "electric_scooter", "is_disabled": 0, "lat": 38.85838666666667, "rental_uris": {"ios": "https://dc.lft.to/lastmile_qr_scan", "android": "https://dc.lft.to/lastmile_qr_scan"}, "is_reserved": 0, "fusion_lon": 0.0, "fusion_lat": 0.0, "lon": -76.987327, "name": "d280851582f6c522ea3554c95930b6c8"}, {"bike_id": "90a521bfe5ad1276674e65ea7c7a4e0f", "type": "electric_scooter", "is_disabled": 0, "lat": 38.906066, "rental_uris": {"ios": "https://dc.lft.to/lastmile_qr_scan", "android": "https://dc.lft.to/lastmile_qr_scan"}, "is_reserved": 0, "fusion_lon": 0.0, "fusion_lat": 0.0, "lon": -77.0399755, "name": "90a521bfe5ad1276674e65ea7c7a4e0f"}, {"bike_id": "8447199ebdf5e4f1addd744b4f91d024", "type": "electric_scooter", "is_disabled": 0, "lat": 38.93473066666667, "rental_uris": {"ios": "https://dc.lft.to/lastmile_qr_scan", "android": "https://dc.lft.to/lastmile_qr_scan"}, "is_reserved": 0, "fusion_lon": 0.0, "fusion_lat": 0.0, "lon": -77.07268883333333, "name": "8447199ebdf5e4f1addd744b4f91d024"}, {"bike_id": "73e93021af04e1dbfecb0c50e8bdd9b4", "type": "electric_scooter", "is_disabled": 0, "lat": 38.9463025, "rental_uris": {"ios": "https://dc.lft.to/lastmile_qr_scan", "android": "https://dc.lft.to/lastmile_qr_scan"}, "is_reserved": 0, "fusion_lon": 0.0, "fusion_lat": 0.0, "lon": -77.01848133333333, "name": "73e93021af04e1dbfecb0c50e8bdd9b4"}, {"bike_id": "4f9c2ae7ae045043adbf476216b7efb4", "type": "electric_scooter", "is_disabled": 0, "lat": 38.89508583333333, "rental_uris": {"ios": "https://dc.lft.to/lastmile_qr_scan", "android": "https://dc.lft.to/lastmile_qr_scan"}, "is_reserved": 0, "fusion_lon": 0.0, "fusion_lat": 0.0, "lon": -77.0227465, "name": "4f9c2ae7ae045043adbf476216b7efb4"}, {"bike_id": "47a79ad2477da6358b26868bdfdd873f", "type": "electric_scooter", "is_disabled": 0, "lat": 38.917973, "rental_uris": {"ios": "https://dc.lft.to/lastmile_qr_scan", "android": "https://dc.lft.to/lastmile_qr_scan"}, "is_reserved": 0, "fusion_lon": 0.0, "fusion_lat": 0.0, "lon": -77.02698566666666, "name": "47a79ad2477da6358b26868bdfdd873f"}, {"bike_id": "edeb33ae33ab00c58ab053c726aef00a", "type": "electric_scooter", "is_disabled": 0, "lat": 38.933384333333336, "rental_uris": {"ios": "https://dc.lft.to/lastmile_qr_scan", "android": "https://dc.lft.to/lastmile_qr_scan"}, "is_reserved": 0, "fusion_lon": 0.0, "fusion_lat": 0.0, "lon": -77.062015, "name": "edeb33ae33ab00c58ab053c726aef00a"}, {"bike_id": "879665acbd51ce7896f9fffc61377684", "type": "electric_scooter", "is_disabled": 0, "lat": 38.92406183333333, "rental_uris": {"ios": "https://dc.lft.to/lastmile_qr_scan", "android": "https://dc.lft.to/lastmile_qr_scan"}, "is_reserved": 0, "fusion_lon": 0.0, "fusion_lat": 0.0, "lon": -77.0254275, "name": "879665acbd51ce7896f9fffc61377684"}, {"bike_id": "508acf65c1067d34652a44e33789b20b", "type": "electric_scooter", "is_disabled": 0, "lat": 38.894787666666666, "rental_uris": {"ios": "https://dc.lft.to/lastmile_qr_scan", "android": "https://dc.lft.to/lastmile_qr_scan"}, "is_reserved": 0, "fusion_lon": 0.0, "fusion_lat": 0.0, "lon": -76.99519, "name": "508acf65c1067d34652a44e33789b20b"}, {"bike_id": "7ba398fca759cc56e1e2fd7222ca813d", "type": "electric_scooter", "is_disabled": 0, "lat": 38.915493833333336, "rental_uris": {"ios": "https://dc.lft.to/lastmile_qr_scan", "android": "https://dc.lft.to/lastmile_qr_scan"}, "is_reserved": 0, "fusion_lon": 0.0, "fusion_lat": 0.0, "lon": -77.03852783333333, "name": "7ba398fca759cc56e1e2fd7222ca813d"}, {"bike_id": "b21a16f0484c15e1348c8a5fdf32bb70", "type": "electric_scooter", "is_disabled": 0, "lat": 38.86695983333333, "rental_uris": {"ios": "https://dc.lft.to/lastmile_qr_scan", "android": "https://dc.lft.to/lastmile_qr_scan"}, "is_reserved": 0, "fusion_lon": 0.0, "fusion_lat": 0.0, "lon": -76.98716783333333, "name": "b21a16f0484c15e1348c8a5fdf32bb70"}, {"bike_id": "f886f59fe0178857bd0222685296c9dd", "type": "electric_bike", "is_disabled": 0, "lat": 38.94121716666667, "rental_uris": {"ios": "https://dc.lft.to/lastmile_qr_scan", "android": "https://dc.lft.to/lastmile_qr_scan"}, "is_reserved": 0, "fusion_lon": 0.0, "fusion_lat": 0.0, "lon": -77.000701, "name": "f886f59fe0178857bd0222685296c9dd"}, {"bike_id": "3a9c3095329d5357c1f5cd678073cce8", "type": "electric_scooter", "is_disabled": 0, "lat": 38.8576225, "rental_uris": {"ios": "https://dc.lft.to/lastmile_qr_scan", "android": "https://dc.lft.to/lastmile_qr_scan"}, "is_reserved": 0, "fusion_lon": 0.0, "fusion_lat": 0.0, "lon": -76.99294766666667, "name": "3a9c3095329d5357c1f5cd678073cce8"}, {"bike_id": "48bd18b13dfd6249fbe07b1cf757e735", "type": "electric_scooter", "is_disabled": 0, "lat": 38.92389466666667, "rental_uris": {"ios": "https://dc.lft.to/lastmile_qr_scan", "android": "https://dc.lft.to/lastmile_qr_scan"}, "is_reserved": 0, "fusion_lon": 0.0, "fusion_lat": 0.0, "lon": -77.040623, "name": "48bd18b13dfd6249fbe07b1cf757e735"}, {"bike_id": "0a295125bcba44a82552d548508a3e1e", "type": "electric_scooter", "is_disabled": 0, "lat": 38.931067, "rental_uris": {"ios": "https://dc.lft.to/lastmile_qr_scan", "android": "https://dc.lft.to/lastmile_qr_scan"}, "is_reserved": 0, "fusion_lon": 0.0, "fusion_lat": 0.0, "lon": -77.03025433333333, "name": "0a295125bcba44a82552d548508a3e1e"}, {"bike_id": "c9a8cb1ca52e3993ac916832f719e713", "type": "electric_scooter", "is_disabled": 0, "lat": 38.93511383333333, "rental_uris": {"ios": "https://dc.lft.to/lastmile_qr_scan", "android": "https://dc.lft.to/lastmile_qr_scan"}, "is_reserved": 0, "fusion_lon": 0.0, "fusion_lat": 0.0, "lon": -77.03286416666667, "name": "c9a8cb1ca52e3993ac916832f719e713"}, {"bike_id": "584d3c8a4206c8a2d1a4d5fa3605063b", "type": "electric_scooter", "is_disabled": 0, "lat": 38.917038833333336, "rental_uris": {"ios": "https://dc.lft.to/lastmile_qr_scan", "android": "https://dc.lft.to/lastmile_qr_scan"}, "is_reserved": 0, "fusion_lon": 0.0, "fusion_lat": 0.0, "lon": -77.02997366666666, "name": "584d3c8a4206c8a2d1a4d5fa3605063b"}, {"bike_id": "10eee7904738d542a805687b04ece2e2", "type": "electric_scooter", "is_disabled": 0, "lat": 38.905413333333335, "rental_uris": {"ios": "https://dc.lft.to/lastmile_qr_scan", "android": "https://dc.lft.to/lastmile_qr_scan"}, "is_reserved": 0, "fusion_lon": 0.0, "fusion_lat": 0.0, "lon": -76.98619566666666, "name": "10eee7904738d542a805687b04ece2e2"}, {"bike_id": "20a88f7d8970b3249d008b86d5f5ef62", "type": "electric_scooter", "is_disabled": 0, "lat": 38.92611216666667, "rental_uris": {"ios": "https://dc.lft.to/lastmile_qr_scan", "android": "https://dc.lft.to/lastmile_qr_scan"}, "is_reserved": 0, "fusion_lon": 0.0, "fusion_lat": 0.0, "lon": -77.02161133333334, "name": "20a88f7d8970b3249d008b86d5f5ef62"}, {"bike_id": "1b44ad7690ed9b6be02500a89f3dc420", "type": "electric_scooter", "is_disabled": 0, "lat": 38.905264, "rental_uris": {"ios": "https://dc.lft.to/lastmile_qr_scan", "android": "https://dc.lft.to/lastmile_qr_scan"}, "is_reserved": 0, "fusion_lon": 0.0, "fusion_lat": 0.0, "lon": -77.00638433333333, "name": "1b44ad7690ed9b6be02500a89f3dc420"}, {"bike_id": "f90645126ebc2a3e77c578aa98ce149f", "type": "electric_scooter", "is_disabled": 0, "lat": 38.90035366666667, "rental_uris": {"ios": "https://dc.lft.to/lastmile_qr_scan", "android": "https://dc.lft.to/lastmile_qr_scan"}, "is_reserved": 0, "fusion_lon": 0.0, "fusion_lat": 0.0, "lon": -76.99147966666666, "name": "f90645126ebc2a3e77c578aa98ce149f"}, {"bike_id": "1cc95105fb9232497673ed642de79aaa", "type": "electric_scooter", "is_disabled": 0, "lat": 38.8972725, "rental_uris": {"ios": "https://dc.lft.to/lastmile_qr_scan", "android": "https://dc.lft.to/lastmile_qr_scan"}, "is_reserved": 0, "fusion_lon": 0.0, "fusion_lat": 0.0, "lon": -77.02695, "name": "1cc95105fb9232497673ed642de79aaa"}, {"bike_id": "c4122f4404e5dfcd8947f4176961a31e", "type": "electric_scooter", "is_disabled": 0, "lat": 38.9086925, "rental_uris": {"ios": "https://dc.lft.to/lastmile_qr_scan", "android": "https://dc.lft.to/lastmile_qr_scan"}, "is_reserved": 0, "fusion_lon": 0.0, "fusion_lat": 0.0, "lon": -76.9978745, "name": "c4122f4404e5dfcd8947f4176961a31e"}, {"bike_id": "1c8e6ef38f2b4ddf3b170ba7e9f15230", "type": "electric_scooter", "is_disabled": 0, "lat": 38.91805566666667, "rental_uris": {"ios": "https://dc.lft.to/lastmile_qr_scan", "android": "https://dc.lft.to/lastmile_qr_scan"}, "is_reserved": 0, "fusion_lon": 0.0, "fusion_lat": 0.0, "lon": -77.00935483333333, "name": "1c8e6ef38f2b4ddf3b170ba7e9f15230"}, {"bike_id": "21b311f063275a7fcc07f0e3a8c5b600", "type": "electric_scooter", "is_disabled": 0, "lat": 38.892164, "rental_uris": {"ios": "https://dc.lft.to/lastmile_qr_scan", "android": "https://dc.lft.to/lastmile_qr_scan"}, "is_reserved": 0, "fusion_lon": 0.0, "fusion_lat": 0.0, "lon": -77.02231683333333, "name": "21b311f063275a7fcc07f0e3a8c5b600"}, {"bike_id": "67732d837a44a21c840226d32f1510b2", "type": "electric_scooter", "is_disabled": 0, "lat": 38.838288, "rental_uris": {"ios": "https://dc.lft.to/lastmile_qr_scan", "android": "https://dc.lft.to/lastmile_qr_scan"}, "is_reserved": 0, "fusion_lon": 0.0, "fusion_lat": 0.0, "lon": -77.0026945, "name": "67732d837a44a21c840226d32f1510b2"}, {"bike_id": "4a615243cb4bc6ce6867406ad49e48f0", "type": "electric_scooter", "is_disabled": 0, "lat": 38.896567, "rental_uris": {"ios": "https://dc.lft.to/lastmile_qr_scan", "android": "https://dc.lft.to/lastmile_qr_scan"}, "is_reserved": 0, "fusion_lon": 0.0, "fusion_lat": 0.0, "lon": -77.02383716666667, "name": "4a615243cb4bc6ce6867406ad49e48f0"}, {"bike_id": "af46a4d9d9dee3d0b66eb2508cfa8937", "type": "electric_scooter", "is_disabled": 0, "lat": 38.9346115, "rental_uris": {"ios": "https://dc.lft.to/lastmile_qr_scan", "android": "https://dc.lft.to/lastmile_qr_scan"}, "is_reserved": 0, "fusion_lon": 0.0, "fusion_lat": 0.0, "lon": -77.0307515, "name": "af46a4d9d9dee3d0b66eb2508cfa8937"}, {"bike_id": "a6ddfe21f56ea1a549dcf72e2e623fc1", "type": "electric_scooter", "is_disabled": 0, "lat": 38.90975566666667, "rental_uris": {"ios": "https://dc.lft.to/lastmile_qr_scan", "android": "https://dc.lft.to/lastmile_qr_scan"}, "is_reserved": 0, "fusion_lon": 0.0, "fusion_lat": 0.0, "lon": -77.0384555, "name": "a6ddfe21f56ea1a549dcf72e2e623fc1"}, {"bike_id": "0f19fbb54494b22165951586f1607826", "type": "electric_scooter", "is_disabled": 0, "lat": 38.91413883333333, "rental_uris": {"ios": "https://dc.lft.to/lastmile_qr_scan", "android": "https://dc.lft.to/lastmile_qr_scan"}, "is_reserved": 0, "fusion_lon": 0.0, "fusion_lat": 0.0, "lon": -77.012342, "name": "0f19fbb54494b22165951586f1607826"}, {"bike_id": "bfcf703fabb74bc6c3f1350d6fad89f6", "type": "electric_scooter", "is_disabled": 0, "lat": 38.910061, "rental_uris": {"ios": "https://dc.lft.to/lastmile_qr_scan", "android": "https://dc.lft.to/lastmile_qr_scan"}, "is_reserved": 0, "fusion_lon": 0.0, "fusion_lat": 0.0, "lon": -77.03187433333333, "name": "bfcf703fabb74bc6c3f1350d6fad89f6"}, {"bike_id": "9e9b8b3946c4201ba4b775949fec929c", "type": "electric_scooter", "is_disabled": 0, "lat": 38.8872795, "rental_uris": {"ios": "https://dc.lft.to/lastmile_qr_scan", "android": "https://dc.lft.to/lastmile_qr_scan"}, "is_reserved": 0, "fusion_lon": 0.0, "fusion_lat": 0.0, "lon": -77.02838466666667, "name": "9e9b8b3946c4201ba4b775949fec929c"}, {"bike_id": "0f02a4acd195a73a18bbc07c206c4195", "type": "electric_scooter", "is_disabled": 0, "lat": 38.8995435, "rental_uris": {"ios": "https://dc.lft.to/lastmile_qr_scan", "android": "https://dc.lft.to/lastmile_qr_scan"}, "is_reserved": 0, "fusion_lon": 0.0, "fusion_lat": 0.0, "lon": -77.0160865, "name": "0f02a4acd195a73a18bbc07c206c4195"}, {"bike_id": "dc68983a41d898c4f1cb6fe50ecfea1d", "type": "electric_scooter", "is_disabled": 0, "lat": 38.91999216666667, "rental_uris": {"ios": "https://dc.lft.to/lastmile_qr_scan", "android": "https://dc.lft.to/lastmile_qr_scan"}, "is_reserved": 0, "fusion_lon": 0.0, "fusion_lat": 0.0, "lon": -77.02371216666667, "name": "dc68983a41d898c4f1cb6fe50ecfea1d"}, {"bike_id": "dcdfb2873f007634a485d98f1ca5258e", "type": "electric_scooter", "is_disabled": 0, "lat": 38.92160066666667, "rental_uris": {"ios": "https://dc.lft.to/lastmile_qr_scan", "android": "https://dc.lft.to/lastmile_qr_scan"}, "is_reserved": 0, "fusion_lon": 0.0, "fusion_lat": 0.0, "lon": -77.03319683333334, "name": "dcdfb2873f007634a485d98f1ca5258e"}, {"bike_id": "0590586afb7d73f3a16ed81af7d08209", "type": "electric_scooter", "is_disabled": 0, "lat": 38.916938333333334, "rental_uris": {"ios": "https://dc.lft.to/lastmile_qr_scan", "android": "https://dc.lft.to/lastmile_qr_scan"}, "is_reserved": 0, "fusion_lon": 0.0, "fusion_lat": 0.0, "lon": -77.04112183333334, "name": "0590586afb7d73f3a16ed81af7d08209"}, {"bike_id": "ac44cf595d7ca0755ce476ac22797127", "type": "electric_scooter", "is_disabled": 0, "lat": 38.899385333333335, "rental_uris": {"ios": "https://dc.lft.to/lastmile_qr_scan", "android": "https://dc.lft.to/lastmile_qr_scan"}, "is_reserved": 0, "fusion_lon": 0.0, "fusion_lat": 0.0, "lon": -77.01452766666667, "name": "ac44cf595d7ca0755ce476ac22797127"}, {"bike_id": "3a7a8988b2a2dfc5f643efabd32033d1", "type": "electric_scooter", "is_disabled": 0, "lat": 38.90270866666667, "rental_uris": {"ios": "https://dc.lft.to/lastmile_qr_scan", "android": "https://dc.lft.to/lastmile_qr_scan"}, "is_reserved": 0, "fusion_lon": 0.0, "fusion_lat": 0.0, "lon": -77.0179355, "name": "3a7a8988b2a2dfc5f643efabd32033d1"}, {"bike_id": "bcc124927877cec01a921ab3844eeb3c", "type": "electric_scooter", "is_disabled": 0, "lat": 38.922381333333334, "rental_uris": {"ios": "https://dc.lft.to/lastmile_qr_scan", "android": "https://dc.lft.to/lastmile_qr_scan"}, "is_reserved": 0, "fusion_lon": 0.0, "fusion_lat": 0.0, "lon": -77.02984933333333, "name": "bcc124927877cec01a921ab3844eeb3c"}, {"bike_id": "677b79e5d9dd8acfe48f0d30b17c6892", "type": "electric_scooter", "is_disabled": 0, "lat": 38.92597816666667, "rental_uris": {"ios": "https://dc.lft.to/lastmile_qr_scan", "android": "https://dc.lft.to/lastmile_qr_scan"}, "is_reserved": 0, "fusion_lon": 0.0, "fusion_lat": 0.0, "lon": -77.05704216666666, "name": "677b79e5d9dd8acfe48f0d30b17c6892"}, {"bike_id": "8663a5496aec5e82e17c228ee3c974c0", "type": "electric_scooter", "is_disabled": 0, "lat": 38.895431, "rental_uris": {"ios": "https://dc.lft.to/lastmile_qr_scan", "android": "https://dc.lft.to/lastmile_qr_scan"}, "is_reserved": 0, "fusion_lon": 0.0, "fusion_lat": 0.0, "lon": -77.0282365, "name": "8663a5496aec5e82e17c228ee3c974c0"}, {"bike_id": "c5edd9dfeed43b1e509b17aa514ec410", "type": "electric_scooter", "is_disabled": 0, "lat": 38.90669183333333, "rental_uris": {"ios": "https://dc.lft.to/lastmile_qr_scan", "android": "https://dc.lft.to/lastmile_qr_scan"}, "is_reserved": 0, "fusion_lon": 0.0, "fusion_lat": 0.0, "lon": -77.02710883333333, "name": "c5edd9dfeed43b1e509b17aa514ec410"}, {"bike_id": "18704e8155c389ad1358daec736bb9c7", "type": "electric_scooter", "is_disabled": 0, "lat": 38.914209, "rental_uris": {"ios": "https://dc.lft.to/lastmile_qr_scan", "android": "https://dc.lft.to/lastmile_qr_scan"}, "is_reserved": 0, "fusion_lon": 0.0, "fusion_lat": 0.0, "lon": -77.01982516666666, "name": "18704e8155c389ad1358daec736bb9c7"}, {"bike_id": "af13148e8581b3e39b7b055e34858cee", "type": "electric_bike", "is_disabled": 0, "lat": 38.836055, "rental_uris": {"ios": "https://dc.lft.to/lastmile_qr_scan", "android": "https://dc.lft.to/lastmile_qr_scan"}, "is_reserved": 0, "fusion_lon": 0.0, "fusion_lat": 0.0, "lon": -77.0038095, "name": "af13148e8581b3e39b7b055e34858cee"}, {"bike_id": "c4d3688c8ace97d9d8ad9388ce9211b9", "type": "electric_scooter", "is_disabled": 0, "lat": 38.8959695, "rental_uris": {"ios": "https://dc.lft.to/lastmile_qr_scan", "android": "https://dc.lft.to/lastmile_qr_scan"}, "is_reserved": 0, "fusion_lon": 0.0, "fusion_lat": 0.0, "lon": -77.02631483333333, "name": "c4d3688c8ace97d9d8ad9388ce9211b9"}, {"bike_id": "2aad9d9be3b024bf4892e7179d1e2f7c", "type": "electric_scooter", "is_disabled": 0, "lat": 38.91716, "rental_uris": {"ios": "https://dc.lft.to/lastmile_qr_scan", "android": "https://dc.lft.to/lastmile_qr_scan"}, "is_reserved": 0, "fusion_lon": 0.0, "fusion_lat": 0.0, "lon": -77.03177966666667, "name": "2aad9d9be3b024bf4892e7179d1e2f7c"}, {"bike_id": "056331321bab1f80c6da350c93444d95", "type": "electric_scooter", "is_disabled": 0, "lat": 38.92872216666667, "rental_uris": {"ios": "https://dc.lft.to/lastmile_qr_scan", "android": "https://dc.lft.to/lastmile_qr_scan"}, "is_reserved": 0, "fusion_lon": 0.0, "fusion_lat": 0.0, "lon": -77.02775466666667, "name": "056331321bab1f80c6da350c93444d95"}, {"bike_id": "21b2e06e8bec6c988a9370c6b6055a72", "type": "electric_scooter", "is_disabled": 0, "lat": 38.90463866666666, "rental_uris": {"ios": "https://dc.lft.to/lastmile_qr_scan", "android": "https://dc.lft.to/lastmile_qr_scan"}, "is_reserved": 0, "fusion_lon": 0.0, "fusion_lat": 0.0, "lon": -77.04339266666666, "name": "21b2e06e8bec6c988a9370c6b6055a72"}, {"bike_id": "19f31da1ec9fa625d8f3302a91ab9f3c", "type": "electric_scooter", "is_disabled": 0, "lat": 38.90799033333333, "rental_uris": {"ios": "https://dc.lft.to/lastmile_qr_scan", "android": "https://dc.lft.to/lastmile_qr_scan"}, "is_reserved": 0, "fusion_lon": 0.0, "fusion_lat": 0.0, "lon": -77.04001016666666, "name": "19f31da1ec9fa625d8f3302a91ab9f3c"}, {"bike_id": "8678ea4e08e7ee24a9cc44a55b093a34", "type": "electric_scooter", "is_disabled": 0, "lat": 38.881338166666666, "rental_uris": {"ios": "https://dc.lft.to/lastmile_qr_scan", "android": "https://dc.lft.to/lastmile_qr_scan"}, "is_reserved": 0, "fusion_lon": 0.0, "fusion_lat": 0.0, "lon": -77.01638133333333, "name": "8678ea4e08e7ee24a9cc44a55b093a34"}, {"bike_id": "f539bd6539f7e058b3a5f31d9fc58357", "type": "electric_bike", "is_disabled": 0, "lat": 38.88322016666667, "rental_uris": {"ios": "https://dc.lft.to/lastmile_qr_scan", "android": "https://dc.lft.to/lastmile_qr_scan"}, "is_reserved": 0, "fusion_lon": 0.0, "fusion_lat": 0.0, "lon": -76.96057483333334, "name": "f539bd6539f7e058b3a5f31d9fc58357"}, {"bike_id": "96b71171e02b7c1ce928808c65ef6bbd", "type": "electric_scooter", "is_disabled": 0, "lat": 38.909629333333335, "rental_uris": {"ios": "https://dc.lft.to/lastmile_qr_scan", "android": "https://dc.lft.to/lastmile_qr_scan"}, "is_reserved": 0, "fusion_lon": 0.0, "fusion_lat": 0.0, "lon": -77.02178033333334, "name": "96b71171e02b7c1ce928808c65ef6bbd"}, {"bike_id": "cc77749ba92fcb831d6b57d940fa58ca", "type": "electric_scooter", "is_disabled": 0, "lat": 38.892283, "rental_uris": {"ios": "https://dc.lft.to/lastmile_qr_scan", "android": "https://dc.lft.to/lastmile_qr_scan"}, "is_reserved": 0, "fusion_lon": 0.0, "fusion_lat": 0.0, "lon": -77.0302185, "name": "cc77749ba92fcb831d6b57d940fa58ca"}, {"bike_id": "cb4e4215e9ee6911a63e3307c3f933f9", "type": "electric_scooter", "is_disabled": 0, "lat": 38.87295433333333, "rental_uris": {"ios": "https://dc.lft.to/lastmile_qr_scan", "android": "https://dc.lft.to/lastmile_qr_scan"}, "is_reserved": 0, "fusion_lon": 0.0, "fusion_lat": 0.0, "lon": -77.0098865, "name": "cb4e4215e9ee6911a63e3307c3f933f9"}, {"bike_id": "1e9e0d1decb28af40bd05fbd6bec205d", "type": "electric_scooter", "is_disabled": 0, "lat": 38.92473666666667, "rental_uris": {"ios": "https://dc.lft.to/lastmile_qr_scan", "android": "https://dc.lft.to/lastmile_qr_scan"}, "is_reserved": 0, "fusion_lon": 0.0, "fusion_lat": 0.0, "lon": -77.02719833333333, "name": "1e9e0d1decb28af40bd05fbd6bec205d"}, {"bike_id": "047b35ed2155fde084b746183ac2fcbd", "type": "electric_scooter", "is_disabled": 0, "lat": 38.878581, "rental_uris": {"ios": "https://dc.lft.to/lastmile_qr_scan", "android": "https://dc.lft.to/lastmile_qr_scan"}, "is_reserved": 0, "fusion_lon": 0.0, "fusion_lat": 0.0, "lon": -77.00826016666667, "name": "047b35ed2155fde084b746183ac2fcbd"}, {"bike_id": "a2e0cca5ee85d3a3fde1d8332a5c7723", "type": "electric_scooter", "is_disabled": 0, "lat": 38.903498166666665, "rental_uris": {"ios": "https://dc.lft.to/lastmile_qr_scan", "android": "https://dc.lft.to/lastmile_qr_scan"}, "is_reserved": 0, "fusion_lon": 0.0, "fusion_lat": 0.0, "lon": -76.97481316666666, "name": "a2e0cca5ee85d3a3fde1d8332a5c7723"}, {"bike_id": "06ade3c69606dadcdf3d7e717e9efefd", "type": "electric_scooter", "is_disabled": 0, "lat": 38.918105, "rental_uris": {"ios": "https://dc.lft.to/lastmile_qr_scan", "android": "https://dc.lft.to/lastmile_qr_scan"}, "is_reserved": 0, "fusion_lon": 0.0, "fusion_lat": 0.0, "lon": -77.02696083333333, "name": "06ade3c69606dadcdf3d7e717e9efefd"}, {"bike_id": "3a668d6ca6f91664249281b38135ff60", "type": "electric_scooter", "is_disabled": 0, "lat": 38.90464766666667, "rental_uris": {"ios": "https://dc.lft.to/lastmile_qr_scan", "android": "https://dc.lft.to/lastmile_qr_scan"}, "is_reserved": 0, "fusion_lon": 0.0, "fusion_lat": 0.0, "lon": -76.9760865, "name": "3a668d6ca6f91664249281b38135ff60"}, {"bike_id": "d1a5fb06af779b99b8b6aebf0e79c919", "type": "electric_scooter", "is_disabled": 0, "lat": 38.91205316666667, "rental_uris": {"ios": "https://dc.lft.to/lastmile_qr_scan", "android": "https://dc.lft.to/lastmile_qr_scan"}, "is_reserved": 0, "fusion_lon": 0.0, "fusion_lat": 0.0, "lon": -77.04466083333334, "name": "d1a5fb06af779b99b8b6aebf0e79c919"}, {"bike_id": "e21dd1537f3ba878773df58d51312774", "type": "electric_scooter", "is_disabled": 0, "lat": 38.906756666666666, "rental_uris": {"ios": "https://dc.lft.to/lastmile_qr_scan", "android": "https://dc.lft.to/lastmile_qr_scan"}, "is_reserved": 0, "fusion_lon": 0.0, "fusion_lat": 0.0, "lon": -76.98002683333333, "name": "e21dd1537f3ba878773df58d51312774"}, {"bike_id": "42ffcf6cec4b2ea261a8808b3fba5f90", "type": "electric_scooter", "is_disabled": 0, "lat": 38.873666, "rental_uris": {"ios": "https://dc.lft.to/lastmile_qr_scan", "android": "https://dc.lft.to/lastmile_qr_scan"}, "is_reserved": 0, "fusion_lon": 0.0, "fusion_lat": 0.0, "lon": -77.00112683333333, "name": "42ffcf6cec4b2ea261a8808b3fba5f90"}, {"bike_id": "b7412380adbff216d6a3f3c1cd02d358", "type": "electric_scooter", "is_disabled": 0, "lat": 38.91615616666667, "rental_uris": {"ios": "https://dc.lft.to/lastmile_qr_scan", "android": "https://dc.lft.to/lastmile_qr_scan"}, "is_reserved": 0, "fusion_lon": 0.0, "fusion_lat": 0.0, "lon": -77.0488725, "name": "b7412380adbff216d6a3f3c1cd02d358"}, {"bike_id": "c486ef91c1a771e96177063d209a3793", "type": "electric_scooter", "is_disabled": 0, "lat": 38.9214595, "rental_uris": {"ios": "https://dc.lft.to/lastmile_qr_scan", "android": "https://dc.lft.to/lastmile_qr_scan"}, "is_reserved": 0, "fusion_lon": 0.0, "fusion_lat": 0.0, "lon": -77.0338735, "name": "c486ef91c1a771e96177063d209a3793"}, {"bike_id": "2b9cbe7b7001d3a366eff3b00bedfa95", "type": "electric_bike", "is_disabled": 0, "lat": 38.932305, "rental_uris": {"ios": "https://dc.lft.to/lastmile_qr_scan", "android": "https://dc.lft.to/lastmile_qr_scan"}, "is_reserved": 0, "fusion_lon": 0.0, "fusion_lat": 0.0, "lon": -77.1811765, "name": "2b9cbe7b7001d3a366eff3b00bedfa95"}, {"bike_id": "ea73754493ed929ab9745ff6b654587e", "type": "electric_scooter", "is_disabled": 0, "lat": 38.90669966666667, "rental_uris": {"ios": "https://dc.lft.to/lastmile_qr_scan", "android": "https://dc.lft.to/lastmile_qr_scan"}, "is_reserved": 0, "fusion_lon": 0.0, "fusion_lat": 0.0, "lon": -77.010554, "name": "ea73754493ed929ab9745ff6b654587e"}, {"bike_id": "80a57bc600e2fac3d62c1f7d04d250d1", "type": "electric_scooter", "is_disabled": 0, "lat": 38.90735983333333, "rental_uris": {"ios": "https://dc.lft.to/lastmile_qr_scan", "android": "https://dc.lft.to/lastmile_qr_scan"}, "is_reserved": 0, "fusion_lon": 0.0, "fusion_lat": 0.0, "lon": -77.02181533333334, "name": "80a57bc600e2fac3d62c1f7d04d250d1"}, {"bike_id": "e4ea128bfade5d0198f97ff2e4dd4db3", "type": "electric_scooter", "is_disabled": 0, "lat": 38.8934855, "rental_uris": {"ios": "https://dc.lft.to/lastmile_qr_scan", "android": "https://dc.lft.to/lastmile_qr_scan"}, "is_reserved": 0, "fusion_lon": 0.0, "fusion_lat": 0.0, "lon": -77.0222055, "name": "e4ea128bfade5d0198f97ff2e4dd4db3"}, {"bike_id": "100b0518814e75cece99e110178fe20c", "type": "electric_scooter", "is_disabled": 0, "lat": 38.906726, "rental_uris": {"ios": "https://dc.lft.to/lastmile_qr_scan", "android": "https://dc.lft.to/lastmile_qr_scan"}, "is_reserved": 0, "fusion_lon": 0.0, "fusion_lat": 0.0, "lon": -77.04650633333334, "name": "100b0518814e75cece99e110178fe20c"}, {"bike_id": "6630c8e958f0091b4928da5851a5415c", "type": "electric_scooter", "is_disabled": 0, "lat": 38.904859, "rental_uris": {"ios": "https://dc.lft.to/lastmile_qr_scan", "android": "https://dc.lft.to/lastmile_qr_scan"}, "is_reserved": 0, "fusion_lon": 0.0, "fusion_lat": 0.0, "lon": -77.04886583333334, "name": "6630c8e958f0091b4928da5851a5415c"}, {"bike_id": "d7d7eb3572f67702e87a00e22457095d", "type": "electric_scooter", "is_disabled": 0, "lat": 38.876751666666664, "rental_uris": {"ios": "https://dc.lft.to/lastmile_qr_scan", "android": "https://dc.lft.to/lastmile_qr_scan"}, "is_reserved": 0, "fusion_lon": 0.0, "fusion_lat": 0.0, "lon": -77.008314, "name": "d7d7eb3572f67702e87a00e22457095d"}, {"bike_id": "c232ea0d6836fcfb03e99dacc1670418", "type": "electric_scooter", "is_disabled": 0, "lat": 38.940156, "rental_uris": {"ios": "https://dc.lft.to/lastmile_qr_scan", "android": "https://dc.lft.to/lastmile_qr_scan"}, "is_reserved": 0, "fusion_lon": 0.0, "fusion_lat": 0.0, "lon": -77.02634316666666, "name": "c232ea0d6836fcfb03e99dacc1670418"}, {"bike_id": "fa7af39ab8f9ff5be2ad431521d16e8d", "type": "electric_scooter", "is_disabled": 0, "lat": 38.87508483333333, "rental_uris": {"ios": "https://dc.lft.to/lastmile_qr_scan", "android": "https://dc.lft.to/lastmile_qr_scan"}, "is_reserved": 0, "fusion_lon": 0.0, "fusion_lat": 0.0, "lon": -77.01248883333334, "name": "fa7af39ab8f9ff5be2ad431521d16e8d"}, {"bike_id": "38fbc25f0c0879f2a37da4dcce178f8c", "type": "electric_scooter", "is_disabled": 0, "lat": 38.9050525, "rental_uris": {"ios": "https://dc.lft.to/lastmile_qr_scan", "android": "https://dc.lft.to/lastmile_qr_scan"}, "is_reserved": 0, "fusion_lon": 0.0, "fusion_lat": 0.0, "lon": -77.04890383333333, "name": "38fbc25f0c0879f2a37da4dcce178f8c"}, {"bike_id": "cf57d574f7a1f9a5e200c6b749d8b50f", "type": "electric_scooter", "is_disabled": 0, "lat": 38.87622016666667, "rental_uris": {"ios": "https://dc.lft.to/lastmile_qr_scan", "android": "https://dc.lft.to/lastmile_qr_scan"}, "is_reserved": 0, "fusion_lon": 0.0, "fusion_lat": 0.0, "lon": -76.9652925, "name": "cf57d574f7a1f9a5e200c6b749d8b50f"}, {"bike_id": "144fd5f032cf3bf4d7ca649fb16db0df", "type": "electric_scooter", "is_disabled": 0, "lat": 38.91031666666667, "rental_uris": {"ios": "https://dc.lft.to/lastmile_qr_scan", "android": "https://dc.lft.to/lastmile_qr_scan"}, "is_reserved": 0, "fusion_lon": 0.0, "fusion_lat": 0.0, "lon": -76.99341333333334, "name": "144fd5f032cf3bf4d7ca649fb16db0df"}, {"bike_id": "23b18a25115211f0e3e9a2c9a3a67b42", "type": "electric_scooter", "is_disabled": 0, "lat": 38.95610416666667, "rental_uris": {"ios": "https://dc.lft.to/lastmile_qr_scan", "android": "https://dc.lft.to/lastmile_qr_scan"}, "is_reserved": 0, "fusion_lon": 0.0, "fusion_lat": 0.0, "lon": -77.0101615, "name": "23b18a25115211f0e3e9a2c9a3a67b42"}, {"bike_id": "ac7a8b22b289fdf57faba60118413ccc", "type": "electric_scooter", "is_disabled": 0, "lat": 38.91725516666666, "rental_uris": {"ios": "https://dc.lft.to/lastmile_qr_scan", "android": "https://dc.lft.to/lastmile_qr_scan"}, "is_reserved": 0, "fusion_lon": 0.0, "fusion_lat": 0.0, "lon": -77.01920183333333, "name": "ac7a8b22b289fdf57faba60118413ccc"}, {"bike_id": "2c83d8ed7f1060489afc81f2c2b487fa", "type": "electric_scooter", "is_disabled": 0, "lat": 38.92347133333333, "rental_uris": {"ios": "https://dc.lft.to/lastmile_qr_scan", "android": "https://dc.lft.to/lastmile_qr_scan"}, "is_reserved": 0, "fusion_lon": 0.0, "fusion_lat": 0.0, "lon": -77.05121333333334, "name": "2c83d8ed7f1060489afc81f2c2b487fa"}, {"bike_id": "3735b84e1ab67d0cbb74598fc6a96394", "type": "electric_scooter", "is_disabled": 0, "lat": 38.919533, "rental_uris": {"ios": "https://dc.lft.to/lastmile_qr_scan", "android": "https://dc.lft.to/lastmile_qr_scan"}, "is_reserved": 0, "fusion_lon": 0.0, "fusion_lat": 0.0, "lon": -77.02497733333334, "name": "3735b84e1ab67d0cbb74598fc6a96394"}, {"bike_id": "b111276522cd0d8019c23d640372fdcb", "type": "electric_scooter", "is_disabled": 0, "lat": 38.89483583333333, "rental_uris": {"ios": "https://dc.lft.to/lastmile_qr_scan", "android": "https://dc.lft.to/lastmile_qr_scan"}, "is_reserved": 0, "fusion_lon": 0.0, "fusion_lat": 0.0, "lon": -77.02176983333334, "name": "b111276522cd0d8019c23d640372fdcb"}, {"bike_id": "4ee59d607877631d4d42d4c741b91ba1", "type": "electric_bike", "is_disabled": 0, "lat": 38.872987333333334, "rental_uris": {"ios": "https://dc.lft.to/lastmile_qr_scan", "android": "https://dc.lft.to/lastmile_qr_scan"}, "is_reserved": 0, "fusion_lon": 0.0, "fusion_lat": 0.0, "lon": -77.139241, "name": "4ee59d607877631d4d42d4c741b91ba1"}, {"bike_id": "5bdf4897bf4b96a23044f64f62385b12", "type": "electric_bike", "is_disabled": 0, "lat": 38.84278716666667, "rental_uris": {"ios": "https://dc.lft.to/lastmile_qr_scan", "android": "https://dc.lft.to/lastmile_qr_scan"}, "is_reserved": 0, "fusion_lon": 0.0, "fusion_lat": 0.0, "lon": -76.9884165, "name": "5bdf4897bf4b96a23044f64f62385b12"}, {"bike_id": "d0ab70f3f5481b80de2a7c198ee9eac1", "type": "electric_scooter", "is_disabled": 0, "lat": 38.9639065, "rental_uris": {"ios": "https://dc.lft.to/lastmile_qr_scan", "android": "https://dc.lft.to/lastmile_qr_scan"}, "is_reserved": 0, "fusion_lon": 0.0, "fusion_lat": 0.0, "lon": -77.02591983333333, "name": "d0ab70f3f5481b80de2a7c198ee9eac1"}, {"bike_id": "3a49530724c87b650e5511943afe72b2", "type": "electric_scooter", "is_disabled": 0, "lat": 38.89836616666667, "rental_uris": {"ios": "https://dc.lft.to/lastmile_qr_scan", "android": "https://dc.lft.to/lastmile_qr_scan"}, "is_reserved": 0, "fusion_lon": 0.0, "fusion_lat": 0.0, "lon": -77.03114616666667, "name": "3a49530724c87b650e5511943afe72b2"}, {"bike_id": "8511bc8d6f32d7b1ab30888be6b6929f", "type": "electric_scooter", "is_disabled": 0, "lat": 38.893820833333336, "rental_uris": {"ios": "https://dc.lft.to/lastmile_qr_scan", "android": "https://dc.lft.to/lastmile_qr_scan"}, "is_reserved": 0, "fusion_lon": 0.0, "fusion_lat": 0.0, "lon": -77.02269, "name": "8511bc8d6f32d7b1ab30888be6b6929f"}, {"bike_id": "7026365e74fcf08033b8c69dc3da1b32", "type": "electric_scooter", "is_disabled": 0, "lat": 38.90364116666667, "rental_uris": {"ios": "https://dc.lft.to/lastmile_qr_scan", "android": "https://dc.lft.to/lastmile_qr_scan"}, "is_reserved": 0, "fusion_lon": 0.0, "fusion_lat": 0.0, "lon": -77.04482016666667, "name": "7026365e74fcf08033b8c69dc3da1b32"}, {"bike_id": "7b4d07cd47c33f7dcbe9425c100e7bcd", "type": "electric_scooter", "is_disabled": 0, "lat": 38.916368, "rental_uris": {"ios": "https://dc.lft.to/lastmile_qr_scan", "android": "https://dc.lft.to/lastmile_qr_scan"}, "is_reserved": 0, "fusion_lon": 0.0, "fusion_lat": 0.0, "lon": -77.03216283333333, "name": "7b4d07cd47c33f7dcbe9425c100e7bcd"}, {"bike_id": "3d95660f07e7d8d5d087b6049754baba", "type": "electric_scooter", "is_disabled": 0, "lat": 38.93077433333333, "rental_uris": {"ios": "https://dc.lft.to/lastmile_qr_scan", "android": "https://dc.lft.to/lastmile_qr_scan"}, "is_reserved": 0, "fusion_lon": 0.0, "fusion_lat": 0.0, "lon": -77.027919, "name": "3d95660f07e7d8d5d087b6049754baba"}, {"bike_id": "9175f8ab2bda618de7a35e978e9408bf", "type": "electric_scooter", "is_disabled": 0, "lat": 38.89288966666667, "rental_uris": {"ios": "https://dc.lft.to/lastmile_qr_scan", "android": "https://dc.lft.to/lastmile_qr_scan"}, "is_reserved": 0, "fusion_lon": 0.0, "fusion_lat": 0.0, "lon": -77.033559, "name": "9175f8ab2bda618de7a35e978e9408bf"}, {"bike_id": "2b08e226dc22f7283999ddbad8ccdb0e", "type": "electric_scooter", "is_disabled": 0, "lat": 38.93918683333333, "rental_uris": {"ios": "https://dc.lft.to/lastmile_qr_scan", "android": "https://dc.lft.to/lastmile_qr_scan"}, "is_reserved": 0, "fusion_lon": 0.0, "fusion_lat": 0.0, "lon": -77.06049133333333, "name": "2b08e226dc22f7283999ddbad8ccdb0e"}, {"bike_id": "b1556345555269d3b21a4d94f6c69eb7", "type": "electric_scooter", "is_disabled": 0, "lat": 38.905487666666666, "rental_uris": {"ios": "https://dc.lft.to/lastmile_qr_scan", "android": "https://dc.lft.to/lastmile_qr_scan"}, "is_reserved": 0, "fusion_lon": 0.0, "fusion_lat": 0.0, "lon": -77.04154066666666, "name": "b1556345555269d3b21a4d94f6c69eb7"}, {"bike_id": "292178abf70fbbb170de01740ba31912", "type": "electric_scooter", "is_disabled": 0, "lat": 38.916935333333335, "rental_uris": {"ios": "https://dc.lft.to/lastmile_qr_scan", "android": "https://dc.lft.to/lastmile_qr_scan"}, "is_reserved": 0, "fusion_lon": 0.0, "fusion_lat": 0.0, "lon": -77.0284605, "name": "292178abf70fbbb170de01740ba31912"}, {"bike_id": "ecaed2f3b9f0888c3852692fe55ff7b8", "type": "electric_scooter", "is_disabled": 0, "lat": 38.8736015, "rental_uris": {"ios": "https://dc.lft.to/lastmile_qr_scan", "android": "https://dc.lft.to/lastmile_qr_scan"}, "is_reserved": 0, "fusion_lon": 0.0, "fusion_lat": 0.0, "lon": -76.97027183333333, "name": "ecaed2f3b9f0888c3852692fe55ff7b8"}, {"bike_id": "7290397b664bdc103eb1c86c9a15bfdd", "type": "electric_scooter", "is_disabled": 0, "lat": 38.899141, "rental_uris": {"ios": "https://dc.lft.to/lastmile_qr_scan", "android": "https://dc.lft.to/lastmile_qr_scan"}, "is_reserved": 0, "fusion_lon": 0.0, "fusion_lat": 0.0, "lon": -76.93364366666667, "name": "7290397b664bdc103eb1c86c9a15bfdd"}, {"bike_id": "00d1f5587fd22fab9861fe63ab49732d", "type": "electric_bike", "is_disabled": 0, "lat": 38.878802, "rental_uris": {"ios": "https://dc.lft.to/lastmile_qr_scan", "android": "https://dc.lft.to/lastmile_qr_scan"}, "is_reserved": 0, "fusion_lon": 0.0, "fusion_lat": 0.0, "lon": -77.09613533333334, "name": "00d1f5587fd22fab9861fe63ab49732d"}, {"bike_id": "8fcfb21cd69a72bbf78d4383ec28f544", "type": "electric_scooter", "is_disabled": 0, "lat": 38.933243166666664, "rental_uris": {"ios": "https://dc.lft.to/lastmile_qr_scan", "android": "https://dc.lft.to/lastmile_qr_scan"}, "is_reserved": 0, "fusion_lon": 0.0, "fusion_lat": 0.0, "lon": -77.029274, "name": "8fcfb21cd69a72bbf78d4383ec28f544"}, {"bike_id": "052a344d2458dc664a4d45e14a4b1970", "type": "electric_scooter", "is_disabled": 0, "lat": 38.90255033333333, "rental_uris": {"ios": "https://dc.lft.to/lastmile_qr_scan", "android": "https://dc.lft.to/lastmile_qr_scan"}, "is_reserved": 0, "fusion_lon": 0.0, "fusion_lat": 0.0, "lon": -77.017598, "name": "052a344d2458dc664a4d45e14a4b1970"}, {"bike_id": "b6bed08e96e1f9b263ed8c93271d0ceb", "type": "electric_scooter", "is_disabled": 0, "lat": 38.9031645, "rental_uris": {"ios": "https://dc.lft.to/lastmile_qr_scan", "android": "https://dc.lft.to/lastmile_qr_scan"}, "is_reserved": 0, "fusion_lon": 0.0, "fusion_lat": 0.0, "lon": -77.02885716666667, "name": "b6bed08e96e1f9b263ed8c93271d0ceb"}, {"bike_id": "3fa5f6330a0c9eee6acd02df98c4b83f", "type": "electric_scooter", "is_disabled": 0, "lat": 38.90749433333333, "rental_uris": {"ios": "https://dc.lft.to/lastmile_qr_scan", "android": "https://dc.lft.to/lastmile_qr_scan"}, "is_reserved": 0, "fusion_lon": 0.0, "fusion_lat": 0.0, "lon": -77.03184933333333, "name": "3fa5f6330a0c9eee6acd02df98c4b83f"}, {"bike_id": "ca822c20ff58c0f5ffe38139f6a97035", "type": "electric_scooter", "is_disabled": 0, "lat": 38.907267166666664, "rental_uris": {"ios": "https://dc.lft.to/lastmile_qr_scan", "android": "https://dc.lft.to/lastmile_qr_scan"}, "is_reserved": 0, "fusion_lon": 0.0, "fusion_lat": 0.0, "lon": -77.041589, "name": "ca822c20ff58c0f5ffe38139f6a97035"}, {"bike_id": "ccabac89cccfec34a0440a93f85e7f42", "type": "electric_scooter", "is_disabled": 0, "lat": 38.92966633333333, "rental_uris": {"ios": "https://dc.lft.to/lastmile_qr_scan", "android": "https://dc.lft.to/lastmile_qr_scan"}, "is_reserved": 0, "fusion_lon": 0.0, "fusion_lat": 0.0, "lon": -77.0278705, "name": "ccabac89cccfec34a0440a93f85e7f42"}, {"bike_id": "b40b994d97dc2562fced7ee941b9a54a", "type": "electric_scooter", "is_disabled": 0, "lat": 38.90372633333333, "rental_uris": {"ios": "https://dc.lft.to/lastmile_qr_scan", "android": "https://dc.lft.to/lastmile_qr_scan"}, "is_reserved": 0, "fusion_lon": 0.0, "fusion_lat": 0.0, "lon": -77.04833933333333, "name": "b40b994d97dc2562fced7ee941b9a54a"}, {"bike_id": "e7a8ad85e35bb5a86be808d9b0493904", "type": "electric_scooter", "is_disabled": 0, "lat": 38.874756833333336, "rental_uris": {"ios": "https://dc.lft.to/lastmile_qr_scan", "android": "https://dc.lft.to/lastmile_qr_scan"}, "is_reserved": 0, "fusion_lon": 0.0, "fusion_lat": 0.0, "lon": -77.01070783333333, "name": "e7a8ad85e35bb5a86be808d9b0493904"}, {"bike_id": "ae913e50bd20425312601e7283de78b0", "type": "electric_scooter", "is_disabled": 0, "lat": 38.905002333333336, "rental_uris": {"ios": "https://dc.lft.to/lastmile_qr_scan", "android": "https://dc.lft.to/lastmile_qr_scan"}, "is_reserved": 0, "fusion_lon": 0.0, "fusion_lat": 0.0, "lon": -76.9995925, "name": "ae913e50bd20425312601e7283de78b0"}, {"bike_id": "b11442cc6733129038da69c39566699c", "type": "electric_scooter", "is_disabled": 0, "lat": 38.89885116666667, "rental_uris": {"ios": "https://dc.lft.to/lastmile_qr_scan", "android": "https://dc.lft.to/lastmile_qr_scan"}, "is_reserved": 0, "fusion_lon": 0.0, "fusion_lat": 0.0, "lon": -76.9317565, "name": "b11442cc6733129038da69c39566699c"}, {"bike_id": "cae374939936da38f0512cc526d92093", "type": "electric_scooter", "is_disabled": 0, "lat": 38.900975833333334, "rental_uris": {"ios": "https://dc.lft.to/lastmile_qr_scan", "android": "https://dc.lft.to/lastmile_qr_scan"}, "is_reserved": 0, "fusion_lon": 0.0, "fusion_lat": 0.0, "lon": -77.01936283333333, "name": "cae374939936da38f0512cc526d92093"}, {"bike_id": "b96f35fca40b4b5c94a78a569b16c54c", "type": "electric_scooter", "is_disabled": 0, "lat": 38.934594, "rental_uris": {"ios": "https://dc.lft.to/lastmile_qr_scan", "android": "https://dc.lft.to/lastmile_qr_scan"}, "is_reserved": 0, "fusion_lon": 0.0, "fusion_lat": 0.0, "lon": -76.96441733333333, "name": "b96f35fca40b4b5c94a78a569b16c54c"}, {"bike_id": "27fb20dfecb132e7a55eb17c96abd9a7", "type": "electric_scooter", "is_disabled": 0, "lat": 38.93081266666667, "rental_uris": {"ios": "https://dc.lft.to/lastmile_qr_scan", "android": "https://dc.lft.to/lastmile_qr_scan"}, "is_reserved": 0, "fusion_lon": 0.0, "fusion_lat": 0.0, "lon": -77.03748283333333, "name": "27fb20dfecb132e7a55eb17c96abd9a7"}, {"bike_id": "1ca74815926e7aedf8aae6e5f477f8c1", "type": "electric_scooter", "is_disabled": 0, "lat": 38.90261233333333, "rental_uris": {"ios": "https://dc.lft.to/lastmile_qr_scan", "android": "https://dc.lft.to/lastmile_qr_scan"}, "is_reserved": 0, "fusion_lon": 0.0, "fusion_lat": 0.0, "lon": -77.0178435, "name": "1ca74815926e7aedf8aae6e5f477f8c1"}, {"bike_id": "9cc5f3138c4fda2b22641ecad258a9e9", "type": "electric_bike", "is_disabled": 0, "lat": 39.024334, "rental_uris": {"ios": "https://dc.lft.to/lastmile_qr_scan", "android": "https://dc.lft.to/lastmile_qr_scan"}, "is_reserved": 0, "fusion_lon": 0.0, "fusion_lat": 0.0, "lon": -77.13101566666667, "name": "9cc5f3138c4fda2b22641ecad258a9e9"}, {"bike_id": "542efb8a7d9dc580dbbf4f9720dd511c", "type": "electric_scooter", "is_disabled": 0, "lat": 38.931053166666665, "rental_uris": {"ios": "https://dc.lft.to/lastmile_qr_scan", "android": "https://dc.lft.to/lastmile_qr_scan"}, "is_reserved": 0, "fusion_lon": 0.0, "fusion_lat": 0.0, "lon": -77.03284516666666, "name": "542efb8a7d9dc580dbbf4f9720dd511c"}, {"bike_id": "ba243daa8bb5724cc0ff687d9bc58f85", "type": "electric_scooter", "is_disabled": 0, "lat": 38.912509, "rental_uris": {"ios": "https://dc.lft.to/lastmile_qr_scan", "android": "https://dc.lft.to/lastmile_qr_scan"}, "is_reserved": 0, "fusion_lon": 0.0, "fusion_lat": 0.0, "lon": -77.03827016666666, "name": "ba243daa8bb5724cc0ff687d9bc58f85"}, {"bike_id": "fe0df1e58102af26e7098b526ae33df6", "type": "electric_scooter", "is_disabled": 0, "lat": 38.917024833333336, "rental_uris": {"ios": "https://dc.lft.to/lastmile_qr_scan", "android": "https://dc.lft.to/lastmile_qr_scan"}, "is_reserved": 0, "fusion_lon": 0.0, "fusion_lat": 0.0, "lon": -77.02873166666667, "name": "fe0df1e58102af26e7098b526ae33df6"}, {"bike_id": "0664790534af14922c1bdb6014493265", "type": "electric_scooter", "is_disabled": 0, "lat": 38.91568783333334, "rental_uris": {"ios": "https://dc.lft.to/lastmile_qr_scan", "android": "https://dc.lft.to/lastmile_qr_scan"}, "is_reserved": 0, "fusion_lon": 0.0, "fusion_lat": 0.0, "lon": -77.036417, "name": "0664790534af14922c1bdb6014493265"}, {"bike_id": "38d190b911010c054e8ab2a3e103b940", "type": "electric_scooter", "is_disabled": 0, "lat": 38.93140233333333, "rental_uris": {"ios": "https://dc.lft.to/lastmile_qr_scan", "android": "https://dc.lft.to/lastmile_qr_scan"}, "is_reserved": 0, "fusion_lon": 0.0, "fusion_lat": 0.0, "lon": -77.04243216666667, "name": "38d190b911010c054e8ab2a3e103b940"}, {"bike_id": "ab9babcc3fe49bdd50f8c319dcbb6b03", "type": "electric_scooter", "is_disabled": 0, "lat": 38.91188316666667, "rental_uris": {"ios": "https://dc.lft.to/lastmile_qr_scan", "android": "https://dc.lft.to/lastmile_qr_scan"}, "is_reserved": 0, "fusion_lon": 0.0, "fusion_lat": 0.0, "lon": -77.0321665, "name": "ab9babcc3fe49bdd50f8c319dcbb6b03"}, {"bike_id": "5ccad26ab230350d461e9e174087f93c", "type": "electric_scooter", "is_disabled": 0, "lat": 38.895755, "rental_uris": {"ios": "https://dc.lft.to/lastmile_qr_scan", "android": "https://dc.lft.to/lastmile_qr_scan"}, "is_reserved": 0, "fusion_lon": 0.0, "fusion_lat": 0.0, "lon": -77.01127616666666, "name": "5ccad26ab230350d461e9e174087f93c"}, {"bike_id": "b332d3e27b49c722c5f59b6e3473b20e", "type": "electric_scooter", "is_disabled": 0, "lat": 38.867021666666666, "rental_uris": {"ios": "https://dc.lft.to/lastmile_qr_scan", "android": "https://dc.lft.to/lastmile_qr_scan"}, "is_reserved": 0, "fusion_lon": 0.0, "fusion_lat": 0.0, "lon": -76.98715816666666, "name": "b332d3e27b49c722c5f59b6e3473b20e"}, {"bike_id": "371807f41a70ffe107d3df335e0ebaa2", "type": "electric_bike", "is_disabled": 0, "lat": 38.89848383333333, "rental_uris": {"ios": "https://dc.lft.to/lastmile_qr_scan", "android": "https://dc.lft.to/lastmile_qr_scan"}, "is_reserved": 0, "fusion_lon": 0.0, "fusion_lat": 0.0, "lon": -77.05301416666667, "name": "371807f41a70ffe107d3df335e0ebaa2"}, {"bike_id": "35e1cd980a25eaef08d693459a2b28cf", "type": "electric_scooter", "is_disabled": 0, "lat": 38.9086355, "rental_uris": {"ios": "https://dc.lft.to/lastmile_qr_scan", "android": "https://dc.lft.to/lastmile_qr_scan"}, "is_reserved": 0, "fusion_lon": 0.0, "fusion_lat": 0.0, "lon": -77.02357716666667, "name": "35e1cd980a25eaef08d693459a2b28cf"}, {"bike_id": "92f836fd2dd64b8c3142c47620aadfeb", "type": "electric_scooter", "is_disabled": 0, "lat": 38.87703233333333, "rental_uris": {"ios": "https://dc.lft.to/lastmile_qr_scan", "android": "https://dc.lft.to/lastmile_qr_scan"}, "is_reserved": 0, "fusion_lon": 0.0, "fusion_lat": 0.0, "lon": -77.0053515, "name": "92f836fd2dd64b8c3142c47620aadfeb"}, {"bike_id": "948cb32e78057eae09c22e6b87087531", "type": "electric_scooter", "is_disabled": 0, "lat": 38.897667166666665, "rental_uris": {"ios": "https://dc.lft.to/lastmile_qr_scan", "android": "https://dc.lft.to/lastmile_qr_scan"}, "is_reserved": 0, "fusion_lon": 0.0, "fusion_lat": 0.0, "lon": -77.0276835, "name": "948cb32e78057eae09c22e6b87087531"}, {"bike_id": "b9fd4f8d1e660721868b261c481777b4", "type": "electric_bike", "is_disabled": 0, "lat": 38.97882633333333, "rental_uris": {"ios": "https://dc.lft.to/lastmile_qr_scan", "android": "https://dc.lft.to/lastmile_qr_scan"}, "is_reserved": 0, "fusion_lon": 0.0, "fusion_lat": 0.0, "lon": -77.06032666666667, "name": "b9fd4f8d1e660721868b261c481777b4"}, {"bike_id": "63e8c6404440312c6247c2bfdf7380e5", "type": "electric_scooter", "is_disabled": 0, "lat": 38.8922165, "rental_uris": {"ios": "https://dc.lft.to/lastmile_qr_scan", "android": "https://dc.lft.to/lastmile_qr_scan"}, "is_reserved": 0, "fusion_lon": 0.0, "fusion_lat": 0.0, "lon": -77.043675, "name": "63e8c6404440312c6247c2bfdf7380e5"}, {"bike_id": "76df81047b04b495bc5d0004dcd35df0", "type": "electric_scooter", "is_disabled": 0, "lat": 38.94021733333334, "rental_uris": {"ios": "https://dc.lft.to/lastmile_qr_scan", "android": "https://dc.lft.to/lastmile_qr_scan"}, "is_reserved": 0, "fusion_lon": 0.0, "fusion_lat": 0.0, "lon": -76.97611733333333, "name": "76df81047b04b495bc5d0004dcd35df0"}, {"bike_id": "ea5ecc6ad3cc80a9f9623190c3841ce0", "type": "electric_scooter", "is_disabled": 0, "lat": 38.9347255, "rental_uris": {"ios": "https://dc.lft.to/lastmile_qr_scan", "android": "https://dc.lft.to/lastmile_qr_scan"}, "is_reserved": 0, "fusion_lon": 0.0, "fusion_lat": 0.0, "lon": -77.07263033333334, "name": "ea5ecc6ad3cc80a9f9623190c3841ce0"}, {"bike_id": "efb83c924a0e3ae5b2bf5d4ae1b294d0", "type": "electric_scooter", "is_disabled": 0, "lat": 38.914053833333334, "rental_uris": {"ios": "https://dc.lft.to/lastmile_qr_scan", "android": "https://dc.lft.to/lastmile_qr_scan"}, "is_reserved": 0, "fusion_lon": 0.0, "fusion_lat": 0.0, "lon": -77.04498016666666, "name": "efb83c924a0e3ae5b2bf5d4ae1b294d0"}, {"bike_id": "699a3863df6fbb212f0ccf52f2131ee3", "type": "electric_scooter", "is_disabled": 0, "lat": 38.89427583333333, "rental_uris": {"ios": "https://dc.lft.to/lastmile_qr_scan", "android": "https://dc.lft.to/lastmile_qr_scan"}, "is_reserved": 0, "fusion_lon": 0.0, "fusion_lat": 0.0, "lon": -77.01047333333334, "name": "699a3863df6fbb212f0ccf52f2131ee3"}, {"bike_id": "731fa88548cf886116413bcc8252aa23", "type": "electric_scooter", "is_disabled": 0, "lat": 38.92043833333334, "rental_uris": {"ios": "https://dc.lft.to/lastmile_qr_scan", "android": "https://dc.lft.to/lastmile_qr_scan"}, "is_reserved": 0, "fusion_lon": 0.0, "fusion_lat": 0.0, "lon": -77.02577633333334, "name": "731fa88548cf886116413bcc8252aa23"}, {"bike_id": "65ab5e3efebae6764ef005067a2fcdb5", "type": "electric_scooter", "is_disabled": 0, "lat": 38.89478166666667, "rental_uris": {"ios": "https://dc.lft.to/lastmile_qr_scan", "android": "https://dc.lft.to/lastmile_qr_scan"}, "is_reserved": 0, "fusion_lon": 0.0, "fusion_lat": 0.0, "lon": -76.94861983333334, "name": "65ab5e3efebae6764ef005067a2fcdb5"}, {"bike_id": "a68f29f13e5c67966b1d3bc68edf0ebf", "type": "electric_scooter", "is_disabled": 0, "lat": 38.93215166666667, "rental_uris": {"ios": "https://dc.lft.to/lastmile_qr_scan", "android": "https://dc.lft.to/lastmile_qr_scan"}, "is_reserved": 0, "fusion_lon": 0.0, "fusion_lat": 0.0, "lon": -77.03520783333333, "name": "a68f29f13e5c67966b1d3bc68edf0ebf"}, {"bike_id": "9a196e9e9316c2e0f09116b9f0fccacc", "type": "electric_scooter", "is_disabled": 0, "lat": 38.899146, "rental_uris": {"ios": "https://dc.lft.to/lastmile_qr_scan", "android": "https://dc.lft.to/lastmile_qr_scan"}, "is_reserved": 0, "fusion_lon": 0.0, "fusion_lat": 0.0, "lon": -77.0035725, "name": "9a196e9e9316c2e0f09116b9f0fccacc"}, {"bike_id": "dc5932f2fa665e17735b06c5746f9a02", "type": "electric_scooter", "is_disabled": 0, "lat": 38.90064916666667, "rental_uris": {"ios": "https://dc.lft.to/lastmile_qr_scan", "android": "https://dc.lft.to/lastmile_qr_scan"}, "is_reserved": 0, "fusion_lon": 0.0, "fusion_lat": 0.0, "lon": -77.04535766666666, "name": "dc5932f2fa665e17735b06c5746f9a02"}, {"bike_id": "f75dbb62bb2ccc2274de932275826e32", "type": "electric_scooter", "is_disabled": 0, "lat": 38.907986333333334, "rental_uris": {"ios": "https://dc.lft.to/lastmile_qr_scan", "android": "https://dc.lft.to/lastmile_qr_scan"}, "is_reserved": 0, "fusion_lon": 0.0, "fusion_lat": 0.0, "lon": -77.04346483333333, "name": "f75dbb62bb2ccc2274de932275826e32"}, {"bike_id": "cc527d0e41a989714529b38d4e26a5fe", "type": "electric_scooter", "is_disabled": 0, "lat": 38.899604833333335, "rental_uris": {"ios": "https://dc.lft.to/lastmile_qr_scan", "android": "https://dc.lft.to/lastmile_qr_scan"}, "is_reserved": 0, "fusion_lon": 0.0, "fusion_lat": 0.0, "lon": -77.01985783333333, "name": "cc527d0e41a989714529b38d4e26a5fe"}, {"bike_id": "213f9ca19334da4f7cb91cba49a0bb25", "type": "electric_scooter", "is_disabled": 0, "lat": 38.898852166666664, "rental_uris": {"ios": "https://dc.lft.to/lastmile_qr_scan", "android": "https://dc.lft.to/lastmile_qr_scan"}, "is_reserved": 0, "fusion_lon": 0.0, "fusion_lat": 0.0, "lon": -76.93176083333333, "name": "213f9ca19334da4f7cb91cba49a0bb25"}, {"bike_id": "c58fd93f923d5cbcb8849cef05021059", "type": "electric_scooter", "is_disabled": 0, "lat": 38.903453999999996, "rental_uris": {"ios": "https://dc.lft.to/lastmile_qr_scan", "android": "https://dc.lft.to/lastmile_qr_scan"}, "is_reserved": 0, "fusion_lon": 0.0, "fusion_lat": 0.0, "lon": -77.03154883333333, "name": "c58fd93f923d5cbcb8849cef05021059"}, {"bike_id": "490058c4d4b095724714b75c45ed2689", "type": "electric_scooter", "is_disabled": 0, "lat": 38.9085005, "rental_uris": {"ios": "https://dc.lft.to/lastmile_qr_scan", "android": "https://dc.lft.to/lastmile_qr_scan"}, "is_reserved": 0, "fusion_lon": 0.0, "fusion_lat": 0.0, "lon": -76.99956816666666, "name": "490058c4d4b095724714b75c45ed2689"}, {"bike_id": "c8b0fccd4cc2014c150b55d4e0d27356", "type": "electric_scooter", "is_disabled": 0, "lat": 38.91484333333333, "rental_uris": {"ios": "https://dc.lft.to/lastmile_qr_scan", "android": "https://dc.lft.to/lastmile_qr_scan"}, "is_reserved": 0, "fusion_lon": 0.0, "fusion_lat": 0.0, "lon": -77.0357555, "name": "c8b0fccd4cc2014c150b55d4e0d27356"}, {"bike_id": "fb92c211c500f0ebc5e024995e568d0c", "type": "electric_scooter", "is_disabled": 0, "lat": 38.887747, "rental_uris": {"ios": "https://dc.lft.to/lastmile_qr_scan", "android": "https://dc.lft.to/lastmile_qr_scan"}, "is_reserved": 0, "fusion_lon": 0.0, "fusion_lat": 0.0, "lon": -76.95523666666666, "name": "fb92c211c500f0ebc5e024995e568d0c"}, {"bike_id": "76b268f800b5ce7f68d13fb51d1e2e60", "type": "electric_bike", "is_disabled": 0, "lat": 38.89721083333333, "rental_uris": {"ios": "https://dc.lft.to/lastmile_qr_scan", "android": "https://dc.lft.to/lastmile_qr_scan"}, "is_reserved": 0, "fusion_lon": 0.0, "fusion_lat": 0.0, "lon": -76.97340733333333, "name": "76b268f800b5ce7f68d13fb51d1e2e60"}, {"bike_id": "ce47c3d2e52c90f833918eaed5d41b78", "type": "electric_scooter", "is_disabled": 0, "lat": 38.8662395, "rental_uris": {"ios": "https://dc.lft.to/lastmile_qr_scan", "android": "https://dc.lft.to/lastmile_qr_scan"}, "is_reserved": 0, "fusion_lon": 0.0, "fusion_lat": 0.0, "lon": -76.987138, "name": "ce47c3d2e52c90f833918eaed5d41b78"}, {"bike_id": "080844a0af11884f76ff6820fb3f16b5", "type": "electric_scooter", "is_disabled": 0, "lat": 38.931785833333336, "rental_uris": {"ios": "https://dc.lft.to/lastmile_qr_scan", "android": "https://dc.lft.to/lastmile_qr_scan"}, "is_reserved": 0, "fusion_lon": 0.0, "fusion_lat": 0.0, "lon": -77.0315665, "name": "080844a0af11884f76ff6820fb3f16b5"}, {"bike_id": "bee753b4246bcecd27889f3316a877e1", "type": "electric_scooter", "is_disabled": 0, "lat": 38.8970875, "rental_uris": {"ios": "https://dc.lft.to/lastmile_qr_scan", "android": "https://dc.lft.to/lastmile_qr_scan"}, "is_reserved": 0, "fusion_lon": 0.0, "fusion_lat": 0.0, "lon": -77.02729633333334, "name": "bee753b4246bcecd27889f3316a877e1"}, {"bike_id": "a545c5335cf793f015bd2176d6d0b018", "type": "electric_scooter", "is_disabled": 0, "lat": 38.896575, "rental_uris": {"ios": "https://dc.lft.to/lastmile_qr_scan", "android": "https://dc.lft.to/lastmile_qr_scan"}, "is_reserved": 0, "fusion_lon": 0.0, "fusion_lat": 0.0, "lon": -77.07099483333333, "name": "a545c5335cf793f015bd2176d6d0b018"}, {"bike_id": "d75b8aa878d0d0489223ea3130845ae2", "type": "electric_scooter", "is_disabled": 0, "lat": 38.9231965, "rental_uris": {"ios": "https://dc.lft.to/lastmile_qr_scan", "android": "https://dc.lft.to/lastmile_qr_scan"}, "is_reserved": 0, "fusion_lon": 0.0, "fusion_lat": 0.0, "lon": -77.05567183333334, "name": "d75b8aa878d0d0489223ea3130845ae2"}, {"bike_id": "5bf5de861d5744f8eaceef90dad1027c", "type": "electric_bike", "is_disabled": 0, "lat": 38.9049535, "rental_uris": {"ios": "https://dc.lft.to/lastmile_qr_scan", "android": "https://dc.lft.to/lastmile_qr_scan"}, "is_reserved": 0, "fusion_lon": 0.0, "fusion_lat": 0.0, "lon": -77.0276085, "name": "5bf5de861d5744f8eaceef90dad1027c"}, {"bike_id": "6fb6432142b44cee7be648884164b0df", "type": "electric_scooter", "is_disabled": 0, "lat": 38.908721666666665, "rental_uris": {"ios": "https://dc.lft.to/lastmile_qr_scan", "android": "https://dc.lft.to/lastmile_qr_scan"}, "is_reserved": 0, "fusion_lon": 0.0, "fusion_lat": 0.0, "lon": -77.03186383333333, "name": "6fb6432142b44cee7be648884164b0df"}, {"bike_id": "5316a6c96bb1a0b17bc28332fa370c9a", "type": "electric_scooter", "is_disabled": 0, "lat": 38.928693, "rental_uris": {"ios": "https://dc.lft.to/lastmile_qr_scan", "android": "https://dc.lft.to/lastmile_qr_scan"}, "is_reserved": 0, "fusion_lon": 0.0, "fusion_lat": 0.0, "lon": -77.03920033333333, "name": "5316a6c96bb1a0b17bc28332fa370c9a"}, {"bike_id": "ea6284eb8b99ef63bb3ae116009992b2", "type": "electric_scooter", "is_disabled": 0, "lat": 38.9146745, "rental_uris": {"ios": "https://dc.lft.to/lastmile_qr_scan", "android": "https://dc.lft.to/lastmile_qr_scan"}, "is_reserved": 0, "fusion_lon": 0.0, "fusion_lat": 0.0, "lon": -76.98112033333334, "name": "ea6284eb8b99ef63bb3ae116009992b2"}, {"bike_id": "c5f16f990149b5313a388a818c2e84b7", "type": "electric_scooter", "is_disabled": 0, "lat": 38.905479666666665, "rental_uris": {"ios": "https://dc.lft.to/lastmile_qr_scan", "android": "https://dc.lft.to/lastmile_qr_scan"}, "is_reserved": 0, "fusion_lon": 0.0, "fusion_lat": 0.0, "lon": -77.0651875, "name": "c5f16f990149b5313a388a818c2e84b7"}, {"bike_id": "336881e00d7d993301cab51e2a413a07", "type": "electric_scooter", "is_disabled": 0, "lat": 38.893566166666666, "rental_uris": {"ios": "https://dc.lft.to/lastmile_qr_scan", "android": "https://dc.lft.to/lastmile_qr_scan"}, "is_reserved": 0, "fusion_lon": 0.0, "fusion_lat": 0.0, "lon": -76.94936266666667, "name": "336881e00d7d993301cab51e2a413a07"}, {"bike_id": "764f5771b864e7f122a6f39f3e8d2513", "type": "electric_scooter", "is_disabled": 0, "lat": 38.87462166666667, "rental_uris": {"ios": "https://dc.lft.to/lastmile_qr_scan", "android": "https://dc.lft.to/lastmile_qr_scan"}, "is_reserved": 0, "fusion_lon": 0.0, "fusion_lat": 0.0, "lon": -77.0093965, "name": "764f5771b864e7f122a6f39f3e8d2513"}, {"bike_id": "1e8ab81c5b7d0467f2724dba75caaecd", "type": "electric_scooter", "is_disabled": 0, "lat": 38.935862166666666, "rental_uris": {"ios": "https://dc.lft.to/lastmile_qr_scan", "android": "https://dc.lft.to/lastmile_qr_scan"}, "is_reserved": 0, "fusion_lon": 0.0, "fusion_lat": 0.0, "lon": -77.03521033333334, "name": "1e8ab81c5b7d0467f2724dba75caaecd"}, {"bike_id": "1360bf5e0275888533b0a55b1d154c55", "type": "electric_scooter", "is_disabled": 0, "lat": 38.91112833333333, "rental_uris": {"ios": "https://dc.lft.to/lastmile_qr_scan", "android": "https://dc.lft.to/lastmile_qr_scan"}, "is_reserved": 0, "fusion_lon": 0.0, "fusion_lat": 0.0, "lon": -77.02208233333333, "name": "1360bf5e0275888533b0a55b1d154c55"}, {"bike_id": "8cb232f0d19d929f5207373d7d34eb87", "type": "electric_scooter", "is_disabled": 0, "lat": 38.926065666666666, "rental_uris": {"ios": "https://dc.lft.to/lastmile_qr_scan", "android": "https://dc.lft.to/lastmile_qr_scan"}, "is_reserved": 0, "fusion_lon": 0.0, "fusion_lat": 0.0, "lon": -77.021608, "name": "8cb232f0d19d929f5207373d7d34eb87"}, {"bike_id": "027bf7ff5a514f8231c13be229015f21", "type": "electric_scooter", "is_disabled": 0, "lat": 38.876858, "rental_uris": {"ios": "https://dc.lft.to/lastmile_qr_scan", "android": "https://dc.lft.to/lastmile_qr_scan"}, "is_reserved": 0, "fusion_lon": 0.0, "fusion_lat": 0.0, "lon": -77.01756783333333, "name": "027bf7ff5a514f8231c13be229015f21"}, {"bike_id": "0c3fc5fd372752d67f8733228fca4b7c", "type": "electric_bike", "is_disabled": 0, "lat": 38.821764, "rental_uris": {"ios": "https://dc.lft.to/lastmile_qr_scan", "android": "https://dc.lft.to/lastmile_qr_scan"}, "is_reserved": 0, "fusion_lon": 0.0, "fusion_lat": 0.0, "lon": -76.995096, "name": "0c3fc5fd372752d67f8733228fca4b7c"}, {"bike_id": "30cf17673982404c2dcaf39b50b96ce2", "type": "electric_bike", "is_disabled": 0, "lat": 38.8972365, "rental_uris": {"ios": "https://dc.lft.to/lastmile_qr_scan", "android": "https://dc.lft.to/lastmile_qr_scan"}, "is_reserved": 0, "fusion_lon": 0.0, "fusion_lat": 0.0, "lon": -76.97338883333333, "name": "30cf17673982404c2dcaf39b50b96ce2"}, {"bike_id": "207c549f701209f9d70932a67c8374fe", "type": "electric_scooter", "is_disabled": 0, "lat": 38.8931095, "rental_uris": {"ios": "https://dc.lft.to/lastmile_qr_scan", "android": "https://dc.lft.to/lastmile_qr_scan"}, "is_reserved": 0, "fusion_lon": 0.0, "fusion_lat": 0.0, "lon": -77.03186683333334, "name": "207c549f701209f9d70932a67c8374fe"}, {"bike_id": "09cd2f651cd5c446044bf32e5ce10938", "type": "electric_scooter", "is_disabled": 0, "lat": 38.8464085, "rental_uris": {"ios": "https://dc.lft.to/lastmile_qr_scan", "android": "https://dc.lft.to/lastmile_qr_scan"}, "is_reserved": 0, "fusion_lon": 0.0, "fusion_lat": 0.0, "lon": -76.991265, "name": "09cd2f651cd5c446044bf32e5ce10938"}, {"bike_id": "1c14489eccd5812dfa53d680c5531fab", "type": "electric_scooter", "is_disabled": 0, "lat": 38.90156483333333, "rental_uris": {"ios": "https://dc.lft.to/lastmile_qr_scan", "android": "https://dc.lft.to/lastmile_qr_scan"}, "is_reserved": 0, "fusion_lon": 0.0, "fusion_lat": 0.0, "lon": -77.02938183333333, "name": "1c14489eccd5812dfa53d680c5531fab"}, {"bike_id": "802b0baf27ba461741b979358377d800", "type": "electric_scooter", "is_disabled": 0, "lat": 38.905402, "rental_uris": {"ios": "https://dc.lft.to/lastmile_qr_scan", "android": "https://dc.lft.to/lastmile_qr_scan"}, "is_reserved": 0, "fusion_lon": 0.0, "fusion_lat": 0.0, "lon": -77.041503, "name": "802b0baf27ba461741b979358377d800"}, {"bike_id": "31ee5de27acd19968ba622f3c31a99ff", "type": "electric_scooter", "is_disabled": 0, "lat": 38.91824833333333, "rental_uris": {"ios": "https://dc.lft.to/lastmile_qr_scan", "android": "https://dc.lft.to/lastmile_qr_scan"}, "is_reserved": 0, "fusion_lon": 0.0, "fusion_lat": 0.0, "lon": -77.0393605, "name": "31ee5de27acd19968ba622f3c31a99ff"}, {"bike_id": "38242d16d48a0c47fe10480711aee483", "type": "electric_bike", "is_disabled": 0, "lat": 38.9149355, "rental_uris": {"ios": "https://dc.lft.to/lastmile_qr_scan", "android": "https://dc.lft.to/lastmile_qr_scan"}, "is_reserved": 0, "fusion_lon": 0.0, "fusion_lat": 0.0, "lon": -77.03209516666666, "name": "38242d16d48a0c47fe10480711aee483"}, {"bike_id": "86a3bfd35343b0d218d4d5203a75194d", "type": "electric_bike", "is_disabled": 0, "lat": 39.035745666666664, "rental_uris": {"ios": "https://dc.lft.to/lastmile_qr_scan", "android": "https://dc.lft.to/lastmile_qr_scan"}, "is_reserved": 0, "fusion_lon": 0.0, "fusion_lat": 0.0, "lon": -77.03939583333333, "name": "86a3bfd35343b0d218d4d5203a75194d"}, {"bike_id": "b71d5bf53d304aa21c936bd44343659a", "type": "electric_bike", "is_disabled": 0, "lat": 38.93688816666667, "rental_uris": {"ios": "https://dc.lft.to/lastmile_qr_scan", "android": "https://dc.lft.to/lastmile_qr_scan"}, "is_reserved": 0, "fusion_lon": 0.0, "fusion_lat": 0.0, "lon": -76.99060566666667, "name": "b71d5bf53d304aa21c936bd44343659a"}, {"bike_id": "e04846fc4c61853215caee4219f2878d", "type": "electric_scooter", "is_disabled": 0, "lat": 38.907129166666664, "rental_uris": {"ios": "https://dc.lft.to/lastmile_qr_scan", "android": "https://dc.lft.to/lastmile_qr_scan"}, "is_reserved": 0, "fusion_lon": 0.0, "fusion_lat": 0.0, "lon": -77.03202766666666, "name": "e04846fc4c61853215caee4219f2878d"}, {"bike_id": "684366b6c135290b59e438ab7e9ef11c", "type": "electric_scooter", "is_disabled": 0, "lat": 38.934579, "rental_uris": {"ios": "https://dc.lft.to/lastmile_qr_scan", "android": "https://dc.lft.to/lastmile_qr_scan"}, "is_reserved": 0, "fusion_lon": 0.0, "fusion_lat": 0.0, "lon": -77.04534883333334, "name": "684366b6c135290b59e438ab7e9ef11c"}, {"bike_id": "c4aa448063666b013b527059c621bf5e", "type": "electric_scooter", "is_disabled": 0, "lat": 38.89940416666666, "rental_uris": {"ios": "https://dc.lft.to/lastmile_qr_scan", "android": "https://dc.lft.to/lastmile_qr_scan"}, "is_reserved": 0, "fusion_lon": 0.0, "fusion_lat": 0.0, "lon": -77.0145155, "name": "c4aa448063666b013b527059c621bf5e"}, {"bike_id": "15d4e74442193c0a583be8174ad4397e", "type": "electric_scooter", "is_disabled": 0, "lat": 38.92239933333333, "rental_uris": {"ios": "https://dc.lft.to/lastmile_qr_scan", "android": "https://dc.lft.to/lastmile_qr_scan"}, "is_reserved": 0, "fusion_lon": 0.0, "fusion_lat": 0.0, "lon": -77.0419735, "name": "15d4e74442193c0a583be8174ad4397e"}, {"bike_id": "f00bde84b127758f0d8c3ef7e9068e10", "type": "electric_bike", "is_disabled": 0, "lat": 38.966320333333336, "rental_uris": {"ios": "https://dc.lft.to/lastmile_qr_scan", "android": "https://dc.lft.to/lastmile_qr_scan"}, "is_reserved": 0, "fusion_lon": 0.0, "fusion_lat": 0.0, "lon": -76.97679416666666, "name": "f00bde84b127758f0d8c3ef7e9068e10"}, {"bike_id": "b2a9307a2c71aa54d9469ea12fad91ef", "type": "electric_scooter", "is_disabled": 0, "lat": 38.89915216666667, "rental_uris": {"ios": "https://dc.lft.to/lastmile_qr_scan", "android": "https://dc.lft.to/lastmile_qr_scan"}, "is_reserved": 0, "fusion_lon": 0.0, "fusion_lat": 0.0, "lon": -76.93364583333333, "name": "b2a9307a2c71aa54d9469ea12fad91ef"}, {"bike_id": "332f3466ca71d9bca9dabffec09d3388", "type": "electric_scooter", "is_disabled": 0, "lat": 38.900295, "rental_uris": {"ios": "https://dc.lft.to/lastmile_qr_scan", "android": "https://dc.lft.to/lastmile_qr_scan"}, "is_reserved": 0, "fusion_lon": 0.0, "fusion_lat": 0.0, "lon": -76.98854783333333, "name": "332f3466ca71d9bca9dabffec09d3388"}, {"bike_id": "6eb3d1b22eb4ed18efb51a55fd93aa25", "type": "electric_scooter", "is_disabled": 0, "lat": 38.915628166666664, "rental_uris": {"ios": "https://dc.lft.to/lastmile_qr_scan", "android": "https://dc.lft.to/lastmile_qr_scan"}, "is_reserved": 0, "fusion_lon": 0.0, "fusion_lat": 0.0, "lon": -77.02591166666667, "name": "6eb3d1b22eb4ed18efb51a55fd93aa25"}, {"bike_id": "90962d89a172ec5d1833fd64c9e35501", "type": "electric_scooter", "is_disabled": 0, "lat": 38.912553333333335, "rental_uris": {"ios": "https://dc.lft.to/lastmile_qr_scan", "android": "https://dc.lft.to/lastmile_qr_scan"}, "is_reserved": 0, "fusion_lon": 0.0, "fusion_lat": 0.0, "lon": -77.00959516666667, "name": "90962d89a172ec5d1833fd64c9e35501"}, {"bike_id": "1ed3daba55c14be3a144e784042f513f", "type": "electric_scooter", "is_disabled": 0, "lat": 38.90483916666667, "rental_uris": {"ios": "https://dc.lft.to/lastmile_qr_scan", "android": "https://dc.lft.to/lastmile_qr_scan"}, "is_reserved": 0, "fusion_lon": 0.0, "fusion_lat": 0.0, "lon": -77.02963383333334, "name": "1ed3daba55c14be3a144e784042f513f"}, {"bike_id": "3738700879668c780190092eb032e54c", "type": "electric_scooter", "is_disabled": 0, "lat": 38.917053333333335, "rental_uris": {"ios": "https://dc.lft.to/lastmile_qr_scan", "android": "https://dc.lft.to/lastmile_qr_scan"}, "is_reserved": 0, "fusion_lon": 0.0, "fusion_lat": 0.0, "lon": -77.00817716666667, "name": "3738700879668c780190092eb032e54c"}, {"bike_id": "9557a03892977d2026a750e1deb429f8", "type": "electric_scooter", "is_disabled": 0, "lat": 38.915554, "rental_uris": {"ios": "https://dc.lft.to/lastmile_qr_scan", "android": "https://dc.lft.to/lastmile_qr_scan"}, "is_reserved": 0, "fusion_lon": 0.0, "fusion_lat": 0.0, "lon": -77.04444183333334, "name": "9557a03892977d2026a750e1deb429f8"}, {"bike_id": "100d31cf0ce904c8617247728c3ab1cb", "type": "electric_scooter", "is_disabled": 0, "lat": 38.87877666666667, "rental_uris": {"ios": "https://dc.lft.to/lastmile_qr_scan", "android": "https://dc.lft.to/lastmile_qr_scan"}, "is_reserved": 0, "fusion_lon": 0.0, "fusion_lat": 0.0, "lon": -77.017475, "name": "100d31cf0ce904c8617247728c3ab1cb"}, {"bike_id": "0ef280ca37e0b05b25768a3d3a2a8d42", "type": "electric_scooter", "is_disabled": 0, "lat": 38.93513016666667, "rental_uris": {"ios": "https://dc.lft.to/lastmile_qr_scan", "android": "https://dc.lft.to/lastmile_qr_scan"}, "is_reserved": 0, "fusion_lon": 0.0, "fusion_lat": 0.0, "lon": -77.03348833333334, "name": "0ef280ca37e0b05b25768a3d3a2a8d42"}, {"bike_id": "b29b96066fb3faa84d3e16aa668a68db", "type": "electric_scooter", "is_disabled": 0, "lat": 38.91421866666666, "rental_uris": {"ios": "https://dc.lft.to/lastmile_qr_scan", "android": "https://dc.lft.to/lastmile_qr_scan"}, "is_reserved": 0, "fusion_lon": 0.0, "fusion_lat": 0.0, "lon": -77.02183066666667, "name": "b29b96066fb3faa84d3e16aa668a68db"}, {"bike_id": "46beecad1b6f5b7c10d0d8fae8d41836", "type": "electric_scooter", "is_disabled": 0, "lat": 38.89520266666667, "rental_uris": {"ios": "https://dc.lft.to/lastmile_qr_scan", "android": "https://dc.lft.to/lastmile_qr_scan"}, "is_reserved": 0, "fusion_lon": 0.0, "fusion_lat": 0.0, "lon": -77.01599033333333, "name": "46beecad1b6f5b7c10d0d8fae8d41836"}, {"bike_id": "30eb10e93e646e41bf4b3a06d742f8ae", "type": "electric_scooter", "is_disabled": 0, "lat": 38.91811783333333, "rental_uris": {"ios": "https://dc.lft.to/lastmile_qr_scan", "android": "https://dc.lft.to/lastmile_qr_scan"}, "is_reserved": 0, "fusion_lon": 0.0, "fusion_lat": 0.0, "lon": -77.02693283333333, "name": "30eb10e93e646e41bf4b3a06d742f8ae"}, {"bike_id": "3f4ede50ed4e9d17a5f04b8b5b9f590e", "type": "electric_scooter", "is_disabled": 0, "lat": 38.911142166666664, "rental_uris": {"ios": "https://dc.lft.to/lastmile_qr_scan", "android": "https://dc.lft.to/lastmile_qr_scan"}, "is_reserved": 0, "fusion_lon": 0.0, "fusion_lat": 0.0, "lon": -77.042223, "name": "3f4ede50ed4e9d17a5f04b8b5b9f590e"}, {"bike_id": "a1d560dd92e39ab97b0395589d119ae6", "type": "electric_scooter", "is_disabled": 0, "lat": 38.844308833333336, "rental_uris": {"ios": "https://dc.lft.to/lastmile_qr_scan", "android": "https://dc.lft.to/lastmile_qr_scan"}, "is_reserved": 0, "fusion_lon": 0.0, "fusion_lat": 0.0, "lon": -76.99869116666666, "name": "a1d560dd92e39ab97b0395589d119ae6"}, {"bike_id": "032b663ec1e88a7cb0eb47ecee6cdb09", "type": "electric_scooter", "is_disabled": 0, "lat": 38.911095, "rental_uris": {"ios": "https://dc.lft.to/lastmile_qr_scan", "android": "https://dc.lft.to/lastmile_qr_scan"}, "is_reserved": 0, "fusion_lon": 0.0, "fusion_lat": 0.0, "lon": -77.0139225, "name": "032b663ec1e88a7cb0eb47ecee6cdb09"}, {"bike_id": "83fda8d6f5988708b3b42ca32e4263cd", "type": "electric_scooter", "is_disabled": 0, "lat": 38.909485333333336, "rental_uris": {"ios": "https://dc.lft.to/lastmile_qr_scan", "android": "https://dc.lft.to/lastmile_qr_scan"}, "is_reserved": 0, "fusion_lon": 0.0, "fusion_lat": 0.0, "lon": -77.04058216666667, "name": "83fda8d6f5988708b3b42ca32e4263cd"}, {"bike_id": "438aae34adbbf3c6d98a7a264b767197", "type": "electric_scooter", "is_disabled": 0, "lat": 38.91717716666667, "rental_uris": {"ios": "https://dc.lft.to/lastmile_qr_scan", "android": "https://dc.lft.to/lastmile_qr_scan"}, "is_reserved": 0, "fusion_lon": 0.0, "fusion_lat": 0.0, "lon": -77.04681483333333, "name": "438aae34adbbf3c6d98a7a264b767197"}, {"bike_id": "2f787cc45b638145bf6907174991ebc5", "type": "electric_scooter", "is_disabled": 0, "lat": 38.914793333333336, "rental_uris": {"ios": "https://dc.lft.to/lastmile_qr_scan", "android": "https://dc.lft.to/lastmile_qr_scan"}, "is_reserved": 0, "fusion_lon": 0.0, "fusion_lat": 0.0, "lon": -77.04562383333334, "name": "2f787cc45b638145bf6907174991ebc5"}, {"bike_id": "df0f9953311116853b39da129ea6639d", "type": "electric_scooter", "is_disabled": 0, "lat": 38.96495066666667, "rental_uris": {"ios": "https://dc.lft.to/lastmile_qr_scan", "android": "https://dc.lft.to/lastmile_qr_scan"}, "is_reserved": 0, "fusion_lon": 0.0, "fusion_lat": 0.0, "lon": -77.0019905, "name": "df0f9953311116853b39da129ea6639d"}, {"bike_id": "91f92ced5c268f8d0bc4194d7383e3a7", "type": "electric_bike", "is_disabled": 0, "lat": 38.9388025, "rental_uris": {"ios": "https://dc.lft.to/lastmile_qr_scan", "android": "https://dc.lft.to/lastmile_qr_scan"}, "is_reserved": 0, "fusion_lon": 0.0, "fusion_lat": 0.0, "lon": -77.06354233333333, "name": "91f92ced5c268f8d0bc4194d7383e3a7"}, {"bike_id": "83e3031c8c37a1b57762ac3c7800e42b", "type": "electric_scooter", "is_disabled": 0, "lat": 38.928786, "rental_uris": {"ios": "https://dc.lft.to/lastmile_qr_scan", "android": "https://dc.lft.to/lastmile_qr_scan"}, "is_reserved": 0, "fusion_lon": 0.0, "fusion_lat": 0.0, "lon": -77.03766833333333, "name": "83e3031c8c37a1b57762ac3c7800e42b"}, {"bike_id": "d09e36927a925886caedf231955566c7", "type": "electric_scooter", "is_disabled": 0, "lat": 38.903912166666665, "rental_uris": {"ios": "https://dc.lft.to/lastmile_qr_scan", "android": "https://dc.lft.to/lastmile_qr_scan"}, "is_reserved": 0, "fusion_lon": 0.0, "fusion_lat": 0.0, "lon": -77.0220185, "name": "d09e36927a925886caedf231955566c7"}, {"bike_id": "6fcc421a5fff190ab532e17643090cd9", "type": "electric_scooter", "is_disabled": 0, "lat": 38.89886083333333, "rental_uris": {"ios": "https://dc.lft.to/lastmile_qr_scan", "android": "https://dc.lft.to/lastmile_qr_scan"}, "is_reserved": 0, "fusion_lon": 0.0, "fusion_lat": 0.0, "lon": -76.93175316666667, "name": "6fcc421a5fff190ab532e17643090cd9"}, {"bike_id": "e6ca74ea7a2006c939a07692b737fe4b", "type": "electric_scooter", "is_disabled": 0, "lat": 38.895152833333334, "rental_uris": {"ios": "https://dc.lft.to/lastmile_qr_scan", "android": "https://dc.lft.to/lastmile_qr_scan"}, "is_reserved": 0, "fusion_lon": 0.0, "fusion_lat": 0.0, "lon": -77.02285583333334, "name": "e6ca74ea7a2006c939a07692b737fe4b"}, {"bike_id": "137f279d49e002eac0819fc96559d98e", "type": "electric_scooter", "is_disabled": 0, "lat": 38.892399166666664, "rental_uris": {"ios": "https://dc.lft.to/lastmile_qr_scan", "android": "https://dc.lft.to/lastmile_qr_scan"}, "is_reserved": 0, "fusion_lon": 0.0, "fusion_lat": 0.0, "lon": -77.04502583333333, "name": "137f279d49e002eac0819fc96559d98e"}, {"bike_id": "5f1b6e88e4d5111703df2014e8a54fe8", "type": "electric_scooter", "is_disabled": 0, "lat": 38.887438333333336, "rental_uris": {"ios": "https://dc.lft.to/lastmile_qr_scan", "android": "https://dc.lft.to/lastmile_qr_scan"}, "is_reserved": 0, "fusion_lon": 0.0, "fusion_lat": 0.0, "lon": -77.03161683333333, "name": "5f1b6e88e4d5111703df2014e8a54fe8"}, {"bike_id": "f03c659dee58956ac9ca2ac52caec306", "type": "electric_scooter", "is_disabled": 0, "lat": 38.92860066666667, "rental_uris": {"ios": "https://dc.lft.to/lastmile_qr_scan", "android": "https://dc.lft.to/lastmile_qr_scan"}, "is_reserved": 0, "fusion_lon": 0.0, "fusion_lat": 0.0, "lon": -77.03370683333333, "name": "f03c659dee58956ac9ca2ac52caec306"}, {"bike_id": "df0a9cdba29c187d7b69dcf2a86ff55a", "type": "electric_scooter", "is_disabled": 0, "lat": 38.90956416666667, "rental_uris": {"ios": "https://dc.lft.to/lastmile_qr_scan", "android": "https://dc.lft.to/lastmile_qr_scan"}, "is_reserved": 0, "fusion_lon": 0.0, "fusion_lat": 0.0, "lon": -77.032844, "name": "df0a9cdba29c187d7b69dcf2a86ff55a"}, {"bike_id": "67ae6d3957f3518de82c7022d4f6ad8a", "type": "electric_scooter", "is_disabled": 0, "lat": 38.90033783333333, "rental_uris": {"ios": "https://dc.lft.to/lastmile_qr_scan", "android": "https://dc.lft.to/lastmile_qr_scan"}, "is_reserved": 0, "fusion_lon": 0.0, "fusion_lat": 0.0, "lon": -76.99154083333333, "name": "67ae6d3957f3518de82c7022d4f6ad8a"}, {"bike_id": "abeead58e8f5b6c9517b2e5466ac947d", "type": "electric_scooter", "is_disabled": 0, "lat": 38.966058833333335, "rental_uris": {"ios": "https://dc.lft.to/lastmile_qr_scan", "android": "https://dc.lft.to/lastmile_qr_scan"}, "is_reserved": 0, "fusion_lon": 0.0, "fusion_lat": 0.0, "lon": -77.019761, "name": "abeead58e8f5b6c9517b2e5466ac947d"}, {"bike_id": "b462c38b37d3467540f873ec4d98ca9e", "type": "electric_scooter", "is_disabled": 0, "lat": 38.89957066666667, "rental_uris": {"ios": "https://dc.lft.to/lastmile_qr_scan", "android": "https://dc.lft.to/lastmile_qr_scan"}, "is_reserved": 0, "fusion_lon": 0.0, "fusion_lat": 0.0, "lon": -77.01982633333333, "name": "b462c38b37d3467540f873ec4d98ca9e"}, {"bike_id": "e6851328ff6e36ff1d7ac6cf6bf4d60e", "type": "electric_scooter", "is_disabled": 0, "lat": 38.914203, "rental_uris": {"ios": "https://dc.lft.to/lastmile_qr_scan", "android": "https://dc.lft.to/lastmile_qr_scan"}, "is_reserved": 0, "fusion_lon": 0.0, "fusion_lat": 0.0, "lon": -77.02226866666666, "name": "e6851328ff6e36ff1d7ac6cf6bf4d60e"}, {"bike_id": "4759ef3da1a0b963a3fcb96674b0dce5", "type": "electric_bike", "is_disabled": 0, "lat": 38.8812795, "rental_uris": {"ios": "https://dc.lft.to/lastmile_qr_scan", "android": "https://dc.lft.to/lastmile_qr_scan"}, "is_reserved": 0, "fusion_lon": 0.0, "fusion_lat": 0.0, "lon": -77.01680416666666, "name": "4759ef3da1a0b963a3fcb96674b0dce5"}, {"bike_id": "fd3424b6264235378c5dab0d4ef341c1", "type": "electric_bike", "is_disabled": 0, "lat": 38.80706966666666, "rental_uris": {"ios": "https://dc.lft.to/lastmile_qr_scan", "android": "https://dc.lft.to/lastmile_qr_scan"}, "is_reserved": 0, "fusion_lon": 0.0, "fusion_lat": 0.0, "lon": -77.061716, "name": "fd3424b6264235378c5dab0d4ef341c1"}, {"bike_id": "6c55629a404a782a755ddd627f8eefba", "type": "electric_scooter", "is_disabled": 0, "lat": 38.91187466666667, "rental_uris": {"ios": "https://dc.lft.to/lastmile_qr_scan", "android": "https://dc.lft.to/lastmile_qr_scan"}, "is_reserved": 0, "fusion_lon": 0.0, "fusion_lat": 0.0, "lon": -77.038307, "name": "6c55629a404a782a755ddd627f8eefba"}, {"bike_id": "b3735df0c757972d1c1f6b5c2f24c389", "type": "electric_scooter", "is_disabled": 0, "lat": 38.902515333333334, "rental_uris": {"ios": "https://dc.lft.to/lastmile_qr_scan", "android": "https://dc.lft.to/lastmile_qr_scan"}, "is_reserved": 0, "fusion_lon": 0.0, "fusion_lat": 0.0, "lon": -76.98668133333334, "name": "b3735df0c757972d1c1f6b5c2f24c389"}, {"bike_id": "b7763f0795b7a81ee581f4b7f27b8675", "type": "electric_bike", "is_disabled": 0, "lat": 38.8841735, "rental_uris": {"ios": "https://dc.lft.to/lastmile_qr_scan", "android": "https://dc.lft.to/lastmile_qr_scan"}, "is_reserved": 0, "fusion_lon": 0.0, "fusion_lat": 0.0, "lon": -77.02433266666667, "name": "b7763f0795b7a81ee581f4b7f27b8675"}, {"bike_id": "1fc812ead9c237efceab1c4965af6afd", "type": "electric_scooter", "is_disabled": 0, "lat": 38.88539516666667, "rental_uris": {"ios": "https://dc.lft.to/lastmile_qr_scan", "android": "https://dc.lft.to/lastmile_qr_scan"}, "is_reserved": 0, "fusion_lon": 0.0, "fusion_lat": 0.0, "lon": -77.00582133333333, "name": "1fc812ead9c237efceab1c4965af6afd"}, {"bike_id": "3056908bbd59d6f118b3ffe4c7baaf59", "type": "electric_scooter", "is_disabled": 0, "lat": 38.87359583333333, "rental_uris": {"ios": "https://dc.lft.to/lastmile_qr_scan", "android": "https://dc.lft.to/lastmile_qr_scan"}, "is_reserved": 0, "fusion_lon": 0.0, "fusion_lat": 0.0, "lon": -76.97027733333333, "name": "3056908bbd59d6f118b3ffe4c7baaf59"}, {"bike_id": "c04452d029eb5d2d8b88a9c767fa9325", "type": "electric_scooter", "is_disabled": 0, "lat": 38.933279, "rental_uris": {"ios": "https://dc.lft.to/lastmile_qr_scan", "android": "https://dc.lft.to/lastmile_qr_scan"}, "is_reserved": 0, "fusion_lon": 0.0, "fusion_lat": 0.0, "lon": -77.0285535, "name": "c04452d029eb5d2d8b88a9c767fa9325"}, {"bike_id": "2e7c881ad2e8358ee4b60342695fff6b", "type": "electric_scooter", "is_disabled": 0, "lat": 38.920646166666664, "rental_uris": {"ios": "https://dc.lft.to/lastmile_qr_scan", "android": "https://dc.lft.to/lastmile_qr_scan"}, "is_reserved": 0, "fusion_lon": 0.0, "fusion_lat": 0.0, "lon": -77.03814816666667, "name": "2e7c881ad2e8358ee4b60342695fff6b"}, {"bike_id": "ad698ddfebac8aa68a99ed3aaa0784f3", "type": "electric_scooter", "is_disabled": 0, "lat": 38.898923833333335, "rental_uris": {"ios": "https://dc.lft.to/lastmile_qr_scan", "android": "https://dc.lft.to/lastmile_qr_scan"}, "is_reserved": 0, "fusion_lon": 0.0, "fusion_lat": 0.0, "lon": -77.03960066666667, "name": "ad698ddfebac8aa68a99ed3aaa0784f3"}, {"bike_id": "4e54046638543f9bb925d6ae8245b58f", "type": "electric_bike", "is_disabled": 0, "lat": 38.798554833333334, "rental_uris": {"ios": "https://dc.lft.to/lastmile_qr_scan", "android": "https://dc.lft.to/lastmile_qr_scan"}, "is_reserved": 0, "fusion_lon": 0.0, "fusion_lat": 0.0, "lon": -77.06307166666667, "name": "4e54046638543f9bb925d6ae8245b58f"}, {"bike_id": "cc7078950995d521232e88ad28908019", "type": "electric_scooter", "is_disabled": 0, "lat": 38.923365833333335, "rental_uris": {"ios": "https://dc.lft.to/lastmile_qr_scan", "android": "https://dc.lft.to/lastmile_qr_scan"}, "is_reserved": 0, "fusion_lon": 0.0, "fusion_lat": 0.0, "lon": -77.03490966666666, "name": "cc7078950995d521232e88ad28908019"}, {"bike_id": "68197666bacd5fc6bbbbc0e9d849bce3", "type": "electric_scooter", "is_disabled": 0, "lat": 38.905366666666666, "rental_uris": {"ios": "https://dc.lft.to/lastmile_qr_scan", "android": "https://dc.lft.to/lastmile_qr_scan"}, "is_reserved": 0, "fusion_lon": 0.0, "fusion_lat": 0.0, "lon": -77.02690666666666, "name": "68197666bacd5fc6bbbbc0e9d849bce3"}, {"bike_id": "dc9f33ad916f94ccbc4789336a48c31e", "type": "electric_scooter", "is_disabled": 0, "lat": 38.9052445, "rental_uris": {"ios": "https://dc.lft.to/lastmile_qr_scan", "android": "https://dc.lft.to/lastmile_qr_scan"}, "is_reserved": 0, "fusion_lon": 0.0, "fusion_lat": 0.0, "lon": -77.06380533333333, "name": "dc9f33ad916f94ccbc4789336a48c31e"}, {"bike_id": "19b3f7ffc71c45fc54a199bbbecc3018", "type": "electric_scooter", "is_disabled": 0, "lat": 38.886482666666666, "rental_uris": {"ios": "https://dc.lft.to/lastmile_qr_scan", "android": "https://dc.lft.to/lastmile_qr_scan"}, "is_reserved": 0, "fusion_lon": 0.0, "fusion_lat": 0.0, "lon": -77.00118383333333, "name": "19b3f7ffc71c45fc54a199bbbecc3018"}, {"bike_id": "dd9f56f3630f0be2b9cc7c1dbe9e7b6f", "type": "electric_scooter", "is_disabled": 0, "lat": 38.9196685, "rental_uris": {"ios": "https://dc.lft.to/lastmile_qr_scan", "android": "https://dc.lft.to/lastmile_qr_scan"}, "is_reserved": 0, "fusion_lon": 0.0, "fusion_lat": 0.0, "lon": -77.0235515, "name": "dd9f56f3630f0be2b9cc7c1dbe9e7b6f"}, {"bike_id": "67e7d3afc0c59e94edced2bc5d2136ef", "type": "electric_scooter", "is_disabled": 0, "lat": 38.877820666666665, "rental_uris": {"ios": "https://dc.lft.to/lastmile_qr_scan", "android": "https://dc.lft.to/lastmile_qr_scan"}, "is_reserved": 0, "fusion_lon": 0.0, "fusion_lat": 0.0, "lon": -76.99410016666667, "name": "67e7d3afc0c59e94edced2bc5d2136ef"}, {"bike_id": "1d66ac9c12acce7b32fe45c355817209", "type": "electric_scooter", "is_disabled": 0, "lat": 38.91504916666667, "rental_uris": {"ios": "https://dc.lft.to/lastmile_qr_scan", "android": "https://dc.lft.to/lastmile_qr_scan"}, "is_reserved": 0, "fusion_lon": 0.0, "fusion_lat": 0.0, "lon": -77.01774166666667, "name": "1d66ac9c12acce7b32fe45c355817209"}, {"bike_id": "4a613fb07b7602fde68f1c6773a4c769", "type": "electric_scooter", "is_disabled": 0, "lat": 38.956354, "rental_uris": {"ios": "https://dc.lft.to/lastmile_qr_scan", "android": "https://dc.lft.to/lastmile_qr_scan"}, "is_reserved": 0, "fusion_lon": 0.0, "fusion_lat": 0.0, "lon": -77.01149633333333, "name": "4a613fb07b7602fde68f1c6773a4c769"}, {"bike_id": "1e1c43536f0afc8b820ec217ed22e974", "type": "electric_scooter", "is_disabled": 0, "lat": 38.93733533333333, "rental_uris": {"ios": "https://dc.lft.to/lastmile_qr_scan", "android": "https://dc.lft.to/lastmile_qr_scan"}, "is_reserved": 0, "fusion_lon": 0.0, "fusion_lat": 0.0, "lon": -77.03263266666667, "name": "1e1c43536f0afc8b820ec217ed22e974"}, {"bike_id": "295a61d7ff3e4bc45b131bbc7bdb781d", "type": "electric_scooter", "is_disabled": 0, "lat": 38.895015, "rental_uris": {"ios": "https://dc.lft.to/lastmile_qr_scan", "android": "https://dc.lft.to/lastmile_qr_scan"}, "is_reserved": 0, "fusion_lon": 0.0, "fusion_lat": 0.0, "lon": -77.022971, "name": "295a61d7ff3e4bc45b131bbc7bdb781d"}, {"bike_id": "e255e52d4519be69acaf856bb9635ac1", "type": "electric_scooter", "is_disabled": 0, "lat": 38.91086033333333, "rental_uris": {"ios": "https://dc.lft.to/lastmile_qr_scan", "android": "https://dc.lft.to/lastmile_qr_scan"}, "is_reserved": 0, "fusion_lon": 0.0, "fusion_lat": 0.0, "lon": -77.01683833333334, "name": "e255e52d4519be69acaf856bb9635ac1"}, {"bike_id": "42e4fe2dc5084291ea4e91102549ef1e", "type": "electric_scooter", "is_disabled": 0, "lat": 38.95648216666667, "rental_uris": {"ios": "https://dc.lft.to/lastmile_qr_scan", "android": "https://dc.lft.to/lastmile_qr_scan"}, "is_reserved": 0, "fusion_lon": 0.0, "fusion_lat": 0.0, "lon": -77.00997583333333, "name": "42e4fe2dc5084291ea4e91102549ef1e"}, {"bike_id": "910c30d7b4e090c7134249cbb4f960ae", "type": "electric_scooter", "is_disabled": 0, "lat": 38.924501166666666, "rental_uris": {"ios": "https://dc.lft.to/lastmile_qr_scan", "android": "https://dc.lft.to/lastmile_qr_scan"}, "is_reserved": 0, "fusion_lon": 0.0, "fusion_lat": 0.0, "lon": -77.0439875, "name": "910c30d7b4e090c7134249cbb4f960ae"}, {"bike_id": "ac52e0478ad19810c3d341cf62b92a2f", "type": "electric_scooter", "is_disabled": 0, "lat": 38.901683, "rental_uris": {"ios": "https://dc.lft.to/lastmile_qr_scan", "android": "https://dc.lft.to/lastmile_qr_scan"}, "is_reserved": 0, "fusion_lon": 0.0, "fusion_lat": 0.0, "lon": -76.93026083333334, "name": "ac52e0478ad19810c3d341cf62b92a2f"}, {"bike_id": "084c3da26c45d2a45ff9ab7d00b03eb3", "type": "electric_scooter", "is_disabled": 0, "lat": 38.900262, "rental_uris": {"ios": "https://dc.lft.to/lastmile_qr_scan", "android": "https://dc.lft.to/lastmile_qr_scan"}, "is_reserved": 0, "fusion_lon": 0.0, "fusion_lat": 0.0, "lon": -77.03813683333334, "name": "084c3da26c45d2a45ff9ab7d00b03eb3"}, {"bike_id": "f18dae5bc8487fe1b0830f8e28b371d0", "type": "electric_scooter", "is_disabled": 0, "lat": 38.91565466666667, "rental_uris": {"ios": "https://dc.lft.to/lastmile_qr_scan", "android": "https://dc.lft.to/lastmile_qr_scan"}, "is_reserved": 0, "fusion_lon": 0.0, "fusion_lat": 0.0, "lon": -77.02593466666667, "name": "f18dae5bc8487fe1b0830f8e28b371d0"}, {"bike_id": "492722117afdbb57ee18f308bc5ac9a7", "type": "electric_scooter", "is_disabled": 0, "lat": 38.920444, "rental_uris": {"ios": "https://dc.lft.to/lastmile_qr_scan", "android": "https://dc.lft.to/lastmile_qr_scan"}, "is_reserved": 0, "fusion_lon": 0.0, "fusion_lat": 0.0, "lon": -77.03243266666666, "name": "492722117afdbb57ee18f308bc5ac9a7"}, {"bike_id": "0fd6e329c901768ca522195e82723d9c", "type": "electric_scooter", "is_disabled": 0, "lat": 38.90588283333334, "rental_uris": {"ios": "https://dc.lft.to/lastmile_qr_scan", "android": "https://dc.lft.to/lastmile_qr_scan"}, "is_reserved": 0, "fusion_lon": 0.0, "fusion_lat": 0.0, "lon": -77.047187, "name": "0fd6e329c901768ca522195e82723d9c"}, {"bike_id": "6d94105f4404c3e2f3103b10d8b579a4", "type": "electric_scooter", "is_disabled": 0, "lat": 38.938882666666665, "rental_uris": {"ios": "https://dc.lft.to/lastmile_qr_scan", "android": "https://dc.lft.to/lastmile_qr_scan"}, "is_reserved": 0, "fusion_lon": 0.0, "fusion_lat": 0.0, "lon": -77.024796, "name": "6d94105f4404c3e2f3103b10d8b579a4"}, {"bike_id": "90bcd8d9bd85c401e6c0c8d7b42fe852", "type": "electric_scooter", "is_disabled": 0, "lat": 38.94191, "rental_uris": {"ios": "https://dc.lft.to/lastmile_qr_scan", "android": "https://dc.lft.to/lastmile_qr_scan"}, "is_reserved": 0, "fusion_lon": 0.0, "fusion_lat": 0.0, "lon": -77.03325983333333, "name": "90bcd8d9bd85c401e6c0c8d7b42fe852"}, {"bike_id": "56848cc63decef6d754068a1dbfbdd6b", "type": "electric_bike", "is_disabled": 0, "lat": 38.94795383333334, "rental_uris": {"ios": "https://dc.lft.to/lastmile_qr_scan", "android": "https://dc.lft.to/lastmile_qr_scan"}, "is_reserved": 0, "fusion_lon": 0.0, "fusion_lat": 0.0, "lon": -76.9553965, "name": "56848cc63decef6d754068a1dbfbdd6b"}, {"bike_id": "bc887ed35b808aa725b44267571533a9", "type": "electric_scooter", "is_disabled": 0, "lat": 38.90533383333333, "rental_uris": {"ios": "https://dc.lft.to/lastmile_qr_scan", "android": "https://dc.lft.to/lastmile_qr_scan"}, "is_reserved": 0, "fusion_lon": 0.0, "fusion_lat": 0.0, "lon": -77.04678983333334, "name": "bc887ed35b808aa725b44267571533a9"}, {"bike_id": "66422a3eaecd94d3d5687e7d23e3cd3f", "type": "electric_scooter", "is_disabled": 0, "lat": 38.91877816666667, "rental_uris": {"ios": "https://dc.lft.to/lastmile_qr_scan", "android": "https://dc.lft.to/lastmile_qr_scan"}, "is_reserved": 0, "fusion_lon": 0.0, "fusion_lat": 0.0, "lon": -77.03468316666667, "name": "66422a3eaecd94d3d5687e7d23e3cd3f"}, {"bike_id": "234eea770b68f194a7770d4cb4b1080a", "type": "electric_scooter", "is_disabled": 0, "lat": 38.9231565, "rental_uris": {"ios": "https://dc.lft.to/lastmile_qr_scan", "android": "https://dc.lft.to/lastmile_qr_scan"}, "is_reserved": 0, "fusion_lon": 0.0, "fusion_lat": 0.0, "lon": -77.04639716666667, "name": "234eea770b68f194a7770d4cb4b1080a"}, {"bike_id": "030bb55d8913c0495ffd71e2fd5fbe2b", "type": "electric_scooter", "is_disabled": 0, "lat": 38.941935, "rental_uris": {"ios": "https://dc.lft.to/lastmile_qr_scan", "android": "https://dc.lft.to/lastmile_qr_scan"}, "is_reserved": 0, "fusion_lon": 0.0, "fusion_lat": 0.0, "lon": -77.036576, "name": "030bb55d8913c0495ffd71e2fd5fbe2b"}, {"bike_id": "f7fa7449c209f2d2ebd444d819d3bfd9", "type": "electric_scooter", "is_disabled": 0, "lat": 38.8431425, "rental_uris": {"ios": "https://dc.lft.to/lastmile_qr_scan", "android": "https://dc.lft.to/lastmile_qr_scan"}, "is_reserved": 0, "fusion_lon": 0.0, "fusion_lat": 0.0, "lon": -76.99922833333333, "name": "f7fa7449c209f2d2ebd444d819d3bfd9"},