{"data": {"bikes": [{"is_disabled": 0, "fusion_lon": 0.0, "fusion_lat": 0.0, "lat": 38.912781833333334, "type": "electric_scooter", "lon": -77.0473565, "bike_id": "de5d0d208784e48999c54731d299f01a", "rental_uris": {"android": "https://dc.lft.to/lastmile_qr_scan", "ios": "https://dc.lft.to/lastmile_qr_scan"}, "name": "de5d0d208784e48999c54731d299f01a", "is_reserved": 0}, {"is_disabled": 0, "fusion_lon": 0.0, "fusion_lat": 0.0, "lat": 38.907228833333335, "type": "electric_scooter", "lon": -77.02544866666666, "bike_id": "d5a72ea60091bc475cf86b985aade6ad", "rental_uris": {"android": "https://dc.lft.to/lastmile_qr_scan", "ios": "https://dc.lft.to/lastmile_qr_scan"}, "name": "d5a72ea60091bc475cf86b985aade6ad", "is_reserved": 0}, {"is_disabled": 0, "fusion_lon": 0.0, "fusion_lat": 0.0, "lat": 38.87475, "type": "electric_scooter", "lon": -77.00521816666667, "bike_id": "c1fec1ce4a998fcdf80e39e3f368cea4", "rental_uris": {"android": "https://dc.lft.to/lastmile_qr_scan", "ios": "https://dc.lft.to/lastmile_qr_scan"}, "name": "c1fec1ce4a998fcdf80e39e3f368cea4", "is_reserved": 0}, {"is_disabled": 0, "fusion_lon": 0.0, "fusion_lat": 0.0, "lat": 38.8962915, "type": "electric_scooter", "lon": -77.02583683333333, "bike_id": "8e3f061e5358a66e0231b20c6b7712d8", "rental_uris": {"android": "https://dc.lft.to/lastmile_qr_scan", "ios": "https://dc.lft.to/lastmile_qr_scan"}, "name": "8e3f061e5358a66e0231b20c6b7712d8", "is_reserved": 0}, {"is_disabled": 0, "fusion_lon": 0.0, "fusion_lat": 0.0, "lat": 38.94089366666667, "type": "electric_scooter", "lon": -77.03816066666667, "bike_id": "be4af1ab4d0790fbeb4da839d4a536f3", "rental_uris": {"android": "https://dc.lft.to/lastmile_qr_scan", "ios": "https://dc.lft.to/lastmile_qr_scan"}, "name": "be4af1ab4d0790fbeb4da839d4a536f3", "is_reserved": 0}, {"is_disabled": 0, "fusion_lon": 0.0, "fusion_lat": 0.0, "lat": 38.917095833333335, "type": "electric_scooter", "lon": -77.03761283333333, "bike_id": "0960f85dffe169935bcb9291b90ff23a", "rental_uris": {"android": "https://dc.lft.to/lastmile_qr_scan", "ios": "https://dc.lft.to/lastmile_qr_scan"}, "name": "0960f85dffe169935bcb9291b90ff23a", "is_reserved": 0}, {"is_disabled": 0, "fusion_lon": 0.0, "fusion_lat": 0.0, "lat": 38.880319666666665, "type": "electric_scooter", "lon": -76.99496916666666, "bike_id": "e509c739b42104a89f39d37fb7bc3c1e", "rental_uris": {"android": "https://dc.lft.to/lastmile_qr_scan", "ios": "https://dc.lft.to/lastmile_qr_scan"}, "name": "e509c739b42104a89f39d37fb7bc3c1e", "is_reserved": 0}, {"is_disabled": 0, "fusion_lon": 0.0, "fusion_lat": 0.0, "lat": 38.9716665, "type": "electric_bike", "lon": -76.9802025, "bike_id": "16cfbbefe4945b1ebc4502d7543b9840", "rental_uris": {"android": "https://dc.lft.to/lastmile_qr_scan", "ios": "https://dc.lft.to/lastmile_qr_scan"}, "name": "16cfbbefe4945b1ebc4502d7543b9840", "is_reserved": 0}, {"is_disabled": 0, "fusion_lon": 0.0, "fusion_lat": 0.0, "lat": 38.93877116666667, "type": "electric_scooter", "lon": -77.02844083333333, "bike_id": "727ea5c437f9399049dd93e445411edf", "rental_uris": {"android": "https://dc.lft.to/lastmile_qr_scan", "ios": "https://dc.lft.to/lastmile_qr_scan"}, "name": "727ea5c437f9399049dd93e445411edf", "is_reserved": 0}, {"is_disabled": 0, "fusion_lon": 0.0, "fusion_lat": 0.0, "lat": 38.968098499999996, "type": "electric_scooter", "lon": -77.02123966666667, "bike_id": "7f026fdc5d4cc740ac231dee893311b9", "rental_uris": {"android": "https://dc.lft.to/lastmile_qr_scan", "ios": "https://dc.lft.to/lastmile_qr_scan"}, "name": "7f026fdc5d4cc740ac231dee893311b9", "is_reserved": 0}, {"is_disabled": 0, "fusion_lon": 0.0, "fusion_lat": 0.0, "lat": 38.9163515, "type": "electric_scooter", "lon": -77.02697116666667, "bike_id": "d88b03ea411859f5fb333e710009ed05", "rental_uris": {"android": "https://dc.lft.to/lastmile_qr_scan", "ios": "https://dc.lft.to/lastmile_qr_scan"}, "name": "d88b03ea411859f5fb333e710009ed05", "is_reserved": 0}, {"is_disabled": 0, "fusion_lon": 0.0, "fusion_lat": 0.0, "lat": 38.9542155, "type": "electric_scooter", "lon": -77.0217335, "bike_id": "b1c39180ebf60a2c88337d6453a3f052", "rental_uris": {"android": "https://dc.lft.to/lastmile_qr_scan", "ios": "https://dc.lft.to/lastmile_qr_scan"}, "name": "b1c39180ebf60a2c88337d6453a3f052", "is_reserved": 0}, {"is_disabled": 0, "fusion_lon": 0.0, "fusion_lat": 0.0, "lat": 38.880175333333334, "type": "electric_scooter", "lon": -76.98232133333333, "bike_id": "a9ffa8218dc61dd3cb7a0fda34e00ed3", "rental_uris": {"android": "https://dc.lft.to/lastmile_qr_scan", "ios": "https://dc.lft.to/lastmile_qr_scan"}, "name": "a9ffa8218dc61dd3cb7a0fda34e00ed3", "is_reserved": 0}, {"is_disabled": 0, "fusion_lon": 0.0, "fusion_lat": 0.0, "lat": 38.926818833333336, "type": "electric_scooter", "lon": -77.03096583333334, "bike_id": "e801aa50dd6115e66b6e42bff876b615", "rental_uris": {"android": "https://dc.lft.to/lastmile_qr_scan", "ios": "https://dc.lft.to/lastmile_qr_scan"}, "name": "e801aa50dd6115e66b6e42bff876b615", "is_reserved": 0}, {"is_disabled": 0, "fusion_lon": 0.0, "fusion_lat": 0.0, "lat": 38.913480166666666, "type": "electric_scooter", "lon": -77.03244366666667, "bike_id": "6d9d3237fc30f25153024809b5a54174", "rental_uris": {"android": "https://dc.lft.to/lastmile_qr_scan", "ios": "https://dc.lft.to/lastmile_qr_scan"}, "name": "6d9d3237fc30f25153024809b5a54174", "is_reserved": 0}, {"is_disabled": 0, "fusion_lon": 0.0, "fusion_lat": 0.0, "lat": 38.891877, "type": "electric_scooter", "lon": -76.988319, "bike_id": "f45fbd585101935005dd19df50980c08", "rental_uris": {"android": "https://dc.lft.to/lastmile_qr_scan", "ios": "https://dc.lft.to/lastmile_qr_scan"}, "name": "f45fbd585101935005dd19df50980c08", "is_reserved": 0}, {"is_disabled": 0, "fusion_lon": 0.0, "fusion_lat": 0.0, "lat": 38.9256265, "type": "electric_scooter", "lon": -77.04154233333334, "bike_id": "193acc29ac03efface1bbfa2af30ec9e", "rental_uris": {"android": "https://dc.lft.to/lastmile_qr_scan", "ios": "https://dc.lft.to/lastmile_qr_scan"}, "name": "193acc29ac03efface1bbfa2af30ec9e", "is_reserved": 0}, {"is_disabled": 0, "fusion_lon": 0.0, "fusion_lat": 0.0, "lat": 39.02686966666667, "type": "electric_bike", "lon": -77.125945, "bike_id": "df29dade5e8767ed1b34d507ff99a9ff", "rental_uris": {"android": "https://dc.lft.to/lastmile_qr_scan", "ios": "https://dc.lft.to/lastmile_qr_scan"}, "name": "df29dade5e8767ed1b34d507ff99a9ff", "is_reserved": 0}, {"is_disabled": 0, "fusion_lon": 0.0, "fusion_lat": 0.0, "lat": 38.906405166666666, "type": "electric_scooter", "lon": -76.98567016666667, "bike_id": "bb5ffeeb62db5a627833ed925fb8deb3", "rental_uris": {"android": "https://dc.lft.to/lastmile_qr_scan", "ios": "https://dc.lft.to/lastmile_qr_scan"}, "name": "bb5ffeeb62db5a627833ed925fb8deb3", "is_reserved": 0}, {"is_disabled": 0, "fusion_lon": 0.0, "fusion_lat": 0.0, "lat": 38.8850695, "type": "electric_scooter", "lon": -77.003265, "bike_id": "9494dc3125c0ccc9f3d0df82e1dd1466", "rental_uris": {"android": "https://dc.lft.to/lastmile_qr_scan", "ios": "https://dc.lft.to/lastmile_qr_scan"}, "name": "9494dc3125c0ccc9f3d0df82e1dd1466", "is_reserved": 0}, {"is_disabled": 0, "fusion_lon": 0.0, "fusion_lat": 0.0, "lat": 38.917205, "type": "electric_scooter", "lon": -77.0981205, "bike_id": "b8e6332105d714ced823b34ba619bbb7", "rental_uris": {"android": "https://dc.lft.to/lastmile_qr_scan", "ios": "https://dc.lft.to/lastmile_qr_scan"}, "name": "b8e6332105d714ced823b34ba619bbb7", "is_reserved": 0}, {"is_disabled": 0, "fusion_lon": 0.0, "fusion_lat": 0.0, "lat": 38.91111183333334, "type": "electric_scooter", "lon": -77.03835983333333, "bike_id": "ca9fae01dd6a7374b9ea3ca77cf3d127", "rental_uris": {"android": "https://dc.lft.to/lastmile_qr_scan", "ios": "https://dc.lft.to/lastmile_qr_scan"}, "name": "ca9fae01dd6a7374b9ea3ca77cf3d127", "is_reserved": 0}, {"is_disabled": 0, "fusion_lon": 0.0, "fusion_lat": 0.0, "lat": 38.919495166666664, "type": "electric_scooter", "lon": -77.0450685, "bike_id": "fc17d64b68783f380692866c6c418493", "rental_uris": {"android": "https://dc.lft.to/lastmile_qr_scan", "ios": "https://dc.lft.to/lastmile_qr_scan"}, "name": "fc17d64b68783f380692866c6c418493", "is_reserved": 0}, {"is_disabled": 0, "fusion_lon": 0.0, "fusion_lat": 0.0, "lat": 38.889846166666665, "type": "electric_scooter", "lon": -77.00242983333334, "bike_id": "87819db9e61751b2143c873b5e75b4b1", "rental_uris": {"android": "https://dc.lft.to/lastmile_qr_scan", "ios": "https://dc.lft.to/lastmile_qr_scan"}, "name": "87819db9e61751b2143c873b5e75b4b1", "is_reserved": 0}, {"is_disabled": 0, "fusion_lon": 0.0, "fusion_lat": 0.0, "lat": 38.951780166666666, "type": "electric_scooter", "lon": -77.0565685, "bike_id": "81c79fef39fcd6178880d97ccc64c991", "rental_uris": {"android": "https://dc.lft.to/lastmile_qr_scan", "ios": "https://dc.lft.to/lastmile_qr_scan"}, "name": "81c79fef39fcd6178880d97ccc64c991", "is_reserved": 0}, {"is_disabled": 0, "fusion_lon": 0.0, "fusion_lat": 0.0, "lat": 38.862478333333335, "type": "electric_scooter", "lon": -76.99501683333334, "bike_id": "1761c1c8e962287eed585951ac0286a8", "rental_uris": {"android": "https://dc.lft.to/lastmile_qr_scan", "ios": "https://dc.lft.to/lastmile_qr_scan"}, "name": "1761c1c8e962287eed585951ac0286a8", "is_reserved": 0}, {"is_disabled": 0, "fusion_lon": 0.0, "fusion_lat": 0.0, "lat": 38.9031415, "type": "electric_scooter", "lon": -77.02505, "bike_id": "a87d299200a77e9a7e3e43343fe470f3", "rental_uris": {"android": "https://dc.lft.to/lastmile_qr_scan", "ios": "https://dc.lft.to/lastmile_qr_scan"}, "name": "a87d299200a77e9a7e3e43343fe470f3", "is_reserved": 0}, {"is_disabled": 0, "fusion_lon": 0.0, "fusion_lat": 0.0, "lat": 38.96571633333333, "type": "electric_scooter", "lon": -77.0156745, "bike_id": "3573c5c1394cdc29bc9d35d06281e868", "rental_uris": {"android": "https://dc.lft.to/lastmile_qr_scan", "ios": "https://dc.lft.to/lastmile_qr_scan"}, "name": "3573c5c1394cdc29bc9d35d06281e868", "is_reserved": 0}, {"is_disabled": 0, "fusion_lon": 0.0, "fusion_lat": 0.0, "lat": 38.909451833333335, "type": "electric_scooter", "lon": -77.05364116666667, "bike_id": "94643724412a092d3eb9abf414956703", "rental_uris": {"android": "https://dc.lft.to/lastmile_qr_scan", "ios": "https://dc.lft.to/lastmile_qr_scan"}, "name": "94643724412a092d3eb9abf414956703", "is_reserved": 0}, {"is_disabled": 0, "fusion_lon": 0.0, "fusion_lat": 0.0, "lat": 38.91277133333333, "type": "electric_scooter", "lon": -77.0224455, "bike_id": "161310f90d2ed849f1b17a400c15979d", "rental_uris": {"android": "https://dc.lft.to/lastmile_qr_scan", "ios": "https://dc.lft.to/lastmile_qr_scan"}, "name": "161310f90d2ed849f1b17a400c15979d", "is_reserved": 0}, {"is_disabled": 0, "fusion_lon": 0.0, "fusion_lat": 0.0, "lat": 38.92030966666667, "type": "electric_scooter", "lon": -77.03705033333334, "bike_id": "85f202007cce4ee0c2352f52ee8293c3", "rental_uris": {"android": "https://dc.lft.to/lastmile_qr_scan", "ios": "https://dc.lft.to/lastmile_qr_scan"}, "name": "85f202007cce4ee0c2352f52ee8293c3", "is_reserved": 0}, {"is_disabled": 0, "fusion_lon": 0.0, "fusion_lat": 0.0, "lat": 38.916899, "type": "electric_scooter", "lon": -77.02699633333333, "bike_id": "5e35107d63616f2eec1115494d862ccc", "rental_uris": {"android": "https://dc.lft.to/lastmile_qr_scan", "ios": "https://dc.lft.to/lastmile_qr_scan"}, "name": "5e35107d63616f2eec1115494d862ccc", "is_reserved": 0}, {"is_disabled": 0, "fusion_lon": 0.0, "fusion_lat": 0.0, "lat": 38.955587333333334, "type": "electric_bike", "lon": -76.935301, "bike_id": "3065a1e9bdd0df2951d4ab2ea13a62a2", "rental_uris": {"android": "https://dc.lft.to/lastmile_qr_scan", "ios": "https://dc.lft.to/lastmile_qr_scan"}, "name": "3065a1e9bdd0df2951d4ab2ea13a62a2", "is_reserved": 0}, {"is_disabled": 0, "fusion_lon": 0.0, "fusion_lat": 0.0, "lat": 38.931067666666664, "type": "electric_scooter", "lon": -77.02404866666667, "bike_id": "84882d3a0f03a33a4bddcf75a4079621", "rental_uris": {"android": "https://dc.lft.to/lastmile_qr_scan", "ios": "https://dc.lft.to/lastmile_qr_scan"}, "name": "84882d3a0f03a33a4bddcf75a4079621", "is_reserved": 0}, {"is_disabled": 0, "fusion_lon": 0.0, "fusion_lat": 0.0, "lat": 38.8985335, "type": "electric_scooter", "lon": -76.990336, "bike_id": "3b82e18c1a4c42300e6dd5ee7ba9cc37", "rental_uris": {"android": "https://dc.lft.to/lastmile_qr_scan", "ios": "https://dc.lft.to/lastmile_qr_scan"}, "name": "3b82e18c1a4c42300e6dd5ee7ba9cc37", "is_reserved": 0}, {"is_disabled": 0, "fusion_lon": 0.0, "fusion_lat": 0.0, "lat": 38.916842333333335, "type": "electric_scooter", "lon": -77.037453, "bike_id": "c24f08764bd735c08ec677979feee04f", "rental_uris": {"android": "https://dc.lft.to/lastmile_qr_scan", "ios": "https://dc.lft.to/lastmile_qr_scan"}, "name": "c24f08764bd735c08ec677979feee04f", "is_reserved": 0}, {"is_disabled": 0, "fusion_lon": 0.0, "fusion_lat": 0.0, "lat": 38.882677, "type": "electric_scooter", "lon": -76.98542633333334, "bike_id": "9e36c07601dd373074fd333d966354f1", "rental_uris": {"android": "https://dc.lft.to/lastmile_qr_scan", "ios": "https://dc.lft.to/lastmile_qr_scan"}, "name": "9e36c07601dd373074fd333d966354f1", "is_reserved": 0}, {"is_disabled": 0, "fusion_lon": 0.0, "fusion_lat": 0.0, "lat": 38.828765833333335, "type": "electric_bike", "lon": -77.11220816666666, "bike_id": "ff98ae0d6b06df2ae3e1494714707053", "rental_uris": {"android": "https://dc.lft.to/lastmile_qr_scan", "ios": "https://dc.lft.to/lastmile_qr_scan"}, "name": "ff98ae0d6b06df2ae3e1494714707053", "is_reserved": 0}, {"is_disabled": 0, "fusion_lon": 0.0, "fusion_lat": 0.0, "lat": 38.9166515, "type": "electric_scooter", "lon": -77.03852416666666, "bike_id": "2923384205168e5b81152a53056f5960", "rental_uris": {"android": "https://dc.lft.to/lastmile_qr_scan", "ios": "https://dc.lft.to/lastmile_qr_scan"}, "name": "2923384205168e5b81152a53056f5960", "is_reserved": 0}, {"is_disabled": 0, "fusion_lon": 0.0, "fusion_lat": 0.0, "lat": 38.907636333333336, "type": "electric_scooter", "lon": -76.99654283333334, "bike_id": "75334f9934fc20d5b9ac27073cf4625f", "rental_uris": {"android": "https://dc.lft.to/lastmile_qr_scan", "ios": "https://dc.lft.to/lastmile_qr_scan"}, "name": "75334f9934fc20d5b9ac27073cf4625f", "is_reserved": 0}, {"is_disabled": 0, "fusion_lon": 0.0, "fusion_lat": 0.0, "lat": 38.93645016666667, "type": "electric_scooter", "lon": -77.020811, "bike_id": "2a6c446e7bf8552fe84b4f03a5ef66db", "rental_uris": {"android": "https://dc.lft.to/lastmile_qr_scan", "ios": "https://dc.lft.to/lastmile_qr_scan"}, "name": "2a6c446e7bf8552fe84b4f03a5ef66db", "is_reserved": 0}, {"is_disabled": 0, "fusion_lon": 0.0, "fusion_lat": 0.0, "lat": 38.92962166666667, "type": "electric_scooter", "lon": -77.05501166666667, "bike_id": "315c9e724497b3ff93968e3a6c495995", "rental_uris": {"android": "https://dc.lft.to/lastmile_qr_scan", "ios": "https://dc.lft.to/lastmile_qr_scan"}, "name": "315c9e724497b3ff93968e3a6c495995", "is_reserved": 0}, {"is_disabled": 0, "fusion_lon": 0.0, "fusion_lat": 0.0, "lat": 38.900595, "type": "electric_scooter", "lon": -76.93471883333333, "bike_id": "234ad1ea857ee1b88b7cfdfc1c87322c", "rental_uris": {"android": "https://dc.lft.to/lastmile_qr_scan", "ios": "https://dc.lft.to/lastmile_qr_scan"}, "name": "234ad1ea857ee1b88b7cfdfc1c87322c", "is_reserved": 0}, {"is_disabled": 0, "fusion_lon": 0.0, "fusion_lat": 0.0, "lat": 38.91696483333333, "type": "electric_scooter", "lon": -77.02486233333333, "bike_id": "7e3357c50219f3c891a9a81a877fba9b", "rental_uris": {"android": "https://dc.lft.to/lastmile_qr_scan", "ios": "https://dc.lft.to/lastmile_qr_scan"}, "name": "7e3357c50219f3c891a9a81a877fba9b", "is_reserved": 0}, {"is_disabled": 0, "fusion_lon": 0.0, "fusion_lat": 0.0, "lat": 38.9226495, "type": "electric_scooter", "lon": -77.0412875, "bike_id": "8ba008a2887ba5f1357c569bbfdc5852", "rental_uris": {"android": "https://dc.lft.to/lastmile_qr_scan", "ios": "https://dc.lft.to/lastmile_qr_scan"}, "name": "8ba008a2887ba5f1357c569bbfdc5852", "is_reserved": 0}, {"is_disabled": 0, "fusion_lon": 0.0, "fusion_lat": 0.0, "lat": 38.91009416666667, "type": "electric_scooter", "lon": -77.04364983333333, "bike_id": "d4303cf1df13e1acee62df841be6ce19", "rental_uris": {"android": "https://dc.lft.to/lastmile_qr_scan", "ios": "https://dc.lft.to/lastmile_qr_scan"}, "name": "d4303cf1df13e1acee62df841be6ce19", "is_reserved": 0}, {"is_disabled": 0, "fusion_lon": 0.0, "fusion_lat": 0.0, "lat": 38.910355, "type": "electric_scooter", "lon": -77.0309255, "bike_id": "33f25f8ccd86264c406e47e39ea27b20", "rental_uris": {"android": "https://dc.lft.to/lastmile_qr_scan", "ios": "https://dc.lft.to/lastmile_qr_scan"}, "name": "33f25f8ccd86264c406e47e39ea27b20", "is_reserved": 0}, {"is_disabled": 0, "fusion_lon": 0.0, "fusion_lat": 0.0, "lat": 38.9068845, "type": "electric_bike", "lon": -76.9519405, "bike_id": "13f0f34ce78ab2acfe254a0daee36019", "rental_uris": {"android": "https://dc.lft.to/lastmile_qr_scan", "ios": "https://dc.lft.to/lastmile_qr_scan"}, "name": "13f0f34ce78ab2acfe254a0daee36019", "is_reserved": 0}, {"is_disabled": 0, "fusion_lon": 0.0, "fusion_lat": 0.0, "lat": 38.90549983333333, "type": "electric_scooter", "lon": -77.04664733333334, "bike_id": "b866450acd4184892178d4d680a007b9", "rental_uris": {"android": "https://dc.lft.to/lastmile_qr_scan", "ios": "https://dc.lft.to/lastmile_qr_scan"}, "name": "b866450acd4184892178d4d680a007b9", "is_reserved": 0}, {"is_disabled": 0, "fusion_lon": 0.0, "fusion_lat": 0.0, "lat": 38.9058765, "type": "electric_scooter", "lon": -77.05819983333333, "bike_id": "34734a06be6bdcc6c3ecd8b788e8a405", "rental_uris": {"android": "https://dc.lft.to/lastmile_qr_scan", "ios": "https://dc.lft.to/lastmile_qr_scan"}, "name": "34734a06be6bdcc6c3ecd8b788e8a405", "is_reserved": 0}, {"is_disabled": 0, "fusion_lon": 0.0, "fusion_lat": 0.0, "lat": 38.86335116666667, "type": "electric_bike", "lon": -76.98709583333333, "bike_id": "f1ad12ca7858b689152d021a81f25b16", "rental_uris": {"android": "https://dc.lft.to/lastmile_qr_scan", "ios": "https://dc.lft.to/lastmile_qr_scan"}, "name": "f1ad12ca7858b689152d021a81f25b16", "is_reserved": 0}, {"is_disabled": 0, "fusion_lon": 0.0, "fusion_lat": 0.0, "lat": 38.9522205, "type": "electric_scooter", "lon": -77.00134916666667, "bike_id": "2b175ad27d9b46d011b6b74c8a954dcb", "rental_uris": {"android": "https://dc.lft.to/lastmile_qr_scan", "ios": "https://dc.lft.to/lastmile_qr_scan"}, "name": "2b175ad27d9b46d011b6b74c8a954dcb", "is_reserved": 0}, {"is_disabled": 0, "fusion_lon": 0.0, "fusion_lat": 0.0, "lat": 38.90389416666667, "type": "electric_scooter", "lon": -77.01852483333333, "bike_id": "dfa3c148fa7a7ab963ca14036c21c02e", "rental_uris": {"android": "https://dc.lft.to/lastmile_qr_scan", "ios": "https://dc.lft.to/lastmile_qr_scan"}, "name": "dfa3c148fa7a7ab963ca14036c21c02e", "is_reserved": 0}, {"is_disabled": 0, "fusion_lon": 0.0, "fusion_lat": 0.0, "lat": 38.90864216666667, "type": "electric_scooter", "lon": -77.0223465, "bike_id": "862a50fa6ec549cb3440fabc6af8c662", "rental_uris": {"android": "https://dc.lft.to/lastmile_qr_scan", "ios": "https://dc.lft.to/lastmile_qr_scan"}, "name": "862a50fa6ec549cb3440fabc6af8c662", "is_reserved": 0}, {"is_disabled": 0, "fusion_lon": 0.0, "fusion_lat": 0.0, "lat": 38.90572516666667, "type": "electric_scooter", "lon": -77.038247, "bike_id": "06bbde40cacc1453c3071567767b2fd1", "rental_uris": {"android": "https://dc.lft.to/lastmile_qr_scan", "ios": "https://dc.lft.to/lastmile_qr_scan"}, "name": "06bbde40cacc1453c3071567767b2fd1", "is_reserved": 0}, {"is_disabled": 0, "fusion_lon": 0.0, "fusion_lat": 0.0, "lat": 38.900621, "type": "electric_scooter", "lon": -76.986813, "bike_id": "f35b9790595f4741de9d4da086593d4b", "rental_uris": {"android": "https://dc.lft.to/lastmile_qr_scan", "ios": "https://dc.lft.to/lastmile_qr_scan"}, "name": "f35b9790595f4741de9d4da086593d4b", "is_reserved": 0}, {"is_disabled": 0, "fusion_lon": 0.0, "fusion_lat": 0.0, "lat": 38.914185833333335, "type": "electric_scooter", "lon": -77.04246716666667, "bike_id": "801273bcbf4a4bade309bbf00a5316fd", "rental_uris": {"android": "https://dc.lft.to/lastmile_qr_scan", "ios": "https://dc.lft.to/lastmile_qr_scan"}, "name": "801273bcbf4a4bade309bbf00a5316fd", "is_reserved": 0}, {"is_disabled": 0, "fusion_lon": 0.0, "fusion_lat": 0.0, "lat": 38.9138265, "type": "electric_scooter", "lon": -77.0297295, "bike_id": "c7f8bebcf08f18b1ff7f2e6db1875a72", "rental_uris": {"android": "https://dc.lft.to/lastmile_qr_scan", "ios": "https://dc.lft.to/lastmile_qr_scan"}, "name": "c7f8bebcf08f18b1ff7f2e6db1875a72", "is_reserved": 0}, {"is_disabled": 0, "fusion_lon": 0.0, "fusion_lat": 0.0, "lat": 38.92143683333333, "type": "electric_scooter", "lon": -76.99594983333333, "bike_id": "d393d716965dc578232da8e7581ab3a3", "rental_uris": {"android": "https://dc.lft.to/lastmile_qr_scan", "ios": "https://dc.lft.to/lastmile_qr_scan"}, "name": "d393d716965dc578232da8e7581ab3a3", "is_reserved": 0}, {"is_disabled": 0, "fusion_lon": 0.0, "fusion_lat": 0.0, "lat": 38.8429265, "type": "electric_scooter", "lon": -76.99947, "bike_id": "e9ec90c60b4dee8b3af7e45fd6960a90", "rental_uris": {"android": "https://dc.lft.to/lastmile_qr_scan", "ios": "https://dc.lft.to/lastmile_qr_scan"}, "name": "e9ec90c60b4dee8b3af7e45fd6960a90", "is_reserved": 0}, {"is_disabled": 0, "fusion_lon": 0.0, "fusion_lat": 0.0, "lat": 38.8872105, "type": "electric_scooter", "lon": -76.95361233333334, "bike_id": "9097ac07db82c9595561b289c39c4ec8", "rental_uris": {"android": "https://dc.lft.to/lastmile_qr_scan", "ios": "https://dc.lft.to/lastmile_qr_scan"}, "name": "9097ac07db82c9595561b289c39c4ec8", "is_reserved": 0}, {"is_disabled": 0, "fusion_lon": 0.0, "fusion_lat": 0.0, "lat": 38.874241833333336, "type": "electric_scooter", "lon": -77.000215, "bike_id": "5278ee59f90f53457faac5c45cf54854", "rental_uris": {"android": "https://dc.lft.to/lastmile_qr_scan", "ios": "https://dc.lft.to/lastmile_qr_scan"}, "name": "5278ee59f90f53457faac5c45cf54854", "is_reserved": 0}, {"is_disabled": 0, "fusion_lon": 0.0, "fusion_lat": 0.0, "lat": 38.94197833333333, "type": "electric_scooter", "lon": -77.02579066666667, "bike_id": "f0f6b49c90fa59d3a21136f4e6ee8d7e", "rental_uris": {"android": "https://dc.lft.to/lastmile_qr_scan", "ios": "https://dc.lft.to/lastmile_qr_scan"}, "name": "f0f6b49c90fa59d3a21136f4e6ee8d7e", "is_reserved": 0}, {"is_disabled": 0, "fusion_lon": 0.0, "fusion_lat": 0.0, "lat": 38.844327166666666, "type": "electric_scooter", "lon": -76.9977955, "bike_id": "2a207208333e65b829a3a3565e369fb9", "rental_uris": {"android": "https://dc.lft.to/lastmile_qr_scan", "ios": "https://dc.lft.to/lastmile_qr_scan"}, "name": "2a207208333e65b829a3a3565e369fb9", "is_reserved": 0}, {"is_disabled": 0, "fusion_lon": 0.0, "fusion_lat": 0.0, "lat": 38.895051333333335, "type": "electric_scooter", "lon": -76.94879816666666, "bike_id": "2262aacb33d4dde1886cc753b327a5ae", "rental_uris": {"android": "https://dc.lft.to/lastmile_qr_scan", "ios": "https://dc.lft.to/lastmile_qr_scan"}, "name": "2262aacb33d4dde1886cc753b327a5ae", "is_reserved": 0}, {"is_disabled": 0, "fusion_lon": 0.0, "fusion_lat": 0.0, "lat": 38.8973645, "type": "electric_scooter", "lon": -77.026796, "bike_id": "3b30ae079238d51ce3fc53ea5f8f4f85", "rental_uris": {"android": "https://dc.lft.to/lastmile_qr_scan", "ios": "https://dc.lft.to/lastmile_qr_scan"}, "name": "3b30ae079238d51ce3fc53ea5f8f4f85", "is_reserved": 0}, {"is_disabled": 0, "fusion_lon": 0.0, "fusion_lat": 0.0, "lat": 38.87641633333333, "type": "electric_scooter", "lon": -77.00726033333333, "bike_id": "5afc20b699453892a24c91be330d5e7b", "rental_uris": {"android": "https://dc.lft.to/lastmile_qr_scan", "ios": "https://dc.lft.to/lastmile_qr_scan"}, "name": "5afc20b699453892a24c91be330d5e7b", "is_reserved": 0}, {"is_disabled": 0, "fusion_lon": 0.0, "fusion_lat": 0.0, "lat": 39.05457883333333, "type": "electric_bike", "lon": -77.14322233333333, "bike_id": "0548101926019b7c941ba1b66625f659", "rental_uris": {"android": "https://dc.lft.to/lastmile_qr_scan", "ios": "https://dc.lft.to/lastmile_qr_scan"}, "name": "0548101926019b7c941ba1b66625f659", "is_reserved": 0}, {"is_disabled": 0, "fusion_lon": 0.0, "fusion_lat": 0.0, "lat": 38.7761975, "type": "electric_bike", "lon": -77.08354333333334, "bike_id": "70c3d20842f559a61bce6e8aea0ce7d0", "rental_uris": {"android": "https://dc.lft.to/lastmile_qr_scan", "ios": "https://dc.lft.to/lastmile_qr_scan"}, "name": "70c3d20842f559a61bce6e8aea0ce7d0", "is_reserved": 0}, {"is_disabled": 0, "fusion_lon": 0.0, "fusion_lat": 0.0, "lat": 38.881290666666665, "type": "electric_scooter", "lon": -77.02703883333334, "bike_id": "4bbf5cf94c08cf3d042f823329251ea1", "rental_uris": {"android": "https://dc.lft.to/lastmile_qr_scan", "ios": "https://dc.lft.to/lastmile_qr_scan"}, "name": "4bbf5cf94c08cf3d042f823329251ea1", "is_reserved": 0}, {"is_disabled": 0, "fusion_lon": 0.0, "fusion_lat": 0.0, "lat": 38.90554483333333, "type": "electric_scooter", "lon": -76.9814315, "bike_id": "b12aca89458268887051ebf6985db361", "rental_uris": {"android": "https://dc.lft.to/lastmile_qr_scan", "ios": "https://dc.lft.to/lastmile_qr_scan"}, "name": "b12aca89458268887051ebf6985db361", "is_reserved": 0}, {"is_disabled": 0, "fusion_lon": 0.0, "fusion_lat": 0.0, "lat": 38.881916333333336, "type": "electric_scooter", "lon": -76.99492483333333, "bike_id": "35c6b77b5edc61af9182d990ca8760eb", "rental_uris": {"android": "https://dc.lft.to/lastmile_qr_scan", "ios": "https://dc.lft.to/lastmile_qr_scan"}, "name": "35c6b77b5edc61af9182d990ca8760eb", "is_reserved": 0}, {"is_disabled": 0, "fusion_lon": 0.0, "fusion_lat": 0.0, "lat": 38.900153333333336, "type": "electric_scooter", "lon": -77.0525445, "bike_id": "c6ebe6cabc15505eea923ec83ced7f81", "rental_uris": {"android": "https://dc.lft.to/lastmile_qr_scan", "ios": "https://dc.lft.to/lastmile_qr_scan"}, "name": "c6ebe6cabc15505eea923ec83ced7f81", "is_reserved": 0}, {"is_disabled": 0, "fusion_lon": 0.0, "fusion_lat": 0.0, "lat": 38.89392133333333, "type": "electric_scooter", "lon": -76.94998416666667, "bike_id": "945c06ffecfbf05b54f7dd2c9987ef0c", "rental_uris": {"android": "https://dc.lft.to/lastmile_qr_scan", "ios": "https://dc.lft.to/lastmile_qr_scan"}, "name": "945c06ffecfbf05b54f7dd2c9987ef0c", "is_reserved": 0}, {"is_disabled": 0, "fusion_lon": 0.0, "fusion_lat": 0.0, "lat": 38.9052885, "type": "electric_scooter", "lon": -77.0171685, "bike_id": "b252b5245e1a56c8fdabe30fe74fa4a6", "rental_uris": {"android": "https://dc.lft.to/lastmile_qr_scan", "ios": "https://dc.lft.to/lastmile_qr_scan"}, "name": "b252b5245e1a56c8fdabe30fe74fa4a6", "is_reserved": 0}, {"is_disabled": 0, "fusion_lon": 0.0, "fusion_lat": 0.0, "lat": 38.9345875, "type": "electric_scooter", "lon": -77.03052916666667, "bike_id": "532e6bcc194848dcac694eb16075c9e4", "rental_uris": {"android": "https://dc.lft.to/lastmile_qr_scan", "ios": "https://dc.lft.to/lastmile_qr_scan"}, "name": "532e6bcc194848dcac694eb16075c9e4", "is_reserved": 0}, {"is_disabled": 0, "fusion_lon": 0.0, "fusion_lat": 0.0, "lat": 38.94593916666667, "type": "electric_bike", "lon": -77.3440945, "bike_id": "acd1f83d09b2dc53a21f5002eaa4d012", "rental_uris": {"android": "https://dc.lft.to/lastmile_qr_scan", "ios": "https://dc.lft.to/lastmile_qr_scan"}, "name": "acd1f83d09b2dc53a21f5002eaa4d012", "is_reserved": 0}, {"is_disabled": 0, "fusion_lon": 0.0, "fusion_lat": 0.0, "lat": 38.91236083333333, "type": "electric_scooter", "lon": -77.0487275, "bike_id": "396fb3022d0b702d2f373df590ff5294", "rental_uris": {"android": "https://dc.lft.to/lastmile_qr_scan", "ios": "https://dc.lft.to/lastmile_qr_scan"}, "name": "396fb3022d0b702d2f373df590ff5294", "is_reserved": 0}, {"is_disabled": 0, "fusion_lon": 0.0, "fusion_lat": 0.0, "lat": 38.884406, "type": "electric_scooter", "lon": -77.02968183333333, "bike_id": "b24156cc1b85a2f3b6e573326cbc294e", "rental_uris": {"android": "https://dc.lft.to/lastmile_qr_scan", "ios": "https://dc.lft.to/lastmile_qr_scan"}, "name": "b24156cc1b85a2f3b6e573326cbc294e", "is_reserved": 0}, {"is_disabled": 0, "fusion_lon": 0.0, "fusion_lat": 0.0, "lat": 38.91536216666667, "type": "electric_bike", "lon": -77.03190283333333, "bike_id": "ace7f9a2837d1715b0bd1f9d6520ca97", "rental_uris": {"android": "https://dc.lft.to/lastmile_qr_scan", "ios": "https://dc.lft.to/lastmile_qr_scan"}, "name": "ace7f9a2837d1715b0bd1f9d6520ca97", "is_reserved": 0}, {"is_disabled": 0, "fusion_lon": 0.0, "fusion_lat": 0.0, "lat": 38.89490833333333, "type": "electric_scooter", "lon": -77.009522, "bike_id": "25769deb6b1b8fd192f829852816f9eb", "rental_uris": {"android": "https://dc.lft.to/lastmile_qr_scan", "ios": "https://dc.lft.to/lastmile_qr_scan"}, "name": "25769deb6b1b8fd192f829852816f9eb", "is_reserved": 0}, {"is_disabled": 0, "fusion_lon": 0.0, "fusion_lat": 0.0, "lat": 38.898763833333334, "type": "electric_scooter", "lon": -76.93157266666667, "bike_id": "5e7178cde8e1a4a3004ad58b83d1236f", "rental_uris": {"android": "https://dc.lft.to/lastmile_qr_scan", "ios": "https://dc.lft.to/lastmile_qr_scan"}, "name": "5e7178cde8e1a4a3004ad58b83d1236f", "is_reserved": 0}, {"is_disabled": 0, "fusion_lon": 0.0, "fusion_lat": 0.0, "lat": 38.9120025, "type": "electric_scooter", "lon": -77.04536566666667, "bike_id": "2866e8e07cb598ea75177cd9828d9768", "rental_uris": {"android": "https://dc.lft.to/lastmile_qr_scan", "ios": "https://dc.lft.to/lastmile_qr_scan"}, "name": "2866e8e07cb598ea75177cd9828d9768", "is_reserved": 0}, {"is_disabled": 0, "fusion_lon": 0.0, "fusion_lat": 0.0, "lat": 38.91686833333333, "type": "electric_scooter", "lon": -77.0375935, "bike_id": "1a7cb6c7416da8ccc8327e19ebd68aa7", "rental_uris": {"android": "https://dc.lft.to/lastmile_qr_scan", "ios": "https://dc.lft.to/lastmile_qr_scan"}, "name": "1a7cb6c7416da8ccc8327e19ebd68aa7", "is_reserved": 0}, {"is_disabled": 0, "fusion_lon": 0.0, "fusion_lat": 0.0, "lat": 38.928945166666665, "type": "electric_scooter", "lon": -76.98455933333334, "bike_id": "de07d09efd53ba5c16d2cc3278e69bcb", "rental_uris": {"android": "https://dc.lft.to/lastmile_qr_scan", "ios": "https://dc.lft.to/lastmile_qr_scan"}, "name": "de07d09efd53ba5c16d2cc3278e69bcb", "is_reserved": 0}, {"is_disabled": 0, "fusion_lon": 0.0, "fusion_lat": 0.0, "lat": 39.10566983333333, "type": "electric_bike", "lon": -77.1526595, "bike_id": "759d8fe393097b9a77da47db7dafcbb5", "rental_uris": {"android": "https://dc.lft.to/lastmile_qr_scan", "ios": "https://dc.lft.to/lastmile_qr_scan"}, "name": "759d8fe393097b9a77da47db7dafcbb5", "is_reserved": 0}, {"is_disabled": 0, "fusion_lon": 0.0, "fusion_lat": 0.0, "lat": 38.91334966666667, "type": "electric_scooter", "lon": -77.048657, "bike_id": "38c982144f491ad59e5af9e70ff75693", "rental_uris": {"android": "https://dc.lft.to/lastmile_qr_scan", "ios": "https://dc.lft.to/lastmile_qr_scan"}, "name": "38c982144f491ad59e5af9e70ff75693", "is_reserved": 0}, {"is_disabled": 0, "fusion_lon": 0.0, "fusion_lat": 0.0, "lat": 38.924462166666665, "type": "electric_bike", "lon": -76.9683125, "bike_id": "e07831d5115d70b1ac1870755e48347d", "rental_uris": {"android": "https://dc.lft.to/lastmile_qr_scan", "ios": "https://dc.lft.to/lastmile_qr_scan"}, "name": "e07831d5115d70b1ac1870755e48347d", "is_reserved": 0}, {"is_disabled": 0, "fusion_lon": 0.0, "fusion_lat": 0.0, "lat": 38.92150916666667, "type": "electric_scooter", "lon": -77.034421, "bike_id": "42c829b75cb07af92a3b4309e2ad2afe", "rental_uris": {"android": "https://dc.lft.to/lastmile_qr_scan", "ios": "https://dc.lft.to/lastmile_qr_scan"}, "name": "42c829b75cb07af92a3b4309e2ad2afe", "is_reserved": 0}, {"is_disabled": 0, "fusion_lon": 0.0, "fusion_lat": 0.0, "lat": 38.90607, "type": "electric_scooter", "lon": -77.06298983333333, "bike_id": "279c8e8e87fc0533976af2468eb6a147", "rental_uris": {"android": "https://dc.lft.to/lastmile_qr_scan", "ios": "https://dc.lft.to/lastmile_qr_scan"}, "name": "279c8e8e87fc0533976af2468eb6a147", "is_reserved": 0}, {"is_disabled": 0, "fusion_lon": 0.0, "fusion_lat": 0.0, "lat": 38.893762833333334, "type": "electric_scooter", "lon": -76.94995366666667, "bike_id": "4a90993e9518921e5ed5b54cdf42a6e9", "rental_uris": {"android": "https://dc.lft.to/lastmile_qr_scan", "ios": "https://dc.lft.to/lastmile_qr_scan"}, "name": "4a90993e9518921e5ed5b54cdf42a6e9", "is_reserved": 0}, {"is_disabled": 0, "fusion_lon": 0.0, "fusion_lat": 0.0, "lat": 38.921993666666665, "type": "electric_scooter", "lon": -76.99759466666667, "bike_id": "e8ac365a74f1fbd6b3a196158d33d8ca", "rental_uris": {"android": "https://dc.lft.to/lastmile_qr_scan", "ios": "https://dc.lft.to/lastmile_qr_scan"}, "name": "e8ac365a74f1fbd6b3a196158d33d8ca", "is_reserved": 0}, {"is_disabled": 0, "fusion_lon": 0.0, "fusion_lat": 0.0, "lat": 38.9058735, "type": "electric_scooter", "lon": -77.040937, "bike_id": "e72912d27ba26fc78259269eed823c6d", "rental_uris": {"android": "https://dc.lft.to/lastmile_qr_scan", "ios": "https://dc.lft.to/lastmile_qr_scan"}, "name": "e72912d27ba26fc78259269eed823c6d", "is_reserved": 0}, {"is_disabled": 0, "fusion_lon": 0.0, "fusion_lat": 0.0, "lat": 38.83607283333333, "type": "electric_bike", "lon": -77.00382916666666, "bike_id": "b50b8ef60f0c8373ffb634c64f2a5b18", "rental_uris": {"android": "https://dc.lft.to/lastmile_qr_scan", "ios": "https://dc.lft.to/lastmile_qr_scan"}, "name": "b50b8ef60f0c8373ffb634c64f2a5b18", "is_reserved": 0}, {"is_disabled": 0, "fusion_lon": 0.0, "fusion_lat": 0.0, "lat": 38.96923016666667, "type": "electric_bike", "lon": -77.02614583333333, "bike_id": "2dfff93d80c302839c07b5d0f88244ab", "rental_uris": {"android": "https://dc.lft.to/lastmile_qr_scan", "ios": "https://dc.lft.to/lastmile_qr_scan"}, "name": "2dfff93d80c302839c07b5d0f88244ab", "is_reserved": 0}, {"is_disabled": 0, "fusion_lon": 0.0, "fusion_lat": 0.0, "lat": 38.90265983333333, "type": "electric_scooter", "lon": -77.03428433333333, "bike_id": "2dc30d058142f271a57f369b3f503fbe", "rental_uris": {"android": "https://dc.lft.to/lastmile_qr_scan", "ios": "https://dc.lft.to/lastmile_qr_scan"}, "name": "2dc30d058142f271a57f369b3f503fbe", "is_reserved": 0}, {"is_disabled": 0, "fusion_lon": 0.0, "fusion_lat": 0.0, "lat": 38.918526, "type": "electric_scooter", "lon": -77.02952766666667, "bike_id": "c1ede2d05971ee05848a35c8af88a98a", "rental_uris": {"android": "https://dc.lft.to/lastmile_qr_scan", "ios": "https://dc.lft.to/lastmile_qr_scan"}, "name": "c1ede2d05971ee05848a35c8af88a98a", "is_reserved": 0}, {"is_disabled": 0, "fusion_lon": 0.0, "fusion_lat": 0.0, "lat": 38.93505566666666, "type": "electric_scooter", "lon": -77.02414216666666, "bike_id": "51e0ea5a26681a7ec6aff44e9a6056bb", "rental_uris": {"android": "https://dc.lft.to/lastmile_qr_scan", "ios": "https://dc.lft.to/lastmile_qr_scan"}, "name": "51e0ea5a26681a7ec6aff44e9a6056bb", "is_reserved": 0}, {"is_disabled": 0, "fusion_lon": 0.0, "fusion_lat": 0.0, "lat": 38.897715833333336, "type": "electric_scooter", "lon": -77.03361333333334, "bike_id": "028e55e16005aca1217e92c6be6cc5e5", "rental_uris": {"android": "https://dc.lft.to/lastmile_qr_scan", "ios": "https://dc.lft.to/lastmile_qr_scan"}, "name": "028e55e16005aca1217e92c6be6cc5e5", "is_reserved": 0}, {"is_disabled": 0, "fusion_lon": 0.0, "fusion_lat": 0.0, "lat": 38.90260816666667, "type": "electric_scooter", "lon": -77.03418066666667, "bike_id": "6b46949248bd8e05ff7006430ce30bc9", "rental_uris": {"android": "https://dc.lft.to/lastmile_qr_scan", "ios": "https://dc.lft.to/lastmile_qr_scan"}, "name": "6b46949248bd8e05ff7006430ce30bc9", "is_reserved": 0}, {"is_disabled": 0, "fusion_lon": 0.0, "fusion_lat": 0.0, "lat": 38.89949433333334, "type": "electric_scooter", "lon": -77.03176333333333, "bike_id": "277a7cc9c92016844c6061c5f2bc84dc", "rental_uris": {"android": "https://dc.lft.to/lastmile_qr_scan", "ios": "https://dc.lft.to/lastmile_qr_scan"}, "name": "277a7cc9c92016844c6061c5f2bc84dc", "is_reserved": 0}, {"is_disabled": 0, "fusion_lon": 0.0, "fusion_lat": 0.0, "lat": 38.899046, "type": "electric_scooter", "lon": -77.039523, "bike_id": "5fc3423d1925ca821e2b7a1864c7b0ed", "rental_uris": {"android": "https://dc.lft.to/lastmile_qr_scan", "ios": "https://dc.lft.to/lastmile_qr_scan"}, "name": "5fc3423d1925ca821e2b7a1864c7b0ed", "is_reserved": 0}, {"is_disabled": 0, "fusion_lon": 0.0, "fusion_lat": 0.0, "lat": 38.93571566666667, "type": "electric_scooter", "lon": -77.05873833333334, "bike_id": "f39d5cc15a252761b11c8ea563a1484d", "rental_uris": {"android": "https://dc.lft.to/lastmile_qr_scan", "ios": "https://dc.lft.to/lastmile_qr_scan"}, "name": "f39d5cc15a252761b11c8ea563a1484d", "is_reserved": 0}, {"is_disabled": 0, "fusion_lon": 0.0, "fusion_lat": 0.0, "lat": 38.912864166666665, "type": "electric_scooter", "lon": -76.98689116666667, "bike_id": "2ed7dc94ba514e13bb1d98939221fbd2", "rental_uris": {"android": "https://dc.lft.to/lastmile_qr_scan", "ios": "https://dc.lft.to/lastmile_qr_scan"}, "name": "2ed7dc94ba514e13bb1d98939221fbd2", "is_reserved": 0}, {"is_disabled": 0, "fusion_lon": 0.0, "fusion_lat": 0.0, "lat": 38.89908716666667, "type": "electric_scooter", "lon": -76.93388016666667, "bike_id": "6c6f7c0ac445310ab60eb4b8bbd29fb9", "rental_uris": {"android": "https://dc.lft.to/lastmile_qr_scan", "ios": "https://dc.lft.to/lastmile_qr_scan"}, "name": "6c6f7c0ac445310ab60eb4b8bbd29fb9", "is_reserved": 0}, {"is_disabled": 0, "fusion_lon": 0.0, "fusion_lat": 0.0, "lat": 38.8972405, "type": "electric_scooter", "lon": -77.02439633333333, "bike_id": "530d734a71ae0859057ef9e791a0e2f9", "rental_uris": {"android": "https://dc.lft.to/lastmile_qr_scan", "ios": "https://dc.lft.to/lastmile_qr_scan"}, "name": "530d734a71ae0859057ef9e791a0e2f9", "is_reserved": 0}, {"is_disabled": 0, "fusion_lon": 0.0, "fusion_lat": 0.0, "lat": 38.9184415, "type": "electric_scooter", "lon": -77.01642533333333, "bike_id": "49cf2d113c8c905fe38a4bc0b88bd704", "rental_uris": {"android": "https://dc.lft.to/lastmile_qr_scan", "ios": "https://dc.lft.to/lastmile_qr_scan"}, "name": "49cf2d113c8c905fe38a4bc0b88bd704", "is_reserved": 0}, {"is_disabled": 0, "fusion_lon": 0.0, "fusion_lat": 0.0, "lat": 38.957834, "type": "electric_scooter", "lon": -77.024363, "bike_id": "4840222cb91fb7e0a35bb865f172169b", "rental_uris": {"android": "https://dc.lft.to/lastmile_qr_scan", "ios": "https://dc.lft.to/lastmile_qr_scan"}, "name": "4840222cb91fb7e0a35bb865f172169b", "is_reserved": 0}, {"is_disabled": 0, "fusion_lon": 0.0, "fusion_lat": 0.0, "lat": 38.9053935, "type": "electric_scooter", "lon": -77.02201533333333, "bike_id": "9b08bab18e7374636901d84b52bca420", "rental_uris": {"android": "https://dc.lft.to/lastmile_qr_scan", "ios": "https://dc.lft.to/lastmile_qr_scan"}, "name": "9b08bab18e7374636901d84b52bca420", "is_reserved": 0}, {"is_disabled": 0, "fusion_lon": 0.0, "fusion_lat": 0.0, "lat": 38.915719833333334, "type": "electric_scooter", "lon": -77.0317715, "bike_id": "0f1bff069bf95a8207b692672064d063", "rental_uris": {"android": "https://dc.lft.to/lastmile_qr_scan", "ios": "https://dc.lft.to/lastmile_qr_scan"}, "name": "0f1bff069bf95a8207b692672064d063", "is_reserved": 0}, {"is_disabled": 0, "fusion_lon": 0.0, "fusion_lat": 0.0, "lat": 38.91824533333333, "type": "electric_scooter", "lon": -77.04506716666667, "bike_id": "a75f9015db731e1fbd41c084d216482f", "rental_uris": {"android": "https://dc.lft.to/lastmile_qr_scan", "ios": "https://dc.lft.to/lastmile_qr_scan"}, "name": "a75f9015db731e1fbd41c084d216482f", "is_reserved": 0}, {"is_disabled": 0, "fusion_lon": 0.0, "fusion_lat": 0.0, "lat": 38.92441933333333, "type": "electric_bike", "lon": -76.90756483333334, "bike_id": "68ec2f5422eccc8a728cda9b67974467", "rental_uris": {"android": "https://dc.lft.to/lastmile_qr_scan", "ios": "https://dc.lft.to/lastmile_qr_scan"}, "name": "68ec2f5422eccc8a728cda9b67974467", "is_reserved": 0}, {"is_disabled": 0, "fusion_lon": 0.0, "fusion_lat": 0.0, "lat": 38.961964, "type": "electric_scooter", "lon": -77.0278315, "bike_id": "2c5d9d451e37cef2aad762dfd2dc9d9d", "rental_uris": {"android": "https://dc.lft.to/lastmile_qr_scan", "ios": "https://dc.lft.to/lastmile_qr_scan"}, "name": "2c5d9d451e37cef2aad762dfd2dc9d9d", "is_reserved": 0}, {"is_disabled": 0, "fusion_lon": 0.0, "fusion_lat": 0.0, "lat": 38.90936266666667, "type": "electric_scooter", "lon": -77.0281205, "bike_id": "29cb33f9966b4e5df530b2f375d79d8d", "rental_uris": {"android": "https://dc.lft.to/lastmile_qr_scan", "ios": "https://dc.lft.to/lastmile_qr_scan"}, "name": "29cb33f9966b4e5df530b2f375d79d8d", "is_reserved": 0}, {"is_disabled": 0, "fusion_lon": 0.0, "fusion_lat": 0.0, "lat": 38.889199, "type": "electric_scooter", "lon": -76.9800605, "bike_id": "6598253da7b946d11fa460c9bd7a762c", "rental_uris": {"android": "https://dc.lft.to/lastmile_qr_scan", "ios": "https://dc.lft.to/lastmile_qr_scan"}, "name": "6598253da7b946d11fa460c9bd7a762c", "is_reserved": 0}, {"is_disabled": 0, "fusion_lon": 0.0, "fusion_lat": 0.0, "lat": 38.917040666666665, "type": "electric_scooter", "lon": -77.02482566666667, "bike_id": "a4136001aa084f70aff5782018c156c5", "rental_uris": {"android": "https://dc.lft.to/lastmile_qr_scan", "ios": "https://dc.lft.to/lastmile_qr_scan"}, "name": "a4136001aa084f70aff5782018c156c5", "is_reserved": 0}, {"is_disabled": 0, "fusion_lon": 0.0, "fusion_lat": 0.0, "lat": 38.90427183333333, "type": "electric_scooter", "lon": -77.06889516666666, "bike_id": "2a3f3dffe6dca6cdab53812d88ab87ef", "rental_uris": {"android": "https://dc.lft.to/lastmile_qr_scan", "ios": "https://dc.lft.to/lastmile_qr_scan"}, "name": "2a3f3dffe6dca6cdab53812d88ab87ef", "is_reserved": 0}, {"is_disabled": 0, "fusion_lon": 0.0, "fusion_lat": 0.0, "lat": 38.905882, "type": "electric_scooter", "lon": -77.06911316666667, "bike_id": "4e7c876da7f6e6b9ee0e702b91824683", "rental_uris": {"android": "https://dc.lft.to/lastmile_qr_scan", "ios": "https://dc.lft.to/lastmile_qr_scan"}, "name": "4e7c876da7f6e6b9ee0e702b91824683", "is_reserved": 0}, {"is_disabled": 0, "fusion_lon": 0.0, "fusion_lat": 0.0, "lat": 38.907970166666665, "type": "electric_scooter", "lon": -77.00148033333333, "bike_id": "f5abbbc8179cc52896bfa99ba762b3d6", "rental_uris": {"android": "https://dc.lft.to/lastmile_qr_scan", "ios": "https://dc.lft.to/lastmile_qr_scan"}, "name": "f5abbbc8179cc52896bfa99ba762b3d6", "is_reserved": 0}, {"is_disabled": 0, "fusion_lon": 0.0, "fusion_lat": 0.0, "lat": 38.9156845, "type": "electric_scooter", "lon": -77.00210866666667, "bike_id": "714b8962ed724573bf8364b931c8e41c", "rental_uris": {"android": "https://dc.lft.to/lastmile_qr_scan", "ios": "https://dc.lft.to/lastmile_qr_scan"}, "name": "714b8962ed724573bf8364b931c8e41c", "is_reserved": 0}, {"is_disabled": 0, "fusion_lon": 0.0, "fusion_lat": 0.0, "lat": 38.905348000000004, "type": "electric_scooter", "lon": -77.048876, "bike_id": "8676a70cc1a387581fa33b583d82c63b", "rental_uris": {"android": "https://dc.lft.to/lastmile_qr_scan", "ios": "https://dc.lft.to/lastmile_qr_scan"}, "name": "8676a70cc1a387581fa33b583d82c63b", "is_reserved": 0}, {"is_disabled": 0, "fusion_lon": 0.0, "fusion_lat": 0.0, "lat": 38.871958, "type": "electric_scooter", "lon": -76.97824216666666, "bike_id": "ef142dbc87f3a53992a38038acee9551", "rental_uris": {"android": "https://dc.lft.to/lastmile_qr_scan", "ios": "https://dc.lft.to/lastmile_qr_scan"}, "name": "ef142dbc87f3a53992a38038acee9551", "is_reserved": 0}, {"is_disabled": 0, "fusion_lon": 0.0, "fusion_lat": 0.0, "lat": 38.89552316666666, "type": "electric_scooter", "lon": -77.02561116666666, "bike_id": "bf405e0dc2419dad3aa6e41674dfff1e", "rental_uris": {"android": "https://dc.lft.to/lastmile_qr_scan", "ios": "https://dc.lft.to/lastmile_qr_scan"}, "name": "bf405e0dc2419dad3aa6e41674dfff1e", "is_reserved": 0}, {"is_disabled": 0, "fusion_lon": 0.0, "fusion_lat": 0.0, "lat": 38.83123533333333, "type": "electric_bike", "lon": -77.0432625, "bike_id": "08a68a80bee5fd8bcd28b5b87defebd8", "rental_uris": {"android": "https://dc.lft.to/lastmile_qr_scan", "ios": "https://dc.lft.to/lastmile_qr_scan"}, "name": "08a68a80bee5fd8bcd28b5b87defebd8", "is_reserved": 0}, {"is_disabled": 0, "fusion_lon": 0.0, "fusion_lat": 0.0, "lat": 39.1151355, "type": "electric_bike", "lon": -77.19548366666666, "bike_id": "7bea183db8fc22c7ea56459e21bddd28", "rental_uris": {"android": "https://dc.lft.to/lastmile_qr_scan", "ios": "https://dc.lft.to/lastmile_qr_scan"}, "name": "7bea183db8fc22c7ea56459e21bddd28", "is_reserved": 0}, {"is_disabled": 0, "fusion_lon": 0.0, "fusion_lat": 0.0, "lat": 38.93046366666667, "type": "electric_scooter", "lon": -77.00413133333333, "bike_id": "1fb3aa9e843a119f8bbf138248100862", "rental_uris": {"android": "https://dc.lft.to/lastmile_qr_scan", "ios": "https://dc.lft.to/lastmile_qr_scan"}, "name": "1fb3aa9e843a119f8bbf138248100862", "is_reserved": 0}, {"is_disabled": 0, "fusion_lon": 0.0, "fusion_lat": 0.0, "lat": 38.9210185, "type": "electric_scooter", "lon": -77.031281, "bike_id": "b71459c71234638e3bf3540ca1de0cfb", "rental_uris": {"android": "https://dc.lft.to/lastmile_qr_scan", "ios": "https://dc.lft.to/lastmile_qr_scan"}, "name": "b71459c71234638e3bf3540ca1de0cfb", "is_reserved": 0}, {"is_disabled": 0, "fusion_lon": 0.0, "fusion_lat": 0.0, "lat": 38.9430585, "type": "electric_scooter", "lon": -77.02351666666667, "bike_id": "67fb1f08d9f94fbbf5ab7c8baaed05d5", "rental_uris": {"android": "https://dc.lft.to/lastmile_qr_scan", "ios": "https://dc.lft.to/lastmile_qr_scan"}, "name": "67fb1f08d9f94fbbf5ab7c8baaed05d5", "is_reserved": 0}, {"is_disabled": 0, "fusion_lon": 0.0, "fusion_lat": 0.0, "lat": 38.992548666666664, "type": "electric_bike", "lon": -77.0499805, "bike_id": "9cc51545e0414caba39985f07d6121fa", "rental_uris": {"android": "https://dc.lft.to/lastmile_qr_scan", "ios": "https://dc.lft.to/lastmile_qr_scan"}, "name": "9cc51545e0414caba39985f07d6121fa", "is_reserved": 0}, {"is_disabled": 0, "fusion_lon": 0.0, "fusion_lat": 0.0, "lat": 38.838127666666665, "type": "electric_scooter", "lon": -77.00431816666666, "bike_id": "f92a68c7bf7d9e401758dd9d46bd1393", "rental_uris": {"android": "https://dc.lft.to/lastmile_qr_scan", "ios": "https://dc.lft.to/lastmile_qr_scan"}, "name": "f92a68c7bf7d9e401758dd9d46bd1393", "is_reserved": 0}, {"is_disabled": 0, "fusion_lon": 0.0, "fusion_lat": 0.0, "lat": 38.990819, "type": "electric_bike", "lon": -77.00176216666667, "bike_id": "9f189a330555e11d61dc79f6eaa9ae70", "rental_uris": {"android": "https://dc.lft.to/lastmile_qr_scan", "ios": "https://dc.lft.to/lastmile_qr_scan"}, "name": "9f189a330555e11d61dc79f6eaa9ae70", "is_reserved": 0}, {"is_disabled": 0, "fusion_lon": 0.0, "fusion_lat": 0.0, "lat": 38.85717433333333, "type": "electric_bike", "lon": -76.98113083333334, "bike_id": "bd23724173d7627c3e179b1960792c54", "rental_uris": {"android": "https://dc.lft.to/lastmile_qr_scan", "ios": "https://dc.lft.to/lastmile_qr_scan"}, "name": "bd23724173d7627c3e179b1960792c54", "is_reserved": 0}, {"is_disabled": 0, "fusion_lon": 0.0, "fusion_lat": 0.0, "lat": 38.9386625, "type": "electric_scooter", "lon": -77.02583233333333, "bike_id": "bba414215bb6d197644bb548e68a8565", "rental_uris": {"android": "https://dc.lft.to/lastmile_qr_scan", "ios": "https://dc.lft.to/lastmile_qr_scan"}, "name": "bba414215bb6d197644bb548e68a8565", "is_reserved": 0}, {"is_disabled": 0, "fusion_lon": 0.0, "fusion_lat": 0.0, "lat": 38.909885833333334, "type": "electric_scooter", "lon": -77.04268233333333, "bike_id": "9d6c3756085de70dc759ba27b001152a", "rental_uris": {"android": "https://dc.lft.to/lastmile_qr_scan", "ios": "https://dc.lft.to/lastmile_qr_scan"}, "name": "9d6c3756085de70dc759ba27b001152a", "is_reserved": 0}, {"is_disabled": 0, "fusion_lon": 0.0, "fusion_lat": 0.0, "lat": 38.9136435, "type": "electric_scooter", "lon": -77.025914, "bike_id": "ecda56875253eb6df7903ca3f3e789ca", "rental_uris": {"android": "https://dc.lft.to/lastmile_qr_scan", "ios": "https://dc.lft.to/lastmile_qr_scan"}, "name": "ecda56875253eb6df7903ca3f3e789ca", "is_reserved": 0}, {"is_disabled": 0, "fusion_lon": 0.0, "fusion_lat": 0.0, "lat": 38.8940085, "type": "electric_scooter", "lon": -76.94997133333334, "bike_id": "7a6ef290774ac91207c05d4bc8390925", "rental_uris": {"android": "https://dc.lft.to/lastmile_qr_scan", "ios": "https://dc.lft.to/lastmile_qr_scan"}, "name": "7a6ef290774ac91207c05d4bc8390925", "is_reserved": 0}, {"is_disabled": 0, "fusion_lon": 0.0, "fusion_lat": 0.0, "lat": 38.922144333333335, "type": "electric_scooter", "lon": -77.04236033333333, "bike_id": "1eb074fcc075c410c31b41912ec887f5", "rental_uris": {"android": "https://dc.lft.to/lastmile_qr_scan", "ios": "https://dc.lft.to/lastmile_qr_scan"}, "name": "1eb074fcc075c410c31b41912ec887f5", "is_reserved": 0}, {"is_disabled": 0, "fusion_lon": 0.0, "fusion_lat": 0.0, "lat": 38.9050895, "type": "electric_scooter", "lon": -76.99624483333334, "bike_id": "70c5b476a4141badd399ad1db10e23c2", "rental_uris": {"android": "https://dc.lft.to/lastmile_qr_scan", "ios": "https://dc.lft.to/lastmile_qr_scan"}, "name": "70c5b476a4141badd399ad1db10e23c2", "is_reserved": 0}, {"is_disabled": 0, "fusion_lon": 0.0, "fusion_lat": 0.0, "lat": 38.907923833333335, "type": "electric_scooter", "lon": -77.03867, "bike_id": "bdb1911caec9c1b0d77d00365c03b256", "rental_uris": {"android": "https://dc.lft.to/lastmile_qr_scan", "ios": "https://dc.lft.to/lastmile_qr_scan"}, "name": "bdb1911caec9c1b0d77d00365c03b256", "is_reserved": 0}, {"is_disabled": 0, "fusion_lon": 0.0, "fusion_lat": 0.0, "lat": 38.912009, "type": "electric_scooter", "lon": -77.03717316666666, "bike_id": "33942338ea0d249ad1a132b0c757f295", "rental_uris": {"android": "https://dc.lft.to/lastmile_qr_scan", "ios": "https://dc.lft.to/lastmile_qr_scan"}, "name": "33942338ea0d249ad1a132b0c757f295", "is_reserved": 0}, {"is_disabled": 0, "fusion_lon": 0.0, "fusion_lat": 0.0, "lat": 38.917983666666665, "type": "electric_scooter", "lon": -77.02710233333333, "bike_id": "c1fd5bfba33b8ba11ee8f5cd4dc9338d", "rental_uris": {"android": "https://dc.lft.to/lastmile_qr_scan", "ios": "https://dc.lft.to/lastmile_qr_scan"}, "name": "c1fd5bfba33b8ba11ee8f5cd4dc9338d", "is_reserved": 0}, {"is_disabled": 0, "fusion_lon": 0.0, "fusion_lat": 0.0, "lat": 38.909623, "type": "electric_scooter", "lon": -77.048441, "bike_id": "8e7d5a2bee6d408601cdda3274d85f21", "rental_uris": {"android": "https://dc.lft.to/lastmile_qr_scan", "ios": "https://dc.lft.to/lastmile_qr_scan"}, "name": "8e7d5a2bee6d408601cdda3274d85f21", "is_reserved": 0}, {"is_disabled": 0, "fusion_lon": 0.0, "fusion_lat": 0.0, "lat": 38.89473366666667, "type": "electric_scooter", "lon": -76.93303883333333, "bike_id": "bcb4841b3a7ecc5416a7070745921c73", "rental_uris": {"android": "https://dc.lft.to/lastmile_qr_scan", "ios": "https://dc.lft.to/lastmile_qr_scan"}, "name": "bcb4841b3a7ecc5416a7070745921c73", "is_reserved": 0}, {"is_disabled": 0, "fusion_lon": 0.0, "fusion_lat": 0.0, "lat": 38.89465216666667, "type": "electric_scooter", "lon": -77.02141116666667, "bike_id": "bf1736cd887ed10cc4daa92428dced1e", "rental_uris": {"android": "https://dc.lft.to/lastmile_qr_scan", "ios": "https://dc.lft.to/lastmile_qr_scan"}, "name": "bf1736cd887ed10cc4daa92428dced1e", "is_reserved": 0}, {"is_disabled": 0, "fusion_lon": 0.0, "fusion_lat": 0.0, "lat": 38.902816666666666, "type": "electric_scooter", "lon": -77.048726, "bike_id": "a567033ed673a0f6d213ceae289bce5f", "rental_uris": {"android": "https://dc.lft.to/lastmile_qr_scan", "ios": "https://dc.lft.to/lastmile_qr_scan"}, "name": "a567033ed673a0f6d213ceae289bce5f", "is_reserved": 0}, {"is_disabled": 0, "fusion_lon": 0.0, "fusion_lat": 0.0, "lat": 38.878982666666666, "type": "electric_scooter", "lon": -76.93525083333333, "bike_id": "ba2a0e2c976dac2d795137a1f58f8ea1", "rental_uris": {"android": "https://dc.lft.to/lastmile_qr_scan", "ios": "https://dc.lft.to/lastmile_qr_scan"}, "name": "ba2a0e2c976dac2d795137a1f58f8ea1", "is_reserved": 0}, {"is_disabled": 0, "fusion_lon": 0.0, "fusion_lat": 0.0, "lat": 38.8859825, "type": "electric_scooter", "lon": -76.99720883333333, "bike_id": "c85f424f7b6bd93af2ee1a1e79b401bf", "rental_uris": {"android": "https://dc.lft.to/lastmile_qr_scan", "ios": "https://dc.lft.to/lastmile_qr_scan"}, "name": "c85f424f7b6bd93af2ee1a1e79b401bf", "is_reserved": 0}, {"is_disabled": 0, "fusion_lon": 0.0, "fusion_lat": 0.0, "lat": 38.88419283333333, "type": "electric_scooter", "lon": -77.0198395, "bike_id": "bd912f285331869edce3c6a1ecac3b17", "rental_uris": {"android": "https://dc.lft.to/lastmile_qr_scan", "ios": "https://dc.lft.to/lastmile_qr_scan"}, "name": "bd912f285331869edce3c6a1ecac3b17", "is_reserved": 0}, {"is_disabled": 0, "fusion_lon": 0.0, "fusion_lat": 0.0, "lat": 38.9303605, "type": "electric_scooter", "lon": -77.0296495, "bike_id": "37207ad5ea8c928486718f8dcb9381c7", "rental_uris": {"android": "https://dc.lft.to/lastmile_qr_scan", "ios": "https://dc.lft.to/lastmile_qr_scan"}, "name": "37207ad5ea8c928486718f8dcb9381c7", "is_reserved": 0}, {"is_disabled": 0, "fusion_lon": 0.0, "fusion_lat": 0.0, "lat": 38.925755, "type": "electric_scooter", "lon": -77.03773466666667, "bike_id": "d354454681eda4f822161cce94c8ba15", "rental_uris": {"android": "https://dc.lft.to/lastmile_qr_scan", "ios": "https://dc.lft.to/lastmile_qr_scan"}, "name": "d354454681eda4f822161cce94c8ba15", "is_reserved": 0}, {"is_disabled": 0, "fusion_lon": 0.0, "fusion_lat": 0.0, "lat": 38.943025166666665, "type": "electric_scooter", "lon": -77.0252905, "bike_id": "4f1ac0283bd89f6eaf79f78eccba1fb4", "rental_uris": {"android": "https://dc.lft.to/lastmile_qr_scan", "ios": "https://dc.lft.to/lastmile_qr_scan"}, "name": "4f1ac0283bd89f6eaf79f78eccba1fb4", "is_reserved": 0}, {"is_disabled": 0, "fusion_lon": 0.0, "fusion_lat": 0.0, "lat": 38.904936666666664, "type": "electric_scooter", "lon": -77.00923066666667, "bike_id": "807e305bfdf73051a03a96bbe835f517", "rental_uris": {"android": "https://dc.lft.to/lastmile_qr_scan", "ios": "https://dc.lft.to/lastmile_qr_scan"}, "name": "807e305bfdf73051a03a96bbe835f517", "is_reserved": 0}, {"is_disabled": 0, "fusion_lon": 0.0, "fusion_lat": 0.0, "lat": 38.8996285, "type": "electric_bike", "lon": -76.98670116666666, "bike_id": "874be02c9eeaf4ad0aeacadafb8a34be", "rental_uris": {"android": "https://dc.lft.to/lastmile_qr_scan", "ios": "https://dc.lft.to/lastmile_qr_scan"}, "name": "874be02c9eeaf4ad0aeacadafb8a34be", "is_reserved": 0}, {"is_disabled": 0, "fusion_lon": 0.0, "fusion_lat": 0.0, "lat": 38.93178233333333, "type": "electric_scooter", "lon": -77.07255783333333, "bike_id": "63156541ca39722fb5d5850d56246092", "rental_uris": {"android": "https://dc.lft.to/lastmile_qr_scan", "ios": "https://dc.lft.to/lastmile_qr_scan"}, "name": "63156541ca39722fb5d5850d56246092", "is_reserved": 0}, {"is_disabled": 0, "fusion_lon": 0.0, "fusion_lat": 0.0, "lat": 38.91874116666666, "type": "electric_scooter", "lon": -77.02480666666666, "bike_id": "d13d17b4065ca1780b422f7fefa21ee7", "rental_uris": {"android": "https://dc.lft.to/lastmile_qr_scan", "ios": "https://dc.lft.to/lastmile_qr_scan"}, "name": "d13d17b4065ca1780b422f7fefa21ee7", "is_reserved": 0}, {"is_disabled": 0, "fusion_lon": 0.0, "fusion_lat": 0.0, "lat": 38.90311833333333, "type": "electric_scooter", "lon": -76.982467, "bike_id": "6bed61375910ed3a1005926072a3ffec", "rental_uris": {"android": "https://dc.lft.to/lastmile_qr_scan", "ios": "https://dc.lft.to/lastmile_qr_scan"}, "name": "6bed61375910ed3a1005926072a3ffec", "is_reserved": 0}, {"is_disabled": 0, "fusion_lon": 0.0, "fusion_lat": 0.0, "lat": 38.89897716666667, "type": "electric_scooter", "lon": -77.052822, "bike_id": "fd8ada6e2255bdb59a19451dd9a5e331", "rental_uris": {"android": "https://dc.lft.to/lastmile_qr_scan", "ios": "https://dc.lft.to/lastmile_qr_scan"}, "name": "fd8ada6e2255bdb59a19451dd9a5e331", "is_reserved": 0}, {"is_disabled": 0, "fusion_lon": 0.0, "fusion_lat": 0.0, "lat": 38.898446666666665, "type": "electric_scooter", "lon": -76.94632583333333, "bike_id": "6a3b989af5ae67d70a89857262763513", "rental_uris": {"android": "https://dc.lft.to/lastmile_qr_scan", "ios": "https://dc.lft.to/lastmile_qr_scan"}, "name": "6a3b989af5ae67d70a89857262763513", "is_reserved": 0}, {"is_disabled": 0, "fusion_lon": 0.0, "fusion_lat": 0.0, "lat": 38.93666116666667, "type": "electric_scooter", "lon": -77.03259166666666, "bike_id": "83eb6adc5b413bd8a2e7e8a644f686dd", "rental_uris": {"android": "https://dc.lft.to/lastmile_qr_scan", "ios": "https://dc.lft.to/lastmile_qr_scan"}, "name": "83eb6adc5b413bd8a2e7e8a644f686dd", "is_reserved": 0}, {"is_disabled": 0, "fusion_lon": 0.0, "fusion_lat": 0.0, "lat": 38.926005833333335, "type": "electric_scooter", "lon": -77.0215455, "bike_id": "82bbefd2d05c8f3d5559db08b04abda3", "rental_uris": {"android": "https://dc.lft.to/lastmile_qr_scan", "ios": "https://dc.lft.to/lastmile_qr_scan"}, "name": "82bbefd2d05c8f3d5559db08b04abda3", "is_reserved": 0}, {"is_disabled": 0, "fusion_lon": 0.0, "fusion_lat": 0.0, "lat": 38.88476266666667, "type": "electric_scooter", "lon": -77.019842, "bike_id": "c22893d9a4058fe51214c52e0e964d0c", "rental_uris": {"android": "https://dc.lft.to/lastmile_qr_scan", "ios": "https://dc.lft.to/lastmile_qr_scan"}, "name": "c22893d9a4058fe51214c52e0e964d0c", "is_reserved": 0}, {"is_disabled": 0, "fusion_lon": 0.0, "fusion_lat": 0.0, "lat": 38.908689833333334, "type": "electric_scooter", "lon": -77.03548433333333, "bike_id": "a718b30992d50186c57861875c84baf2", "rental_uris": {"android": "https://dc.lft.to/lastmile_qr_scan", "ios": "https://dc.lft.to/lastmile_qr_scan"}, "name": "a718b30992d50186c57861875c84baf2", "is_reserved": 0}, {"is_disabled": 0, "fusion_lon": 0.0, "fusion_lat": 0.0, "lat": 38.852103166666666, "type": "electric_bike", "lon": -77.10132566666667, "bike_id": "0b5ff6856493611653ca757a3c072bda", "rental_uris": {"android": "https://dc.lft.to/lastmile_qr_scan", "ios": "https://dc.lft.to/lastmile_qr_scan"}, "name": "0b5ff6856493611653ca757a3c072bda", "is_reserved": 0}, {"is_disabled": 0, "fusion_lon": 0.0, "fusion_lat": 0.0, "lat": 38.914152333333334, "type": "electric_scooter", "lon": -77.04669233333334, "bike_id": "6ce571d116d3ace16436627b379d83e9", "rental_uris": {"android": "https://dc.lft.to/lastmile_qr_scan", "ios": "https://dc.lft.to/lastmile_qr_scan"}, "name": "6ce571d116d3ace16436627b379d83e9", "is_reserved": 0}, {"is_disabled": 0, "fusion_lon": 0.0, "fusion_lat": 0.0, "lat": 38.9084585, "type": "electric_scooter", "lon": -77.0549145, "bike_id": "ca8ee80e5b5b3508f9c082da6fcd2d1c", "rental_uris": {"android": "https://dc.lft.to/lastmile_qr_scan", "ios": "https://dc.lft.to/lastmile_qr_scan"}, "name": "ca8ee80e5b5b3508f9c082da6fcd2d1c", "is_reserved": 0}, {"is_disabled": 0, "fusion_lon": 0.0, "fusion_lat": 0.0, "lat": 38.876221666666666, "type": "electric_scooter", "lon": -76.965372, "bike_id": "f0b5a6bb762a229698481a2d1b8d470c", "rental_uris": {"android": "https://dc.lft.to/lastmile_qr_scan", "ios": "https://dc.lft.to/lastmile_qr_scan"}, "name": "f0b5a6bb762a229698481a2d1b8d470c", "is_reserved": 0}, {"is_disabled": 0, "fusion_lon": 0.0, "fusion_lat": 0.0, "lat": 38.865735, "type": "electric_scooter", "lon": -76.98948483333334, "bike_id": "2d8f7d551874d9704fb37fdb5d7cc33a", "rental_uris": {"android": "https://dc.lft.to/lastmile_qr_scan", "ios": "https://dc.lft.to/lastmile_qr_scan"}, "name": "2d8f7d551874d9704fb37fdb5d7cc33a", "is_reserved": 0}, {"is_disabled": 0, "fusion_lon": 0.0, "fusion_lat": 0.0, "lat": 38.93733816666666, "type": "electric_scooter", "lon": -77.03274916666666, "bike_id": "b739a98a678d4b88a13c368f85b13c46", "rental_uris": {"android": "https://dc.lft.to/lastmile_qr_scan", "ios": "https://dc.lft.to/lastmile_qr_scan"}, "name": "b739a98a678d4b88a13c368f85b13c46", "is_reserved": 0}, {"is_disabled": 0, "fusion_lon": 0.0, "fusion_lat": 0.0, "lat": 38.88752616666667, "type": "electric_scooter", "lon": -77.01604183333333, "bike_id": "85d13e55e871c08a5c27e66dd464b661", "rental_uris": {"android": "https://dc.lft.to/lastmile_qr_scan", "ios": "https://dc.lft.to/lastmile_qr_scan"}, "name": "85d13e55e871c08a5c27e66dd464b661", "is_reserved": 0}, {"is_disabled": 0, "fusion_lon": 0.0, "fusion_lat": 0.0, "lat": 38.8977415, "type": "electric_scooter", "lon": -77.04711566666667, "bike_id": "a0d5a9a5f3715ed568f95ef1727b700a", "rental_uris": {"android": "https://dc.lft.to/lastmile_qr_scan", "ios": "https://dc.lft.to/lastmile_qr_scan"}, "name": "a0d5a9a5f3715ed568f95ef1727b700a", "is_reserved": 0}, {"is_disabled": 0, "fusion_lon": 0.0, "fusion_lat": 0.0, "lat": 38.90139833333333, "type": "electric_scooter", "lon": -76.986363, "bike_id": "aba87e0e30ec8259cf85acc5457f40c6", "rental_uris": {"android": "https://dc.lft.to/lastmile_qr_scan", "ios": "https://dc.lft.to/lastmile_qr_scan"}, "name": "aba87e0e30ec8259cf85acc5457f40c6", "is_reserved": 0}, {"is_disabled": 0, "fusion_lon": 0.0, "fusion_lat": 0.0, "lat": 38.93127666666667, "type": "electric_scooter", "lon": -77.05707883333334, "bike_id": "fc0341f898d3206af9aeb5e58018c991", "rental_uris": {"android": "https://dc.lft.to/lastmile_qr_scan", "ios": "https://dc.lft.to/lastmile_qr_scan"}, "name": "fc0341f898d3206af9aeb5e58018c991", "is_reserved": 0}, {"is_disabled": 0, "fusion_lon": 0.0, "fusion_lat": 0.0, "lat": 38.82730466666667, "type": "electric_bike", "lon": -77.00865266666666, "bike_id": "e561e8331ebb632450a792088a64a726", "rental_uris": {"android": "https://dc.lft.to/lastmile_qr_scan", "ios": "https://dc.lft.to/lastmile_qr_scan"}, "name": "e561e8331ebb632450a792088a64a726", "is_reserved": 0}, {"is_disabled": 0, "fusion_lon": 0.0, "fusion_lat": 0.0, "lat": 38.944198, "type": "electric_scooter", "lon": -77.02623633333333, "bike_id": "5a277e74f334b0242d309e5f84dd207e", "rental_uris": {"android": "https://dc.lft.to/lastmile_qr_scan", "ios": "https://dc.lft.to/lastmile_qr_scan"}, "name": "5a277e74f334b0242d309e5f84dd207e", "is_reserved": 0}, {"is_disabled": 0, "fusion_lon": 0.0, "fusion_lat": 0.0, "lat": 38.93519966666667, "type": "electric_scooter", "lon": -77.023791, "bike_id": "dc436a5cbe26c96c1120c0936e6d2f8b", "rental_uris": {"android": "https://dc.lft.to/lastmile_qr_scan", "ios": "https://dc.lft.to/lastmile_qr_scan"}, "name": "dc436a5cbe26c96c1120c0936e6d2f8b", "is_reserved": 0}, {"is_disabled": 0, "fusion_lon": 0.0, "fusion_lat": 0.0, "lat": 38.89503416666667, "type": "electric_scooter", "lon": -76.94879216666666, "bike_id": "bdccaf84e1c910369e5cbab8be6e661a", "rental_uris": {"android": "https://dc.lft.to/lastmile_qr_scan", "ios": "https://dc.lft.to/lastmile_qr_scan"}, "name": "bdccaf84e1c910369e5cbab8be6e661a", "is_reserved": 0}, {"is_disabled": 0, "fusion_lon": 0.0, "fusion_lat": 0.0, "lat": 38.91817666666667, "type": "electric_scooter", "lon": -77.02712733333334, "bike_id": "98c1d70579e35e156a96dfde4b81291e", "rental_uris": {"android": "https://dc.lft.to/lastmile_qr_scan", "ios": "https://dc.lft.to/lastmile_qr_scan"}, "name": "98c1d70579e35e156a96dfde4b81291e", "is_reserved": 0}, {"is_disabled": 0, "fusion_lon": 0.0, "fusion_lat": 0.0, "lat": 38.912576333333334, "type": "electric_scooter", "lon": -77.038648, "bike_id": "077cdaf034421e58c50d300919faf612", "rental_uris": {"android": "https://dc.lft.to/lastmile_qr_scan", "ios": "https://dc.lft.to/lastmile_qr_scan"}, "name": "077cdaf034421e58c50d300919faf612", "is_reserved": 0}, {"is_disabled": 0, "fusion_lon": 0.0, "fusion_lat": 0.0, "lat": 38.9068335, "type": "electric_scooter", "lon": -76.97997983333333, "bike_id": "5faa598619584d21ef5d1cacc5f22cb1", "rental_uris": {"android": "https://dc.lft.to/lastmile_qr_scan", "ios": "https://dc.lft.to/lastmile_qr_scan"}, "name": "5faa598619584d21ef5d1cacc5f22cb1", "is_reserved": 0}, {"is_disabled": 0, "fusion_lon": 0.0, "fusion_lat": 0.0, "lat": 38.908783666666665, "type": "electric_scooter", "lon": -77.035416, "bike_id": "7c2a8f52dd4eb28dbc62e3a5fc763e11", "rental_uris": {"android": "https://dc.lft.to/lastmile_qr_scan", "ios": "https://dc.lft.to/lastmile_qr_scan"}, "name": "7c2a8f52dd4eb28dbc62e3a5fc763e11", "is_reserved": 0}, {"is_disabled": 0, "fusion_lon": 0.0, "fusion_lat": 0.0, "lat": 38.92240916666667, "type": "electric_scooter", "lon": -77.0389575, "bike_id": "eea57c2e33733fec7940f80c116b39c1", "rental_uris": {"android": "https://dc.lft.to/lastmile_qr_scan", "ios": "https://dc.lft.to/lastmile_qr_scan"}, "name": "eea57c2e33733fec7940f80c116b39c1", "is_reserved": 0}, {"is_disabled": 0, "fusion_lon": 0.0, "fusion_lat": 0.0, "lat": 38.90160383333333, "type": "electric_scooter", "lon": -77.02275716666666, "bike_id": "062af1bd2934c24e20f35b7274ce8f4b", "rental_uris": {"android": "https://dc.lft.to/lastmile_qr_scan", "ios": "https://dc.lft.to/lastmile_qr_scan"}, "name": "062af1bd2934c24e20f35b7274ce8f4b", "is_reserved": 0}, {"is_disabled": 0, "fusion_lon": 0.0, "fusion_lat": 0.0, "lat": 38.942054166666665, "type": "electric_scooter", "lon": -77.0258985, "bike_id": "c80b52a399595a797c124841dfc1d8f3", "rental_uris": {"android": "https://dc.lft.to/lastmile_qr_scan", "ios": "https://dc.lft.to/lastmile_qr_scan"}, "name": "c80b52a399595a797c124841dfc1d8f3", "is_reserved": 0}, {"is_disabled": 0, "fusion_lon": 0.0, "fusion_lat": 0.0, "lat": 38.896106, "type": "electric_scooter", "lon": -77.00929533333333, "bike_id": "2df094a1d91ddd053cbea49c4670e5d7", "rental_uris": {"android": "https://dc.lft.to/lastmile_qr_scan", "ios": "https://dc.lft.to/lastmile_qr_scan"}, "name": "2df094a1d91ddd053cbea49c4670e5d7", "is_reserved": 0}, {"is_disabled": 0, "fusion_lon": 0.0, "fusion_lat": 0.0, "lat": 38.9074495, "type": "electric_scooter", "lon": -77.00491716666667, "bike_id": "9f4a65bb5034df9de9ddfc003c353c19", "rental_uris": {"android": "https://dc.lft.to/lastmile_qr_scan", "ios": "https://dc.lft.to/lastmile_qr_scan"}, "name": "9f4a65bb5034df9de9ddfc003c353c19", "is_reserved": 0}, {"is_disabled": 0, "fusion_lon": 0.0, "fusion_lat": 0.0, "lat": 38.9556365, "type": "electric_scooter", "lon": -77.070295, "bike_id": "3dc13eec0cb7f345eb3dc6cbd0475652", "rental_uris": {"android": "https://dc.lft.to/lastmile_qr_scan", "ios": "https://dc.lft.to/lastmile_qr_scan"}, "name": "3dc13eec0cb7f345eb3dc6cbd0475652", "is_reserved": 0}, {"is_disabled": 0, "fusion_lon": 0.0, "fusion_lat": 0.0, "lat": 38.902727666666664, "type": "electric_scooter", "lon": -77.02404616666666, "bike_id": "0afdbbb394b1a721be67f5da6837b186", "rental_uris": {"android": "https://dc.lft.to/lastmile_qr_scan", "ios": "https://dc.lft.to/lastmile_qr_scan"}, "name": "0afdbbb394b1a721be67f5da6837b186", "is_reserved": 0}, {"is_disabled": 0, "fusion_lon": 0.0, "fusion_lat": 0.0, "lat": 38.91603466666667, "type": "electric_scooter", "lon": -77.03110866666667, "bike_id": "7b35abf2bebc8c8557320bfb286cb1d7", "rental_uris": {"android": "https://dc.lft.to/lastmile_qr_scan", "ios": "https://dc.lft.to/lastmile_qr_scan"}, "name": "7b35abf2bebc8c8557320bfb286cb1d7", "is_reserved": 0}, {"is_disabled": 0, "fusion_lon": 0.0, "fusion_lat": 0.0, "lat": 38.927669333333334, "type": "electric_scooter", "lon": -77.0284925, "bike_id": "29a3b48d3c4e761454668fcbf4313879", "rental_uris": {"android": "https://dc.lft.to/lastmile_qr_scan", "ios": "https://dc.lft.to/lastmile_qr_scan"}, "name": "29a3b48d3c4e761454668fcbf4313879", "is_reserved": 0}, {"is_disabled": 0, "fusion_lon": 0.0, "fusion_lat": 0.0, "lat": 38.95962133333333, "type": "electric_bike", "lon": -77.025131, "bike_id": "7bfea6f63d0edf19ef08b59a2e1c09f2", "rental_uris": {"android": "https://dc.lft.to/lastmile_qr_scan", "ios": "https://dc.lft.to/lastmile_qr_scan"}, "name": "7bfea6f63d0edf19ef08b59a2e1c09f2", "is_reserved": 0}, {"is_disabled": 0, "fusion_lon": 0.0, "fusion_lat": 0.0, "lat": 38.858069, "type": "electric_scooter", "lon": -76.9865455, "bike_id": "7c57282bc08a137adda9c3544fbab806", "rental_uris": {"android": "https://dc.lft.to/lastmile_qr_scan", "ios": "https://dc.lft.to/lastmile_qr_scan"}, "name": "7c57282bc08a137adda9c3544fbab806", "is_reserved": 0}, {"is_disabled": 0, "fusion_lon": 0.0, "fusion_lat": 0.0, "lat": 38.911820166666665, "type": "electric_scooter", "lon": -77.03495883333333, "bike_id": "90b381e2016f6388b9104bb2af1b10e7", "rental_uris": {"android": "https://dc.lft.to/lastmile_qr_scan", "ios": "https://dc.lft.to/lastmile_qr_scan"}, "name": "90b381e2016f6388b9104bb2af1b10e7", "is_reserved": 0}, {"is_disabled": 0, "fusion_lon": 0.0, "fusion_lat": 0.0, "lat": 38.92601716666667, "type": "electric_scooter", "lon": -77.05705866666666, "bike_id": "6cfb1abc2bb92122dc2b97a626cae948", "rental_uris": {"android": "https://dc.lft.to/lastmile_qr_scan", "ios": "https://dc.lft.to/lastmile_qr_scan"}, "name": "6cfb1abc2bb92122dc2b97a626cae948", "is_reserved": 0}, {"is_disabled": 0, "fusion_lon": 0.0, "fusion_lat": 0.0, "lat": 39.000199333333335, "type": "electric_bike", "lon": -76.872852, "bike_id": "144e9dceaede76b01bf4b71fbb6eed4c", "rental_uris": {"android": "https://dc.lft.to/lastmile_qr_scan", "ios": "https://dc.lft.to/lastmile_qr_scan"}, "name": "144e9dceaede76b01bf4b71fbb6eed4c", "is_reserved": 0}, {"is_disabled": 0, "fusion_lon": 0.0, "fusion_lat": 0.0, "lat": 38.89797216666667, "type": "electric_scooter", "lon": -77.02928666666666, "bike_id": "bc117a289e9008b28cd2afa2b15ac3bc", "rental_uris": {"android": "https://dc.lft.to/lastmile_qr_scan", "ios": "https://dc.lft.to/lastmile_qr_scan"}, "name": "bc117a289e9008b28cd2afa2b15ac3bc", "is_reserved": 0}, {"is_disabled": 0, "fusion_lon": 0.0, "fusion_lat": 0.0, "lat": 38.82876, "type": "electric_bike", "lon": -77.112181, "bike_id": "d97d0c4954a2809345850baa8f47ca88", "rental_uris": {"android": "https://dc.lft.to/lastmile_qr_scan", "ios": "https://dc.lft.to/lastmile_qr_scan"}, "name": "d97d0c4954a2809345850baa8f47ca88", "is_reserved": 0}, {"is_disabled": 0, "fusion_lon": 0.0, "fusion_lat": 0.0, "lat": 38.9097245, "type": "electric_scooter", "lon": -77.0110265, "bike_id": "a5e8099239a0edc52e1c13b46b1aff0e", "rental_uris": {"android": "https://dc.lft.to/lastmile_qr_scan", "ios": "https://dc.lft.to/lastmile_qr_scan"}, "name": "a5e8099239a0edc52e1c13b46b1aff0e", "is_reserved": 0}, {"is_disabled": 0, "fusion_lon": 0.0, "fusion_lat": 0.0, "lat": 38.91254133333333, "type": "electric_scooter", "lon": -77.02235566666667, "bike_id": "18e1dfda9aa54715836d9f6dafdb616a", "rental_uris": {"android": "https://dc.lft.to/lastmile_qr_scan", "ios": "https://dc.lft.to/lastmile_qr_scan"}, "name": "18e1dfda9aa54715836d9f6dafdb616a", "is_reserved": 0}, {"is_disabled": 0, "fusion_lon": 0.0, "fusion_lat": 0.0, "lat": 38.910385833333336, "type": "electric_scooter", "lon": -77.04264166666667, "bike_id": "8bd0ace416f647c94ab6c3474c762bbc", "rental_uris": {"android": "https://dc.lft.to/lastmile_qr_scan", "ios": "https://dc.lft.to/lastmile_qr_scan"}, "name": "8bd0ace416f647c94ab6c3474c762bbc", "is_reserved": 0}, {"is_disabled": 0, "fusion_lon": 0.0, "fusion_lat": 0.0, "lat": 38.89746, "type": "electric_scooter", "lon": -77.05125283333334, "bike_id": "141268c33600d56c087990032436d62f", "rental_uris": {"android": "https://dc.lft.to/lastmile_qr_scan", "ios": "https://dc.lft.to/lastmile_qr_scan"}, "name": "141268c33600d56c087990032436d62f", "is_reserved": 0}, {"is_disabled": 0, "fusion_lon": 0.0, "fusion_lat": 0.0, "lat": 38.93181916666666, "type": "electric_scooter", "lon": -77.0237275, "bike_id": "974e1aa020d0194ff2f438154b20a5fd", "rental_uris": {"android": "https://dc.lft.to/lastmile_qr_scan", "ios": "https://dc.lft.to/lastmile_qr_scan"}, "name": "974e1aa020d0194ff2f438154b20a5fd", "is_reserved": 0}, {"is_disabled": 0, "fusion_lon": 0.0, "fusion_lat": 0.0, "lat": 38.914237666666665, "type": "electric_scooter", "lon": -77.01426933333333, "bike_id": "13995d9619bc463884af66e189857dce", "rental_uris": {"android": "https://dc.lft.to/lastmile_qr_scan", "ios": "https://dc.lft.to/lastmile_qr_scan"}, "name": "13995d9619bc463884af66e189857dce", "is_reserved": 0}, {"is_disabled": 0, "fusion_lon": 0.0, "fusion_lat": 0.0, "lat": 38.88381783333333, "type": "electric_scooter", "lon": -77.04608233333333, "bike_id": "be9fdd8fe66aa49e73901ac4c57c0d9a", "rental_uris": {"android": "https://dc.lft.to/lastmile_qr_scan", "ios": "https://dc.lft.to/lastmile_qr_scan"}, "name": "be9fdd8fe66aa49e73901ac4c57c0d9a", "is_reserved": 0}, {"is_disabled": 0, "fusion_lon": 0.0, "fusion_lat": 0.0, "lat": 38.88493716666667, "type": "electric_scooter", "lon": -77.007248, "bike_id": "3f7d3294e592fa7d843b2bd44341b34b", "rental_uris": {"android": "https://dc.lft.to/lastmile_qr_scan", "ios": "https://dc.lft.to/lastmile_qr_scan"}, "name": "3f7d3294e592fa7d843b2bd44341b34b", "is_reserved": 0}, {"is_disabled": 0, "fusion_lon": 0.0, "fusion_lat": 0.0, "lat": 38.887477, "type": "electric_scooter", "lon": -77.01539416666667, "bike_id": "26725f11a98a92c4e0859ce8ea9ce569", "rental_uris": {"android": "https://dc.lft.to/lastmile_qr_scan", "ios": "https://dc.lft.to/lastmile_qr_scan"}, "name": "26725f11a98a92c4e0859ce8ea9ce569", "is_reserved": 0}, {"is_disabled": 0, "fusion_lon": 0.0, "fusion_lat": 0.0, "lat": 38.92888583333333, "type": "electric_scooter", "lon": -77.03237083333333, "bike_id": "f2cf8e12ec14412f791af2820ddfaf39", "rental_uris": {"android": "https://dc.lft.to/lastmile_qr_scan", "ios": "https://dc.lft.to/lastmile_qr_scan"}, "name": "f2cf8e12ec14412f791af2820ddfaf39", "is_reserved": 0}, {"is_disabled": 0, "fusion_lon": 0.0, "fusion_lat": 0.0, "lat": 38.8520685, "type": "electric_bike", "lon": -77.1276055, "bike_id": "75af638abc84e9920c80c5038ad424c2", "rental_uris": {"android": "https://dc.lft.to/lastmile_qr_scan", "ios": "https://dc.lft.to/lastmile_qr_scan"}, "name": "75af638abc84e9920c80c5038ad424c2", "is_reserved": 0}, {"is_disabled": 0, "fusion_lon": 0.0, "fusion_lat": 0.0, "lat": 38.93897033333333, "type": "electric_scooter", "lon": -77.03320866666667, "bike_id": "808e5bab4c4c9e704c3a19d1bc0527ec", "rental_uris": {"android": "https://dc.lft.to/lastmile_qr_scan", "ios": "https://dc.lft.to/lastmile_qr_scan"}, "name": "808e5bab4c4c9e704c3a19d1bc0527ec", "is_reserved": 0}, {"is_disabled": 0, "fusion_lon": 0.0, "fusion_lat": 0.0, "lat": 38.91638566666666, "type": "electric_scooter", "lon": -77.0238145, "bike_id": "a23052fdddaa909e3244d78c059d081e", "rental_uris": {"android": "https://dc.lft.to/lastmile_qr_scan", "ios": "https://dc.lft.to/lastmile_qr_scan"}, "name": "a23052fdddaa909e3244d78c059d081e", "is_reserved": 0}, {"is_disabled": 0, "fusion_lon": 0.0, "fusion_lat": 0.0, "lat": 38.93143216666667, "type": "electric_scooter", "lon": -77.0324365, "bike_id": "cccbc553e5cef65ef27440484d7da44e", "rental_uris": {"android": "https://dc.lft.to/lastmile_qr_scan", "ios": "https://dc.lft.to/lastmile_qr_scan"}, "name": "cccbc553e5cef65ef27440484d7da44e", "is_reserved": 0}, {"is_disabled": 0, "fusion_lon": 0.0, "fusion_lat": 0.0, "lat": 38.91882433333333, "type": "electric_scooter", "lon": -77.04315666666666, "bike_id": "6be40984d71ffac482d02c8db58c7636", "rental_uris": {"android": "https://dc.lft.to/lastmile_qr_scan", "ios": "https://dc.lft.to/lastmile_qr_scan"}, "name": "6be40984d71ffac482d02c8db58c7636", "is_reserved": 0}, {"is_disabled": 0, "fusion_lon": 0.0, "fusion_lat": 0.0, "lat": 38.900147833333335, "type": "electric_scooter", "lon": -77.03961033333333, "bike_id": "f46d5e19f0599ae865ae9cca25bf3f05", "rental_uris": {"android": "https://dc.lft.to/lastmile_qr_scan", "ios": "https://dc.lft.to/lastmile_qr_scan"}, "name": "f46d5e19f0599ae865ae9cca25bf3f05", "is_reserved": 0}, {"is_disabled": 0, "fusion_lon": 0.0, "fusion_lat": 0.0, "lat": 38.90506216666667, "type": "electric_bike", "lon": -77.05682866666666, "bike_id": "33bf43d2207f7ef565512b97f0fec2db", "rental_uris": {"android": "https://dc.lft.to/lastmile_qr_scan", "ios": "https://dc.lft.to/lastmile_qr_scan"}, "name": "33bf43d2207f7ef565512b97f0fec2db", "is_reserved": 0}, {"is_disabled": 0, "fusion_lon": 0.0, "fusion_lat": 0.0, "lat": 38.94490666666667, "type": "electric_bike", "lon": -76.98653633333333, "bike_id": "24ed6c4378e885f34d84b97df5cf2665", "rental_uris": {"android": "https://dc.lft.to/lastmile_qr_scan", "ios": "https://dc.lft.to/lastmile_qr_scan"}, "name": "24ed6c4378e885f34d84b97df5cf2665", "is_reserved": 0}, {"is_disabled": 0, "fusion_lon": 0.0, "fusion_lat": 0.0, "lat": 38.89364, "type": "electric_scooter", "lon": -77.0031985, "bike_id": "dec6cc51ab2b7445f6e683de4226be67", "rental_uris": {"android": "https://dc.lft.to/lastmile_qr_scan", "ios": "https://dc.lft.to/lastmile_qr_scan"}, "name": "dec6cc51ab2b7445f6e683de4226be67", "is_reserved": 0}, {"is_disabled": 0, "fusion_lon": 0.0, "fusion_lat": 0.0, "lat": 38.906371166666666, "type": "electric_bike", "lon": -77.0702665, "bike_id": "aff7c63bac87e0db92df913749c48b2e", "rental_uris": {"android": "https://dc.lft.to/lastmile_qr_scan", "ios": "https://dc.lft.to/lastmile_qr_scan"}, "name": "aff7c63bac87e0db92df913749c48b2e", "is_reserved": 0}, {"is_disabled": 0, "fusion_lon": 0.0, "fusion_lat": 0.0, "lat": 38.916972, "type": "electric_scooter", "lon": -77.03629566666666, "bike_id": "d449df11f32bad18343300915057ce41", "rental_uris": {"android": "https://dc.lft.to/lastmile_qr_scan", "ios": "https://dc.lft.to/lastmile_qr_scan"}, "name": "d449df11f32bad18343300915057ce41", "is_reserved": 0}, {"is_disabled": 0, "fusion_lon": 0.0, "fusion_lat": 0.0, "lat": 38.9170255, "type": "electric_scooter", "lon": -77.00115883333333, "bike_id": "0340dced7e5343841fb620cb4d8c08a5", "rental_uris": {"android": "https://dc.lft.to/lastmile_qr_scan", "ios": "https://dc.lft.to/lastmile_qr_scan"}, "name": "0340dced7e5343841fb620cb4d8c08a5", "is_reserved": 0}, {"is_disabled": 0, "fusion_lon": 0.0, "fusion_lat": 0.0, "lat": 38.9370015, "type": "electric_scooter", "lon": -77.05600966666667, "bike_id": "84ae142fc5e97444e386b5933dde5c5f", "rental_uris": {"android": "https://dc.lft.to/lastmile_qr_scan", "ios": "https://dc.lft.to/lastmile_qr_scan"}, "name": "84ae142fc5e97444e386b5933dde5c5f", "is_reserved": 0}, {"is_disabled": 0, "fusion_lon": 0.0, "fusion_lat": 0.0, "lat": 38.88455316666666, "type": "electric_bike", "lon": -76.91635416666666, "bike_id": "c0400a01d9d25734b4b7908fb5a98116", "rental_uris": {"android": "https://dc.lft.to/lastmile_qr_scan", "ios": "https://dc.lft.to/lastmile_qr_scan"}, "name": "c0400a01d9d25734b4b7908fb5a98116", "is_reserved": 0}, {"is_disabled": 0, "fusion_lon": 0.0, "fusion_lat": 0.0, "lat": 38.917864333333334, "type": "electric_scooter", "lon": -77.017784, "bike_id": "72c51fec3afc2733e892894a2eaba268", "rental_uris": {"android": "https://dc.lft.to/lastmile_qr_scan", "ios": "https://dc.lft.to/lastmile_qr_scan"}, "name": "72c51fec3afc2733e892894a2eaba268", "is_reserved": 0}, {"is_disabled": 0, "fusion_lon": 0.0, "fusion_lat": 0.0, "lat": 38.94896466666667, "type": "electric_bike", "lon": -76.963716, "bike_id": "decdfa7e1eb9f30cf37a865ce56bae72", "rental_uris": {"android": "https://dc.lft.to/lastmile_qr_scan", "ios": "https://dc.lft.to/lastmile_qr_scan"}, "name": "decdfa7e1eb9f30cf37a865ce56bae72", "is_reserved": 0}, {"is_disabled": 0, "fusion_lon": 0.0, "fusion_lat": 0.0, "lat": 38.912135166666665, "type": "electric_scooter", "lon": -77.03842266666666, "bike_id": "41993a85ca4f9b8d91487a6eda7e168d", "rental_uris": {"android": "https://dc.lft.to/lastmile_qr_scan", "ios": "https://dc.lft.to/lastmile_qr_scan"}, "name": "41993a85ca4f9b8d91487a6eda7e168d", "is_reserved": 0}, {"is_disabled": 0, "fusion_lon": 0.0, "fusion_lat": 0.0, "lat": 38.900318166666665, "type": "electric_scooter", "lon": -77.01187283333333, "bike_id": "cc919fe9c216516ebc99ac68bebb9bee", "rental_uris": {"android": "https://dc.lft.to/lastmile_qr_scan", "ios": "https://dc.lft.to/lastmile_qr_scan"}, "name": "cc919fe9c216516ebc99ac68bebb9bee", "is_reserved": 0}, {"is_disabled": 0, "fusion_lon": 0.0, "fusion_lat": 0.0, "lat": 39.05264433333333, "type": "electric_bike", "lon": -77.04383, "bike_id": "dfce54db8e2080bfd0c0109d9da0ebf7", "rental_uris": {"android": "https://dc.lft.to/lastmile_qr_scan", "ios": "https://dc.lft.to/lastmile_qr_scan"}, "name": "dfce54db8e2080bfd0c0109d9da0ebf7", "is_reserved": 0}, {"is_disabled": 0, "fusion_lon": 0.0, "fusion_lat": 0.0, "lat": 38.91988833333333, "type": "electric_scooter", "lon": -77.04164533333334, "bike_id": "ceadf783033d53b6b95e2f72c3f8ea6c", "rental_uris": {"android": "https://dc.lft.to/lastmile_qr_scan", "ios": "https://dc.lft.to/lastmile_qr_scan"}, "name": "ceadf783033d53b6b95e2f72c3f8ea6c", "is_reserved": 0}, {"is_disabled": 0, "fusion_lon": 0.0, "fusion_lat": 0.0, "lat": 38.91333916666667, "type": "electric_scooter", "lon": -77.04169433333334, "bike_id": "ecf7994dee4d7c9ff922050e63065430", "rental_uris": {"android": "https://dc.lft.to/lastmile_qr_scan", "ios": "https://dc.lft.to/lastmile_qr_scan"}, "name": "ecf7994dee4d7c9ff922050e63065430", "is_reserved": 0}, {"is_disabled": 0, "fusion_lon": 0.0, "fusion_lat": 0.0, "lat": 38.921573333333335, "type": "electric_scooter", "lon": -77.033979, "bike_id": "ae7d1337262be5eec970ea9d8d1deeb9", "rental_uris": {"android": "https://dc.lft.to/lastmile_qr_scan", "ios": "https://dc.lft.to/lastmile_qr_scan"}, "name": "ae7d1337262be5eec970ea9d8d1deeb9", "is_reserved": 0}, {"is_disabled": 0, "fusion_lon": 0.0, "fusion_lat": 0.0, "lat": 38.911579333333336, "type": "electric_scooter", "lon": -77.02379916666666, "bike_id": "2e81023ee7ec6cf6f0fb391cade3f4ea", "rental_uris": {"android": "https://dc.lft.to/lastmile_qr_scan", "ios": "https://dc.lft.to/lastmile_qr_scan"}, "name": "2e81023ee7ec6cf6f0fb391cade3f4ea", "is_reserved": 0}, {"is_disabled": 0, "fusion_lon": 0.0, "fusion_lat": 0.0, "lat": 38.895221666666664, "type": "electric_scooter", "lon": -77.00919716666667, "bike_id": "60cf1e79ccda50d61dd76ec345ef1355", "rental_uris": {"android": "https://dc.lft.to/lastmile_qr_scan", "ios": "https://dc.lft.to/lastmile_qr_scan"}, "name": "60cf1e79ccda50d61dd76ec345ef1355", "is_reserved": 0}, {"is_disabled": 0, "fusion_lon": 0.0, "fusion_lat": 0.0, "lat": 38.864995666666665, "type": "electric_scooter", "lon": -76.98980433333334, "bike_id": "578eb6936529318655afe6fbd7086f02", "rental_uris": {"android": "https://dc.lft.to/lastmile_qr_scan", "ios": "https://dc.lft.to/lastmile_qr_scan"}, "name": "578eb6936529318655afe6fbd7086f02", "is_reserved": 0}, {"is_disabled": 0, "fusion_lon": 0.0, "fusion_lat": 0.0, "lat": 38.91133083333333, "type": "electric_scooter", "lon": -77.04417783333334, "bike_id": "633ea9f594862f3332b5f60ebf552f41", "rental_uris": {"android": "https://dc.lft.to/lastmile_qr_scan", "ios": "https://dc.lft.to/lastmile_qr_scan"}, "name": "633ea9f594862f3332b5f60ebf552f41", "is_reserved": 0}, {"is_disabled": 0, "fusion_lon": 0.0, "fusion_lat": 0.0, "lat": 38.93891816666667, "type": "electric_scooter", "lon": -77.0776915, "bike_id": "4ad4561da513fc2c4af150cb5c00870f", "rental_uris": {"android": "https://dc.lft.to/lastmile_qr_scan", "ios": "https://dc.lft.to/lastmile_qr_scan"}, "name": "4ad4561da513fc2c4af150cb5c00870f", "is_reserved": 0}, {"is_disabled": 0, "fusion_lon": 0.0, "fusion_lat": 0.0, "lat": 38.918767333333335, "type": "electric_scooter", "lon": -77.043151, "bike_id": "061d587adbdb23413ae4d6cdc52f48d4", "rental_uris": {"android": "https://dc.lft.to/lastmile_qr_scan", "ios": "https://dc.lft.to/lastmile_qr_scan"}, "name": "061d587adbdb23413ae4d6cdc52f48d4", "is_reserved": 0}, {"is_disabled": 0, "fusion_lon": 0.0, "fusion_lat": 0.0, "lat": 38.905303833333335, "type": "electric_scooter", "lon": -77.05825583333333, "bike_id": "c4657fa586c3ebf644651e4439f8e7d7", "rental_uris": {"android": "https://dc.lft.to/lastmile_qr_scan", "ios": "https://dc.lft.to/lastmile_qr_scan"}, "name": "c4657fa586c3ebf644651e4439f8e7d7", "is_reserved": 0}, {"is_disabled": 0, "fusion_lon": 0.0, "fusion_lat": 0.0, "lat": 38.8989705, "type": "electric_scooter", "lon": -77.033317, "bike_id": "2da837306cdc9b6ffbe6da6e14aee675", "rental_uris": {"android": "https://dc.lft.to/lastmile_qr_scan", "ios": "https://dc.lft.to/lastmile_qr_scan"}, "name": "2da837306cdc9b6ffbe6da6e14aee675", "is_reserved": 0}, {"is_disabled": 0, "fusion_lon": 0.0, "fusion_lat": 0.0, "lat": 38.91860066666667, "type": "electric_bike", "lon": -76.960875, "bike_id": "008ca6ffbbb03801e2808e69b9d2cb1f", "rental_uris": {"android": "https://dc.lft.to/lastmile_qr_scan", "ios": "https://dc.lft.to/lastmile_qr_scan"}, "name": "008ca6ffbbb03801e2808e69b9d2cb1f", "is_reserved": 0}, {"is_disabled": 0, "fusion_lon": 0.0, "fusion_lat": 0.0, "lat": 38.9455145, "type": "electric_scooter", "lon": -77.0423885, "bike_id": "ebebd69f230629220a12879deb46bb49", "rental_uris": {"android": "https://dc.lft.to/lastmile_qr_scan", "ios": "https://dc.lft.to/lastmile_qr_scan"}, "name": "ebebd69f230629220a12879deb46bb49", "is_reserved": 0}, {"is_disabled": 0, "fusion_lon": 0.0, "fusion_lat": 0.0, "lat": 38.92661433333333, "type": "electric_scooter", "lon": -77.0431225, "bike_id": "3c6cdc91ae772df20a7ea5d6d56a2c93", "rental_uris": {"android": "https://dc.lft.to/lastmile_qr_scan", "ios": "https://dc.lft.to/lastmile_qr_scan"}, "name": "3c6cdc91ae772df20a7ea5d6d56a2c93", "is_reserved": 0}, {"is_disabled": 0, "fusion_lon": 0.0, "fusion_lat": 0.0, "lat": 38.84308816666667, "type": "electric_bike", "lon": -77.11423, "bike_id": "55d3d3b6f8fddcbc2f42474e800fd382", "rental_uris": {"android": "https://dc.lft.to/lastmile_qr_scan", "ios": "https://dc.lft.to/lastmile_qr_scan"}, "name": "55d3d3b6f8fddcbc2f42474e800fd382", "is_reserved": 0}, {"is_disabled": 0, "fusion_lon": 0.0, "fusion_lat": 0.0, "lat": 38.934858166666665, "type": "electric_scooter", "lon": -77.072713, "bike_id": "6159171ff4aef8c93449644ef1bec7bb", "rental_uris": {"android": "https://dc.lft.to/lastmile_qr_scan", "ios": "https://dc.lft.to/lastmile_qr_scan"}, "name": "6159171ff4aef8c93449644ef1bec7bb", "is_reserved": 0}, {"is_disabled": 0, "fusion_lon": 0.0, "fusion_lat": 0.0, "lat": 38.862481333333335, "type": "electric_scooter", "lon": -76.99501616666667, "bike_id": "ef855dbbc9ce572c1ce16ba8d6b82b28", "rental_uris": {"android": "https://dc.lft.to/lastmile_qr_scan", "ios": "https://dc.lft.to/lastmile_qr_scan"}, "name": "ef855dbbc9ce572c1ce16ba8d6b82b28", "is_reserved": 0}, {"is_disabled": 0, "fusion_lon": 0.0, "fusion_lat": 0.0, "lat": 38.91931233333333, "type": "electric_scooter", "lon": -77.025948, "bike_id": "02fe41e2e88d491f841efbf213ae8aeb", "rental_uris": {"android": "https://dc.lft.to/lastmile_qr_scan", "ios": "https://dc.lft.to/lastmile_qr_scan"}, "name": "02fe41e2e88d491f841efbf213ae8aeb", "is_reserved": 0}, {"is_disabled": 0, "fusion_lon": 0.0, "fusion_lat": 0.0, "lat": 38.90959183333333, "type": "electric_scooter", "lon": -77.0484445, "bike_id": "c6c4237fdf80e1d526c8d865195263f3", "rental_uris": {"android": "https://dc.lft.to/lastmile_qr_scan", "ios": "https://dc.lft.to/lastmile_qr_scan"}, "name": "c6c4237fdf80e1d526c8d865195263f3", "is_reserved": 0}, {"is_disabled": 0, "fusion_lon": 0.0, "fusion_lat": 0.0, "lat": 38.95230166666666, "type": "electric_scooter", "lon": -77.02762016666667, "bike_id": "aad29923505b84e26de289bad2f6d948", "rental_uris": {"android": "https://dc.lft.to/lastmile_qr_scan", "ios": "https://dc.lft.to/lastmile_qr_scan"}, "name": "aad29923505b84e26de289bad2f6d948", "is_reserved": 0}, {"is_disabled": 0, "fusion_lon": 0.0, "fusion_lat": 0.0, "lat": 38.900029, "type": "electric_scooter", "lon": -77.052244, "bike_id": "17e0b99a37fab48c63a0fc3589ee5494", "rental_uris": {"android": "https://dc.lft.to/lastmile_qr_scan", "ios": "https://dc.lft.to/lastmile_qr_scan"}, "name": "17e0b99a37fab48c63a0fc3589ee5494", "is_reserved": 0}, {"is_disabled": 0, "fusion_lon": 0.0, "fusion_lat": 0.0, "lat": 38.9054525, "type": "electric_scooter", "lon": -77.05802466666667, "bike_id": "b3f51f4bb222c0f21e685691162b8356", "rental_uris": {"android": "https://dc.lft.to/lastmile_qr_scan", "ios": "https://dc.lft.to/lastmile_qr_scan"}, "name": "b3f51f4bb222c0f21e685691162b8356", "is_reserved": 0}, {"is_disabled": 0, "fusion_lon": 0.0, "fusion_lat": 0.0, "lat": 38.860579666666666, "type": "electric_scooter", "lon": -76.98509983333334, "bike_id": "805471e0c5ee5d31593090e17421b19e", "rental_uris": {"android": "https://dc.lft.to/lastmile_qr_scan", "ios": "https://dc.lft.to/lastmile_qr_scan"}, "name": "805471e0c5ee5d31593090e17421b19e", "is_reserved": 0}, {"is_disabled": 0, "fusion_lon": 0.0, "fusion_lat": 0.0, "lat": 38.9288025, "type": "electric_scooter", "lon": -77.04127283333334, "bike_id": "232fe680d344a579c6fa626a20722b5a", "rental_uris": {"android": "https://dc.lft.to/lastmile_qr_scan", "ios": "https://dc.lft.to/lastmile_qr_scan"}, "name": "232fe680d344a579c6fa626a20722b5a", "is_reserved": 0}, {"is_disabled": 0, "fusion_lon": 0.0, "fusion_lat": 0.0, "lat": 38.9097175, "type": "electric_scooter", "lon": -77.04788816666667, "bike_id": "0c4529cbaa1af0a55c2bcd60bc290f4a", "rental_uris": {"android": "https://dc.lft.to/lastmile_qr_scan", "ios": "https://dc.lft.to/lastmile_qr_scan"}, "name": "0c4529cbaa1af0a55c2bcd60bc290f4a", "is_reserved": 0}, {"is_disabled": 0, "fusion_lon": 0.0, "fusion_lat": 0.0, "lat": 38.91483566666667, "type": "electric_scooter", "lon": -77.04075266666666, "bike_id": "bb4a2661dba66f67cf31c64e99bfbee9", "rental_uris": {"android": "https://dc.lft.to/lastmile_qr_scan", "ios": "https://dc.lft.to/lastmile_qr_scan"}, "name": "bb4a2661dba66f67cf31c64e99bfbee9", "is_reserved": 0}, {"is_disabled": 0, "fusion_lon": 0.0, "fusion_lat": 0.0, "lat": 38.91386633333333, "type": "electric_scooter", "lon": -77.02969766666666, "bike_id": "61b6892bd8396f170919092e7235a3eb", "rental_uris": {"android": "https://dc.lft.to/lastmile_qr_scan", "ios": "https://dc.lft.to/lastmile_qr_scan"}, "name": "61b6892bd8396f170919092e7235a3eb", "is_reserved": 0}, {"is_disabled": 0, "fusion_lon": 0.0, "fusion_lat": 0.0, "lat": 38.930308833333335, "type": "electric_scooter", "lon": -77.05555683333333, "bike_id": "70873641ea1b29684d2b8943a51677d6", "rental_uris": {"android": "https://dc.lft.to/lastmile_qr_scan", "ios": "https://dc.lft.to/lastmile_qr_scan"}, "name": "70873641ea1b29684d2b8943a51677d6", "is_reserved": 0}, {"is_disabled": 0, "fusion_lon": 0.0, "fusion_lat": 0.0, "lat": 38.887572, "type": "electric_scooter", "lon": -77.00221733333333, "bike_id": "21aa906c5797fcfcfa57666908e71e24", "rental_uris": {"android": "https://dc.lft.to/lastmile_qr_scan", "ios": "https://dc.lft.to/lastmile_qr_scan"}, "name": "21aa906c5797fcfcfa57666908e71e24", "is_reserved": 0}, {"is_disabled": 0, "fusion_lon": 0.0, "fusion_lat": 0.0, "lat": 38.8987885, "type": "electric_scooter", "lon": -76.93159633333333, "bike_id": "18f636820f5a17365335a5efea2f906e", "rental_uris": {"android": "https://dc.lft.to/lastmile_qr_scan", "ios": "https://dc.lft.to/lastmile_qr_scan"}, "name": "18f636820f5a17365335a5efea2f906e", "is_reserved": 0}, {"is_disabled": 0, "fusion_lon": 0.0, "fusion_lat": 0.0, "lat": 38.901314166666666, "type": "electric_scooter", "lon": -77.04057933333333, "bike_id": "7002f9ab46628cd89cd7446e45aa9658", "rental_uris": {"android": "https://dc.lft.to/lastmile_qr_scan", "ios": "https://dc.lft.to/lastmile_qr_scan"}, "name": "7002f9ab46628cd89cd7446e45aa9658", "is_reserved": 0}, {"is_disabled": 0, "fusion_lon": 0.0, "fusion_lat": 0.0, "lat": 38.91384566666667, "type": "electric_scooter", "lon": -77.02976033333333, "bike_id": "1d78009991277311ed668a6f232ee8d0", "rental_uris": {"android": "https://dc.lft.to/lastmile_qr_scan", "ios": "https://dc.lft.to/lastmile_qr_scan"}, "name": "1d78009991277311ed668a6f232ee8d0", "is_reserved": 0}, {"is_disabled": 0, "fusion_lon": 0.0, "fusion_lat": 0.0, "lat": 38.92708533333333, "type": "electric_scooter", "lon": -76.97212566666667, "bike_id": "c2eca0d568abc2e00e44c6f52d998bf8", "rental_uris": {"android": "https://dc.lft.to/lastmile_qr_scan", "ios": "https://dc.lft.to/lastmile_qr_scan"}, "name": "c2eca0d568abc2e00e44c6f52d998bf8", "is_reserved": 0}, {"is_disabled": 0, "fusion_lon": 0.0, "fusion_lat": 0.0, "lat": 38.89835433333333, "type": "electric_scooter", "lon": -77.028097, "bike_id": "9c48ef641c96f0e94ee8f4c790d1b996", "rental_uris": {"android": "https://dc.lft.to/lastmile_qr_scan", "ios": "https://dc.lft.to/lastmile_qr_scan"}, "name": "9c48ef641c96f0e94ee8f4c790d1b996", "is_reserved": 0}, {"is_disabled": 0, "fusion_lon": 0.0, "fusion_lat": 0.0, "lat": 38.908256, "type": "electric_scooter", "lon": -77.03347883333333, "bike_id": "6e73f2fa4789340889a07e8349850d92", "rental_uris": {"android": "https://dc.lft.to/lastmile_qr_scan", "ios": "https://dc.lft.to/lastmile_qr_scan"}, "name": "6e73f2fa4789340889a07e8349850d92", "is_reserved": 0}, {"is_disabled": 0, "fusion_lon": 0.0, "fusion_lat": 0.0, "lat": 38.90651533333333, "type": "electric_scooter", "lon": -77.02523416666666, "bike_id": "8db6455a426dfc18c6dd761321abab11", "rental_uris": {"android": "https://dc.lft.to/lastmile_qr_scan", "ios": "https://dc.lft.to/lastmile_qr_scan"}, "name": "8db6455a426dfc18c6dd761321abab11", "is_reserved": 0}, {"is_disabled": 0, "fusion_lon": 0.0, "fusion_lat": 0.0, "lat": 38.89262016666667, "type": "electric_scooter", "lon": -76.94154566666667, "bike_id": "df4386597fb412f40d8c5d02bf113c7c", "rental_uris": {"android": "https://dc.lft.to/lastmile_qr_scan", "ios": "https://dc.lft.to/lastmile_qr_scan"}, "name": "df4386597fb412f40d8c5d02bf113c7c", "is_reserved": 0}, {"is_disabled": 0, "fusion_lon": 0.0, "fusion_lat": 0.0, "lat": 38.929374833333334, "type": "electric_scooter", "lon": -77.0328185, "bike_id": "9df24280e6c28d75d831e41589bf7e1a", "rental_uris": {"android": "https://dc.lft.to/lastmile_qr_scan", "ios": "https://dc.lft.to/lastmile_qr_scan"}, "name": "9df24280e6c28d75d831e41589bf7e1a", "is_reserved": 0}, {"is_disabled": 0, "fusion_lon": 0.0, "fusion_lat": 0.0, "lat": 38.91109, "type": "electric_scooter", "lon": -77.0285945, "bike_id": "d22596334ebef7d5584cf08e48c9da47", "rental_uris": {"android": "https://dc.lft.to/lastmile_qr_scan", "ios": "https://dc.lft.to/lastmile_qr_scan"}, "name": "d22596334ebef7d5584cf08e48c9da47", "is_reserved": 0}, {"is_disabled": 0, "fusion_lon": 0.0, "fusion_lat": 0.0, "lat": 38.9504495, "type": "electric_scooter", "lon": -77.02291233333334, "bike_id": "883d9ce4a9b83fa2b62b3dfe47e2bd75", "rental_uris": {"android": "https://dc.lft.to/lastmile_qr_scan", "ios": "https://dc.lft.to/lastmile_qr_scan"}, "name": "883d9ce4a9b83fa2b62b3dfe47e2bd75", "is_reserved": 0}, {"is_disabled": 0, "fusion_lon": 0.0, "fusion_lat": 0.0, "lat": 38.883512333333336, "type": "electric_scooter", "lon": -76.92789266666666, "bike_id": "1e281b31767b259821fd2f7aa1aa9850", "rental_uris": {"android": "https://dc.lft.to/lastmile_qr_scan", "ios": "https://dc.lft.to/lastmile_qr_scan"}, "name": "1e281b31767b259821fd2f7aa1aa9850", "is_reserved": 0}, {"is_disabled": 0, "fusion_lon": 0.0, "fusion_lat": 0.0, "lat": 38.8317045, "type": "electric_bike", "lon": -76.99751933333333, "bike_id": "a6194cec112684707dfdc8ee83e418e0", "rental_uris": {"android": "https://dc.lft.to/lastmile_qr_scan", "ios": "https://dc.lft.to/lastmile_qr_scan"}, "name": "a6194cec112684707dfdc8ee83e418e0", "is_reserved": 0}, {"is_disabled": 0, "fusion_lon": 0.0, "fusion_lat": 0.0, "lat": 38.949724833333335, "type": "electric_scooter", "lon": -77.09440166666667, "bike_id": "8afd649457879bf16a1d82676a53e74f", "rental_uris": {"android": "https://dc.lft.to/lastmile_qr_scan", "ios": "https://dc.lft.to/lastmile_qr_scan"}, "name": "8afd649457879bf16a1d82676a53e74f", "is_reserved": 0}, {"is_disabled": 0, "fusion_lon": 0.0, "fusion_lat": 0.0, "lat": 38.90024966666667, "type": "electric_scooter", "lon": -77.02366683333334, "bike_id": "bdcd6b2fa03a370453c4128157d58fbe", "rental_uris": {"android": "https://dc.lft.to/lastmile_qr_scan", "ios": "https://dc.lft.to/lastmile_qr_scan"}, "name": "bdcd6b2fa03a370453c4128157d58fbe", "is_reserved": 0}, {"is_disabled": 0, "fusion_lon": 0.0, "fusion_lat": 0.0, "lat": 38.93398783333333, "type": "electric_scooter", "lon": -77.0455065, "bike_id": "5dc21620fd6fea69d2ab2fd2aebd5c6d", "rental_uris": {"android": "https://dc.lft.to/lastmile_qr_scan", "ios": "https://dc.lft.to/lastmile_qr_scan"}, "name": "5dc21620fd6fea69d2ab2fd2aebd5c6d", "is_reserved": 0}, {"is_disabled": 0, "fusion_lon": 0.0, "fusion_lat": 0.0, "lat": 38.94537716666667, "type": "electric_bike", "lon": -77.3446, "bike_id": "c4eb4676aa496ef6071d8433f6e7cc9d", "rental_uris": {"android": "https://dc.lft.to/lastmile_qr_scan", "ios": "https://dc.lft.to/lastmile_qr_scan"}, "name": "c4eb4676aa496ef6071d8433f6e7cc9d", "is_reserved": 0}, {"is_disabled": 0, "fusion_lon": 0.0, "fusion_lat": 0.0, "lat": 38.8986605, "type": "electric_scooter", "lon": -77.01978683333333, "bike_id": "75d5c31b9fe134c3245439ed64443868", "rental_uris": {"android": "https://dc.lft.to/lastmile_qr_scan", "ios": "https://dc.lft.to/lastmile_qr_scan"}, "name": "75d5c31b9fe134c3245439ed64443868", "is_reserved": 0}, {"is_disabled": 0, "fusion_lon": 0.0, "fusion_lat": 0.0, "lat": 38.90520733333334, "type": "electric_scooter", "lon": -77.05112766666667, "bike_id": "8641c328cf775f426742a6b4ea664f2c", "rental_uris": {"android": "https://dc.lft.to/lastmile_qr_scan", "ios": "https://dc.lft.to/lastmile_qr_scan"}, "name": "8641c328cf775f426742a6b4ea664f2c", "is_reserved": 0}, {"is_disabled": 0, "fusion_lon": 0.0, "fusion_lat": 0.0, "lat": 38.8658695, "type": "electric_scooter", "lon": -76.9871935, "bike_id": "9706eb24abd055758c6256c854cff834", "rental_uris": {"android": "https://dc.lft.to/lastmile_qr_scan", "ios": "https://dc.lft.to/lastmile_qr_scan"}, "name": "9706eb24abd055758c6256c854cff834", "is_reserved": 0}, {"is_disabled": 0, "fusion_lon": 0.0, "fusion_lat": 0.0, "lat": 38.9133085, "type": "electric_scooter", "lon": -77.04552883333334, "bike_id": "d3ddc4dfcd242019dc927c48a1398952", "rental_uris": {"android": "https://dc.lft.to/lastmile_qr_scan", "ios": "https://dc.lft.to/lastmile_qr_scan"}, "name": "d3ddc4dfcd242019dc927c48a1398952", "is_reserved": 0}, {"is_disabled": 0, "fusion_lon": 0.0, "fusion_lat": 0.0, "lat": 38.876687, "type": "electric_scooter", "lon": -76.93189466666666, "bike_id": "0ed290128b1b7f55109bef10baf4bc6e", "rental_uris": {"android": "https://dc.lft.to/lastmile_qr_scan", "ios": "https://dc.lft.to/lastmile_qr_scan"}, "name": "0ed290128b1b7f55109bef10baf4bc6e", "is_reserved": 0}, {"is_disabled": 0, "fusion_lon": 0.0, "fusion_lat": 0.0, "lat": 38.916933666666665, "type": "electric_scooter", "lon": -77.028255, "bike_id": "14e15923ce91ae8f2b66aead1de4e939", "rental_uris": {"android": "https://dc.lft.to/lastmile_qr_scan", "ios": "https://dc.lft.to/lastmile_qr_scan"}, "name": "14e15923ce91ae8f2b66aead1de4e939", "is_reserved": 0}, {"is_disabled": 0, "fusion_lon": 0.0, "fusion_lat": 0.0, "lat": 38.87823916666667, "type": "electric_scooter", "lon": -76.96314483333333, "bike_id": "d6201661bc733c12bd39eddc0f2eaffe", "rental_uris": {"android": "https://dc.lft.to/lastmile_qr_scan", "ios": "https://dc.lft.to/lastmile_qr_scan"}, "name": "d6201661bc733c12bd39eddc0f2eaffe", "is_reserved": 0}, {"is_disabled": 0, "fusion_lon": 0.0, "fusion_lat": 0.0, "lat": 38.939656666666664, "type": "electric_scooter", "lon": -77.0328255, "bike_id": "c2ceb8be5bf25346f1796245b2371943", "rental_uris": {"android": "https://dc.lft.to/lastmile_qr_scan", "ios": "https://dc.lft.to/lastmile_qr_scan"}, "name": "c2ceb8be5bf25346f1796245b2371943", "is_reserved": 0}, {"is_disabled": 0, "fusion_lon": 0.0, "fusion_lat": 0.0, "lat": 38.956208, "type": "electric_scooter", "lon": -77.02759333333333, "bike_id": "596398468f8b540ecd8e2495c52883fa", "rental_uris": {"android": "https://dc.lft.to/lastmile_qr_scan", "ios": "https://dc.lft.to/lastmile_qr_scan"}, "name": "596398468f8b540ecd8e2495c52883fa", "is_reserved": 0}, {"is_disabled": 0, "fusion_lon": 0.0, "fusion_lat": 0.0, "lat": 38.824453166666665, "type": "electric_bike", "lon": -77.07049466666666, "bike_id": "281ef81e20ff646b0cacb3a89c42407e", "rental_uris": {"android": "https://dc.lft.to/lastmile_qr_scan", "ios": "https://dc.lft.to/lastmile_qr_scan"}, "name": "281ef81e20ff646b0cacb3a89c42407e", "is_reserved": 0}, {"is_disabled": 0, "fusion_lon": 0.0, "fusion_lat": 0.0, "lat": 38.88533066666667, "type": "electric_scooter", "lon": -76.92692416666667, "bike_id": "e4e407dcfe46fa4203990da078501e60", "rental_uris": {"android": "https://dc.lft.to/lastmile_qr_scan", "ios": "https://dc.lft.to/lastmile_qr_scan"}, "name": "e4e407dcfe46fa4203990da078501e60", "is_reserved": 0},