{"data": {"bikes": [{"type": "electric_scooter", "name": "da828d1fcd92eee5bba83464ace46dc4", "rental_uris": {"ios": "https://dc.lft.to/lastmile_qr_scan", "android": "https://dc.lft.to/lastmile_qr_scan"}, "fusion_lon": 0.0, "lat": 38.93420866666666, "is_disabled": 0, "bike_id": "da828d1fcd92eee5bba83464ace46dc4", "fusion_lat": 0.0, "is_reserved": 0, "lon": -77.04408566666666}, {"type": "electric_scooter", "name": "44207c2c31c3bced218dc6a089fd8cb8", "rental_uris": {"ios": "https://dc.lft.to/lastmile_qr_scan", "android": "https://dc.lft.to/lastmile_qr_scan"}, "fusion_lon": 0.0, "lat": 38.907179666666664, "is_disabled": 0, "bike_id": "44207c2c31c3bced218dc6a089fd8cb8", "fusion_lat": 0.0, "is_reserved": 0, "lon": -77.02970733333333}, {"type": "electric_scooter", "name": "2a827a5a772e126895096ab964eefbaf", "rental_uris": {"ios": "https://dc.lft.to/lastmile_qr_scan", "android": "https://dc.lft.to/lastmile_qr_scan"}, "fusion_lon": 0.0, "lat": 38.89669816666667, "is_disabled": 0, "bike_id": "2a827a5a772e126895096ab964eefbaf", "fusion_lat": 0.0, "is_reserved": 0, "lon": -77.054674}, {"type": "electric_scooter", "name": "bc2d9317c4dd6475816fa0b578ff760b", "rental_uris": {"ios": "https://dc.lft.to/lastmile_qr_scan", "android": "https://dc.lft.to/lastmile_qr_scan"}, "fusion_lon": 0.0, "lat": 38.900039, "is_disabled": 0, "bike_id": "bc2d9317c4dd6475816fa0b578ff760b", "fusion_lat": 0.0, "is_reserved": 0, "lon": -77.01024866666667}, {"type": "electric_scooter", "name": "f5316e5cf74abd853bfeb2903131cf64", "rental_uris": {"ios": "https://dc.lft.to/lastmile_qr_scan", "android": "https://dc.lft.to/lastmile_qr_scan"}, "fusion_lon": 0.0, "lat": 38.92114483333334, "is_disabled": 0, "bike_id": "f5316e5cf74abd853bfeb2903131cf64", "fusion_lat": 0.0, "is_reserved": 0, "lon": -77.00921083333333}, {"type": "electric_scooter", "name": "21c66a803240b120f6048c5ce17d1728", "rental_uris": {"ios": "https://dc.lft.to/lastmile_qr_scan", "android": "https://dc.lft.to/lastmile_qr_scan"}, "fusion_lon": 0.0, "lat": 38.904411833333334, "is_disabled": 0, "bike_id": "21c66a803240b120f6048c5ce17d1728", "fusion_lat": 0.0, "is_reserved": 0, "lon": -77.05339883333333}, {"type": "electric_scooter", "name": "cf472933528760fd8e8993f972651531", "rental_uris": {"ios": "https://dc.lft.to/lastmile_qr_scan", "android": "https://dc.lft.to/lastmile_qr_scan"}, "fusion_lon": 0.0, "lat": 38.91104033333333, "is_disabled": 0, "bike_id": "cf472933528760fd8e8993f972651531", "fusion_lat": 0.0, "is_reserved": 0, "lon": -77.00397033333333}, {"type": "electric_scooter", "name": "6970d22094d8966ff0db777819ef67de", "rental_uris": {"ios": "https://dc.lft.to/lastmile_qr_scan", "android": "https://dc.lft.to/lastmile_qr_scan"}, "fusion_lon": 0.0, "lat": 38.907879333333334, "is_disabled": 0, "bike_id": "6970d22094d8966ff0db777819ef67de", "fusion_lat": 0.0, "is_reserved": 0, "lon": -76.99427}, {"type": "electric_scooter", "name": "b357cb0d574219258cdcf84a6e36da42", "rental_uris": {"ios": "https://dc.lft.to/lastmile_qr_scan", "android": "https://dc.lft.to/lastmile_qr_scan"}, "fusion_lon": 0.0, "lat": 38.935377, "is_disabled": 0, "bike_id": "b357cb0d574219258cdcf84a6e36da42", "fusion_lat": 0.0, "is_reserved": 0, "lon": -77.02350616666666}, {"type": "electric_scooter", "name": "7ac124a8de10daad9077d1396a88fb60", "rental_uris": {"ios": "https://dc.lft.to/lastmile_qr_scan", "android": "https://dc.lft.to/lastmile_qr_scan"}, "fusion_lon": 0.0, "lat": 38.89849566666667, "is_disabled": 0, "bike_id": "7ac124a8de10daad9077d1396a88fb60", "fusion_lat": 0.0, "is_reserved": 0, "lon": -77.03324}, {"type": "electric_scooter", "name": "5b9a137a0e3ec510c5a10edfbe3a2d01", "rental_uris": {"ios": "https://dc.lft.to/lastmile_qr_scan", "android": "https://dc.lft.to/lastmile_qr_scan"}, "fusion_lon": 0.0, "lat": 38.91784666666667, "is_disabled": 0, "bike_id": "5b9a137a0e3ec510c5a10edfbe3a2d01", "fusion_lat": 0.0, "is_reserved": 0, "lon": -77.0230895}, {"type": "electric_scooter", "name": "42f3b9e48c8ad7b116881660075481b5", "rental_uris": {"ios": "https://dc.lft.to/lastmile_qr_scan", "android": "https://dc.lft.to/lastmile_qr_scan"}, "fusion_lon": 0.0, "lat": 38.901551, "is_disabled": 0, "bike_id": "42f3b9e48c8ad7b116881660075481b5", "fusion_lat": 0.0, "is_reserved": 0, "lon": -76.99038116666667}, {"type": "electric_scooter", "name": "b9fb51ef0214dc9cd7dcac0773e399c2", "rental_uris": {"ios": "https://dc.lft.to/lastmile_qr_scan", "android": "https://dc.lft.to/lastmile_qr_scan"}, "fusion_lon": 0.0, "lat": 38.895340166666664, "is_disabled": 0, "bike_id": "b9fb51ef0214dc9cd7dcac0773e399c2", "fusion_lat": 0.0, "is_reserved": 0, "lon": -76.94881116666667}, {"type": "electric_scooter", "name": "26502a80e1170df577fafda5151751d2", "rental_uris": {"ios": "https://dc.lft.to/lastmile_qr_scan", "android": "https://dc.lft.to/lastmile_qr_scan"}, "fusion_lon": 0.0, "lat": 38.923401166666665, "is_disabled": 0, "bike_id": "26502a80e1170df577fafda5151751d2", "fusion_lat": 0.0, "is_reserved": 0, "lon": -77.05236216666667}, {"type": "electric_scooter", "name": "cff9858fff9aed17a8b248de741a987e", "rental_uris": {"ios": "https://dc.lft.to/lastmile_qr_scan", "android": "https://dc.lft.to/lastmile_qr_scan"}, "fusion_lon": 0.0, "lat": 38.942998333333335, "is_disabled": 0, "bike_id": "cff9858fff9aed17a8b248de741a987e", "fusion_lat": 0.0, "is_reserved": 0, "lon": -77.02953483333333}, {"type": "electric_bike", "name": "04a9699a57a686b3ff2a96150509300d", "rental_uris": {"ios": "https://dc.lft.to/lastmile_qr_scan", "android": "https://dc.lft.to/lastmile_qr_scan"}, "fusion_lon": 0.0, "lat": 38.90962866666667, "is_disabled": 0, "bike_id": "04a9699a57a686b3ff2a96150509300d", "fusion_lat": 0.0, "is_reserved": 0, "lon": -77.228953}, {"type": "electric_scooter", "name": "65f1f1c38061b4127c246465e653d91b", "rental_uris": {"ios": "https://dc.lft.to/lastmile_qr_scan", "android": "https://dc.lft.to/lastmile_qr_scan"}, "fusion_lon": 0.0, "lat": 38.885235333333334, "is_disabled": 0, "bike_id": "65f1f1c38061b4127c246465e653d91b", "fusion_lat": 0.0, "is_reserved": 0, "lon": -76.97708483333334}, {"type": "electric_scooter", "name": "48ffe0c54b7d57e32d26b6cdf998e658", "rental_uris": {"ios": "https://dc.lft.to/lastmile_qr_scan", "android": "https://dc.lft.to/lastmile_qr_scan"}, "fusion_lon": 0.0, "lat": 38.898439, "is_disabled": 0, "bike_id": "48ffe0c54b7d57e32d26b6cdf998e658", "fusion_lat": 0.0, "is_reserved": 0, "lon": -77.00745866666666}, {"type": "electric_scooter", "name": "9fb2a0db1f6cf256b12f4f681bbd852b", "rental_uris": {"ios": "https://dc.lft.to/lastmile_qr_scan", "android": "https://dc.lft.to/lastmile_qr_scan"}, "fusion_lon": 0.0, "lat": 38.902457166666665, "is_disabled": 0, "bike_id": "9fb2a0db1f6cf256b12f4f681bbd852b", "fusion_lat": 0.0, "is_reserved": 0, "lon": -77.00584383333333}, {"type": "electric_scooter", "name": "f7bfbf81aad2a7e08f15c0c4b2045d7a", "rental_uris": {"ios": "https://dc.lft.to/lastmile_qr_scan", "android": "https://dc.lft.to/lastmile_qr_scan"}, "fusion_lon": 0.0, "lat": 38.91088666666667, "is_disabled": 0, "bike_id": "f7bfbf81aad2a7e08f15c0c4b2045d7a", "fusion_lat": 0.0, "is_reserved": 0, "lon": -77.038404}, {"type": "electric_scooter", "name": "a5423cc870e2ae6c27bce9f9587fc2aa", "rental_uris": {"ios": "https://dc.lft.to/lastmile_qr_scan", "android": "https://dc.lft.to/lastmile_qr_scan"}, "fusion_lon": 0.0, "lat": 38.903302333333336, "is_disabled": 0, "bike_id": "a5423cc870e2ae6c27bce9f9587fc2aa", "fusion_lat": 0.0, "is_reserved": 0, "lon": -77.03844033333333}, {"type": "electric_scooter", "name": "578c4a6c4ebb9e6caf56f5919df20d04", "rental_uris": {"ios": "https://dc.lft.to/lastmile_qr_scan", "android": "https://dc.lft.to/lastmile_qr_scan"}, "fusion_lon": 0.0, "lat": 38.87783233333333, "is_disabled": 0, "bike_id": "578c4a6c4ebb9e6caf56f5919df20d04", "fusion_lat": 0.0, "is_reserved": 0, "lon": -76.9941175}, {"type": "electric_scooter", "name": "2cbecc8c00873dd85c8a288e6abb2f3c", "rental_uris": {"ios": "https://dc.lft.to/lastmile_qr_scan", "android": "https://dc.lft.to/lastmile_qr_scan"}, "fusion_lon": 0.0, "lat": 38.892374, "is_disabled": 0, "bike_id": "2cbecc8c00873dd85c8a288e6abb2f3c", "fusion_lat": 0.0, "is_reserved": 0, "lon": -77.0487505}, {"type": "electric_scooter", "name": "2103a64debb584498928e4f809d1546e", "rental_uris": {"ios": "https://dc.lft.to/lastmile_qr_scan", "android": "https://dc.lft.to/lastmile_qr_scan"}, "fusion_lon": 0.0, "lat": 38.9148315, "is_disabled": 0, "bike_id": "2103a64debb584498928e4f809d1546e", "fusion_lat": 0.0, "is_reserved": 0, "lon": -77.006476}, {"type": "electric_scooter", "name": "0aba2975ee8cecffbb51de4e43426219", "rental_uris": {"ios": "https://dc.lft.to/lastmile_qr_scan", "android": "https://dc.lft.to/lastmile_qr_scan"}, "fusion_lon": 0.0, "lat": 38.899456666666666, "is_disabled": 0, "bike_id": "0aba2975ee8cecffbb51de4e43426219", "fusion_lat": 0.0, "is_reserved": 0, "lon": -77.04173683333333}, {"type": "electric_scooter", "name": "616512b1f10c1ce64bc0837c5bcdff43", "rental_uris": {"ios": "https://dc.lft.to/lastmile_qr_scan", "android": "https://dc.lft.to/lastmile_qr_scan"}, "fusion_lon": 0.0, "lat": 38.9221255, "is_disabled": 0, "bike_id": "616512b1f10c1ce64bc0837c5bcdff43", "fusion_lat": 0.0, "is_reserved": 0, "lon": -77.035239}, {"type": "electric_scooter", "name": "f2e7c35fc8625cb4889a7d1d6433cb47", "rental_uris": {"ios": "https://dc.lft.to/lastmile_qr_scan", "android": "https://dc.lft.to/lastmile_qr_scan"}, "fusion_lon": 0.0, "lat": 38.904149833333335, "is_disabled": 0, "bike_id": "f2e7c35fc8625cb4889a7d1d6433cb47", "fusion_lat": 0.0, "is_reserved": 0, "lon": -76.9732685}, {"type": "electric_scooter", "name": "58ee8d13cf2ba7c60e040925d05fa605", "rental_uris": {"ios": "https://dc.lft.to/lastmile_qr_scan", "android": "https://dc.lft.to/lastmile_qr_scan"}, "fusion_lon": 0.0, "lat": 38.9337485, "is_disabled": 0, "bike_id": "58ee8d13cf2ba7c60e040925d05fa605", "fusion_lat": 0.0, "is_reserved": 0, "lon": -77.03688583333333}, {"type": "electric_scooter", "name": "a752087fb75f1a7e68a92c7e5cb3423e", "rental_uris": {"ios": "https://dc.lft.to/lastmile_qr_scan", "android": "https://dc.lft.to/lastmile_qr_scan"}, "fusion_lon": 0.0, "lat": 38.8990765, "is_disabled": 0, "bike_id": "a752087fb75f1a7e68a92c7e5cb3423e", "fusion_lat": 0.0, "is_reserved": 0, "lon": -77.02825316666667}, {"type": "electric_scooter", "name": "5ecff4d91659143429fe490b1f6e88b7", "rental_uris": {"ios": "https://dc.lft.to/lastmile_qr_scan", "android": "https://dc.lft.to/lastmile_qr_scan"}, "fusion_lon": 0.0, "lat": 38.918598, "is_disabled": 0, "bike_id": "5ecff4d91659143429fe490b1f6e88b7", "fusion_lat": 0.0, "is_reserved": 0, "lon": -77.03216416666666}, {"type": "electric_scooter", "name": "405578dbd93891c4436f04db440cf3cd", "rental_uris": {"ios": "https://dc.lft.to/lastmile_qr_scan", "android": "https://dc.lft.to/lastmile_qr_scan"}, "fusion_lon": 0.0, "lat": 38.928263666666666, "is_disabled": 0, "bike_id": "405578dbd93891c4436f04db440cf3cd", "fusion_lat": 0.0, "is_reserved": 0, "lon": -77.0226045}, {"type": "electric_scooter", "name": "4d429d34dae9c1d847bdfa1a6cd5f10d", "rental_uris": {"ios": "https://dc.lft.to/lastmile_qr_scan", "android": "https://dc.lft.to/lastmile_qr_scan"}, "fusion_lon": 0.0, "lat": 38.909645833333336, "is_disabled": 0, "bike_id": "4d429d34dae9c1d847bdfa1a6cd5f10d", "fusion_lat": 0.0, "is_reserved": 0, "lon": -77.03813}, {"type": "electric_scooter", "name": "63219f58f3685b6910906b0404d086ec", "rental_uris": {"ios": "https://dc.lft.to/lastmile_qr_scan", "android": "https://dc.lft.to/lastmile_qr_scan"}, "fusion_lon": 0.0, "lat": 38.90366733333333, "is_disabled": 0, "bike_id": "63219f58f3685b6910906b0404d086ec", "fusion_lat": 0.0, "is_reserved": 0, "lon": -77.00343583333333}, {"type": "electric_scooter", "name": "6fc59e1030eae7b56e61578d197c5cb2", "rental_uris": {"ios": "https://dc.lft.to/lastmile_qr_scan", "android": "https://dc.lft.to/lastmile_qr_scan"}, "fusion_lon": 0.0, "lat": 38.8940365, "is_disabled": 0, "bike_id": "6fc59e1030eae7b56e61578d197c5cb2", "fusion_lat": 0.0, "is_reserved": 0, "lon": -76.99159466666667}, {"type": "electric_scooter", "name": "242cff2e53ad928389e44a91a78139a3", "rental_uris": {"ios": "https://dc.lft.to/lastmile_qr_scan", "android": "https://dc.lft.to/lastmile_qr_scan"}, "fusion_lon": 0.0, "lat": 38.9148155, "is_disabled": 0, "bike_id": "242cff2e53ad928389e44a91a78139a3", "fusion_lat": 0.0, "is_reserved": 0, "lon": -77.00879916666666}, {"type": "electric_scooter", "name": "cc5d5fb6a24677d0617f0217cbfb7172", "rental_uris": {"ios": "https://dc.lft.to/lastmile_qr_scan", "android": "https://dc.lft.to/lastmile_qr_scan"}, "fusion_lon": 0.0, "lat": 38.88729633333333, "is_disabled": 0, "bike_id": "cc5d5fb6a24677d0617f0217cbfb7172", "fusion_lat": 0.0, "is_reserved": 0, "lon": -76.9949535}, {"type": "electric_scooter", "name": "28047f6204064bef875ad202deebc129", "rental_uris": {"ios": "https://dc.lft.to/lastmile_qr_scan", "android": "https://dc.lft.to/lastmile_qr_scan"}, "fusion_lon": 0.0, "lat": 38.907204666666665, "is_disabled": 0, "bike_id": "28047f6204064bef875ad202deebc129", "fusion_lat": 0.0, "is_reserved": 0, "lon": -77.02895483333333}, {"type": "electric_bike", "name": "c41e5818c52f777f797c552f8bd688c5", "rental_uris": {"ios": "https://dc.lft.to/lastmile_qr_scan", "android": "https://dc.lft.to/lastmile_qr_scan"}, "fusion_lon": 0.0, "lat": 38.952398, "is_disabled": 0, "bike_id": "c41e5818c52f777f797c552f8bd688c5", "fusion_lat": 0.0, "is_reserved": 0, "lon": -77.002706}, {"type": "electric_scooter", "name": "2132d8a2f9fe1ee10c85ba67d7712fae", "rental_uris": {"ios": "https://dc.lft.to/lastmile_qr_scan", "android": "https://dc.lft.to/lastmile_qr_scan"}, "fusion_lon": 0.0, "lat": 38.935383, "is_disabled": 0, "bike_id": "2132d8a2f9fe1ee10c85ba67d7712fae", "fusion_lat": 0.0, "is_reserved": 0, "lon": -77.05822683333334}, {"type": "electric_scooter", "name": "85fb8cf2451e350c01c901e0dcc83cc7", "rental_uris": {"ios": "https://dc.lft.to/lastmile_qr_scan", "android": "https://dc.lft.to/lastmile_qr_scan"}, "fusion_lon": 0.0, "lat": 38.93106566666667, "is_disabled": 0, "bike_id": "85fb8cf2451e350c01c901e0dcc83cc7", "fusion_lat": 0.0, "is_reserved": 0, "lon": -77.024158}, {"type": "electric_scooter", "name": "45fe14b03b66494713134405d8829aef", "rental_uris": {"ios": "https://dc.lft.to/lastmile_qr_scan", "android": "https://dc.lft.to/lastmile_qr_scan"}, "fusion_lon": 0.0, "lat": 38.906952833333335, "is_disabled": 0, "bike_id": "45fe14b03b66494713134405d8829aef", "fusion_lat": 0.0, "is_reserved": 0, "lon": -77.05723116666667}, {"type": "electric_scooter", "name": "9fda4160d51151bd450ded14346d8935", "rental_uris": {"ios": "https://dc.lft.to/lastmile_qr_scan", "android": "https://dc.lft.to/lastmile_qr_scan"}, "fusion_lon": 0.0, "lat": 38.93490283333333, "is_disabled": 0, "bike_id": "9fda4160d51151bd450ded14346d8935", "fusion_lat": 0.0, "is_reserved": 0, "lon": -77.045333}, {"type": "electric_bike", "name": "90cdc2185b2bb6a55f07ff21536b1c9b", "rental_uris": {"ios": "https://dc.lft.to/lastmile_qr_scan", "android": "https://dc.lft.to/lastmile_qr_scan"}, "fusion_lon": 0.0, "lat": 39.084444833333336, "is_disabled": 0, "bike_id": "90cdc2185b2bb6a55f07ff21536b1c9b", "fusion_lat": 0.0, "is_reserved": 0, "lon": -76.95179}, {"type": "electric_scooter", "name": "30a63578023159067a4f5ab281623f6f", "rental_uris": {"ios": "https://dc.lft.to/lastmile_qr_scan", "android": "https://dc.lft.to/lastmile_qr_scan"}, "fusion_lon": 0.0, "lat": 38.892448333333334, "is_disabled": 0, "bike_id": "30a63578023159067a4f5ab281623f6f", "fusion_lat": 0.0, "is_reserved": 0, "lon": -77.03960083333334}, {"type": "electric_scooter", "name": "8ec5bb75dc2d2d59f78eb4ce8214450a", "rental_uris": {"ios": "https://dc.lft.to/lastmile_qr_scan", "android": "https://dc.lft.to/lastmile_qr_scan"}, "fusion_lon": 0.0, "lat": 38.89871316666667, "is_disabled": 0, "bike_id": "8ec5bb75dc2d2d59f78eb4ce8214450a", "fusion_lat": 0.0, "is_reserved": 0, "lon": -76.93185683333333}, {"type": "electric_scooter", "name": "355f24b18b8c23d39f8e6c68823215b1", "rental_uris": {"ios": "https://dc.lft.to/lastmile_qr_scan", "android": "https://dc.lft.to/lastmile_qr_scan"}, "fusion_lon": 0.0, "lat": 38.92273866666667, "is_disabled": 0, "bike_id": "355f24b18b8c23d39f8e6c68823215b1", "fusion_lat": 0.0, "is_reserved": 0, "lon": -77.042387}, {"type": "electric_scooter", "name": "463d8708ad91582149c287ff7ba33866", "rental_uris": {"ios": "https://dc.lft.to/lastmile_qr_scan", "android": "https://dc.lft.to/lastmile_qr_scan"}, "fusion_lon": 0.0, "lat": 38.9188535, "is_disabled": 0, "bike_id": "463d8708ad91582149c287ff7ba33866", "fusion_lat": 0.0, "is_reserved": 0, "lon": -77.04175466666666}, {"type": "electric_scooter", "name": "6fc2fdfad1dcec500c69e92fb8277b96", "rental_uris": {"ios": "https://dc.lft.to/lastmile_qr_scan", "android": "https://dc.lft.to/lastmile_qr_scan"}, "fusion_lon": 0.0, "lat": 38.9001305, "is_disabled": 0, "bike_id": "6fc2fdfad1dcec500c69e92fb8277b96", "fusion_lat": 0.0, "is_reserved": 0, "lon": -76.98790316666667}, {"type": "electric_scooter", "name": "2634a204800f0d1a1c5944d82b7ba53c", "rental_uris": {"ios": "https://dc.lft.to/lastmile_qr_scan", "android": "https://dc.lft.to/lastmile_qr_scan"}, "fusion_lon": 0.0, "lat": 38.92045816666667, "is_disabled": 0, "bike_id": "2634a204800f0d1a1c5944d82b7ba53c", "fusion_lat": 0.0, "is_reserved": 0, "lon": -77.03386866666666}, {"type": "electric_scooter", "name": "1a253bc8fce4ff5f8685e68611e2ac5c", "rental_uris": {"ios": "https://dc.lft.to/lastmile_qr_scan", "android": "https://dc.lft.to/lastmile_qr_scan"}, "fusion_lon": 0.0, "lat": 38.83142333333333, "is_disabled": 0, "bike_id": "1a253bc8fce4ff5f8685e68611e2ac5c", "fusion_lat": 0.0, "is_reserved": 0, "lon": -77.00847233333333}, {"type": "electric_scooter", "name": "9bcc81481029c91a833f90a466e041ac", "rental_uris": {"ios": "https://dc.lft.to/lastmile_qr_scan", "android": "https://dc.lft.to/lastmile_qr_scan"}, "fusion_lon": 0.0, "lat": 38.929752, "is_disabled": 0, "bike_id": "9bcc81481029c91a833f90a466e041ac", "fusion_lat": 0.0, "is_reserved": 0, "lon": -77.03185366666666}, {"type": "electric_scooter", "name": "1b594fe5f9a0a8eed1ccac6d3ad4b5bd", "rental_uris": {"ios": "https://dc.lft.to/lastmile_qr_scan", "android": "https://dc.lft.to/lastmile_qr_scan"}, "fusion_lon": 0.0, "lat": 38.9265965, "is_disabled": 0, "bike_id": "1b594fe5f9a0a8eed1ccac6d3ad4b5bd", "fusion_lat": 0.0, "is_reserved": 0, "lon": -77.04295466666666}, {"type": "electric_scooter", "name": "46027a9217141a045a183cfdf6b99a1f", "rental_uris": {"ios": "https://dc.lft.to/lastmile_qr_scan", "android": "https://dc.lft.to/lastmile_qr_scan"}, "fusion_lon": 0.0, "lat": 38.881386166666665, "is_disabled": 0, "bike_id": "46027a9217141a045a183cfdf6b99a1f", "fusion_lat": 0.0, "is_reserved": 0, "lon": -77.02711433333333}, {"type": "electric_scooter", "name": "8893bb8fba687f2c74f852d900b11de0", "rental_uris": {"ios": "https://dc.lft.to/lastmile_qr_scan", "android": "https://dc.lft.to/lastmile_qr_scan"}, "fusion_lon": 0.0, "lat": 38.8554725, "is_disabled": 0, "bike_id": "8893bb8fba687f2c74f852d900b11de0", "fusion_lat": 0.0, "is_reserved": 0, "lon": -76.971797}, {"type": "electric_scooter", "name": "2a54f3ec7b07456486d9cab311502beb", "rental_uris": {"ios": "https://dc.lft.to/lastmile_qr_scan", "android": "https://dc.lft.to/lastmile_qr_scan"}, "fusion_lon": 0.0, "lat": 38.898747666666665, "is_disabled": 0, "bike_id": "2a54f3ec7b07456486d9cab311502beb", "fusion_lat": 0.0, "is_reserved": 0, "lon": -77.02030266666667}, {"type": "electric_scooter", "name": "9af4bcc1a54a2c2bae1d8557d4a83fb1", "rental_uris": {"ios": "https://dc.lft.to/lastmile_qr_scan", "android": "https://dc.lft.to/lastmile_qr_scan"}, "fusion_lon": 0.0, "lat": 38.90715816666667, "is_disabled": 0, "bike_id": "9af4bcc1a54a2c2bae1d8557d4a83fb1", "fusion_lat": 0.0, "is_reserved": 0, "lon": -77.03447266666667}, {"type": "electric_scooter", "name": "41851313d4a1b213d26113d28cd20a2c", "rental_uris": {"ios": "https://dc.lft.to/lastmile_qr_scan", "android": "https://dc.lft.to/lastmile_qr_scan"}, "fusion_lon": 0.0, "lat": 38.913858, "is_disabled": 0, "bike_id": "41851313d4a1b213d26113d28cd20a2c", "fusion_lat": 0.0, "is_reserved": 0, "lon": -77.03212616666667}, {"type": "electric_scooter", "name": "d0f574e167591c35bc9e297c0d11920c", "rental_uris": {"ios": "https://dc.lft.to/lastmile_qr_scan", "android": "https://dc.lft.to/lastmile_qr_scan"}, "fusion_lon": 0.0, "lat": 38.909796166666666, "is_disabled": 0, "bike_id": "d0f574e167591c35bc9e297c0d11920c", "fusion_lat": 0.0, "is_reserved": 0, "lon": -77.03443433333334}, {"type": "electric_scooter", "name": "946e589275138f941661e7e68029bff0", "rental_uris": {"ios": "https://dc.lft.to/lastmile_qr_scan", "android": "https://dc.lft.to/lastmile_qr_scan"}, "fusion_lon": 0.0, "lat": 38.92124183333333, "is_disabled": 0, "bike_id": "946e589275138f941661e7e68029bff0", "fusion_lat": 0.0, "is_reserved": 0, "lon": -77.03657633333333}, {"type": "electric_scooter", "name": "42eddaaf4f46f3af925743da83adac8d", "rental_uris": {"ios": "https://dc.lft.to/lastmile_qr_scan", "android": "https://dc.lft.to/lastmile_qr_scan"}, "fusion_lon": 0.0, "lat": 38.9014215, "is_disabled": 0, "bike_id": "42eddaaf4f46f3af925743da83adac8d", "fusion_lat": 0.0, "is_reserved": 0, "lon": -77.04632166666667}, {"type": "electric_scooter", "name": "6be1f75bf981412cfc70e9e0495e7e23", "rental_uris": {"ios": "https://dc.lft.to/lastmile_qr_scan", "android": "https://dc.lft.to/lastmile_qr_scan"}, "fusion_lon": 0.0, "lat": 38.892377, "is_disabled": 0, "bike_id": "6be1f75bf981412cfc70e9e0495e7e23", "fusion_lat": 0.0, "is_reserved": 0, "lon": -77.04879833333334}, {"type": "electric_scooter", "name": "19fe004ff657cbe1138a1279344e5072", "rental_uris": {"ios": "https://dc.lft.to/lastmile_qr_scan", "android": "https://dc.lft.to/lastmile_qr_scan"}, "fusion_lon": 0.0, "lat": 38.93062616666667, "is_disabled": 0, "bike_id": "19fe004ff657cbe1138a1279344e5072", "fusion_lat": 0.0, "is_reserved": 0, "lon": -77.02841983333333}, {"type": "electric_scooter", "name": "3f3e3265f62b4a26c3c2c4212b954b79", "rental_uris": {"ios": "https://dc.lft.to/lastmile_qr_scan", "android": "https://dc.lft.to/lastmile_qr_scan"}, "fusion_lon": 0.0, "lat": 38.917222, "is_disabled": 0, "bike_id": "3f3e3265f62b4a26c3c2c4212b954b79", "fusion_lat": 0.0, "is_reserved": 0, "lon": -77.01203266666667}, {"type": "electric_scooter", "name": "f924525d97d9ed06eccdaf0502b35ada", "rental_uris": {"ios": "https://dc.lft.to/lastmile_qr_scan", "android": "https://dc.lft.to/lastmile_qr_scan"}, "fusion_lon": 0.0, "lat": 38.91715683333334, "is_disabled": 0, "bike_id": "f924525d97d9ed06eccdaf0502b35ada", "fusion_lat": 0.0, "is_reserved": 0, "lon": -77.0366335}, {"type": "electric_scooter", "name": "8805567908fdd2dd19b07fbf8cca71fb", "rental_uris": {"ios": "https://dc.lft.to/lastmile_qr_scan", "android": "https://dc.lft.to/lastmile_qr_scan"}, "fusion_lon": 0.0, "lat": 38.90820333333333, "is_disabled": 0, "bike_id": "8805567908fdd2dd19b07fbf8cca71fb", "fusion_lat": 0.0, "is_reserved": 0, "lon": -77.0549595}, {"type": "electric_scooter", "name": "1126d620933d76146fa2c82108f4c4f4", "rental_uris": {"ios": "https://dc.lft.to/lastmile_qr_scan", "android": "https://dc.lft.to/lastmile_qr_scan"}, "fusion_lon": 0.0, "lat": 38.8949865, "is_disabled": 0, "bike_id": "1126d620933d76146fa2c82108f4c4f4", "fusion_lat": 0.0, "is_reserved": 0, "lon": -77.015057}, {"type": "electric_scooter", "name": "29aeb5bde10dc9585600c75319515f37", "rental_uris": {"ios": "https://dc.lft.to/lastmile_qr_scan", "android": "https://dc.lft.to/lastmile_qr_scan"}, "fusion_lon": 0.0, "lat": 38.931776, "is_disabled": 0, "bike_id": "29aeb5bde10dc9585600c75319515f37", "fusion_lat": 0.0, "is_reserved": 0, "lon": -77.04300783333333}, {"type": "electric_scooter", "name": "83c7ab6ee7847bf449f72cd9612dea21", "rental_uris": {"ios": "https://dc.lft.to/lastmile_qr_scan", "android": "https://dc.lft.to/lastmile_qr_scan"}, "fusion_lon": 0.0, "lat": 38.938768, "is_disabled": 0, "bike_id": "83c7ab6ee7847bf449f72cd9612dea21", "fusion_lat": 0.0, "is_reserved": 0, "lon": -77.02468016666667}, {"type": "electric_scooter", "name": "0d4f6253099dc4e7d8e38b7e431856bc", "rental_uris": {"ios": "https://dc.lft.to/lastmile_qr_scan", "android": "https://dc.lft.to/lastmile_qr_scan"}, "fusion_lon": 0.0, "lat": 38.9374165, "is_disabled": 0, "bike_id": "0d4f6253099dc4e7d8e38b7e431856bc", "fusion_lat": 0.0, "is_reserved": 0, "lon": -77.0362125}, {"type": "electric_scooter", "name": "e59e7da46fc62102b5c3fd353d6a2a34", "rental_uris": {"ios": "https://dc.lft.to/lastmile_qr_scan", "android": "https://dc.lft.to/lastmile_qr_scan"}, "fusion_lon": 0.0, "lat": 38.884606166666664, "is_disabled": 0, "bike_id": "e59e7da46fc62102b5c3fd353d6a2a34", "fusion_lat": 0.0, "is_reserved": 0, "lon": -76.99832033333334}, {"type": "electric_scooter", "name": "9f520ce52632682f3a37b18e9674fe40", "rental_uris": {"ios": "https://dc.lft.to/lastmile_qr_scan", "android": "https://dc.lft.to/lastmile_qr_scan"}, "fusion_lon": 0.0, "lat": 38.92121983333333, "is_disabled": 0, "bike_id": "9f520ce52632682f3a37b18e9674fe40", "fusion_lat": 0.0, "is_reserved": 0, "lon": -77.036616}, {"type": "electric_scooter", "name": "364f2d6dd74bb5bea84cb0acf10076a3", "rental_uris": {"ios": "https://dc.lft.to/lastmile_qr_scan", "android": "https://dc.lft.to/lastmile_qr_scan"}, "fusion_lon": 0.0, "lat": 38.91834516666667, "is_disabled": 0, "bike_id": "364f2d6dd74bb5bea84cb0acf10076a3", "fusion_lat": 0.0, "is_reserved": 0, "lon": -77.0451965}, {"type": "electric_scooter", "name": "c0c07910e38c0c354bf56949d3e3f7a4", "rental_uris": {"ios": "https://dc.lft.to/lastmile_qr_scan", "android": "https://dc.lft.to/lastmile_qr_scan"}, "fusion_lon": 0.0, "lat": 38.939897, "is_disabled": 0, "bike_id": "c0c07910e38c0c354bf56949d3e3f7a4", "fusion_lat": 0.0, "is_reserved": 0, "lon": -77.01891683333334}, {"type": "electric_bike", "name": "02a97b2d237e69e7589402386b46fa59", "rental_uris": {"ios": "https://dc.lft.to/lastmile_qr_scan", "android": "https://dc.lft.to/lastmile_qr_scan"}, "fusion_lon": 0.0, "lat": 38.92565183333333, "is_disabled": 0, "bike_id": "02a97b2d237e69e7589402386b46fa59", "fusion_lat": 0.0, "is_reserved": 0, "lon": -77.04376783333333}, {"type": "electric_scooter", "name": "09beb29d072b8003358ce050987c4062", "rental_uris": {"ios": "https://dc.lft.to/lastmile_qr_scan", "android": "https://dc.lft.to/lastmile_qr_scan"}, "fusion_lon": 0.0, "lat": 38.928749833333335, "is_disabled": 0, "bike_id": "09beb29d072b8003358ce050987c4062", "fusion_lat": 0.0, "is_reserved": 0, "lon": -77.03355766666667}, {"type": "electric_scooter", "name": "af441870f8a46643b12931a9079c2791", "rental_uris": {"ios": "https://dc.lft.to/lastmile_qr_scan", "android": "https://dc.lft.to/lastmile_qr_scan"}, "fusion_lon": 0.0, "lat": 38.892296, "is_disabled": 0, "bike_id": "af441870f8a46643b12931a9079c2791", "fusion_lat": 0.0, "is_reserved": 0, "lon": -77.05000316666667}, {"type": "electric_scooter", "name": "9269781bf042ca4b35bc5e4b6c833aba", "rental_uris": {"ios": "https://dc.lft.to/lastmile_qr_scan", "android": "https://dc.lft.to/lastmile_qr_scan"}, "fusion_lon": 0.0, "lat": 38.90238383333333, "is_disabled": 0, "bike_id": "9269781bf042ca4b35bc5e4b6c833aba", "fusion_lat": 0.0, "is_reserved": 0, "lon": -77.039681}, {"type": "electric_scooter", "name": "8d5db0c5ba8da37b4cb0f4071a984b53", "rental_uris": {"ios": "https://dc.lft.to/lastmile_qr_scan", "android": "https://dc.lft.to/lastmile_qr_scan"}, "fusion_lon": 0.0, "lat": 38.90141, "is_disabled": 0, "bike_id": "8d5db0c5ba8da37b4cb0f4071a984b53", "fusion_lat": 0.0, "is_reserved": 0, "lon": -77.0607615}, {"type": "electric_scooter", "name": "187aa1f4874d9818247cf851536fa90f", "rental_uris": {"ios": "https://dc.lft.to/lastmile_qr_scan", "android": "https://dc.lft.to/lastmile_qr_scan"}, "fusion_lon": 0.0, "lat": 38.90554366666667, "is_disabled": 0, "bike_id": "187aa1f4874d9818247cf851536fa90f", "fusion_lat": 0.0, "is_reserved": 0, "lon": -77.00389616666666}, {"type": "electric_scooter", "name": "5dc5734380558752682f154f5fa08ee4", "rental_uris": {"ios": "https://dc.lft.to/lastmile_qr_scan", "android": "https://dc.lft.to/lastmile_qr_scan"}, "fusion_lon": 0.0, "lat": 38.91448833333333, "is_disabled": 0, "bike_id": "5dc5734380558752682f154f5fa08ee4", "fusion_lat": 0.0, "is_reserved": 0, "lon": -77.046161}, {"type": "electric_scooter", "name": "443f57701b8d9316089a3aa377174aa1", "rental_uris": {"ios": "https://dc.lft.to/lastmile_qr_scan", "android": "https://dc.lft.to/lastmile_qr_scan"}, "fusion_lon": 0.0, "lat": 38.906678166666666, "is_disabled": 0, "bike_id": "443f57701b8d9316089a3aa377174aa1", "fusion_lat": 0.0, "is_reserved": 0, "lon": -77.0718865}, {"type": "electric_scooter", "name": "87717d97513fe6091810947f00e14400", "rental_uris": {"ios": "https://dc.lft.to/lastmile_qr_scan", "android": "https://dc.lft.to/lastmile_qr_scan"}, "fusion_lon": 0.0, "lat": 38.878054166666665, "is_disabled": 0, "bike_id": "87717d97513fe6091810947f00e14400", "fusion_lat": 0.0, "is_reserved": 0, "lon": -77.00123383333333}, {"type": "electric_scooter", "name": "4ee1d38001b7fa78709bd81ff64455d5", "rental_uris": {"ios": "https://dc.lft.to/lastmile_qr_scan", "android": "https://dc.lft.to/lastmile_qr_scan"}, "fusion_lon": 0.0, "lat": 38.908482, "is_disabled": 0, "bike_id": "4ee1d38001b7fa78709bd81ff64455d5", "fusion_lat": 0.0, "is_reserved": 0, "lon": -76.99801116666667}, {"type": "electric_bike", "name": "34ba02181376f739b0c51e16104c73df", "rental_uris": {"ios": "https://dc.lft.to/lastmile_qr_scan", "android": "https://dc.lft.to/lastmile_qr_scan"}, "fusion_lon": 0.0, "lat": 38.956344, "is_disabled": 0, "bike_id": "34ba02181376f739b0c51e16104c73df", "fusion_lat": 0.0, "is_reserved": 0, "lon": -77.02322516666666}, {"type": "electric_scooter", "name": "a61324a828acdde2e6b4bd9f947ea42b", "rental_uris": {"ios": "https://dc.lft.to/lastmile_qr_scan", "android": "https://dc.lft.to/lastmile_qr_scan"}, "fusion_lon": 0.0, "lat": 38.887458333333335, "is_disabled": 0, "bike_id": "a61324a828acdde2e6b4bd9f947ea42b", "fusion_lat": 0.0, "is_reserved": 0, "lon": -77.02121283333334}, {"type": "electric_scooter", "name": "4713aa481854f74f889b0484396b5d10", "rental_uris": {"ios": "https://dc.lft.to/lastmile_qr_scan", "android": "https://dc.lft.to/lastmile_qr_scan"}, "fusion_lon": 0.0, "lat": 38.91715416666667, "is_disabled": 0, "bike_id": "4713aa481854f74f889b0484396b5d10", "fusion_lat": 0.0, "is_reserved": 0, "lon": -77.00886966666667}, {"type": "electric_bike", "name": "892d3e9582d312b3ee9938c792893b1b", "rental_uris": {"ios": "https://dc.lft.to/lastmile_qr_scan", "android": "https://dc.lft.to/lastmile_qr_scan"}, "fusion_lon": 0.0, "lat": 38.884168333333335, "is_disabled": 0, "bike_id": "892d3e9582d312b3ee9938c792893b1b", "fusion_lat": 0.0, "is_reserved": 0, "lon": -76.9542105}, {"type": "electric_scooter", "name": "f8a8255441a48277ca90e6fdf1818598", "rental_uris": {"ios": "https://dc.lft.to/lastmile_qr_scan", "android": "https://dc.lft.to/lastmile_qr_scan"}, "fusion_lon": 0.0, "lat": 38.89248966666667, "is_disabled": 0, "bike_id": "f8a8255441a48277ca90e6fdf1818598", "fusion_lat": 0.0, "is_reserved": 0, "lon": -77.0395915}, {"type": "electric_scooter", "name": "5fb0faaa543e7c0dabda4b3e4cb4c6d4", "rental_uris": {"ios": "https://dc.lft.to/lastmile_qr_scan", "android": "https://dc.lft.to/lastmile_qr_scan"}, "fusion_lon": 0.0, "lat": 38.92336616666667, "is_disabled": 0, "bike_id": "5fb0faaa543e7c0dabda4b3e4cb4c6d4", "fusion_lat": 0.0, "is_reserved": 0, "lon": -77.05351}, {"type": "electric_scooter", "name": "ee9b6f336bd7d343213ab4ed9094553e", "rental_uris": {"ios": "https://dc.lft.to/lastmile_qr_scan", "android": "https://dc.lft.to/lastmile_qr_scan"}, "fusion_lon": 0.0, "lat": 38.91831783333333, "is_disabled": 0, "bike_id": "ee9b6f336bd7d343213ab4ed9094553e", "fusion_lat": 0.0, "is_reserved": 0, "lon": -77.04024333333334}, {"type": "electric_scooter", "name": "6a3ea18ddbf5a62e5b423a34b0b02e5a", "rental_uris": {"ios": "https://dc.lft.to/lastmile_qr_scan", "android": "https://dc.lft.to/lastmile_qr_scan"}, "fusion_lon": 0.0, "lat": 38.92632566666666, "is_disabled": 0, "bike_id": "6a3ea18ddbf5a62e5b423a34b0b02e5a", "fusion_lat": 0.0, "is_reserved": 0, "lon": -77.03535233333334}, {"type": "electric_bike", "name": "ed609b3be24954e3938e2b0744ecb5bd", "rental_uris": {"ios": "https://dc.lft.to/lastmile_qr_scan", "android": "https://dc.lft.to/lastmile_qr_scan"}, "fusion_lon": 0.0, "lat": 38.97233716666667, "is_disabled": 0, "bike_id": "ed609b3be24954e3938e2b0744ecb5bd", "fusion_lat": 0.0, "is_reserved": 0, "lon": -77.02712016666666}, {"type": "electric_bike", "name": "dcc726b11dc9c2d27557dcdee3911a83", "rental_uris": {"ios": "https://dc.lft.to/lastmile_qr_scan", "android": "https://dc.lft.to/lastmile_qr_scan"}, "fusion_lon": 0.0, "lat": 38.99448433333333, "is_disabled": 0, "bike_id": "dcc726b11dc9c2d27557dcdee3911a83", "fusion_lat": 0.0, "is_reserved": 0, "lon": -76.9959295}, {"type": "electric_scooter", "name": "265addea99f8b31b57f69e606d584dd7", "rental_uris": {"ios": "https://dc.lft.to/lastmile_qr_scan", "android": "https://dc.lft.to/lastmile_qr_scan"}, "fusion_lon": 0.0, "lat": 38.91784283333333, "is_disabled": 0, "bike_id": "265addea99f8b31b57f69e606d584dd7", "fusion_lat": 0.0, "is_reserved": 0, "lon": -77.02313}, {"type": "electric_scooter", "name": "28f96452e65e34c9524ae681d4bffe52", "rental_uris": {"ios": "https://dc.lft.to/lastmile_qr_scan", "android": "https://dc.lft.to/lastmile_qr_scan"}, "fusion_lon": 0.0, "lat": 38.914069, "is_disabled": 0, "bike_id": "28f96452e65e34c9524ae681d4bffe52", "fusion_lat": 0.0, "is_reserved": 0, "lon": -77.02454333333333}, {"type": "electric_scooter", "name": "216b2135b6d0742e320d7068d4b0d974", "rental_uris": {"ios": "https://dc.lft.to/lastmile_qr_scan", "android": "https://dc.lft.to/lastmile_qr_scan"}, "fusion_lon": 0.0, "lat": 38.922942, "is_disabled": 0, "bike_id": "216b2135b6d0742e320d7068d4b0d974", "fusion_lat": 0.0, "is_reserved": 0, "lon": -77.02973133333333}, {"type": "electric_scooter", "name": "138b08cdf5f8fc1d4f22571a1ce62975", "rental_uris": {"ios": "https://dc.lft.to/lastmile_qr_scan", "android": "https://dc.lft.to/lastmile_qr_scan"}, "fusion_lon": 0.0, "lat": 38.9023995, "is_disabled": 0, "bike_id": "138b08cdf5f8fc1d4f22571a1ce62975", "fusion_lat": 0.0, "is_reserved": 0, "lon": -77.04015866666667}, {"type": "electric_bike", "name": "474d20907270a3b6998f72ea5f1c9ba8", "rental_uris": {"ios": "https://dc.lft.to/lastmile_qr_scan", "android": "https://dc.lft.to/lastmile_qr_scan"}, "fusion_lon": 0.0, "lat": 38.940572833333334, "is_disabled": 0, "bike_id": "474d20907270a3b6998f72ea5f1c9ba8", "fusion_lat": 0.0, "is_reserved": 0, "lon": -76.90425933333333}, {"type": "electric_scooter", "name": "b1b3fc8ace2b6d8d179325281397fc55", "rental_uris": {"ios": "https://dc.lft.to/lastmile_qr_scan", "android": "https://dc.lft.to/lastmile_qr_scan"}, "fusion_lon": 0.0, "lat": 38.87999033333333, "is_disabled": 0, "bike_id": "b1b3fc8ace2b6d8d179325281397fc55", "fusion_lat": 0.0, "is_reserved": 0, "lon": -76.99505916666666}, {"type": "electric_scooter", "name": "7c160ed6df140de7dd91eb14883a9381", "rental_uris": {"ios": "https://dc.lft.to/lastmile_qr_scan", "android": "https://dc.lft.to/lastmile_qr_scan"}, "fusion_lon": 0.0, "lat": 38.90062116666667, "is_disabled": 0, "bike_id": "7c160ed6df140de7dd91eb14883a9381", "fusion_lat": 0.0, "is_reserved": 0, "lon": -77.04928833333334}, {"type": "electric_scooter", "name": "262946964bdcf05635211a65fcbe12eb", "rental_uris": {"ios": "https://dc.lft.to/lastmile_qr_scan", "android": "https://dc.lft.to/lastmile_qr_scan"}, "fusion_lon": 0.0, "lat": 38.887158, "is_disabled": 0, "bike_id": "262946964bdcf05635211a65fcbe12eb", "fusion_lat": 0.0, "is_reserved": 0, "lon": -76.98351}, {"type": "electric_scooter", "name": "fca1dd461f0f2a50a821fef4855d984d", "rental_uris": {"ios": "https://dc.lft.to/lastmile_qr_scan", "android": "https://dc.lft.to/lastmile_qr_scan"}, "fusion_lon": 0.0, "lat": 38.917115833333334, "is_disabled": 0, "bike_id": "fca1dd461f0f2a50a821fef4855d984d", "fusion_lat": 0.0, "is_reserved": 0, "lon": -77.02180383333334}, {"type": "electric_scooter", "name": "0664021e6ecb3606d011d03d092991b5", "rental_uris": {"ios": "https://dc.lft.to/lastmile_qr_scan", "android": "https://dc.lft.to/lastmile_qr_scan"}, "fusion_lon": 0.0, "lat": 38.926015, "is_disabled": 0, "bike_id": "0664021e6ecb3606d011d03d092991b5", "fusion_lat": 0.0, "is_reserved": 0, "lon": -77.0238695}, {"type": "electric_scooter", "name": "ec661ed7e38260f40ef80893e3eb1276", "rental_uris": {"ios": "https://dc.lft.to/lastmile_qr_scan", "android": "https://dc.lft.to/lastmile_qr_scan"}, "fusion_lon": 0.0, "lat": 38.937006, "is_disabled": 0, "bike_id": "ec661ed7e38260f40ef80893e3eb1276", "fusion_lat": 0.0, "is_reserved": 0, "lon": -77.055996}, {"type": "electric_bike", "name": "4096a7f513c18274c2bb3f90f70c7b5f", "rental_uris": {"ios": "https://dc.lft.to/lastmile_qr_scan", "android": "https://dc.lft.to/lastmile_qr_scan"}, "fusion_lon": 0.0, "lat": 38.97880283333333, "is_disabled": 0, "bike_id": "4096a7f513c18274c2bb3f90f70c7b5f", "fusion_lat": 0.0, "is_reserved": 0, "lon": -77.0603075}, {"type": "electric_scooter", "name": "d5c65c82614d179d44506f510c5c377e", "rental_uris": {"ios": "https://dc.lft.to/lastmile_qr_scan", "android": "https://dc.lft.to/lastmile_qr_scan"}, "fusion_lon": 0.0, "lat": 38.917563, "is_disabled": 0, "bike_id": "d5c65c82614d179d44506f510c5c377e", "fusion_lat": 0.0, "is_reserved": 0, "lon": -77.01212633333333}, {"type": "electric_scooter", "name": "d72b99e3bec253cec3364b28230c0848", "rental_uris": {"ios": "https://dc.lft.to/lastmile_qr_scan", "android": "https://dc.lft.to/lastmile_qr_scan"}, "fusion_lon": 0.0, "lat": 38.909487666666664, "is_disabled": 0, "bike_id": "d72b99e3bec253cec3364b28230c0848", "fusion_lat": 0.0, "is_reserved": 0, "lon": -77.03315683333334}, {"type": "electric_scooter", "name": "d4f9a7196104d170c4fec5dd0a16f5a2", "rental_uris": {"ios": "https://dc.lft.to/lastmile_qr_scan", "android": "https://dc.lft.to/lastmile_qr_scan"}, "fusion_lon": 0.0, "lat": 38.917086, "is_disabled": 0, "bike_id": "d4f9a7196104d170c4fec5dd0a16f5a2", "fusion_lat": 0.0, "is_reserved": 0, "lon": -77.03875516666666}, {"type": "electric_scooter", "name": "15d225447534a6c32e2a30ba67ac3f49", "rental_uris": {"ios": "https://dc.lft.to/lastmile_qr_scan", "android": "https://dc.lft.to/lastmile_qr_scan"}, "fusion_lon": 0.0, "lat": 38.89222016666667, "is_disabled": 0, "bike_id": "15d225447534a6c32e2a30ba67ac3f49", "fusion_lat": 0.0, "is_reserved": 0, "lon": -77.04769916666666}, {"type": "electric_scooter", "name": "494d4397050562d486ed22f19da172e2", "rental_uris": {"ios": "https://dc.lft.to/lastmile_qr_scan", "android": "https://dc.lft.to/lastmile_qr_scan"}, "fusion_lon": 0.0, "lat": 38.88607666666667, "is_disabled": 0, "bike_id": "494d4397050562d486ed22f19da172e2", "fusion_lat": 0.0, "is_reserved": 0, "lon": -77.03217966666666}, {"type": "electric_scooter", "name": "39fc44df8e3db514a6d949bc04463acb", "rental_uris": {"ios": "https://dc.lft.to/lastmile_qr_scan", "android": "https://dc.lft.to/lastmile_qr_scan"}, "fusion_lon": 0.0, "lat": 38.907232, "is_disabled": 0, "bike_id": "39fc44df8e3db514a6d949bc04463acb", "fusion_lat": 0.0, "is_reserved": 0, "lon": -77.0298785}, {"type": "electric_bike", "name": "0624b6d227cf91eecec66fda360be2a0", "rental_uris": {"ios": "https://dc.lft.to/lastmile_qr_scan", "android": "https://dc.lft.to/lastmile_qr_scan"}, "fusion_lon": 0.0, "lat": 38.9549075, "is_disabled": 0, "bike_id": "0624b6d227cf91eecec66fda360be2a0", "fusion_lat": 0.0, "is_reserved": 0, "lon": -77.02665566666667}, {"type": "electric_scooter", "name": "60115a5396c3fbb50eaef054c97b76d5", "rental_uris": {"ios": "https://dc.lft.to/lastmile_qr_scan", "android": "https://dc.lft.to/lastmile_qr_scan"}, "fusion_lon": 0.0, "lat": 38.8873175, "is_disabled": 0, "bike_id": "60115a5396c3fbb50eaef054c97b76d5", "fusion_lat": 0.0, "is_reserved": 0, "lon": -77.0258385}, {"type": "electric_scooter", "name": "470bb07ec289e8e82cc509a8ab8cf840", "rental_uris": {"ios": "https://dc.lft.to/lastmile_qr_scan", "android": "https://dc.lft.to/lastmile_qr_scan"}, "fusion_lon": 0.0, "lat": 38.918377166666666, "is_disabled": 0, "bike_id": "470bb07ec289e8e82cc509a8ab8cf840", "fusion_lat": 0.0, "is_reserved": 0, "lon": -77.02333483333334}, {"type": "electric_scooter", "name": "f198414a5bca551bdf2743f055640ca1", "rental_uris": {"ios": "https://dc.lft.to/lastmile_qr_scan", "android": "https://dc.lft.to/lastmile_qr_scan"}, "fusion_lon": 0.0, "lat": 38.915640333333336, "is_disabled": 0, "bike_id": "f198414a5bca551bdf2743f055640ca1", "fusion_lat": 0.0, "is_reserved": 0, "lon": -77.021297}, {"type": "electric_scooter", "name": "36ee47d632ccc2878a1540ff83fd4edb", "rental_uris": {"ios": "https://dc.lft.to/lastmile_qr_scan", "android": "https://dc.lft.to/lastmile_qr_scan"}, "fusion_lon": 0.0, "lat": 38.92463266666667, "is_disabled": 0, "bike_id": "36ee47d632ccc2878a1540ff83fd4edb", "fusion_lat": 0.0, "is_reserved": 0, "lon": -77.0524335}, {"type": "electric_scooter", "name": "145391c2dfb1704c4df528f8b633e883", "rental_uris": {"ios": "https://dc.lft.to/lastmile_qr_scan", "android": "https://dc.lft.to/lastmile_qr_scan"}, "fusion_lon": 0.0, "lat": 38.923824333333336, "is_disabled": 0, "bike_id": "145391c2dfb1704c4df528f8b633e883", "fusion_lat": 0.0, "is_reserved": 0, "lon": -77.0198035}, {"type": "electric_scooter", "name": "1eec2f8160f871dd3a203fa0251f6692", "rental_uris": {"ios": "https://dc.lft.to/lastmile_qr_scan", "android": "https://dc.lft.to/lastmile_qr_scan"}, "fusion_lon": 0.0, "lat": 38.897381833333334, "is_disabled": 0, "bike_id": "1eec2f8160f871dd3a203fa0251f6692", "fusion_lat": 0.0, "is_reserved": 0, "lon": -77.032477}, {"type": "electric_scooter", "name": "44cd68d333d9e430402bf3af9e69723f", "rental_uris": {"ios": "https://dc.lft.to/lastmile_qr_scan", "android": "https://dc.lft.to/lastmile_qr_scan"}, "fusion_lon": 0.0, "lat": 38.90733016666667, "is_disabled": 0, "bike_id": "44cd68d333d9e430402bf3af9e69723f", "fusion_lat": 0.0, "is_reserved": 0, "lon": -76.9977615}, {"type": "electric_bike", "name": "ea12335c8fe68b2e5467ef6c987b5794", "rental_uris": {"ios": "https://dc.lft.to/lastmile_qr_scan", "android": "https://dc.lft.to/lastmile_qr_scan"}, "fusion_lon": 0.0, "lat": 38.8393525, "is_disabled": 0, "bike_id": "ea12335c8fe68b2e5467ef6c987b5794", "fusion_lat": 0.0, "is_reserved": 0, "lon": -77.07904916666666}, {"type": "electric_scooter", "name": "de2bf8b046d64b58b03a365fc816e902", "rental_uris": {"ios": "https://dc.lft.to/lastmile_qr_scan", "android": "https://dc.lft.to/lastmile_qr_scan"}, "fusion_lon": 0.0, "lat": 38.920485666666664, "is_disabled": 0, "bike_id": "de2bf8b046d64b58b03a365fc816e902", "fusion_lat": 0.0, "is_reserved": 0, "lon": -77.00208316666667}, {"type": "electric_scooter", "name": "ac608931aff89221701f8ca726a0bd86", "rental_uris": {"ios": "https://dc.lft.to/lastmile_qr_scan", "android": "https://dc.lft.to/lastmile_qr_scan"}, "fusion_lon": 0.0, "lat": 38.901941666666666, "is_disabled": 0, "bike_id": "ac608931aff89221701f8ca726a0bd86", "fusion_lat": 0.0, "is_reserved": 0, "lon": -76.9289885}, {"type": "electric_scooter", "name": "d0103a1684a0032c2d55c9bb76f5a466", "rental_uris": {"ios": "https://dc.lft.to/lastmile_qr_scan", "android": "https://dc.lft.to/lastmile_qr_scan"}, "fusion_lon": 0.0, "lat": 38.907202833333336, "is_disabled": 0, "bike_id": "d0103a1684a0032c2d55c9bb76f5a466", "fusion_lat": 0.0, "is_reserved": 0, "lon": -77.034479}, {"type": "electric_bike", "name": "0575814b2ea55761d4618939da63d1a6", "rental_uris": {"ios": "https://dc.lft.to/lastmile_qr_scan", "android": "https://dc.lft.to/lastmile_qr_scan"}, "fusion_lon": 0.0, "lat": 38.855154666666664, "is_disabled": 0, "bike_id": "0575814b2ea55761d4618939da63d1a6", "fusion_lat": 0.0, "is_reserved": 0, "lon": -77.10537866666667}, {"type": "electric_scooter", "name": "7e2f5750f6f1a23fd2f1fa9e8fe84fd8", "rental_uris": {"ios": "https://dc.lft.to/lastmile_qr_scan", "android": "https://dc.lft.to/lastmile_qr_scan"}, "fusion_lon": 0.0, "lat": 38.882702333333334, "is_disabled": 0, "bike_id": "7e2f5750f6f1a23fd2f1fa9e8fe84fd8", "fusion_lat": 0.0, "is_reserved": 0, "lon": -76.9948205}, {"type": "electric_scooter", "name": "38ed404e29c229108c2453517cce7501", "rental_uris": {"ios": "https://dc.lft.to/lastmile_qr_scan", "android": "https://dc.lft.to/lastmile_qr_scan"}, "fusion_lon": 0.0, "lat": 38.902389, "is_disabled": 0, "bike_id": "38ed404e29c229108c2453517cce7501", "fusion_lat": 0.0, "is_reserved": 0, "lon": -77.00201416666667}, {"type": "electric_scooter", "name": "e370930793e9b66eb884f6fe20ac0743", "rental_uris": {"ios": "https://dc.lft.to/lastmile_qr_scan", "android": "https://dc.lft.to/lastmile_qr_scan"}, "fusion_lon": 0.0, "lat": 38.891824666666665, "is_disabled": 0, "bike_id": "e370930793e9b66eb884f6fe20ac0743", "fusion_lat": 0.0, "is_reserved": 0, "lon": -76.999464}, {"type": "electric_scooter", "name": "f53cbc9ca87c8323cac0c94b250977d5", "rental_uris": {"ios": "https://dc.lft.to/lastmile_qr_scan", "android": "https://dc.lft.to/lastmile_qr_scan"}, "fusion_lon": 0.0, "lat": 38.932008333333336, "is_disabled": 0, "bike_id": "f53cbc9ca87c8323cac0c94b250977d5", "fusion_lat": 0.0, "is_reserved": 0, "lon": -77.036609}, {"type": "electric_scooter", "name": "cb72704827c5681300dd4a177e4361ca", "rental_uris": {"ios": "https://dc.lft.to/lastmile_qr_scan", "android": "https://dc.lft.to/lastmile_qr_scan"}, "fusion_lon": 0.0, "lat": 38.92821633333333, "is_disabled": 0, "bike_id": "cb72704827c5681300dd4a177e4361ca", "fusion_lat": 0.0, "is_reserved": 0, "lon": -77.05444983333334}, {"type": "electric_scooter", "name": "70b66b7b63d3bc9673f5a9c76ed42785", "rental_uris": {"ios": "https://dc.lft.to/lastmile_qr_scan", "android": "https://dc.lft.to/lastmile_qr_scan"}, "fusion_lon": 0.0, "lat": 38.892231833333334, "is_disabled": 0, "bike_id": "70b66b7b63d3bc9673f5a9c76ed42785", "fusion_lat": 0.0, "is_reserved": 0, "lon": -77.04806016666667}, {"type": "electric_scooter", "name": "c68af2f6de5bee02a3c0b893dd67d763", "rental_uris": {"ios": "https://dc.lft.to/lastmile_qr_scan", "android": "https://dc.lft.to/lastmile_qr_scan"}, "fusion_lon": 0.0, "lat": 38.910046666666666, "is_disabled": 0, "bike_id": "c68af2f6de5bee02a3c0b893dd67d763", "fusion_lat": 0.0, "is_reserved": 0, "lon": -77.02205666666667}, {"type": "electric_scooter", "name": "636421327515e16fa0e3a060fb83440f", "rental_uris": {"ios": "https://dc.lft.to/lastmile_qr_scan", "android": "https://dc.lft.to/lastmile_qr_scan"}, "fusion_lon": 0.0, "lat": 38.876097, "is_disabled": 0, "bike_id": "636421327515e16fa0e3a060fb83440f", "fusion_lat": 0.0, "is_reserved": 0, "lon": -76.9656535}, {"type": "electric_scooter", "name": "1bdd0ea4da1745b0b8e1d4262530f3e8", "rental_uris": {"ios": "https://dc.lft.to/lastmile_qr_scan", "android": "https://dc.lft.to/lastmile_qr_scan"}, "fusion_lon": 0.0, "lat": 38.903524166666664, "is_disabled": 0, "bike_id": "1bdd0ea4da1745b0b8e1d4262530f3e8", "fusion_lat": 0.0, "is_reserved": 0, "lon": -76.97476666666667}, {"type": "electric_scooter", "name": "7dcbd5620eff47eebaafd822e95932e9", "rental_uris": {"ios": "https://dc.lft.to/lastmile_qr_scan", "android": "https://dc.lft.to/lastmile_qr_scan"}, "fusion_lon": 0.0, "lat": 38.89888633333333, "is_disabled": 0, "bike_id": "7dcbd5620eff47eebaafd822e95932e9", "fusion_lat": 0.0, "is_reserved": 0, "lon": -77.0073815}, {"type": "electric_scooter", "name": "7f8e3e6906c0519fcafad980be72d6f7", "rental_uris": {"ios": "https://dc.lft.to/lastmile_qr_scan", "android": "https://dc.lft.to/lastmile_qr_scan"}, "fusion_lon": 0.0, "lat": 38.936777666666664, "is_disabled": 0, "bike_id": "7f8e3e6906c0519fcafad980be72d6f7", "fusion_lat": 0.0, "is_reserved": 0, "lon": -77.03592483333334}, {"type": "electric_scooter", "name": "4f72230a11947dd3434d98b7fe535357", "rental_uris": {"ios": "https://dc.lft.to/lastmile_qr_scan", "android": "https://dc.lft.to/lastmile_qr_scan"}, "fusion_lon": 0.0, "lat": 38.916515833333335, "is_disabled": 0, "bike_id": "4f72230a11947dd3434d98b7fe535357", "fusion_lat": 0.0, "is_reserved": 0, "lon": -77.0065485}, {"type": "electric_scooter", "name": "8e4a14932ea0ee01e4b53eadb3507067", "rental_uris": {"ios": "https://dc.lft.to/lastmile_qr_scan", "android": "https://dc.lft.to/lastmile_qr_scan"}, "fusion_lon": 0.0, "lat": 38.896697833333334, "is_disabled": 0, "bike_id": "8e4a14932ea0ee01e4b53eadb3507067", "fusion_lat": 0.0, "is_reserved": 0, "lon": -76.93208683333333}, {"type": "electric_scooter", "name": "76cd5a907c4d4ab8410344460b0e5075", "rental_uris": {"ios": "https://dc.lft.to/lastmile_qr_scan", "android": "https://dc.lft.to/lastmile_qr_scan"}, "fusion_lon": 0.0, "lat": 38.93017833333333, "is_disabled": 0, "bike_id": "76cd5a907c4d4ab8410344460b0e5075", "fusion_lat": 0.0, "is_reserved": 0, "lon": -77.03792316666667}, {"type": "electric_scooter", "name": "6d7568d808d42426ea6b34083b0c7182", "rental_uris": {"ios": "https://dc.lft.to/lastmile_qr_scan", "android": "https://dc.lft.to/lastmile_qr_scan"}, "fusion_lon": 0.0, "lat": 38.917810833333334, "is_disabled": 0, "bike_id": "6d7568d808d42426ea6b34083b0c7182", "fusion_lat": 0.0, "is_reserved": 0, "lon": -77.03209183333334}, {"type": "electric_scooter", "name": "031efff47a6cbd1156c4fea9eb7127b9", "rental_uris": {"ios": "https://dc.lft.to/lastmile_qr_scan", "android": "https://dc.lft.to/lastmile_qr_scan"}, "fusion_lon": 0.0, "lat": 38.896422666666666, "is_disabled": 0, "bike_id": "031efff47a6cbd1156c4fea9eb7127b9", "fusion_lat": 0.0, "is_reserved": 0, "lon": -77.04077116666667}, {"type": "electric_scooter", "name": "7c373f55c012d6f14eeeb0d026d14583", "rental_uris": {"ios": "https://dc.lft.to/lastmile_qr_scan", "android": "https://dc.lft.to/lastmile_qr_scan"}, "fusion_lon": 0.0, "lat": 38.917089833333335, "is_disabled": 0, "bike_id": "7c373f55c012d6f14eeeb0d026d14583", "fusion_lat": 0.0, "is_reserved": 0, "lon": -77.02584183333333}, {"type": "electric_scooter", "name": "c111a5c4da31e0612809eea5840489c5", "rental_uris": {"ios": "https://dc.lft.to/lastmile_qr_scan", "android": "https://dc.lft.to/lastmile_qr_scan"}, "fusion_lon": 0.0, "lat": 38.916282, "is_disabled": 0, "bike_id": "c111a5c4da31e0612809eea5840489c5", "fusion_lat": 0.0, "is_reserved": 0, "lon": -77.041247}, {"type": "electric_scooter", "name": "6df6fa5593d3444c6908c2c85cd61aa0", "rental_uris": {"ios": "https://dc.lft.to/lastmile_qr_scan", "android": "https://dc.lft.to/lastmile_qr_scan"}, "fusion_lon": 0.0, "lat": 38.883161, "is_disabled": 0, "bike_id": "6df6fa5593d3444c6908c2c85cd61aa0", "fusion_lat": 0.0, "is_reserved": 0, "lon": -77.01371616666667}, {"type": "electric_scooter", "name": "a81a3ab6f3e86b7d4f7a839bf4baecae", "rental_uris": {"ios": "https://dc.lft.to/lastmile_qr_scan", "android": "https://dc.lft.to/lastmile_qr_scan"}, "fusion_lon": 0.0, "lat": 38.930625, "is_disabled": 0, "bike_id": "a81a3ab6f3e86b7d4f7a839bf4baecae", "fusion_lat": 0.0, "is_reserved": 0, "lon": -77.01860716666667}, {"type": "electric_scooter", "name": "5eed4374a6ec9ff77976d2648bd652d4", "rental_uris": {"ios": "https://dc.lft.to/lastmile_qr_scan", "android": "https://dc.lft.to/lastmile_qr_scan"}, "fusion_lon": 0.0, "lat": 38.901425833333334, "is_disabled": 0, "bike_id": "5eed4374a6ec9ff77976d2648bd652d4", "fusion_lat": 0.0, "is_reserved": 0, "lon": -77.06076266666666}, {"type": "electric_scooter", "name": "15aff0a5237ef2f086452ea04f37514f", "rental_uris": {"ios": "https://dc.lft.to/lastmile_qr_scan", "android": "https://dc.lft.to/lastmile_qr_scan"}, "fusion_lon": 0.0, "lat": 38.92069766666667, "is_disabled": 0, "bike_id": "15aff0a5237ef2f086452ea04f37514f", "fusion_lat": 0.0, "is_reserved": 0, "lon": -77.0237095}, {"type": "electric_scooter", "name": "8d125ba8dd4238e8a4df0513d0f62a95", "rental_uris": {"ios": "https://dc.lft.to/lastmile_qr_scan", "android": "https://dc.lft.to/lastmile_qr_scan"}, "fusion_lon": 0.0, "lat": 38.88709583333333, "is_disabled": 0, "bike_id": "8d125ba8dd4238e8a4df0513d0f62a95", "fusion_lat": 0.0, "is_reserved": 0, "lon": -77.00249166666667}, {"type": "electric_scooter", "name": "be5cc0778adb9e7f1ec92463bd953678", "rental_uris": {"ios": "https://dc.lft.to/lastmile_qr_scan", "android": "https://dc.lft.to/lastmile_qr_scan"}, "fusion_lon": 0.0, "lat": 38.919176, "is_disabled": 0, "bike_id": "be5cc0778adb9e7f1ec92463bd953678", "fusion_lat": 0.0, "is_reserved": 0, "lon": -77.0262005}, {"type": "electric_bike", "name": "a92be96b27e0085b5138e8e2252dcd6e", "rental_uris": {"ios": "https://dc.lft.to/lastmile_qr_scan", "android": "https://dc.lft.to/lastmile_qr_scan"}, "fusion_lon": 0.0, "lat": 38.821778, "is_disabled": 0, "bike_id": "a92be96b27e0085b5138e8e2252dcd6e", "fusion_lat": 0.0, "is_reserved": 0, "lon": -76.9951585}, {"type": "electric_scooter", "name": "08ff4f7f953c0073f0c62c594c7d2dcf", "rental_uris": {"ios": "https://dc.lft.to/lastmile_qr_scan", "android": "https://dc.lft.to/lastmile_qr_scan"}, "fusion_lon": 0.0, "lat": 38.90283683333333, "is_disabled": 0, "bike_id": "08ff4f7f953c0073f0c62c594c7d2dcf", "fusion_lat": 0.0, "is_reserved": 0, "lon": -77.0445865}, {"type": "electric_bike", "name": "68de24a389f8302b993c8ee9c1b36507", "rental_uris": {"ios": "https://dc.lft.to/lastmile_qr_scan", "android": "https://dc.lft.to/lastmile_qr_scan"}, "fusion_lon": 0.0, "lat": 38.807564666666664, "is_disabled": 0, "bike_id": "68de24a389f8302b993c8ee9c1b36507", "fusion_lat": 0.0, "is_reserved": 0, "lon": -77.09455266666667}, {"type": "electric_scooter", "name": "8b840addb4f6efd76902fab54cb81e33", "rental_uris": {"ios": "https://dc.lft.to/lastmile_qr_scan", "android": "https://dc.lft.to/lastmile_qr_scan"}, "fusion_lon": 0.0, "lat": 38.866460000000004, "is_disabled": 0, "bike_id": "8b840addb4f6efd76902fab54cb81e33", "fusion_lat": 0.0, "is_reserved": 0, "lon": -76.98309583333334}, {"type": "electric_scooter", "name": "0a6540a7025bd9377a7031a92e8d2b27", "rental_uris": {"ios": "https://dc.lft.to/lastmile_qr_scan", "android": "https://dc.lft.to/lastmile_qr_scan"}, "fusion_lon": 0.0, "lat": 38.93877, "is_disabled": 0, "bike_id": "0a6540a7025bd9377a7031a92e8d2b27", "fusion_lat": 0.0, "is_reserved": 0, "lon": -77.0289105}, {"type": "electric_scooter", "name": "360d5b58a6881cd0083f064e9c92c3c9", "rental_uris": {"ios": "https://dc.lft.to/lastmile_qr_scan", "android": "https://dc.lft.to/lastmile_qr_scan"}, "fusion_lon": 0.0, "lat": 38.9102705, "is_disabled": 0, "bike_id": "360d5b58a6881cd0083f064e9c92c3c9", "fusion_lat": 0.0, "is_reserved": 0, "lon": -77.0076}, {"type": "electric_scooter", "name": "b9aecb532c3e54d5eae82f7966e91ca0", "rental_uris": {"ios": "https://dc.lft.to/lastmile_qr_scan", "android": "https://dc.lft.to/lastmile_qr_scan"}, "fusion_lon": 0.0, "lat": 38.89827483333333, "is_disabled": 0, "bike_id": "b9aecb532c3e54d5eae82f7966e91ca0", "fusion_lat": 0.0, "is_reserved": 0, "lon": -76.94628533333334}, {"type": "electric_scooter", "name": "9394dbb0c30035fc27c83fce5b203767", "rental_uris": {"ios": "https://dc.lft.to/lastmile_qr_scan", "android": "https://dc.lft.to/lastmile_qr_scan"}, "fusion_lon": 0.0, "lat": 38.92419983333333, "is_disabled": 0, "bike_id": "9394dbb0c30035fc27c83fce5b203767", "fusion_lat": 0.0, "is_reserved": 0, "lon": -77.02009633333333}, {"type": "electric_bike", "name": "dfbff27e03465c15e01a9bc23f1b00e8", "rental_uris": {"ios": "https://dc.lft.to/lastmile_qr_scan", "android": "https://dc.lft.to/lastmile_qr_scan"}, "fusion_lon": 0.0, "lat": 38.852476833333334, "is_disabled": 0, "bike_id": "dfbff27e03465c15e01a9bc23f1b00e8", "fusion_lat": 0.0, "is_reserved": 0, "lon": -77.10789833333334}, {"type": "electric_scooter", "name": "70dd88f34d26190360b98db048fe8796", "rental_uris": {"ios": "https://dc.lft.to/lastmile_qr_scan", "android": "https://dc.lft.to/lastmile_qr_scan"}, "fusion_lon": 0.0, "lat": 38.91842116666667, "is_disabled": 0, "bike_id": "70dd88f34d26190360b98db048fe8796", "fusion_lat": 0.0, "is_reserved": 0, "lon": -77.04826116666666}, {"type": "electric_scooter", "name": "2e4ef220277de180a21d750810c54735", "rental_uris": {"ios": "https://dc.lft.to/lastmile_qr_scan", "android": "https://dc.lft.to/lastmile_qr_scan"}, "fusion_lon": 0.0, "lat": 38.88316016666667, "is_disabled": 0, "bike_id": "2e4ef220277de180a21d750810c54735", "fusion_lat": 0.0, "is_reserved": 0, "lon": -77.017558}, {"type": "electric_scooter", "name": "736fbef1d8bc968523b68f070a373cbf", "rental_uris": {"ios": "https://dc.lft.to/lastmile_qr_scan", "android": "https://dc.lft.to/lastmile_qr_scan"}, "fusion_lon": 0.0, "lat": 38.90194833333334, "is_disabled": 0, "bike_id": "736fbef1d8bc968523b68f070a373cbf", "fusion_lat": 0.0, "is_reserved": 0, "lon": -77.01328333333333}, {"type": "electric_scooter", "name": "a9fde9887ebbf2053d67784c2a4c3ecb", "rental_uris": {"ios": "https://dc.lft.to/lastmile_qr_scan", "android": "https://dc.lft.to/lastmile_qr_scan"}, "fusion_lon": 0.0, "lat": 38.879202166666666, "is_disabled": 0, "bike_id": "a9fde9887ebbf2053d67784c2a4c3ecb", "fusion_lat": 0.0, "is_reserved": 0, "lon": -77.00382933333333}, {"type": "electric_scooter", "name": "f71cbb40629a3d47e3f64e41e29b5f21", "rental_uris": {"ios": "https://dc.lft.to/lastmile_qr_scan", "android": "https://dc.lft.to/lastmile_qr_scan"}, "fusion_lon": 0.0, "lat": 38.94600966666667, "is_disabled": 0, "bike_id": "f71cbb40629a3d47e3f64e41e29b5f21", "fusion_lat": 0.0, "is_reserved": 0, "lon": -77.02978466666667}, {"type": "electric_scooter", "name": "6bb3fd434c55c46ad5e6811820111eae", "rental_uris": {"ios": "https://dc.lft.to/lastmile_qr_scan", "android": "https://dc.lft.to/lastmile_qr_scan"}, "fusion_lon": 0.0, "lat": 38.887493666666664, "is_disabled": 0, "bike_id": "6bb3fd434c55c46ad5e6811820111eae", "fusion_lat": 0.0, "is_reserved": 0, "lon": -77.03162333333333}, {"type": "electric_scooter", "name": "4c9ee1a262265875c20fba135db34213", "rental_uris": {"ios": "https://dc.lft.to/lastmile_qr_scan", "android": "https://dc.lft.to/lastmile_qr_scan"}, "fusion_lon": 0.0, "lat": 38.91056716666667, "is_disabled": 0, "bike_id": "4c9ee1a262265875c20fba135db34213", "fusion_lat": 0.0, "is_reserved": 0, "lon": -77.021686}, {"type": "electric_scooter", "name": "eb8b3bad60097497760c0396a7e3ba27", "rental_uris": {"ios": "https://dc.lft.to/lastmile_qr_scan", "android": "https://dc.lft.to/lastmile_qr_scan"}, "fusion_lon": 0.0, "lat": 38.91707316666667, "is_disabled": 0, "bike_id": "eb8b3bad60097497760c0396a7e3ba27", "fusion_lat": 0.0, "is_reserved": 0, "lon": -77.04173716666666}, {"type": "electric_scooter", "name": "5d1aa062847bc9d0166949922f73b849", "rental_uris": {"ios": "https://dc.lft.to/lastmile_qr_scan", "android": "https://dc.lft.to/lastmile_qr_scan"}, "fusion_lon": 0.0, "lat": 38.900223, "is_disabled": 0, "bike_id": "5d1aa062847bc9d0166949922f73b849", "fusion_lat": 0.0, "is_reserved": 0, "lon": -76.98721}, {"type": "electric_scooter", "name": "79dc82404c90fb1a2215623124716b38", "rental_uris": {"ios": "https://dc.lft.to/lastmile_qr_scan", "android": "https://dc.lft.to/lastmile_qr_scan"}, "fusion_lon": 0.0, "lat": 38.916957, "is_disabled": 0, "bike_id": "79dc82404c90fb1a2215623124716b38", "fusion_lat": 0.0, "is_reserved": 0, "lon": -77.04110266666666}, {"type": "electric_scooter", "name": "99024f9e12bf849fede609e30643bdd2", "rental_uris": {"ios": "https://dc.lft.to/lastmile_qr_scan", "android": "https://dc.lft.to/lastmile_qr_scan"}, "fusion_lon": 0.0, "lat": 38.90542166666667, "is_disabled": 0, "bike_id": "99024f9e12bf849fede609e30643bdd2", "fusion_lat": 0.0, "is_reserved": 0, "lon": -77.04340333333333}, {"type": "electric_scooter", "name": "1fe7f850a7f6d63e3091abe75237b360", "rental_uris": {"ios": "https://dc.lft.to/lastmile_qr_scan", "android": "https://dc.lft.to/lastmile_qr_scan"}, "fusion_lon": 0.0, "lat": 38.9002265, "is_disabled": 0, "bike_id": "1fe7f850a7f6d63e3091abe75237b360", "fusion_lat": 0.0, "is_reserved": 0, "lon": -77.04034}, {"type": "electric_bike", "name": "bb65fbaf2d31b812b4efa949c079d6df", "rental_uris": {"ios": "https://dc.lft.to/lastmile_qr_scan", "android": "https://dc.lft.to/lastmile_qr_scan"}, "fusion_lon": 0.0, "lat": 38.8576575, "is_disabled": 0, "bike_id": "bb65fbaf2d31b812b4efa949c079d6df", "fusion_lat": 0.0, "is_reserved": 0, "lon": -76.98766716666667}, {"type": "electric_scooter", "name": "ea455631300419b4062a2712463ad3bd", "rental_uris": {"ios": "https://dc.lft.to/lastmile_qr_scan", "android": "https://dc.lft.to/lastmile_qr_scan"}, "fusion_lon": 0.0, "lat": 38.89225833333333, "is_disabled": 0, "bike_id": "ea455631300419b4062a2712463ad3bd", "fusion_lat": 0.0, "is_reserved": 0, "lon": -77.0419495}, {"type": "electric_scooter", "name": "080ce8b735964c102c69eb4101115514", "rental_uris": {"ios": "https://dc.lft.to/lastmile_qr_scan", "android": "https://dc.lft.to/lastmile_qr_scan"}, "fusion_lon": 0.0, "lat": 38.926611333333334, "is_disabled": 0, "bike_id": "080ce8b735964c102c69eb4101115514", "fusion_lat": 0.0, "is_reserved": 0, "lon": -77.0230585}, {"type": "electric_scooter", "name": "491b8e63ad8fcb9a7b64ddfa31e113bd", "rental_uris": {"ios": "https://dc.lft.to/lastmile_qr_scan", "android": "https://dc.lft.to/lastmile_qr_scan"}, "fusion_lon": 0.0, "lat": 38.92949133333333, "is_disabled": 0, "bike_id": "491b8e63ad8fcb9a7b64ddfa31e113bd", "fusion_lat": 0.0, "is_reserved": 0, "lon": -77.01892883333333}, {"type": "electric_scooter", "name": "4d1abebdb0d872d0031b0f9128b6bef5", "rental_uris": {"ios": "https://dc.lft.to/lastmile_qr_scan", "android": "https://dc.lft.to/lastmile_qr_scan"}, "fusion_lon": 0.0, "lat": 38.910470333333336, "is_disabled": 0, "bike_id": "4d1abebdb0d872d0031b0f9128b6bef5", "fusion_lat": 0.0, "is_reserved": 0, "lon": -77.01012633333333}, {"type": "electric_scooter", "name": "ccc9a715429f660f125b71a2400b78ed", "rental_uris": {"ios": "https://dc.lft.to/lastmile_qr_scan", "android": "https://dc.lft.to/lastmile_qr_scan"}, "fusion_lon": 0.0, "lat": 38.92464866666667, "is_disabled": 0, "bike_id": "ccc9a715429f660f125b71a2400b78ed", "fusion_lat": 0.0, "is_reserved": 0, "lon": -77.02209866666666}, {"type": "electric_scooter", "name": "c5aa8ae139387e541db27620ff3a23cf", "rental_uris": {"ios": "https://dc.lft.to/lastmile_qr_scan", "android": "https://dc.lft.to/lastmile_qr_scan"}, "fusion_lon": 0.0, "lat": 38.912443, "is_disabled": 0, "bike_id": "c5aa8ae139387e541db27620ff3a23cf", "fusion_lat": 0.0, "is_reserved": 0, "lon": -77.04878333333333}, {"type": "electric_scooter", "name": "d63107981ab8b8eeedba056ccfb34f5b", "rental_uris": {"ios": "https://dc.lft.to/lastmile_qr_scan", "android": "https://dc.lft.to/lastmile_qr_scan"}, "fusion_lon": 0.0, "lat": 38.930837833333335, "is_disabled": 0, "bike_id": "d63107981ab8b8eeedba056ccfb34f5b", "fusion_lat": 0.0, "is_reserved": 0, "lon": -77.0280815}, {"type": "electric_scooter", "name": "bfcd2c2e0899b50f09a1106993a23dd4", "rental_uris": {"ios": "https://dc.lft.to/lastmile_qr_scan", "android": "https://dc.lft.to/lastmile_qr_scan"}, "fusion_lon": 0.0, "lat": 38.91052633333334, "is_disabled": 0, "bike_id": "bfcd2c2e0899b50f09a1106993a23dd4", "fusion_lat": 0.0, "is_reserved": 0, "lon": -77.00387116666667}, {"type": "electric_bike", "name": "c94034275c85c13692166941207c22cd", "rental_uris": {"ios": "https://dc.lft.to/lastmile_qr_scan", "android": "https://dc.lft.to/lastmile_qr_scan"}, "fusion_lon": 0.0, "lat": 38.95760683333334, "is_disabled": 0, "bike_id": "c94034275c85c13692166941207c22cd", "fusion_lat": 0.0, "is_reserved": 0, "lon": -77.02055533333333}, {"type": "electric_scooter", "name": "bc09f29a9b8c4f60b7260ce966b7f47c", "rental_uris": {"ios": "https://dc.lft.to/lastmile_qr_scan", "android": "https://dc.lft.to/lastmile_qr_scan"}, "fusion_lon": 0.0, "lat": 38.921203, "is_disabled": 0, "bike_id": "bc09f29a9b8c4f60b7260ce966b7f47c", "fusion_lat": 0.0, "is_reserved": 0, "lon": -77.012124}, {"type": "electric_scooter", "name": "81e6a17fb5dad520050a025d476ca7a3", "rental_uris": {"ios": "https://dc.lft.to/lastmile_qr_scan", "android": "https://dc.lft.to/lastmile_qr_scan"}, "fusion_lon": 0.0, "lat": 38.905657833333336, "is_disabled": 0, "bike_id": "81e6a17fb5dad520050a025d476ca7a3", "fusion_lat": 0.0, "is_reserved": 0, "lon": -77.024011}, {"type": "electric_scooter", "name": "dcc5f4320c620842715f0e4358e18761", "rental_uris": {"ios": "https://dc.lft.to/lastmile_qr_scan", "android": "https://dc.lft.to/lastmile_qr_scan"}, "fusion_lon": 0.0, "lat": 38.897337, "is_disabled": 0, "bike_id": "dcc5f4320c620842715f0e4358e18761", "fusion_lat": 0.0, "is_reserved": 0, "lon": -77.0462065}, {"type": "electric_scooter", "name": "2eae13d9b25aef9ad7b2fa57db9b2f6b", "rental_uris": {"ios": "https://dc.lft.to/lastmile_qr_scan", "android": "https://dc.lft.to/lastmile_qr_scan"}, "fusion_lon": 0.0, "lat": 38.902698666666666, "is_disabled": 0, "bike_id": "2eae13d9b25aef9ad7b2fa57db9b2f6b", "fusion_lat": 0.0, "is_reserved": 0, "lon": -77.03856766666667}, {"type": "electric_scooter", "name": "ed2a0e3d755d79beedb7e8a90e97eb66", "rental_uris": {"ios": "https://dc.lft.to/lastmile_qr_scan", "android": "https://dc.lft.to/lastmile_qr_scan"}, "fusion_lon": 0.0, "lat": 38.878972166666664, "is_disabled": 0, "bike_id": "ed2a0e3d755d79beedb7e8a90e97eb66", "fusion_lat": 0.0, "is_reserved": 0, "lon": -77.0136355}, {"type": "electric_scooter", "name": "e1931340c1ef1e53a72e41ab4793faab", "rental_uris": {"ios": "https://dc.lft.to/lastmile_qr_scan", "android": "https://dc.lft.to/lastmile_qr_scan"}, "fusion_lon": 0.0, "lat": 38.91816466666667, "is_disabled": 0, "bike_id": "e1931340c1ef1e53a72e41ab4793faab", "fusion_lat": 0.0, "is_reserved": 0, "lon": -77.03709233333333}, {"type": "electric_scooter", "name": "8548592d54be2328ba30cd0f93832478", "rental_uris": {"ios": "https://dc.lft.to/lastmile_qr_scan", "android": "https://dc.lft.to/lastmile_qr_scan"}, "fusion_lon": 0.0, "lat": 38.93529633333333, "is_disabled": 0, "bike_id": "8548592d54be2328ba30cd0f93832478", "fusion_lat": 0.0, "is_reserved": 0, "lon": -77.023586}, {"type": "electric_scooter", "name": "cf3576dc53d1cb598e13ae7285dd557a", "rental_uris": {"ios": "https://dc.lft.to/lastmile_qr_scan", "android": "https://dc.lft.to/lastmile_qr_scan"}, "fusion_lon": 0.0, "lat": 38.9296345, "is_disabled": 0, "bike_id": "cf3576dc53d1cb598e13ae7285dd557a", "fusion_lat": 0.0, "is_reserved": 0, "lon": -77.03103483333334}, {"type": "electric_bike", "name": "7fa329689e116990fb4914f15622fbd5", "rental_uris": {"ios": "https://dc.lft.to/lastmile_qr_scan", "android": "https://dc.lft.to/lastmile_qr_scan"}, "fusion_lon": 0.0, "lat": 38.935591333333335, "is_disabled": 0, "bike_id": "7fa329689e116990fb4914f15622fbd5", "fusion_lat": 0.0, "is_reserved": 0, "lon": -77.03697216666667}, {"type": "electric_scooter", "name": "bb129d1de2a82fa3ba3532b5d5a559d6", "rental_uris": {"ios": "https://dc.lft.to/lastmile_qr_scan", "android": "https://dc.lft.to/lastmile_qr_scan"}, "fusion_lon": 0.0, "lat": 38.902455, "is_disabled": 0, "bike_id": "bb129d1de2a82fa3ba3532b5d5a559d6", "fusion_lat": 0.0, "is_reserved": 0, "lon": -77.0175595}, {"type": "electric_scooter", "name": "b501de01ba910bd40e4472cf0827b6cb", "rental_uris": {"ios": "https://dc.lft.to/lastmile_qr_scan", "android": "https://dc.lft.to/lastmile_qr_scan"}, "fusion_lon": 0.0, "lat": 38.91398816666667, "is_disabled": 0, "bike_id": "b501de01ba910bd40e4472cf0827b6cb", "fusion_lat": 0.0, "is_reserved": 0, "lon": -77.0417705}, {"type": "electric_scooter", "name": "1874dc723450dd3e77941dc3ff8d542a", "rental_uris": {"ios": "https://dc.lft.to/lastmile_qr_scan", "android": "https://dc.lft.to/lastmile_qr_scan"}, "fusion_lon": 0.0, "lat": 38.90261533333333, "is_disabled": 0, "bike_id": "1874dc723450dd3e77941dc3ff8d542a", "fusion_lat": 0.0, "is_reserved": 0, "lon": -77.01759316666667}, {"type": "electric_scooter", "name": "281a0619acce7443b75f5e25905c1dad", "rental_uris": {"ios": "https://dc.lft.to/lastmile_qr_scan", "android": "https://dc.lft.to/lastmile_qr_scan"}, "fusion_lon": 0.0, "lat": 38.9374025, "is_disabled": 0, "bike_id": "281a0619acce7443b75f5e25905c1dad", "fusion_lat": 0.0, "is_reserved": 0, "lon": -77.0326685}, {"type": "electric_scooter", "name": "8c8f99e8664ff29e4150832d3918c431", "rental_uris": {"ios": "https://dc.lft.to/lastmile_qr_scan", "android": "https://dc.lft.to/lastmile_qr_scan"}, "fusion_lon": 0.0, "lat": 38.97236483333333, "is_disabled": 0, "bike_id": "8c8f99e8664ff29e4150832d3918c431", "fusion_lat": 0.0, "is_reserved": 0, "lon": -77.02706816666667}, {"type": "electric_scooter", "name": "e6753089e99c28583fc88daa166bbe2f", "rental_uris": {"ios": "https://dc.lft.to/lastmile_qr_scan", "android": "https://dc.lft.to/lastmile_qr_scan"}, "fusion_lon": 0.0, "lat": 38.924373, "is_disabled": 0, "bike_id": "e6753089e99c28583fc88daa166bbe2f", "fusion_lat": 0.0, "is_reserved": 0, "lon": -77.05205316666667}, {"type": "electric_bike", "name": "7f1fc845c501359df03cf973e82f6141", "rental_uris": {"ios": "https://dc.lft.to/lastmile_qr_scan", "android": "https://dc.lft.to/lastmile_qr_scan"}, "fusion_lon": 0.0, "lat": 38.88352533333333, "is_disabled": 0, "bike_id": "7f1fc845c501359df03cf973e82f6141", "fusion_lat": 0.0, "is_reserved": 0, "lon": -76.9821975}, {"type": "electric_scooter", "name": "2f7c910b6fe2d9643871f26acaca8f89", "rental_uris": {"ios": "https://dc.lft.to/lastmile_qr_scan", "android": "https://dc.lft.to/lastmile_qr_scan"}, "fusion_lon": 0.0, "lat": 38.85547666666667, "is_disabled": 0, "bike_id": "2f7c910b6fe2d9643871f26acaca8f89", "fusion_lat": 0.0, "is_reserved": 0, "lon": -76.98764033333333}, {"type": "electric_scooter", "name": "6efcf739d0a16f8fa51f3915b99c9836", "rental_uris": {"ios": "https://dc.lft.to/lastmile_qr_scan", "android": "https://dc.lft.to/lastmile_qr_scan"}, "fusion_lon": 0.0, "lat": 38.9170545, "is_disabled": 0, "bike_id": "6efcf739d0a16f8fa51f3915b99c9836", "fusion_lat": 0.0, "is_reserved": 0, "lon": -77.038556}, {"type": "electric_scooter", "name": "d9c06acf087eee93006c57bc78849d3f", "rental_uris": {"ios": "https://dc.lft.to/lastmile_qr_scan", "android": "https://dc.lft.to/lastmile_qr_scan"}, "fusion_lon": 0.0, "lat": 38.923005333333336, "is_disabled": 0, "bike_id": "d9c06acf087eee93006c57bc78849d3f", "fusion_lat": 0.0, "is_reserved": 0, "lon": -77.04270633333333}, {"type": "electric_scooter", "name": "0ec0f70afe6ca6d113d142fdbf912940", "rental_uris": {"ios": "https://dc.lft.to/lastmile_qr_scan", "android": "https://dc.lft.to/lastmile_qr_scan"}, "fusion_lon": 0.0, "lat": 38.909438333333334, "is_disabled": 0, "bike_id": "0ec0f70afe6ca6d113d142fdbf912940", "fusion_lat": 0.0, "is_reserved": 0, "lon": -77.02817883333333}, {"type": "electric_scooter", "name": "cc78cdb039bfc51b82ee4719be1971f7", "rental_uris": {"ios": "https://dc.lft.to/lastmile_qr_scan", "android": "https://dc.lft.to/lastmile_qr_scan"}, "fusion_lon": 0.0, "lat": 38.89729666666667, "is_disabled": 0, "bike_id": "cc78cdb039bfc51b82ee4719be1971f7", "fusion_lat": 0.0, "is_reserved": 0, "lon": -77.009346}, {"type": "electric_scooter", "name": "c6584362bed2e96397f9da63ed143bee", "rental_uris": {"ios": "https://dc.lft.to/lastmile_qr_scan", "android": "https://dc.lft.to/lastmile_qr_scan"}, "fusion_lon": 0.0, "lat": 38.925058, "is_disabled": 0, "bike_id": "c6584362bed2e96397f9da63ed143bee", "fusion_lat": 0.0, "is_reserved": 0, "lon": -77.0023455}, {"type": "electric_scooter", "name": "dff00c08187e9b7fe8ecfd1e9ba14120", "rental_uris": {"ios": "https://dc.lft.to/lastmile_qr_scan", "android": "https://dc.lft.to/lastmile_qr_scan"}, "fusion_lon": 0.0, "lat": 38.897201, "is_disabled": 0, "bike_id": "dff00c08187e9b7fe8ecfd1e9ba14120", "fusion_lat": 0.0, "is_reserved": 0, "lon": -77.043544}, {"type": "electric_scooter", "name": "19f6e659e915571ad6a3e6ffe2db0cab", "rental_uris": {"ios": "https://dc.lft.to/lastmile_qr_scan", "android": "https://dc.lft.to/lastmile_qr_scan"}, "fusion_lon": 0.0, "lat": 38.9310735, "is_disabled": 0, "bike_id": "19f6e659e915571ad6a3e6ffe2db0cab", "fusion_lat": 0.0, "is_reserved": 0, "lon": -77.0211955}, {"type": "electric_scooter", "name": "795419e91e2018a0e3367d38a418018e", "rental_uris": {"ios": "https://dc.lft.to/lastmile_qr_scan", "android": "https://dc.lft.to/lastmile_qr_scan"}, "fusion_lon": 0.0, "lat": 38.91987916666667, "is_disabled": 0, "bike_id": "795419e91e2018a0e3367d38a418018e", "fusion_lat": 0.0, "is_reserved": 0, "lon": -76.9730975}, {"type": "electric_scooter", "name": "a03cefedea7155253544234a46040383", "rental_uris": {"ios": "https://dc.lft.to/lastmile_qr_scan", "android": "https://dc.lft.to/lastmile_qr_scan"}, "fusion_lon": 0.0, "lat": 38.90754833333333, "is_disabled": 0, "bike_id": "a03cefedea7155253544234a46040383", "fusion_lat": 0.0, "is_reserved": 0, "lon": -76.99877116666667}, {"type": "electric_scooter", "name": "72cbf651b1a074507475d0c2bb9abb18", "rental_uris": {"ios": "https://dc.lft.to/lastmile_qr_scan", "android": "https://dc.lft.to/lastmile_qr_scan"}, "fusion_lon": 0.0, "lat": 38.916376166666666, "is_disabled": 0, "bike_id": "72cbf651b1a074507475d0c2bb9abb18", "fusion_lat": 0.0, "is_reserved": 0, "lon": -77.04776083333333}, {"type": "electric_scooter", "name": "a2c9693c284705f2ce86a83696f9c310", "rental_uris": {"ios": "https://dc.lft.to/lastmile_qr_scan", "android": "https://dc.lft.to/lastmile_qr_scan"}, "fusion_lon": 0.0, "lat": 38.93672516666667, "is_disabled": 0, "bike_id": "a2c9693c284705f2ce86a83696f9c310", "fusion_lat": 0.0, "is_reserved": 0, "lon": -77.0359575}, {"type": "electric_scooter", "name": "c4b27f82d2f9d2a80cc7602bf6db0591", "rental_uris": {"ios": "https://dc.lft.to/lastmile_qr_scan", "android": "https://dc.lft.to/lastmile_qr_scan"}, "fusion_lon": 0.0, "lat": 38.901274, "is_disabled": 0, "bike_id": "c4b27f82d2f9d2a80cc7602bf6db0591", "fusion_lat": 0.0, "is_reserved": 0, "lon": -77.04492533333334}, {"type": "electric_bike", "name": "d2440135b638804f71336db777b73f5b", "rental_uris": {"ios": "https://dc.lft.to/lastmile_qr_scan", "android": "https://dc.lft.to/lastmile_qr_scan"}, "fusion_lon": 0.0, "lat": 38.8408465, "is_disabled": 0, "bike_id": "d2440135b638804f71336db777b73f5b", "fusion_lat": 0.0, "is_reserved": 0, "lon": -76.97030916666667}, {"type": "electric_scooter", "name": "60c20a9c13ddf79df1baaab98df7ed0c", "rental_uris": {"ios": "https://dc.lft.to/lastmile_qr_scan", "android": "https://dc.lft.to/lastmile_qr_scan"}, "fusion_lon": 0.0, "lat": 38.920474666666664, "is_disabled": 0, "bike_id": "60c20a9c13ddf79df1baaab98df7ed0c", "fusion_lat": 0.0, "is_reserved": 0, "lon": -77.02574783333333}, {"type": "electric_scooter", "name": "ea1c25fcd8019e8817c7a8a5c99746ca", "rental_uris": {"ios": "https://dc.lft.to/lastmile_qr_scan", "android": "https://dc.lft.to/lastmile_qr_scan"}, "fusion_lon": 0.0, "lat": 38.92871733333333, "is_disabled": 0, "bike_id": "ea1c25fcd8019e8817c7a8a5c99746ca", "fusion_lat": 0.0, "is_reserved": 0, "lon": -77.0350385}, {"type": "electric_bike", "name": "93c49b6f4976d17c656c7e7e035b14aa", "rental_uris": {"ios": "https://dc.lft.to/lastmile_qr_scan", "android": "https://dc.lft.to/lastmile_qr_scan"}, "fusion_lon": 0.0, "lat": 38.884047, "is_disabled": 0, "bike_id": "93c49b6f4976d17c656c7e7e035b14aa", "fusion_lat": 0.0, "is_reserved": 0, "lon": -76.960529}, {"type": "electric_scooter", "name": "dc6fed8cfa76a47e49d782d4b59f95d7", "rental_uris": {"ios": "https://dc.lft.to/lastmile_qr_scan", "android": "https://dc.lft.to/lastmile_qr_scan"}, "fusion_lon": 0.0, "lat": 38.906595333333335, "is_disabled": 0, "bike_id": "dc6fed8cfa76a47e49d782d4b59f95d7", "fusion_lat": 0.0, "is_reserved": 0, "lon": -77.03771783333333}, {"type": "electric_scooter", "name": "f627ee969d0b4ae0592ffb191d0c4721", "rental_uris": {"ios": "https://dc.lft.to/lastmile_qr_scan", "android": "https://dc.lft.to/lastmile_qr_scan"}, "fusion_lon": 0.0, "lat": 38.857204833333334, "is_disabled": 0, "bike_id": "f627ee969d0b4ae0592ffb191d0c4721", "fusion_lat": 0.0, "is_reserved": 0, "lon": -76.9809715}, {"type": "electric_scooter", "name": "6d67818f66b9519fe5c75b485eabe79a", "rental_uris": {"ios": "https://dc.lft.to/lastmile_qr_scan", "android": "https://dc.lft.to/lastmile_qr_scan"}, "fusion_lon": 0.0, "lat": 38.902633333333334, "is_disabled": 0, "bike_id": "6d67818f66b9519fe5c75b485eabe79a", "fusion_lat": 0.0, "is_reserved": 0, "lon": -77.0385785}, {"type": "electric_scooter", "name": "18310d220c1de1be25f0af99ed19e205", "rental_uris": {"ios": "https://dc.lft.to/lastmile_qr_scan", "android": "https://dc.lft.to/lastmile_qr_scan"}, "fusion_lon": 0.0, "lat": 38.89603566666667, "is_disabled": 0, "bike_id": "18310d220c1de1be25f0af99ed19e205", "fusion_lat": 0.0, "is_reserved": 0, "lon": -77.00933266666667}, {"type": "electric_scooter", "name": "b446cb97931bbb92cf8a5083ac034e48", "rental_uris": {"ios": "https://dc.lft.to/lastmile_qr_scan", "android": "https://dc.lft.to/lastmile_qr_scan"}, "fusion_lon": 0.0, "lat": 38.863915166666665, "is_disabled": 0, "bike_id": "b446cb97931bbb92cf8a5083ac034e48", "fusion_lat": 0.0, "is_reserved": 0, "lon": -76.99038383333334}, {"type": "electric_scooter", "name": "99ee0fb99f1540301f0db6e12b1dd75b", "rental_uris": {"ios": "https://dc.lft.to/lastmile_qr_scan", "android": "https://dc.lft.to/lastmile_qr_scan"}, "fusion_lon": 0.0, "lat": 38.90252316666667, "is_disabled": 0, "bike_id": "99ee0fb99f1540301f0db6e12b1dd75b", "fusion_lat": 0.0, "is_reserved": 0, "lon": -77.02485833333333}, {"type": "electric_scooter", "name": "b919dc3761ef0584332f4d9f0ca7f581", "rental_uris": {"ios": "https://dc.lft.to/lastmile_qr_scan", "android": "https://dc.lft.to/lastmile_qr_scan"}, "fusion_lon": 0.0, "lat": 38.909495166666666, "is_disabled": 0, "bike_id": "b919dc3761ef0584332f4d9f0ca7f581", "fusion_lat": 0.0, "is_reserved": 0, "lon": -77.06439883333333}, {"type": "electric_scooter", "name": "660884b558b5fa4e161033aaf87d6c57", "rental_uris": {"ios": "https://dc.lft.to/lastmile_qr_scan", "android": "https://dc.lft.to/lastmile_qr_scan"}, "fusion_lon": 0.0, "lat": 38.91258666666667, "is_disabled": 0, "bike_id": "660884b558b5fa4e161033aaf87d6c57", "fusion_lat": 0.0, "is_reserved": 0, "lon": -77.04734766666667}, {"type": "electric_scooter", "name": "2942060642481959449f62ca0e198851", "rental_uris": {"ios": "https://dc.lft.to/lastmile_qr_scan", "android": "https://dc.lft.to/lastmile_qr_scan"}, "fusion_lon": 0.0, "lat": 38.897319, "is_disabled": 0, "bike_id": "2942060642481959449f62ca0e198851", "fusion_lat": 0.0, "is_reserved": 0, "lon": -76.946985}, {"type": "electric_scooter", "name": "3429295303dd33be7034f9d14c71a814", "rental_uris": {"ios": "https://dc.lft.to/lastmile_qr_scan", "android": "https://dc.lft.to/lastmile_qr_scan"}, "fusion_lon": 0.0, "lat": 38.898970166666665, "is_disabled": 0, "bike_id": "3429295303dd33be7034f9d14c71a814", "fusion_lat": 0.0, "is_reserved": 0, "lon": -77.02165683333334}, {"type": "electric_scooter", "name": "ddc218592eb3237bb9fd643c959f3413", "rental_uris": {"ios": "https://dc.lft.to/lastmile_qr_scan", "android": "https://dc.lft.to/lastmile_qr_scan"}, "fusion_lon": 0.0, "lat": 38.93282833333333, "is_disabled": 0, "bike_id": "ddc218592eb3237bb9fd643c959f3413", "fusion_lat": 0.0, "is_reserved": 0, "lon": -77.025454}, {"type": "electric_scooter", "name": "61f43bacd062eb171cacd2a9e08cc2e8", "rental_uris": {"ios": "https://dc.lft.to/lastmile_qr_scan", "android": "https://dc.lft.to/lastmile_qr_scan"}, "fusion_lon": 0.0, "lat": 38.936690166666665, "is_disabled": 0, "bike_id": "61f43bacd062eb171cacd2a9e08cc2e8", "fusion_lat": 0.0, "is_reserved": 0, "lon": -77.03630516666666}, {"type": "electric_scooter", "name": "5e4cf3a345dff8c5819a74ea548633b1", "rental_uris": {"ios": "https://dc.lft.to/lastmile_qr_scan", "android": "https://dc.lft.to/lastmile_qr_scan"}, "fusion_lon": 0.0, "lat": 38.935323833333335, "is_disabled": 0, "bike_id": "5e4cf3a345dff8c5819a74ea548633b1", "fusion_lat": 0.0, "is_reserved": 0, "lon": -77.0235435}, {"type": "electric_scooter", "name": "9c0266770128511d0b8b71a4d8de5f3b", "rental_uris": {"ios": "https://dc.lft.to/lastmile_qr_scan", "android": "https://dc.lft.to/lastmile_qr_scan"}, "fusion_lon": 0.0, "lat": 38.92368616666667, "is_disabled": 0, "bike_id": "9c0266770128511d0b8b71a4d8de5f3b", "fusion_lat": 0.0, "is_reserved": 0, "lon": -77.01960116666666}, {"type": "electric_scooter", "name": "5311218baf48f9080a3a2f66e0f6f184", "rental_uris": {"ios": "https://dc.lft.to/lastmile_qr_scan", "android": "https://dc.lft.to/lastmile_qr_scan"}, "fusion_lon": 0.0, "lat": 38.925650833333336, "is_disabled": 0, "bike_id": "5311218baf48f9080a3a2f66e0f6f184", "fusion_lat": 0.0, "is_reserved": 0, "lon": -77.037742}, {"type": "electric_scooter", "name": "a70a749cbbe0c47b1e9b7b0ad0220616", "rental_uris": {"ios": "https://dc.lft.to/lastmile_qr_scan", "android": "https://dc.lft.to/lastmile_qr_scan"}, "fusion_lon": 0.0, "lat": 38.879646666666666, "is_disabled": 0, "bike_id": "a70a749cbbe0c47b1e9b7b0ad0220616", "fusion_lat": 0.0, "is_reserved": 0, "lon": -77.02379166666667}, {"type": "electric_scooter", "name": "4987c327af1abb8f0ac14ccee49f5945", "rental_uris": {"ios": "https://dc.lft.to/lastmile_qr_scan", "android": "https://dc.lft.to/lastmile_qr_scan"}, "fusion_lon": 0.0, "lat": 38.897274, "is_disabled": 0, "bike_id": "4987c327af1abb8f0ac14ccee49f5945", "fusion_lat": 0.0, "is_reserved": 0, "lon": -77.0553525}, {"type": "electric_scooter", "name": "452da76518512564b54a264545680eb1", "rental_uris": {"ios": "https://dc.lft.to/lastmile_qr_scan", "android": "https://dc.lft.to/lastmile_qr_scan"}, "fusion_lon": 0.0, "lat": 38.929579833333335, "is_disabled": 0, "bike_id": "452da76518512564b54a264545680eb1", "fusion_lat": 0.0, "is_reserved": 0, "lon": -77.01841083333333}, {"type": "electric_bike", "name": "af04451b66d452082e92e0b958bbe7e2", "rental_uris": {"ios": "https://dc.lft.to/lastmile_qr_scan", "android": "https://dc.lft.to/lastmile_qr_scan"}, "fusion_lon": 0.0, "lat": 38.956321333333335, "is_disabled": 0, "bike_id": "af04451b66d452082e92e0b958bbe7e2", "fusion_lat": 0.0, "is_reserved": 0, "lon": -76.93879333333334}, {"type": "electric_scooter", "name": "f1aa121d8aa5eed6afdc3066c009a244", "rental_uris": {"ios": "https://dc.lft.to/lastmile_qr_scan", "android": "https://dc.lft.to/lastmile_qr_scan"}, "fusion_lon": 0.0, "lat": 38.902640166666664, "is_disabled": 0, "bike_id": "f1aa121d8aa5eed6afdc3066c009a244", "fusion_lat": 0.0, "is_reserved": 0, "lon": -77.0303945}, {"type": "electric_bike", "name": "02c341a5c4a30eb09b0445755519547b", "rental_uris": {"ios": "https://dc.lft.to/lastmile_qr_scan", "android": "https://dc.lft.to/lastmile_qr_scan"}, "fusion_lon": 0.0, "lat": 38.937722666666666, "is_disabled": 0, "bike_id": "02c341a5c4a30eb09b0445755519547b", "fusion_lat": 0.0, "is_reserved": 0, "lon": -77.01912333333334}, {"type": "electric_scooter", "name": "2336c262731e2e718197cacb1b1204fc", "rental_uris": {"ios": "https://dc.lft.to/lastmile_qr_scan", "android": "https://dc.lft.to/lastmile_qr_scan"}, "fusion_lon": 0.0, "lat": 38.91889583333333, "is_disabled": 0, "bike_id": "2336c262731e2e718197cacb1b1204fc", "fusion_lat": 0.0, "is_reserved": 0, "lon": -77.00344116666666}, {"type": "electric_scooter", "name": "e24f242ad5b2eedfb05d27bcbc654861", "rental_uris": {"ios": "https://dc.lft.to/lastmile_qr_scan", "android": "https://dc.lft.to/lastmile_qr_scan"}, "fusion_lon": 0.0, "lat": 38.90720833333334, "is_disabled": 0, "bike_id": "e24f242ad5b2eedfb05d27bcbc654861", "fusion_lat": 0.0, "is_reserved": 0, "lon": -77.00578616666667}, {"type": "electric_scooter", "name": "a7ae8da4164caa5b6d68f7a51035ba97", "rental_uris": {"ios": "https://dc.lft.to/lastmile_qr_scan", "android": "https://dc.lft.to/lastmile_qr_scan"}, "fusion_lon": 0.0, "lat": 38.923683833333335, "is_disabled": 0, "bike_id": "a7ae8da4164caa5b6d68f7a51035ba97", "fusion_lat": 0.0, "is_reserved": 0, "lon": -77.02128333333333}, {"type": "electric_bike", "name": "1b4cd6462bd65d5546cb36ba323e1ced", "rental_uris": {"ios": "https://dc.lft.to/lastmile_qr_scan", "android": "https://dc.lft.to/lastmile_qr_scan"}, "fusion_lon": 0.0, "lat": 38.878222, "is_disabled": 0, "bike_id": "1b4cd6462bd65d5546cb36ba323e1ced", "fusion_lat": 0.0, "is_reserved": 0, "lon": -77.00735333333333}, {"type": "electric_scooter", "name": "287bdcccfc43d4e7ad63d34660855db3", "rental_uris": {"ios": "https://dc.lft.to/lastmile_qr_scan", "android": "https://dc.lft.to/lastmile_qr_scan"}, "fusion_lon": 0.0, "lat": 38.89726683333333, "is_disabled": 0, "bike_id": "287bdcccfc43d4e7ad63d34660855db3", "fusion_lat": 0.0, "is_reserved": 0, "lon": -77.0099275}, {"type": "electric_scooter", "name": "fc9275cbebf370923171181caebd29b5", "rental_uris": {"ios": "https://dc.lft.to/lastmile_qr_scan", "android": "https://dc.lft.to/lastmile_qr_scan"}, "fusion_lon": 0.0, "lat": 38.89830966666667, "is_disabled": 0, "bike_id": "fc9275cbebf370923171181caebd29b5", "fusion_lat": 0.0, "is_reserved": 0, "lon": -77.00760916666667}, {"type": "electric_scooter", "name": "16894c3d9c1ee535f04cb073336e7601", "rental_uris": {"ios": "https://dc.lft.to/lastmile_qr_scan", "android": "https://dc.lft.to/lastmile_qr_scan"}, "fusion_lon": 0.0, "lat": 38.88738683333333, "is_disabled": 0, "bike_id": "16894c3d9c1ee535f04cb073336e7601", "fusion_lat": 0.0, "is_reserved": 0, "lon": -77.02582016666666}, {"type": "electric_scooter", "name": "bba13705a6bd5c72919c3e5fff1b1280", "rental_uris": {"ios": "https://dc.lft.to/lastmile_qr_scan", "android": "https://dc.lft.to/lastmile_qr_scan"}, "fusion_lon": 0.0, "lat": 38.92220533333333, "is_disabled": 0, "bike_id": "bba13705a6bd5c72919c3e5fff1b1280", "fusion_lat": 0.0, "is_reserved": 0, "lon": -77.03524583333333}, {"type": "electric_scooter", "name": "c2eb60457c71d86a3be0df74dabeb178", "rental_uris": {"ios": "https://dc.lft.to/lastmile_qr_scan", "android": "https://dc.lft.to/lastmile_qr_scan"}, "fusion_lon": 0.0, "lat": 38.90179766666667, "is_disabled": 0, "bike_id": "c2eb60457c71d86a3be0df74dabeb178", "fusion_lat": 0.0, "is_reserved": 0, "lon": -76.941474}, {"type": "electric_scooter", "name": "16d4bd518e7582a406d1ad44480d5b24", "rental_uris": {"ios": "https://dc.lft.to/lastmile_qr_scan", "android": "https://dc.lft.to/lastmile_qr_scan"}, "fusion_lon": 0.0, "lat": 38.918578833333335, "is_disabled": 0, "bike_id": "16d4bd518e7582a406d1ad44480d5b24", "fusion_lat": 0.0, "is_reserved": 0, "lon": -77.01354133333334}, {"type": "electric_scooter", "name": "d5974f30c1438105d1dc300e3197d6c8", "rental_uris": {"ios": "https://dc.lft.to/lastmile_qr_scan", "android": "https://dc.lft.to/lastmile_qr_scan"}, "fusion_lon": 0.0, "lat": 38.92048666666667, "is_disabled": 0, "bike_id": "d5974f30c1438105d1dc300e3197d6c8", "fusion_lat": 0.0, "is_reserved": 0, "lon": -77.02577466666666}, {"type": "electric_scooter", "name": "b1b83d2b371285d74278599b54bc3e0d", "rental_uris": {"ios": "https://dc.lft.to/lastmile_qr_scan", "android": "https://dc.lft.to/lastmile_qr_scan"}, "fusion_lon": 0.0, "lat": 38.89623316666667, "is_disabled": 0, "bike_id": "b1b83d2b371285d74278599b54bc3e0d", "fusion_lat": 0.0, "is_reserved": 0, "lon": -76.99331733333334}, {"type": "electric_scooter", "name": "81b252f60f39d34f3e29daaa1209d7e0", "rental_uris": {"ios": "https://dc.lft.to/lastmile_qr_scan", "android": "https://dc.lft.to/lastmile_qr_scan"}, "fusion_lon": 0.0, "lat": 38.901147333333334, "is_disabled": 0, "bike_id": "81b252f60f39d34f3e29daaa1209d7e0", "fusion_lat": 0.0, "is_reserved": 0, "lon": -77.036714}, {"type": "electric_scooter", "name": "beb68caab310ace053d8d507efeb1b3d", "rental_uris": {"ios": "https://dc.lft.to/lastmile_qr_scan", "android": "https://dc.lft.to/lastmile_qr_scan"}, "fusion_lon": 0.0, "lat": 38.86472533333333, "is_disabled": 0, "bike_id": "beb68caab310ace053d8d507efeb1b3d", "fusion_lat": 0.0, "is_reserved": 0, "lon": -76.98233216666667}, {"type": "electric_scooter", "name": "d145bbd086d7567ce7bf393780368c08", "rental_uris": {"ios": "https://dc.lft.to/lastmile_qr_scan", "android": "https://dc.lft.to/lastmile_qr_scan"}, "fusion_lon": 0.0, "lat": 38.9097365, "is_disabled": 0, "bike_id": "d145bbd086d7567ce7bf393780368c08", "fusion_lat": 0.0, "is_reserved": 0, "lon": -77.02280716666667}, {"type": "electric_scooter", "name": "7bcfe81d50aee600f872d3e13d66c0c6", "rental_uris": {"ios": "https://dc.lft.to/lastmile_qr_scan", "android": "https://dc.lft.to/lastmile_qr_scan"}, "fusion_lon": 0.0, "lat": 38.9101645, "is_disabled": 0, "bike_id": "7bcfe81d50aee600f872d3e13d66c0c6", "fusion_lat": 0.0, "is_reserved": 0, "lon": -77.02255366666667}, {"type": "electric_scooter", "name": "5093027cba35a7fa5b29142660a8c25e", "rental_uris": {"ios": "https://dc.lft.to/lastmile_qr_scan", "android": "https://dc.lft.to/lastmile_qr_scan"}, "fusion_lon": 0.0, "lat": 38.90139766666667, "is_disabled": 0, "bike_id": "5093027cba35a7fa5b29142660a8c25e", "fusion_lat": 0.0, "is_reserved": 0, "lon": -76.98963283333333}, {"type": "electric_scooter", "name": "964059fcaa3db2ba24d7e28bb8ecd243", "rental_uris": {"ios": "https://dc.lft.to/lastmile_qr_scan", "android": "https://dc.lft.to/lastmile_qr_scan"}, "fusion_lon": 0.0, "lat": 38.861769833333334, "is_disabled": 0, "bike_id": "964059fcaa3db2ba24d7e28bb8ecd243", "fusion_lat": 0.0, "is_reserved": 0, "lon": -76.99712316666667}, {"type": "electric_scooter", "name": "22b84c7a97f726c305a839542c945763", "rental_uris": {"ios": "https://dc.lft.to/lastmile_qr_scan", "android": "https://dc.lft.to/lastmile_qr_scan"}, "fusion_lon": 0.0, "lat": 38.884435333333336, "is_disabled": 0, "bike_id": "22b84c7a97f726c305a839542c945763", "fusion_lat": 0.0, "is_reserved": 0, "lon": -76.996287}, {"type": "electric_scooter", "name": "94e8429f0037631746b450f62d87ed0f", "rental_uris": {"ios": "https://dc.lft.to/lastmile_qr_scan", "android": "https://dc.lft.to/lastmile_qr_scan"}, "fusion_lon": 0.0, "lat": 38.920450833333334, "is_disabled": 0, "bike_id": "94e8429f0037631746b450f62d87ed0f", "fusion_lat": 0.0, "is_reserved": 0, "lon": -77.0179545}, {"type": "electric_scooter", "name": "40cd5df0244e57161b2985289a95306d", "rental_uris": {"ios": "https://dc.lft.to/lastmile_qr_scan", "android": "https://dc.lft.to/lastmile_qr_scan"}, "fusion_lon": 0.0, "lat": 38.900285833333335, "is_disabled": 0, "bike_id": "40cd5df0244e57161b2985289a95306d", "fusion_lat": 0.0, "is_reserved": 0, "lon": -77.02720033333334}, {"type": "electric_scooter", "name": "f07a6eaad8a5f8c594f93cbd28e45a7e", "rental_uris": {"ios": "https://dc.lft.to/lastmile_qr_scan", "android": "https://dc.lft.to/lastmile_qr_scan"}, "fusion_lon": 0.0, "lat": 38.896166666666666, "is_disabled": 0, "bike_id": "f07a6eaad8a5f8c594f93cbd28e45a7e", "fusion_lat": 0.0, "is_reserved": 0, "lon": -76.9796995}, {"type": "electric_scooter", "name": "051489b025ae3a928150af6af51b6f49", "rental_uris": {"ios": "https://dc.lft.to/lastmile_qr_scan", "android": "https://dc.lft.to/lastmile_qr_scan"}, "fusion_lon": 0.0, "lat": 38.907811, "is_disabled": 0, "bike_id": "051489b025ae3a928150af6af51b6f49", "fusion_lat": 0.0, "is_reserved": 0, "lon": -77.04009666666667}, {"type": "electric_scooter", "name": "8fb4e525249c7f1b2a8836bc77af7e66", "rental_uris": {"ios": "https://dc.lft.to/lastmile_qr_scan", "android": "https://dc.lft.to/lastmile_qr_scan"}, "fusion_lon": 0.0, "lat": 38.904128666666665, "is_disabled": 0, "bike_id": "8fb4e525249c7f1b2a8836bc77af7e66", "fusion_lat": 0.0, "is_reserved": 0, "lon": -76.97330083333334}, {"type": "electric_scooter", "name": "280d7dc8c3231bbaa64ee76b8187d975", "rental_uris": {"ios": "https://dc.lft.to/lastmile_qr_scan", "android": "https://dc.lft.to/lastmile_qr_scan"}, "fusion_lon": 0.0, "lat": 38.92107216666667, "is_disabled": 0, "bike_id": "280d7dc8c3231bbaa64ee76b8187d975", "fusion_lat": 0.0, "is_reserved": 0, "lon": -77.04680733333333}, {"type": "electric_scooter", "name": "f46c208e9aa6d4210d0b982dc9f27aba", "rental_uris": {"ios": "https://dc.lft.to/lastmile_qr_scan", "android": "https://dc.lft.to/lastmile_qr_scan"}, "fusion_lon": 0.0, "lat": 38.928794, "is_disabled": 0, "bike_id": "f46c208e9aa6d4210d0b982dc9f27aba", "fusion_lat": 0.0, "is_reserved": 0, "lon": -77.02710316666666}, {"type": "electric_scooter", "name": "edcaffed5d4ec99c14124b069df190d3", "rental_uris": {"ios": "https://dc.lft.to/lastmile_qr_scan", "android": "https://dc.lft.to/lastmile_qr_scan"}, "fusion_lon": 0.0, "lat": 38.913172333333335, "is_disabled": 0, "bike_id": "edcaffed5d4ec99c14124b069df190d3", "fusion_lat": 0.0, "is_reserved": 0, "lon": -77.01513183333333}, {"type": "electric_scooter", "name": "f7355ec446c858150e28a4dca09ea719", "rental_uris": {"ios": "https://dc.lft.to/lastmile_qr_scan", "android": "https://dc.lft.to/lastmile_qr_scan"}, "fusion_lon": 0.0, "lat": 38.902579, "is_disabled": 0, "bike_id": "f7355ec446c858150e28a4dca09ea719", "fusion_lat": 0.0, "is_reserved": 0, "lon": -76.97460133333334}, {"type": "electric_scooter", "name": "1dd7086ed07d684b651d2db58d489d28", "rental_uris": {"ios": "https://dc.lft.to/lastmile_qr_scan", "android": "https://dc.lft.to/lastmile_qr_scan"}, "fusion_lon": 0.0, "lat": 38.89818266666666, "is_disabled": 0, "bike_id": "1dd7086ed07d684b651d2db58d489d28", "fusion_lat": 0.0, "is_reserved": 0, "lon": -77.03157116666667}, {"type": "electric_scooter", "name": "1413f9a5193de2d30686c866119347dd", "rental_uris": {"ios": "https://dc.lft.to/lastmile_qr_scan", "android": "https://dc.lft.to/lastmile_qr_scan"}, "fusion_lon": 0.0, "lat": 38.908585, "is_disabled": 0, "bike_id": "1413f9a5193de2d30686c866119347dd", "fusion_lat": 0.0, "is_reserved": 0, "lon": -76.9979965}, {"type": "electric_scooter", "name": "c6bfa3c8af703acf2cb0c9439b7c4e75", "rental_uris": {"ios": "https://dc.lft.to/lastmile_qr_scan", "android": "https://dc.lft.to/lastmile_qr_scan"}, "fusion_lon": 0.0, "lat": 38.91506583333334, "is_disabled": 0, "bike_id": "c6bfa3c8af703acf2cb0c9439b7c4e75", "fusion_lat": 0.0, "is_reserved": 0, "lon": -77.03822966666667}, {"type": "electric_scooter", "name": "9aff79b1491aa452a0c4441baf7a9df1", "rental_uris": {"ios": "https://dc.lft.to/lastmile_qr_scan", "android": "https://dc.lft.to/lastmile_qr_scan"}, "fusion_lon": 0.0, "lat": 38.9125665, "is_disabled": 0, "bike_id": "9aff79b1491aa452a0c4441baf7a9df1", "fusion_lat": 0.0, "is_reserved": 0, "lon": -77.019107}, {"type": "electric_scooter", "name": "acacd3f41210ded482be1c3f89e16c8e", "rental_uris": {"ios": "https://dc.lft.to/lastmile_qr_scan", "android": "https://dc.lft.to/lastmile_qr_scan"}, "fusion_lon": 0.0, "lat": 38.88767933333333, "is_disabled": 0, "bike_id": "acacd3f41210ded482be1c3f89e16c8e", "fusion_lat": 0.0, "is_reserved": 0, "lon": -76.977478}, {"type": "electric_scooter", "name": "b4de434c949d9e9a7f960cab8d00ed66", "rental_uris": {"ios": "https://dc.lft.to/lastmile_qr_scan", "android": "https://dc.lft.to/lastmile_qr_scan"}, "fusion_lon": 0.0, "lat": 38.910494, "is_disabled": 0, "bike_id": "b4de434c949d9e9a7f960cab8d00ed66", "fusion_lat": 0.0, "is_reserved": 0, "lon": -76.9852275}, {"type": "electric_scooter", "name": "6b4ca325b8bb18fca382cf7224e7866d", "rental_uris": {"ios": "https://dc.lft.to/lastmile_qr_scan", "android": "https://dc.lft.to/lastmile_qr_scan"}, "fusion_lon": 0.0, "lat": 38.90436416666667, "is_disabled": 0, "bike_id": "6b4ca325b8bb18fca382cf7224e7866d", "fusion_lat": 0.0, "is_reserved": 0, "lon": -77.04349583333334}, {"type": "electric_scooter", "name": "51df5861e9d73fb3db9ef8532334eafc", "rental_uris": {"ios": "https://dc.lft.to/lastmile_qr_scan", "android": "https://dc.lft.to/lastmile_qr_scan"}, "fusion_lon": 0.0, "lat": 38.90636516666667, "is_disabled": 0, "bike_id": "51df5861e9d73fb3db9ef8532334eafc", "fusion_lat": 0.0, "is_reserved": 0, "lon": -77.04142133333333}, {"type": "electric_scooter", "name": "c20de9baf8545da0ba643a02910fff14", "rental_uris": {"ios": "https://dc.lft.to/lastmile_qr_scan", "android": "https://dc.lft.to/lastmile_qr_scan"}, "fusion_lon": 0.0, "lat": 38.89138, "is_disabled": 0, "bike_id": "c20de9baf8545da0ba643a02910fff14", "fusion_lat": 0.0, "is_reserved": 0, "lon": -76.99100316666667}, {"type": "electric_bike", "name": "d4edddaea2b956907105ea0b81cc72c3", "rental_uris": {"ios": "https://dc.lft.to/lastmile_qr_scan", "android": "https://dc.lft.to/lastmile_qr_scan"}, "fusion_lon": 0.0, "lat": 38.853219333333335, "is_disabled": 0, "bike_id": "d4edddaea2b956907105ea0b81cc72c3", "fusion_lat": 0.0, "is_reserved": 0, "lon": -76.98004816666666}, {"type": "electric_scooter", "name": "a7db906438358ece93d0da5d3cd45c66", "rental_uris": {"ios": "https://dc.lft.to/lastmile_qr_scan", "android": "https://dc.lft.to/lastmile_qr_scan"}, "fusion_lon": 0.0, "lat": 38.91012533333333, "is_disabled": 0, "bike_id": "a7db906438358ece93d0da5d3cd45c66", "fusion_lat": 0.0, "is_reserved": 0, "lon": -77.044271}, {"type": "electric_bike", "name": "0410c73aa9a6fda166592a5dc1d6dfe9", "rental_uris": {"ios": "https://dc.lft.to/lastmile_qr_scan", "android": "https://dc.lft.to/lastmile_qr_scan"}, "fusion_lon": 0.0, "lat": 38.9846255, "is_disabled": 0, "bike_id": "0410c73aa9a6fda166592a5dc1d6dfe9", "fusion_lat": 0.0, "is_reserved": 0, "lon": -76.97056583333334}, {"type": "electric_scooter", "name": "6a2529e95f77d387f42976b15ae63488", "rental_uris": {"ios": "https://dc.lft.to/lastmile_qr_scan", "android": "https://dc.lft.to/lastmile_qr_scan"}, "fusion_lon": 0.0, "lat": 38.938690666666666, "is_disabled": 0, "bike_id": "6a2529e95f77d387f42976b15ae63488", "fusion_lat": 0.0, "is_reserved": 0, "lon": -77.026327}, {"type": "electric_scooter", "name": "291421411a00e6e1ebc6ca35cf79dea7", "rental_uris": {"ios": "https://dc.lft.to/lastmile_qr_scan", "android": "https://dc.lft.to/lastmile_qr_scan"}, "fusion_lon": 0.0, "lat": 38.918325, "is_disabled": 0, "bike_id": "291421411a00e6e1ebc6ca35cf79dea7", "fusion_lat": 0.0, "is_reserved": 0, "lon": -77.0231205}, {"type": "electric_bike", "name": "4c87bfc176252b1ec8c6a9c9a9d94871", "rental_uris": {"ios": "https://dc.lft.to/lastmile_qr_scan", "android": "https://dc.lft.to/lastmile_qr_scan"}, "fusion_lon": 0.0, "lat": 38.882602166666665, "is_disabled": 0, "bike_id": "4c87bfc176252b1ec8c6a9c9a9d94871", "fusion_lat": 0.0, "is_reserved": 0, "lon": -76.910385}, {"type": "electric_scooter", "name": "79d78e36a240b723ebae3ad5a5f5290a", "rental_uris": {"ios": "https://dc.lft.to/lastmile_qr_scan", "android": "https://dc.lft.to/lastmile_qr_scan"}, "fusion_lon": 0.0, "lat": 38.93991916666667, "is_disabled": 0, "bike_id": "79d78e36a240b723ebae3ad5a5f5290a", "fusion_lat": 0.0, "is_reserved": 0, "lon": -77.0326415}, {"type": "electric_scooter", "name": "ea267d709cd6cc29c4adbd7441a66066", "rental_uris": {"ios": "https://dc.lft.to/lastmile_qr_scan", "android": "https://dc.lft.to/lastmile_qr_scan"}, "fusion_lon": 0.0, "lat": 38.910876333333334, "is_disabled": 0, "bike_id": "ea267d709cd6cc29c4adbd7441a66066", "fusion_lat": 0.0, "is_reserved": 0, "lon": -77.03843166666667}, {"type": "electric_bike", "name": "6357f7ac5ce37821c89b02a8af66a889", "rental_uris": {"ios": "https://dc.lft.to/lastmile_qr_scan", "android": "https://dc.lft.to/lastmile_qr_scan"}, "fusion_lon": 0.0, "lat": 38.94758866666667, "is_disabled": 0, "bike_id": "6357f7ac5ce37821c89b02a8af66a889", "fusion_lat": 0.0, "is_reserved": 0, "lon": -77.023687}, {"type": "electric_scooter", "name": "c06090d54be71c5f7a23ca244dc5efdd", "rental_uris": {"ios": "https://dc.lft.to/lastmile_qr_scan", "android": "https://dc.lft.to/lastmile_qr_scan"}, "fusion_lon": 0.0, "lat": 38.9283535, "is_disabled": 0, "bike_id": "c06090d54be71c5f7a23ca244dc5efdd", "fusion_lat": 0.0, "is_reserved": 0, "lon": -77.03298266666667}, {"type": "electric_bike", "name": "9254403a0c525a5fb3a4e82e0a510500", "rental_uris": {"ios": "https://dc.lft.to/lastmile_qr_scan", "android": "https://dc.lft.to/lastmile_qr_scan"}, "fusion_lon": 0.0, "lat": 38.90030933333333, "is_disabled": 0, "bike_id": "9254403a0c525a5fb3a4e82e0a510500", "fusion_lat": 0.0, "is_reserved": 0, "lon": -76.98867183333333}, {"type": "electric_scooter", "name": "5980f9ad64e8fc4f7fabdfeccab56b11", "rental_uris": {"ios": "https://dc.lft.to/lastmile_qr_scan", "android": "https://dc.lft.to/lastmile_qr_scan"}, "fusion_lon": 0.0, "lat": 38.903226333333336, "is_disabled": 0, "bike_id": "5980f9ad64e8fc4f7fabdfeccab56b11", "fusion_lat": 0.0, "is_reserved": 0, "lon": -76.97549466666666}, {"type": "electric_bike", "name": "858d013efab569a1f04f28b403a672dc", "rental_uris": {"ios": "https://dc.lft.to/lastmile_qr_scan", "android": "https://dc.lft.to/lastmile_qr_scan"},