{"data": {"bikes": [{"lat": 38.94818716666666, "is_disabled": 0, "type": "electric_scooter", "lon": -76.99903983333333, "bike_id": "e9922616c33b094825f9bd9c69107b5b", "fusion_lat": 0.0, "name": "e9922616c33b094825f9bd9c69107b5b", "is_reserved": 0, "rental_uris": {"android": "https://dc.lft.to/lastmile_qr_scan", "ios": "https://dc.lft.to/lastmile_qr_scan"}, "fusion_lon": 0.0}, {"lat": 38.96226933333333, "is_disabled": 0, "type": "electric_bike", "lon": -77.02624916666667, "bike_id": "5a46008664eec71807d2b84daeffdff2", "fusion_lat": 0.0, "name": "5a46008664eec71807d2b84daeffdff2", "is_reserved": 0, "rental_uris": {"android": "https://dc.lft.to/lastmile_qr_scan", "ios": "https://dc.lft.to/lastmile_qr_scan"}, "fusion_lon": 0.0}, {"lat": 38.9167575, "is_disabled": 0, "type": "electric_scooter", "lon": -77.03198883333333, "bike_id": "1eca05266d9cab6449febab114632839", "fusion_lat": 0.0, "name": "1eca05266d9cab6449febab114632839", "is_reserved": 0, "rental_uris": {"android": "https://dc.lft.to/lastmile_qr_scan", "ios": "https://dc.lft.to/lastmile_qr_scan"}, "fusion_lon": 0.0}, {"lat": 38.92334316666667, "is_disabled": 0, "type": "electric_bike", "lon": -77.03894566666666, "bike_id": "12595d3ac50e683b1e90f21e3a6d5098", "fusion_lat": 0.0, "name": "12595d3ac50e683b1e90f21e3a6d5098", "is_reserved": 0, "rental_uris": {"android": "https://dc.lft.to/lastmile_qr_scan", "ios": "https://dc.lft.to/lastmile_qr_scan"}, "fusion_lon": 0.0}, {"lat": 38.91411383333333, "is_disabled": 0, "type": "electric_scooter", "lon": -77.02221316666666, "bike_id": "363db3d6bf5ae4edd226f3ffb4d42c91", "fusion_lat": 0.0, "name": "363db3d6bf5ae4edd226f3ffb4d42c91", "is_reserved": 0, "rental_uris": {"android": "https://dc.lft.to/lastmile_qr_scan", "ios": "https://dc.lft.to/lastmile_qr_scan"}, "fusion_lon": 0.0}, {"lat": 38.92031633333333, "is_disabled": 0, "type": "electric_scooter", "lon": -77.0418415, "bike_id": "ec136013f4561812bb0fa65c3bcbc284", "fusion_lat": 0.0, "name": "ec136013f4561812bb0fa65c3bcbc284", "is_reserved": 0, "rental_uris": {"android": "https://dc.lft.to/lastmile_qr_scan", "ios": "https://dc.lft.to/lastmile_qr_scan"}, "fusion_lon": 0.0}, {"lat": 38.90392533333333, "is_disabled": 0, "type": "electric_scooter", "lon": -77.0252615, "bike_id": "fa60e7c743595e757379cd9313fdfd9d", "fusion_lat": 0.0, "name": "fa60e7c743595e757379cd9313fdfd9d", "is_reserved": 0, "rental_uris": {"android": "https://dc.lft.to/lastmile_qr_scan", "ios": "https://dc.lft.to/lastmile_qr_scan"}, "fusion_lon": 0.0}, {"lat": 38.93335583333333, "is_disabled": 0, "type": "electric_bike", "lon": -77.04225216666667, "bike_id": "b8d68696871de79762b7c123e589cdc4", "fusion_lat": 0.0, "name": "b8d68696871de79762b7c123e589cdc4", "is_reserved": 0, "rental_uris": {"android": "https://dc.lft.to/lastmile_qr_scan", "ios": "https://dc.lft.to/lastmile_qr_scan"}, "fusion_lon": 0.0}, {"lat": 38.90572133333333, "is_disabled": 0, "type": "electric_scooter", "lon": -77.04659933333333, "bike_id": "be3968c30ce40ac924e552c30fe6f3aa", "fusion_lat": 0.0, "name": "be3968c30ce40ac924e552c30fe6f3aa", "is_reserved": 0, "rental_uris": {"android": "https://dc.lft.to/lastmile_qr_scan", "ios": "https://dc.lft.to/lastmile_qr_scan"}, "fusion_lon": 0.0}, {"lat": 38.897316000000004, "is_disabled": 0, "type": "electric_scooter", "lon": -77.02166283333334, "bike_id": "da7d34c551e32cb92c3c551aafd29967", "fusion_lat": 0.0, "name": "da7d34c551e32cb92c3c551aafd29967", "is_reserved": 0, "rental_uris": {"android": "https://dc.lft.to/lastmile_qr_scan", "ios": "https://dc.lft.to/lastmile_qr_scan"}, "fusion_lon": 0.0}, {"lat": 38.913757, "is_disabled": 0, "type": "electric_scooter", "lon": -77.01997716666666, "bike_id": "792c59569da8a7a80090a2d0c89f509b", "fusion_lat": 0.0, "name": "792c59569da8a7a80090a2d0c89f509b", "is_reserved": 0, "rental_uris": {"android": "https://dc.lft.to/lastmile_qr_scan", "ios": "https://dc.lft.to/lastmile_qr_scan"}, "fusion_lon": 0.0}, {"lat": 38.925528, "is_disabled": 0, "type": "electric_scooter", "lon": -77.03221966666666, "bike_id": "7258f9375c37d3d9bf439c596d027075", "fusion_lat": 0.0, "name": "7258f9375c37d3d9bf439c596d027075", "is_reserved": 0, "rental_uris": {"android": "https://dc.lft.to/lastmile_qr_scan", "ios": "https://dc.lft.to/lastmile_qr_scan"}, "fusion_lon": 0.0}, {"lat": 38.93231, "is_disabled": 0, "type": "electric_scooter", "lon": -77.0388835, "bike_id": "55c493bdb4f247e4f1d2081d05ff7d7e", "fusion_lat": 0.0, "name": "55c493bdb4f247e4f1d2081d05ff7d7e", "is_reserved": 0, "rental_uris": {"android": "https://dc.lft.to/lastmile_qr_scan", "ios": "https://dc.lft.to/lastmile_qr_scan"}, "fusion_lon": 0.0}, {"lat": 38.907124333333336, "is_disabled": 0, "type": "electric_scooter", "lon": -77.00064933333333, "bike_id": "187199de1ee0377c3df63f571b5cb566", "fusion_lat": 0.0, "name": "187199de1ee0377c3df63f571b5cb566", "is_reserved": 0, "rental_uris": {"android": "https://dc.lft.to/lastmile_qr_scan", "ios": "https://dc.lft.to/lastmile_qr_scan"}, "fusion_lon": 0.0}, {"lat": 38.90250833333333, "is_disabled": 0, "type": "electric_scooter", "lon": -77.04359983333333, "bike_id": "03e8b7658e7e1a184a0f3316491854af", "fusion_lat": 0.0, "name": "03e8b7658e7e1a184a0f3316491854af", "is_reserved": 0, "rental_uris": {"android": "https://dc.lft.to/lastmile_qr_scan", "ios": "https://dc.lft.to/lastmile_qr_scan"}, "fusion_lon": 0.0}, {"lat": 38.84429933333333, "is_disabled": 0, "type": "electric_scooter", "lon": -76.99812816666666, "bike_id": "b537df5bb858ef7034b9e24949f96643", "fusion_lat": 0.0, "name": "b537df5bb858ef7034b9e24949f96643", "is_reserved": 0, "rental_uris": {"android": "https://dc.lft.to/lastmile_qr_scan", "ios": "https://dc.lft.to/lastmile_qr_scan"}, "fusion_lon": 0.0}, {"lat": 38.9230745, "is_disabled": 0, "type": "electric_scooter", "lon": -77.04646266666667, "bike_id": "8de57e9650ee36a25e1915689c4a2bf3", "fusion_lat": 0.0, "name": "8de57e9650ee36a25e1915689c4a2bf3", "is_reserved": 0, "rental_uris": {"android": "https://dc.lft.to/lastmile_qr_scan", "ios": "https://dc.lft.to/lastmile_qr_scan"}, "fusion_lon": 0.0}, {"lat": 38.90562466666667, "is_disabled": 0, "type": "electric_scooter", "lon": -76.98133333333334, "bike_id": "9a8c8824692f9cce2dfe26f037a0363a", "fusion_lat": 0.0, "name": "9a8c8824692f9cce2dfe26f037a0363a", "is_reserved": 0, "rental_uris": {"android": "https://dc.lft.to/lastmile_qr_scan", "ios": "https://dc.lft.to/lastmile_qr_scan"}, "fusion_lon": 0.0}, {"lat": 38.854222, "is_disabled": 0, "type": "electric_bike", "lon": -76.90972616666667, "bike_id": "bc1d15f7747ce051bf5d2fc6d1f0972e", "fusion_lat": 0.0, "name": "bc1d15f7747ce051bf5d2fc6d1f0972e", "is_reserved": 0, "rental_uris": {"android": "https://dc.lft.to/lastmile_qr_scan", "ios": "https://dc.lft.to/lastmile_qr_scan"}, "fusion_lon": 0.0}, {"lat": 38.912188, "is_disabled": 0, "type": "electric_scooter", "lon": -77.02799333333333, "bike_id": "1e80ae01271644aa152e5e6ba62d007f", "fusion_lat": 0.0, "name": "1e80ae01271644aa152e5e6ba62d007f", "is_reserved": 0, "rental_uris": {"android": "https://dc.lft.to/lastmile_qr_scan", "ios": "https://dc.lft.to/lastmile_qr_scan"}, "fusion_lon": 0.0}, {"lat": 38.94436416666667, "is_disabled": 0, "type": "electric_scooter", "lon": -77.06346733333334, "bike_id": "9388c3f8302d79890c7b842ee104c367", "fusion_lat": 0.0, "name": "9388c3f8302d79890c7b842ee104c367", "is_reserved": 0, "rental_uris": {"android": "https://dc.lft.to/lastmile_qr_scan", "ios": "https://dc.lft.to/lastmile_qr_scan"}, "fusion_lon": 0.0}, {"lat": 38.918188666666666, "is_disabled": 0, "type": "electric_scooter", "lon": -77.02958816666667, "bike_id": "5ad1b2e64081d288ca22aa931276df75", "fusion_lat": 0.0, "name": "5ad1b2e64081d288ca22aa931276df75", "is_reserved": 0, "rental_uris": {"android": "https://dc.lft.to/lastmile_qr_scan", "ios": "https://dc.lft.to/lastmile_qr_scan"}, "fusion_lon": 0.0}, {"lat": 38.9246695, "is_disabled": 0, "type": "electric_scooter", "lon": -77.05231433333333, "bike_id": "976300bad63fc45f43485e9f396a62e9", "fusion_lat": 0.0, "name": "976300bad63fc45f43485e9f396a62e9", "is_reserved": 0, "rental_uris": {"android": "https://dc.lft.to/lastmile_qr_scan", "ios": "https://dc.lft.to/lastmile_qr_scan"}, "fusion_lon": 0.0}, {"lat": 38.90406516666667, "is_disabled": 0, "type": "electric_scooter", "lon": -77.0506425, "bike_id": "003230b35ce8ac46fbe6b44dfcd1d509", "fusion_lat": 0.0, "name": "003230b35ce8ac46fbe6b44dfcd1d509", "is_reserved": 0, "rental_uris": {"android": "https://dc.lft.to/lastmile_qr_scan", "ios": "https://dc.lft.to/lastmile_qr_scan"}, "fusion_lon": 0.0}, {"lat": 38.90827183333333, "is_disabled": 0, "type": "electric_scooter", "lon": -77.02010016666667, "bike_id": "fd24f818be0761addab80129f3c73d86", "fusion_lat": 0.0, "name": "fd24f818be0761addab80129f3c73d86", "is_reserved": 0, "rental_uris": {"android": "https://dc.lft.to/lastmile_qr_scan", "ios": "https://dc.lft.to/lastmile_qr_scan"}, "fusion_lon": 0.0}, {"lat": 38.885503, "is_disabled": 0, "type": "electric_bike", "lon": -77.11789083333333, "bike_id": "abcb930ba70b6029e93d89d618f0874a", "fusion_lat": 0.0, "name": "abcb930ba70b6029e93d89d618f0874a", "is_reserved": 0, "rental_uris": {"android": "https://dc.lft.to/lastmile_qr_scan", "ios": "https://dc.lft.to/lastmile_qr_scan"}, "fusion_lon": 0.0}, {"lat": 38.903934166666666, "is_disabled": 0, "type": "electric_scooter", "lon": -76.990055, "bike_id": "7229e07a8891d5ec035aa3cff2fd239d", "fusion_lat": 0.0, "name": "7229e07a8891d5ec035aa3cff2fd239d", "is_reserved": 0, "rental_uris": {"android": "https://dc.lft.to/lastmile_qr_scan", "ios": "https://dc.lft.to/lastmile_qr_scan"}, "fusion_lon": 0.0}, {"lat": 38.87717633333333, "is_disabled": 0, "type": "electric_scooter", "lon": -77.01778083333333, "bike_id": "98a8604a622342ec4319e78e327e8e20", "fusion_lat": 0.0, "name": "98a8604a622342ec4319e78e327e8e20", "is_reserved": 0, "rental_uris": {"android": "https://dc.lft.to/lastmile_qr_scan", "ios": "https://dc.lft.to/lastmile_qr_scan"}, "fusion_lon": 0.0}, {"lat": 38.886019166666664, "is_disabled": 0, "type": "electric_scooter", "lon": -77.01889916666667, "bike_id": "6f9292934cfea29043e3223a56c4c2dd", "fusion_lat": 0.0, "name": "6f9292934cfea29043e3223a56c4c2dd", "is_reserved": 0, "rental_uris": {"android": "https://dc.lft.to/lastmile_qr_scan", "ios": "https://dc.lft.to/lastmile_qr_scan"}, "fusion_lon": 0.0}, {"lat": 38.94821366666667, "is_disabled": 0, "type": "electric_scooter", "lon": -76.9990435, "bike_id": "651ee55a24136a2845cb028101280901", "fusion_lat": 0.0, "name": "651ee55a24136a2845cb028101280901", "is_reserved": 0, "rental_uris": {"android": "https://dc.lft.to/lastmile_qr_scan", "ios": "https://dc.lft.to/lastmile_qr_scan"}, "fusion_lon": 0.0}, {"lat": 38.92212283333333, "is_disabled": 0, "type": "electric_bike", "lon": -77.081897, "bike_id": "33ad0b9e7fcb173ec651dae682ef869e", "fusion_lat": 0.0, "name": "33ad0b9e7fcb173ec651dae682ef869e", "is_reserved": 0, "rental_uris": {"android": "https://dc.lft.to/lastmile_qr_scan", "ios": "https://dc.lft.to/lastmile_qr_scan"}, "fusion_lon": 0.0}, {"lat": 38.8949685, "is_disabled": 0, "type": "electric_scooter", "lon": -77.02190516666667, "bike_id": "04e41784faa32198ca5751eb78d3dbab", "fusion_lat": 0.0, "name": "04e41784faa32198ca5751eb78d3dbab", "is_reserved": 0, "rental_uris": {"android": "https://dc.lft.to/lastmile_qr_scan", "ios": "https://dc.lft.to/lastmile_qr_scan"}, "fusion_lon": 0.0}, {"lat": 38.9062515, "is_disabled": 0, "type": "electric_bike", "lon": -76.98609616666667, "bike_id": "94d634f84e393db74c41212aa3835ac1", "fusion_lat": 0.0, "name": "94d634f84e393db74c41212aa3835ac1", "is_reserved": 0, "rental_uris": {"android": "https://dc.lft.to/lastmile_qr_scan", "ios": "https://dc.lft.to/lastmile_qr_scan"}, "fusion_lon": 0.0}, {"lat": 38.91962, "is_disabled": 0, "type": "electric_scooter", "lon": -77.01436333333334, "bike_id": "6b90349fe5e233a7a90df78da5756374", "fusion_lat": 0.0, "name": "6b90349fe5e233a7a90df78da5756374", "is_reserved": 0, "rental_uris": {"android": "https://dc.lft.to/lastmile_qr_scan", "ios": "https://dc.lft.to/lastmile_qr_scan"}, "fusion_lon": 0.0}, {"lat": 38.8867605, "is_disabled": 0, "type": "electric_bike", "lon": -77.162416, "bike_id": "8aba0aee44ab47abd1e12f46848ad2de", "fusion_lat": 0.0, "name": "8aba0aee44ab47abd1e12f46848ad2de", "is_reserved": 0, "rental_uris": {"android": "https://dc.lft.to/lastmile_qr_scan", "ios": "https://dc.lft.to/lastmile_qr_scan"}, "fusion_lon": 0.0}, {"lat": 38.866179333333335, "is_disabled": 0, "type": "electric_scooter", "lon": -76.98660983333333, "bike_id": "3db582eff4dff279903e50e04d4f6eda", "fusion_lat": 0.0, "name": "3db582eff4dff279903e50e04d4f6eda", "is_reserved": 0, "rental_uris": {"android": "https://dc.lft.to/lastmile_qr_scan", "ios": "https://dc.lft.to/lastmile_qr_scan"}, "fusion_lon": 0.0}, {"lat": 38.9360745, "is_disabled": 0, "type": "electric_scooter", "lon": -77.05856466666667, "bike_id": "32cc41e6222dff5927e241dc9b165486", "fusion_lat": 0.0, "name": "32cc41e6222dff5927e241dc9b165486", "is_reserved": 0, "rental_uris": {"android": "https://dc.lft.to/lastmile_qr_scan", "ios": "https://dc.lft.to/lastmile_qr_scan"}, "fusion_lon": 0.0}, {"lat": 38.9235345, "is_disabled": 0, "type": "electric_scooter", "lon": -77.05018683333333, "bike_id": "aa124f46ad0e86ebd9757834987bff39", "fusion_lat": 0.0, "name": "aa124f46ad0e86ebd9757834987bff39", "is_reserved": 0, "rental_uris": {"android": "https://dc.lft.to/lastmile_qr_scan", "ios": "https://dc.lft.to/lastmile_qr_scan"}, "fusion_lon": 0.0}, {"lat": 38.950794333333334, "is_disabled": 0, "type": "electric_bike", "lon": -77.01194433333333, "bike_id": "9a4f5b5edd662543e7ccea68ff6b319a", "fusion_lat": 0.0, "name": "9a4f5b5edd662543e7ccea68ff6b319a", "is_reserved": 0, "rental_uris": {"android": "https://dc.lft.to/lastmile_qr_scan", "ios": "https://dc.lft.to/lastmile_qr_scan"}, "fusion_lon": 0.0}, {"lat": 38.91815283333333, "is_disabled": 0, "type": "electric_scooter", "lon": -77.03667583333333, "bike_id": "df90dcf3b6d1409f9bb7367a82c5ba58", "fusion_lat": 0.0, "name": "df90dcf3b6d1409f9bb7367a82c5ba58", "is_reserved": 0, "rental_uris": {"android": "https://dc.lft.to/lastmile_qr_scan", "ios": "https://dc.lft.to/lastmile_qr_scan"}, "fusion_lon": 0.0}, {"lat": 38.92077333333334, "is_disabled": 0, "type": "electric_scooter", "lon": -77.02391933333334, "bike_id": "b14844a58c1de512375dbd12afe65a07", "fusion_lat": 0.0, "name": "b14844a58c1de512375dbd12afe65a07", "is_reserved": 0, "rental_uris": {"android": "https://dc.lft.to/lastmile_qr_scan", "ios": "https://dc.lft.to/lastmile_qr_scan"}, "fusion_lon": 0.0}, {"lat": 38.902401166666664, "is_disabled": 0, "type": "electric_scooter", "lon": -77.06262483333333, "bike_id": "0a9868d643fb6c411b2614d97fe0bcd1", "fusion_lat": 0.0, "name": "0a9868d643fb6c411b2614d97fe0bcd1", "is_reserved": 0, "rental_uris": {"android": "https://dc.lft.to/lastmile_qr_scan", "ios": "https://dc.lft.to/lastmile_qr_scan"}, "fusion_lon": 0.0}, {"lat": 38.902834666666664, "is_disabled": 0, "type": "electric_scooter", "lon": -77.04033816666667, "bike_id": "3612e5365cc987e015ed6a5a997f0077", "fusion_lat": 0.0, "name": "3612e5365cc987e015ed6a5a997f0077", "is_reserved": 0, "rental_uris": {"android": "https://dc.lft.to/lastmile_qr_scan", "ios": "https://dc.lft.to/lastmile_qr_scan"}, "fusion_lon": 0.0}, {"lat": 38.935737333333336, "is_disabled": 0, "type": "electric_scooter", "lon": -77.03751683333333, "bike_id": "9fe2ccad6aadd6f74a6ba2c924248e1b", "fusion_lat": 0.0, "name": "9fe2ccad6aadd6f74a6ba2c924248e1b", "is_reserved": 0, "rental_uris": {"android": "https://dc.lft.to/lastmile_qr_scan", "ios": "https://dc.lft.to/lastmile_qr_scan"}, "fusion_lon": 0.0}, {"lat": 38.91112966666667, "is_disabled": 0, "type": "electric_scooter", "lon": -77.03864266666666, "bike_id": "79805b07aa63d90fd156d11fe4e0f6c5", "fusion_lat": 0.0, "name": "79805b07aa63d90fd156d11fe4e0f6c5", "is_reserved": 0, "rental_uris": {"android": "https://dc.lft.to/lastmile_qr_scan", "ios": "https://dc.lft.to/lastmile_qr_scan"}, "fusion_lon": 0.0}, {"lat": 38.8942925, "is_disabled": 0, "type": "electric_scooter", "lon": -77.02094066666666, "bike_id": "89999ff84429cfd5ae755f2c57051e9b", "fusion_lat": 0.0, "name": "89999ff84429cfd5ae755f2c57051e9b", "is_reserved": 0, "rental_uris": {"android": "https://dc.lft.to/lastmile_qr_scan", "ios": "https://dc.lft.to/lastmile_qr_scan"}, "fusion_lon": 0.0}, {"lat": 38.94653316666667, "is_disabled": 0, "type": "electric_scooter", "lon": -77.03650866666666, "bike_id": "6468610c9302d9265a650e4c625dc7dc", "fusion_lat": 0.0, "name": "6468610c9302d9265a650e4c625dc7dc", "is_reserved": 0, "rental_uris": {"android": "https://dc.lft.to/lastmile_qr_scan", "ios": "https://dc.lft.to/lastmile_qr_scan"}, "fusion_lon": 0.0}, {"lat": 38.88265416666667, "is_disabled": 0, "type": "electric_bike", "lon": -76.932383, "bike_id": "11986eef12f5b35de67c289871ffab6f", "fusion_lat": 0.0, "name": "11986eef12f5b35de67c289871ffab6f", "is_reserved": 0, "rental_uris": {"android": "https://dc.lft.to/lastmile_qr_scan", "ios": "https://dc.lft.to/lastmile_qr_scan"}, "fusion_lon": 0.0}, {"lat": 38.906220166666664, "is_disabled": 0, "type": "electric_scooter", "lon": -77.021791, "bike_id": "ed7a0bd1ff2f09cba4a3fb554d400beb", "fusion_lat": 0.0, "name": "ed7a0bd1ff2f09cba4a3fb554d400beb", "is_reserved": 0, "rental_uris": {"android": "https://dc.lft.to/lastmile_qr_scan", "ios": "https://dc.lft.to/lastmile_qr_scan"}, "fusion_lon": 0.0}, {"lat": 38.91551366666667, "is_disabled": 0, "type": "electric_scooter", "lon": -77.0417575, "bike_id": "51b68b32a5c1707d72183f94de14f95f", "fusion_lat": 0.0, "name": "51b68b32a5c1707d72183f94de14f95f", "is_reserved": 0, "rental_uris": {"android": "https://dc.lft.to/lastmile_qr_scan", "ios": "https://dc.lft.to/lastmile_qr_scan"}, "fusion_lon": 0.0}, {"lat": 38.907051833333334, "is_disabled": 0, "type": "electric_scooter", "lon": -77.00336616666667, "bike_id": "a4b7400c83ceb5cc3e71df9bda7422f8", "fusion_lat": 0.0, "name": "a4b7400c83ceb5cc3e71df9bda7422f8", "is_reserved": 0, "rental_uris": {"android": "https://dc.lft.to/lastmile_qr_scan", "ios": "https://dc.lft.to/lastmile_qr_scan"}, "fusion_lon": 0.0}, {"lat": 38.933317333333335, "is_disabled": 0, "type": "electric_bike", "lon": -77.0398425, "bike_id": "bca2905ec4d0df61436da8febd8a9e5a", "fusion_lat": 0.0, "name": "bca2905ec4d0df61436da8febd8a9e5a", "is_reserved": 0, "rental_uris": {"android": "https://dc.lft.to/lastmile_qr_scan", "ios": "https://dc.lft.to/lastmile_qr_scan"}, "fusion_lon": 0.0}, {"lat": 38.917070333333335, "is_disabled": 0, "type": "electric_scooter", "lon": -77.02384516666666, "bike_id": "d392f992d34a54d7281b0c5187f10ae1", "fusion_lat": 0.0, "name": "d392f992d34a54d7281b0c5187f10ae1", "is_reserved": 0, "rental_uris": {"android": "https://dc.lft.to/lastmile_qr_scan", "ios": "https://dc.lft.to/lastmile_qr_scan"}, "fusion_lon": 0.0}, {"lat": 38.862109833333335, "is_disabled": 0, "type": "electric_bike", "lon": -76.99777733333333, "bike_id": "68c85a65398752696b3d02ed32b90348", "fusion_lat": 0.0, "name": "68c85a65398752696b3d02ed32b90348", "is_reserved": 0, "rental_uris": {"android": "https://dc.lft.to/lastmile_qr_scan", "ios": "https://dc.lft.to/lastmile_qr_scan"}, "fusion_lon": 0.0}, {"lat": 38.91688366666666, "is_disabled": 0, "type": "electric_scooter", "lon": -77.02969666666667, "bike_id": "b953eeee7e430d301643e55395b24dfe", "fusion_lat": 0.0, "name": "b953eeee7e430d301643e55395b24dfe", "is_reserved": 0, "rental_uris": {"android": "https://dc.lft.to/lastmile_qr_scan", "ios": "https://dc.lft.to/lastmile_qr_scan"}, "fusion_lon": 0.0}, {"lat": 38.92814683333334, "is_disabled": 0, "type": "electric_scooter", "lon": -77.02873883333334, "bike_id": "b2c2d7406e8055e1a17eab739eebaa2d", "fusion_lat": 0.0, "name": "b2c2d7406e8055e1a17eab739eebaa2d", "is_reserved": 0, "rental_uris": {"android": "https://dc.lft.to/lastmile_qr_scan", "ios": "https://dc.lft.to/lastmile_qr_scan"}, "fusion_lon": 0.0}, {"lat": 38.870642833333335, "is_disabled": 0, "type": "electric_scooter", "lon": -77.00837683333333, "bike_id": "904c30e53eb02a18e34ef3d1578de3ac", "fusion_lat": 0.0, "name": "904c30e53eb02a18e34ef3d1578de3ac", "is_reserved": 0, "rental_uris": {"android": "https://dc.lft.to/lastmile_qr_scan", "ios": "https://dc.lft.to/lastmile_qr_scan"}, "fusion_lon": 0.0}, {"lat": 38.91924, "is_disabled": 0, "type": "electric_scooter", "lon": -77.0342915, "bike_id": "74a8eb6edd07382e19086ce337173cbb", "fusion_lat": 0.0, "name": "74a8eb6edd07382e19086ce337173cbb", "is_reserved": 0, "rental_uris": {"android": "https://dc.lft.to/lastmile_qr_scan", "ios": "https://dc.lft.to/lastmile_qr_scan"}, "fusion_lon": 0.0}, {"lat": 38.866753833333334, "is_disabled": 0, "type": "electric_scooter", "lon": -76.9853815, "bike_id": "b04d59c9c074945dbf13cbc6ae3b128c", "fusion_lat": 0.0, "name": "b04d59c9c074945dbf13cbc6ae3b128c", "is_reserved": 0, "rental_uris": {"android": "https://dc.lft.to/lastmile_qr_scan", "ios": "https://dc.lft.to/lastmile_qr_scan"}, "fusion_lon": 0.0}, {"lat": 38.89220483333333, "is_disabled": 0, "type": "electric_scooter", "lon": -77.023156, "bike_id": "6db17493739f66ba133b0e646553eb07", "fusion_lat": 0.0, "name": "6db17493739f66ba133b0e646553eb07", "is_reserved": 0, "rental_uris": {"android": "https://dc.lft.to/lastmile_qr_scan", "ios": "https://dc.lft.to/lastmile_qr_scan"}, "fusion_lon": 0.0}, {"lat": 38.94461483333333, "is_disabled": 0, "type": "electric_scooter", "lon": -77.00655783333333, "bike_id": "b42c2137d6669f837f859420c395ede1", "fusion_lat": 0.0, "name": "b42c2137d6669f837f859420c395ede1", "is_reserved": 0, "rental_uris": {"android": "https://dc.lft.to/lastmile_qr_scan", "ios": "https://dc.lft.to/lastmile_qr_scan"}, "fusion_lon": 0.0}, {"lat": 38.90545733333333, "is_disabled": 0, "type": "electric_scooter", "lon": -77.00702916666667, "bike_id": "81d8e1b2f49e68fd6054c76557830184", "fusion_lat": 0.0, "name": "81d8e1b2f49e68fd6054c76557830184", "is_reserved": 0, "rental_uris": {"android": "https://dc.lft.to/lastmile_qr_scan", "ios": "https://dc.lft.to/lastmile_qr_scan"}, "fusion_lon": 0.0}, {"lat": 38.90233633333333, "is_disabled": 0, "type": "electric_scooter", "lon": -77.00200766666667, "bike_id": "3b2ef35e92b4a0742a6e1bc735955fe7", "fusion_lat": 0.0, "name": "3b2ef35e92b4a0742a6e1bc735955fe7", "is_reserved": 0, "rental_uris": {"android": "https://dc.lft.to/lastmile_qr_scan", "ios": "https://dc.lft.to/lastmile_qr_scan"}, "fusion_lon": 0.0}, {"lat": 38.891761, "is_disabled": 0, "type": "electric_scooter", "lon": -77.032066, "bike_id": "244e19a76aa67abe5c2d6a518ef43949", "fusion_lat": 0.0, "name": "244e19a76aa67abe5c2d6a518ef43949", "is_reserved": 0, "rental_uris": {"android": "https://dc.lft.to/lastmile_qr_scan", "ios": "https://dc.lft.to/lastmile_qr_scan"}, "fusion_lon": 0.0}, {"lat": 38.91002683333333, "is_disabled": 0, "type": "electric_scooter", "lon": -77.030914, "bike_id": "ae70f126d279e1d58f95b743fb340fc7", "fusion_lat": 0.0, "name": "ae70f126d279e1d58f95b743fb340fc7", "is_reserved": 0, "rental_uris": {"android": "https://dc.lft.to/lastmile_qr_scan", "ios": "https://dc.lft.to/lastmile_qr_scan"}, "fusion_lon": 0.0}, {"lat": 38.92073283333333, "is_disabled": 0, "type": "electric_scooter", "lon": -77.0251725, "bike_id": "6c915a52ec75d4b906a943267842375b", "fusion_lat": 0.0, "name": "6c915a52ec75d4b906a943267842375b", "is_reserved": 0, "rental_uris": {"android": "https://dc.lft.to/lastmile_qr_scan", "ios": "https://dc.lft.to/lastmile_qr_scan"}, "fusion_lon": 0.0}, {"lat": 38.85721733333333, "is_disabled": 0, "type": "electric_bike", "lon": -76.971136, "bike_id": "b06137e551e4df12ea3da604139d37e1", "fusion_lat": 0.0, "name": "b06137e551e4df12ea3da604139d37e1", "is_reserved": 0, "rental_uris": {"android": "https://dc.lft.to/lastmile_qr_scan", "ios": "https://dc.lft.to/lastmile_qr_scan"}, "fusion_lon": 0.0}, {"lat": 38.920515, "is_disabled": 0, "type": "electric_scooter", "lon": -77.03401983333333, "bike_id": "d34064b21b2d70e82173152285d36a37", "fusion_lat": 0.0, "name": "d34064b21b2d70e82173152285d36a37", "is_reserved": 0, "rental_uris": {"android": "https://dc.lft.to/lastmile_qr_scan", "ios": "https://dc.lft.to/lastmile_qr_scan"}, "fusion_lon": 0.0}, {"lat": 38.922486166666665, "is_disabled": 0, "type": "electric_scooter", "lon": -77.030083, "bike_id": "f53861bbfc4f8c31d87fa5d782782549", "fusion_lat": 0.0, "name": "f53861bbfc4f8c31d87fa5d782782549", "is_reserved": 0, "rental_uris": {"android": "https://dc.lft.to/lastmile_qr_scan", "ios": "https://dc.lft.to/lastmile_qr_scan"}, "fusion_lon": 0.0}, {"lat": 38.9297265, "is_disabled": 0, "type": "electric_scooter", "lon": -77.01301316666667, "bike_id": "a6e0ab1c4d01d31d5b263e3f9b0e1fa4", "fusion_lat": 0.0, "name": "a6e0ab1c4d01d31d5b263e3f9b0e1fa4", "is_reserved": 0, "rental_uris": {"android": "https://dc.lft.to/lastmile_qr_scan", "ios": "https://dc.lft.to/lastmile_qr_scan"}, "fusion_lon": 0.0}, {"lat": 38.918752, "is_disabled": 0, "type": "electric_scooter", "lon": -77.03506716666666, "bike_id": "944ceb72b9617e61a98d50326a772277", "fusion_lat": 0.0, "name": "944ceb72b9617e61a98d50326a772277", "is_reserved": 0, "rental_uris": {"android": "https://dc.lft.to/lastmile_qr_scan", "ios": "https://dc.lft.to/lastmile_qr_scan"}, "fusion_lon": 0.0}, {"lat": 38.906381, "is_disabled": 0, "type": "electric_scooter", "lon": -77.011377, "bike_id": "ee256045fe64c3fd2f5d2a3238ebeda7", "fusion_lat": 0.0, "name": "ee256045fe64c3fd2f5d2a3238ebeda7", "is_reserved": 0, "rental_uris": {"android": "https://dc.lft.to/lastmile_qr_scan", "ios": "https://dc.lft.to/lastmile_qr_scan"}, "fusion_lon": 0.0}, {"lat": 38.91100433333333, "is_disabled": 0, "type": "electric_scooter", "lon": -77.04206966666666, "bike_id": "3d483e3a44e139d4b600d6c910176673", "fusion_lat": 0.0, "name": "3d483e3a44e139d4b600d6c910176673", "is_reserved": 0, "rental_uris": {"android": "https://dc.lft.to/lastmile_qr_scan", "ios": "https://dc.lft.to/lastmile_qr_scan"}, "fusion_lon": 0.0}, {"lat": 38.96131, "is_disabled": 0, "type": "electric_scooter", "lon": -77.02234383333334, "bike_id": "9bfcdde480c2c40531015c4376c7f618", "fusion_lat": 0.0, "name": "9bfcdde480c2c40531015c4376c7f618", "is_reserved": 0, "rental_uris": {"android": "https://dc.lft.to/lastmile_qr_scan", "ios": "https://dc.lft.to/lastmile_qr_scan"}, "fusion_lon": 0.0}, {"lat": 38.9305985, "is_disabled": 0, "type": "electric_bike", "lon": -77.0230055, "bike_id": "e2e65c00254c6b0a3a96b45c59482a96", "fusion_lat": 0.0, "name": "e2e65c00254c6b0a3a96b45c59482a96", "is_reserved": 0, "rental_uris": {"android": "https://dc.lft.to/lastmile_qr_scan", "ios": "https://dc.lft.to/lastmile_qr_scan"}, "fusion_lon": 0.0}, {"lat": 38.922891166666666, "is_disabled": 0, "type": "electric_scooter", "lon": -77.04257233333334, "bike_id": "d6f87d6b233459140a9b9e480ce6a12a", "fusion_lat": 0.0, "name": "d6f87d6b233459140a9b9e480ce6a12a", "is_reserved": 0, "rental_uris": {"android": "https://dc.lft.to/lastmile_qr_scan", "ios": "https://dc.lft.to/lastmile_qr_scan"}, "fusion_lon": 0.0}, {"lat": 38.87145783333333, "is_disabled": 0, "type": "electric_bike", "lon": -76.937058, "bike_id": "578f9fae1160e414abc2c8dc2aa20bd1", "fusion_lat": 0.0, "name": "578f9fae1160e414abc2c8dc2aa20bd1", "is_reserved": 0, "rental_uris": {"android": "https://dc.lft.to/lastmile_qr_scan", "ios": "https://dc.lft.to/lastmile_qr_scan"}, "fusion_lon": 0.0}, {"lat": 38.933561166666664, "is_disabled": 0, "type": "electric_bike", "lon": -77.09961383333334, "bike_id": "e319a49643ec3661d0321c9d9ca5cd8a", "fusion_lat": 0.0, "name": "e319a49643ec3661d0321c9d9ca5cd8a", "is_reserved": 0, "rental_uris": {"android": "https://dc.lft.to/lastmile_qr_scan", "ios": "https://dc.lft.to/lastmile_qr_scan"}, "fusion_lon": 0.0}, {"lat": 38.960885833333336, "is_disabled": 0, "type": "electric_bike", "lon": -76.99502150000001, "bike_id": "210f8abb248a98cb4767c393ddbac1b6", "fusion_lat": 0.0, "name": "210f8abb248a98cb4767c393ddbac1b6", "is_reserved": 0, "rental_uris": {"android": "https://dc.lft.to/lastmile_qr_scan", "ios": "https://dc.lft.to/lastmile_qr_scan"}, "fusion_lon": 0.0}, {"lat": 38.903604, "is_disabled": 0, "type": "electric_scooter", "lon": -77.0446705, "bike_id": "ced7fc5c8846b56fd2b9e56c1b8f4505", "fusion_lat": 0.0, "name": "ced7fc5c8846b56fd2b9e56c1b8f4505", "is_reserved": 0, "rental_uris": {"android": "https://dc.lft.to/lastmile_qr_scan", "ios": "https://dc.lft.to/lastmile_qr_scan"}, "fusion_lon": 0.0}, {"lat": 38.9192905, "is_disabled": 0, "type": "electric_scooter", "lon": -77.0319015, "bike_id": "bb3fb6c77571afb8ce91b337cc452aff", "fusion_lat": 0.0, "name": "bb3fb6c77571afb8ce91b337cc452aff", "is_reserved": 0, "rental_uris": {"android": "https://dc.lft.to/lastmile_qr_scan", "ios": "https://dc.lft.to/lastmile_qr_scan"}, "fusion_lon": 0.0}, {"lat": 38.902645, "is_disabled": 0, "type": "electric_scooter", "lon": -77.039657, "bike_id": "3479b90f4491e79d63d7ea46913b295e", "fusion_lat": 0.0, "name": "3479b90f4491e79d63d7ea46913b295e", "is_reserved": 0, "rental_uris": {"android": "https://dc.lft.to/lastmile_qr_scan", "ios": "https://dc.lft.to/lastmile_qr_scan"}, "fusion_lon": 0.0}, {"lat": 38.9168255, "is_disabled": 0, "type": "electric_scooter", "lon": -77.01219433333333, "bike_id": "6d3b73827d1fc97cd789af66ec5c8be8", "fusion_lat": 0.0, "name": "6d3b73827d1fc97cd789af66ec5c8be8", "is_reserved": 0, "rental_uris": {"android": "https://dc.lft.to/lastmile_qr_scan", "ios": "https://dc.lft.to/lastmile_qr_scan"}, "fusion_lon": 0.0}, {"lat": 38.8814725, "is_disabled": 0, "type": "electric_scooter", "lon": -77.02741483333334, "bike_id": "b596dadb88ad6f5cbe10c956d0c8d4e0", "fusion_lat": 0.0, "name": "b596dadb88ad6f5cbe10c956d0c8d4e0", "is_reserved": 0, "rental_uris": {"android": "https://dc.lft.to/lastmile_qr_scan", "ios": "https://dc.lft.to/lastmile_qr_scan"}, "fusion_lon": 0.0}, {"lat": 38.90063833333333, "is_disabled": 0, "type": "electric_scooter", "lon": -77.00217083333334, "bike_id": "0c39d278a063b0d2731d8392932c23ff", "fusion_lat": 0.0, "name": "0c39d278a063b0d2731d8392932c23ff", "is_reserved": 0, "rental_uris": {"android": "https://dc.lft.to/lastmile_qr_scan", "ios": "https://dc.lft.to/lastmile_qr_scan"}, "fusion_lon": 0.0}, {"lat": 38.921634166666664, "is_disabled": 0, "type": "electric_scooter", "lon": -77.020889, "bike_id": "4669a58c195e9d10ec2f9a802ccabdbe", "fusion_lat": 0.0, "name": "4669a58c195e9d10ec2f9a802ccabdbe", "is_reserved": 0, "rental_uris": {"android": "https://dc.lft.to/lastmile_qr_scan", "ios": "https://dc.lft.to/lastmile_qr_scan"}, "fusion_lon": 0.0}, {"lat": 38.90733483333333, "is_disabled": 0, "type": "electric_scooter", "lon": -77.03471916666666, "bike_id": "bed83d92c0ea410d6ac6048fe1c0ba85", "fusion_lat": 0.0, "name": "bed83d92c0ea410d6ac6048fe1c0ba85", "is_reserved": 0, "rental_uris": {"android": "https://dc.lft.to/lastmile_qr_scan", "ios": "https://dc.lft.to/lastmile_qr_scan"}, "fusion_lon": 0.0}, {"lat": 38.910086, "is_disabled": 0, "type": "electric_scooter", "lon": -77.02194466666667, "bike_id": "5480c314ac82a38a5db02ef6d005eb93", "fusion_lat": 0.0, "name": "5480c314ac82a38a5db02ef6d005eb93", "is_reserved": 0, "rental_uris": {"android": "https://dc.lft.to/lastmile_qr_scan", "ios": "https://dc.lft.to/lastmile_qr_scan"}, "fusion_lon": 0.0}, {"lat": 38.912967, "is_disabled": 0, "type": "electric_scooter", "lon": -77.0238885, "bike_id": "57886a9e500f01b30516a16f27900efd", "fusion_lat": 0.0, "name": "57886a9e500f01b30516a16f27900efd", "is_reserved": 0, "rental_uris": {"android": "https://dc.lft.to/lastmile_qr_scan", "ios": "https://dc.lft.to/lastmile_qr_scan"}, "fusion_lon": 0.0}, {"lat": 38.90079266666667, "is_disabled": 0, "type": "electric_scooter", "lon": -77.050442, "bike_id": "07d184883d58318485971cb9eb0c2898", "fusion_lat": 0.0, "name": "07d184883d58318485971cb9eb0c2898", "is_reserved": 0, "rental_uris": {"android": "https://dc.lft.to/lastmile_qr_scan", "ios": "https://dc.lft.to/lastmile_qr_scan"}, "fusion_lon": 0.0}, {"lat": 38.93669383333334, "is_disabled": 0, "type": "electric_scooter", "lon": -77.02450966666666, "bike_id": "8e6dbe6f0adf7c89795b84d321ea6a22", "fusion_lat": 0.0, "name": "8e6dbe6f0adf7c89795b84d321ea6a22", "is_reserved": 0, "rental_uris": {"android": "https://dc.lft.to/lastmile_qr_scan", "ios": "https://dc.lft.to/lastmile_qr_scan"}, "fusion_lon": 0.0}, {"lat": 38.918634, "is_disabled": 0, "type": "electric_scooter", "lon": -77.03163333333333, "bike_id": "2e18ca32ab5419263e9d946307f8e2b7", "fusion_lat": 0.0, "name": "2e18ca32ab5419263e9d946307f8e2b7", "is_reserved": 0, "rental_uris": {"android": "https://dc.lft.to/lastmile_qr_scan", "ios": "https://dc.lft.to/lastmile_qr_scan"}, "fusion_lon": 0.0}, {"lat": 38.90783016666666, "is_disabled": 0, "type": "electric_scooter", "lon": -77.04477333333334, "bike_id": "b2f3c6a4102283304ab7d0b4e2a9336b", "fusion_lat": 0.0, "name": "b2f3c6a4102283304ab7d0b4e2a9336b", "is_reserved": 0, "rental_uris": {"android": "https://dc.lft.to/lastmile_qr_scan", "ios": "https://dc.lft.to/lastmile_qr_scan"}, "fusion_lon": 0.0}, {"lat": 38.93530533333333, "is_disabled": 0, "type": "electric_scooter", "lon": -77.032591, "bike_id": "6df254df230e99447bf0c76588e5bc66", "fusion_lat": 0.0, "name": "6df254df230e99447bf0c76588e5bc66", "is_reserved": 0, "rental_uris": {"android": "https://dc.lft.to/lastmile_qr_scan", "ios": "https://dc.lft.to/lastmile_qr_scan"}, "fusion_lon": 0.0}, {"lat": 38.89221083333333, "is_disabled": 0, "type": "electric_scooter", "lon": -77.023168, "bike_id": "8c98790a45308e113c64594e7700c711", "fusion_lat": 0.0, "name": "8c98790a45308e113c64594e7700c711", "is_reserved": 0, "rental_uris": {"android": "https://dc.lft.to/lastmile_qr_scan", "ios": "https://dc.lft.to/lastmile_qr_scan"}, "fusion_lon": 0.0}, {"lat": 38.930844666666665, "is_disabled": 0, "type": "electric_scooter", "lon": -77.037556, "bike_id": "49ab6204ee58524053dea749fd5edaf3", "fusion_lat": 0.0, "name": "49ab6204ee58524053dea749fd5edaf3", "is_reserved": 0, "rental_uris": {"android": "https://dc.lft.to/lastmile_qr_scan", "ios": "https://dc.lft.to/lastmile_qr_scan"}, "fusion_lon": 0.0}, {"lat": 38.90851633333333, "is_disabled": 0, "type": "electric_scooter", "lon": -77.04355733333334, "bike_id": "78644db0251ec7082844ca8dd7eddbde", "fusion_lat": 0.0, "name": "78644db0251ec7082844ca8dd7eddbde", "is_reserved": 0, "rental_uris": {"android": "https://dc.lft.to/lastmile_qr_scan", "ios": "https://dc.lft.to/lastmile_qr_scan"}, "fusion_lon": 0.0}, {"lat": 38.91716816666667, "is_disabled": 0, "type": "electric_scooter", "lon": -77.03837666666666, "bike_id": "c0df17d5d029065bd957b1d229696ffd", "fusion_lat": 0.0, "name": "c0df17d5d029065bd957b1d229696ffd", "is_reserved": 0, "rental_uris": {"android": "https://dc.lft.to/lastmile_qr_scan", "ios": "https://dc.lft.to/lastmile_qr_scan"}, "fusion_lon": 0.0}, {"lat": 38.927398333333336, "is_disabled": 0, "type": "electric_scooter", "lon": -77.03419966666667, "bike_id": "4f4b5f59fc8102d5694fdc40bfeb9cc3", "fusion_lat": 0.0, "name": "4f4b5f59fc8102d5694fdc40bfeb9cc3", "is_reserved": 0, "rental_uris": {"android": "https://dc.lft.to/lastmile_qr_scan", "ios": "https://dc.lft.to/lastmile_qr_scan"}, "fusion_lon": 0.0}, {"lat": 38.91194, "is_disabled": 0, "type": "electric_scooter", "lon": -77.03424083333333, "bike_id": "02b6c6fe7488a1e7d4f46a24c49a03c1", "fusion_lat": 0.0, "name": "02b6c6fe7488a1e7d4f46a24c49a03c1", "is_reserved": 0, "rental_uris": {"android": "https://dc.lft.to/lastmile_qr_scan", "ios": "https://dc.lft.to/lastmile_qr_scan"}, "fusion_lon": 0.0}, {"lat": 38.916935333333335, "is_disabled": 0, "type": "electric_scooter", "lon": -77.02762283333334, "bike_id": "78ab7d0131fff43b1fd18b8c52846379", "fusion_lat": 0.0, "name": "78ab7d0131fff43b1fd18b8c52846379", "is_reserved": 0, "rental_uris": {"android": "https://dc.lft.to/lastmile_qr_scan", "ios": "https://dc.lft.to/lastmile_qr_scan"}, "fusion_lon": 0.0}, {"lat": 38.892495, "is_disabled": 0, "type": "electric_scooter", "lon": -77.03955216666667, "bike_id": "660ceb978dd9fd8aeb726c2ab3af899e", "fusion_lat": 0.0, "name": "660ceb978dd9fd8aeb726c2ab3af899e", "is_reserved": 0, "rental_uris": {"android": "https://dc.lft.to/lastmile_qr_scan", "ios": "https://dc.lft.to/lastmile_qr_scan"}, "fusion_lon": 0.0}, {"lat": 38.922852, "is_disabled": 0, "type": "electric_scooter", "lon": -77.02961933333333, "bike_id": "95d393467664649a08110172a3185807", "fusion_lat": 0.0, "name": "95d393467664649a08110172a3185807", "is_reserved": 0, "rental_uris": {"android": "https://dc.lft.to/lastmile_qr_scan", "ios": "https://dc.lft.to/lastmile_qr_scan"}, "fusion_lon": 0.0}, {"lat": 38.954915666666665, "is_disabled": 0, "type": "electric_scooter", "lon": -77.0656, "bike_id": "11fcb93ee9c5cd39fd5847593adcb4ab", "fusion_lat": 0.0, "name": "11fcb93ee9c5cd39fd5847593adcb4ab", "is_reserved": 0, "rental_uris": {"android": "https://dc.lft.to/lastmile_qr_scan", "ios": "https://dc.lft.to/lastmile_qr_scan"}, "fusion_lon": 0.0}, {"lat": 38.863699, "is_disabled": 0, "type": "electric_scooter", "lon": -76.99031433333333, "bike_id": "41643ac975f632a307c2e29b65c54d29", "fusion_lat": 0.0, "name": "41643ac975f632a307c2e29b65c54d29", "is_reserved": 0, "rental_uris": {"android": "https://dc.lft.to/lastmile_qr_scan", "ios": "https://dc.lft.to/lastmile_qr_scan"}, "fusion_lon": 0.0}, {"lat": 38.94137766666667, "is_disabled": 0, "type": "electric_bike", "lon": -77.03280166666667, "bike_id": "8df356ad51338a4e78bc7712dccbe3f1", "fusion_lat": 0.0, "name": "8df356ad51338a4e78bc7712dccbe3f1", "is_reserved": 0, "rental_uris": {"android": "https://dc.lft.to/lastmile_qr_scan", "ios": "https://dc.lft.to/lastmile_qr_scan"}, "fusion_lon": 0.0}, {"lat": 38.902996, "is_disabled": 0, "type": "electric_scooter", "lon": -77.00897633333334, "bike_id": "eed54729d4c849fed25e61fbd38081df", "fusion_lat": 0.0, "name": "eed54729d4c849fed25e61fbd38081df", "is_reserved": 0, "rental_uris": {"android": "https://dc.lft.to/lastmile_qr_scan", "ios": "https://dc.lft.to/lastmile_qr_scan"}, "fusion_lon": 0.0}, {"lat": 38.92241883333333, "is_disabled": 0, "type": "electric_scooter", "lon": -77.04351016666666, "bike_id": "9e2ab930a6c6f9cd105cc81469917a05", "fusion_lat": 0.0, "name": "9e2ab930a6c6f9cd105cc81469917a05", "is_reserved": 0, "rental_uris": {"android": "https://dc.lft.to/lastmile_qr_scan", "ios": "https://dc.lft.to/lastmile_qr_scan"}, "fusion_lon": 0.0}, {"lat": 38.88485583333333, "is_disabled": 0, "type": "electric_scooter", "lon": -77.034761, "bike_id": "e3c3b40e5318be971a088f410cc760a0", "fusion_lat": 0.0, "name": "e3c3b40e5318be971a088f410cc760a0", "is_reserved": 0, "rental_uris": {"android": "https://dc.lft.to/lastmile_qr_scan", "ios": "https://dc.lft.to/lastmile_qr_scan"}, "fusion_lon": 0.0}, {"lat": 38.927150833333336, "is_disabled": 0, "type": "electric_scooter", "lon": -77.022903, "bike_id": "715dad772135e1e4a05f4faf12b41507", "fusion_lat": 0.0, "name": "715dad772135e1e4a05f4faf12b41507", "is_reserved": 0, "rental_uris": {"android": "https://dc.lft.to/lastmile_qr_scan", "ios": "https://dc.lft.to/lastmile_qr_scan"}, "fusion_lon": 0.0}, {"lat": 38.95401966666667, "is_disabled": 0, "type": "electric_bike", "lon": -76.97868233333334, "bike_id": "33cbd5ec801ad21fa338e4fd0793b21c", "fusion_lat": 0.0, "name": "33cbd5ec801ad21fa338e4fd0793b21c", "is_reserved": 0, "rental_uris": {"android": "https://dc.lft.to/lastmile_qr_scan", "ios": "https://dc.lft.to/lastmile_qr_scan"}, "fusion_lon": 0.0}, {"lat": 38.9193485, "is_disabled": 0, "type": "electric_scooter", "lon": -77.0259745, "bike_id": "36a96bd557875b83fc749be264aaee6e", "fusion_lat": 0.0, "name": "36a96bd557875b83fc749be264aaee6e", "is_reserved": 0, "rental_uris": {"android": "https://dc.lft.to/lastmile_qr_scan", "ios": "https://dc.lft.to/lastmile_qr_scan"}, "fusion_lon": 0.0}, {"lat": 38.871498, "is_disabled": 0, "type": "electric_scooter", "lon": -77.01189983333333, "bike_id": "d3a5409ff7e9685dd89ee9a77d219a1b", "fusion_lat": 0.0, "name": "d3a5409ff7e9685dd89ee9a77d219a1b", "is_reserved": 0, "rental_uris": {"android": "https://dc.lft.to/lastmile_qr_scan", "ios": "https://dc.lft.to/lastmile_qr_scan"}, "fusion_lon": 0.0}, {"lat": 38.91930583333333, "is_disabled": 0, "type": "electric_scooter", "lon": -76.97014016666667, "bike_id": "bd7602b774b321a2d3ae13e5a5fa680e", "fusion_lat": 0.0, "name": "bd7602b774b321a2d3ae13e5a5fa680e", "is_reserved": 0, "rental_uris": {"android": "https://dc.lft.to/lastmile_qr_scan", "ios": "https://dc.lft.to/lastmile_qr_scan"}, "fusion_lon": 0.0}, {"lat": 38.9281815, "is_disabled": 0, "type": "electric_scooter", "lon": -77.0143055, "bike_id": "05ba541dabec25d6f870380f4aa6f5ed", "fusion_lat": 0.0, "name": "05ba541dabec25d6f870380f4aa6f5ed", "is_reserved": 0, "rental_uris": {"android": "https://dc.lft.to/lastmile_qr_scan", "ios": "https://dc.lft.to/lastmile_qr_scan"}, "fusion_lon": 0.0}, {"lat": 38.802289, "is_disabled": 0, "type": "electric_bike", "lon": -77.079169, "bike_id": "f2c6cd5be2cd2161fb7be916b0510d2d", "fusion_lat": 0.0, "name": "f2c6cd5be2cd2161fb7be916b0510d2d", "is_reserved": 0, "rental_uris": {"android": "https://dc.lft.to/lastmile_qr_scan", "ios": "https://dc.lft.to/lastmile_qr_scan"}, "fusion_lon": 0.0}, {"lat": 38.904682666666666, "is_disabled": 0, "type": "electric_scooter", "lon": -77.0391305, "bike_id": "2b7e8633af051b7b3ef00432833239fd", "fusion_lat": 0.0, "name": "2b7e8633af051b7b3ef00432833239fd", "is_reserved": 0, "rental_uris": {"android": "https://dc.lft.to/lastmile_qr_scan", "ios": "https://dc.lft.to/lastmile_qr_scan"}, "fusion_lon": 0.0}, {"lat": 38.92262366666667, "is_disabled": 0, "type": "electric_scooter", "lon": -77.04307366666667, "bike_id": "c161615fa797628bec32c374d4fba0df", "fusion_lat": 0.0, "name": "c161615fa797628bec32c374d4fba0df", "is_reserved": 0, "rental_uris": {"android": "https://dc.lft.to/lastmile_qr_scan", "ios": "https://dc.lft.to/lastmile_qr_scan"}, "fusion_lon": 0.0}, {"lat": 38.91487683333333, "is_disabled": 0, "type": "electric_scooter", "lon": -77.03264033333333, "bike_id": "ac774a9d5fa73d2b873a3529e917f34a", "fusion_lat": 0.0, "name": "ac774a9d5fa73d2b873a3529e917f34a", "is_reserved": 0, "rental_uris": {"android": "https://dc.lft.to/lastmile_qr_scan", "ios": "https://dc.lft.to/lastmile_qr_scan"}, "fusion_lon": 0.0}, {"lat": 38.917905833333336, "is_disabled": 0, "type": "electric_scooter", "lon": -77.0404065, "bike_id": "d9e52f76eecda89ca45c3cf8a1da3070", "fusion_lat": 0.0, "name": "d9e52f76eecda89ca45c3cf8a1da3070", "is_reserved": 0, "rental_uris": {"android": "https://dc.lft.to/lastmile_qr_scan", "ios": "https://dc.lft.to/lastmile_qr_scan"}, "fusion_lon": 0.0}, {"lat": 38.936436666666665, "is_disabled": 0, "type": "electric_scooter", "lon": -77.02492683333334, "bike_id": "e4434361218146122df63778c9e9ea32", "fusion_lat": 0.0, "name": "e4434361218146122df63778c9e9ea32", "is_reserved": 0, "rental_uris": {"android": "https://dc.lft.to/lastmile_qr_scan", "ios": "https://dc.lft.to/lastmile_qr_scan"}, "fusion_lon": 0.0}, {"lat": 38.91636616666667, "is_disabled": 0, "type": "electric_scooter", "lon": -77.04790333333334, "bike_id": "94433cb8dcb18c13e15d6193b6f84801", "fusion_lat": 0.0, "name": "94433cb8dcb18c13e15d6193b6f84801", "is_reserved": 0, "rental_uris": {"android": "https://dc.lft.to/lastmile_qr_scan", "ios": "https://dc.lft.to/lastmile_qr_scan"}, "fusion_lon": 0.0}, {"lat": 38.911334333333336, "is_disabled": 0, "type": "electric_scooter", "lon": -77.03844583333333, "bike_id": "67516771a707b99e0eb3bb79eb1c8334", "fusion_lat": 0.0, "name": "67516771a707b99e0eb3bb79eb1c8334", "is_reserved": 0, "rental_uris": {"android": "https://dc.lft.to/lastmile_qr_scan", "ios": "https://dc.lft.to/lastmile_qr_scan"}, "fusion_lon": 0.0}, {"lat": 38.930833, "is_disabled": 0, "type": "electric_scooter", "lon": -77.037467, "bike_id": "3431cfad7547a2d7296324229886afef", "fusion_lat": 0.0, "name": "3431cfad7547a2d7296324229886afef", "is_reserved": 0, "rental_uris": {"android": "https://dc.lft.to/lastmile_qr_scan", "ios": "https://dc.lft.to/lastmile_qr_scan"}, "fusion_lon": 0.0}, {"lat": 38.89354633333333, "is_disabled": 0, "type": "electric_scooter", "lon": -77.04137666666666, "bike_id": "ea48a8225b21adba4d4dddaf9c97809c", "fusion_lat": 0.0, "name": "ea48a8225b21adba4d4dddaf9c97809c", "is_reserved": 0, "rental_uris": {"android": "https://dc.lft.to/lastmile_qr_scan", "ios": "https://dc.lft.to/lastmile_qr_scan"}, "fusion_lon": 0.0}, {"lat": 38.90076916666666, "is_disabled": 0, "type": "electric_scooter", "lon": -77.01821616666666, "bike_id": "3b927ae5ae208eafd600946a40c15604", "fusion_lat": 0.0, "name": "3b927ae5ae208eafd600946a40c15604", "is_reserved": 0, "rental_uris": {"android": "https://dc.lft.to/lastmile_qr_scan", "ios": "https://dc.lft.to/lastmile_qr_scan"}, "fusion_lon": 0.0}, {"lat": 38.925321333333336, "is_disabled": 0, "type": "electric_scooter", "lon": -77.044336, "bike_id": "e9f54f89adfd41c248794149a678836e", "fusion_lat": 0.0, "name": "e9f54f89adfd41c248794149a678836e", "is_reserved": 0, "rental_uris": {"android": "https://dc.lft.to/lastmile_qr_scan", "ios": "https://dc.lft.to/lastmile_qr_scan"}, "fusion_lon": 0.0}, {"lat": 38.900341166666664, "is_disabled": 0, "type": "electric_scooter", "lon": -76.99378216666666, "bike_id": "6884b1e8b903bfd39c1ed398542d96da", "fusion_lat": 0.0, "name": "6884b1e8b903bfd39c1ed398542d96da", "is_reserved": 0, "rental_uris": {"android": "https://dc.lft.to/lastmile_qr_scan", "ios": "https://dc.lft.to/lastmile_qr_scan"}, "fusion_lon": 0.0}, {"lat": 38.90892316666667, "is_disabled": 0, "type": "electric_scooter", "lon": -77.03144983333334, "bike_id": "2b125fbc8aad66e10a8bba6210c99878", "fusion_lat": 0.0, "name": "2b125fbc8aad66e10a8bba6210c99878", "is_reserved": 0, "rental_uris": {"android": "https://dc.lft.to/lastmile_qr_scan", "ios": "https://dc.lft.to/lastmile_qr_scan"}, "fusion_lon": 0.0}, {"lat": 38.870852166666666, "is_disabled": 0, "type": "electric_scooter", "lon": -76.96862, "bike_id": "4211bdea14cd1f87dce454f89fe4bb60", "fusion_lat": 0.0, "name": "4211bdea14cd1f87dce454f89fe4bb60", "is_reserved": 0, "rental_uris": {"android": "https://dc.lft.to/lastmile_qr_scan", "ios": "https://dc.lft.to/lastmile_qr_scan"}, "fusion_lon": 0.0}, {"lat": 38.900536, "is_disabled": 0, "type": "electric_scooter", "lon": -77.001979, "bike_id": "b04f9337a79ded0f4c516a903d35074a", "fusion_lat": 0.0, "name": "b04f9337a79ded0f4c516a903d35074a", "is_reserved": 0, "rental_uris": {"android": "https://dc.lft.to/lastmile_qr_scan", "ios": "https://dc.lft.to/lastmile_qr_scan"}, "fusion_lon": 0.0}, {"lat": 38.872456166666666, "is_disabled": 0, "type": "electric_scooter", "lon": -76.97721333333334, "bike_id": "fce5888b7eaefd6afbe65996f4c07ce6", "fusion_lat": 0.0, "name": "fce5888b7eaefd6afbe65996f4c07ce6", "is_reserved": 0, "rental_uris": {"android": "https://dc.lft.to/lastmile_qr_scan", "ios": "https://dc.lft.to/lastmile_qr_scan"}, "fusion_lon": 0.0}, {"lat": 38.93925683333333, "is_disabled": 0, "type": "electric_scooter", "lon": -77.0279965, "bike_id": "e608a013c78f1380bd3ead8f1f2f6efc", "fusion_lat": 0.0, "name": "e608a013c78f1380bd3ead8f1f2f6efc", "is_reserved": 0, "rental_uris": {"android": "https://dc.lft.to/lastmile_qr_scan", "ios": "https://dc.lft.to/lastmile_qr_scan"}, "fusion_lon": 0.0}, {"lat": 38.908531833333335, "is_disabled": 0, "type": "electric_scooter", "lon": -77.04770033333334, "bike_id": "a89d7425fde062a360dfdc9be0e52196", "fusion_lat": 0.0, "name": "a89d7425fde062a360dfdc9be0e52196", "is_reserved": 0, "rental_uris": {"android": "https://dc.lft.to/lastmile_qr_scan", "ios": "https://dc.lft.to/lastmile_qr_scan"}, "fusion_lon": 0.0}, {"lat": 38.91290883333333, "is_disabled": 0, "type": "electric_bike", "lon": -77.0448675, "bike_id": "c3487c517c171e6ee46bec76e3f73cca", "fusion_lat": 0.0, "name": "c3487c517c171e6ee46bec76e3f73cca", "is_reserved": 0, "rental_uris": {"android": "https://dc.lft.to/lastmile_qr_scan", "ios": "https://dc.lft.to/lastmile_qr_scan"}, "fusion_lon": 0.0}, {"lat": 38.916864, "is_disabled": 0, "type": "electric_scooter", "lon": -77.03361883333334, "bike_id": "85b74a6cd35b9dfdb12fe070ad20eb41", "fusion_lat": 0.0, "name": "85b74a6cd35b9dfdb12fe070ad20eb41", "is_reserved": 0, "rental_uris": {"android": "https://dc.lft.to/lastmile_qr_scan", "ios": "https://dc.lft.to/lastmile_qr_scan"}, "fusion_lon": 0.0}, {"lat": 38.889235, "is_disabled": 0, "type": "electric_scooter", "lon": -76.97370483333333, "bike_id": "1612d832dc8ccd2800d170e03ab98623", "fusion_lat": 0.0, "name": "1612d832dc8ccd2800d170e03ab98623", "is_reserved": 0, "rental_uris": {"android": "https://dc.lft.to/lastmile_qr_scan", "ios": "https://dc.lft.to/lastmile_qr_scan"}, "fusion_lon": 0.0}, {"lat": 38.9089765, "is_disabled": 0, "type": "electric_scooter", "lon": -77.03206566666667, "bike_id": "74dba215871abe2a2dbe038b273da7ca", "fusion_lat": 0.0, "name": "74dba215871abe2a2dbe038b273da7ca", "is_reserved": 0, "rental_uris": {"android": "https://dc.lft.to/lastmile_qr_scan", "ios": "https://dc.lft.to/lastmile_qr_scan"}, "fusion_lon": 0.0}, {"lat": 38.9440035, "is_disabled": 0, "type": "electric_scooter", "lon": -77.02640933333333, "bike_id": "c20febd94e71072cd4f61beeaac320f4", "fusion_lat": 0.0, "name": "c20febd94e71072cd4f61beeaac320f4", "is_reserved": 0, "rental_uris": {"android": "https://dc.lft.to/lastmile_qr_scan", "ios": "https://dc.lft.to/lastmile_qr_scan"}, "fusion_lon": 0.0}, {"lat": 38.907058666666664, "is_disabled": 0, "type": "electric_scooter", "lon": -76.98697166666666, "bike_id": "0ca032dc76b1de7146ff74a26f4320b7", "fusion_lat": 0.0, "name": "0ca032dc76b1de7146ff74a26f4320b7", "is_reserved": 0, "rental_uris": {"android": "https://dc.lft.to/lastmile_qr_scan", "ios": "https://dc.lft.to/lastmile_qr_scan"}, "fusion_lon": 0.0}, {"lat": 38.946297333333334, "is_disabled": 0, "type": "electric_scooter", "lon": -77.01847283333333, "bike_id": "6be4d18a45af968cb43f027811a43b9d", "fusion_lat": 0.0, "name": "6be4d18a45af968cb43f027811a43b9d", "is_reserved": 0, "rental_uris": {"android": "https://dc.lft.to/lastmile_qr_scan", "ios": "https://dc.lft.to/lastmile_qr_scan"}, "fusion_lon": 0.0}, {"lat": 38.951822666666665, "is_disabled": 0, "type": "electric_bike", "lon": -76.93545366666666, "bike_id": "d9ba3bab55d2c63dd123b100ad88d78d", "fusion_lat": 0.0, "name": "d9ba3bab55d2c63dd123b100ad88d78d", "is_reserved": 0, "rental_uris": {"android": "https://dc.lft.to/lastmile_qr_scan", "ios": "https://dc.lft.to/lastmile_qr_scan"}, "fusion_lon": 0.0}, {"lat": 38.90959183333333, "is_disabled": 0, "type": "electric_scooter", "lon": -77.038377, "bike_id": "b0c89d827d8cb6ea4a9e36b306aac985", "fusion_lat": 0.0, "name": "b0c89d827d8cb6ea4a9e36b306aac985", "is_reserved": 0, "rental_uris": {"android": "https://dc.lft.to/lastmile_qr_scan", "ios": "https://dc.lft.to/lastmile_qr_scan"}, "fusion_lon": 0.0}, {"lat": 38.8674665, "is_disabled": 0, "type": "electric_scooter", "lon": -76.976626, "bike_id": "81ae43856886c0684f5ea00b1bc59266", "fusion_lat": 0.0, "name": "81ae43856886c0684f5ea00b1bc59266", "is_reserved": 0, "rental_uris": {"android": "https://dc.lft.to/lastmile_qr_scan", "ios": "https://dc.lft.to/lastmile_qr_scan"}, "fusion_lon": 0.0}, {"lat": 38.9091955, "is_disabled": 0, "type": "electric_scooter", "lon": -77.08025233333333, "bike_id": "3f2c358336f4d8e92d164d7f8ca8f78b", "fusion_lat": 0.0, "name": "3f2c358336f4d8e92d164d7f8ca8f78b", "is_reserved": 0, "rental_uris": {"android": "https://dc.lft.to/lastmile_qr_scan", "ios": "https://dc.lft.to/lastmile_qr_scan"}, "fusion_lon": 0.0}, {"lat": 38.87733933333333, "is_disabled": 0, "type": "electric_bike", "lon": -77.11852933333333, "bike_id": "b49012fbda8f91c5b7055615ba3cb21f", "fusion_lat": 0.0, "name": "b49012fbda8f91c5b7055615ba3cb21f", "is_reserved": 0, "rental_uris": {"android": "https://dc.lft.to/lastmile_qr_scan", "ios": "https://dc.lft.to/lastmile_qr_scan"}, "fusion_lon": 0.0}, {"lat": 38.9200715, "is_disabled": 0, "type": "electric_scooter", "lon": -77.03235216666667, "bike_id": "a4bfcffc99a2f17cae85c0f41abd5217", "fusion_lat": 0.0, "name": "a4bfcffc99a2f17cae85c0f41abd5217", "is_reserved": 0, "rental_uris": {"android": "https://dc.lft.to/lastmile_qr_scan", "ios": "https://dc.lft.to/lastmile_qr_scan"}, "fusion_lon": 0.0}, {"lat": 38.90809983333333, "is_disabled": 0, "type": "electric_scooter", "lon": -77.0344965, "bike_id": "5f769630007d6e7afff138a0c5d1514b", "fusion_lat": 0.0, "name": "5f769630007d6e7afff138a0c5d1514b", "is_reserved": 0, "rental_uris": {"android": "https://dc.lft.to/lastmile_qr_scan", "ios": "https://dc.lft.to/lastmile_qr_scan"}, "fusion_lon": 0.0}, {"lat": 38.895038, "is_disabled": 0, "type": "electric_scooter", "lon": -77.003279, "bike_id": "807588c5d6977669529e448960521e44", "fusion_lat": 0.0, "name": "807588c5d6977669529e448960521e44", "is_reserved": 0, "rental_uris": {"android": "https://dc.lft.to/lastmile_qr_scan", "ios": "https://dc.lft.to/lastmile_qr_scan"}, "fusion_lon": 0.0}, {"lat": 38.9177555, "is_disabled": 0, "type": "electric_scooter", "lon": -77.02265916666667, "bike_id": "0606a76907e8bc6b2133a8646561e40f", "fusion_lat": 0.0, "name": "0606a76907e8bc6b2133a8646561e40f", "is_reserved": 0, "rental_uris": {"android": "https://dc.lft.to/lastmile_qr_scan", "ios": "https://dc.lft.to/lastmile_qr_scan"}, "fusion_lon": 0.0}, {"lat": 38.92490983333333, "is_disabled": 0, "type": "electric_scooter", "lon": -77.073276, "bike_id": "9268bc46eae72a148b66de90679e4c97", "fusion_lat": 0.0, "name": "9268bc46eae72a148b66de90679e4c97", "is_reserved": 0, "rental_uris": {"android": "https://dc.lft.to/lastmile_qr_scan", "ios": "https://dc.lft.to/lastmile_qr_scan"}, "fusion_lon": 0.0}, {"lat": 38.881866, "is_disabled": 0, "type": "electric_scooter", "lon": -76.99615983333334, "bike_id": "614b6e7049786f2776fd2c85aed1905e", "fusion_lat": 0.0, "name": "614b6e7049786f2776fd2c85aed1905e", "is_reserved": 0, "rental_uris": {"android": "https://dc.lft.to/lastmile_qr_scan", "ios": "https://dc.lft.to/lastmile_qr_scan"}, "fusion_lon": 0.0}, {"lat": 38.93100783333333, "is_disabled": 0, "type": "electric_scooter", "lon": -77.03071116666666, "bike_id": "2ce6b36cd387b707c645302e85373cf9", "fusion_lat": 0.0, "name": "2ce6b36cd387b707c645302e85373cf9", "is_reserved": 0, "rental_uris": {"android": "https://dc.lft.to/lastmile_qr_scan", "ios": "https://dc.lft.to/lastmile_qr_scan"}, "fusion_lon": 0.0}, {"lat": 38.87064983333333, "is_disabled": 0, "type": "electric_scooter", "lon": -77.00839666666667, "bike_id": "862f6e7decf1eefe0015f4dfed134192", "fusion_lat": 0.0, "name": "862f6e7decf1eefe0015f4dfed134192", "is_reserved": 0, "rental_uris": {"android": "https://dc.lft.to/lastmile_qr_scan", "ios": "https://dc.lft.to/lastmile_qr_scan"}, "fusion_lon": 0.0}, {"lat": 38.917326333333335, "is_disabled": 0, "type": "electric_scooter", "lon": -77.036676, "bike_id": "31784c6360bae964435c0f0566830751", "fusion_lat": 0.0, "name": "31784c6360bae964435c0f0566830751", "is_reserved": 0, "rental_uris": {"android": "https://dc.lft.to/lastmile_qr_scan", "ios": "https://dc.lft.to/lastmile_qr_scan"}, "fusion_lon": 0.0}, {"lat": 38.92713833333333, "is_disabled": 0, "type": "electric_scooter", "lon": -77.02078266666666, "bike_id": "ba9a0af23f01e4a886b9da45adcbf145", "fusion_lat": 0.0, "name": "ba9a0af23f01e4a886b9da45adcbf145", "is_reserved": 0, "rental_uris": {"android": "https://dc.lft.to/lastmile_qr_scan", "ios": "https://dc.lft.to/lastmile_qr_scan"}, "fusion_lon": 0.0}, {"lat": 38.902267, "is_disabled": 0, "type": "electric_scooter", "lon": -77.05904833333334, "bike_id": "1b4458715ce5e37ed6e2aa02f1c18f29", "fusion_lat": 0.0, "name": "1b4458715ce5e37ed6e2aa02f1c18f29", "is_reserved": 0, "rental_uris": {"android": "https://dc.lft.to/lastmile_qr_scan", "ios": "https://dc.lft.to/lastmile_qr_scan"}, "fusion_lon": 0.0}, {"lat": 38.89222133333333, "is_disabled": 0, "type": "electric_scooter", "lon": -77.0221115, "bike_id": "cf5b5f8036163c9ad334a1a8c428fbd8", "fusion_lat": 0.0, "name": "cf5b5f8036163c9ad334a1a8c428fbd8", "is_reserved": 0, "rental_uris": {"android": "https://dc.lft.to/lastmile_qr_scan", "ios": "https://dc.lft.to/lastmile_qr_scan"}, "fusion_lon": 0.0}, {"lat": 38.94172183333333, "is_disabled": 0, "type": "electric_scooter", "lon": -77.02499383333334, "bike_id": "fe94859f966c20907a3d24cf34d3ba65", "fusion_lat": 0.0, "name": "fe94859f966c20907a3d24cf34d3ba65", "is_reserved": 0, "rental_uris": {"android": "https://dc.lft.to/lastmile_qr_scan", "ios": "https://dc.lft.to/lastmile_qr_scan"}, "fusion_lon": 0.0}, {"lat": 38.865059333333335, "is_disabled": 0, "type": "electric_scooter", "lon": -76.9900605, "bike_id": "ffc34c39aae33d7fcf1bfe2895a0444b", "fusion_lat": 0.0, "name": "ffc34c39aae33d7fcf1bfe2895a0444b", "is_reserved": 0, "rental_uris": {"android": "https://dc.lft.to/lastmile_qr_scan", "ios": "https://dc.lft.to/lastmile_qr_scan"}, "fusion_lon": 0.0}, {"lat": 38.90030866666667, "is_disabled": 0, "type": "electric_scooter", "lon": -77.03303916666667, "bike_id": "db39f8804f96ae50243c3c5213239532", "fusion_lat": 0.0, "name": "db39f8804f96ae50243c3c5213239532", "is_reserved": 0, "rental_uris": {"android": "https://dc.lft.to/lastmile_qr_scan", "ios": "https://dc.lft.to/lastmile_qr_scan"}, "fusion_lon": 0.0}, {"lat": 38.899865, "is_disabled": 0, "type": "electric_scooter", "lon": -77.00680833333334, "bike_id": "bd57adbe9478f316eca95948d67f3530", "fusion_lat": 0.0, "name": "bd57adbe9478f316eca95948d67f3530", "is_reserved": 0, "rental_uris": {"android": "https://dc.lft.to/lastmile_qr_scan", "ios": "https://dc.lft.to/lastmile_qr_scan"}, "fusion_lon": 0.0}, {"lat": 38.89219716666667, "is_disabled": 0, "type": "electric_scooter", "lon": -76.9329515, "bike_id": "94e444a5bb39a5f4a012c675c744e06c", "fusion_lat": 0.0, "name": "94e444a5bb39a5f4a012c675c744e06c", "is_reserved": 0, "rental_uris": {"android": "https://dc.lft.to/lastmile_qr_scan", "ios": "https://dc.lft.to/lastmile_qr_scan"}, "fusion_lon": 0.0}, {"lat": 38.90094116666667, "is_disabled": 0, "type": "electric_scooter", "lon": -77.055949, "bike_id": "efe03242e66f3ee408fefd26d2ff9017", "fusion_lat": 0.0, "name": "efe03242e66f3ee408fefd26d2ff9017", "is_reserved": 0, "rental_uris": {"android": "https://dc.lft.to/lastmile_qr_scan", "ios": "https://dc.lft.to/lastmile_qr_scan"}, "fusion_lon": 0.0}, {"lat": 38.913671666666666, "is_disabled": 0, "type": "electric_scooter", "lon": -77.03360916666666, "bike_id": "583b37f6344e8742dfabe3ace957d692", "fusion_lat": 0.0, "name": "583b37f6344e8742dfabe3ace957d692", "is_reserved": 0, "rental_uris": {"android": "https://dc.lft.to/lastmile_qr_scan", "ios": "https://dc.lft.to/lastmile_qr_scan"}, "fusion_lon": 0.0}, {"lat": 38.92761016666667, "is_disabled": 0, "type": "electric_bike", "lon": -77.06877566666667, "bike_id": "c5c1fbb4bc26097fcfcf0b9d38538a5c", "fusion_lat": 0.0, "name": "c5c1fbb4bc26097fcfcf0b9d38538a5c", "is_reserved": 0, "rental_uris": {"android": "https://dc.lft.to/lastmile_qr_scan", "ios": "https://dc.lft.to/lastmile_qr_scan"}, "fusion_lon": 0.0}, {"lat": 38.915723666666665, "is_disabled": 0, "type": "electric_scooter", "lon": -77.0228935, "bike_id": "41c19ea4c0f564b2ead59e7105e3c85b", "fusion_lat": 0.0, "name": "41c19ea4c0f564b2ead59e7105e3c85b", "is_reserved": 0, "rental_uris": {"android": "https://dc.lft.to/lastmile_qr_scan", "ios": "https://dc.lft.to/lastmile_qr_scan"}, "fusion_lon": 0.0}, {"lat": 38.917514, "is_disabled": 0, "type": "electric_scooter", "lon": -77.0359725, "bike_id": "9d1fd3ec8febb06b062d510766d821a4", "fusion_lat": 0.0, "name": "9d1fd3ec8febb06b062d510766d821a4", "is_reserved": 0, "rental_uris": {"android": "https://dc.lft.to/lastmile_qr_scan", "ios": "https://dc.lft.to/lastmile_qr_scan"}, "fusion_lon": 0.0}, {"lat": 38.927968666666665, "is_disabled": 0, "type": "electric_bike", "lon": -77.0331925, "bike_id": "cdd61ee26163d72c0c0c0d176509d0c0", "fusion_lat": 0.0, "name": "cdd61ee26163d72c0c0c0d176509d0c0", "is_reserved": 0, "rental_uris": {"android": "https://dc.lft.to/lastmile_qr_scan", "ios": "https://dc.lft.to/lastmile_qr_scan"}, "fusion_lon": 0.0}, {"lat": 38.916157, "is_disabled": 0, "type": "electric_scooter", "lon": -77.03185566666667, "bike_id": "76b256ff36df00f4b034b50b621ef6ef", "fusion_lat": 0.0, "name": "76b256ff36df00f4b034b50b621ef6ef", "is_reserved": 0, "rental_uris": {"android": "https://dc.lft.to/lastmile_qr_scan", "ios": "https://dc.lft.to/lastmile_qr_scan"}, "fusion_lon": 0.0}, {"lat": 38.90493516666667, "is_disabled": 0, "type": "electric_scooter", "lon": -77.04880533333333, "bike_id": "62fa8ce1be263819389cd1e51613a262", "fusion_lat": 0.0, "name": "62fa8ce1be263819389cd1e51613a262", "is_reserved": 0, "rental_uris": {"android": "https://dc.lft.to/lastmile_qr_scan", "ios": "https://dc.lft.to/lastmile_qr_scan"}, "fusion_lon": 0.0}, {"lat": 38.89220733333333, "is_disabled": 0, "type": "electric_scooter", "lon": -77.0277795, "bike_id": "73462b2e1bd7cc0c5f6c371a0c4fbc1f", "fusion_lat": 0.0, "name": "73462b2e1bd7cc0c5f6c371a0c4fbc1f", "is_reserved": 0, "rental_uris": {"android": "https://dc.lft.to/lastmile_qr_scan", "ios": "https://dc.lft.to/lastmile_qr_scan"}, "fusion_lon": 0.0}, {"lat": 38.91552083333333, "is_disabled": 0, "type": "electric_scooter", "lon": -77.0386225, "bike_id": "e2aff5a9c63b8530af7163fa7cfafef9", "fusion_lat": 0.0, "name": "e2aff5a9c63b8530af7163fa7cfafef9", "is_reserved": 0, "rental_uris": {"android": "https://dc.lft.to/lastmile_qr_scan", "ios": "https://dc.lft.to/lastmile_qr_scan"}, "fusion_lon": 0.0}, {"lat": 38.9261175, "is_disabled": 0, "type": "electric_scooter", "lon": -76.99603016666667, "bike_id": "6ff7c11f76eb4baeb7b63c2cbc7f517c", "fusion_lat": 0.0, "name": "6ff7c11f76eb4baeb7b63c2cbc7f517c", "is_reserved": 0, "rental_uris": {"android": "https://dc.lft.to/lastmile_qr_scan", "ios": "https://dc.lft.to/lastmile_qr_scan"}, "fusion_lon": 0.0}, {"lat": 38.875757666666665, "is_disabled": 0, "type": "electric_bike", "lon": -77.105569, "bike_id": "c8a087e41cc5efdb59709f30efa47fce", "fusion_lat": 0.0, "name": "c8a087e41cc5efdb59709f30efa47fce", "is_reserved": 0, "rental_uris": {"android": "https://dc.lft.to/lastmile_qr_scan", "ios": "https://dc.lft.to/lastmile_qr_scan"}, "fusion_lon": 0.0}, {"lat": 38.8899675, "is_disabled": 0, "type": "electric_scooter", "lon": -76.954145, "bike_id": "e8d87bce2bd8ba00c47ba4af6e4f1b31", "fusion_lat": 0.0, "name": "e8d87bce2bd8ba00c47ba4af6e4f1b31", "is_reserved": 0, "rental_uris": {"android": "https://dc.lft.to/lastmile_qr_scan", "ios": "https://dc.lft.to/lastmile_qr_scan"}, "fusion_lon": 0.0}, {"lat": 38.912678, "is_disabled": 0, "type": "electric_scooter", "lon": -77.02250283333333, "bike_id": "d55f1abbbd7f41bfb85addf6c9c8eab5", "fusion_lat": 0.0, "name": "d55f1abbbd7f41bfb85addf6c9c8eab5", "is_reserved": 0, "rental_uris": {"android": "https://dc.lft.to/lastmile_qr_scan", "ios": "https://dc.lft.to/lastmile_qr_scan"}, "fusion_lon": 0.0}, {"lat": 38.842714, "is_disabled": 0, "type": "electric_bike", "lon": -76.98841350000001, "bike_id": "7af3788d62a2f66071fd635320bb3f81", "fusion_lat": 0.0, "name": "7af3788d62a2f66071fd635320bb3f81", "is_reserved": 0, "rental_uris": {"android": "https://dc.lft.to/lastmile_qr_scan", "ios": "https://dc.lft.to/lastmile_qr_scan"}, "fusion_lon": 0.0}, {"lat": 38.895271666666666, "is_disabled": 0, "type": "electric_scooter", "lon": -77.00208766666667, "bike_id": "ab7d8c32a9eba93e8e487201bee59669", "fusion_lat": 0.0, "name": "ab7d8c32a9eba93e8e487201bee59669", "is_reserved": 0, "rental_uris": {"android": "https://dc.lft.to/lastmile_qr_scan", "ios": "https://dc.lft.to/lastmile_qr_scan"}, "fusion_lon": 0.0}, {"lat": 38.913592666666666, "is_disabled": 0, "type": "electric_scooter", "lon": -77.03952883333334, "bike_id": "f82d42ff5bbb29b508fc9c433815484c", "fusion_lat": 0.0, "name": "f82d42ff5bbb29b508fc9c433815484c", "is_reserved": 0, "rental_uris": {"android": "https://dc.lft.to/lastmile_qr_scan", "ios": "https://dc.lft.to/lastmile_qr_scan"}, "fusion_lon": 0.0}, {"lat": 38.866271, "is_disabled": 0, "type": "electric_scooter", "lon": -76.98704866666667, "bike_id": "730740345a6a20916ca6e2c1213da113", "fusion_lat": 0.0, "name": "730740345a6a20916ca6e2c1213da113", "is_reserved": 0, "rental_uris": {"android": "https://dc.lft.to/lastmile_qr_scan", "ios": "https://dc.lft.to/lastmile_qr_scan"}, "fusion_lon": 0.0}, {"lat": 38.8849115, "is_disabled": 0, "type": "electric_scooter", "lon": -77.0070685, "bike_id": "0a75ea684b1bffc6a6d99a57f8ba9dd0", "fusion_lat": 0.0, "name": "0a75ea684b1bffc6a6d99a57f8ba9dd0", "is_reserved": 0, "rental_uris": {"android": "https://dc.lft.to/lastmile_qr_scan", "ios": "https://dc.lft.to/lastmile_qr_scan"}, "fusion_lon": 0.0}, {"lat": 38.90525266666667, "is_disabled": 0, "type": "electric_scooter", "lon": -77.0434325, "bike_id": "b8c7e2511258c2a4833e75c367eeccb5", "fusion_lat": 0.0, "name": "b8c7e2511258c2a4833e75c367eeccb5", "is_reserved": 0, "rental_uris": {"android": "https://dc.lft.to/lastmile_qr_scan", "ios": "https://dc.lft.to/lastmile_qr_scan"}, "fusion_lon": 0.0}, {"lat": 38.9053835, "is_disabled": 0, "type": "electric_scooter", "lon": -77.04185883333334, "bike_id": "0fab316151a28fc0b59b14545f506748", "fusion_lat": 0.0, "name": "0fab316151a28fc0b59b14545f506748", "is_reserved": 0, "rental_uris": {"android": "https://dc.lft.to/lastmile_qr_scan", "ios": "https://dc.lft.to/lastmile_qr_scan"}, "fusion_lon": 0.0}, {"lat": 38.9119565, "is_disabled": 0, "type": "electric_scooter", "lon": -77.0047785, "bike_id": "59108aa6afc71da048e829533b18914f", "fusion_lat": 0.0, "name": "59108aa6afc71da048e829533b18914f", "is_reserved": 0, "rental_uris": {"android": "https://dc.lft.to/lastmile_qr_scan", "ios": "https://dc.lft.to/lastmile_qr_scan"}, "fusion_lon": 0.0}, {"lat": 38.9052505, "is_disabled": 0, "type": "electric_scooter", "lon": -77.0419195, "bike_id": "cf1e8ba61fefeef2e9ca799afc7894a8", "fusion_lat": 0.0, "name": "cf1e8ba61fefeef2e9ca799afc7894a8", "is_reserved": 0, "rental_uris": {"android": "https://dc.lft.to/lastmile_qr_scan", "ios": "https://dc.lft.to/lastmile_qr_scan"}, "fusion_lon": 0.0}, {"lat": 38.949279, "is_disabled": 0, "type": "electric_scooter", "lon": -77.01935533333334, "bike_id": "1049bea461fc13d319b4b16fa20efe61", "fusion_lat": 0.0, "name": "1049bea461fc13d319b4b16fa20efe61", "is_reserved": 0, "rental_uris": {"android": "https://dc.lft.to/lastmile_qr_scan", "ios": "https://dc.lft.to/lastmile_qr_scan"}, "fusion_lon": 0.0}, {"lat": 38.905259, "is_disabled": 0, "type": "electric_scooter", "lon": -77.02962516666666, "bike_id": "0f421b1512023a4518227241b33c5f3b", "fusion_lat": 0.0, "name": "0f421b1512023a4518227241b33c5f3b", "is_reserved": 0, "rental_uris": {"android": "https://dc.lft.to/lastmile_qr_scan", "ios": "https://dc.lft.to/lastmile_qr_scan"}, "fusion_lon": 0.0}, {"lat": 38.89983566666667, "is_disabled": 0, "type": "electric_scooter", "lon": -77.025695, "bike_id": "fb22cac4072795e0903c330dd6ec02b6", "fusion_lat": 0.0, "name": "fb22cac4072795e0903c330dd6ec02b6", "is_reserved": 0, "rental_uris": {"android": "https://dc.lft.to/lastmile_qr_scan", "ios": "https://dc.lft.to/lastmile_qr_scan"}, "fusion_lon": 0.0}, {"lat": 38.911810333333335, "is_disabled": 0, "type": "electric_scooter", "lon": -77.040261, "bike_id": "05a03d8662d9bba6741660f525158c40", "fusion_lat": 0.0, "name": "05a03d8662d9bba6741660f525158c40", "is_reserved": 0, "rental_uris": {"android": "https://dc.lft.to/lastmile_qr_scan", "ios": "https://dc.lft.to/lastmile_qr_scan"}, "fusion_lon": 0.0}, {"lat": 38.9080975, "is_disabled": 0, "type": "electric_scooter", "lon": -77.04339583333334, "bike_id": "be2a27f3e00c16a4d4dc11d18fbf1bb6", "fusion_lat": 0.0, "name": "be2a27f3e00c16a4d4dc11d18fbf1bb6", "is_reserved": 0, "rental_uris": {"android": "https://dc.lft.to/lastmile_qr_scan", "ios": "https://dc.lft.to/lastmile_qr_scan"}, "fusion_lon": 0.0}, {"lat": 38.905742833333335, "is_disabled": 0, "type": "electric_scooter", "lon": -77.0058455, "bike_id": "9826e474a5a3011fbd105a1c291cfc86", "fusion_lat": 0.0, "name": "9826e474a5a3011fbd105a1c291cfc86", "is_reserved": 0, "rental_uris": {"android": "https://dc.lft.to/lastmile_qr_scan", "ios": "https://dc.lft.to/lastmile_qr_scan"}, "fusion_lon": 0.0}, {"lat": 38.89219383333333, "is_disabled": 0, "type": "electric_scooter", "lon": -77.02224916666667, "bike_id": "695596d03abe0c051d85afb3fa8d3225", "fusion_lat": 0.0, "name": "695596d03abe0c051d85afb3fa8d3225", "is_reserved": 0, "rental_uris": {"android": "https://dc.lft.to/lastmile_qr_scan", "ios": "https://dc.lft.to/lastmile_qr_scan"}, "fusion_lon": 0.0}, {"lat": 38.85207233333333, "is_disabled": 0, "type": "electric_bike", "lon": -77.1012905, "bike_id": "4e6bc84d36ea4ed0f7b06f94d2f80476", "fusion_lat": 0.0, "name": "4e6bc84d36ea4ed0f7b06f94d2f80476", "is_reserved": 0, "rental_uris": {"android": "https://dc.lft.to/lastmile_qr_scan", "ios": "https://dc.lft.to/lastmile_qr_scan"}, "fusion_lon": 0.0}, {"lat": 38.907243666666666, "is_disabled": 0, "type": "electric_scooter", "lon": -77.01812066666666, "bike_id": "9ea95f03e4b0f872989f1e05f3d7ec6d", "fusion_lat": 0.0, "name": "9ea95f03e4b0f872989f1e05f3d7ec6d", "is_reserved": 0, "rental_uris": {"android": "https://dc.lft.to/lastmile_qr_scan", "ios": "https://dc.lft.to/lastmile_qr_scan"}, "fusion_lon": 0.0}, {"lat": 38.923815, "is_disabled": 0, "type": "electric_scooter", "lon": -77.02554133333334, "bike_id": "454c82fe1b927d96959373f1db3e8f79", "fusion_lat": 0.0, "name": "454c82fe1b927d96959373f1db3e8f79", "is_reserved": 0, "rental_uris": {"android": "https://dc.lft.to/lastmile_qr_scan", "ios": "https://dc.lft.to/lastmile_qr_scan"}, "fusion_lon": 0.0}, {"lat": 38.9027065, "is_disabled": 0, "type": "electric_scooter", "lon": -77.038585, "bike_id": "53a50c77ef790de69b9db46eec5d9c39", "fusion_lat": 0.0, "name": "53a50c77ef790de69b9db46eec5d9c39", "is_reserved": 0, "rental_uris": {"android": "https://dc.lft.to/lastmile_qr_scan", "ios": "https://dc.lft.to/lastmile_qr_scan"}, "fusion_lon": 0.0}, {"lat": 38.879198, "is_disabled": 0, "type": "electric_scooter", "lon": -77.03094, "bike_id": "cdbf0e9b4172fefcc7004e7679fd18e7", "fusion_lat": 0.0, "name": "cdbf0e9b4172fefcc7004e7679fd18e7", "is_reserved": 0, "rental_uris": {"android": "https://dc.lft.to/lastmile_qr_scan", "ios": "https://dc.lft.to/lastmile_qr_scan"}, "fusion_lon": 0.0}, {"lat": 38.88408616666667, "is_disabled": 0, "type": "electric_bike", "lon": -76.9606055, "bike_id": "2f1eaf0c910e426c6be93f107ab5819f", "fusion_lat": 0.0, "name": "2f1eaf0c910e426c6be93f107ab5819f", "is_reserved": 0, "rental_uris": {"android": "https://dc.lft.to/lastmile_qr_scan", "ios": "https://dc.lft.to/lastmile_qr_scan"}, "fusion_lon": 0.0}, {"lat": 38.97091416666667, "is_disabled": 0, "type": "electric_bike", "lon": -77.0696855, "bike_id": "317b0806c2ce192ac4c587354cf0a461", "fusion_lat": 0.0, "name": "317b0806c2ce192ac4c587354cf0a461", "is_reserved": 0, "rental_uris": {"android": "https://dc.lft.to/lastmile_qr_scan", "ios": "https://dc.lft.to/lastmile_qr_scan"}, "fusion_lon": 0.0}, {"lat": 38.85733916666667, "is_disabled": 0, "type": "electric_scooter", "lon": -76.99439266666667, "bike_id": "541c084b7d6b337ef929a5601c0059dc", "fusion_lat": 0.0, "name": "541c084b7d6b337ef929a5601c0059dc", "is_reserved": 0, "rental_uris": {"android": "https://dc.lft.to/lastmile_qr_scan", "ios": "https://dc.lft.to/lastmile_qr_scan"}, "fusion_lon": 0.0}, {"lat": 38.922490833333335, "is_disabled": 0, "type": "electric_scooter", "lon": -77.03467616666667, "bike_id": "228a81daae8058479e6bbd9b16d320a4", "fusion_lat": 0.0, "name": "228a81daae8058479e6bbd9b16d320a4", "is_reserved": 0, "rental_uris": {"android": "https://dc.lft.to/lastmile_qr_scan", "ios": "https://dc.lft.to/lastmile_qr_scan"}, "fusion_lon": 0.0}, {"lat": 38.91240283333333, "is_disabled": 0, "type": "electric_scooter", "lon": -77.0476235, "bike_id": "f76d1278b9756dece9f2e79bf30a51d6", "fusion_lat": 0.0, "name": "f76d1278b9756dece9f2e79bf30a51d6", "is_reserved": 0, "rental_uris": {"android": "https://dc.lft.to/lastmile_qr_scan", "ios": "https://dc.lft.to/lastmile_qr_scan"}, "fusion_lon": 0.0}, {"lat": 38.935134833333336, "is_disabled": 0, "type": "electric_scooter", "lon": -77.03341133333333, "bike_id": "a882faa34e9aab05e4a409e9a4e845de", "fusion_lat": 0.0, "name": "a882faa34e9aab05e4a409e9a4e845de", "is_reserved": 0, "rental_uris": {"android": "https://dc.lft.to/lastmile_qr_scan", "ios": "https://dc.lft.to/lastmile_qr_scan"}, "fusion_lon": 0.0}, {"lat": 38.90457466666667, "is_disabled": 0, "type": "electric_scooter", "lon": -77.06286183333333, "bike_id": "d914947544833fc087cd9881ea5f5435", "fusion_lat": 0.0, "name": "d914947544833fc087cd9881ea5f5435", "is_reserved": 0, "rental_uris": {"android": "https://dc.lft.to/lastmile_qr_scan", "ios": "https://dc.lft.to/lastmile_qr_scan"}, "fusion_lon": 0.0}, {"lat": 38.91254966666666, "is_disabled": 0, "type": "electric_scooter", "lon": -77.03873483333334, "bike_id": "f4e0c37249704a99631e3c30a64e0976", "fusion_lat": 0.0, "name": "f4e0c37249704a99631e3c30a64e0976", "is_reserved": 0, "rental_uris": {"android": "https://dc.lft.to/lastmile_qr_scan", "ios": "https://dc.lft.to/lastmile_qr_scan"}, "fusion_lon": 0.0}, {"lat": 38.927652, "is_disabled": 0, "type": "electric_scooter", "lon": -77.0262165, "bike_id": "103fda2e6c1d532a629a6b7eceb062c8", "fusion_lat": 0.0, "name": "103fda2e6c1d532a629a6b7eceb062c8", "is_reserved": 0, "rental_uris": {"android": "https://dc.lft.to/lastmile_qr_scan", "ios": "https://dc.lft.to/lastmile_qr_scan"}, "fusion_lon": 0.0}, {"lat": 38.981312333333335, "is_disabled": 0, "type": "electric_bike", "lon": -77.0076765, "bike_id": "6b771fa6dc52ce9ea5899b4d7ae7977b", "fusion_lat": 0.0, "name": "6b771fa6dc52ce9ea5899b4d7ae7977b", "is_reserved": 0, "rental_uris": {"android": "https://dc.lft.to/lastmile_qr_scan", "ios": "https://dc.lft.to/lastmile_qr_scan"}, "fusion_lon": 0.0}, {"lat": 38.92286633333333, "is_disabled": 0, "type": "electric_scooter", "lon": -77.03194916666666, "bike_id": "4ad54de44071f63dd5d15f1922cfbb7e", "fusion_lat": 0.0, "name": "4ad54de44071f63dd5d15f1922cfbb7e", "is_reserved": 0, "rental_uris": {"android": "https://dc.lft.to/lastmile_qr_scan", "ios": "https://dc.lft.to/lastmile_qr_scan"}, "fusion_lon": 0.0}, {"lat": 38.916943, "is_disabled": 0, "type": "electric_scooter", "lon": -77.04274616666666, "bike_id": "fab206eb2030d6c0ab79c9d4ade7c5e2", "fusion_lat": 0.0, "name": "fab206eb2030d6c0ab79c9d4ade7c5e2", "is_reserved": 0, "rental_uris": {"android": "https://dc.lft.to/lastmile_qr_scan", "ios": "https://dc.lft.to/lastmile_qr_scan"}, "fusion_lon": 0.0}, {"lat": 38.9068865, "is_disabled": 0, "type": "electric_scooter", "lon": -77.01012683333333, "bike_id": "1ae254526ccaf5b1b3eaef627aebe66a", "fusion_lat": 0.0, "name": "1ae254526ccaf5b1b3eaef627aebe66a", "is_reserved": 0, "rental_uris": {"android": "https://dc.lft.to/lastmile_qr_scan", "ios": "https://dc.lft.to/lastmile_qr_scan"}, "fusion_lon": 0.0}, {"lat": 38.9359605, "is_disabled": 0, "type": "electric_scooter", "lon": -77.03656116666667, "bike_id": "8a218efeb925a7fa1895b0c5568f1805", "fusion_lat": 0.0, "name": "8a218efeb925a7fa1895b0c5568f1805", "is_reserved": 0, "rental_uris": {"android": "https://dc.lft.to/lastmile_qr_scan", "ios": "https://dc.lft.to/lastmile_qr_scan"}, "fusion_lon": 0.0}, {"lat": 38.9099945, "is_disabled": 0, "type": "electric_scooter", "lon": -77.01505216666666, "bike_id": "8ad36fe2c70792b3055b6f123d1dd47c", "fusion_lat": 0.0, "name": "8ad36fe2c70792b3055b6f123d1dd47c", "is_reserved": 0, "rental_uris": {"android": "https://dc.lft.to/lastmile_qr_scan", "ios": "https://dc.lft.to/lastmile_qr_scan"}, "fusion_lon": 0.0}, {"lat": 38.910991833333334, "is_disabled": 0, "type": "electric_scooter", "lon": -77.042014, "bike_id": "97b65bb73c761874d680ca23e054b23e", "fusion_lat": 0.0, "name": "97b65bb73c761874d680ca23e054b23e", "is_reserved": 0, "rental_uris": {"android": "https://dc.lft.to/lastmile_qr_scan", "ios": "https://dc.lft.to/lastmile_qr_scan"}, "fusion_lon": 0.0}, {"lat": 38.892203333333335, "is_disabled": 0, "type": "electric_scooter", "lon": -77.0231565, "bike_id": "d1163385d1c9a45c6d700e40b17aa5df", "fusion_lat": 0.0, "name": "d1163385d1c9a45c6d700e40b17aa5df", "is_reserved": 0, "rental_uris": {"android": "https://dc.lft.to/lastmile_qr_scan", "ios": "https://dc.lft.to/lastmile_qr_scan"}, "fusion_lon": 0.0}, {"lat": 38.924539, "is_disabled": 0, "type": "electric_bike", "lon": -77.20833083333333, "bike_id": "ce46a7d1cd9afae004d1782805102f06", "fusion_lat": 0.0, "name": "ce46a7d1cd9afae004d1782805102f06", "is_reserved": 0, "rental_uris": {"android": "https://dc.lft.to/lastmile_qr_scan", "ios": "https://dc.lft.to/lastmile_qr_scan"}, "fusion_lon": 0.0}, {"lat": 38.90829683333333, "is_disabled": 0, "type": "electric_scooter", "lon": -76.99700633333333, "bike_id": "04632ce75150247ad9b7a5e3cc8d4546", "fusion_lat": 0.0, "name": "04632ce75150247ad9b7a5e3cc8d4546", "is_reserved": 0, "rental_uris": {"android": "https://dc.lft.to/lastmile_qr_scan", "ios": "https://dc.lft.to/lastmile_qr_scan"}, "fusion_lon": 0.0}, {"lat": 38.9171965, "is_disabled": 0, "type": "electric_scooter", "lon": -77.03253716666667, "bike_id": "4bf41758f739a15a798e17c7fb86ab06", "fusion_lat": 0.0, "name": "4bf41758f739a15a798e17c7fb86ab06", "is_reserved": 0, "rental_uris": {"android": "https://dc.lft.to/lastmile_qr_scan", "ios": "https://dc.lft.to/lastmile_qr_scan"}, "fusion_lon": 0.0}, {"lat": 38.90526966666667, "is_disabled": 0, "type": "electric_scooter", "lon": -77.04189716666667, "bike_id": "20062572d2c7cae0761785d836554c27", "fusion_lat": 0.0, "name": "20062572d2c7cae0761785d836554c27", "is_reserved": 0, "rental_uris": {"android": "https://dc.lft.to/lastmile_qr_scan", "ios": "https://dc.lft.to/lastmile_qr_scan"}, "fusion_lon": 0.0}, {"lat": 38.91546233333333, "is_disabled": 0, "type": "electric_scooter", "lon": -77.03853566666666, "bike_id": "df6d61885b5a91c1031ca75f3a2a7fdc", "fusion_lat": 0.0, "name": "df6d61885b5a91c1031ca75f3a2a7fdc", "is_reserved": 0, "rental_uris": {"android": "https://dc.lft.to/lastmile_qr_scan", "ios": "https://dc.lft.to/lastmile_qr_scan"}, "fusion_lon": 0.0}, {"lat": 38.8425455, "is_disabled": 0, "type": "electric_bike", "lon": -77.058326, "bike_id": "cbf84bc89435c7a988795acabe4d8f97", "fusion_lat": 0.0, "name": "cbf84bc89435c7a988795acabe4d8f97", "is_reserved": 0, "rental_uris": {"android": "https://dc.lft.to/lastmile_qr_scan", "ios": "https://dc.lft.to/lastmile_qr_scan"}, "fusion_lon": 0.0}, {"lat": 38.900605166666665, "is_disabled": 0, "type": "electric_scooter", "lon": -77.02627333333334, "bike_id": "5e37ff12f49206f1f75bf558699d5923", "fusion_lat": 0.0, "name": "5e37ff12f49206f1f75bf558699d5923", "is_reserved": 0, "rental_uris": {"android": "https://dc.lft.to/lastmile_qr_scan", "ios": "https://dc.lft.to/lastmile_qr_scan"}, "fusion_lon": 0.0}, {"lat": 38.911181166666665, "is_disabled": 0, "type": "electric_scooter", "lon": -77.00328683333333, "bike_id": "7d2128c9c84cecf1a1249b7925be4e11", "fusion_lat": 0.0, "name": "7d2128c9c84cecf1a1249b7925be4e11", "is_reserved": 0, "rental_uris": {"android": "https://dc.lft.to/lastmile_qr_scan", "ios": "https://dc.lft.to/lastmile_qr_scan"}, "fusion_lon": 0.0}, {"lat": 38.9330495, "is_disabled": 0, "type": "electric_scooter", "lon": -77.02799516666667, "bike_id": "bbb8b1f0ad615c1e3184380258ba2eca", "fusion_lat": 0.0, "name": "bbb8b1f0ad615c1e3184380258ba2eca", "is_reserved": 0, "rental_uris": {"android": "https://dc.lft.to/lastmile_qr_scan", "ios": "https://dc.lft.to/lastmile_qr_scan"}, "fusion_lon": 0.0}, {"lat": 38.892206, "is_disabled": 0, "type": "electric_scooter", "lon": -77.02225433333334, "bike_id": "fb2e1fe6512fb3622d29d9d184ba0570", "fusion_lat": 0.0, "name": "fb2e1fe6512fb3622d29d9d184ba0570", "is_reserved": 0, "rental_uris": {"android": "https://dc.lft.to/lastmile_qr_scan", "ios": "https://dc.lft.to/lastmile_qr_scan"}, "fusion_lon": 0.0}, {"lat": 38.865079, "is_disabled": 0, "type": "electric_scooter", "lon": -76.9900605, "bike_id": "08b7e05d4c98cd8b67140f20dd4be9ca", "fusion_lat": 0.0, "name": "08b7e05d4c98cd8b67140f20dd4be9ca", "is_reserved": 0, "rental_uris": {"android": "https://dc.lft.to/lastmile_qr_scan", "ios": "https://dc.lft.to/lastmile_qr_scan"}, "fusion_lon": 0.0}, {"lat": 38.892210166666665, "is_disabled": 0, "type": "electric_scooter", "lon": -77.02225816666666, "bike_id": "dbef94bed75fedd3a2a3f7fa434ca655", "fusion_lat": 0.0, "name": "dbef94bed75fedd3a2a3f7fa434ca655", "is_reserved": 0, "rental_uris": {"android": "https://dc.lft.to/lastmile_qr_scan", "ios": "https://dc.lft.to/lastmile_qr_scan"}, "fusion_lon": 0.0}, {"lat": 38.90355366666667, "is_disabled": 0, "type": "electric_scooter", "lon": -77.04267933333334, "bike_id": "e7b9ccf07272cb0aa4854bbc6047292e", "fusion_lat": 0.0, "name": "e7b9ccf07272cb0aa4854bbc6047292e", "is_reserved": 0, "rental_uris": {"android": "https://dc.lft.to/lastmile_qr_scan", "ios": "https://dc.lft.to/lastmile_qr_scan"}, "fusion_lon": 0.0}, {"lat": 38.872902, "is_disabled": 0, "type": "electric_scooter", "lon": -77.00986816666666, "bike_id": "5d60569340b1e13bbeb809f2b25cc17a", "fusion_lat": 0.0, "name": "5d60569340b1e13bbeb809f2b25cc17a", "is_reserved": 0, "rental_uris": {"android": "https://dc.lft.to/lastmile_qr_scan", "ios": "https://dc.lft.to/lastmile_qr_scan"}, "fusion_lon": 0.0}, {"lat": 38.90550783333333, "is_disabled": 0, "type": "electric_scooter", "lon": -76.99872366666666, "bike_id": "b83568d5882482b6d07028b6fc8a1ce6", "fusion_lat": 0.0, "name": "b83568d5882482b6d07028b6fc8a1ce6", "is_reserved": 0, "rental_uris": {"android": "https://dc.lft.to/lastmile_qr_scan", "ios": "https://dc.lft.to/lastmile_qr_scan"}, "fusion_lon": 0.0}, {"lat": 38.8671405, "is_disabled": 0, "type": "electric_scooter", "lon": -76.98727983333333, "bike_id": "6e1391a3db7f78ea9de184e2cbbe03bf", "fusion_lat": 0.0, "name": "6e1391a3db7f78ea9de184e2cbbe03bf", "is_reserved": 0, "rental_uris": {"android": "https://dc.lft.to/lastmile_qr_scan", "ios": "https://dc.lft.to/lastmile_qr_scan"}, "fusion_lon": 0.0}, {"lat": 38.8808345, "is_disabled": 0, "type": "electric_bike", "lon": -76.985297, "bike_id": "3a7e6de87b78951321244a3a983579be", "fusion_lat": 0.0, "name": "3a7e6de87b78951321244a3a983579be", "is_reserved": 0, "rental_uris": {"android": "https://dc.lft.to/lastmile_qr_scan", "ios": "https://dc.lft.to/lastmile_qr_scan"}, "fusion_lon": 0.0}, {"lat": 38.99007066666667, "is_disabled": 0, "type": "electric_bike", "lon": -77.00444966666667, "bike_id": "51827cb1241f42315ea7865c48d7a6f8", "fusion_lat": 0.0, "name": "51827cb1241f42315ea7865c48d7a6f8", "is_reserved": 0, "rental_uris": {"android": "https://dc.lft.to/lastmile_qr_scan", "ios": "https://dc.lft.to/lastmile_qr_scan"}, "fusion_lon": 0.0}, {"lat": 38.89224266666667, "is_disabled": 0, "type": "electric_scooter", "lon": -77.048575, "bike_id": "821850268b7025270070f985a04d0ed0", "fusion_lat": 0.0, "name": "821850268b7025270070f985a04d0ed0", "is_reserved": 0, "rental_uris": {"android": "https://dc.lft.to/lastmile_qr_scan", "ios": "https://dc.lft.to/lastmile_qr_scan"}, "fusion_lon": 0.0}, {"lat": 38.93951166666667, "is_disabled": 0, "type": "electric_bike", "lon": -77.360955, "bike_id": "4e83c65c4bcf47adbfb033ccb325a0b1", "fusion_lat": 0.0, "name": "4e83c65c4bcf47adbfb033ccb325a0b1", "is_reserved": 0, "rental_uris": {"android": "https://dc.lft.to/lastmile_qr_scan", "ios": "https://dc.lft.to/lastmile_qr_scan"}, "fusion_lon": 0.0}, {"lat": 38.90357916666667, "is_disabled": 0, "type": "electric_scooter", "lon": -77.04469566666667, "bike_id": "51966426379b143e766e085daa3af211", "fusion_lat": 0.0, "name": "51966426379b143e766e085daa3af211", "is_reserved": 0, "rental_uris": {"android": "https://dc.lft.to/lastmile_qr_scan", "ios": "https://dc.lft.to/lastmile_qr_scan"}, "fusion_lon": 0.0}, {"lat": 38.923674166666665, "is_disabled": 0, "type": "electric_scooter", "lon": -77.0312685, "bike_id": "ed23a801345e38bfd4b9d3eceaa64cad", "fusion_lat": 0.0, "name": "ed23a801345e38bfd4b9d3eceaa64cad", "is_reserved": 0, "rental_uris": {"android": "https://dc.lft.to/lastmile_qr_scan", "ios": "https://dc.lft.to/lastmile_qr_scan"}, "fusion_lon": 0.0}, {"lat": 38.93604066666666, "is_disabled": 0, "type": "electric_scooter", "lon": -77.03758666666667, "bike_id": "ee995857992737982ef98fd98e47cf58", "fusion_lat": 0.0, "name": "ee995857992737982ef98fd98e47cf58", "is_reserved": 0, "rental_uris": {"android": "https://dc.lft.to/lastmile_qr_scan", "ios": "https://dc.lft.to/lastmile_qr_scan"}, "fusion_lon": 0.0}, {"lat": 38.93092, "is_disabled": 0, "type": "electric_scooter", "lon": -77.0256795, "bike_id": "e1f17a55becaa835ac393c54c70f94ef", "fusion_lat": 0.0, "name": "e1f17a55becaa835ac393c54c70f94ef", "is_reserved": 0, "rental_uris": {"android": "https://dc.lft.to/lastmile_qr_scan", "ios": "https://dc.lft.to/lastmile_qr_scan"}, "fusion_lon": 0.0}, {"lat": 38.89556416666667, "is_disabled": 0, "type": "electric_scooter", "lon": -76.93079833333333, "bike_id": "eaa2e815814a0cb29f8934b010719a62", "fusion_lat": 0.0, "name": "eaa2e815814a0cb29f8934b010719a62", "is_reserved": 0, "rental_uris": {"android": "https://dc.lft.to/lastmile_qr_scan", "ios": "https://dc.lft.to/lastmile_qr_scan"}, "fusion_lon": 0.0}, {"lat": 38.95289283333334, "is_disabled": 0, "type": "electric_bike", "lon": -76.9460125, "bike_id": "2b0009c0f07cf751209141195e6b1a67", "fusion_lat": 0.0, "name": "2b0009c0f07cf751209141195e6b1a67", "is_reserved": 0, "rental_uris": {"android": "https://dc.lft.to/lastmile_qr_scan", "ios": "https://dc.lft.to/lastmile_qr_scan"}, "fusion_lon": 0.0}, {"lat": 38.91766666666667, "is_disabled": 0, "type": "electric_scooter", "lon": -77.031938, "bike_id": "4e4702eb2eca1691837b569027ad222f", "fusion_lat": 0.0, "name": "4e4702eb2eca1691837b569027ad222f", "is_reserved": 0, "rental_uris": {"android": "https://dc.lft.to/lastmile_qr_scan", "ios": "https://dc.lft.to/lastmile_qr_scan"}, "fusion_lon": 0.0}, {"lat": 38.90283866666667, "is_disabled": 0, "type": "electric_scooter", "lon": -77.0386015, "bike_id": "50ee776c21c0211fe1cee35e22a15b5d", "fusion_lat": 0.0, "name": "50ee776c21c0211fe1cee35e22a15b5d", "is_reserved": 0, "rental_uris": {"android": "https://dc.lft.to/lastmile_qr_scan", "ios": "https://dc.lft.to/lastmile_qr_scan"}, "fusion_lon": 0.0}, {"lat": 38.918161, "is_disabled": 0, "type": "electric_scooter", "lon": -77.01390133333334, "bike_id": "95a1439f9350bcb37b82b7b1f9cff8b9", "fusion_lat": 0.0, "name": "95a1439f9350bcb37b82b7b1f9cff8b9", "is_reserved": 0, "rental_uris": {"android": "https://dc.lft.to/lastmile_qr_scan", "ios": "https://dc.lft.to/lastmile_qr_scan"}, "fusion_lon": 0.0}, {"lat": 38.90644916666667, "is_disabled": 0, "type": "electric_scooter", "lon": -77.0340615, "bike_id": "1840f19a851f7f32cf63e31c01c8ebdb", "fusion_lat": 0.0, "name": "1840f19a851f7f32cf63e31c01c8ebdb", "is_reserved": 0, "rental_uris": {"android": "https://dc.lft.to/lastmile_qr_scan", "ios": "https://dc.lft.to/lastmile_qr_scan"}, "fusion_lon": 0.0}, {"lat": 38.916184666666666, "is_disabled": 0, "type": "electric_scooter", "lon": -77.02292416666667, "bike_id": "8d372eb74923325a951783440adba694", "fusion_lat": 0.0, "name": "8d372eb74923325a951783440adba694", "is_reserved": 0, "rental_uris": {"android": "https://dc.lft.to/lastmile_qr_scan", "ios": "https://dc.lft.to/lastmile_qr_scan"}, "fusion_lon": 0.0}, {"lat": 38.920375, "is_disabled": 0, "type": "electric_scooter", "lon": -77.04176466666667, "bike_id": "ddfe1c2e41547440c59635786cea5a7d", "fusion_lat": 0.0, "name": "ddfe1c2e41547440c59635786cea5a7d", "is_reserved": 0, "rental_uris": {"android": "https://dc.lft.to/lastmile_qr_scan", "ios": "https://dc.lft.to/lastmile_qr_scan"}, "fusion_lon": 0.0}, {"lat": 38.892257, "is_disabled": 0, "type": "electric_bike", "lon": -77.03443983333334, "bike_id": "20fbe66d9a4d8b9879bda7f3156b45e8", "fusion_lat": 0.0, "name": "20fbe66d9a4d8b9879bda7f3156b45e8", "is_reserved": 0, "rental_uris": {"android": "https://dc.lft.to/lastmile_qr_scan", "ios": "https://dc.lft.to/lastmile_qr_scan"}, "fusion_lon": 0.0}, {"lat": 38.807668666666665, "is_disabled": 0, "type": "electric_bike", "lon": -77.09467733333334, "bike_id": "f648126249c1944576e4f77d9faf9caa", "fusion_lat": 0.0, "name": "f648126249c1944576e4f77d9faf9caa", "is_reserved": 0, "rental_uris": {"android": "https://dc.lft.to/lastmile_qr_scan", "ios": "https://dc.lft.to/lastmile_qr_scan"}, "fusion_lon": 0.0}, {"lat": 38.91259633333333, "is_disabled": 0, "type": "electric_bike", "lon": -77.04542516666666, "bike_id": "3ede6a04c8ab19048d7896a209ee13eb", "fusion_lat": 0.0, "name": "3ede6a04c8ab19048d7896a209ee13eb", "is_reserved": 0, "rental_uris": {"android": "https://dc.lft.to/lastmile_qr_scan", "ios": "https://dc.lft.to/lastmile_qr_scan"}, "fusion_lon": 0.0}, {"lat": 38.8972815, "is_disabled": 0, "type": "electric_scooter", "lon": -77.0216455, "bike_id": "cef2e16239dc57b219083932c0ec0a7a", "fusion_lat": 0.0, "name": "cef2e16239dc57b219083932c0ec0a7a", "is_reserved": 0, "rental_uris": {"android": "https://dc.lft.to/lastmile_qr_scan", "ios": "https://dc.lft.to/lastmile_qr_scan"}, "fusion_lon": 0.0}, {"lat": 38.88526683333333, "is_disabled": 0, "type": "electric_scooter", "lon": -77.01134366666666, "bike_id": "32a48fa646b930cb94e416060839222d", "fusion_lat": 0.0, "name": "32a48fa646b930cb94e416060839222d", "is_reserved": 0, "rental_uris": {"android": "https://dc.lft.to/lastmile_qr_scan", "ios": "https://dc.lft.to/lastmile_qr_scan"}, "fusion_lon": 0.0}, {"lat": 38.93605633333333, "is_disabled": 0, "type": "electric_scooter", "lon": -77.05859833333334, "bike_id": "5a18c4631a3103a72ba6b67db32f7d98", "fusion_lat": 0.0, "name": "5a18c4631a3103a72ba6b67db32f7d98", "is_reserved": 0, "rental_uris": {"android": "https://dc.lft.to/lastmile_qr_scan", "ios": "https://dc.lft.to/lastmile_qr_scan"}, "fusion_lon": 0.0}, {"lat": 38.93325683333333, "is_disabled": 0, "type": "electric_scooter", "lon": -77.043663, "bike_id": "0d4e45851a883d72cdff14174050e282", "fusion_lat": 0.0, "name": "0d4e45851a883d72cdff14174050e282", "is_reserved": 0, "rental_uris": {"android": "https://dc.lft.to/lastmile_qr_scan", "ios": "https://dc.lft.to/lastmile_qr_scan"}, "fusion_lon": 0.0}, {"lat": 38.90226833333333, "is_disabled": 0, "type": "electric_scooter", "lon": -77.06055583333334, "bike_id": "813b8a4e1b5d165d551e5f2a4b0c2e33", "fusion_lat": 0.0, "name": "813b8a4e1b5d165d551e5f2a4b0c2e33", "is_reserved": 0, "rental_uris": {"android": "https://dc.lft.to/lastmile_qr_scan", "ios": "https://dc.lft.to/lastmile_qr_scan"}, "fusion_lon": 0.0}, {"lat": 38.924845833333336, "is_disabled": 0, "type": "electric_scooter", "lon": -77.05752883333334, "bike_id": "07b6215afba64faa1e16ccfe92a5229a", "fusion_lat": 0.0, "name": "07b6215afba64faa1e16ccfe92a5229a", "is_reserved": 0, "rental_uris": {"android": "https://dc.lft.to/lastmile_qr_scan", "ios": "https://dc.lft.to/lastmile_qr_scan"}, "fusion_lon": 0.0}, {"lat": 38.919525, "is_disabled": 0, "type": "electric_scooter", "lon": -76.980696, "bike_id": "207e3d07bf8b7d32f76d501165864ce1", "fusion_lat": 0.0, "name": "207e3d07bf8b7d32f76d501165864ce1", "is_reserved": 0, "rental_uris": {"android": "https://dc.lft.to/lastmile_qr_scan", "ios": "https://dc.lft.to/lastmile_qr_scan"}, "fusion_lon": 0.0}, {"lat": 38.892233, "is_disabled": 0, "type": "electric_scooter", "lon": -77.043669, "bike_id": "0f71aa5434a6132e43a008f653fc05ab", "fusion_lat": 0.0, "name": "0f71aa5434a6132e43a008f653fc05ab", "is_reserved": 0, "rental_uris": {"android": "https://dc.lft.to/lastmile_qr_scan", "ios": "https://dc.lft.to/lastmile_qr_scan"}, "fusion_lon": 0.0}, {"lat": 38.92056616666667, "is_disabled": 0, "type": "electric_scooter", "lon": -77.04192466666667, "bike_id": "5a674a1dbfd7150e8544efe55d79c948", "fusion_lat": 0.0, "name": "5a674a1dbfd7150e8544efe55d79c948", "is_reserved": 0, "rental_uris": {"android": "https://dc.lft.to/lastmile_qr_scan", "ios": "https://dc.lft.to/lastmile_qr_scan"}, "fusion_lon": 0.0}, {"lat": 38.892204166666666, "is_disabled": 0, "type": "electric_scooter", "lon": -77.02211133333333, "bike_id": "5918395c41f2e5a0c4339b09f2546098", "fusion_lat": 0.0, "name": "5918395c41f2e5a0c4339b09f2546098", "is_reserved": 0, "rental_uris": {"android": "https://dc.lft.to/lastmile_qr_scan", "ios": "https://dc.lft.to/lastmile_qr_scan"}, "fusion_lon": 0.0}, {"lat": 38.87860583333333, "is_disabled": 0, "type": "electric_scooter", "lon": -77.017665, "bike_id": "0b00d39b4ca28c42276d198d8cd1cb0b", "fusion_lat": 0.0, "name": "0b00d39b4ca28c42276d198d8cd1cb0b", "is_reserved": 0, "rental_uris": {"android": "https://dc.lft.to/lastmile_qr_scan", "ios": "https://dc.lft.to/lastmile_qr_scan"}, "fusion_lon": 0.0}, {"lat": 38.870718333333336, "is_disabled": 0, "type": "electric_bike", "lon": -76.97834716666667, "bike_id": "744b1a62baf1666ee8e527b7c0325822", "fusion_lat": 0.0, "name": "744b1a62baf1666ee8e527b7c0325822", "is_reserved": 0, "rental_uris": {"android": "https://dc.lft.to/lastmile_qr_scan", "ios": "https://dc.lft.to/lastmile_qr_scan"}, "fusion_lon": 0.0}, {"lat": 38.93112266666667, "is_disabled": 0, "type": "electric_bike", "lon": -77.0271235, "bike_id": "bea230f944e30f811620a3ad309f1b9c", "fusion_lat": 0.0, "name": "bea230f944e30f811620a3ad309f1b9c", "is_reserved": 0, "rental_uris": {"android": "https://dc.lft.to/lastmile_qr_scan", "ios": "https://dc.lft.to/lastmile_qr_scan"}, "fusion_lon": 0.0}, {"lat": 38.8903915, "is_disabled": 0, "type": "electric_scooter", "lon": -76.93756166666667, "bike_id": "8289af442f91b80377bb92abf1970340", "fusion_lat": 0.0, "name": "8289af442f91b80377bb92abf1970340", "is_reserved": 0, "rental_uris": {"android": "https://dc.lft.to/lastmile_qr_scan", "ios": "https://dc.lft.to/lastmile_qr_scan"}, "fusion_lon": 0.0}, {"lat": 38.92874783333333, "is_disabled": 0, "type": "electric_scooter", "lon": -77.0371795, "bike_id": "81f0ae80c2ca91a46f90e372c5513479", "fusion_lat": 0.0, "name": "81f0ae80c2ca91a46f90e372c5513479", "is_reserved": 0, "rental_uris": {"android": "https://dc.lft.to/lastmile_qr_scan", "ios": "https://dc.lft.to/lastmile_qr_scan"}, "fusion_lon": 0.0}, {"lat": 38.932914, "is_disabled": 0, "type": "electric_scooter", "lon": -77.04533266666667, "bike_id": "3d4014ffee86f33919ca45cb6e925d2c", "fusion_lat": 0.0, "name": "3d4014ffee86f33919ca45cb6e925d2c", "is_reserved": 0, "rental_uris": {"android": "https://dc.lft.to/lastmile_qr_scan", "ios": "https://dc.lft.to/lastmile_qr_scan"}, "fusion_lon": 0.0}, {"lat": 38.914609, "is_disabled": 0, "type": "electric_scooter", "lon": -77.01432033333333, "bike_id": "76557c42fff6c18ba7f3564afeb7ce42", "fusion_lat": 0.0, "name": "76557c42fff6c18ba7f3564afeb7ce42", "is_reserved": 0, "rental_uris": {"android": "https://dc.lft.to/lastmile_qr_scan", "ios": "https://dc.lft.to/lastmile_qr_scan"}, "fusion_lon": 0.0}, {"lat": 38.91452133333333, "is_disabled": 0, "type": "electric_bike", "lon": -76.9727595, "bike_id": "dd85fb2d46d471ad3f7b1cc7b4bebe2a", "fusion_lat": 0.0, "name": "dd85fb2d46d471ad3f7b1cc7b4bebe2a", "is_reserved": 0, "rental_uris": {"android": "https://dc.lft.to/lastmile_qr_scan", "ios": "https://dc.lft.to/lastmile_qr_scan"}, "fusion_lon": 0.0}, {"lat": 38.902547166666665, "is_disabled": 0, "type": "electric_scooter", "lon": -77.0176645, "bike_id": "0e921c1529d211aae03abbe72fc62a30", "fusion_lat": 0.0, "name": "0e921c1529d211aae03abbe72fc62a30", "is_reserved": 0, "rental_uris": {"android": "https://dc.lft.to/lastmile_qr_scan", "ios": "https://dc.lft.to/lastmile_qr_scan"}, "fusion_lon": 0.0}, {"lat": 38.882039166666665, "is_disabled": 0, "type": "electric_scooter", "lon": -76.98928333333333, "bike_id": "d6e483bca03144192f556e31f0b4ede7", "fusion_lat": 0.0, "name": "d6e483bca03144192f556e31f0b4ede7", "is_reserved": 0, "rental_uris": {"android": "https://dc.lft.to/lastmile_qr_scan", "ios": "https://dc.lft.to/lastmile_qr_scan"}, "fusion_lon": 0.0}, {"lat": 38.950709333333336, "is_disabled": 0, "type": "electric_scooter", "lon": -77.02715166666667, "bike_id": "b2cf8abddbe8ac5b478d7f5e23f3ebee", "fusion_lat": 0.0, "name": "b2cf8abddbe8ac5b478d7f5e23f3ebee", "is_reserved": 0, "rental_uris": {"android": "https://dc.lft.to/lastmile_qr_scan", "ios": "https://dc.lft.to/lastmile_qr_scan"}, "fusion_lon": 0.0}, {"lat": 38.85492, "is_disabled": 0, "type": "electric_bike", "lon": -77.12050166666667, "bike_id": "11010401441091cbe5cc12ace4869f1f", "fusion_lat": 0.0, "name": "11010401441091cbe5cc12ace4869f1f", "is_reserved": 0, "rental_uris": {"android": "https://dc.lft.to/lastmile_qr_scan", "ios": "https://dc.lft.to/lastmile_qr_scan"}, "fusion_lon": 0.0}, {"lat": 38.94191683333333, "is_disabled": 0, "type": "electric_scooter", "lon": -77.04014883333333, "bike_id": "6e597ef9a15c74962c4471ed183412ce", "fusion_lat": 0.0, "name": "6e597ef9a15c74962c4471ed183412ce", "is_reserved": 0, "rental_uris": {"android": "https://dc.lft.to/lastmile_qr_scan", "ios": "https://dc.lft.to/lastmile_qr_scan"}, "fusion_lon": 0.0}, {"lat": 38.90551933333333, "is_disabled": 0, "type": "electric_scooter", "lon": -77.032479, "bike_id": "532c2a7a24ef781e7bc6206462a0bf8b", "fusion_lat": 0.0, "name": "532c2a7a24ef781e7bc6206462a0bf8b", "is_reserved": 0, "rental_uris": {"android": "https://dc.lft.to/lastmile_qr_scan", "ios": "https://dc.lft.to/lastmile_qr_scan"}, "fusion_lon": 0.0}, {"lat": 38.88657383333333, "is_disabled": 0, "type": "electric_scooter", "lon": -77.0215555, "bike_id": "0e934478b74a0f188ba71e65425b8fc1", "fusion_lat": 0.0, "name": "0e934478b74a0f188ba71e65425b8fc1", "is_reserved": 0, "rental_uris": {"android": "https://dc.lft.to/lastmile_qr_scan", "ios": "https://dc.lft.to/lastmile_qr_scan"}, "fusion_lon": 0.0}, {"lat": 38.913449, "is_disabled": 0, "type": "electric_scooter", "lon": -77.0175115, "bike_id": "302803f13019620f02d1d0ecac4b00ff", "fusion_lat": 0.0, "name": "302803f13019620f02d1d0ecac4b00ff", "is_reserved": 0, "rental_uris": {"android": "https://dc.lft.to/lastmile_qr_scan", "ios": "https://dc.lft.to/lastmile_qr_scan"}, "fusion_lon": 0.0}, {"lat": 38.9216085, "is_disabled": 0, "type": "electric_scooter", "lon": -77.03514333333334, "bike_id": "261bd7bab962d35ef175deb877ee539c", "fusion_lat": 0.0, "name": "261bd7bab962d35ef175deb877ee539c", "is_reserved": 0, "rental_uris": {"android": "https://dc.lft.to/lastmile_qr_scan", "ios": "https://dc.lft.to/lastmile_qr_scan"}, "fusion_lon": 0.0}, {"lat": 38.87723316666667, "is_disabled": 0, "type": "electric_scooter", "lon": -77.017738, "bike_id": "0678beb2f39b515696ec61c72c414690", "fusion_lat": 0.0, "name": "0678beb2f39b515696ec61c72c414690", "is_reserved": 0, "rental_uris": {"android": "https://dc.lft.to/lastmile_qr_scan", "ios": "https://dc.lft.to/lastmile_qr_scan"}, "fusion_lon": 0.0}, {"lat": 38.908022333333335, "is_disabled": 0, "type": "electric_scooter", "lon": -77.04315933333334, "bike_id": "1073fbc9e425d2fe58c680759fa66775", "fusion_lat": 0.0, "name": "1073fbc9e425d2fe58c680759fa66775", "is_reserved": 0, "rental_uris": {"android": "https://dc.lft.to/lastmile_qr_scan", "ios": "https://dc.lft.to/lastmile_qr_scan"}, "fusion_lon": 0.0}, {"lat": 38.946326166666665, "is_disabled": 0, "type": "electric_bike", "lon": -76.99306333333334, "bike_id": "9a08eb9e8eb7e1aa9af75cad1d038344", "fusion_lat": 0.0, "name": "9a08eb9e8eb7e1aa9af75cad1d038344", "is_reserved": 0, "rental_uris": {"android": "https://dc.lft.to/lastmile_qr_scan", "ios": "https://dc.lft.to/lastmile_qr_scan"}, "fusion_lon": 0.0}, {"lat": 38.917369, "is_disabled": 0, "type": "electric_scooter", "lon": -77.0239355, "bike_id": "122c65418b556879abe2d9eb20e61ea3", "fusion_lat": 0.0, "name": "122c65418b556879abe2d9eb20e61ea3", "is_reserved": 0, "rental_uris": {"android": "https://dc.lft.to/lastmile_qr_scan", "ios": "https://dc.lft.to/lastmile_qr_scan"}, "fusion_lon": 0.0}, {"lat": 38.90642783333333, "is_disabled": 0, "type": "electric_scooter", "lon": -77.02941133333333, "bike_id": "fb5c70a4e327c6ec7ccc5d8d68e8c940", "fusion_lat": 0.0, "name": "fb5c70a4e327c6ec7ccc5d8d68e8c940", "is_reserved": 0, "rental_uris": {"android": "https://dc.lft.to/lastmile_qr_scan", "ios": "https://dc.lft.to/lastmile_qr_scan"}, "fusion_lon": 0.0}, {"lat": 38.93412516666667, "is_disabled": 0, "type": "electric_scooter", "lon": -77.04270216666667, "bike_id": "8d4590ad5d682cf15b2813aae0179996", "fusion_lat": 0.0, "name": "8d4590ad5d682cf15b2813aae0179996", "is_reserved": 0, "rental_uris": {"android": "https://dc.lft.to/lastmile_qr_scan", "ios": "https://dc.lft.to/lastmile_qr_scan"}, "fusion_lon": 0.0},