{"data": {"bikes": [{"lon": -76.96301866666667, "rental_uris": {"android": "https://dc.lft.to/lastmile_qr_scan", "ios": "https://dc.lft.to/lastmile_qr_scan"}, "fusion_lon": 0.0, "is_reserved": 0, "is_disabled": 0, "fusion_lat": 0.0, "type": "electric_bike", "name": "e2bdec55c52c213e99af2a35bc052de8", "lat": 38.935042, "bike_id": "e2bdec55c52c213e99af2a35bc052de8"}, {"lon": -77.0430195, "rental_uris": {"android": "https://dc.lft.to/lastmile_qr_scan", "ios": "https://dc.lft.to/lastmile_qr_scan"}, "fusion_lon": 0.0, "is_reserved": 0, "is_disabled": 0, "fusion_lat": 0.0, "type": "electric_scooter", "name": "83f3fa6d098fc1790ed3021fb4f576d0", "lat": 38.9125475, "bike_id": "83f3fa6d098fc1790ed3021fb4f576d0"}, {"lon": -77.05841316666667, "rental_uris": {"android": "https://dc.lft.to/lastmile_qr_scan", "ios": "https://dc.lft.to/lastmile_qr_scan"}, "fusion_lon": 0.0, "is_reserved": 0, "is_disabled": 0, "fusion_lat": 0.0, "type": "electric_scooter", "name": "660722032ff952e079ab1b6993953447", "lat": 38.930603, "bike_id": "660722032ff952e079ab1b6993953447"}, {"lon": -77.02233166666667, "rental_uris": {"android": "https://dc.lft.to/lastmile_qr_scan", "ios": "https://dc.lft.to/lastmile_qr_scan"}, "fusion_lon": 0.0, "is_reserved": 0, "is_disabled": 0, "fusion_lat": 0.0, "type": "electric_scooter", "name": "9ac496cc958d9b553d5c574acff9214b", "lat": 38.924765, "bike_id": "9ac496cc958d9b553d5c574acff9214b"}, {"lon": -77.03940066666667, "rental_uris": {"android": "https://dc.lft.to/lastmile_qr_scan", "ios": "https://dc.lft.to/lastmile_qr_scan"}, "fusion_lon": 0.0, "is_reserved": 0, "is_disabled": 0, "fusion_lat": 0.0, "type": "electric_scooter", "name": "a0968de1aa71e0124fc3da88e89cda45", "lat": 38.90080566666666, "bike_id": "a0968de1aa71e0124fc3da88e89cda45"}, {"lon": -77.0502815, "rental_uris": {"android": "https://dc.lft.to/lastmile_qr_scan", "ios": "https://dc.lft.to/lastmile_qr_scan"}, "fusion_lon": 0.0, "is_reserved": 0, "is_disabled": 0, "fusion_lat": 0.0, "type": "electric_scooter", "name": "0ef9860f6dec1758934e7c1503c5f7fe", "lat": 38.89238066666667, "bike_id": "0ef9860f6dec1758934e7c1503c5f7fe"}, {"lon": -76.99796816666667, "rental_uris": {"android": "https://dc.lft.to/lastmile_qr_scan", "ios": "https://dc.lft.to/lastmile_qr_scan"}, "fusion_lon": 0.0, "is_reserved": 0, "is_disabled": 0, "fusion_lat": 0.0, "type": "electric_bike", "name": "25cf08aeb65aa85d76cad06498b3b105", "lat": 38.9508415, "bike_id": "25cf08aeb65aa85d76cad06498b3b105"}, {"lon": -77.04165983333333, "rental_uris": {"android": "https://dc.lft.to/lastmile_qr_scan", "ios": "https://dc.lft.to/lastmile_qr_scan"}, "fusion_lon": 0.0, "is_reserved": 0, "is_disabled": 0, "fusion_lat": 0.0, "type": "electric_scooter", "name": "96418d0ae9a771be30a318ed05d51787", "lat": 38.905175, "bike_id": "96418d0ae9a771be30a318ed05d51787"}, {"lon": -76.95431416666666, "rental_uris": {"android": "https://dc.lft.to/lastmile_qr_scan", "ios": "https://dc.lft.to/lastmile_qr_scan"}, "fusion_lon": 0.0, "is_reserved": 0, "is_disabled": 0, "fusion_lat": 0.0, "type": "electric_scooter", "name": "eeb21f405d6623bf9008e1d3cf7cb9c3", "lat": 38.889992666666664, "bike_id": "eeb21f405d6623bf9008e1d3cf7cb9c3"}, {"lon": -77.03997633333333, "rental_uris": {"android": "https://dc.lft.to/lastmile_qr_scan", "ios": "https://dc.lft.to/lastmile_qr_scan"}, "fusion_lon": 0.0, "is_reserved": 0, "is_disabled": 0, "fusion_lat": 0.0, "type": "electric_scooter", "name": "536b44c798f9be50d8b88da2c751c12d", "lat": 38.9342845, "bike_id": "536b44c798f9be50d8b88da2c751c12d"}, {"lon": -77.03186516666666, "rental_uris": {"android": "https://dc.lft.to/lastmile_qr_scan", "ios": "https://dc.lft.to/lastmile_qr_scan"}, "fusion_lon": 0.0, "is_reserved": 0, "is_disabled": 0, "fusion_lat": 0.0, "type": "electric_scooter", "name": "fc31f74a32328268983f66c374e98671", "lat": 38.903542333333334, "bike_id": "fc31f74a32328268983f66c374e98671"}, {"lon": -76.993592, "rental_uris": {"android": "https://dc.lft.to/lastmile_qr_scan", "ios": "https://dc.lft.to/lastmile_qr_scan"}, "fusion_lon": 0.0, "is_reserved": 0, "is_disabled": 0, "fusion_lat": 0.0, "type": "electric_scooter", "name": "d012c0466cfd76eb0ff66989430cec27", "lat": 38.877818166666664, "bike_id": "d012c0466cfd76eb0ff66989430cec27"}, {"lon": -77.00592383333333, "rental_uris": {"android": "https://dc.lft.to/lastmile_qr_scan", "ios": "https://dc.lft.to/lastmile_qr_scan"}, "fusion_lon": 0.0, "is_reserved": 0, "is_disabled": 0, "fusion_lat": 0.0, "type": "electric_scooter", "name": "15e7fb531d5c4ddd3b1a4bd6e69c4f72", "lat": 38.906378, "bike_id": "15e7fb531d5c4ddd3b1a4bd6e69c4f72"}, {"lon": -77.0330075, "rental_uris": {"android": "https://dc.lft.to/lastmile_qr_scan", "ios": "https://dc.lft.to/lastmile_qr_scan"}, "fusion_lon": 0.0, "is_reserved": 0, "is_disabled": 0, "fusion_lat": 0.0, "type": "electric_scooter", "name": "ce236b0c8cba99c0a57b53a370258bd9", "lat": 38.89906583333333, "bike_id": "ce236b0c8cba99c0a57b53a370258bd9"}, {"lon": -77.03460783333334, "rental_uris": {"android": "https://dc.lft.to/lastmile_qr_scan", "ios": "https://dc.lft.to/lastmile_qr_scan"}, "fusion_lon": 0.0, "is_reserved": 0, "is_disabled": 0, "fusion_lat": 0.0, "type": "electric_scooter", "name": "4aff0c96970b8743f7f14c014a2b6745", "lat": 38.908698666666666, "bike_id": "4aff0c96970b8743f7f14c014a2b6745"}, {"lon": -76.99716233333334, "rental_uris": {"android": "https://dc.lft.to/lastmile_qr_scan", "ios": "https://dc.lft.to/lastmile_qr_scan"}, "fusion_lon": 0.0, "is_reserved": 0, "is_disabled": 0, "fusion_lat": 0.0, "type": "electric_scooter", "name": "3246f5c735e4cc6da5d5da8a875a8250", "lat": 38.90029916666667, "bike_id": "3246f5c735e4cc6da5d5da8a875a8250"}, {"lon": -77.01350466666666, "rental_uris": {"android": "https://dc.lft.to/lastmile_qr_scan", "ios": "https://dc.lft.to/lastmile_qr_scan"}, "fusion_lon": 0.0, "is_reserved": 0, "is_disabled": 0, "fusion_lat": 0.0, "type": "electric_scooter", "name": "b41b8671e17edf2b968d576e4700dc10", "lat": 38.942142, "bike_id": "b41b8671e17edf2b968d576e4700dc10"}, {"lon": -77.03012666666666, "rental_uris": {"android": "https://dc.lft.to/lastmile_qr_scan", "ios": "https://dc.lft.to/lastmile_qr_scan"}, "fusion_lon": 0.0, "is_reserved": 0, "is_disabled": 0, "fusion_lat": 0.0, "type": "electric_bike", "name": "4e01d6adee0d21afccad57b1d7568290", "lat": 38.895660166666666, "bike_id": "4e01d6adee0d21afccad57b1d7568290"}, {"lon": -77.0283495, "rental_uris": {"android": "https://dc.lft.to/lastmile_qr_scan", "ios": "https://dc.lft.to/lastmile_qr_scan"}, "fusion_lon": 0.0, "is_reserved": 0, "is_disabled": 0, "fusion_lat": 0.0, "type": "electric_scooter", "name": "5140f6bec69d42dd7ec2009b06100c21", "lat": 38.897955, "bike_id": "5140f6bec69d42dd7ec2009b06100c21"}, {"lon": -77.0329285, "rental_uris": {"android": "https://dc.lft.to/lastmile_qr_scan", "ios": "https://dc.lft.to/lastmile_qr_scan"}, "fusion_lon": 0.0, "is_reserved": 0, "is_disabled": 0, "fusion_lat": 0.0, "type": "electric_scooter", "name": "8303ccaf54915d597f6500fd1f9e9a28", "lat": 38.927520666666666, "bike_id": "8303ccaf54915d597f6500fd1f9e9a28"}, {"lon": -76.98670766666666, "rental_uris": {"android": "https://dc.lft.to/lastmile_qr_scan", "ios": "https://dc.lft.to/lastmile_qr_scan"}, "fusion_lon": 0.0, "is_reserved": 0, "is_disabled": 0, "fusion_lat": 0.0, "type": "electric_bike", "name": "aab096acd5bbc96dee606e3240398671", "lat": 38.835153166666665, "bike_id": "aab096acd5bbc96dee606e3240398671"}, {"lon": -77.0074995, "rental_uris": {"android": "https://dc.lft.to/lastmile_qr_scan", "ios": "https://dc.lft.to/lastmile_qr_scan"}, "fusion_lon": 0.0, "is_reserved": 0, "is_disabled": 0, "fusion_lat": 0.0, "type": "electric_bike", "name": "f831224a727858c5b6804a56a24db8ff", "lat": 38.898162166666665, "bike_id": "f831224a727858c5b6804a56a24db8ff"}, {"lon": -77.04287933333333, "rental_uris": {"android": "https://dc.lft.to/lastmile_qr_scan", "ios": "https://dc.lft.to/lastmile_qr_scan"}, "fusion_lon": 0.0, "is_reserved": 0, "is_disabled": 0, "fusion_lat": 0.0, "type": "electric_scooter", "name": "df33e0146228f9d415e8aea165e180d0", "lat": 38.922645833333334, "bike_id": "df33e0146228f9d415e8aea165e180d0"}, {"lon": -76.99412383333333, "rental_uris": {"android": "https://dc.lft.to/lastmile_qr_scan", "ios": "https://dc.lft.to/lastmile_qr_scan"}, "fusion_lon": 0.0, "is_reserved": 0, "is_disabled": 0, "fusion_lat": 0.0, "type": "electric_scooter", "name": "3ddc28c05c97738426b1dc7c05079970", "lat": 38.8778305, "bike_id": "3ddc28c05c97738426b1dc7c05079970"}, {"lon": -77.03241883333334, "rental_uris": {"android": "https://dc.lft.to/lastmile_qr_scan", "ios": "https://dc.lft.to/lastmile_qr_scan"}, "fusion_lon": 0.0, "is_reserved": 0, "is_disabled": 0, "fusion_lat": 0.0, "type": "electric_scooter", "name": "56863536e4d0b4dc6d7680b07d6a7026", "lat": 38.917079333333334, "bike_id": "56863536e4d0b4dc6d7680b07d6a7026"}, {"lon": -77.0242265, "rental_uris": {"android": "https://dc.lft.to/lastmile_qr_scan", "ios": "https://dc.lft.to/lastmile_qr_scan"}, "fusion_lon": 0.0, "is_reserved": 0, "is_disabled": 0, "fusion_lat": 0.0, "type": "electric_scooter", "name": "cc85b7f88ba24969f4a9eefd4ef9771c", "lat": 38.90038833333333, "bike_id": "cc85b7f88ba24969f4a9eefd4ef9771c"}, {"lon": -77.039428, "rental_uris": {"android": "https://dc.lft.to/lastmile_qr_scan", "ios": "https://dc.lft.to/lastmile_qr_scan"}, "fusion_lon": 0.0, "is_reserved": 0, "is_disabled": 0, "fusion_lat": 0.0, "type": "electric_scooter", "name": "df508c2ab56f73ee7c0fb4842c0b5435", "lat": 38.915954166666666, "bike_id": "df508c2ab56f73ee7c0fb4842c0b5435"}, {"lon": -77.02590266666667, "rental_uris": {"android": "https://dc.lft.to/lastmile_qr_scan", "ios": "https://dc.lft.to/lastmile_qr_scan"}, "fusion_lon": 0.0, "is_reserved": 0, "is_disabled": 0, "fusion_lat": 0.0, "type": "electric_scooter", "name": "6d9c30426fc625cae5079e64b72a68de", "lat": 38.941968833333334, "bike_id": "6d9c30426fc625cae5079e64b72a68de"}, {"lon": -77.0729635, "rental_uris": {"android": "https://dc.lft.to/lastmile_qr_scan", "ios": "https://dc.lft.to/lastmile_qr_scan"}, "fusion_lon": 0.0, "is_reserved": 0, "is_disabled": 0, "fusion_lat": 0.0, "type": "electric_bike", "name": "bf19f9e7919a83d236cea4373dd6039d", "lat": 38.935440666666665, "bike_id": "bf19f9e7919a83d236cea4373dd6039d"}, {"lon": -77.05176583333333, "rental_uris": {"android": "https://dc.lft.to/lastmile_qr_scan", "ios": "https://dc.lft.to/lastmile_qr_scan"}, "fusion_lon": 0.0, "is_reserved": 0, "is_disabled": 0, "fusion_lat": 0.0, "type": "electric_scooter", "name": "5c91a7e384ae6dccfb853258805cfb6b", "lat": 38.92423683333333, "bike_id": "5c91a7e384ae6dccfb853258805cfb6b"}, {"lon": -77.04488416666666, "rental_uris": {"android": "https://dc.lft.to/lastmile_qr_scan", "ios": "https://dc.lft.to/lastmile_qr_scan"}, "fusion_lon": 0.0, "is_reserved": 0, "is_disabled": 0, "fusion_lat": 0.0, "type": "electric_scooter", "name": "2ba189b63556fc48779a5436a7f05203", "lat": 38.903801333333334, "bike_id": "2ba189b63556fc48779a5436a7f05203"}, {"lon": -77.23949866666666, "rental_uris": {"android": "https://dc.lft.to/lastmile_qr_scan", "ios": "https://dc.lft.to/lastmile_qr_scan"}, "fusion_lon": 0.0, "is_reserved": 0, "is_disabled": 0, "fusion_lat": 0.0, "type": "electric_bike", "name": "037686cda39b6d05dbea025bd68cde50", "lat": 38.9247625, "bike_id": "037686cda39b6d05dbea025bd68cde50"}, {"lon": -77.03059233333333, "rental_uris": {"android": "https://dc.lft.to/lastmile_qr_scan", "ios": "https://dc.lft.to/lastmile_qr_scan"}, "fusion_lon": 0.0, "is_reserved": 0, "is_disabled": 0, "fusion_lat": 0.0, "type": "electric_scooter", "name": "8c6a1ac75197909d9eb039cfe14511d9", "lat": 38.9193185, "bike_id": "8c6a1ac75197909d9eb039cfe14511d9"}, {"lon": -77.02721233333334, "rental_uris": {"android": "https://dc.lft.to/lastmile_qr_scan", "ios": "https://dc.lft.to/lastmile_qr_scan"}, "fusion_lon": 0.0, "is_reserved": 0, "is_disabled": 0, "fusion_lat": 0.0, "type": "electric_scooter", "name": "52f3b70c2bf8caf65b3c45ed465f51eb", "lat": 38.89803833333333, "bike_id": "52f3b70c2bf8caf65b3c45ed465f51eb"}, {"lon": -77.07347233333333, "rental_uris": {"android": "https://dc.lft.to/lastmile_qr_scan", "ios": "https://dc.lft.to/lastmile_qr_scan"}, "fusion_lon": 0.0, "is_reserved": 0, "is_disabled": 0, "fusion_lat": 0.0, "type": "electric_scooter", "name": "ad80b145ba5ccccf16c9fadc23f85f4e", "lat": 38.9224495, "bike_id": "ad80b145ba5ccccf16c9fadc23f85f4e"}, {"lon": -77.02779816666667, "rental_uris": {"android": "https://dc.lft.to/lastmile_qr_scan", "ios": "https://dc.lft.to/lastmile_qr_scan"}, "fusion_lon": 0.0, "is_reserved": 0, "is_disabled": 0, "fusion_lat": 0.0, "type": "electric_scooter", "name": "6bbd2ee4957565003ef8b03fabdde9b7", "lat": 38.91713933333333, "bike_id": "6bbd2ee4957565003ef8b03fabdde9b7"}, {"lon": -77.0328665, "rental_uris": {"android": "https://dc.lft.to/lastmile_qr_scan", "ios": "https://dc.lft.to/lastmile_qr_scan"}, "fusion_lon": 0.0, "is_reserved": 0, "is_disabled": 0, "fusion_lat": 0.0, "type": "electric_bike", "name": "ef1dca87126407e1728974143a2470f0", "lat": 38.95647733333333, "bike_id": "ef1dca87126407e1728974143a2470f0"}, {"lon": -77.0356015, "rental_uris": {"android": "https://dc.lft.to/lastmile_qr_scan", "ios": "https://dc.lft.to/lastmile_qr_scan"}, "fusion_lon": 0.0, "is_reserved": 0, "is_disabled": 0, "fusion_lat": 0.0, "type": "electric_bike", "name": "7789c4a3c1949e44486c035ecb4db55c", "lat": 38.964694333333334, "bike_id": "7789c4a3c1949e44486c035ecb4db55c"}, {"lon": -77.03866366666666, "rental_uris": {"android": "https://dc.lft.to/lastmile_qr_scan", "ios": "https://dc.lft.to/lastmile_qr_scan"}, "fusion_lon": 0.0, "is_reserved": 0, "is_disabled": 0, "fusion_lat": 0.0, "type": "electric_scooter", "name": "626c5339434728c68a2cbe98654e3a90", "lat": 38.925367333333334, "bike_id": "626c5339434728c68a2cbe98654e3a90"}, {"lon": -77.03508566666666, "rental_uris": {"android": "https://dc.lft.to/lastmile_qr_scan", "ios": "https://dc.lft.to/lastmile_qr_scan"}, "fusion_lon": 0.0, "is_reserved": 0, "is_disabled": 0, "fusion_lat": 0.0, "type": "electric_scooter", "name": "fc9fc946becc13ff31989f47532e5c17", "lat": 38.92633766666667, "bike_id": "fc9fc946becc13ff31989f47532e5c17"}, {"lon": -76.99070766666667, "rental_uris": {"android": "https://dc.lft.to/lastmile_qr_scan", "ios": "https://dc.lft.to/lastmile_qr_scan"}, "fusion_lon": 0.0, "is_reserved": 0, "is_disabled": 0, "fusion_lat": 0.0, "type": "electric_bike", "name": "5d46cbd2ed9e794f72ff39f64a5af052", "lat": 38.89819, "bike_id": "5d46cbd2ed9e794f72ff39f64a5af052"}, {"lon": -77.02055316666667, "rental_uris": {"android": "https://dc.lft.to/lastmile_qr_scan", "ios": "https://dc.lft.to/lastmile_qr_scan"}, "fusion_lon": 0.0, "is_reserved": 0, "is_disabled": 0, "fusion_lat": 0.0, "type": "electric_scooter", "name": "078127f092a726d1a976d04ffe8af5ff", "lat": 38.9135525, "bike_id": "078127f092a726d1a976d04ffe8af5ff"}, {"lon": -77.02657166666667, "rental_uris": {"android": "https://dc.lft.to/lastmile_qr_scan", "ios": "https://dc.lft.to/lastmile_qr_scan"}, "fusion_lon": 0.0, "is_reserved": 0, "is_disabled": 0, "fusion_lat": 0.0, "type": "electric_scooter", "name": "bc4ca297920765e28e79342c15e63b21", "lat": 38.9056765, "bike_id": "bc4ca297920765e28e79342c15e63b21"}, {"lon": -77.0434375, "rental_uris": {"android": "https://dc.lft.to/lastmile_qr_scan", "ios": "https://dc.lft.to/lastmile_qr_scan"}, "fusion_lon": 0.0, "is_reserved": 0, "is_disabled": 0, "fusion_lat": 0.0, "type": "electric_scooter", "name": "509af0048d2880b207e6754aaa21a12a", "lat": 38.9058865, "bike_id": "509af0048d2880b207e6754aaa21a12a"}, {"lon": -77.00601533333334, "rental_uris": {"android": "https://dc.lft.to/lastmile_qr_scan", "ios": "https://dc.lft.to/lastmile_qr_scan"}, "fusion_lon": 0.0, "is_reserved": 0, "is_disabled": 0, "fusion_lat": 0.0, "type": "electric_scooter", "name": "78d45ede5dab587a66a6f0b4dde615a2", "lat": 38.9111605, "bike_id": "78d45ede5dab587a66a6f0b4dde615a2"}, {"lon": -77.01950316666667, "rental_uris": {"android": "https://dc.lft.to/lastmile_qr_scan", "ios": "https://dc.lft.to/lastmile_qr_scan"}, "fusion_lon": 0.0, "is_reserved": 0, "is_disabled": 0, "fusion_lat": 0.0, "type": "electric_scooter", "name": "524d35fdfe82099d08fd4d9c5e8946c1", "lat": 38.922485, "bike_id": "524d35fdfe82099d08fd4d9c5e8946c1"}, {"lon": -77.018334, "rental_uris": {"android": "https://dc.lft.to/lastmile_qr_scan", "ios": "https://dc.lft.to/lastmile_qr_scan"}, "fusion_lon": 0.0, "is_reserved": 0, "is_disabled": 0, "fusion_lat": 0.0, "type": "electric_scooter", "name": "3ab0fc025592b446372acd7d50b976d6", "lat": 38.92145266666667, "bike_id": "3ab0fc025592b446372acd7d50b976d6"}, {"lon": -77.009167, "rental_uris": {"android": "https://dc.lft.to/lastmile_qr_scan", "ios": "https://dc.lft.to/lastmile_qr_scan"}, "fusion_lon": 0.0, "is_reserved": 0, "is_disabled": 0, "fusion_lat": 0.0, "type": "electric_scooter", "name": "e46b054511af7c107722410fa3b42597", "lat": 38.89795, "bike_id": "e46b054511af7c107722410fa3b42597"}, {"lon": -77.03469533333333, "rental_uris": {"android": "https://dc.lft.to/lastmile_qr_scan", "ios": "https://dc.lft.to/lastmile_qr_scan"}, "fusion_lon": 0.0, "is_reserved": 0, "is_disabled": 0, "fusion_lat": 0.0, "type": "electric_scooter", "name": "5f695e8c03d072b4581247be926d7836", "lat": 38.902329333333334, "bike_id": "5f695e8c03d072b4581247be926d7836"}, {"lon": -77.00239433333333, "rental_uris": {"android": "https://dc.lft.to/lastmile_qr_scan", "ios": "https://dc.lft.to/lastmile_qr_scan"}, "fusion_lon": 0.0, "is_reserved": 0, "is_disabled": 0, "fusion_lat": 0.0, "type": "electric_scooter", "name": "63442169e86f9f81ac72cd5422bd8598", "lat": 38.9523685, "bike_id": "63442169e86f9f81ac72cd5422bd8598"}, {"lon": -77.038397, "rental_uris": {"android": "https://dc.lft.to/lastmile_qr_scan", "ios": "https://dc.lft.to/lastmile_qr_scan"}, "fusion_lon": 0.0, "is_reserved": 0, "is_disabled": 0, "fusion_lat": 0.0, "type": "electric_scooter", "name": "524f167749e089523740d1ed4fe0ca87", "lat": 38.903266, "bike_id": "524f167749e089523740d1ed4fe0ca87"}, {"lon": -77.04096583333333, "rental_uris": {"android": "https://dc.lft.to/lastmile_qr_scan", "ios": "https://dc.lft.to/lastmile_qr_scan"}, "fusion_lon": 0.0, "is_reserved": 0, "is_disabled": 0, "fusion_lat": 0.0, "type": "electric_scooter", "name": "5065aca216a88ee84c7d1442b7be922c", "lat": 38.898251, "bike_id": "5065aca216a88ee84c7d1442b7be922c"}, {"lon": -77.0030605, "rental_uris": {"android": "https://dc.lft.to/lastmile_qr_scan", "ios": "https://dc.lft.to/lastmile_qr_scan"}, "fusion_lon": 0.0, "is_reserved": 0, "is_disabled": 0, "fusion_lat": 0.0, "type": "electric_scooter", "name": "1cc8e153c4d9a83afe596a3e71ec1955", "lat": 38.8766915, "bike_id": "1cc8e153c4d9a83afe596a3e71ec1955"}, {"lon": -77.02505566666666, "rental_uris": {"android": "https://dc.lft.to/lastmile_qr_scan", "ios": "https://dc.lft.to/lastmile_qr_scan"}, "fusion_lon": 0.0, "is_reserved": 0, "is_disabled": 0, "fusion_lat": 0.0, "type": "electric_scooter", "name": "de33408a8030906205654d82e9a2e148", "lat": 38.9190725, "bike_id": "de33408a8030906205654d82e9a2e148"}, {"lon": -77.05313533333333, "rental_uris": {"android": "https://dc.lft.to/lastmile_qr_scan", "ios": "https://dc.lft.to/lastmile_qr_scan"}, "fusion_lon": 0.0, "is_reserved": 0, "is_disabled": 0, "fusion_lat": 0.0, "type": "electric_scooter", "name": "1ba7ff01cdd186a7b34980d244384c0d", "lat": 38.90268783333333, "bike_id": "1ba7ff01cdd186a7b34980d244384c0d"}, {"lon": -77.0336125, "rental_uris": {"android": "https://dc.lft.to/lastmile_qr_scan", "ios": "https://dc.lft.to/lastmile_qr_scan"}, "fusion_lon": 0.0, "is_reserved": 0, "is_disabled": 0, "fusion_lat": 0.0, "type": "electric_scooter", "name": "f4b426887651d52f90b736f2368c8345", "lat": 38.94511033333333, "bike_id": "f4b426887651d52f90b736f2368c8345"}, {"lon": -77.04900566666667, "rental_uris": {"android": "https://dc.lft.to/lastmile_qr_scan", "ios": "https://dc.lft.to/lastmile_qr_scan"}, "fusion_lon": 0.0, "is_reserved": 0, "is_disabled": 0, "fusion_lat": 0.0, "type": "electric_scooter", "name": "20bd9661bbddf6231fed1d612ad57244", "lat": 38.892235666666664, "bike_id": "20bd9661bbddf6231fed1d612ad57244"}, {"lon": -76.98713916666667, "rental_uris": {"android": "https://dc.lft.to/lastmile_qr_scan", "ios": "https://dc.lft.to/lastmile_qr_scan"}, "fusion_lon": 0.0, "is_reserved": 0, "is_disabled": 0, "fusion_lat": 0.0, "type": "electric_bike", "name": "befc49e69d7171ebd6429e788af26821", "lat": 38.8632325, "bike_id": "befc49e69d7171ebd6429e788af26821"}, {"lon": -77.00876183333334, "rental_uris": {"android": "https://dc.lft.to/lastmile_qr_scan", "ios": "https://dc.lft.to/lastmile_qr_scan"}, "fusion_lon": 0.0, "is_reserved": 0, "is_disabled": 0, "fusion_lat": 0.0, "type": "electric_scooter", "name": "2cc471a9a238f0708bcb90adc0e9082a", "lat": 38.905706333333335, "bike_id": "2cc471a9a238f0708bcb90adc0e9082a"}, {"lon": -77.03654116666667, "rental_uris": {"android": "https://dc.lft.to/lastmile_qr_scan", "ios": "https://dc.lft.to/lastmile_qr_scan"}, "fusion_lon": 0.0, "is_reserved": 0, "is_disabled": 0, "fusion_lat": 0.0, "type": "electric_scooter", "name": "71d063800a4feb715845304bf1f17b25", "lat": 38.9112935, "bike_id": "71d063800a4feb715845304bf1f17b25"}, {"lon": -77.01762833333333, "rental_uris": {"android": "https://dc.lft.to/lastmile_qr_scan", "ios": "https://dc.lft.to/lastmile_qr_scan"}, "fusion_lon": 0.0, "is_reserved": 0, "is_disabled": 0, "fusion_lat": 0.0, "type": "electric_scooter", "name": "322ad97626357b3dfe4ea997f8e3e5c4", "lat": 38.87711866666667, "bike_id": "322ad97626357b3dfe4ea997f8e3e5c4"}, {"lon": -77.23678883333334, "rental_uris": {"android": "https://dc.lft.to/lastmile_qr_scan", "ios": "https://dc.lft.to/lastmile_qr_scan"}, "fusion_lon": 0.0, "is_reserved": 0, "is_disabled": 0, "fusion_lat": 0.0, "type": "electric_bike", "name": "c63c1b596f06d77c3a2cfe249780dfc5", "lat": 38.92118716666667, "bike_id": "c63c1b596f06d77c3a2cfe249780dfc5"}, {"lon": -77.0377765, "rental_uris": {"android": "https://dc.lft.to/lastmile_qr_scan", "ios": "https://dc.lft.to/lastmile_qr_scan"}, "fusion_lon": 0.0, "is_reserved": 0, "is_disabled": 0, "fusion_lat": 0.0, "type": "electric_scooter", "name": "f0f2236832d16ca30909937ff80cda47", "lat": 38.90261116666667, "bike_id": "f0f2236832d16ca30909937ff80cda47"}, {"lon": -77.03387983333333, "rental_uris": {"android": "https://dc.lft.to/lastmile_qr_scan", "ios": "https://dc.lft.to/lastmile_qr_scan"}, "fusion_lon": 0.0, "is_reserved": 0, "is_disabled": 0, "fusion_lat": 0.0, "type": "electric_scooter", "name": "1ea8c9598c948f469d868dfd95eff416", "lat": 38.93849483333334, "bike_id": "1ea8c9598c948f469d868dfd95eff416"}, {"lon": -77.07266716666666, "rental_uris": {"android": "https://dc.lft.to/lastmile_qr_scan", "ios": "https://dc.lft.to/lastmile_qr_scan"}, "fusion_lon": 0.0, "is_reserved": 0, "is_disabled": 0, "fusion_lat": 0.0, "type": "electric_scooter", "name": "0a78dcc016112fb93f761345534ae7a8", "lat": 38.90909116666667, "bike_id": "0a78dcc016112fb93f761345534ae7a8"}, {"lon": -77.076952, "rental_uris": {"android": "https://dc.lft.to/lastmile_qr_scan", "ios": "https://dc.lft.to/lastmile_qr_scan"}, "fusion_lon": 0.0, "is_reserved": 0, "is_disabled": 0, "fusion_lat": 0.0, "type": "electric_scooter", "name": "8274e45c119a621903671cc8caea4125", "lat": 38.931543166666664, "bike_id": "8274e45c119a621903671cc8caea4125"}, {"lon": -77.02938733333333, "rental_uris": {"android": "https://dc.lft.to/lastmile_qr_scan", "ios": "https://dc.lft.to/lastmile_qr_scan"}, "fusion_lon": 0.0, "is_reserved": 0, "is_disabled": 0, "fusion_lat": 0.0, "type": "electric_scooter", "name": "02c1dd0eaa333cfeb269a82c6720f461", "lat": 38.90253533333333, "bike_id": "02c1dd0eaa333cfeb269a82c6720f461"}, {"lon": -77.0272395, "rental_uris": {"android": "https://dc.lft.to/lastmile_qr_scan", "ios": "https://dc.lft.to/lastmile_qr_scan"}, "fusion_lon": 0.0, "is_reserved": 0, "is_disabled": 0, "fusion_lat": 0.0, "type": "electric_scooter", "name": "c3d1d31c7450f511cddcb8c77604529c", "lat": 38.89666833333333, "bike_id": "c3d1d31c7450f511cddcb8c77604529c"}, {"lon": -77.04907966666667, "rental_uris": {"android": "https://dc.lft.to/lastmile_qr_scan", "ios": "https://dc.lft.to/lastmile_qr_scan"}, "fusion_lon": 0.0, "is_reserved": 0, "is_disabled": 0, "fusion_lat": 0.0, "type": "electric_scooter", "name": "0f38b4edcd84553564569cf97394229e", "lat": 38.9160265, "bike_id": "0f38b4edcd84553564569cf97394229e"}, {"lon": -77.02798483333333, "rental_uris": {"android": "https://dc.lft.to/lastmile_qr_scan", "ios": "https://dc.lft.to/lastmile_qr_scan"}, "fusion_lon": 0.0, "is_reserved": 0, "is_disabled": 0, "fusion_lat": 0.0, "type": "electric_scooter", "name": "bbe4ebc044d4bd4a3b667d783103aca0", "lat": 38.892269166666665, "bike_id": "bbe4ebc044d4bd4a3b667d783103aca0"}, {"lon": -77.05169516666666, "rental_uris": {"android": "https://dc.lft.to/lastmile_qr_scan", "ios": "https://dc.lft.to/lastmile_qr_scan"}, "fusion_lon": 0.0, "is_reserved": 0, "is_disabled": 0, "fusion_lat": 0.0, "type": "electric_scooter", "name": "284f06433ec3ea0092cca1b48041df9d", "lat": 38.92345016666667, "bike_id": "284f06433ec3ea0092cca1b48041df9d"}, {"lon": -77.01822966666667, "rental_uris": {"android": "https://dc.lft.to/lastmile_qr_scan", "ios": "https://dc.lft.to/lastmile_qr_scan"}, "fusion_lon": 0.0, "is_reserved": 0, "is_disabled": 0, "fusion_lat": 0.0, "type": "electric_scooter", "name": "25d699cfa4619385ea911b914b441f1f", "lat": 38.9008035, "bike_id": "25d699cfa4619385ea911b914b441f1f"}, {"lon": -77.04153883333333, "rental_uris": {"android": "https://dc.lft.to/lastmile_qr_scan", "ios": "https://dc.lft.to/lastmile_qr_scan"}, "fusion_lon": 0.0, "is_reserved": 0, "is_disabled": 0, "fusion_lat": 0.0, "type": "electric_scooter", "name": "e17d7452354ff99aded21d162a0de90d", "lat": 38.892294166666666, "bike_id": "e17d7452354ff99aded21d162a0de90d"}, {"lon": -77.01961666666666, "rental_uris": {"android": "https://dc.lft.to/lastmile_qr_scan", "ios": "https://dc.lft.to/lastmile_qr_scan"}, "fusion_lon": 0.0, "is_reserved": 0, "is_disabled": 0, "fusion_lat": 0.0, "type": "electric_scooter", "name": "11c00eb78f5eac173686eab7e6dda6ea", "lat": 38.921930833333334, "bike_id": "11c00eb78f5eac173686eab7e6dda6ea"}, {"lon": -77.002039, "rental_uris": {"android": "https://dc.lft.to/lastmile_qr_scan", "ios": "https://dc.lft.to/lastmile_qr_scan"}, "fusion_lon": 0.0, "is_reserved": 0, "is_disabled": 0, "fusion_lat": 0.0, "type": "electric_scooter", "name": "30547d8287942a39d18f1d340c09e805", "lat": 38.87406083333333, "bike_id": "30547d8287942a39d18f1d340c09e805"}, {"lon": -77.01949516666667, "rental_uris": {"android": "https://dc.lft.to/lastmile_qr_scan", "ios": "https://dc.lft.to/lastmile_qr_scan"}, "fusion_lon": 0.0, "is_reserved": 0, "is_disabled": 0, "fusion_lat": 0.0, "type": "electric_scooter", "name": "fae063ebf6b9de3f97b533f3a3efc924", "lat": 38.92252166666667, "bike_id": "fae063ebf6b9de3f97b533f3a3efc924"}, {"lon": -77.02689816666667, "rental_uris": {"android": "https://dc.lft.to/lastmile_qr_scan", "ios": "https://dc.lft.to/lastmile_qr_scan"}, "fusion_lon": 0.0, "is_reserved": 0, "is_disabled": 0, "fusion_lat": 0.0, "type": "electric_scooter", "name": "73d31d30d38a2fade6d4d7241937605a", "lat": 38.90948016666667, "bike_id": "73d31d30d38a2fade6d4d7241937605a"}, {"lon": -77.04670316666666, "rental_uris": {"android": "https://dc.lft.to/lastmile_qr_scan", "ios": "https://dc.lft.to/lastmile_qr_scan"}, "fusion_lon": 0.0, "is_reserved": 0, "is_disabled": 0, "fusion_lat": 0.0, "type": "electric_scooter", "name": "214f25a05bcccc60e7da85d3fbeaf186", "lat": 38.895557833333335, "bike_id": "214f25a05bcccc60e7da85d3fbeaf186"}, {"lon": -77.02176516666667, "rental_uris": {"android": "https://dc.lft.to/lastmile_qr_scan", "ios": "https://dc.lft.to/lastmile_qr_scan"}, "fusion_lon": 0.0, "is_reserved": 0, "is_disabled": 0, "fusion_lat": 0.0, "type": "electric_scooter", "name": "127ac4ed312008524c41b00b67fe0e52", "lat": 38.88732566666667, "bike_id": "127ac4ed312008524c41b00b67fe0e52"}, {"lon": -76.99792666666667, "rental_uris": {"android": "https://dc.lft.to/lastmile_qr_scan", "ios": "https://dc.lft.to/lastmile_qr_scan"}, "fusion_lon": 0.0, "is_reserved": 0, "is_disabled": 0, "fusion_lat": 0.0, "type": "electric_scooter", "name": "46b5e7f7be3446d7b2d16e2d31c25135", "lat": 38.885536333333334, "bike_id": "46b5e7f7be3446d7b2d16e2d31c25135"}, {"lon": -77.04405566666667, "rental_uris": {"android": "https://dc.lft.to/lastmile_qr_scan", "ios": "https://dc.lft.to/lastmile_qr_scan"}, "fusion_lon": 0.0, "is_reserved": 0, "is_disabled": 0, "fusion_lat": 0.0, "type": "electric_scooter", "name": "2061cf4f0655ef90fe27ca097fbdf741", "lat": 38.922251833333334, "bike_id": "2061cf4f0655ef90fe27ca097fbdf741"}, {"lon": -77.06729366666667, "rental_uris": {"android": "https://dc.lft.to/lastmile_qr_scan", "ios": "https://dc.lft.to/lastmile_qr_scan"}, "fusion_lon": 0.0, "is_reserved": 0, "is_disabled": 0, "fusion_lat": 0.0, "type": "electric_scooter", "name": "bd54aac086d1681c05a109932523ec2e", "lat": 38.90969483333333, "bike_id": "bd54aac086d1681c05a109932523ec2e"}, {"lon": -77.07265583333333, "rental_uris": {"android": "https://dc.lft.to/lastmile_qr_scan", "ios": "https://dc.lft.to/lastmile_qr_scan"}, "fusion_lon": 0.0, "is_reserved": 0, "is_disabled": 0, "fusion_lat": 0.0, "type": "electric_scooter", "name": "569ae9c7e6b7bc6acd56c99127ea820c", "lat": 38.909161, "bike_id": "569ae9c7e6b7bc6acd56c99127ea820c"}, {"lon": -76.996103, "rental_uris": {"android": "https://dc.lft.to/lastmile_qr_scan", "ios": "https://dc.lft.to/lastmile_qr_scan"}, "fusion_lon": 0.0, "is_reserved": 0, "is_disabled": 0, "fusion_lat": 0.0, "type": "electric_scooter", "name": "827cfdd5275ede88b5f182283c5bdf26", "lat": 38.88257216666667, "bike_id": "827cfdd5275ede88b5f182283c5bdf26"}, {"lon": -77.038445, "rental_uris": {"android": "https://dc.lft.to/lastmile_qr_scan", "ios": "https://dc.lft.to/lastmile_qr_scan"}, "fusion_lon": 0.0, "is_reserved": 0, "is_disabled": 0, "fusion_lat": 0.0, "type": "electric_scooter", "name": "4c423bf467cee1fbd94531ffbabda6ea", "lat": 38.90273083333334, "bike_id": "4c423bf467cee1fbd94531ffbabda6ea"}, {"lon": -77.01849983333334, "rental_uris": {"android": "https://dc.lft.to/lastmile_qr_scan", "ios": "https://dc.lft.to/lastmile_qr_scan"}, "fusion_lon": 0.0, "is_reserved": 0, "is_disabled": 0, "fusion_lat": 0.0, "type": "electric_scooter", "name": "b90be476cdef8936354f3cac396b79d9", "lat": 38.94887416666667, "bike_id": "b90be476cdef8936354f3cac396b79d9"}, {"lon": -76.95555166666666, "rental_uris": {"android": "https://dc.lft.to/lastmile_qr_scan", "ios": "https://dc.lft.to/lastmile_qr_scan"}, "fusion_lon": 0.0, "is_reserved": 0, "is_disabled": 0, "fusion_lat": 0.0, "type": "electric_scooter", "name": "f74c799fe3bc1d818c2fd2b86958c132", "lat": 38.92736716666667, "bike_id": "f74c799fe3bc1d818c2fd2b86958c132"}, {"lon": -77.02127416666667, "rental_uris": {"android": "https://dc.lft.to/lastmile_qr_scan", "ios": "https://dc.lft.to/lastmile_qr_scan"}, "fusion_lon": 0.0, "is_reserved": 0, "is_disabled": 0, "fusion_lat": 0.0, "type": "electric_scooter", "name": "fa52ad79ded7c3564f7207870b3c730d", "lat": 38.92435483333333, "bike_id": "fa52ad79ded7c3564f7207870b3c730d"}, {"lon": -77.04905416666666, "rental_uris": {"android": "https://dc.lft.to/lastmile_qr_scan", "ios": "https://dc.lft.to/lastmile_qr_scan"}, "fusion_lon": 0.0, "is_reserved": 0, "is_disabled": 0, "fusion_lat": 0.0, "type": "electric_scooter", "name": "6d6fcb3c38d947642068f6b786b4106c", "lat": 38.888389833333335, "bike_id": "6d6fcb3c38d947642068f6b786b4106c"}, {"lon": -76.99224933333333, "rental_uris": {"android": "https://dc.lft.to/lastmile_qr_scan", "ios": "https://dc.lft.to/lastmile_qr_scan"}, "fusion_lon": 0.0, "is_reserved": 0, "is_disabled": 0, "fusion_lat": 0.0, "type": "electric_scooter", "name": "19bb10c489002809f1493f1a4347a32c", "lat": 38.862907, "bike_id": "19bb10c489002809f1493f1a4347a32c"}, {"lon": -77.07897966666667, "rental_uris": {"android": "https://dc.lft.to/lastmile_qr_scan", "ios": "https://dc.lft.to/lastmile_qr_scan"}, "fusion_lon": 0.0, "is_reserved": 0, "is_disabled": 0, "fusion_lat": 0.0, "type": "electric_bike", "name": "e2d627c3288e1dbd49b282f535bc4635", "lat": 38.8483255, "bike_id": "e2d627c3288e1dbd49b282f535bc4635"}, {"lon": -77.05021033333334, "rental_uris": {"android": "https://dc.lft.to/lastmile_qr_scan", "ios": "https://dc.lft.to/lastmile_qr_scan"}, "fusion_lon": 0.0, "is_reserved": 0, "is_disabled": 0, "fusion_lat": 0.0, "type": "electric_scooter", "name": "94555ed61e24c982a67de708da22131e", "lat": 38.8982205, "bike_id": "94555ed61e24c982a67de708da22131e"}, {"lon": -77.04941033333333, "rental_uris": {"android": "https://dc.lft.to/lastmile_qr_scan", "ios": "https://dc.lft.to/lastmile_qr_scan"}, "fusion_lon": 0.0, "is_reserved": 0, "is_disabled": 0, "fusion_lat": 0.0, "type": "electric_scooter", "name": "eec7f552c2d61fe25d82e8cc81253cd2", "lat": 38.89215866666667, "bike_id": "eec7f552c2d61fe25d82e8cc81253cd2"}, {"lon": -77.04367383333333, "rental_uris": {"android": "https://dc.lft.to/lastmile_qr_scan", "ios": "https://dc.lft.to/lastmile_qr_scan"}, "fusion_lon": 0.0, "is_reserved": 0, "is_disabled": 0, "fusion_lat": 0.0, "type": "electric_scooter", "name": "37ef0b865540a69adb09dde86e2c734b", "lat": 38.892213, "bike_id": "37ef0b865540a69adb09dde86e2c734b"}, {"lon": -77.07955583333333, "rental_uris": {"android": "https://dc.lft.to/lastmile_qr_scan", "ios": "https://dc.lft.to/lastmile_qr_scan"}, "fusion_lon": 0.0, "is_reserved": 0, "is_disabled": 0, "fusion_lat": 0.0, "type": "electric_scooter", "name": "2226fb932fddab21921b154a2e2aab9c", "lat": 38.94563866666667, "bike_id": "2226fb932fddab21921b154a2e2aab9c"}, {"lon": -77.0211525, "rental_uris": {"android": "https://dc.lft.to/lastmile_qr_scan", "ios": "https://dc.lft.to/lastmile_qr_scan"}, "fusion_lon": 0.0, "is_reserved": 0, "is_disabled": 0, "fusion_lat": 0.0, "type": "electric_scooter", "name": "a6c6402a587c8cc7bd38555c023f8fd3", "lat": 38.892937, "bike_id": "a6c6402a587c8cc7bd38555c023f8fd3"}, {"lon": -76.97343733333334, "rental_uris": {"android": "https://dc.lft.to/lastmile_qr_scan", "ios": "https://dc.lft.to/lastmile_qr_scan"}, "fusion_lon": 0.0, "is_reserved": 0, "is_disabled": 0, "fusion_lat": 0.0, "type": "electric_scooter", "name": "aec332ed4f72b60367aed1c4c20b3344", "lat": 38.927645, "bike_id": "aec332ed4f72b60367aed1c4c20b3344"}, {"lon": -77.23358983333334, "rental_uris": {"android": "https://dc.lft.to/lastmile_qr_scan", "ios": "https://dc.lft.to/lastmile_qr_scan"}, "fusion_lon": 0.0, "is_reserved": 0, "is_disabled": 0, "fusion_lat": 0.0, "type": "electric_bike", "name": "748c671d787377ecd6febfe009f9968a", "lat": 38.924753333333335, "bike_id": "748c671d787377ecd6febfe009f9968a"}, {"lon": -77.02707883333333, "rental_uris": {"android": "https://dc.lft.to/lastmile_qr_scan", "ios": "https://dc.lft.to/lastmile_qr_scan"}, "fusion_lon": 0.0, "is_reserved": 0, "is_disabled": 0, "fusion_lat": 0.0, "type": "electric_scooter", "name": "e7f767042db5897d257b03e8d7855cea", "lat": 38.90665, "bike_id": "e7f767042db5897d257b03e8d7855cea"}, {"lon": -77.0271715, "rental_uris": {"android": "https://dc.lft.to/lastmile_qr_scan", "ios": "https://dc.lft.to/lastmile_qr_scan"}, "fusion_lon": 0.0, "is_reserved": 0, "is_disabled": 0, "fusion_lat": 0.0, "type": "electric_scooter", "name": "aae2cdfbcee064973f8173cbbf1a1c66", "lat": 38.936922333333335, "bike_id": "aae2cdfbcee064973f8173cbbf1a1c66"}, {"lon": -77.03947666666667, "rental_uris": {"android": "https://dc.lft.to/lastmile_qr_scan", "ios": "https://dc.lft.to/lastmile_qr_scan"}, "fusion_lon": 0.0, "is_reserved": 0, "is_disabled": 0, "fusion_lat": 0.0, "type": "electric_scooter", "name": "5f3a2d751f934291201daafaeeff2473", "lat": 38.94624566666667, "bike_id": "5f3a2d751f934291201daafaeeff2473"}, {"lon": -77.03829383333333, "rental_uris": {"android": "https://dc.lft.to/lastmile_qr_scan", "ios": "https://dc.lft.to/lastmile_qr_scan"}, "fusion_lon": 0.0, "is_reserved": 0, "is_disabled": 0, "fusion_lat": 0.0, "type": "electric_scooter", "name": "d577b6b13f5d42f9b03a257e0b7b38fe", "lat": 38.91109733333333, "bike_id": "d577b6b13f5d42f9b03a257e0b7b38fe"}, {"lon": -77.04340916666666, "rental_uris": {"android": "https://dc.lft.to/lastmile_qr_scan", "ios": "https://dc.lft.to/lastmile_qr_scan"}, "fusion_lon": 0.0, "is_reserved": 0, "is_disabled": 0, "fusion_lat": 0.0, "type": "electric_scooter", "name": "fa6f90a13134e6653799346c6677d91e", "lat": 38.9030095, "bike_id": "fa6f90a13134e6653799346c6677d91e"}, {"lon": -76.93751766666666, "rental_uris": {"android": "https://dc.lft.to/lastmile_qr_scan", "ios": "https://dc.lft.to/lastmile_qr_scan"}, "fusion_lon": 0.0, "is_reserved": 0, "is_disabled": 0, "fusion_lat": 0.0, "type": "electric_scooter", "name": "c451f0b88821b7f49c1ae629caf5f2dc", "lat": 38.89042, "bike_id": "c451f0b88821b7f49c1ae629caf5f2dc"}, {"lon": -77.03331983333334, "rental_uris": {"android": "https://dc.lft.to/lastmile_qr_scan", "ios": "https://dc.lft.to/lastmile_qr_scan"}, "fusion_lon": 0.0, "is_reserved": 0, "is_disabled": 0, "fusion_lat": 0.0, "type": "electric_scooter", "name": "3e4bef47fe12795533c6ff7e62e9c7fc", "lat": 38.92439783333333, "bike_id": "3e4bef47fe12795533c6ff7e62e9c7fc"}, {"lon": -76.932555, "rental_uris": {"android": "https://dc.lft.to/lastmile_qr_scan", "ios": "https://dc.lft.to/lastmile_qr_scan"}, "fusion_lon": 0.0, "is_reserved": 0, "is_disabled": 0, "fusion_lat": 0.0, "type": "electric_scooter", "name": "aed6c70f604f99b97f9adaedef26aee3", "lat": 38.887472833333334, "bike_id": "aed6c70f604f99b97f9adaedef26aee3"}, {"lon": -77.02134416666667, "rental_uris": {"android": "https://dc.lft.to/lastmile_qr_scan", "ios": "https://dc.lft.to/lastmile_qr_scan"}, "fusion_lon": 0.0, "is_reserved": 0, "is_disabled": 0, "fusion_lat": 0.0, "type": "electric_scooter", "name": "41d20ab873f9f0312ad924751ff53c37", "lat": 38.92490083333333, "bike_id": "41d20ab873f9f0312ad924751ff53c37"}, {"lon": -77.04330116666667, "rental_uris": {"android": "https://dc.lft.to/lastmile_qr_scan", "ios": "https://dc.lft.to/lastmile_qr_scan"}, "fusion_lon": 0.0, "is_reserved": 0, "is_disabled": 0, "fusion_lat": 0.0, "type": "electric_scooter", "name": "20fc07401a1087ce1c09bc78842b1912", "lat": 38.8922035, "bike_id": "20fc07401a1087ce1c09bc78842b1912"}, {"lon": -77.038342, "rental_uris": {"android": "https://dc.lft.to/lastmile_qr_scan", "ios": "https://dc.lft.to/lastmile_qr_scan"}, "fusion_lon": 0.0, "is_reserved": 0, "is_disabled": 0, "fusion_lat": 0.0, "type": "electric_scooter", "name": "12f77cf606a26d9a13566b1d7bf4c214", "lat": 38.9116655, "bike_id": "12f77cf606a26d9a13566b1d7bf4c214"}, {"lon": -76.94663383333334, "rental_uris": {"android": "https://dc.lft.to/lastmile_qr_scan", "ios": "https://dc.lft.to/lastmile_qr_scan"}, "fusion_lon": 0.0, "is_reserved": 0, "is_disabled": 0, "fusion_lat": 0.0, "type": "electric_scooter", "name": "f7343083bcda46f9c2770cfc6fb09c6b", "lat": 38.898684833333334, "bike_id": "f7343083bcda46f9c2770cfc6fb09c6b"}, {"lon": -77.0079455, "rental_uris": {"android": "https://dc.lft.to/lastmile_qr_scan", "ios": "https://dc.lft.to/lastmile_qr_scan"}, "fusion_lon": 0.0, "is_reserved": 0, "is_disabled": 0, "fusion_lat": 0.0, "type": "electric_bike", "name": "a2a31b87523b3aee2dde6afdb6e79e96", "lat": 38.949200166666664, "bike_id": "a2a31b87523b3aee2dde6afdb6e79e96"}, {"lon": -77.00934566666666, "rental_uris": {"android": "https://dc.lft.to/lastmile_qr_scan", "ios": "https://dc.lft.to/lastmile_qr_scan"}, "fusion_lon": 0.0, "is_reserved": 0, "is_disabled": 0, "fusion_lat": 0.0, "type": "electric_scooter", "name": "2b3863b2ee8d8597e7314ecc8535c7cb", "lat": 38.922300166666666, "bike_id": "2b3863b2ee8d8597e7314ecc8535c7cb"}, {"lon": -76.92889333333333, "rental_uris": {"android": "https://dc.lft.to/lastmile_qr_scan", "ios": "https://dc.lft.to/lastmile_qr_scan"}, "fusion_lon": 0.0, "is_reserved": 0, "is_disabled": 0, "fusion_lat": 0.0, "type": "electric_bike", "name": "dff2feb96d3e96c5587b449d1f20f68a", "lat": 38.97830116666667, "bike_id": "dff2feb96d3e96c5587b449d1f20f68a"}, {"lon": -77.03583233333333, "rental_uris": {"android": "https://dc.lft.to/lastmile_qr_scan", "ios": "https://dc.lft.to/lastmile_qr_scan"}, "fusion_lon": 0.0, "is_reserved": 0, "is_disabled": 0, "fusion_lat": 0.0, "type": "electric_bike", "name": "f8cc6e11e97d2402033d5fd60f7dd6c1", "lat": 38.99221383333333, "bike_id": "f8cc6e11e97d2402033d5fd60f7dd6c1"}, {"lon": -77.0394145, "rental_uris": {"android": "https://dc.lft.to/lastmile_qr_scan", "ios": "https://dc.lft.to/lastmile_qr_scan"}, "fusion_lon": 0.0, "is_reserved": 0, "is_disabled": 0, "fusion_lat": 0.0, "type": "electric_scooter", "name": "76ed16387e39a523dc3fdd91f8326281", "lat": 38.90833583333333, "bike_id": "76ed16387e39a523dc3fdd91f8326281"}, {"lon": -76.95239733333334, "rental_uris": {"android": "https://dc.lft.to/lastmile_qr_scan", "ios": "https://dc.lft.to/lastmile_qr_scan"}, "fusion_lon": 0.0, "is_reserved": 0, "is_disabled": 0, "fusion_lat": 0.0, "type": "electric_bike", "name": "8bcf22a9e136a146eace9e3c6a9d4dc2", "lat": 38.884600166666665, "bike_id": "8bcf22a9e136a146eace9e3c6a9d4dc2"}, {"lon": -77.12729633333333, "rental_uris": {"android": "https://dc.lft.to/lastmile_qr_scan", "ios": "https://dc.lft.to/lastmile_qr_scan"}, "fusion_lon": 0.0, "is_reserved": 0, "is_disabled": 0, "fusion_lat": 0.0, "type": "electric_bike", "name": "a220aba110d53ea926b460143492778c", "lat": 38.89555083333333, "bike_id": "a220aba110d53ea926b460143492778c"}, {"lon": -77.04488116666667, "rental_uris": {"android": "https://dc.lft.to/lastmile_qr_scan", "ios": "https://dc.lft.to/lastmile_qr_scan"}, "fusion_lon": 0.0, "is_reserved": 0, "is_disabled": 0, "fusion_lat": 0.0, "type": "electric_scooter", "name": "0d19154aebcdb5358bc46cf88dd35d25", "lat": 38.905520333333335, "bike_id": "0d19154aebcdb5358bc46cf88dd35d25"}, {"lon": -77.029517, "rental_uris": {"android": "https://dc.lft.to/lastmile_qr_scan", "ios": "https://dc.lft.to/lastmile_qr_scan"}, "fusion_lon": 0.0, "is_reserved": 0, "is_disabled": 0, "fusion_lat": 0.0, "type": "electric_scooter", "name": "0c7a68553407b3254536d4cfc3810a86", "lat": 38.9189235, "bike_id": "0c7a68553407b3254536d4cfc3810a86"}, {"lon": -77.02201483333333, "rental_uris": {"android": "https://dc.lft.to/lastmile_qr_scan", "ios": "https://dc.lft.to/lastmile_qr_scan"}, "fusion_lon": 0.0, "is_reserved": 0, "is_disabled": 0, "fusion_lat": 0.0, "type": "electric_scooter", "name": "7cd608b051e2a65dac24a014f939aef6", "lat": 38.887196833333334, "bike_id": "7cd608b051e2a65dac24a014f939aef6"}, {"lon": -77.0151195, "rental_uris": {"android": "https://dc.lft.to/lastmile_qr_scan", "ios": "https://dc.lft.to/lastmile_qr_scan"}, "fusion_lon": 0.0, "is_reserved": 0, "is_disabled": 0, "fusion_lat": 0.0, "type": "electric_scooter", "name": "881779f7a87641077753579fbfac74a0", "lat": 38.926722833333336, "bike_id": "881779f7a87641077753579fbfac74a0"}, {"lon": -77.22882733333333, "rental_uris": {"android": "https://dc.lft.to/lastmile_qr_scan", "ios": "https://dc.lft.to/lastmile_qr_scan"}, "fusion_lon": 0.0, "is_reserved": 0, "is_disabled": 0, "fusion_lat": 0.0, "type": "electric_bike", "name": "57b83bb4f5d4802a6ee4bdea89a6433e", "lat": 38.87029866666666, "bike_id": "57b83bb4f5d4802a6ee4bdea89a6433e"}, {"lon": -76.98877883333333, "rental_uris": {"android": "https://dc.lft.to/lastmile_qr_scan", "ios": "https://dc.lft.to/lastmile_qr_scan"}, "fusion_lon": 0.0, "is_reserved": 0, "is_disabled": 0, "fusion_lat": 0.0, "type": "electric_bike", "name": "eebab415d1e34ffb96a18441565d5327", "lat": 38.921349, "bike_id": "eebab415d1e34ffb96a18441565d5327"}, {"lon": -77.0314875, "rental_uris": {"android": "https://dc.lft.to/lastmile_qr_scan", "ios": "https://dc.lft.to/lastmile_qr_scan"}, "fusion_lon": 0.0, "is_reserved": 0, "is_disabled": 0, "fusion_lat": 0.0, "type": "electric_scooter", "name": "4a38287ddb55b72d92cead5216576ca6", "lat": 38.91641033333333, "bike_id": "4a38287ddb55b72d92cead5216576ca6"}, {"lon": -77.00492383333334, "rental_uris": {"android": "https://dc.lft.to/lastmile_qr_scan", "ios": "https://dc.lft.to/lastmile_qr_scan"}, "fusion_lon": 0.0, "is_reserved": 0, "is_disabled": 0, "fusion_lat": 0.0, "type": "electric_scooter", "name": "3b6b122bdfe396605f88239f30d3533a", "lat": 38.896882833333336, "bike_id": "3b6b122bdfe396605f88239f30d3533a"}, {"lon": -77.03014183333333, "rental_uris": {"android": "https://dc.lft.to/lastmile_qr_scan", "ios": "https://dc.lft.to/lastmile_qr_scan"}, "fusion_lon": 0.0, "is_reserved": 0, "is_disabled": 0, "fusion_lat": 0.0, "type": "electric_scooter", "name": "d00e2e999d17519278d9d7af1df4274a", "lat": 38.9348645, "bike_id": "d00e2e999d17519278d9d7af1df4274a"}, {"lon": -77.04648016666667, "rental_uris": {"android": "https://dc.lft.to/lastmile_qr_scan", "ios": "https://dc.lft.to/lastmile_qr_scan"}, "fusion_lon": 0.0, "is_reserved": 0, "is_disabled": 0, "fusion_lat": 0.0, "type": "electric_scooter", "name": "98c7c9e65a48c95fdd8d612f55a9cee1", "lat": 38.892292166666664, "bike_id": "98c7c9e65a48c95fdd8d612f55a9cee1"}, {"lon": -77.03990516666667, "rental_uris": {"android": "https://dc.lft.to/lastmile_qr_scan", "ios": "https://dc.lft.to/lastmile_qr_scan"}, "fusion_lon": 0.0, "is_reserved": 0, "is_disabled": 0, "fusion_lat": 0.0, "type": "electric_scooter", "name": "8b1579e9bc972bca0b865c386dd9a1e1", "lat": 38.899038833333336, "bike_id": "8b1579e9bc972bca0b865c386dd9a1e1"}, {"lon": -77.0462545, "rental_uris": {"android": "https://dc.lft.to/lastmile_qr_scan", "ios": "https://dc.lft.to/lastmile_qr_scan"}, "fusion_lon": 0.0, "is_reserved": 0, "is_disabled": 0, "fusion_lat": 0.0, "type": "electric_scooter", "name": "de73a4d93afbdbefae4da503bc09f612", "lat": 38.90276516666667, "bike_id": "de73a4d93afbdbefae4da503bc09f612"}, {"lon": -76.9849305, "rental_uris": {"android": "https://dc.lft.to/lastmile_qr_scan", "ios": "https://dc.lft.to/lastmile_qr_scan"}, "fusion_lon": 0.0, "is_reserved": 0, "is_disabled": 0, "fusion_lat": 0.0, "type": "electric_bike", "name": "bae571fd99063198dea82c0fa2e93f0e", "lat": 38.87935916666667, "bike_id": "bae571fd99063198dea82c0fa2e93f0e"}, {"lon": -77.01842066666667, "rental_uris": {"android": "https://dc.lft.to/lastmile_qr_scan", "ios": "https://dc.lft.to/lastmile_qr_scan"}, "fusion_lon": 0.0, "is_reserved": 0, "is_disabled": 0, "fusion_lat": 0.0, "type": "electric_scooter", "name": "cac9b3567e5ef3336d07184ec19b3e68", "lat": 38.922630166666664, "bike_id": "cac9b3567e5ef3336d07184ec19b3e68"}, {"lon": -77.04052416666667, "rental_uris": {"android": "https://dc.lft.to/lastmile_qr_scan", "ios": "https://dc.lft.to/lastmile_qr_scan"}, "fusion_lon": 0.0, "is_reserved": 0, "is_disabled": 0, "fusion_lat": 0.0, "type": "electric_scooter", "name": "c56c6f8b9a1fa5b9a75141438641c0b1", "lat": 38.927955, "bike_id": "c56c6f8b9a1fa5b9a75141438641c0b1"}, {"lon": -77.0066445, "rental_uris": {"android": "https://dc.lft.to/lastmile_qr_scan", "ios": "https://dc.lft.to/lastmile_qr_scan"}, "fusion_lon": 0.0, "is_reserved": 0, "is_disabled": 0, "fusion_lat": 0.0, "type": "electric_scooter", "name": "59c439f2556ffd6c2ab07504bcf3141c", "lat": 38.9007795, "bike_id": "59c439f2556ffd6c2ab07504bcf3141c"}, {"lon": -77.04826166666666, "rental_uris": {"android": "https://dc.lft.to/lastmile_qr_scan", "ios": "https://dc.lft.to/lastmile_qr_scan"}, "fusion_lon": 0.0, "is_reserved": 0, "is_disabled": 0, "fusion_lat": 0.0, "type": "electric_scooter", "name": "72280a2d56f444b8da27d0ba76ca3af6", "lat": 38.900499, "bike_id": "72280a2d56f444b8da27d0ba76ca3af6"}, {"lon": -77.0069895, "rental_uris": {"android": "https://dc.lft.to/lastmile_qr_scan", "ios": "https://dc.lft.to/lastmile_qr_scan"}, "fusion_lon": 0.0, "is_reserved": 0, "is_disabled": 0, "fusion_lat": 0.0, "type": "electric_scooter", "name": "97301db05d721c67f81f17fb44b652c9", "lat": 38.91550683333333, "bike_id": "97301db05d721c67f81f17fb44b652c9"}, {"lon": -77.04494183333334, "rental_uris": {"android": "https://dc.lft.to/lastmile_qr_scan", "ios": "https://dc.lft.to/lastmile_qr_scan"}, "fusion_lon": 0.0, "is_reserved": 0, "is_disabled": 0, "fusion_lat": 0.0, "type": "electric_scooter", "name": "50adc87070d1302475461ff9ada8e2b9", "lat": 38.90346433333333, "bike_id": "50adc87070d1302475461ff9ada8e2b9"}, {"lon": -77.03391716666667, "rental_uris": {"android": "https://dc.lft.to/lastmile_qr_scan", "ios": "https://dc.lft.to/lastmile_qr_scan"}, "fusion_lon": 0.0, "is_reserved": 0, "is_disabled": 0, "fusion_lat": 0.0, "type": "electric_scooter", "name": "271434a9749ee91da5d25d4a7ea6e23d", "lat": 38.9023275, "bike_id": "271434a9749ee91da5d25d4a7ea6e23d"}, {"lon": -77.0365775, "rental_uris": {"android": "https://dc.lft.to/lastmile_qr_scan", "ios": "https://dc.lft.to/lastmile_qr_scan"}, "fusion_lon": 0.0, "is_reserved": 0, "is_disabled": 0, "fusion_lat": 0.0, "type": "electric_scooter", "name": "d7cf7c71a2a653e044e972710d3ee836", "lat": 38.9026365, "bike_id": "d7cf7c71a2a653e044e972710d3ee836"}, {"lon": -77.03968766666667, "rental_uris": {"android": "https://dc.lft.to/lastmile_qr_scan", "ios": "https://dc.lft.to/lastmile_qr_scan"}, "fusion_lon": 0.0, "is_reserved": 0, "is_disabled": 0, "fusion_lat": 0.0, "type": "electric_scooter", "name": "6fd92f33f7f692dc46a58610dd06351f", "lat": 38.9014745, "bike_id": "6fd92f33f7f692dc46a58610dd06351f"}, {"lon": -77.0448995, "rental_uris": {"android": "https://dc.lft.to/lastmile_qr_scan", "ios": "https://dc.lft.to/lastmile_qr_scan"}, "fusion_lon": 0.0, "is_reserved": 0, "is_disabled": 0, "fusion_lat": 0.0, "type": "electric_bike", "name": "ac6731540f026026f4346e2d480a2fd9", "lat": 38.897105333333336, "bike_id": "ac6731540f026026f4346e2d480a2fd9"}, {"lon": -77.01572866666666, "rental_uris": {"android": "https://dc.lft.to/lastmile_qr_scan", "ios": "https://dc.lft.to/lastmile_qr_scan"}, "fusion_lon": 0.0, "is_reserved": 0, "is_disabled": 0, "fusion_lat": 0.0, "type": "electric_scooter", "name": "bc97deb3fa159d55f0f84c78de5b26af", "lat": 38.8764765, "bike_id": "bc97deb3fa159d55f0f84c78de5b26af"}, {"lon": -77.01140316666667, "rental_uris": {"android": "https://dc.lft.to/lastmile_qr_scan", "ios": "https://dc.lft.to/lastmile_qr_scan"}, "fusion_lon": 0.0, "is_reserved": 0, "is_disabled": 0, "fusion_lat": 0.0, "type": "electric_scooter", "name": "57667a5ef85c7c700715eb76fe451a99", "lat": 38.8832965, "bike_id": "57667a5ef85c7c700715eb76fe451a99"}, {"lon": -77.04495866666667, "rental_uris": {"android": "https://dc.lft.to/lastmile_qr_scan", "ios": "https://dc.lft.to/lastmile_qr_scan"}, "fusion_lon": 0.0, "is_reserved": 0, "is_disabled": 0, "fusion_lat": 0.0, "type": "electric_bike", "name": "89981ee7cefa93b41aefcd0813ab1d07", "lat": 39.0141855, "bike_id": "89981ee7cefa93b41aefcd0813ab1d07"}, {"lon": -77.03909933333334, "rental_uris": {"android": "https://dc.lft.to/lastmile_qr_scan", "ios": "https://dc.lft.to/lastmile_qr_scan"}, "fusion_lon": 0.0, "is_reserved": 0, "is_disabled": 0, "fusion_lat": 0.0, "type": "electric_scooter", "name": "4986174c54cc77f0ba6684c1e15cd71b", "lat": 38.9168545, "bike_id": "4986174c54cc77f0ba6684c1e15cd71b"}, {"lon": -77.0202675, "rental_uris": {"android": "https://dc.lft.to/lastmile_qr_scan", "ios": "https://dc.lft.to/lastmile_qr_scan"}, "fusion_lon": 0.0, "is_reserved": 0, "is_disabled": 0, "fusion_lat": 0.0, "type": "electric_scooter", "name": "26120158325c1e343b52a5f6d542d3e0", "lat": 38.9243815, "bike_id": "26120158325c1e343b52a5f6d542d3e0"}, {"lon": -77.0213245, "rental_uris": {"android": "https://dc.lft.to/lastmile_qr_scan", "ios": "https://dc.lft.to/lastmile_qr_scan"}, "fusion_lon": 0.0, "is_reserved": 0, "is_disabled": 0, "fusion_lat": 0.0, "type": "electric_scooter", "name": "f3da9fab1ba53e1e46b773ee64bedf8a", "lat": 38.92445, "bike_id": "f3da9fab1ba53e1e46b773ee64bedf8a"}, {"lon": -77.0761585, "rental_uris": {"android": "https://dc.lft.to/lastmile_qr_scan", "ios": "https://dc.lft.to/lastmile_qr_scan"}, "fusion_lon": 0.0, "is_reserved": 0, "is_disabled": 0, "fusion_lat": 0.0, "type": "electric_scooter", "name": "c3bc4b92da7c6fbc3acf7d528b06cb94", "lat": 38.9071925, "bike_id": "c3bc4b92da7c6fbc3acf7d528b06cb94"}, {"lon": -76.993671, "rental_uris": {"android": "https://dc.lft.to/lastmile_qr_scan", "ios": "https://dc.lft.to/lastmile_qr_scan"}, "fusion_lon": 0.0, "is_reserved": 0, "is_disabled": 0, "fusion_lat": 0.0, "type": "electric_scooter", "name": "aa7c8779d5c80119899e548e90a8e31e", "lat": 38.88933183333333, "bike_id": "aa7c8779d5c80119899e548e90a8e31e"}, {"lon": -77.07279133333333, "rental_uris": {"android": "https://dc.lft.to/lastmile_qr_scan", "ios": "https://dc.lft.to/lastmile_qr_scan"}, "fusion_lon": 0.0, "is_reserved": 0, "is_disabled": 0, "fusion_lat": 0.0, "type": "electric_scooter", "name": "85353c2490c808c2bfc48558d7ba7792", "lat": 38.934693833333334, "bike_id": "85353c2490c808c2bfc48558d7ba7792"}, {"lon": -77.0220325, "rental_uris": {"android": "https://dc.lft.to/lastmile_qr_scan", "ios": "https://dc.lft.to/lastmile_qr_scan"}, "fusion_lon": 0.0, "is_reserved": 0, "is_disabled": 0, "fusion_lat": 0.0, "type": "electric_scooter", "name": "995030b2e3acdf4882f59805e714f009", "lat": 38.8871535, "bike_id": "995030b2e3acdf4882f59805e714f009"}, {"lon": -77.02942933333334, "rental_uris": {"android": "https://dc.lft.to/lastmile_qr_scan", "ios": "https://dc.lft.to/lastmile_qr_scan"}, "fusion_lon": 0.0, "is_reserved": 0, "is_disabled": 0, "fusion_lat": 0.0, "type": "electric_scooter", "name": "eddc30cc7abcbcb0060717535e00ca54", "lat": 38.93249, "bike_id": "eddc30cc7abcbcb0060717535e00ca54"}, {"lon": -77.008779, "rental_uris": {"android": "https://dc.lft.to/lastmile_qr_scan", "ios": "https://dc.lft.to/lastmile_qr_scan"}, "fusion_lon": 0.0, "is_reserved": 0, "is_disabled": 0, "fusion_lat": 0.0, "type": "electric_scooter", "name": "ebd159bacb2f3636fa1a0f21a75449d7", "lat": 38.91148283333333, "bike_id": "ebd159bacb2f3636fa1a0f21a75449d7"}, {"lon": -77.03264666666666, "rental_uris": {"android": "https://dc.lft.to/lastmile_qr_scan", "ios": "https://dc.lft.to/lastmile_qr_scan"}, "fusion_lon": 0.0, "is_reserved": 0, "is_disabled": 0, "fusion_lat": 0.0, "type": "electric_scooter", "name": "a2f37bcd1b4f585e4d918a530d5fb3ac", "lat": 38.90269, "bike_id": "a2f37bcd1b4f585e4d918a530d5fb3ac"}, {"lon": -77.03286716666666, "rental_uris": {"android": "https://dc.lft.to/lastmile_qr_scan", "ios": "https://dc.lft.to/lastmile_qr_scan"}, "fusion_lon": 0.0, "is_reserved": 0, "is_disabled": 0, "fusion_lat": 0.0, "type": "electric_scooter", "name": "20dda38142727a05d0de5b9c805b943b", "lat": 38.89904766666667, "bike_id": "20dda38142727a05d0de5b9c805b943b"}, {"lon": -77.04645316666667, "rental_uris": {"android": "https://dc.lft.to/lastmile_qr_scan", "ios": "https://dc.lft.to/lastmile_qr_scan"}, "fusion_lon": 0.0, "is_reserved": 0, "is_disabled": 0, "fusion_lat": 0.0, "type": "electric_scooter", "name": "9c32e77a2413a1a6edaa40027db3ddec", "lat": 38.8996235, "bike_id": "9c32e77a2413a1a6edaa40027db3ddec"}, {"lon": -76.99507833333334, "rental_uris": {"android": "https://dc.lft.to/lastmile_qr_scan", "ios": "https://dc.lft.to/lastmile_qr_scan"}, "fusion_lon": 0.0, "is_reserved": 0, "is_disabled": 0, "fusion_lat": 0.0, "type": "electric_scooter", "name": "769cac092eb8a760be9f4693a0135b2d", "lat": 38.84743266666667, "bike_id": "769cac092eb8a760be9f4693a0135b2d"}, {"lon": -76.93729016666667, "rental_uris": {"android": "https://dc.lft.to/lastmile_qr_scan", "ios": "https://dc.lft.to/lastmile_qr_scan"}, "fusion_lon": 0.0, "is_reserved": 0, "is_disabled": 0, "fusion_lat": 0.0, "type": "electric_scooter", "name": "cfc5c998241bf70759df6420982a35ff", "lat": 38.8903165, "bike_id": "cfc5c998241bf70759df6420982a35ff"}, {"lon": -76.98982766666667, "rental_uris": {"android": "https://dc.lft.to/lastmile_qr_scan", "ios": "https://dc.lft.to/lastmile_qr_scan"}, "fusion_lon": 0.0, "is_reserved": 0, "is_disabled": 0, "fusion_lat": 0.0, "type": "electric_scooter", "name": "d0657b0d49e721682bd8a59564e4c416", "lat": 38.924432333333336, "bike_id": "d0657b0d49e721682bd8a59564e4c416"}, {"lon": -76.9520195, "rental_uris": {"android": "https://dc.lft.to/lastmile_qr_scan", "ios": "https://dc.lft.to/lastmile_qr_scan"}, "fusion_lon": 0.0, "is_reserved": 0, "is_disabled": 0, "fusion_lat": 0.0, "type": "electric_scooter", "name": "1045235b7244f192a326cddef7e04a95", "lat": 38.9047245, "bike_id": "1045235b7244f192a326cddef7e04a95"}, {"lon": -77.014887, "rental_uris": {"android": "https://dc.lft.to/lastmile_qr_scan", "ios": "https://dc.lft.to/lastmile_qr_scan"}, "fusion_lon": 0.0, "is_reserved": 0, "is_disabled": 0, "fusion_lat": 0.0, "type": "electric_scooter", "name": "d8d0a98ab71f8030f105d7f4acd3a3ef", "lat": 38.90725416666667, "bike_id": "d8d0a98ab71f8030f105d7f4acd3a3ef"}, {"lon": -77.031617, "rental_uris": {"android": "https://dc.lft.to/lastmile_qr_scan", "ios": "https://dc.lft.to/lastmile_qr_scan"}, "fusion_lon": 0.0, "is_reserved": 0, "is_disabled": 0, "fusion_lat": 0.0, "type": "electric_scooter", "name": "6130c3bc43c0d3428b78656f7a6eb05d", "lat": 38.903566, "bike_id": "6130c3bc43c0d3428b78656f7a6eb05d"}, {"lon": -77.072314, "rental_uris": {"android": "https://dc.lft.to/lastmile_qr_scan", "ios": "https://dc.lft.to/lastmile_qr_scan"}, "fusion_lon": 0.0, "is_reserved": 0, "is_disabled": 0, "fusion_lat": 0.0, "type": "electric_scooter", "name": "f854cdd8a4b30aa4a9c10a5c3a5203cb", "lat": 38.938441833333336, "bike_id": "f854cdd8a4b30aa4a9c10a5c3a5203cb"}, {"lon": -77.05740783333333, "rental_uris": {"android": "https://dc.lft.to/lastmile_qr_scan", "ios": "https://dc.lft.to/lastmile_qr_scan"}, "fusion_lon": 0.0, "is_reserved": 0, "is_disabled": 0, "fusion_lat": 0.0, "type": "electric_scooter", "name": "f380822a0861354af9a8f8f3e7baddd0", "lat": 38.935373, "bike_id": "f380822a0861354af9a8f8f3e7baddd0"}, {"lon": -76.98894066666666, "rental_uris": {"android": "https://dc.lft.to/lastmile_qr_scan", "ios": "https://dc.lft.to/lastmile_qr_scan"}, "fusion_lon": 0.0, "is_reserved": 0, "is_disabled": 0, "fusion_lat": 0.0, "type": "electric_scooter", "name": "629c0be5e9bff7878a25b34ff35395ae", "lat": 38.86112333333333, "bike_id": "629c0be5e9bff7878a25b34ff35395ae"}, {"lon": -77.0274755, "rental_uris": {"android": "https://dc.lft.to/lastmile_qr_scan", "ios": "https://dc.lft.to/lastmile_qr_scan"}, "fusion_lon": 0.0, "is_reserved": 0, "is_disabled": 0, "fusion_lat": 0.0, "type": "electric_scooter", "name": "1f102cc224ce9bae0878c64ab8d45e8e", "lat": 38.966079, "bike_id": "1f102cc224ce9bae0878c64ab8d45e8e"}, {"lon": -77.07162866666667, "rental_uris": {"android": "https://dc.lft.to/lastmile_qr_scan", "ios": "https://dc.lft.to/lastmile_qr_scan"}, "fusion_lon": 0.0, "is_reserved": 0, "is_disabled": 0, "fusion_lat": 0.0, "type": "electric_bike", "name": "cf25fa8daa8ec270d15599bc2fef8a72", "lat": 38.9079185, "bike_id": "cf25fa8daa8ec270d15599bc2fef8a72"}, {"lon": -77.02177216666666, "rental_uris": {"android": "https://dc.lft.to/lastmile_qr_scan", "ios": "https://dc.lft.to/lastmile_qr_scan"}, "fusion_lon": 0.0, "is_reserved": 0, "is_disabled": 0, "fusion_lat": 0.0, "type": "electric_scooter", "name": "d269528588afed1ad7e305d06167d737", "lat": 38.91884433333333, "bike_id": "d269528588afed1ad7e305d06167d737"}, {"lon": -77.0190845, "rental_uris": {"android": "https://dc.lft.to/lastmile_qr_scan", "ios": "https://dc.lft.to/lastmile_qr_scan"}, "fusion_lon": 0.0, "is_reserved": 0, "is_disabled": 0, "fusion_lat": 0.0, "type": "electric_scooter", "name": "1fe560dfc317896302fa9667e2db2697", "lat": 38.920192166666666, "bike_id": "1fe560dfc317896302fa9667e2db2697"}, {"lon": -77.0044905, "rental_uris": {"android": "https://dc.lft.to/lastmile_qr_scan", "ios": "https://dc.lft.to/lastmile_qr_scan"}, "fusion_lon": 0.0, "is_reserved": 0, "is_disabled": 0, "fusion_lat": 0.0, "type": "electric_scooter", "name": "756f6b35e4c434102b608e779d3804fc", "lat": 38.83790916666667, "bike_id": "756f6b35e4c434102b608e779d3804fc"}, {"lon": -77.02984516666666, "rental_uris": {"android": "https://dc.lft.to/lastmile_qr_scan", "ios": "https://dc.lft.to/lastmile_qr_scan"}, "fusion_lon": 0.0, "is_reserved": 0, "is_disabled": 0, "fusion_lat": 0.0, "type": "electric_scooter", "name": "60d91147e540ea83df13adca683cc365", "lat": 38.91117466666667, "bike_id": "60d91147e540ea83df13adca683cc365"}, {"lon": -77.04483433333333, "rental_uris": {"android": "https://dc.lft.to/lastmile_qr_scan", "ios": "https://dc.lft.to/lastmile_qr_scan"}, "fusion_lon": 0.0, "is_reserved": 0, "is_disabled": 0, "fusion_lat": 0.0, "type": "electric_scooter", "name": "bf419695491fd11751b5e500554946d1", "lat": 38.9032655, "bike_id": "bf419695491fd11751b5e500554946d1"}, {"lon": -77.03322683333333, "rental_uris": {"android": "https://dc.lft.to/lastmile_qr_scan", "ios": "https://dc.lft.to/lastmile_qr_scan"}, "fusion_lon": 0.0, "is_reserved": 0, "is_disabled": 0, "fusion_lat": 0.0, "type": "electric_scooter", "name": "e379c22106e4790ca1a601a2bcac90d1", "lat": 38.88769766666667, "bike_id": "e379c22106e4790ca1a601a2bcac90d1"}, {"lon": -77.00249983333333, "rental_uris": {"android": "https://dc.lft.to/lastmile_qr_scan", "ios": "https://dc.lft.to/lastmile_qr_scan"}, "fusion_lon": 0.0, "is_reserved": 0, "is_disabled": 0, "fusion_lat": 0.0, "type": "electric_bike", "name": "e3f9bc3ae99f7943698d233f259e89db", "lat": 38.911097, "bike_id": "e3f9bc3ae99f7943698d233f259e89db"}, {"lon": -77.02775866666667, "rental_uris": {"android": "https://dc.lft.to/lastmile_qr_scan", "ios": "https://dc.lft.to/lastmile_qr_scan"}, "fusion_lon": 0.0, "is_reserved": 0, "is_disabled": 0, "fusion_lat": 0.0, "type": "electric_scooter", "name": "f9141d96f51a4e49fc541aaad949b26d", "lat": 38.89223166666667, "bike_id": "f9141d96f51a4e49fc541aaad949b26d"}, {"lon": -77.00282566666667, "rental_uris": {"android": "https://dc.lft.to/lastmile_qr_scan", "ios": "https://dc.lft.to/lastmile_qr_scan"}, "fusion_lon": 0.0, "is_reserved": 0, "is_disabled": 0, "fusion_lat": 0.0, "type": "electric_scooter", "name": "441817a8a9a09daf4438d32723bdf7f7", "lat": 38.876585666666664, "bike_id": "441817a8a9a09daf4438d32723bdf7f7"}, {"lon": -77.07784333333333, "rental_uris": {"android": "https://dc.lft.to/lastmile_qr_scan", "ios": "https://dc.lft.to/lastmile_qr_scan"}, "fusion_lon": 0.0, "is_reserved": 0, "is_disabled": 0, "fusion_lat": 0.0, "type": "electric_bike", "name": "11aae288e65b8c274a2bc733818a2676", "lat": 38.9959925, "bike_id": "11aae288e65b8c274a2bc733818a2676"}, {"lon": -77.0107355, "rental_uris": {"android": "https://dc.lft.to/lastmile_qr_scan", "ios": "https://dc.lft.to/lastmile_qr_scan"}, "fusion_lon": 0.0, "is_reserved": 0, "is_disabled": 0, "fusion_lat": 0.0, "type": "electric_scooter", "name": "d2a8f9d18d2c094604dfc7698e478995", "lat": 38.91417833333333, "bike_id": "d2a8f9d18d2c094604dfc7698e478995"}, {"lon": -77.02817083333333, "rental_uris": {"android": "https://dc.lft.to/lastmile_qr_scan", "ios": "https://dc.lft.to/lastmile_qr_scan"}, "fusion_lon": 0.0, "is_reserved": 0, "is_disabled": 0, "fusion_lat": 0.0, "type": "electric_scooter", "name": "691dff91928871bf88501402f66639bd", "lat": 38.902521, "bike_id": "691dff91928871bf88501402f66639bd"}, {"lon": -77.03182916666667, "rental_uris": {"android": "https://dc.lft.to/lastmile_qr_scan", "ios": "https://dc.lft.to/lastmile_qr_scan"}, "fusion_lon": 0.0, "is_reserved": 0, "is_disabled": 0, "fusion_lat": 0.0, "type": "electric_scooter", "name": "685eb337ac3f09ccf6a1d5251b464012", "lat": 38.900822833333336, "bike_id": "685eb337ac3f09ccf6a1d5251b464012"}, {"lon": -77.03203733333334, "rental_uris": {"android": "https://dc.lft.to/lastmile_qr_scan", "ios": "https://dc.lft.to/lastmile_qr_scan"}, "fusion_lon": 0.0, "is_reserved": 0, "is_disabled": 0, "fusion_lat": 0.0, "type": "electric_scooter", "name": "7f62045b72336256dd3fb899b9db2702", "lat": 38.905276666666666, "bike_id": "7f62045b72336256dd3fb899b9db2702"}, {"lon": -77.04491533333334, "rental_uris": {"android": "https://dc.lft.to/lastmile_qr_scan", "ios": "https://dc.lft.to/lastmile_qr_scan"}, "fusion_lon": 0.0, "is_reserved": 0, "is_disabled": 0, "fusion_lat": 0.0, "type": "electric_scooter", "name": "c0a06f20808ccf91f6fd226b70570b45", "lat": 38.908887, "bike_id": "c0a06f20808ccf91f6fd226b70570b45"}, {"lon": -77.01695716666667, "rental_uris": {"android": "https://dc.lft.to/lastmile_qr_scan", "ios": "https://dc.lft.to/lastmile_qr_scan"}, "fusion_lon": 0.0, "is_reserved": 0, "is_disabled": 0, "fusion_lat": 0.0, "type": "electric_scooter", "name": "0aeb1177f6a13e859393189eddfd07f9", "lat": 38.9075545, "bike_id": "0aeb1177f6a13e859393189eddfd07f9"}, {"lon": -77.01129983333334, "rental_uris": {"android": "https://dc.lft.to/lastmile_qr_scan", "ios": "https://dc.lft.to/lastmile_qr_scan"}, "fusion_lon": 0.0, "is_reserved": 0, "is_disabled": 0, "fusion_lat": 0.0, "type": "electric_scooter", "name": "9b870df1c73b5db63fca68cb934e27d5", "lat": 38.88518966666667, "bike_id": "9b870df1c73b5db63fca68cb934e27d5"}, {"lon": -77.0601225, "rental_uris": {"android": "https://dc.lft.to/lastmile_qr_scan", "ios": "https://dc.lft.to/lastmile_qr_scan"}, "fusion_lon": 0.0, "is_reserved": 0, "is_disabled": 0, "fusion_lat": 0.0, "type": "electric_scooter", "name": "069c1b4ac151d8f56c0ac9ea1edd0d55", "lat": 38.90432, "bike_id": "069c1b4ac151d8f56c0ac9ea1edd0d55"}, {"lon": -77.02791183333333, "rental_uris": {"android": "https://dc.lft.to/lastmile_qr_scan", "ios": "https://dc.lft.to/lastmile_qr_scan"}, "fusion_lon": 0.0, "is_reserved": 0, "is_disabled": 0, "fusion_lat": 0.0, "type": "electric_scooter", "name": "b8c8abae67c154f68156a18a97da3d45", "lat": 38.892416, "bike_id": "b8c8abae67c154f68156a18a97da3d45"}, {"lon": -77.0283075, "rental_uris": {"android": "https://dc.lft.to/lastmile_qr_scan", "ios": "https://dc.lft.to/lastmile_qr_scan"}, "fusion_lon": 0.0, "is_reserved": 0, "is_disabled": 0, "fusion_lat": 0.0, "type": "electric_scooter", "name": "4a971479c7a372caa8d563ac939501ac", "lat": 38.88659966666667, "bike_id": "4a971479c7a372caa8d563ac939501ac"}, {"lon": -77.03280416666666, "rental_uris": {"android": "https://dc.lft.to/lastmile_qr_scan", "ios": "https://dc.lft.to/lastmile_qr_scan"}, "fusion_lon": 0.0, "is_reserved": 0, "is_disabled": 0, "fusion_lat": 0.0, "type": "electric_scooter", "name": "5d9f645390888148215d584762b6d40a", "lat": 38.937532, "bike_id": "5d9f645390888148215d584762b6d40a"}, {"lon": -77.040782, "rental_uris": {"android": "https://dc.lft.to/lastmile_qr_scan", "ios": "https://dc.lft.to/lastmile_qr_scan"}, "fusion_lon": 0.0, "is_reserved": 0, "is_disabled": 0, "fusion_lat": 0.0, "type": "electric_scooter", "name": "e67cc43d62444f0f45156cc3f06f0738", "lat": 38.8992965, "bike_id": "e67cc43d62444f0f45156cc3f06f0738"}, {"lon": -76.99845716666667, "rental_uris": {"android": "https://dc.lft.to/lastmile_qr_scan", "ios": "https://dc.lft.to/lastmile_qr_scan"}, "fusion_lon": 0.0, "is_reserved": 0, "is_disabled": 0, "fusion_lat": 0.0, "type": "electric_scooter", "name": "23658bfcd30b6f1ec03314bac860720d", "lat": 38.89617766666667, "bike_id": "23658bfcd30b6f1ec03314bac860720d"}, {"lon": -77.01810516666667, "rental_uris": {"android": "https://dc.lft.to/lastmile_qr_scan", "ios": "https://dc.lft.to/lastmile_qr_scan"}, "fusion_lon": 0.0, "is_reserved": 0, "is_disabled": 0, "fusion_lat": 0.0, "type": "electric_scooter", "name": "56175b9d162d63cd635db2aa64d08f11", "lat": 38.92038633333333, "bike_id": "56175b9d162d63cd635db2aa64d08f11"}, {"lon": -77.05875633333333, "rental_uris": {"android": "https://dc.lft.to/lastmile_qr_scan", "ios": "https://dc.lft.to/lastmile_qr_scan"}, "fusion_lon": 0.0, "is_reserved": 0, "is_disabled": 0, "fusion_lat": 0.0, "type": "electric_scooter", "name": "f57af6e22cb6e37bd03351e3ca0e63c5", "lat": 38.93625333333333, "bike_id": "f57af6e22cb6e37bd03351e3ca0e63c5"}, {"lon": -77.04610433333333, "rental_uris": {"android": "https://dc.lft.to/lastmile_qr_scan", "ios": "https://dc.lft.to/lastmile_qr_scan"}, "fusion_lon": 0.0, "is_reserved": 0, "is_disabled": 0, "fusion_lat": 0.0, "type": "electric_scooter", "name": "6a4e68d44fb56089716d84eb2cfc93ab", "lat": 38.9028195, "bike_id": "6a4e68d44fb56089716d84eb2cfc93ab"}, {"lon": -77.02312366666666, "rental_uris": {"android": "https://dc.lft.to/lastmile_qr_scan", "ios": "https://dc.lft.to/lastmile_qr_scan"}, "fusion_lon": 0.0, "is_reserved": 0, "is_disabled": 0, "fusion_lat": 0.0, "type": "electric_scooter", "name": "6301815142677bbbfdc237959337aed9", "lat": 38.87880783333333, "bike_id": "6301815142677bbbfdc237959337aed9"}, {"lon": -77.04499933333334, "rental_uris": {"android": "https://dc.lft.to/lastmile_qr_scan", "ios": "https://dc.lft.to/lastmile_qr_scan"}, "fusion_lon": 0.0, "is_reserved": 0, "is_disabled": 0, "fusion_lat": 0.0, "type": "electric_scooter", "name": "bf989b56d1ae53d837e9e2672f6ce484", "lat": 38.9086005, "bike_id": "bf989b56d1ae53d837e9e2672f6ce484"}, {"lon": -77.03879766666667, "rental_uris": {"android": "https://dc.lft.to/lastmile_qr_scan", "ios": "https://dc.lft.to/lastmile_qr_scan"}, "fusion_lon": 0.0, "is_reserved": 0, "is_disabled": 0, "fusion_lat": 0.0, "type": "electric_scooter", "name": "38265852258d78d577fe54b6a2356b13", "lat": 38.903588166666665, "bike_id": "38265852258d78d577fe54b6a2356b13"}, {"lon": -76.98762616666667, "rental_uris": {"android": "https://dc.lft.to/lastmile_qr_scan", "ios": "https://dc.lft.to/lastmile_qr_scan"}, "fusion_lon": 0.0, "is_reserved": 0, "is_disabled": 0, "fusion_lat": 0.0, "type": "electric_bike", "name": "b180412d31648a693635f7db52480873", "lat": 38.857668333333336, "bike_id": "b180412d31648a693635f7db52480873"}, {"lon": -77.1525175, "rental_uris": {"android": "https://dc.lft.to/lastmile_qr_scan", "ios": "https://dc.lft.to/lastmile_qr_scan"}, "fusion_lon": 0.0, "is_reserved": 0, "is_disabled": 0, "fusion_lat": 0.0, "type": "electric_bike", "name": "ce8b118bbef0ff6513c8b37e46f95bcc", "lat": 39.08606916666667, "bike_id": "ce8b118bbef0ff6513c8b37e46f95bcc"}, {"lon": -76.9697345, "rental_uris": {"android": "https://dc.lft.to/lastmile_qr_scan", "ios": "https://dc.lft.to/lastmile_qr_scan"}, "fusion_lon": 0.0, "is_reserved": 0, "is_disabled": 0, "fusion_lat": 0.0, "type": "electric_scooter", "name": "395fbf40e867abf227780c74f3706c34", "lat": 38.87386683333333, "bike_id": "395fbf40e867abf227780c74f3706c34"}, {"lon": -77.04890866666666, "rental_uris": {"android": "https://dc.lft.to/lastmile_qr_scan", "ios": "https://dc.lft.to/lastmile_qr_scan"}, "fusion_lon": 0.0, "is_reserved": 0, "is_disabled": 0, "fusion_lat": 0.0, "type": "electric_scooter", "name": "8542452bbae55cb0371800fdfd012858", "lat": 38.89883016666667, "bike_id": "8542452bbae55cb0371800fdfd012858"}, {"lon": -77.04875, "rental_uris": {"android": "https://dc.lft.to/lastmile_qr_scan", "ios": "https://dc.lft.to/lastmile_qr_scan"}, "fusion_lon": 0.0, "is_reserved": 0, "is_disabled": 0, "fusion_lat": 0.0, "type": "electric_scooter", "name": "218002df0e0fc2243a4650199e7ee74e", "lat": 38.9123775, "bike_id": "218002df0e0fc2243a4650199e7ee74e"}, {"lon": -77.1151585, "rental_uris": {"android": "https://dc.lft.to/lastmile_qr_scan", "ios": "https://dc.lft.to/lastmile_qr_scan"}, "fusion_lon": 0.0, "is_reserved": 0, "is_disabled": 0, "fusion_lat": 0.0, "type": "electric_bike", "name": "a15a7469b113b1a803074c2553ffa11b", "lat": 39.070536, "bike_id": "a15a7469b113b1a803074c2553ffa11b"}, {"lon": -77.03831416666667, "rental_uris": {"android": "https://dc.lft.to/lastmile_qr_scan", "ios": "https://dc.lft.to/lastmile_qr_scan"}, "fusion_lon": 0.0, "is_reserved": 0, "is_disabled": 0, "fusion_lat": 0.0, "type": "electric_scooter", "name": "0d5a5c0c40950ea86d3d0692043fc322", "lat": 38.92541283333333, "bike_id": "0d5a5c0c40950ea86d3d0692043fc322"}, {"lon": -77.024061, "rental_uris": {"android": "https://dc.lft.to/lastmile_qr_scan", "ios": "https://dc.lft.to/lastmile_qr_scan"}, "fusion_lon": 0.0, "is_reserved": 0, "is_disabled": 0, "fusion_lat": 0.0, "type": "electric_scooter", "name": "11766bcfc400ac07a2dfc68066675416", "lat": 38.957073333333334, "bike_id": "11766bcfc400ac07a2dfc68066675416"}, {"lon": -77.070121, "rental_uris": {"android": "https://dc.lft.to/lastmile_qr_scan", "ios": "https://dc.lft.to/lastmile_qr_scan"}, "fusion_lon": 0.0, "is_reserved": 0, "is_disabled": 0, "fusion_lat": 0.0, "type": "electric_bike", "name": "d9b269b9da220bab70c61d053fa83572", "lat": 38.841080833333336, "bike_id": "d9b269b9da220bab70c61d053fa83572"}, {"lon": -77.017634, "rental_uris": {"android": "https://dc.lft.to/lastmile_qr_scan", "ios": "https://dc.lft.to/lastmile_qr_scan"}, "fusion_lon": 0.0, "is_reserved": 0, "is_disabled": 0, "fusion_lat": 0.0, "type": "electric_scooter", "name": "ba7f30b3ad200c27beb284c1279f190c", "lat": 38.938878333333335, "bike_id": "ba7f30b3ad200c27beb284c1279f190c"}, {"lon": -76.96503483333333, "rental_uris": {"android": "https://dc.lft.to/lastmile_qr_scan", "ios": "https://dc.lft.to/lastmile_qr_scan"}, "fusion_lon": 0.0, "is_reserved": 0, "is_disabled": 0, "fusion_lat": 0.0, "type": "electric_scooter", "name": "1dcaabacba73d94dbe2f63abf606c641", "lat": 38.8764675, "bike_id": "1dcaabacba73d94dbe2f63abf606c641"}, {"lon": -76.97332183333333, "rental_uris": {"android": "https://dc.lft.to/lastmile_qr_scan", "ios": "https://dc.lft.to/lastmile_qr_scan"}, "fusion_lon": 0.0, "is_reserved": 0, "is_disabled": 0, "fusion_lat": 0.0, "type": "electric_scooter", "name": "dbd5d391b89f16497d479f4b7b8cf0ad", "lat": 38.904086166666666, "bike_id": "dbd5d391b89f16497d479f4b7b8cf0ad"}, {"lon": -77.0433125, "rental_uris": {"android": "https://dc.lft.to/lastmile_qr_scan", "ios": "https://dc.lft.to/lastmile_qr_scan"}, "fusion_lon": 0.0, "is_reserved": 0, "is_disabled": 0, "fusion_lat": 0.0, "type": "electric_scooter", "name": "0f784ce1ee5ffa0b38274c77f50cce5d", "lat": 38.89220183333333, "bike_id": "0f784ce1ee5ffa0b38274c77f50cce5d"}, {"lon": -76.99549766666667, "rental_uris": {"android": "https://dc.lft.to/lastmile_qr_scan", "ios": "https://dc.lft.to/lastmile_qr_scan"}, "fusion_lon": 0.0, "is_reserved": 0, "is_disabled": 0, "fusion_lat": 0.0, "type": "electric_scooter", "name": "35ca387e13a8c32dd22f4cf5cc6ef7ea", "lat": 38.862308, "bike_id": "35ca387e13a8c32dd22f4cf5cc6ef7ea"}, {"lon": -77.00069466666666, "rental_uris": {"android": "https://dc.lft.to/lastmile_qr_scan", "ios": "https://dc.lft.to/lastmile_qr_scan"}, "fusion_lon": 0.0, "is_reserved": 0, "is_disabled": 0, "fusion_lat": 0.0, "type": "electric_scooter", "name": "2cc7ea6557417d8b19127e130d717101", "lat": 38.873838166666665, "bike_id": "2cc7ea6557417d8b19127e130d717101"}, {"lon": -77.07027, "rental_uris": {"android": "https://dc.lft.to/lastmile_qr_scan", "ios": "https://dc.lft.to/lastmile_qr_scan"}, "fusion_lon": 0.0, "is_reserved": 0, "is_disabled": 0, "fusion_lat": 0.0, "type": "electric_scooter", "name": "1b94db5252626770152d72b8345a65e1", "lat": 38.95604733333333, "bike_id": "1b94db5252626770152d72b8345a65e1"}, {"lon": -77.032066, "rental_uris": {"android": "https://dc.lft.to/lastmile_qr_scan", "ios": "https://dc.lft.to/lastmile_qr_scan"}, "fusion_lon": 0.0, "is_reserved": 0, "is_disabled": 0, "fusion_lat": 0.0, "type": "electric_scooter", "name": "6ae92e3210b7124ebc1eab027436c13e", "lat": 38.916068333333335, "bike_id": "6ae92e3210b7124ebc1eab027436c13e"}, {"lon": -77.02796966666666, "rental_uris": {"android": "https://dc.lft.to/lastmile_qr_scan", "ios": "https://dc.lft.to/lastmile_qr_scan"}, "fusion_lon": 0.0, "is_reserved": 0, "is_disabled": 0, "fusion_lat": 0.0, "type": "electric_scooter", "name": "cb3cc51d2e9cdcb5cce1c174057191ca", "lat": 38.96134766666667, "bike_id": "cb3cc51d2e9cdcb5cce1c174057191ca"}, {"lon": -77.03639916666667, "rental_uris": {"android": "https://dc.lft.to/lastmile_qr_scan", "ios": "https://dc.lft.to/lastmile_qr_scan"}, "fusion_lon": 0.0, "is_reserved": 0, "is_disabled": 0, "fusion_lat": 0.0, "type": "electric_scooter", "name": "4738d0e23aed34e035d8cc4f6a27e2e5", "lat": 38.9280975, "bike_id": "4738d0e23aed34e035d8cc4f6a27e2e5"}, {"lon": -77.01266733333334, "rental_uris": {"android": "https://dc.lft.to/lastmile_qr_scan", "ios": "https://dc.lft.to/lastmile_qr_scan"}, "fusion_lon": 0.0, "is_reserved": 0, "is_disabled": 0, "fusion_lat": 0.0, "type": "electric_scooter", "name": "78ba24f8a1043b2717f92697b6b8d551", "lat": 38.89923783333333, "bike_id": "78ba24f8a1043b2717f92697b6b8d551"}, {"lon": -77.04456783333333, "rental_uris": {"android": "https://dc.lft.to/lastmile_qr_scan", "ios": "https://dc.lft.to/lastmile_qr_scan"}, "fusion_lon": 0.0, "is_reserved": 0, "is_disabled": 0, "fusion_lat": 0.0, "type": "electric_scooter", "name": "68d5b9001a44a6f7090e5906cc79fba2", "lat": 38.90561316666667, "bike_id": "68d5b9001a44a6f7090e5906cc79fba2"}, {"lon": -77.07430633333334, "rental_uris": {"android": "https://dc.lft.to/lastmile_qr_scan", "ios": "https://dc.lft.to/lastmile_qr_scan"}, "fusion_lon": 0.0, "is_reserved": 0, "is_disabled": 0, "fusion_lat": 0.0, "type": "electric_scooter", "name": "05d5dee90dcac0cdb16439e9fc9e74e3", "lat": 38.91267216666667, "bike_id": "05d5dee90dcac0cdb16439e9fc9e74e3"}, {"lon": -77.02836483333333, "rental_uris": {"android": "https://dc.lft.to/lastmile_qr_scan", "ios": "https://dc.lft.to/lastmile_qr_scan"}, "fusion_lon": 0.0, "is_reserved": 0, "is_disabled": 0, "fusion_lat": 0.0, "type": "electric_scooter", "name": "9629f7c0a7434880554b4c505fa1a5f4", "lat": 38.88706283333333, "bike_id": "9629f7c0a7434880554b4c505fa1a5f4"}, {"lon": -76.985521, "rental_uris": {"android": "https://dc.lft.to/lastmile_qr_scan", "ios": "https://dc.lft.to/lastmile_qr_scan"}, "fusion_lon": 0.0, "is_reserved": 0, "is_disabled": 0, "fusion_lat": 0.0, "type": "electric_scooter", "name": "c563f238d4f11b41bf9d7cbe4024a79a", "lat": 38.89766566666667, "bike_id": "c563f238d4f11b41bf9d7cbe4024a79a"}, {"lon": -77.03193333333333, "rental_uris": {"android": "https://dc.lft.to/lastmile_qr_scan", "ios": "https://dc.lft.to/lastmile_qr_scan"}, "fusion_lon": 0.0, "is_reserved": 0, "is_disabled": 0, "fusion_lat": 0.0, "type": "electric_scooter", "name": "bbdde59b89d0aaa73b3cc5ae220aca39", "lat": 38.90786266666667, "bike_id": "bbdde59b89d0aaa73b3cc5ae220aca39"}, {"lon": -77.01705366666667, "rental_uris": {"android": "https://dc.lft.to/lastmile_qr_scan", "ios": "https://dc.lft.to/lastmile_qr_scan"}, "fusion_lon": 0.0, "is_reserved": 0, "is_disabled": 0, "fusion_lat": 0.0, "type": "electric_scooter", "name": "2be5a9887e214a47b771a25be03065b8", "lat": 38.920361166666666, "bike_id": "2be5a9887e214a47b771a25be03065b8"}, {"lon": -76.95873983333334, "rental_uris": {"android": "https://dc.lft.to/lastmile_qr_scan", "ios": "https://dc.lft.to/lastmile_qr_scan"}, "fusion_lon": 0.0, "is_reserved": 0, "is_disabled": 0, "fusion_lat": 0.0, "type": "electric_scooter", "name": "4796aaae72b1c1f0ad2573ba06e61bea", "lat": 38.85944533333333, "bike_id": "4796aaae72b1c1f0ad2573ba06e61bea"}, {"lon": -77.02132, "rental_uris": {"android": "https://dc.lft.to/lastmile_qr_scan", "ios": "https://dc.lft.to/lastmile_qr_scan"}, "fusion_lon": 0.0, "is_reserved": 0, "is_disabled": 0, "fusion_lat": 0.0, "type": "electric_scooter", "name": "d456971ffcb5c1b94a7e8b9be805c6b0", "lat": 38.923228333333334, "bike_id": "d456971ffcb5c1b94a7e8b9be805c6b0"}, {"lon": -77.025928, "rental_uris": {"android": "https://dc.lft.to/lastmile_qr_scan", "ios": "https://dc.lft.to/lastmile_qr_scan"}, "fusion_lon": 0.0, "is_reserved": 0, "is_disabled": 0, "fusion_lat": 0.0, "type": "electric_scooter", "name": "7f4a6a3b980e932467506d48dcf5a4b9", "lat": 38.96390816666667, "bike_id": "7f4a6a3b980e932467506d48dcf5a4b9"}, {"lon": -76.9357325, "rental_uris": {"android": "https://dc.lft.to/lastmile_qr_scan", "ios": "https://dc.lft.to/lastmile_qr_scan"}, "fusion_lon": 0.0, "is_reserved": 0, "is_disabled": 0, "fusion_lat": 0.0, "type": "electric_scooter", "name": "fd6c9fbcdc3824b7ba14331a5b132b0f", "lat": 38.897025, "bike_id": "fd6c9fbcdc3824b7ba14331a5b132b0f"}, {"lon": -76.95796066666666, "rental_uris": {"android": "https://dc.lft.to/lastmile_qr_scan", "ios": "https://dc.lft.to/lastmile_qr_scan"}, "fusion_lon": 0.0, "is_reserved": 0, "is_disabled": 0, "fusion_lat": 0.0, "type": "electric_bike", "name": "8d0aebb50f8a04bfce32677f4d468b63", "lat": 38.98045483333333, "bike_id": "8d0aebb50f8a04bfce32677f4d468b63"}, {"lon": -77.01528583333334, "rental_uris": {"android": "https://dc.lft.to/lastmile_qr_scan", "ios": "https://dc.lft.to/lastmile_qr_scan"}, "fusion_lon": 0.0, "is_reserved": 0, "is_disabled": 0, "fusion_lat": 0.0, "type": "electric_scooter", "name": "d796974e322d344f27caeb717cb8bad9", "lat": 38.887324, "bike_id": "d796974e322d344f27caeb717cb8bad9"}, {"lon": -77.03248216666667, "rental_uris": {"android": "https://dc.lft.to/lastmile_qr_scan", "ios": "https://dc.lft.to/lastmile_qr_scan"}, "fusion_lon": 0.0, "is_reserved": 0, "is_disabled": 0, "fusion_lat": 0.0, "type": "electric_scooter", "name": "9da1114197db8a5142900f999db43e23", "lat": 38.93131016666667, "bike_id": "9da1114197db8a5142900f999db43e23"}, {"lon": -77.04029116666666, "rental_uris": {"android": "https://dc.lft.to/lastmile_qr_scan", "ios": "https://dc.lft.to/lastmile_qr_scan"}, "fusion_lon": 0.0, "is_reserved": 0, "is_disabled": 0, "fusion_lat": 0.0, "type": "electric_scooter", "name": "27c3a4b8fa518e4b9aa5a3d300c0204a", "lat": 38.924571666666665, "bike_id": "27c3a4b8fa518e4b9aa5a3d300c0204a"}, {"lon": -77.02288483333334, "rental_uris": {"android": "https://dc.lft.to/lastmile_qr_scan", "ios": "https://dc.lft.to/lastmile_qr_scan"}, "fusion_lon": 0.0, "is_reserved": 0, "is_disabled": 0, "fusion_lat": 0.0, "type": "electric_scooter", "name": "75b76c25f5616d79b2b217158b49a6da", "lat": 38.89992066666667, "bike_id": "75b76c25f5616d79b2b217158b49a6da"}, {"lon": -76.97921733333334, "rental_uris": {"android": "https://dc.lft.to/lastmile_qr_scan", "ios": "https://dc.lft.to/lastmile_qr_scan"}, "fusion_lon": 0.0, "is_reserved": 0, "is_disabled": 0, "fusion_lat": 0.0, "type": "electric_scooter", "name": "f442f8591d1117a3e2052f26bdd61eee", "lat": 38.90242033333333, "bike_id": "f442f8591d1117a3e2052f26bdd61eee"}, {"lon": -77.04423616666666, "rental_uris": {"android": "https://dc.lft.to/lastmile_qr_scan", "ios": "https://dc.lft.to/lastmile_qr_scan"}, "fusion_lon": 0.0, "is_reserved": 0, "is_disabled": 0, "fusion_lat": 0.0, "type": "electric_scooter", "name": "dfda4909e586039ec23df9cd82bf7241", "lat": 38.909048166666665, "bike_id": "dfda4909e586039ec23df9cd82bf7241"}, {"lon": -77.0038615, "rental_uris": {"android": "https://dc.lft.to/lastmile_qr_scan", "ios": "https://dc.lft.to/lastmile_qr_scan"}, "fusion_lon": 0.0, "is_reserved": 0, "is_disabled": 0, "fusion_lat": 0.0, "type": "electric_scooter", "name": "fdb7acbd5a39f5ce28c479c3c6e4dac4", "lat": 38.87638716666667, "bike_id": "fdb7acbd5a39f5ce28c479c3c6e4dac4"}, {"lon": -77.02776516666667, "rental_uris": {"android": "https://dc.lft.to/lastmile_qr_scan", "ios": "https://dc.lft.to/lastmile_qr_scan"}, "fusion_lon": 0.0, "is_reserved": 0, "is_disabled": 0, "fusion_lat": 0.0, "type": "electric_scooter", "name": "e6c033ea078c85a99fcbf2f2ea1a8855", "lat": 38.898066166666666, "bike_id": "e6c033ea078c85a99fcbf2f2ea1a8855"}, {"lon": -77.02600533333333, "rental_uris": {"android": "https://dc.lft.to/lastmile_qr_scan", "ios": "https://dc.lft.to/lastmile_qr_scan"}, "fusion_lon": 0.0, "is_reserved": 0, "is_disabled": 0, "fusion_lat": 0.0, "type": "electric_scooter", "name": "b4010f7d14e0d8781df038d55ea93aed", "lat": 38.91672233333333, "bike_id": "b4010f7d14e0d8781df038d55ea93aed"}, {"lon": -77.03311483333333, "rental_uris": {"android": "https://dc.lft.to/lastmile_qr_scan", "ios": "https://dc.lft.to/lastmile_qr_scan"}, "fusion_lon": 0.0, "is_reserved": 0, "is_disabled": 0, "fusion_lat": 0.0, "type": "electric_scooter", "name": "da04364a96185e824c18427e2091704b", "lat": 38.90960233333333, "bike_id": "da04364a96185e824c18427e2091704b"}, {"lon": -77.03049983333334, "rental_uris": {"android": "https://dc.lft.to/lastmile_qr_scan", "ios": "https://dc.lft.to/lastmile_qr_scan"}, "fusion_lon": 0.0, "is_reserved": 0, "is_disabled": 0, "fusion_lat": 0.0, "type": "electric_scooter", "name": "dda802521ad583415847b45a5f63b3ec", "lat": 38.923100166666664, "bike_id": "dda802521ad583415847b45a5f63b3ec"}, {"lon": -76.97719216666667, "rental_uris": {"android": "https://dc.lft.to/lastmile_qr_scan", "ios": "https://dc.lft.to/lastmile_qr_scan"}, "fusion_lon": 0.0, "is_reserved": 0, "is_disabled": 0, "fusion_lat": 0.0, "type": "electric_scooter", "name": "dbcb2aa9d6ead7e42353dc401d8a264f", "lat": 38.888208, "bike_id": "dbcb2aa9d6ead7e42353dc401d8a264f"}, {"lon": -77.01767033333333, "rental_uris": {"android": "https://dc.lft.to/lastmile_qr_scan", "ios": "https://dc.lft.to/lastmile_qr_scan"}, "fusion_lon": 0.0, "is_reserved": 0, "is_disabled": 0, "fusion_lat": 0.0, "type": "electric_scooter", "name": "f444a6093a03c83b931382aea525e447", "lat": 38.91263583333333, "bike_id": "f444a6093a03c83b931382aea525e447"}, {"lon": -77.00932516666667, "rental_uris": {"android": "https://dc.lft.to/lastmile_qr_scan", "ios": "https://dc.lft.to/lastmile_qr_scan"}, "fusion_lon": 0.0, "is_reserved": 0, "is_disabled": 0, "fusion_lat": 0.0, "type": "electric_scooter", "name": "5a875ec4e79090a8290dac72ecbe5656", "lat": 38.896436333333334, "bike_id": "5a875ec4e79090a8290dac72ecbe5656"}, {"lon": -77.021984, "rental_uris": {"android": "https://dc.lft.to/lastmile_qr_scan", "ios": "https://dc.lft.to/lastmile_qr_scan"}, "fusion_lon": 0.0, "is_reserved": 0, "is_disabled": 0, "fusion_lat": 0.0, "type": "electric_scooter", "name": "06ce91388032206afbb43f1fcc89748b", "lat": 38.9154605, "bike_id": "06ce91388032206afbb43f1fcc89748b"}, {"lon": -77.02414366666666, "rental_uris": {"android": "https://dc.lft.to/lastmile_qr_scan", "ios": "https://dc.lft.to/lastmile_qr_scan"}, "fusion_lon": 0.0, "is_reserved": 0, "is_disabled": 0, "fusion_lat": 0.0, "type": "electric_scooter", "name": "ea76d4a73003461a7bf275f8bf0a824c", "lat": 38.89219466666667, "bike_id": "ea76d4a73003461a7bf275f8bf0a824c"}, {"lon": -77.03277366666667, "rental_uris": {"android": "https://dc.lft.to/lastmile_qr_scan", "ios": "https://dc.lft.to/lastmile_qr_scan"}, "fusion_lon": 0.0, "is_reserved": 0, "is_disabled": 0, "fusion_lat": 0.0, "type": "electric_scooter", "name": "1bee2c23cee95ca70f201082a465ddd7", "lat": 38.928877, "bike_id": "1bee2c23cee95ca70f201082a465ddd7"}, {"lon": -77.049423, "rental_uris": {"android": "https://dc.lft.to/lastmile_qr_scan", "ios": "https://dc.lft.to/lastmile_qr_scan"}, "fusion_lon": 0.0, "is_reserved": 0, "is_disabled": 0, "fusion_lat": 0.0, "type": "electric_scooter", "name": "f03d64701b2a59ee461ec3fa631f023f", "lat": 38.89221216666667, "bike_id": "f03d64701b2a59ee461ec3fa631f023f"}, {"lon": -77.00371216666667, "rental_uris": {"android": "https://dc.lft.to/lastmile_qr_scan", "ios": "https://dc.lft.to/lastmile_qr_scan"}, "fusion_lon": 0.0, "is_reserved": 0, "is_disabled": 0, "fusion_lat": 0.0, "type": "electric_scooter", "name": "f04f80936957152e8522c6597fc03bd3", "lat": 38.89730683333333, "bike_id": "f04f80936957152e8522c6597fc03bd3"}, {"lon": -76.96975416666666, "rental_uris": {"android": "https://dc.lft.to/lastmile_qr_scan", "ios": "https://dc.lft.to/lastmile_qr_scan"}, "fusion_lon": 0.0, "is_reserved": 0, "is_disabled": 0, "fusion_lat": 0.0, "type": "electric_scooter", "name": "1b129f97a089f7189fa53572bffd799a", "lat": 38.8738465, "bike_id": "1b129f97a089f7189fa53572bffd799a"}, {"lon": -77.02727133333333, "rental_uris": {"android": "https://dc.lft.to/lastmile_qr_scan", "ios": "https://dc.lft.to/lastmile_qr_scan"}, "fusion_lon": 0.0, "is_reserved": 0, "is_disabled": 0, "fusion_lat": 0.0, "type": "electric_scooter", "name": "cecc37a4fefc923a4f251dc8079e4053", "lat": 38.940791833333336, "bike_id": "cecc37a4fefc923a4f251dc8079e4053"}, {"lon": -77.02792566666666, "rental_uris": {"android": "https://dc.lft.to/lastmile_qr_scan", "ios": "https://dc.lft.to/lastmile_qr_scan"}, "fusion_lon": 0.0, "is_reserved": 0, "is_disabled": 0, "fusion_lat": 0.0, "type": "electric_scooter", "name": "30a962c73aa844d863a49b2a3c11087c", "lat": 38.954071166666665, "bike_id": "30a962c73aa844d863a49b2a3c11087c"}, {"lon": -77.02442816666667, "rental_uris": {"android": "https://dc.lft.to/lastmile_qr_scan", "ios": "https://dc.lft.to/lastmile_qr_scan"}, "fusion_lon": 0.0, "is_reserved": 0, "is_disabled": 0, "fusion_lat": 0.0, "type": "electric_scooter", "name": "9f6d712f1665cd1ac2b7b48cdbbdfee4", "lat": 38.89979533333333, "bike_id": "9f6d712f1665cd1ac2b7b48cdbbdfee4"}, {"lon": -77.0436195, "rental_uris": {"android": "https://dc.lft.to/lastmile_qr_scan", "ios": "https://dc.lft.to/lastmile_qr_scan"}, "fusion_lon": 0.0, "is_reserved": 0, "is_disabled": 0, "fusion_lat": 0.0, "type": "electric_scooter", "name": "5155dd4428fcff9622f773ccc75cecab", "lat": 38.9083625, "bike_id": "5155dd4428fcff9622f773ccc75cecab"}, {"lon": -76.9948295, "rental_uris": {"android": "https://dc.lft.to/lastmile_qr_scan", "ios": "https://dc.lft.to/lastmile_qr_scan"}, "fusion_lon": 0.0, "is_reserved": 0, "is_disabled": 0, "fusion_lat": 0.0, "type": "electric_scooter", "name": "d69724ed51cc08de0e9c5c8ef8a3268c", "lat": 38.925474666666666, "bike_id": "d69724ed51cc08de0e9c5c8ef8a3268c"}, {"lon": -77.05068033333333, "rental_uris": {"android": "https://dc.lft.to/lastmile_qr_scan", "ios": "https://dc.lft.to/lastmile_qr_scan"}, "fusion_lon": 0.0, "is_reserved": 0, "is_disabled": 0, "fusion_lat": 0.0, "type": "electric_scooter", "name": "31b33611001964e7bcb5ef747d49eeb0", "lat": 38.916319333333334, "bike_id": "31b33611001964e7bcb5ef747d49eeb0"}, {"lon": -77.02933216666666, "rental_uris": {"android": "https://dc.lft.to/lastmile_qr_scan", "ios": "https://dc.lft.to/lastmile_qr_scan"}, "fusion_lon": 0.0, "is_reserved": 0, "is_disabled": 0, "fusion_lat": 0.0, "type": "electric_scooter", "name": "8c5b41fee9353b0196e4d03f37232734", "lat": 38.9101985, "bike_id": "8c5b41fee9353b0196e4d03f37232734"}, {"lon": -77.0218095, "rental_uris": {"android": "https://dc.lft.to/lastmile_qr_scan", "ios": "https://dc.lft.to/lastmile_qr_scan"}, "fusion_lon": 0.0, "is_reserved": 0, "is_disabled": 0, "fusion_lat": 0.0, "type": "electric_scooter", "name": "01ba55bffc3c50677061f7f621ee7566", "lat": 38.896925, "bike_id": "01ba55bffc3c50677061f7f621ee7566"}, {"lon": -77.0449145, "rental_uris": {"android": "https://dc.lft.to/lastmile_qr_scan", "ios": "https://dc.lft.to/lastmile_qr_scan"}, "fusion_lon": 0.0, "is_reserved": 0, "is_disabled": 0, "fusion_lat": 0.0, "type": "electric_scooter", "name": "a2b4f2d8272fd2fac08248d1b62304ea", "lat": 38.89902766666667, "bike_id": "a2b4f2d8272fd2fac08248d1b62304ea"}, {"lon": -77.04086916666667, "rental_uris": {"android": "https://dc.lft.to/lastmile_qr_scan", "ios": "https://dc.lft.to/lastmile_qr_scan"}, "fusion_lon": 0.0, "is_reserved": 0, "is_disabled": 0, "fusion_lat": 0.0, "type": "electric_scooter", "name": "9613b27df981dd5d8c06ce928cce42b1", "lat": 38.90138016666667, "bike_id": "9613b27df981dd5d8c06ce928cce42b1"}, {"lon": -77.08848483333334, "rental_uris": {"android": "https://dc.lft.to/lastmile_qr_scan", "ios": "https://dc.lft.to/lastmile_qr_scan"}, "fusion_lon": 0.0, "is_reserved": 0, "is_disabled": 0, "fusion_lat": 0.0, "type": "electric_scooter", "name": "31e44e388f279a0bbd17ac1b43f05852", "lat": 38.934936666666665, "bike_id": "31e44e388f279a0bbd17ac1b43f05852"}, {"lon": -76.95755683333333, "rental_uris": {"android": "https://dc.lft.to/lastmile_qr_scan", "ios": "https://dc.lft.to/lastmile_qr_scan"}, "fusion_lon": 0.0, "is_reserved": 0, "is_disabled": 0, "fusion_lat": 0.0, "type": "electric_scooter", "name": "577af78ac4f03e3fe2b32c99416015da", "lat": 38.884243833333336, "bike_id": "577af78ac4f03e3fe2b32c99416015da"}, {"lon": -77.0427085, "rental_uris": {"android": "https://dc.lft.to/lastmile_qr_scan", "ios": "https://dc.lft.to/lastmile_qr_scan"}, "fusion_lon": 0.0, "is_reserved": 0, "is_disabled": 0, "fusion_lat": 0.0, "type": "electric_scooter", "name": "77545ce1ecbbd89c507eec9a58c5314f", "lat": 38.91411083333333, "bike_id": "77545ce1ecbbd89c507eec9a58c5314f"}, {"lon": -76.97734633333333, "rental_uris": {"android": "https://dc.lft.to/lastmile_qr_scan", "ios": "https://dc.lft.to/lastmile_qr_scan"}, "fusion_lon": 0.0, "is_reserved": 0, "is_disabled": 0, "fusion_lat": 0.0, "type": "electric_bike", "name": "14383e07fbf9df9b332b37621af8a9b9", "lat": 38.86503016666666, "bike_id": "14383e07fbf9df9b332b37621af8a9b9"}, {"lon": -77.01358333333333, "rental_uris": {"android": "https://dc.lft.to/lastmile_qr_scan", "ios": "https://dc.lft.to/lastmile_qr_scan"}, "fusion_lon": 0.0, "is_reserved": 0, "is_disabled": 0, "fusion_lat": 0.0, "type": "electric_scooter", "name": "7614636aad5a0986d9aaf725ef51d214", "lat": 38.92881766666667, "bike_id": "7614636aad5a0986d9aaf725ef51d214"}, {"lon": -77.027755, "rental_uris": {"android": "https://dc.lft.to/lastmile_qr_scan", "ios": "https://dc.lft.to/lastmile_qr_scan"}, "fusion_lon": 0.0, "is_reserved": 0, "is_disabled": 0, "fusion_lat": 0.0, "type": "electric_scooter", "name": "c6fc0744c250ce859aff45a5714e1a12", "lat": 38.887427, "bike_id": "c6fc0744c250ce859aff45a5714e1a12"}, {"lon": -77.0637675, "rental_uris": {"android": "https://dc.lft.to/lastmile_qr_scan", "ios": "https://dc.lft.to/lastmile_qr_scan"}, "fusion_lon": 0.0, "is_reserved": 0, "is_disabled": 0, "fusion_lat": 0.0, "type": "electric_scooter", "name": "607a55e0af41e71deeb8e6e4573147c0", "lat": 38.905232833333336, "bike_id": "607a55e0af41e71deeb8e6e4573147c0"}, {"lon": -77.01898916666667, "rental_uris": {"android": "https://dc.lft.to/lastmile_qr_scan", "ios": "https://dc.lft.to/lastmile_qr_scan"}, "fusion_lon": 0.0, "is_reserved": 0, "is_disabled": 0, "fusion_lat": 0.0, "type": "electric_scooter", "name": "36e486e06ddca8a90b31216eabaf52bb", "lat": 38.919141, "bike_id": "36e486e06ddca8a90b31216eabaf52bb"}, {"lon": -77.04330266666666, "rental_uris": {"android": "https://dc.lft.to/lastmile_qr_scan", "ios": "https://dc.lft.to/lastmile_qr_scan"}, "fusion_lon": 0.0, "is_reserved": 0, "is_disabled": 0, "fusion_lat": 0.0, "type": "electric_scooter", "name": "1861adbf5fbb588a45e1fdecf9b513bf", "lat": 38.90685716666667, "bike_id": "1861adbf5fbb588a45e1fdecf9b513bf"}, {"lon": -77.00875266666667, "rental_uris": {"android": "https://dc.lft.to/lastmile_qr_scan", "ios": "https://dc.lft.to/lastmile_qr_scan"}, "fusion_lon": 0.0, "is_reserved": 0, "is_disabled": 0, "fusion_lat": 0.0, "type": "electric_scooter", "name": "053e675ea2cf9a8aeb57c171c17078f5", "lat": 38.9065215, "bike_id": "053e675ea2cf9a8aeb57c171c17078f5"}, {"lon": -77.00033533333334, "rental_uris": {"android": "https://dc.lft.to/lastmile_qr_scan", "ios": "https://dc.lft.to/lastmile_qr_scan"}, "fusion_lon": 0.0, "is_reserved": 0, "is_disabled": 0, "fusion_lat": 0.0, "type": "electric_scooter", "name": "e7eeed6c921753cf8317113738ab9ab3", "lat": 38.87482883333333, "bike_id": "e7eeed6c921753cf8317113738ab9ab3"}, {"lon": -77.04699533333333, "rental_uris": {"android": "https://dc.lft.to/lastmile_qr_scan", "ios": "https://dc.lft.to/lastmile_qr_scan"}, "fusion_lon": 0.0, "is_reserved": 0, "is_disabled": 0, "fusion_lat": 0.0, "type": "electric_scooter", "name": "a7fbcc8f986f55b78dfaa971cff1a74d", "lat": 38.921444666666666, "bike_id": "a7fbcc8f986f55b78dfaa971cff1a74d"}, {"lon": -77.04485433333333, "rental_uris": {"android": "https://dc.lft.to/lastmile_qr_scan", "ios": "https://dc.lft.to/lastmile_qr_scan"}, "fusion_lon": 0.0, "is_reserved": 0, "is_disabled": 0, "fusion_lat": 0.0, "type": "electric_scooter", "name": "434997fe86b652d1621a479c56651e69", "lat": 38.899500833333335, "bike_id": "434997fe86b652d1621a479c56651e69"}, {"lon": -77.01824766666667, "rental_uris": {"android": "https://dc.lft.to/lastmile_qr_scan", "ios": "https://dc.lft.to/lastmile_qr_scan"}, "fusion_lon": 0.0, "is_reserved": 0, "is_disabled": 0, "fusion_lat": 0.0, "type": "electric_scooter", "name": "5676bb49bdb723851158c3dd231bcad1", "lat": 38.9223905, "bike_id": "5676bb49bdb723851158c3dd231bcad1"}, {"lon": -77.0628495, "rental_uris": {"android": "https://dc.lft.to/lastmile_qr_scan", "ios": "https://dc.lft.to/lastmile_qr_scan"}, "fusion_lon": 0.0, "is_reserved": 0, "is_disabled": 0, "fusion_lat": 0.0, "type": "electric_scooter", "name": "f7d997559a2734591d419bc5f18f7109", "lat": 38.91243216666667, "bike_id": "f7d997559a2734591d419bc5f18f7109"}, {"lon": -77.01812683333333, "rental_uris": {"android": "https://dc.lft.to/lastmile_qr_scan", "ios": "https://dc.lft.to/lastmile_qr_scan"}, "fusion_lon": 0.0, "is_reserved": 0, "is_disabled": 0, "fusion_lat": 0.0, "type": "electric_scooter", "name": "4fd60fee9718c74bde04a54678f5f9cd", "lat": 38.90111383333333, "bike_id": "4fd60fee9718c74bde04a54678f5f9cd"}, {"lon": -77.0448685, "rental_uris": {"android": "https://dc.lft.to/lastmile_qr_scan", "ios": "https://dc.lft.to/lastmile_qr_scan"}, "fusion_lon": 0.0, "is_reserved": 0, "is_disabled": 0, "fusion_lat": 0.0, "type": "electric_scooter", "name": "352829c15a926ed3d5b88e9e65827e11", "lat": 38.903775, "bike_id": "352829c15a926ed3d5b88e9e65827e11"}, {"lon": -77.03274716666667, "rental_uris": {"android": "https://dc.lft.to/lastmile_qr_scan", "ios": "https://dc.lft.to/lastmile_qr_scan"}, "fusion_lon": 0.0, "is_reserved": 0, "is_disabled": 0, "fusion_lat": 0.0, "type": "electric_scooter", "name": "2a35559a6744217f55d29a2a48c4e17d", "lat": 38.9375515, "bike_id": "2a35559a6744217f55d29a2a48c4e17d"}, {"lon": -77.02302166666666, "rental_uris": {"android": "https://dc.lft.to/lastmile_qr_scan", "ios": "https://dc.lft.to/lastmile_qr_scan"}, "fusion_lon": 0.0, "is_reserved": 0, "is_disabled": 0, "fusion_lat": 0.0, "type": "electric_bike", "name": "6d1d707f135d70c7807948693277cec4", "lat": 38.902106, "bike_id": "6d1d707f135d70c7807948693277cec4"}, {"lon": -77.03446283333334, "rental_uris": {"android": "https://dc.lft.to/lastmile_qr_scan", "ios": "https://dc.lft.to/lastmile_qr_scan"}, "fusion_lon": 0.0, "is_reserved": 0, "is_disabled": 0, "fusion_lat": 0.0, "type": "electric_scooter", "name": "25882a8d0920d51b3225fd9389885b02", "lat": 38.906986, "bike_id": "25882a8d0920d51b3225fd9389885b02"}, {"lon": -77.04189433333333, "rental_uris": {"android": "https://dc.lft.to/lastmile_qr_scan", "ios": "https://dc.lft.to/lastmile_qr_scan"}, "fusion_lon": 0.0, "is_reserved": 0, "is_disabled": 0, "fusion_lat": 0.0, "type": "electric_scooter", "name": "5862dd709653f729344da019973e6840", "lat": 38.92211666666667, "bike_id": "5862dd709653f729344da019973e6840"}, {"lon": -76.97667683333333, "rental_uris": {"android": "https://dc.lft.to/lastmile_qr_scan", "ios": "https://dc.lft.to/lastmile_qr_scan"}, "fusion_lon": 0.0, "is_reserved": 0, "is_disabled": 0, "fusion_lat": 0.0, "type": "electric_scooter", "name": "023692b093712bea2bd550537f7427c8", "lat": 38.84053483333334, "bike_id": "023692b093712bea2bd550537f7427c8"}, {"lon": -77.03860466666667, "rental_uris": {"android": "https://dc.lft.to/lastmile_qr_scan", "ios": "https://dc.lft.to/lastmile_qr_scan"}, "fusion_lon": 0.0, "is_reserved": 0, "is_disabled": 0, "fusion_lat": 0.0, "type": "electric_scooter", "name": "0ae064f45f65b3e1bc31797ebe47fb4f", "lat": 38.907644, "bike_id": "0ae064f45f65b3e1bc31797ebe47fb4f"}, {"lon": -77.02115883333333, "rental_uris": {"android": "https://dc.lft.to/lastmile_qr_scan", "ios": "https://dc.lft.to/lastmile_qr_scan"}, "fusion_lon": 0.0, "is_reserved": 0, "is_disabled": 0, "fusion_lat": 0.0, "type": "electric_scooter", "name": "4e7670e683618d3112206cfa19f6f4e9", "lat": 38.926674, "bike_id": "4e7670e683618d3112206cfa19f6f4e9"}, {"lon": -76.98652883333334, "rental_uris": {"android": "https://dc.lft.to/lastmile_qr_scan", "ios": "https://dc.lft.to/lastmile_qr_scan"}, "fusion_lon": 0.0, "is_reserved": 0, "is_disabled": 0, "fusion_lat": 0.0, "type": "electric_scooter", "name": "2d6426e033cd444b29b4cd1a44ee22c1", "lat": 38.893527166666665, "bike_id": "2d6426e033cd444b29b4cd1a44ee22c1"}, {"lon": -77.04069933333334, "rental_uris": {"android": "https://dc.lft.to/lastmile_qr_scan", "ios": "https://dc.lft.to/lastmile_qr_scan"}, "fusion_lon": 0.0, "is_reserved": 0, "is_disabled": 0, "fusion_lat": 0.0, "type": "electric_scooter", "name": "24250ced0881cb9a08e876577d0a2b82", "lat": 38.9111205, "bike_id": "24250ced0881cb9a08e876577d0a2b82"}, {"lon": -77.03787316666667, "rental_uris": {"android": "https://dc.lft.to/lastmile_qr_scan", "ios": "https://dc.lft.to/lastmile_qr_scan"},