{"data": {"bikes": [{"lon": -77.0743395, "bike_id": "eae1b3388eef28859249a6bc9153d3b7", "lat": 38.99946116666667, "fusion_lon": 0.0, "fusion_lat": 0.0, "type": "electric_bike", "name": "eae1b3388eef28859249a6bc9153d3b7", "is_disabled": 0, "rental_uris": {"ios": "https://dc.lft.to/lastmile_qr_scan", "android": "https://dc.lft.to/lastmile_qr_scan"}, "is_reserved": 0}, {"lon": -77.05217183333333, "bike_id": "afde898b054a98dda22fc9c7d8cb1e78", "lat": 38.92481766666667, "fusion_lon": 0.0, "fusion_lat": 0.0, "type": "electric_scooter", "name": "afde898b054a98dda22fc9c7d8cb1e78", "is_disabled": 0, "rental_uris": {"ios": "https://dc.lft.to/lastmile_qr_scan", "android": "https://dc.lft.to/lastmile_qr_scan"}, "is_reserved": 0}, {"lon": -77.021719, "bike_id": "bf493f2c3e83a6809167544ca7db0b47", "lat": 38.926142666666664, "fusion_lon": 0.0, "fusion_lat": 0.0, "type": "electric_scooter", "name": "bf493f2c3e83a6809167544ca7db0b47", "is_disabled": 0, "rental_uris": {"ios": "https://dc.lft.to/lastmile_qr_scan", "android": "https://dc.lft.to/lastmile_qr_scan"}, "is_reserved": 0}, {"lon": -76.94926266666667, "bike_id": "410e7f16bf097184a097e765b90356d3", "lat": 38.89353766666667, "fusion_lon": 0.0, "fusion_lat": 0.0, "type": "electric_scooter", "name": "410e7f16bf097184a097e765b90356d3", "is_disabled": 0, "rental_uris": {"ios": "https://dc.lft.to/lastmile_qr_scan", "android": "https://dc.lft.to/lastmile_qr_scan"}, "is_reserved": 0}, {"lon": -76.98943533333333, "bike_id": "aa5e65c84789ef386d4e1c61fa93322a", "lat": 38.90392833333333, "fusion_lon": 0.0, "fusion_lat": 0.0, "type": "electric_scooter", "name": "aa5e65c84789ef386d4e1c61fa93322a", "is_disabled": 0, "rental_uris": {"ios": "https://dc.lft.to/lastmile_qr_scan", "android": "https://dc.lft.to/lastmile_qr_scan"}, "is_reserved": 0}, {"lon": -77.04132883333334, "bike_id": "16f2048fa9557375c60d789ada2bc917", "lat": 38.926437166666666, "fusion_lon": 0.0, "fusion_lat": 0.0, "type": "electric_scooter", "name": "16f2048fa9557375c60d789ada2bc917", "is_disabled": 0, "rental_uris": {"ios": "https://dc.lft.to/lastmile_qr_scan", "android": "https://dc.lft.to/lastmile_qr_scan"}, "is_reserved": 0}, {"lon": -77.05809033333334, "bike_id": "f8d2b48b0edbbaf5064f62f57e722ddc", "lat": 38.8239055, "fusion_lon": 0.0, "fusion_lat": 0.0, "type": "electric_bike", "name": "f8d2b48b0edbbaf5064f62f57e722ddc", "is_disabled": 0, "rental_uris": {"ios": "https://dc.lft.to/lastmile_qr_scan", "android": "https://dc.lft.to/lastmile_qr_scan"}, "is_reserved": 0}, {"lon": -77.064003, "bike_id": "d8b159210c0a16eed0f4b9d31813bfb6", "lat": 38.90779066666666, "fusion_lon": 0.0, "fusion_lat": 0.0, "type": "electric_scooter", "name": "d8b159210c0a16eed0f4b9d31813bfb6", "is_disabled": 0, "rental_uris": {"ios": "https://dc.lft.to/lastmile_qr_scan", "android": "https://dc.lft.to/lastmile_qr_scan"}, "is_reserved": 0}, {"lon": -76.98717883333333, "bike_id": "ac5c1de70798ab8385a4f5a0ad44184f", "lat": 38.8662745, "fusion_lon": 0.0, "fusion_lat": 0.0, "type": "electric_scooter", "name": "ac5c1de70798ab8385a4f5a0ad44184f", "is_disabled": 0, "rental_uris": {"ios": "https://dc.lft.to/lastmile_qr_scan", "android": "https://dc.lft.to/lastmile_qr_scan"}, "is_reserved": 0}, {"lon": -76.97837633333333, "bike_id": "9fab807f1e4d156b38c31b333ef57cc5", "lat": 38.899130166666666, "fusion_lon": 0.0, "fusion_lat": 0.0, "type": "electric_scooter", "name": "9fab807f1e4d156b38c31b333ef57cc5", "is_disabled": 0, "rental_uris": {"ios": "https://dc.lft.to/lastmile_qr_scan", "android": "https://dc.lft.to/lastmile_qr_scan"}, "is_reserved": 0}, {"lon": -77.03679916666667, "bike_id": "59d15649f043303fee63666b3104e4d2", "lat": 38.9364065, "fusion_lon": 0.0, "fusion_lat": 0.0, "type": "electric_scooter", "name": "59d15649f043303fee63666b3104e4d2", "is_disabled": 0, "rental_uris": {"ios": "https://dc.lft.to/lastmile_qr_scan", "android": "https://dc.lft.to/lastmile_qr_scan"}, "is_reserved": 0}, {"lon": -76.998741, "bike_id": "2faa5e9d7b8c51b4ccdb0d51c934ddd7", "lat": 38.90027216666667, "fusion_lon": 0.0, "fusion_lat": 0.0, "type": "electric_scooter", "name": "2faa5e9d7b8c51b4ccdb0d51c934ddd7", "is_disabled": 0, "rental_uris": {"ios": "https://dc.lft.to/lastmile_qr_scan", "android": "https://dc.lft.to/lastmile_qr_scan"}, "is_reserved": 0}, {"lon": -77.03442733333333, "bike_id": "46be4c275d9d714881ede48afa5cd176", "lat": 38.909479166666664, "fusion_lon": 0.0, "fusion_lat": 0.0, "type": "electric_scooter", "name": "46be4c275d9d714881ede48afa5cd176", "is_disabled": 0, "rental_uris": {"ios": "https://dc.lft.to/lastmile_qr_scan", "android": "https://dc.lft.to/lastmile_qr_scan"}, "is_reserved": 0}, {"lon": -77.0439445, "bike_id": "3473d65de03135dce23aecabc25f3a78", "lat": 38.89722666666667, "fusion_lon": 0.0, "fusion_lat": 0.0, "type": "electric_scooter", "name": "3473d65de03135dce23aecabc25f3a78", "is_disabled": 0, "rental_uris": {"ios": "https://dc.lft.to/lastmile_qr_scan", "android": "https://dc.lft.to/lastmile_qr_scan"}, "is_reserved": 0}, {"lon": -77.03655983333333, "bike_id": "d061d162d0a3ed0c1a16636c36216e70", "lat": 38.93202433333333, "fusion_lon": 0.0, "fusion_lat": 0.0, "type": "electric_scooter", "name": "d061d162d0a3ed0c1a16636c36216e70", "is_disabled": 0, "rental_uris": {"ios": "https://dc.lft.to/lastmile_qr_scan", "android": "https://dc.lft.to/lastmile_qr_scan"}, "is_reserved": 0}, {"lon": -77.02288916666667, "bike_id": "787c71d180470b2b187eeb0f2a69b624", "lat": 38.91746216666667, "fusion_lon": 0.0, "fusion_lat": 0.0, "type": "electric_scooter", "name": "787c71d180470b2b187eeb0f2a69b624", "is_disabled": 0, "rental_uris": {"ios": "https://dc.lft.to/lastmile_qr_scan", "android": "https://dc.lft.to/lastmile_qr_scan"}, "is_reserved": 0}, {"lon": -77.04104783333334, "bike_id": "76b44ba306d72269574a22060ba27dce", "lat": 38.908796333333335, "fusion_lon": 0.0, "fusion_lat": 0.0, "type": "electric_scooter", "name": "76b44ba306d72269574a22060ba27dce", "is_disabled": 0, "rental_uris": {"ios": "https://dc.lft.to/lastmile_qr_scan", "android": "https://dc.lft.to/lastmile_qr_scan"}, "is_reserved": 0}, {"lon": -76.995806, "bike_id": "526918e41dc8aad0a759242ab6943362", "lat": 38.851789333333336, "fusion_lon": 0.0, "fusion_lat": 0.0, "type": "electric_scooter", "name": "526918e41dc8aad0a759242ab6943362", "is_disabled": 0, "rental_uris": {"ios": "https://dc.lft.to/lastmile_qr_scan", "android": "https://dc.lft.to/lastmile_qr_scan"}, "is_reserved": 0}, {"lon": -77.0448355, "bike_id": "21862c20704684151a9185c7aa943d43", "lat": 38.8923765, "fusion_lon": 0.0, "fusion_lat": 0.0, "type": "electric_scooter", "name": "21862c20704684151a9185c7aa943d43", "is_disabled": 0, "rental_uris": {"ios": "https://dc.lft.to/lastmile_qr_scan", "android": "https://dc.lft.to/lastmile_qr_scan"}, "is_reserved": 0}, {"lon": -77.0190555, "bike_id": "3c0d95f1e2d0c2caef99978954d4c8df", "lat": 38.915084, "fusion_lon": 0.0, "fusion_lat": 0.0, "type": "electric_scooter", "name": "3c0d95f1e2d0c2caef99978954d4c8df", "is_disabled": 0, "rental_uris": {"ios": "https://dc.lft.to/lastmile_qr_scan", "android": "https://dc.lft.to/lastmile_qr_scan"}, "is_reserved": 0}, {"lon": -77.0332245, "bike_id": "8a8f941dcddcfada3099233972e2f73b", "lat": 38.947149833333334, "fusion_lon": 0.0, "fusion_lat": 0.0, "type": "electric_scooter", "name": "8a8f941dcddcfada3099233972e2f73b", "is_disabled": 0, "rental_uris": {"ios": "https://dc.lft.to/lastmile_qr_scan", "android": "https://dc.lft.to/lastmile_qr_scan"}, "is_reserved": 0}, {"lon": -77.04571716666666, "bike_id": "8304f69d53a6d42e8094b7f3068970e4", "lat": 38.91616416666667, "fusion_lon": 0.0, "fusion_lat": 0.0, "type": "electric_scooter", "name": "8304f69d53a6d42e8094b7f3068970e4", "is_disabled": 0, "rental_uris": {"ios": "https://dc.lft.to/lastmile_qr_scan", "android": "https://dc.lft.to/lastmile_qr_scan"}, "is_reserved": 0}, {"lon": -77.00659166666667, "bike_id": "091eed714e3033314495f64a50c4a952", "lat": 38.944639, "fusion_lon": 0.0, "fusion_lat": 0.0, "type": "electric_scooter", "name": "091eed714e3033314495f64a50c4a952", "is_disabled": 0, "rental_uris": {"ios": "https://dc.lft.to/lastmile_qr_scan", "android": "https://dc.lft.to/lastmile_qr_scan"}, "is_reserved": 0}, {"lon": -76.99003983333333, "bike_id": "8c66f49416c443a5bb5a44b73e1bc2d2", "lat": 38.90392816666667, "fusion_lon": 0.0, "fusion_lat": 0.0, "type": "electric_scooter", "name": "8c66f49416c443a5bb5a44b73e1bc2d2", "is_disabled": 0, "rental_uris": {"ios": "https://dc.lft.to/lastmile_qr_scan", "android": "https://dc.lft.to/lastmile_qr_scan"}, "is_reserved": 0}, {"lon": -76.9773655, "bike_id": "5a0b7d4bebcfb44e00f8f47a4ff627b8", "lat": 38.864868, "fusion_lon": 0.0, "fusion_lat": 0.0, "type": "electric_bike", "name": "5a0b7d4bebcfb44e00f8f47a4ff627b8", "is_disabled": 0, "rental_uris": {"ios": "https://dc.lft.to/lastmile_qr_scan", "android": "https://dc.lft.to/lastmile_qr_scan"}, "is_reserved": 0}, {"lon": -77.02343116666667, "bike_id": "68725f00506a8e1869f8e9ba162f8bc4", "lat": 38.93536783333333, "fusion_lon": 0.0, "fusion_lat": 0.0, "type": "electric_scooter", "name": "68725f00506a8e1869f8e9ba162f8bc4", "is_disabled": 0, "rental_uris": {"ios": "https://dc.lft.to/lastmile_qr_scan", "android": "https://dc.lft.to/lastmile_qr_scan"}, "is_reserved": 0}, {"lon": -77.18561766666667, "bike_id": "91c4d78f8c9b725bfe0ea677c857ab1f", "lat": 39.099758333333334, "fusion_lon": 0.0, "fusion_lat": 0.0, "type": "electric_bike", "name": "91c4d78f8c9b725bfe0ea677c857ab1f", "is_disabled": 0, "rental_uris": {"ios": "https://dc.lft.to/lastmile_qr_scan", "android": "https://dc.lft.to/lastmile_qr_scan"}, "is_reserved": 0}, {"lon": -76.9834945, "bike_id": "a1f05413f4fc354c58c15c37b651e6df", "lat": 38.8920615, "fusion_lon": 0.0, "fusion_lat": 0.0, "type": "electric_bike", "name": "a1f05413f4fc354c58c15c37b651e6df", "is_disabled": 0, "rental_uris": {"ios": "https://dc.lft.to/lastmile_qr_scan", "android": "https://dc.lft.to/lastmile_qr_scan"}, "is_reserved": 0}, {"lon": -77.0219305, "bike_id": "1c9e2639d51c0976f902568d30aa6593", "lat": 38.91117333333333, "fusion_lon": 0.0, "fusion_lat": 0.0, "type": "electric_scooter", "name": "1c9e2639d51c0976f902568d30aa6593", "is_disabled": 0, "rental_uris": {"ios": "https://dc.lft.to/lastmile_qr_scan", "android": "https://dc.lft.to/lastmile_qr_scan"}, "is_reserved": 0}, {"lon": -77.007082, "bike_id": "a6fb8a1f02e31463d782a64e166e15a1", "lat": 38.94598366666666, "fusion_lon": 0.0, "fusion_lat": 0.0, "type": "electric_bike", "name": "a6fb8a1f02e31463d782a64e166e15a1", "is_disabled": 0, "rental_uris": {"ios": "https://dc.lft.to/lastmile_qr_scan", "android": "https://dc.lft.to/lastmile_qr_scan"}, "is_reserved": 0}, {"lon": -77.03179583333333, "bike_id": "feae0f103c501fca48dd8c44c399d901", "lat": 38.93601816666666, "fusion_lon": 0.0, "fusion_lat": 0.0, "type": "electric_scooter", "name": "feae0f103c501fca48dd8c44c399d901", "is_disabled": 0, "rental_uris": {"ios": "https://dc.lft.to/lastmile_qr_scan", "android": "https://dc.lft.to/lastmile_qr_scan"}, "is_reserved": 0}, {"lon": -77.0339855, "bike_id": "26b495248804b12ad7ce8c2e82a74aad", "lat": 38.92055416666667, "fusion_lon": 0.0, "fusion_lat": 0.0, "type": "electric_scooter", "name": "26b495248804b12ad7ce8c2e82a74aad", "is_disabled": 0, "rental_uris": {"ios": "https://dc.lft.to/lastmile_qr_scan", "android": "https://dc.lft.to/lastmile_qr_scan"}, "is_reserved": 0}, {"lon": -77.04130333333333, "bike_id": "251c8152f561abfa2b940c91a527ba01", "lat": 38.9272425, "fusion_lon": 0.0, "fusion_lat": 0.0, "type": "electric_scooter", "name": "251c8152f561abfa2b940c91a527ba01", "is_disabled": 0, "rental_uris": {"ios": "https://dc.lft.to/lastmile_qr_scan", "android": "https://dc.lft.to/lastmile_qr_scan"}, "is_reserved": 0}, {"lon": -77.03724216666667, "bike_id": "662c0b82731c19de9e84da1e318863dc", "lat": 38.9264465, "fusion_lon": 0.0, "fusion_lat": 0.0, "type": "electric_scooter", "name": "662c0b82731c19de9e84da1e318863dc", "is_disabled": 0, "rental_uris": {"ios": "https://dc.lft.to/lastmile_qr_scan", "android": "https://dc.lft.to/lastmile_qr_scan"}, "is_reserved": 0}, {"lon": -77.00956583333334, "bike_id": "87b87aaed139b2f0e5f63c91a8f0dbfe", "lat": 38.95339116666667, "fusion_lon": 0.0, "fusion_lat": 0.0, "type": "electric_bike", "name": "87b87aaed139b2f0e5f63c91a8f0dbfe", "is_disabled": 0, "rental_uris": {"ios": "https://dc.lft.to/lastmile_qr_scan", "android": "https://dc.lft.to/lastmile_qr_scan"}, "is_reserved": 0}, {"lon": -77.029748, "bike_id": "1f8145ea647f5e7b695bebd09d403606", "lat": 38.923148, "fusion_lon": 0.0, "fusion_lat": 0.0, "type": "electric_scooter", "name": "1f8145ea647f5e7b695bebd09d403606", "is_disabled": 0, "rental_uris": {"ios": "https://dc.lft.to/lastmile_qr_scan", "android": "https://dc.lft.to/lastmile_qr_scan"}, "is_reserved": 0}, {"lon": -77.07391933333334, "bike_id": "b9f96fae96e056e60fb53543a144962c", "lat": 38.96213483333333, "fusion_lon": 0.0, "fusion_lat": 0.0, "type": "electric_scooter", "name": "b9f96fae96e056e60fb53543a144962c", "is_disabled": 0, "rental_uris": {"ios": "https://dc.lft.to/lastmile_qr_scan", "android": "https://dc.lft.to/lastmile_qr_scan"}, "is_reserved": 0}, {"lon": -76.98525816666667, "bike_id": "b81ea884d277c889fcd8d571240555e2", "lat": 38.86683416666666, "fusion_lon": 0.0, "fusion_lat": 0.0, "type": "electric_scooter", "name": "b81ea884d277c889fcd8d571240555e2", "is_disabled": 0, "rental_uris": {"ios": "https://dc.lft.to/lastmile_qr_scan", "android": "https://dc.lft.to/lastmile_qr_scan"}, "is_reserved": 0}, {"lon": -77.02561683333333, "bike_id": "8180b242b5c2fbbd19736f1253afd35d", "lat": 38.90963583333333, "fusion_lon": 0.0, "fusion_lat": 0.0, "type": "electric_scooter", "name": "8180b242b5c2fbbd19736f1253afd35d", "is_disabled": 0, "rental_uris": {"ios": "https://dc.lft.to/lastmile_qr_scan", "android": "https://dc.lft.to/lastmile_qr_scan"}, "is_reserved": 0}, {"lon": -77.04786683333333, "bike_id": "cd2fa7e7f577c09f62a0ac81de29acff", "lat": 38.82950133333333, "fusion_lon": 0.0, "fusion_lat": 0.0, "type": "electric_bike", "name": "cd2fa7e7f577c09f62a0ac81de29acff", "is_disabled": 0, "rental_uris": {"ios": "https://dc.lft.to/lastmile_qr_scan", "android": "https://dc.lft.to/lastmile_qr_scan"}, "is_reserved": 0}, {"lon": -77.02403683333333, "bike_id": "9ed46f0e783fb05dc9e9f98f5d9c2ea6", "lat": 38.89188216666667, "fusion_lon": 0.0, "fusion_lat": 0.0, "type": "electric_scooter", "name": "9ed46f0e783fb05dc9e9f98f5d9c2ea6", "is_disabled": 0, "rental_uris": {"ios": "https://dc.lft.to/lastmile_qr_scan", "android": "https://dc.lft.to/lastmile_qr_scan"}, "is_reserved": 0}, {"lon": -77.043208, "bike_id": "27a8980fc9bc0651cf83f3b2c5ca682a", "lat": 38.90702533333334, "fusion_lon": 0.0, "fusion_lat": 0.0, "type": "electric_scooter", "name": "27a8980fc9bc0651cf83f3b2c5ca682a", "is_disabled": 0, "rental_uris": {"ios": "https://dc.lft.to/lastmile_qr_scan", "android": "https://dc.lft.to/lastmile_qr_scan"}, "is_reserved": 0}, {"lon": -77.02727916666667, "bike_id": "8336284e6dc17f493c12957d199718b4", "lat": 38.9513135, "fusion_lon": 0.0, "fusion_lat": 0.0, "type": "electric_scooter", "name": "8336284e6dc17f493c12957d199718b4", "is_disabled": 0, "rental_uris": {"ios": "https://dc.lft.to/lastmile_qr_scan", "android": "https://dc.lft.to/lastmile_qr_scan"}, "is_reserved": 0}, {"lon": -76.9859315, "bike_id": "e0703cf053a9dbe62e333344fbeeaa4e", "lat": 38.866815, "fusion_lon": 0.0, "fusion_lat": 0.0, "type": "electric_scooter", "name": "e0703cf053a9dbe62e333344fbeeaa4e", "is_disabled": 0, "rental_uris": {"ios": "https://dc.lft.to/lastmile_qr_scan", "android": "https://dc.lft.to/lastmile_qr_scan"}, "is_reserved": 0}, {"lon": -77.03389283333334, "bike_id": "283de3207261fe1a49c942aabeaefe86", "lat": 38.92156083333333, "fusion_lon": 0.0, "fusion_lat": 0.0, "type": "electric_scooter", "name": "283de3207261fe1a49c942aabeaefe86", "is_disabled": 0, "rental_uris": {"ios": "https://dc.lft.to/lastmile_qr_scan", "android": "https://dc.lft.to/lastmile_qr_scan"}, "is_reserved": 0}, {"lon": -77.11577516666667, "bike_id": "775e2cee498bda60d659991e7ae63599", "lat": 38.99345916666667, "fusion_lon": 0.0, "fusion_lat": 0.0, "type": "electric_bike", "name": "775e2cee498bda60d659991e7ae63599", "is_disabled": 0, "rental_uris": {"ios": "https://dc.lft.to/lastmile_qr_scan", "android": "https://dc.lft.to/lastmile_qr_scan"}, "is_reserved": 0}, {"lon": -77.0280125, "bike_id": "2e0d3fb2706dd038eb6d711ce56c7f27", "lat": 38.912157, "fusion_lon": 0.0, "fusion_lat": 0.0, "type": "electric_scooter", "name": "2e0d3fb2706dd038eb6d711ce56c7f27", "is_disabled": 0, "rental_uris": {"ios": "https://dc.lft.to/lastmile_qr_scan", "android": "https://dc.lft.to/lastmile_qr_scan"}, "is_reserved": 0}, {"lon": -77.027231, "bike_id": "6a114a64ff07b6d08fc49927cf2cf9b7", "lat": 38.89736333333333, "fusion_lon": 0.0, "fusion_lat": 0.0, "type": "electric_scooter", "name": "6a114a64ff07b6d08fc49927cf2cf9b7", "is_disabled": 0, "rental_uris": {"ios": "https://dc.lft.to/lastmile_qr_scan", "android": "https://dc.lft.to/lastmile_qr_scan"}, "is_reserved": 0}, {"lon": -77.05315166666666, "bike_id": "f6ed7dbaa36c608fbc0d59024eddaade", "lat": 38.9410165, "fusion_lon": 0.0, "fusion_lat": 0.0, "type": "electric_bike", "name": "f6ed7dbaa36c608fbc0d59024eddaade", "is_disabled": 0, "rental_uris": {"ios": "https://dc.lft.to/lastmile_qr_scan", "android": "https://dc.lft.to/lastmile_qr_scan"}, "is_reserved": 0}, {"lon": -77.03174983333334, "bike_id": "cd494f8d7b8fd6b71756c77aca0204c9", "lat": 38.887315, "fusion_lon": 0.0, "fusion_lat": 0.0, "type": "electric_scooter", "name": "cd494f8d7b8fd6b71756c77aca0204c9", "is_disabled": 0, "rental_uris": {"ios": "https://dc.lft.to/lastmile_qr_scan", "android": "https://dc.lft.to/lastmile_qr_scan"}, "is_reserved": 0}, {"lon": -77.03122733333333, "bike_id": "ab9ddcf7a3c51fcf0fdd0a265892f135", "lat": 38.988259666666664, "fusion_lon": 0.0, "fusion_lat": 0.0, "type": "electric_scooter", "name": "ab9ddcf7a3c51fcf0fdd0a265892f135", "is_disabled": 0, "rental_uris": {"ios": "https://dc.lft.to/lastmile_qr_scan", "android": "https://dc.lft.to/lastmile_qr_scan"}, "is_reserved": 0}, {"lon": -76.9638625, "bike_id": "b4db4d4a6616ef6f1642c87de74a2362", "lat": 38.951759, "fusion_lon": 0.0, "fusion_lat": 0.0, "type": "electric_bike", "name": "b4db4d4a6616ef6f1642c87de74a2362", "is_disabled": 0, "rental_uris": {"ios": "https://dc.lft.to/lastmile_qr_scan", "android": "https://dc.lft.to/lastmile_qr_scan"}, "is_reserved": 0}, {"lon": -77.0279515, "bike_id": "a81ed3809e95b8f7dd0a6b718109db74", "lat": 38.95393816666667, "fusion_lon": 0.0, "fusion_lat": 0.0, "type": "electric_scooter", "name": "a81ed3809e95b8f7dd0a6b718109db74", "is_disabled": 0, "rental_uris": {"ios": "https://dc.lft.to/lastmile_qr_scan", "android": "https://dc.lft.to/lastmile_qr_scan"}, "is_reserved": 0}, {"lon": -77.03185983333333, "bike_id": "02ae7569bebc7d69f9747d36c4c00938", "lat": 38.90997633333333, "fusion_lon": 0.0, "fusion_lat": 0.0, "type": "electric_scooter", "name": "02ae7569bebc7d69f9747d36c4c00938", "is_disabled": 0, "rental_uris": {"ios": "https://dc.lft.to/lastmile_qr_scan", "android": "https://dc.lft.to/lastmile_qr_scan"}, "is_reserved": 0}, {"lon": -77.03159183333334, "bike_id": "dbd0fdbfae9da8dd9c018bc3ea842d18", "lat": 38.9236885, "fusion_lon": 0.0, "fusion_lat": 0.0, "type": "electric_scooter", "name": "dbd0fdbfae9da8dd9c018bc3ea842d18", "is_disabled": 0, "rental_uris": {"ios": "https://dc.lft.to/lastmile_qr_scan", "android": "https://dc.lft.to/lastmile_qr_scan"}, "is_reserved": 0}, {"lon": -77.2280075, "bike_id": "bca752b0f065ea4272cc2c8554111a1a", "lat": 38.91017166666666, "fusion_lon": 0.0, "fusion_lat": 0.0, "type": "electric_bike", "name": "bca752b0f065ea4272cc2c8554111a1a", "is_disabled": 0, "rental_uris": {"ios": "https://dc.lft.to/lastmile_qr_scan", "android": "https://dc.lft.to/lastmile_qr_scan"}, "is_reserved": 0}, {"lon": -77.02090783333334, "bike_id": "8e5a0b6826257376a7f50c36550cafe8", "lat": 38.929115333333336, "fusion_lon": 0.0, "fusion_lat": 0.0, "type": "electric_scooter", "name": "8e5a0b6826257376a7f50c36550cafe8", "is_disabled": 0, "rental_uris": {"ios": "https://dc.lft.to/lastmile_qr_scan", "android": "https://dc.lft.to/lastmile_qr_scan"}, "is_reserved": 0}, {"lon": -77.00440416666666, "bike_id": "6b0143d2f87d5f055b7980e1b1892ace", "lat": 38.91192783333334, "fusion_lon": 0.0, "fusion_lat": 0.0, "type": "electric_scooter", "name": "6b0143d2f87d5f055b7980e1b1892ace", "is_disabled": 0, "rental_uris": {"ios": "https://dc.lft.to/lastmile_qr_scan", "android": "https://dc.lft.to/lastmile_qr_scan"}, "is_reserved": 0}, {"lon": -77.00742683333333, "bike_id": "cae248b50b07457829de4bb04507b29d", "lat": 38.925286166666666, "fusion_lon": 0.0, "fusion_lat": 0.0, "type": "electric_scooter", "name": "cae248b50b07457829de4bb04507b29d", "is_disabled": 0, "rental_uris": {"ios": "https://dc.lft.to/lastmile_qr_scan", "android": "https://dc.lft.to/lastmile_qr_scan"}, "is_reserved": 0}, {"lon": -77.04143083333334, "bike_id": "1a20a7f0e54bfb12c290a161edada0cc", "lat": 38.9229265, "fusion_lon": 0.0, "fusion_lat": 0.0, "type": "electric_scooter", "name": "1a20a7f0e54bfb12c290a161edada0cc", "is_disabled": 0, "rental_uris": {"ios": "https://dc.lft.to/lastmile_qr_scan", "android": "https://dc.lft.to/lastmile_qr_scan"}, "is_reserved": 0}, {"lon": -77.02703583333333, "bike_id": "d7aa33765bb4f938c8e0481c4f2ade8f", "lat": 38.906606333333336, "fusion_lon": 0.0, "fusion_lat": 0.0, "type": "electric_scooter", "name": "d7aa33765bb4f938c8e0481c4f2ade8f", "is_disabled": 0, "rental_uris": {"ios": "https://dc.lft.to/lastmile_qr_scan", "android": "https://dc.lft.to/lastmile_qr_scan"}, "is_reserved": 0}, {"lon": -76.93303716666667, "bike_id": "f35ab580c3b422aa9fed443787855a6f", "lat": 38.8919435, "fusion_lon": 0.0, "fusion_lat": 0.0, "type": "electric_scooter", "name": "f35ab580c3b422aa9fed443787855a6f", "is_disabled": 0, "rental_uris": {"ios": "https://dc.lft.to/lastmile_qr_scan", "android": "https://dc.lft.to/lastmile_qr_scan"}, "is_reserved": 0}, {"lon": -77.05698933333333, "bike_id": "4767c0fec89d5f634f7e31015970e5c2", "lat": 38.9371925, "fusion_lon": 0.0, "fusion_lat": 0.0, "type": "electric_scooter", "name": "4767c0fec89d5f634f7e31015970e5c2", "is_disabled": 0, "rental_uris": {"ios": "https://dc.lft.to/lastmile_qr_scan", "android": "https://dc.lft.to/lastmile_qr_scan"}, "is_reserved": 0}, {"lon": -77.03213083333333, "bike_id": "c257dbf28dca124aa9e3919133977245", "lat": 38.90727483333333, "fusion_lon": 0.0, "fusion_lat": 0.0, "type": "electric_scooter", "name": "c257dbf28dca124aa9e3919133977245", "is_disabled": 0, "rental_uris": {"ios": "https://dc.lft.to/lastmile_qr_scan", "android": "https://dc.lft.to/lastmile_qr_scan"}, "is_reserved": 0}, {"lon": -77.02779133333334, "bike_id": "5d6f0aee7d70053595b4bf334c3f4966", "lat": 38.89223, "fusion_lon": 0.0, "fusion_lat": 0.0, "type": "electric_scooter", "name": "5d6f0aee7d70053595b4bf334c3f4966", "is_disabled": 0, "rental_uris": {"ios": "https://dc.lft.to/lastmile_qr_scan", "android": "https://dc.lft.to/lastmile_qr_scan"}, "is_reserved": 0}, {"lon": -76.98232483333334, "bike_id": "c272ddd14390a87c591714e83c846dc6", "lat": 38.8864635, "fusion_lon": 0.0, "fusion_lat": 0.0, "type": "electric_scooter", "name": "c272ddd14390a87c591714e83c846dc6", "is_disabled": 0, "rental_uris": {"ios": "https://dc.lft.to/lastmile_qr_scan", "android": "https://dc.lft.to/lastmile_qr_scan"}, "is_reserved": 0}, {"lon": -77.02778183333334, "bike_id": "4d33befea975c6900da266a9e901261b", "lat": 38.892222333333336, "fusion_lon": 0.0, "fusion_lat": 0.0, "type": "electric_scooter", "name": "4d33befea975c6900da266a9e901261b", "is_disabled": 0, "rental_uris": {"ios": "https://dc.lft.to/lastmile_qr_scan", "android": "https://dc.lft.to/lastmile_qr_scan"}, "is_reserved": 0}, {"lon": -77.05159383333333, "bike_id": "2865ee921f7cfc309149cf6fca8c2afb", "lat": 39.0429825, "fusion_lon": 0.0, "fusion_lat": 0.0, "type": "electric_bike", "name": "2865ee921f7cfc309149cf6fca8c2afb", "is_disabled": 0, "rental_uris": {"ios": "https://dc.lft.to/lastmile_qr_scan", "android": "https://dc.lft.to/lastmile_qr_scan"}, "is_reserved": 0}, {"lon": -77.03194683333334, "bike_id": "11f5d2d573dc17ee1c773d4c008c725f", "lat": 38.9163125, "fusion_lon": 0.0, "fusion_lat": 0.0, "type": "electric_scooter", "name": "11f5d2d573dc17ee1c773d4c008c725f", "is_disabled": 0, "rental_uris": {"ios": "https://dc.lft.to/lastmile_qr_scan", "android": "https://dc.lft.to/lastmile_qr_scan"}, "is_reserved": 0}, {"lon": -77.025847, "bike_id": "f13886c0cb2e40756076ac49c88aa0a3", "lat": 38.92035116666667, "fusion_lon": 0.0, "fusion_lat": 0.0, "type": "electric_scooter", "name": "f13886c0cb2e40756076ac49c88aa0a3", "is_disabled": 0, "rental_uris": {"ios": "https://dc.lft.to/lastmile_qr_scan", "android": "https://dc.lft.to/lastmile_qr_scan"}, "is_reserved": 0}, {"lon": -77.04268966666666, "bike_id": "de0a99252b8f1027ae5a4be78cef9ad9", "lat": 38.90727533333333, "fusion_lon": 0.0, "fusion_lat": 0.0, "type": "electric_scooter", "name": "de0a99252b8f1027ae5a4be78cef9ad9", "is_disabled": 0, "rental_uris": {"ios": "https://dc.lft.to/lastmile_qr_scan", "android": "https://dc.lft.to/lastmile_qr_scan"}, "is_reserved": 0}, {"lon": -77.11166483333334, "bike_id": "86ade141ee28316cc9729c6d0b80f16e", "lat": 38.85521983333334, "fusion_lon": 0.0, "fusion_lat": 0.0, "type": "electric_bike", "name": "86ade141ee28316cc9729c6d0b80f16e", "is_disabled": 0, "rental_uris": {"ios": "https://dc.lft.to/lastmile_qr_scan", "android": "https://dc.lft.to/lastmile_qr_scan"}, "is_reserved": 0}, {"lon": -77.1049245, "bike_id": "06525035335ad823a3b5b59203739703", "lat": 38.8560515, "fusion_lon": 0.0, "fusion_lat": 0.0, "type": "electric_bike", "name": "06525035335ad823a3b5b59203739703", "is_disabled": 0, "rental_uris": {"ios": "https://dc.lft.to/lastmile_qr_scan", "android": "https://dc.lft.to/lastmile_qr_scan"}, "is_reserved": 0}, {"lon": -77.02154833333333, "bike_id": "fd16262ef41588d52535d82dfbf25ea8", "lat": 38.90375366666667, "fusion_lon": 0.0, "fusion_lat": 0.0, "type": "electric_scooter", "name": "fd16262ef41588d52535d82dfbf25ea8", "is_disabled": 0, "rental_uris": {"ios": "https://dc.lft.to/lastmile_qr_scan", "android": "https://dc.lft.to/lastmile_qr_scan"}, "is_reserved": 0}, {"lon": -77.04339633333333, "bike_id": "8f89bbfed6fb3f93214ac2385cbdf58b", "lat": 38.9221705, "fusion_lon": 0.0, "fusion_lat": 0.0, "type": "electric_scooter", "name": "8f89bbfed6fb3f93214ac2385cbdf58b", "is_disabled": 0, "rental_uris": {"ios": "https://dc.lft.to/lastmile_qr_scan", "android": "https://dc.lft.to/lastmile_qr_scan"}, "is_reserved": 0}, {"lon": -77.02400333333334, "bike_id": "49511b49cb29c352777093b6cc9363d6", "lat": 38.8918945, "fusion_lon": 0.0, "fusion_lat": 0.0, "type": "electric_scooter", "name": "49511b49cb29c352777093b6cc9363d6", "is_disabled": 0, "rental_uris": {"ios": "https://dc.lft.to/lastmile_qr_scan", "android": "https://dc.lft.to/lastmile_qr_scan"}, "is_reserved": 0}, {"lon": -77.063827, "bike_id": "42c4103312bb93cec7b7e07ca836d437", "lat": 38.905192666666665, "fusion_lon": 0.0, "fusion_lat": 0.0, "type": "electric_scooter", "name": "42c4103312bb93cec7b7e07ca836d437", "is_disabled": 0, "rental_uris": {"ios": "https://dc.lft.to/lastmile_qr_scan", "android": "https://dc.lft.to/lastmile_qr_scan"}, "is_reserved": 0}, {"lon": -77.02293016666667, "bike_id": "bd1f16e35c161a0f25da29169dd44395", "lat": 38.91689433333333, "fusion_lon": 0.0, "fusion_lat": 0.0, "type": "electric_scooter", "name": "bd1f16e35c161a0f25da29169dd44395", "is_disabled": 0, "rental_uris": {"ios": "https://dc.lft.to/lastmile_qr_scan", "android": "https://dc.lft.to/lastmile_qr_scan"}, "is_reserved": 0}, {"lon": -77.04181133333333, "bike_id": "962ded0e93d3ca5d6c8cf9820d3f3688", "lat": 38.892258166666664, "fusion_lon": 0.0, "fusion_lat": 0.0, "type": "electric_scooter", "name": "962ded0e93d3ca5d6c8cf9820d3f3688", "is_disabled": 0, "rental_uris": {"ios": "https://dc.lft.to/lastmile_qr_scan", "android": "https://dc.lft.to/lastmile_qr_scan"}, "is_reserved": 0}, {"lon": -76.98225, "bike_id": "44d59f3ceaffebb223ca9eab8081bf58", "lat": 38.86652466666666, "fusion_lon": 0.0, "fusion_lat": 0.0, "type": "electric_scooter", "name": "44d59f3ceaffebb223ca9eab8081bf58", "is_disabled": 0, "rental_uris": {"ios": "https://dc.lft.to/lastmile_qr_scan", "android": "https://dc.lft.to/lastmile_qr_scan"}, "is_reserved": 0}, {"lon": -77.043456, "bike_id": "605d8f212406bdff53987bc4dcaeabc2", "lat": 38.901329, "fusion_lon": 0.0, "fusion_lat": 0.0, "type": "electric_scooter", "name": "605d8f212406bdff53987bc4dcaeabc2", "is_disabled": 0, "rental_uris": {"ios": "https://dc.lft.to/lastmile_qr_scan", "android": "https://dc.lft.to/lastmile_qr_scan"}, "is_reserved": 0}, {"lon": -77.041578, "bike_id": "100e45d248c6a3f595baa7a91b9deb1c", "lat": 38.9141835, "fusion_lon": 0.0, "fusion_lat": 0.0, "type": "electric_scooter", "name": "100e45d248c6a3f595baa7a91b9deb1c", "is_disabled": 0, "rental_uris": {"ios": "https://dc.lft.to/lastmile_qr_scan", "android": "https://dc.lft.to/lastmile_qr_scan"}, "is_reserved": 0}, {"lon": -77.00062066666666, "bike_id": "a7d6736abcab2091dda14c28e00b5b44", "lat": 38.89496966666667, "fusion_lon": 0.0, "fusion_lat": 0.0, "type": "electric_scooter", "name": "a7d6736abcab2091dda14c28e00b5b44", "is_disabled": 0, "rental_uris": {"ios": "https://dc.lft.to/lastmile_qr_scan", "android": "https://dc.lft.to/lastmile_qr_scan"}, "is_reserved": 0}, {"lon": -77.0340875, "bike_id": "4bdf9a2e52491b4c22ae064b25e23da2", "lat": 38.92274033333333, "fusion_lon": 0.0, "fusion_lat": 0.0, "type": "electric_scooter", "name": "4bdf9a2e52491b4c22ae064b25e23da2", "is_disabled": 0, "rental_uris": {"ios": "https://dc.lft.to/lastmile_qr_scan", "android": "https://dc.lft.to/lastmile_qr_scan"}, "is_reserved": 0}, {"lon": -77.03381116666667, "bike_id": "0133417acc6dec35c136abe0bf455d46", "lat": 38.90264716666667, "fusion_lon": 0.0, "fusion_lat": 0.0, "type": "electric_scooter", "name": "0133417acc6dec35c136abe0bf455d46", "is_disabled": 0, "rental_uris": {"ios": "https://dc.lft.to/lastmile_qr_scan", "android": "https://dc.lft.to/lastmile_qr_scan"}, "is_reserved": 0}, {"lon": -76.999398, "bike_id": "4622153d40b2bb51f0f8914d50ffe42c", "lat": 38.919256, "fusion_lon": 0.0, "fusion_lat": 0.0, "type": "electric_scooter", "name": "4622153d40b2bb51f0f8914d50ffe42c", "is_disabled": 0, "rental_uris": {"ios": "https://dc.lft.to/lastmile_qr_scan", "android": "https://dc.lft.to/lastmile_qr_scan"}, "is_reserved": 0}, {"lon": -77.04597716666666, "bike_id": "8d9e6fca5351d8e66fab5e66f00d1906", "lat": 38.902424833333335, "fusion_lon": 0.0, "fusion_lat": 0.0, "type": "electric_scooter", "name": "8d9e6fca5351d8e66fab5e66f00d1906", "is_disabled": 0, "rental_uris": {"ios": "https://dc.lft.to/lastmile_qr_scan", "android": "https://dc.lft.to/lastmile_qr_scan"}, "is_reserved": 0}, {"lon": -77.02204283333333, "bike_id": "f4862538082b343f7140e041c98c4e35", "lat": 38.87891416666667, "fusion_lon": 0.0, "fusion_lat": 0.0, "type": "electric_scooter", "name": "f4862538082b343f7140e041c98c4e35", "is_disabled": 0, "rental_uris": {"ios": "https://dc.lft.to/lastmile_qr_scan", "android": "https://dc.lft.to/lastmile_qr_scan"}, "is_reserved": 0}, {"lon": -77.021764, "bike_id": "f291abd5471f1bebf4e3888e90e04f06", "lat": 38.91050233333333, "fusion_lon": 0.0, "fusion_lat": 0.0, "type": "electric_scooter", "name": "f291abd5471f1bebf4e3888e90e04f06", "is_disabled": 0, "rental_uris": {"ios": "https://dc.lft.to/lastmile_qr_scan", "android": "https://dc.lft.to/lastmile_qr_scan"}, "is_reserved": 0}, {"lon": -77.03198683333333, "bike_id": "7f4672ecb932d58c554e2c17aa434cc2", "lat": 38.90719133333333, "fusion_lon": 0.0, "fusion_lat": 0.0, "type": "electric_scooter", "name": "7f4672ecb932d58c554e2c17aa434cc2", "is_disabled": 0, "rental_uris": {"ios": "https://dc.lft.to/lastmile_qr_scan", "android": "https://dc.lft.to/lastmile_qr_scan"}, "is_reserved": 0}, {"lon": -77.03168433333333, "bike_id": "17511c32896794d8f7da1bb62b557dbb", "lat": 38.9010485, "fusion_lon": 0.0, "fusion_lat": 0.0, "type": "electric_scooter", "name": "17511c32896794d8f7da1bb62b557dbb", "is_disabled": 0, "rental_uris": {"ios": "https://dc.lft.to/lastmile_qr_scan", "android": "https://dc.lft.to/lastmile_qr_scan"}, "is_reserved": 0}, {"lon": -77.059334, "bike_id": "9ed98e5ef9235e7d07f198a75214980b", "lat": 38.9052605, "fusion_lon": 0.0, "fusion_lat": 0.0, "type": "electric_bike", "name": "9ed98e5ef9235e7d07f198a75214980b", "is_disabled": 0, "rental_uris": {"ios": "https://dc.lft.to/lastmile_qr_scan", "android": "https://dc.lft.to/lastmile_qr_scan"}, "is_reserved": 0}, {"lon": -77.02201683333334, "bike_id": "25cf7f09c92b1bba34fcd3e5acfc0345", "lat": 38.892916166666666, "fusion_lon": 0.0, "fusion_lat": 0.0, "type": "electric_scooter", "name": "25cf7f09c92b1bba34fcd3e5acfc0345", "is_disabled": 0, "rental_uris": {"ios": "https://dc.lft.to/lastmile_qr_scan", "android": "https://dc.lft.to/lastmile_qr_scan"}, "is_reserved": 0}, {"lon": -76.98831716666666, "bike_id": "133ba39cf8a45d9e43a0d9e4de72b5aa", "lat": 38.90096333333334, "fusion_lon": 0.0, "fusion_lat": 0.0, "type": "electric_scooter", "name": "133ba39cf8a45d9e43a0d9e4de72b5aa", "is_disabled": 0, "rental_uris": {"ios": "https://dc.lft.to/lastmile_qr_scan", "android": "https://dc.lft.to/lastmile_qr_scan"}, "is_reserved": 0}, {"lon": -77.0259365, "bike_id": "34e92ca75e7ac6f22bf8a3d09d9e440f", "lat": 38.94197916666667, "fusion_lon": 0.0, "fusion_lat": 0.0, "type": "electric_scooter", "name": "34e92ca75e7ac6f22bf8a3d09d9e440f", "is_disabled": 0, "rental_uris": {"ios": "https://dc.lft.to/lastmile_qr_scan", "android": "https://dc.lft.to/lastmile_qr_scan"}, "is_reserved": 0}, {"lon": -77.03186183333334, "bike_id": "c2e1e4689e84e26c3f30d2a1298ccf69", "lat": 38.896209999999996, "fusion_lon": 0.0, "fusion_lat": 0.0, "type": "electric_scooter", "name": "c2e1e4689e84e26c3f30d2a1298ccf69", "is_disabled": 0, "rental_uris": {"ios": "https://dc.lft.to/lastmile_qr_scan", "android": "https://dc.lft.to/lastmile_qr_scan"}, "is_reserved": 0}, {"lon": -77.10407316666667, "bike_id": "cffe98e7e18737e9a6a3b4f1eb23abee", "lat": 38.81215516666666, "fusion_lon": 0.0, "fusion_lat": 0.0, "type": "electric_bike", "name": "cffe98e7e18737e9a6a3b4f1eb23abee", "is_disabled": 0, "rental_uris": {"ios": "https://dc.lft.to/lastmile_qr_scan", "android": "https://dc.lft.to/lastmile_qr_scan"}, "is_reserved": 0}, {"lon": -77.017636, "bike_id": "50d81389d5fa43dbb2b8d56b2df5fda6", "lat": 38.87713683333333, "fusion_lon": 0.0, "fusion_lat": 0.0, "type": "electric_scooter", "name": "50d81389d5fa43dbb2b8d56b2df5fda6", "is_disabled": 0, "rental_uris": {"ios": "https://dc.lft.to/lastmile_qr_scan", "android": "https://dc.lft.to/lastmile_qr_scan"}, "is_reserved": 0}, {"lon": -77.03201483333333, "bike_id": "6210574514d9905542272bb88fd42cee", "lat": 38.91741316666667, "fusion_lon": 0.0, "fusion_lat": 0.0, "type": "electric_scooter", "name": "6210574514d9905542272bb88fd42cee", "is_disabled": 0, "rental_uris": {"ios": "https://dc.lft.to/lastmile_qr_scan", "android": "https://dc.lft.to/lastmile_qr_scan"}, "is_reserved": 0}, {"lon": -77.045108, "bike_id": "301644f2ff7493f760695146e81e84ac", "lat": 38.903659166666664, "fusion_lon": 0.0, "fusion_lat": 0.0, "type": "electric_scooter", "name": "301644f2ff7493f760695146e81e84ac", "is_disabled": 0, "rental_uris": {"ios": "https://dc.lft.to/lastmile_qr_scan", "android": "https://dc.lft.to/lastmile_qr_scan"}, "is_reserved": 0}, {"lon": -77.02056566666667, "bike_id": "90e47d6f9fa1e4905737c44c5ceb9718", "lat": 38.95750833333334, "fusion_lon": 0.0, "fusion_lat": 0.0, "type": "electric_bike", "name": "90e47d6f9fa1e4905737c44c5ceb9718", "is_disabled": 0, "rental_uris": {"ios": "https://dc.lft.to/lastmile_qr_scan", "android": "https://dc.lft.to/lastmile_qr_scan"}, "is_reserved": 0}, {"lon": -77.03158716666667, "bike_id": "20aa7e363fde2a6298dcad01a454028d", "lat": 38.893483833333335, "fusion_lon": 0.0, "fusion_lat": 0.0, "type": "electric_scooter", "name": "20aa7e363fde2a6298dcad01a454028d", "is_disabled": 0, "rental_uris": {"ios": "https://dc.lft.to/lastmile_qr_scan", "android": "https://dc.lft.to/lastmile_qr_scan"}, "is_reserved": 0}, {"lon": -76.98226466666667, "bike_id": "67277a72f39f2d1cd884c93dd68f8493", "lat": 38.868898, "fusion_lon": 0.0, "fusion_lat": 0.0, "type": "electric_scooter", "name": "67277a72f39f2d1cd884c93dd68f8493", "is_disabled": 0, "rental_uris": {"ios": "https://dc.lft.to/lastmile_qr_scan", "android": "https://dc.lft.to/lastmile_qr_scan"}, "is_reserved": 0}, {"lon": -76.99195466666667, "bike_id": "e9ad14f96580154fa5dcba26219b4ae1", "lat": 38.862855, "fusion_lon": 0.0, "fusion_lat": 0.0, "type": "electric_scooter", "name": "e9ad14f96580154fa5dcba26219b4ae1", "is_disabled": 0, "rental_uris": {"ios": "https://dc.lft.to/lastmile_qr_scan", "android": "https://dc.lft.to/lastmile_qr_scan"}, "is_reserved": 0}, {"lon": -77.0432535, "bike_id": "ed5a4418884e5dbf2a7b0a33f7147f24", "lat": 38.9023185, "fusion_lon": 0.0, "fusion_lat": 0.0, "type": "electric_scooter", "name": "ed5a4418884e5dbf2a7b0a33f7147f24", "is_disabled": 0, "rental_uris": {"ios": "https://dc.lft.to/lastmile_qr_scan", "android": "https://dc.lft.to/lastmile_qr_scan"}, "is_reserved": 0}, {"lon": -77.04165016666667, "bike_id": "b7dd65202598c7fcda9bc652fc17d408", "lat": 38.905451, "fusion_lon": 0.0, "fusion_lat": 0.0, "type": "electric_scooter", "name": "b7dd65202598c7fcda9bc652fc17d408", "is_disabled": 0, "rental_uris": {"ios": "https://dc.lft.to/lastmile_qr_scan", "android": "https://dc.lft.to/lastmile_qr_scan"}, "is_reserved": 0}, {"lon": -77.03853266666667, "bike_id": "b88e9822655aa2c43be0fc79816f319d", "lat": 38.912791166666665, "fusion_lon": 0.0, "fusion_lat": 0.0, "type": "electric_scooter", "name": "b88e9822655aa2c43be0fc79816f319d", "is_disabled": 0, "rental_uris": {"ios": "https://dc.lft.to/lastmile_qr_scan", "android": "https://dc.lft.to/lastmile_qr_scan"}, "is_reserved": 0}, {"lon": -77.0268825, "bike_id": "d0c000a6e4090ae67576689ed3e517dd", "lat": 38.90460433333333, "fusion_lon": 0.0, "fusion_lat": 0.0, "type": "electric_scooter", "name": "d0c000a6e4090ae67576689ed3e517dd", "is_disabled": 0, "rental_uris": {"ios": "https://dc.lft.to/lastmile_qr_scan", "android": "https://dc.lft.to/lastmile_qr_scan"}, "is_reserved": 0}, {"lon": -77.0449965, "bike_id": "f8f5ce2d4dfcd52b8a3790439cb3b017", "lat": 38.897796, "fusion_lon": 0.0, "fusion_lat": 0.0, "type": "electric_scooter", "name": "f8f5ce2d4dfcd52b8a3790439cb3b017", "is_disabled": 0, "rental_uris": {"ios": "https://dc.lft.to/lastmile_qr_scan", "android": "https://dc.lft.to/lastmile_qr_scan"}, "is_reserved": 0}, {"lon": -77.023953, "bike_id": "8c0f79b82dbc1a405098229dba2b0d85", "lat": 38.93075133333333, "fusion_lon": 0.0, "fusion_lat": 0.0, "type": "electric_scooter", "name": "8c0f79b82dbc1a405098229dba2b0d85", "is_disabled": 0, "rental_uris": {"ios": "https://dc.lft.to/lastmile_qr_scan", "android": "https://dc.lft.to/lastmile_qr_scan"}, "is_reserved": 0}, {"lon": -77.02382383333334, "bike_id": "bdba71bfe38486c7ec38286806306138", "lat": 38.919896666666666, "fusion_lon": 0.0, "fusion_lat": 0.0, "type": "electric_scooter", "name": "bdba71bfe38486c7ec38286806306138", "is_disabled": 0, "rental_uris": {"ios": "https://dc.lft.to/lastmile_qr_scan", "android": "https://dc.lft.to/lastmile_qr_scan"}, "is_reserved": 0}, {"lon": -77.0386505, "bike_id": "ef86ca4b091da8d5ca8f32b4e345c702", "lat": 38.902830333333334, "fusion_lon": 0.0, "fusion_lat": 0.0, "type": "electric_scooter", "name": "ef86ca4b091da8d5ca8f32b4e345c702", "is_disabled": 0, "rental_uris": {"ios": "https://dc.lft.to/lastmile_qr_scan", "android": "https://dc.lft.to/lastmile_qr_scan"}, "is_reserved": 0}, {"lon": -77.02587883333334, "bike_id": "54b6b3cc9646a733b32b1cfe0609d4be", "lat": 38.96390433333333, "fusion_lon": 0.0, "fusion_lat": 0.0, "type": "electric_scooter", "name": "54b6b3cc9646a733b32b1cfe0609d4be", "is_disabled": 0, "rental_uris": {"ios": "https://dc.lft.to/lastmile_qr_scan", "android": "https://dc.lft.to/lastmile_qr_scan"}, "is_reserved": 0}, {"lon": -77.0297405, "bike_id": "3c7c3ed91d988b3fc2697a0be8eb7da9", "lat": 38.928722, "fusion_lon": 0.0, "fusion_lat": 0.0, "type": "electric_scooter", "name": "3c7c3ed91d988b3fc2697a0be8eb7da9", "is_disabled": 0, "rental_uris": {"ios": "https://dc.lft.to/lastmile_qr_scan", "android": "https://dc.lft.to/lastmile_qr_scan"}, "is_reserved": 0}, {"lon": -77.0327825, "bike_id": "25657788ac69aee295847bebb659332d", "lat": 38.919945, "fusion_lon": 0.0, "fusion_lat": 0.0, "type": "electric_scooter", "name": "25657788ac69aee295847bebb659332d", "is_disabled": 0, "rental_uris": {"ios": "https://dc.lft.to/lastmile_qr_scan", "android": "https://dc.lft.to/lastmile_qr_scan"}, "is_reserved": 0}, {"lon": -76.98709433333333, "bike_id": "5d0bfdc1a72061e3a365954343dcb01b", "lat": 38.86701766666667, "fusion_lon": 0.0, "fusion_lat": 0.0, "type": "electric_scooter", "name": "5d0bfdc1a72061e3a365954343dcb01b", "is_disabled": 0, "rental_uris": {"ios": "https://dc.lft.to/lastmile_qr_scan", "android": "https://dc.lft.to/lastmile_qr_scan"}, "is_reserved": 0}, {"lon": -76.93732166666666, "bike_id": "055d7b5d5328a38f7695a165dd74fb44", "lat": 38.8901545, "fusion_lon": 0.0, "fusion_lat": 0.0, "type": "electric_scooter", "name": "055d7b5d5328a38f7695a165dd74fb44", "is_disabled": 0, "rental_uris": {"ios": "https://dc.lft.to/lastmile_qr_scan", "android": "https://dc.lft.to/lastmile_qr_scan"}, "is_reserved": 0}, {"lon": -77.01160433333334, "bike_id": "b5782c83dbde248defc2591a89001653", "lat": 38.87227983333333, "fusion_lon": 0.0, "fusion_lat": 0.0, "type": "electric_bike", "name": "b5782c83dbde248defc2591a89001653", "is_disabled": 0, "rental_uris": {"ios": "https://dc.lft.to/lastmile_qr_scan", "android": "https://dc.lft.to/lastmile_qr_scan"}, "is_reserved": 0}, {"lon": -76.988978, "bike_id": "4eae4e3866fc64e03c58bc9ce6228192", "lat": 38.91345233333333, "fusion_lon": 0.0, "fusion_lat": 0.0, "type": "electric_scooter", "name": "4eae4e3866fc64e03c58bc9ce6228192", "is_disabled": 0, "rental_uris": {"ios": "https://dc.lft.to/lastmile_qr_scan", "android": "https://dc.lft.to/lastmile_qr_scan"}, "is_reserved": 0}, {"lon": -77.03531, "bike_id": "841f766b41781346efbec8b4f1fb18ba", "lat": 38.926310666666666, "fusion_lon": 0.0, "fusion_lat": 0.0, "type": "electric_scooter", "name": "841f766b41781346efbec8b4f1fb18ba", "is_disabled": 0, "rental_uris": {"ios": "https://dc.lft.to/lastmile_qr_scan", "android": "https://dc.lft.to/lastmile_qr_scan"}, "is_reserved": 0}, {"lon": -77.0345225, "bike_id": "3da0a2edc62314e5fb14608f905f249b", "lat": 38.908057, "fusion_lon": 0.0, "fusion_lat": 0.0, "type": "electric_scooter", "name": "3da0a2edc62314e5fb14608f905f249b", "is_disabled": 0, "rental_uris": {"ios": "https://dc.lft.to/lastmile_qr_scan", "android": "https://dc.lft.to/lastmile_qr_scan"}, "is_reserved": 0}, {"lon": -76.95475916666666, "bike_id": "fbf06b06afccf1e3686a10f4164194cb", "lat": 38.8846815, "fusion_lon": 0.0, "fusion_lat": 0.0, "type": "electric_scooter", "name": "fbf06b06afccf1e3686a10f4164194cb", "is_disabled": 0, "rental_uris": {"ios": "https://dc.lft.to/lastmile_qr_scan", "android": "https://dc.lft.to/lastmile_qr_scan"}, "is_reserved": 0}, {"lon": -76.94289716666667, "bike_id": "b6211b380e782efdaa87ac2979e29c83", "lat": 38.93868783333333, "fusion_lon": 0.0, "fusion_lat": 0.0, "type": "electric_bike", "name": "b6211b380e782efdaa87ac2979e29c83", "is_disabled": 0, "rental_uris": {"ios": "https://dc.lft.to/lastmile_qr_scan", "android": "https://dc.lft.to/lastmile_qr_scan"}, "is_reserved": 0}, {"lon": -76.99034166666667, "bike_id": "a55c47981b6ea4c5ef464d7e08057b5c", "lat": 38.891772, "fusion_lon": 0.0, "fusion_lat": 0.0, "type": "electric_scooter", "name": "a55c47981b6ea4c5ef464d7e08057b5c", "is_disabled": 0, "rental_uris": {"ios": "https://dc.lft.to/lastmile_qr_scan", "android": "https://dc.lft.to/lastmile_qr_scan"}, "is_reserved": 0}, {"lon": -77.04185333333334, "bike_id": "9587dec68522e9c902fc19ef7e8ab6e5", "lat": 38.899654, "fusion_lon": 0.0, "fusion_lat": 0.0, "type": "electric_scooter", "name": "9587dec68522e9c902fc19ef7e8ab6e5", "is_disabled": 0, "rental_uris": {"ios": "https://dc.lft.to/lastmile_qr_scan", "android": "https://dc.lft.to/lastmile_qr_scan"}, "is_reserved": 0}, {"lon": -77.06247366666666, "bike_id": "d4bcb60342c89c155bcfed91dd31e5ee", "lat": 38.944073333333336, "fusion_lon": 0.0, "fusion_lat": 0.0, "type": "electric_scooter", "name": "d4bcb60342c89c155bcfed91dd31e5ee", "is_disabled": 0, "rental_uris": {"ios": "https://dc.lft.to/lastmile_qr_scan", "android": "https://dc.lft.to/lastmile_qr_scan"}, "is_reserved": 0}, {"lon": -77.02176316666667, "bike_id": "4d3ab93a4482365a37c980ecefcb2aba", "lat": 38.887199333333335, "fusion_lon": 0.0, "fusion_lat": 0.0, "type": "electric_scooter", "name": "4d3ab93a4482365a37c980ecefcb2aba", "is_disabled": 0, "rental_uris": {"ios": "https://dc.lft.to/lastmile_qr_scan", "android": "https://dc.lft.to/lastmile_qr_scan"}, "is_reserved": 0}, {"lon": -77.03258983333333, "bike_id": "4ca5ee01f0b406ef13d531de1467b334", "lat": 38.935456333333335, "fusion_lon": 0.0, "fusion_lat": 0.0, "type": "electric_scooter", "name": "4ca5ee01f0b406ef13d531de1467b334", "is_disabled": 0, "rental_uris": {"ios": "https://dc.lft.to/lastmile_qr_scan", "android": "https://dc.lft.to/lastmile_qr_scan"}, "is_reserved": 0}, {"lon": -77.1008955, "bike_id": "086bb97f77e840ffc77c0b548dc36e13", "lat": 38.959534166666664, "fusion_lon": 0.0, "fusion_lat": 0.0, "type": "electric_bike", "name": "086bb97f77e840ffc77c0b548dc36e13", "is_disabled": 0, "rental_uris": {"ios": "https://dc.lft.to/lastmile_qr_scan", "android": "https://dc.lft.to/lastmile_qr_scan"}, "is_reserved": 0}, {"lon": -77.0057145, "bike_id": "a144c3f0a64c7a99ad7eb79978b987ab", "lat": 38.90546966666667, "fusion_lon": 0.0, "fusion_lat": 0.0, "type": "electric_scooter", "name": "a144c3f0a64c7a99ad7eb79978b987ab", "is_disabled": 0, "rental_uris": {"ios": "https://dc.lft.to/lastmile_qr_scan", "android": "https://dc.lft.to/lastmile_qr_scan"}, "is_reserved": 0}, {"lon": -76.99542616666666, "bike_id": "1cdae2706c9e7de13197722509222046", "lat": 38.831621166666665, "fusion_lon": 0.0, "fusion_lat": 0.0, "type": "electric_bike", "name": "1cdae2706c9e7de13197722509222046", "is_disabled": 0, "rental_uris": {"ios": "https://dc.lft.to/lastmile_qr_scan", "android": "https://dc.lft.to/lastmile_qr_scan"}, "is_reserved": 0}, {"lon": -76.98931616666667, "bike_id": "b348b16d6ddf54692ba5aac72a58a25b", "lat": 38.8656235, "fusion_lon": 0.0, "fusion_lat": 0.0, "type": "electric_scooter", "name": "b348b16d6ddf54692ba5aac72a58a25b", "is_disabled": 0, "rental_uris": {"ios": "https://dc.lft.to/lastmile_qr_scan", "android": "https://dc.lft.to/lastmile_qr_scan"}, "is_reserved": 0}, {"lon": -77.02286783333334, "bike_id": "3e02b4b409ba747481035ff23ca938db", "lat": 38.910763, "fusion_lon": 0.0, "fusion_lat": 0.0, "type": "electric_scooter", "name": "3e02b4b409ba747481035ff23ca938db", "is_disabled": 0, "rental_uris": {"ios": "https://dc.lft.to/lastmile_qr_scan", "android": "https://dc.lft.to/lastmile_qr_scan"}, "is_reserved": 0}, {"lon": -77.10838566666666, "bike_id": "0571fe81b0840e1f88ce83f6b1aab926", "lat": 38.812010666666666, "fusion_lon": 0.0, "fusion_lat": 0.0, "type": "electric_bike", "name": "0571fe81b0840e1f88ce83f6b1aab926", "is_disabled": 0, "rental_uris": {"ios": "https://dc.lft.to/lastmile_qr_scan", "android": "https://dc.lft.to/lastmile_qr_scan"}, "is_reserved": 0}, {"lon": -77.02621833333333, "bike_id": "09b06da7f02c09dbc72fcec085264cfa", "lat": 38.9621925, "fusion_lon": 0.0, "fusion_lat": 0.0, "type": "electric_bike", "name": "09b06da7f02c09dbc72fcec085264cfa", "is_disabled": 0, "rental_uris": {"ios": "https://dc.lft.to/lastmile_qr_scan", "android": "https://dc.lft.to/lastmile_qr_scan"}, "is_reserved": 0}, {"lon": -77.02381683333333, "bike_id": "e25a907a908b2aecca28dd41cb1c0bda", "lat": 38.909511, "fusion_lon": 0.0, "fusion_lat": 0.0, "type": "electric_scooter", "name": "e25a907a908b2aecca28dd41cb1c0bda", "is_disabled": 0, "rental_uris": {"ios": "https://dc.lft.to/lastmile_qr_scan", "android": "https://dc.lft.to/lastmile_qr_scan"}, "is_reserved": 0}, {"lon": -76.98258366666667, "bike_id": "ca65cc8931b1d7b2a10435ace86eedca", "lat": 38.90855233333333, "fusion_lon": 0.0, "fusion_lat": 0.0, "type": "electric_scooter", "name": "ca65cc8931b1d7b2a10435ace86eedca", "is_disabled": 0, "rental_uris": {"ios": "https://dc.lft.to/lastmile_qr_scan", "android": "https://dc.lft.to/lastmile_qr_scan"}, "is_reserved": 0}, {"lon": -77.04866466666667, "bike_id": "c99dabe0a9b47c61c22f861b2935abf1", "lat": 38.9072105, "fusion_lon": 0.0, "fusion_lat": 0.0, "type": "electric_scooter", "name": "c99dabe0a9b47c61c22f861b2935abf1", "is_disabled": 0, "rental_uris": {"ios": "https://dc.lft.to/lastmile_qr_scan", "android": "https://dc.lft.to/lastmile_qr_scan"}, "is_reserved": 0}, {"lon": -77.0606265, "bike_id": "28b37c52c92cb94018b5a282facf9a40", "lat": 38.805752, "fusion_lon": 0.0, "fusion_lat": 0.0, "type": "electric_bike", "name": "28b37c52c92cb94018b5a282facf9a40", "is_disabled": 0, "rental_uris": {"ios": "https://dc.lft.to/lastmile_qr_scan", "android": "https://dc.lft.to/lastmile_qr_scan"}, "is_reserved": 0}, {"lon": -77.0881345, "bike_id": "5c87e792d0f543a701f4c873ee23a45b", "lat": 38.91175533333333, "fusion_lon": 0.0, "fusion_lat": 0.0, "type": "electric_bike", "name": "5c87e792d0f543a701f4c873ee23a45b", "is_disabled": 0, "rental_uris": {"ios": "https://dc.lft.to/lastmile_qr_scan", "android": "https://dc.lft.to/lastmile_qr_scan"}, "is_reserved": 0}, {"lon": -77.0473815, "bike_id": "e3ab3eb14858375eb054115900eaab9e", "lat": 38.90721166666667, "fusion_lon": 0.0, "fusion_lat": 0.0, "type": "electric_scooter", "name": "e3ab3eb14858375eb054115900eaab9e", "is_disabled": 0, "rental_uris": {"ios": "https://dc.lft.to/lastmile_qr_scan", "android": "https://dc.lft.to/lastmile_qr_scan"}, "is_reserved": 0}, {"lon": -76.9761695, "bike_id": "b0ce477fc8b64c32d62d8eeb805b874d", "lat": 38.926516, "fusion_lon": 0.0, "fusion_lat": 0.0, "type": "electric_scooter", "name": "b0ce477fc8b64c32d62d8eeb805b874d", "is_disabled": 0, "rental_uris": {"ios": "https://dc.lft.to/lastmile_qr_scan", "android": "https://dc.lft.to/lastmile_qr_scan"}, "is_reserved": 0}, {"lon": -76.97742283333334, "bike_id": "030fe7943a425fc0a95e81561604f903", "lat": 38.86498233333333, "fusion_lon": 0.0, "fusion_lat": 0.0, "type": "electric_bike", "name": "030fe7943a425fc0a95e81561604f903", "is_disabled": 0, "rental_uris": {"ios": "https://dc.lft.to/lastmile_qr_scan", "android": "https://dc.lft.to/lastmile_qr_scan"}, "is_reserved": 0}, {"lon": -77.01280316666667, "bike_id": "646f753baa4eb6ae5fedd832ee95569d", "lat": 38.915651833333335, "fusion_lon": 0.0, "fusion_lat": 0.0, "type": "electric_scooter", "name": "646f753baa4eb6ae5fedd832ee95569d", "is_disabled": 0, "rental_uris": {"ios": "https://dc.lft.to/lastmile_qr_scan", "android": "https://dc.lft.to/lastmile_qr_scan"}, "is_reserved": 0}, {"lon": -76.99116416666666, "bike_id": "07393e8e355f57f0d8fa850be13cac17", "lat": 38.90321733333333, "fusion_lon": 0.0, "fusion_lat": 0.0, "type": "electric_scooter", "name": "07393e8e355f57f0d8fa850be13cac17", "is_disabled": 0, "rental_uris": {"ios": "https://dc.lft.to/lastmile_qr_scan", "android": "https://dc.lft.to/lastmile_qr_scan"}, "is_reserved": 0}, {"lon": -77.0176895, "bike_id": "2361c2b48dc63109b4ca053c9a6bbbb3", "lat": 38.877055666666664, "fusion_lon": 0.0, "fusion_lat": 0.0, "type": "electric_scooter", "name": "2361c2b48dc63109b4ca053c9a6bbbb3", "is_disabled": 0, "rental_uris": {"ios": "https://dc.lft.to/lastmile_qr_scan", "android": "https://dc.lft.to/lastmile_qr_scan"}, "is_reserved": 0}, {"lon": -77.0058755, "bike_id": "6cf2f9529fe9e6dce501003b1d4838d9", "lat": 38.926228333333334, "fusion_lon": 0.0, "fusion_lat": 0.0, "type": "electric_scooter", "name": "6cf2f9529fe9e6dce501003b1d4838d9", "is_disabled": 0, "rental_uris": {"ios": "https://dc.lft.to/lastmile_qr_scan", "android": "https://dc.lft.to/lastmile_qr_scan"}, "is_reserved": 0}, {"lon": -76.99781066666667, "bike_id": "16a52fd2cfe50521ca9f51070866b758", "lat": 38.844254, "fusion_lon": 0.0, "fusion_lat": 0.0, "type": "electric_scooter", "name": "16a52fd2cfe50521ca9f51070866b758", "is_disabled": 0, "rental_uris": {"ios": "https://dc.lft.to/lastmile_qr_scan", "android": "https://dc.lft.to/lastmile_qr_scan"}, "is_reserved": 0}, {"lon": -76.95462766666667, "bike_id": "f2bceabfc3a8e744a16c170ca943ad0e", "lat": 38.889463, "fusion_lon": 0.0, "fusion_lat": 0.0, "type": "electric_scooter", "name": "f2bceabfc3a8e744a16c170ca943ad0e", "is_disabled": 0, "rental_uris": {"ios": "https://dc.lft.to/lastmile_qr_scan", "android": "https://dc.lft.to/lastmile_qr_scan"}, "is_reserved": 0}, {"lon": -77.03919183333333, "bike_id": "d10a6892ff783329af3ca3d1eedaed56", "lat": 38.9279565, "fusion_lon": 0.0, "fusion_lat": 0.0, "type": "electric_scooter", "name": "d10a6892ff783329af3ca3d1eedaed56", "is_disabled": 0, "rental_uris": {"ios": "https://dc.lft.to/lastmile_qr_scan", "android": "https://dc.lft.to/lastmile_qr_scan"}, "is_reserved": 0}, {"lon": -77.03303333333334, "bike_id": "f1c9c5ce510ed1dc40bcba0c9190c476", "lat": 38.90369, "fusion_lon": 0.0, "fusion_lat": 0.0, "type": "electric_scooter", "name": "f1c9c5ce510ed1dc40bcba0c9190c476", "is_disabled": 0, "rental_uris": {"ios": "https://dc.lft.to/lastmile_qr_scan", "android": "https://dc.lft.to/lastmile_qr_scan"}, "is_reserved": 0}, {"lon": -77.03177266666667, "bike_id": "dd9639cedd62851d06ccd6b3f9389874", "lat": 38.918209166666664, "fusion_lon": 0.0, "fusion_lat": 0.0, "type": "electric_scooter", "name": "dd9639cedd62851d06ccd6b3f9389874", "is_disabled": 0, "rental_uris": {"ios": "https://dc.lft.to/lastmile_qr_scan", "android": "https://dc.lft.to/lastmile_qr_scan"}, "is_reserved": 0}, {"lon": -77.05574416666667, "bike_id": "b4a0cbffaaeffc763c96b83e18a4469a", "lat": 38.915988166666665, "fusion_lon": 0.0, "fusion_lat": 0.0, "type": "electric_scooter", "name": "b4a0cbffaaeffc763c96b83e18a4469a", "is_disabled": 0, "rental_uris": {"ios": "https://dc.lft.to/lastmile_qr_scan", "android": "https://dc.lft.to/lastmile_qr_scan"}, "is_reserved": 0}, {"lon": -76.94570333333333, "bike_id": "3496053c2b5bab29790507871ea67875", "lat": 38.86621066666667, "fusion_lon": 0.0, "fusion_lat": 0.0, "type": "electric_bike", "name": "3496053c2b5bab29790507871ea67875", "is_disabled": 0, "rental_uris": {"ios": "https://dc.lft.to/lastmile_qr_scan", "android": "https://dc.lft.to/lastmile_qr_scan"}, "is_reserved": 0}, {"lon": -77.03927116666667, "bike_id": "a199f863f3367e88c7562dd0fbc43d99", "lat": 38.9260925, "fusion_lon": 0.0, "fusion_lat": 0.0, "type": "electric_scooter", "name": "a199f863f3367e88c7562dd0fbc43d99", "is_disabled": 0, "rental_uris": {"ios": "https://dc.lft.to/lastmile_qr_scan", "android": "https://dc.lft.to/lastmile_qr_scan"}, "is_reserved": 0}, {"lon": -77.039642, "bike_id": "ca8aaa3775586d4c5096c52c48ad3824", "lat": 38.9135315, "fusion_lon": 0.0, "fusion_lat": 0.0, "type": "electric_scooter", "name": "ca8aaa3775586d4c5096c52c48ad3824", "is_disabled": 0, "rental_uris": {"ios": "https://dc.lft.to/lastmile_qr_scan", "android": "https://dc.lft.to/lastmile_qr_scan"}, "is_reserved": 0}, {"lon": -76.99003916666666, "bike_id": "64713a18dc827115c00111bda3cc57bf", "lat": 38.86503833333333, "fusion_lon": 0.0, "fusion_lat": 0.0, "type": "electric_scooter", "name": "64713a18dc827115c00111bda3cc57bf", "is_disabled": 0, "rental_uris": {"ios": "https://dc.lft.to/lastmile_qr_scan", "android": "https://dc.lft.to/lastmile_qr_scan"}, "is_reserved": 0}, {"lon": -77.02564933333333, "bike_id": "9771016790177276c30d227e2ea3c48c", "lat": 38.897277833333334, "fusion_lon": 0.0, "fusion_lat": 0.0, "type": "electric_scooter", "name": "9771016790177276c30d227e2ea3c48c", "is_disabled": 0, "rental_uris": {"ios": "https://dc.lft.to/lastmile_qr_scan", "android": "https://dc.lft.to/lastmile_qr_scan"}, "is_reserved": 0}, {"lon": -77.014368, "bike_id": "83b8baa3479c93f8606552e50acc573b", "lat": 38.879344833333334, "fusion_lon": 0.0, "fusion_lat": 0.0, "type": "electric_bike", "name": "83b8baa3479c93f8606552e50acc573b", "is_disabled": 0, "rental_uris": {"ios": "https://dc.lft.to/lastmile_qr_scan", "android": "https://dc.lft.to/lastmile_qr_scan"}, "is_reserved": 0}, {"lon": -77.031847, "bike_id": "ead2d3d29fde35b9b884499638c64075", "lat": 38.918319333333336, "fusion_lon": 0.0, "fusion_lat": 0.0, "type": "electric_scooter", "name": "ead2d3d29fde35b9b884499638c64075", "is_disabled": 0, "rental_uris": {"ios": "https://dc.lft.to/lastmile_qr_scan", "android": "https://dc.lft.to/lastmile_qr_scan"}, "is_reserved": 0}, {"lon": -77.02092883333333, "bike_id": "1dcb3b15e63671593b928eac4ed5e364", "lat": 38.9575645, "fusion_lon": 0.0, "fusion_lat": 0.0, "type": "electric_scooter", "name": "1dcb3b15e63671593b928eac4ed5e364", "is_disabled": 0, "rental_uris": {"ios": "https://dc.lft.to/lastmile_qr_scan", "android": "https://dc.lft.to/lastmile_qr_scan"}, "is_reserved": 0}, {"lon": -77.044187, "bike_id": "eca30e4fef461a83595af6451f82d43b", "lat": 38.911323333333335, "fusion_lon": 0.0, "fusion_lat": 0.0, "type": "electric_scooter", "name": "eca30e4fef461a83595af6451f82d43b", "is_disabled": 0, "rental_uris": {"ios": "https://dc.lft.to/lastmile_qr_scan", "android": "https://dc.lft.to/lastmile_qr_scan"}, "is_reserved": 0}, {"lon": -77.02589333333333, "bike_id": "8496c958808d9d9b77f97af7c26bbd3f", "lat": 38.91411, "fusion_lon": 0.0, "fusion_lat": 0.0, "type": "electric_scooter", "name": "8496c958808d9d9b77f97af7c26bbd3f", "is_disabled": 0, "rental_uris": {"ios": "https://dc.lft.to/lastmile_qr_scan", "android": "https://dc.lft.to/lastmile_qr_scan"}, "is_reserved": 0}, {"lon": -76.99151883333333, "bike_id": "d8b013e3bcaaa0139e6e86b86d837233", "lat": 38.90034933333333, "fusion_lon": 0.0, "fusion_lat": 0.0, "type": "electric_scooter", "name": "d8b013e3bcaaa0139e6e86b86d837233", "is_disabled": 0, "rental_uris": {"ios": "https://dc.lft.to/lastmile_qr_scan", "android": "https://dc.lft.to/lastmile_qr_scan"}, "is_reserved": 0}, {"lon": -77.046644, "bike_id": "a2edd464687a0b5a8211d6e3b7a1c469", "lat": 38.90030683333333, "fusion_lon": 0.0, "fusion_lat": 0.0, "type": "electric_scooter", "name": "a2edd464687a0b5a8211d6e3b7a1c469", "is_disabled": 0, "rental_uris": {"ios": "https://dc.lft.to/lastmile_qr_scan", "android": "https://dc.lft.to/lastmile_qr_scan"}, "is_reserved": 0}, {"lon": -77.02506533333333, "bike_id": "f9effe3e40786940349b07303585e9f4", "lat": 38.9205045, "fusion_lon": 0.0, "fusion_lat": 0.0, "type": "electric_scooter", "name": "f9effe3e40786940349b07303585e9f4", "is_disabled": 0, "rental_uris": {"ios": "https://dc.lft.to/lastmile_qr_scan", "android": "https://dc.lft.to/lastmile_qr_scan"}, "is_reserved": 0}, {"lon": -77.02011683333333, "bike_id": "14ff4ca0a4e491597ecfdd01f50362b8", "lat": 38.87669983333333, "fusion_lon": 0.0, "fusion_lat": 0.0, "type": "electric_scooter", "name": "14ff4ca0a4e491597ecfdd01f50362b8", "is_disabled": 0, "rental_uris": {"ios": "https://dc.lft.to/lastmile_qr_scan", "android": "https://dc.lft.to/lastmile_qr_scan"}, "is_reserved": 0}, {"lon": -77.03715, "bike_id": "9a9667941af21b95589f0393f8a4d84c", "lat": 38.914759333333336, "fusion_lon": 0.0, "fusion_lat": 0.0, "type": "electric_scooter", "name": "9a9667941af21b95589f0393f8a4d84c", "is_disabled": 0, "rental_uris": {"ios": "https://dc.lft.to/lastmile_qr_scan", "android": "https://dc.lft.to/lastmile_qr_scan"}, "is_reserved": 0}, {"lon": -77.0269285, "bike_id": "c365e4b7c1d5f67b4cd2aced2fbcfea6", "lat": 38.90669416666667, "fusion_lon": 0.0, "fusion_lat": 0.0, "type": "electric_scooter", "name": "c365e4b7c1d5f67b4cd2aced2fbcfea6", "is_disabled": 0, "rental_uris": {"ios": "https://dc.lft.to/lastmile_qr_scan", "android": "https://dc.lft.to/lastmile_qr_scan"}, "is_reserved": 0}, {"lon": -77.032612, "bike_id": "368c2de6fbeb75289ab5d490934f5052", "lat": 38.932586666666666, "fusion_lon": 0.0, "fusion_lat": 0.0, "type": "electric_scooter", "name": "368c2de6fbeb75289ab5d490934f5052", "is_disabled": 0, "rental_uris": {"ios": "https://dc.lft.to/lastmile_qr_scan", "android": "https://dc.lft.to/lastmile_qr_scan"}, "is_reserved": 0}, {"lon": -77.02159633333333, "bike_id": "7482dd1f75f70d65c899ff503b63fb92", "lat": 38.894859333333336, "fusion_lon": 0.0, "fusion_lat": 0.0, "type": "electric_scooter", "name": "7482dd1f75f70d65c899ff503b63fb92", "is_disabled": 0, "rental_uris": {"ios": "https://dc.lft.to/lastmile_qr_scan", "android": "https://dc.lft.to/lastmile_qr_scan"}, "is_reserved": 0}, {"lon": -77.026493, "bike_id": "12de5db1c7ad9577507504f5d20a3ff1", "lat": 38.93864833333333, "fusion_lon": 0.0, "fusion_lat": 0.0, "type": "electric_scooter", "name": "12de5db1c7ad9577507504f5d20a3ff1", "is_disabled": 0, "rental_uris": {"ios": "https://dc.lft.to/lastmile_qr_scan", "android": "https://dc.lft.to/lastmile_qr_scan"}, "is_reserved": 0}, {"lon": -77.0320645, "bike_id": "45569200a7e66fd7012d77e83a91ade6", "lat": 38.91499116666667, "fusion_lon": 0.0, "fusion_lat": 0.0, "type": "electric_scooter", "name": "45569200a7e66fd7012d77e83a91ade6", "is_disabled": 0, "rental_uris": {"ios": "https://dc.lft.to/lastmile_qr_scan", "android": "https://dc.lft.to/lastmile_qr_scan"}, "is_reserved": 0}, {"lon": -77.0322105, "bike_id": "9f608786778823b1fbed001581de2458", "lat": 38.9096045, "fusion_lon": 0.0, "fusion_lat": 0.0, "type": "electric_scooter", "name": "9f608786778823b1fbed001581de2458", "is_disabled": 0, "rental_uris": {"ios": "https://dc.lft.to/lastmile_qr_scan", "android": "https://dc.lft.to/lastmile_qr_scan"}, "is_reserved": 0}, {"lon": -76.9835675, "bike_id": "3a97194de975442f4237288bce7f27c1", "lat": 38.9154945, "fusion_lon": 0.0, "fusion_lat": 0.0, "type": "electric_scooter", "name": "3a97194de975442f4237288bce7f27c1", "is_disabled": 0, "rental_uris": {"ios": "https://dc.lft.to/lastmile_qr_scan", "android": "https://dc.lft.to/lastmile_qr_scan"}, "is_reserved": 0}, {"lon": -77.03108933333333, "bike_id": "736b5f528c81cdc39be3cae0f410a640", "lat": 38.91562716666667, "fusion_lon": 0.0, "fusion_lat": 0.0, "type": "electric_scooter", "name": "736b5f528c81cdc39be3cae0f410a640", "is_disabled": 0, "rental_uris": {"ios": "https://dc.lft.to/lastmile_qr_scan", "android": "https://dc.lft.to/lastmile_qr_scan"}, "is_reserved": 0}, {"lon": -77.021701, "bike_id": "4c37e2abeeb5d0d9403549707b3cb87e", "lat": 38.9201305, "fusion_lon": 0.0, "fusion_lat": 0.0, "type": "electric_scooter", "name": "4c37e2abeeb5d0d9403549707b3cb87e", "is_disabled": 0, "rental_uris": {"ios": "https://dc.lft.to/lastmile_qr_scan", "android": "https://dc.lft.to/lastmile_qr_scan"}, "is_reserved": 0}, {"lon": -76.99879633333333, "bike_id": "d852add34365f6f8d08eebe01cc6df7c", "lat": 38.92058516666667, "fusion_lon": 0.0, "fusion_lat": 0.0, "type": "electric_scooter", "name": "d852add34365f6f8d08eebe01cc6df7c", "is_disabled": 0, "rental_uris": {"ios": "https://dc.lft.to/lastmile_qr_scan", "android": "https://dc.lft.to/lastmile_qr_scan"}, "is_reserved": 0}, {"lon": -77.05338633333334, "bike_id": "30ba4bdc99b3113f26c1b51e45f399a6", "lat": 38.902660166666664, "fusion_lon": 0.0, "fusion_lat": 0.0, "type": "electric_scooter", "name": "30ba4bdc99b3113f26c1b51e45f399a6", "is_disabled": 0, "rental_uris": {"ios": "https://dc.lft.to/lastmile_qr_scan", "android": "https://dc.lft.to/lastmile_qr_scan"}, "is_reserved": 0}, {"lon": -76.99354233333334, "bike_id": "eb366a243b326a972cd1a0354f039826", "lat": 38.84507266666667, "fusion_lon": 0.0, "fusion_lat": 0.0, "type": "electric_bike", "name": "eb366a243b326a972cd1a0354f039826", "is_disabled": 0, "rental_uris": {"ios": "https://dc.lft.to/lastmile_qr_scan", "android": "https://dc.lft.to/lastmile_qr_scan"}, "is_reserved": 0}, {"lon": -77.0345585, "bike_id": "ded4d05e4c103f5404619c42472c6a20", "lat": 38.9080605, "fusion_lon": 0.0, "fusion_lat": 0.0, "type": "electric_scooter", "name": "ded4d05e4c103f5404619c42472c6a20", "is_disabled": 0, "rental_uris": {"ios": "https://dc.lft.to/lastmile_qr_scan", "android": "https://dc.lft.to/lastmile_qr_scan"}, "is_reserved": 0}, {"lon": -77.006077, "bike_id": "eb0a30d1d8e822fad1967fc2c3754194", "lat": 38.906681666666664, "fusion_lon": 0.0, "fusion_lat": 0.0, "type": "electric_scooter", "name": "eb0a30d1d8e822fad1967fc2c3754194", "is_disabled": 0, "rental_uris": {"ios": "https://dc.lft.to/lastmile_qr_scan", "android": "https://dc.lft.to/lastmile_qr_scan"}, "is_reserved": 0}, {"lon": -77.051237, "bike_id": "e85aea39d011c7c2ffa066751cebe71a", "lat": 38.9055585, "fusion_lon": 0.0, "fusion_lat": 0.0, "type": "electric_scooter", "name": "e85aea39d011c7c2ffa066751cebe71a", "is_disabled": 0, "rental_uris": {"ios": "https://dc.lft.to/lastmile_qr_scan", "android": "https://dc.lft.to/lastmile_qr_scan"}, "is_reserved": 0}, {"lon": -76.977237, "bike_id": "b7ae0e08e1d5f12aabceb0a41eaca11d", "lat": 38.872458, "fusion_lon": 0.0, "fusion_lat": 0.0, "type": "electric_scooter", "name": "b7ae0e08e1d5f12aabceb0a41eaca11d", "is_disabled": 0, "rental_uris": {"ios": "https://dc.lft.to/lastmile_qr_scan", "android": "https://dc.lft.to/lastmile_qr_scan"}, "is_reserved": 0}, {"lon": -77.0364, "bike_id": "8fb000c610e5d0f1ffb318cc83730372", "lat": 38.903645, "fusion_lon": 0.0, "fusion_lat": 0.0, "type": "electric_scooter", "name": "8fb000c610e5d0f1ffb318cc83730372", "is_disabled": 0, "rental_uris": {"ios": "https://dc.lft.to/lastmile_qr_scan", "android": "https://dc.lft.to/lastmile_qr_scan"}, "is_reserved": 0}, {"lon": -77.0443595, "bike_id": "e40f7c7100f52334e5a15df451ded36c", "lat": 38.921686, "fusion_lon": 0.0, "fusion_lat": 0.0, "type": "electric_scooter", "name": "e40f7c7100f52334e5a15df451ded36c", "is_disabled": 0, "rental_uris": {"ios": "https://dc.lft.to/lastmile_qr_scan", "android": "https://dc.lft.to/lastmile_qr_scan"}, "is_reserved": 0}, {"lon": -77.0428705, "bike_id": "6b7aa7345ba0d784e42640b37f2bbd57", "lat": 38.908643, "fusion_lon": 0.0, "fusion_lat": 0.0, "type": "electric_scooter", "name": "6b7aa7345ba0d784e42640b37f2bbd57", "is_disabled": 0, "rental_uris": {"ios": "https://dc.lft.to/lastmile_qr_scan", "android": "https://dc.lft.to/lastmile_qr_scan"}, "is_reserved": 0}, {"lon": -77.04651966666667, "bike_id": "5d490604dc158feef8f7f843c6c42e63", "lat": 38.92115316666667, "fusion_lon": 0.0, "fusion_lat": 0.0, "type": "electric_scooter", "name": "5d490604dc158feef8f7f843c6c42e63", "is_disabled": 0, "rental_uris": {"ios": "https://dc.lft.to/lastmile_qr_scan", "android": "https://dc.lft.to/lastmile_qr_scan"}, "is_reserved": 0}, {"lon": -77.032766, "bike_id": "963e959633603dddc1f618c78e5167ce", "lat": 38.940916666666666, "fusion_lon": 0.0, "fusion_lat": 0.0, "type": "electric_bike", "name": "963e959633603dddc1f618c78e5167ce", "is_disabled": 0, "rental_uris": {"ios": "https://dc.lft.to/lastmile_qr_scan", "android": "https://dc.lft.to/lastmile_qr_scan"}, "is_reserved": 0}, {"lon": -77.06103433333334, "bike_id": "8a254d2636071930c0b8cfb805cf3c4e", "lat": 38.93702783333333, "fusion_lon": 0.0, "fusion_lat": 0.0, "type": "electric_scooter", "name": "8a254d2636071930c0b8cfb805cf3c4e", "is_disabled": 0, "rental_uris": {"ios": "https://dc.lft.to/lastmile_qr_scan", "android": "https://dc.lft.to/lastmile_qr_scan"}, "is_reserved": 0}, {"lon": -77.02418383333334, "bike_id": "16becead4cdcfe4d2fbb2aee2dd28dae", "lat": 38.93518733333333, "fusion_lon": 0.0, "fusion_lat": 0.0, "type": "electric_scooter", "name": "16becead4cdcfe4d2fbb2aee2dd28dae", "is_disabled": 0, "rental_uris": {"ios": "https://dc.lft.to/lastmile_qr_scan", "android": "https://dc.lft.to/lastmile_qr_scan"}, "is_reserved": 0}, {"lon": -77.07769233333333, "bike_id": "1cbe273df6a83e8b6cef8d8ca3b77079", "lat": 38.93045383333333, "fusion_lon": 0.0, "fusion_lat": 0.0, "type": "electric_scooter", "name": "1cbe273df6a83e8b6cef8d8ca3b77079", "is_disabled": 0, "rental_uris": {"ios": "https://dc.lft.to/lastmile_qr_scan", "android": "https://dc.lft.to/lastmile_qr_scan"}, "is_reserved": 0}, {"lon": -77.04031916666666, "bike_id": "0803e055555824e804c916d4d0098c6d", "lat": 38.925645, "fusion_lon": 0.0, "fusion_lat": 0.0, "type": "electric_scooter", "name": "0803e055555824e804c916d4d0098c6d", "is_disabled": 0, "rental_uris": {"ios": "https://dc.lft.to/lastmile_qr_scan", "android": "https://dc.lft.to/lastmile_qr_scan"}, "is_reserved": 0}, {"lon": -76.9488335, "bike_id": "6328e240b9c357cd9eeca7a9a21dd3b7", "lat": 38.8951235, "fusion_lon": 0.0, "fusion_lat": 0.0, "type": "electric_scooter", "name": "6328e240b9c357cd9eeca7a9a21dd3b7", "is_disabled": 0, "rental_uris": {"ios": "https://dc.lft.to/lastmile_qr_scan", "android": "https://dc.lft.to/lastmile_qr_scan"}, "is_reserved": 0}, {"lon": -77.02714766666666, "bike_id": "8f3db599c66228e9ff16f2bccef481dd", "lat": 38.911376833333335, "fusion_lon": 0.0, "fusion_lat": 0.0, "type": "electric_scooter", "name": "8f3db599c66228e9ff16f2bccef481dd", "is_disabled": 0, "rental_uris": {"ios": "https://dc.lft.to/lastmile_qr_scan", "android": "https://dc.lft.to/lastmile_qr_scan"}, "is_reserved": 0}, {"lon": -77.0270625, "bike_id": "5f57fe96fcb6b89e2aabae198e5bc94f", "lat": 38.94989783333333, "fusion_lon": 0.0, "fusion_lat": 0.0, "type": "electric_scooter", "name": "5f57fe96fcb6b89e2aabae198e5bc94f", "is_disabled": 0, "rental_uris": {"ios": "https://dc.lft.to/lastmile_qr_scan", "android": "https://dc.lft.to/lastmile_qr_scan"}, "is_reserved": 0}, {"lon": -77.04155183333333, "bike_id": "b509e4eea02b9d5fc2878a51d205ab6d", "lat": 38.9181275, "fusion_lon": 0.0, "fusion_lat": 0.0, "type": "electric_scooter", "name": "b509e4eea02b9d5fc2878a51d205ab6d", "is_disabled": 0, "rental_uris": {"ios": "https://dc.lft.to/lastmile_qr_scan", "android": "https://dc.lft.to/lastmile_qr_scan"}, "is_reserved": 0}, {"lon": -77.03377333333333, "bike_id": "667a1750c83e771ac611550ebe03ad61", "lat": 38.92150516666667, "fusion_lon": 0.0, "fusion_lat": 0.0, "type": "electric_scooter", "name": "667a1750c83e771ac611550ebe03ad61", "is_disabled": 0, "rental_uris": {"ios": "https://dc.lft.to/lastmile_qr_scan", "android": "https://dc.lft.to/lastmile_qr_scan"}, "is_reserved": 0}, {"lon": -77.03475116666667, "bike_id": "d823c6b90197aadf4440c313aa5a57fb", "lat": 38.90719766666667, "fusion_lon": 0.0, "fusion_lat": 0.0, "type": "electric_scooter", "name": "d823c6b90197aadf4440c313aa5a57fb", "is_disabled": 0, "rental_uris": {"ios": "https://dc.lft.to/lastmile_qr_scan", "android": "https://dc.lft.to/lastmile_qr_scan"}, "is_reserved": 0}, {"lon": -77.01904533333334, "bike_id": "5b8fa58f9327678e5b073bba8732bbfc", "lat": 38.90230833333333, "fusion_lon": 0.0, "fusion_lat": 0.0, "type": "electric_scooter", "name": "5b8fa58f9327678e5b073bba8732bbfc", "is_disabled": 0, "rental_uris": {"ios": "https://dc.lft.to/lastmile_qr_scan", "android": "https://dc.lft.to/lastmile_qr_scan"}, "is_reserved": 0}, {"lon": -77.02159833333333, "bike_id": "176781e1e8b76f3d33ccb865e5617173", "lat": 38.92610883333333, "fusion_lon": 0.0, "fusion_lat": 0.0, "type": "electric_scooter", "name": "176781e1e8b76f3d33ccb865e5617173", "is_disabled": 0, "rental_uris": {"ios": "https://dc.lft.to/lastmile_qr_scan", "android": "https://dc.lft.to/lastmile_qr_scan"}, "is_reserved": 0}, {"lon": -77.03175583333334, "bike_id": "e6f8cdfe5d772c66c73b68220eddf13e", "lat": 38.912691333333335, "fusion_lon": 0.0, "fusion_lat": 0.0, "type": "electric_scooter", "name": "e6f8cdfe5d772c66c73b68220eddf13e", "is_disabled": 0, "rental_uris": {"ios": "https://dc.lft.to/lastmile_qr_scan", "android": "https://dc.lft.to/lastmile_qr_scan"}, "is_reserved": 0}, {"lon": -77.0449005, "bike_id": "098569bbd95a1678ab3986de4a33058c", "lat": 38.900718833333336, "fusion_lon": 0.0, "fusion_lat": 0.0, "type": "electric_scooter", "name": "098569bbd95a1678ab3986de4a33058c", "is_disabled": 0, "rental_uris": {"ios": "https://dc.lft.to/lastmile_qr_scan", "android": "https://dc.lft.to/lastmile_qr_scan"}, "is_reserved": 0}, {"lon": -77.03408666666667, "bike_id": "4ce9c18a3739abf22555d215363fe9ee", "lat": 38.934229333333334, "fusion_lon": 0.0, "fusion_lat": 0.0, "type": "electric_scooter", "name": "4ce9c18a3739abf22555d215363fe9ee", "is_disabled": 0, "rental_uris": {"ios": "https://dc.lft.to/lastmile_qr_scan", "android": "https://dc.lft.to/lastmile_qr_scan"}, "is_reserved": 0}, {"lon": -77.03635983333334, "bike_id": "e642392d432f2e52bb1f03b5aa2bc6d0", "lat": 38.9046585, "fusion_lon": 0.0, "fusion_lat": 0.0, "type": "electric_scooter", "name": "e642392d432f2e52bb1f03b5aa2bc6d0", "is_disabled": 0, "rental_uris": {"ios": "https://dc.lft.to/lastmile_qr_scan", "android": "https://dc.lft.to/lastmile_qr_scan"}, "is_reserved": 0}, {"lon": -77.0418555, "bike_id": "bfcdff5e026051393c4f44e1e5cd13ca", "lat": 38.911364166666665, "fusion_lon": 0.0, "fusion_lat": 0.0, "type": "electric_scooter", "name": "bfcdff5e026051393c4f44e1e5cd13ca", "is_disabled": 0, "rental_uris": {"ios": "https://dc.lft.to/lastmile_qr_scan", "android": "https://dc.lft.to/lastmile_qr_scan"}, "is_reserved": 0}, {"lon": -77.03172516666666, "bike_id": "de8f8b3dc2e8b7c374d957437cd869dd", "lat": 38.91416566666667, "fusion_lon": 0.0, "fusion_lat": 0.0, "type": "electric_scooter", "name": "de8f8b3dc2e8b7c374d957437cd869dd", "is_disabled": 0, "rental_uris": {"ios": "https://dc.lft.to/lastmile_qr_scan", "android": "https://dc.lft.to/lastmile_qr_scan"}, "is_reserved": 0}, {"lon": -77.036378, "bike_id": "6213952310a96149c0360de606f5573e", "lat": 38.91764333333333, "fusion_lon": 0.0, "fusion_lat": 0.0, "type": "electric_scooter", "name": "6213952310a96149c0360de606f5573e", "is_disabled": 0, "rental_uris": {"ios": "https://dc.lft.to/lastmile_qr_scan", "android": "https://dc.lft.to/lastmile_qr_scan"}, "is_reserved": 0}, {"lon": -77.02715883333333, "bike_id": "fab9f9019ee698147f1782b2a8286de6", "lat": 38.909318999999996, "fusion_lon": 0.0, "fusion_lat": 0.0, "type": "electric_scooter", "name": "fab9f9019ee698147f1782b2a8286de6", "is_disabled": 0, "rental_uris": {"ios": "https://dc.lft.to/lastmile_qr_scan", "android": "https://dc.lft.to/lastmile_qr_scan"}, "is_reserved": 0}, {"lon": -76.984577, "bike_id": "c4977ff49a645e300ddd1235ddbf01b4", "lat": 38.90550666666667, "fusion_lon": 0.0, "fusion_lat": 0.0, "type": "electric_scooter", "name": "c4977ff49a645e300ddd1235ddbf01b4", "is_disabled": 0, "rental_uris": {"ios": "https://dc.lft.to/lastmile_qr_scan", "android": "https://dc.lft.to/lastmile_qr_scan"}, "is_reserved": 0}, {"lon": -77.0323925, "bike_id": "15a7576c5a1b51025530cbb255cdbd76", "lat": 38.92881283333333, "fusion_lon": 0.0, "fusion_lat": 0.0, "type": "electric_scooter", "name": "15a7576c5a1b51025530cbb255cdbd76", "is_disabled": 0, "rental_uris": {"ios": "https://dc.lft.to/lastmile_qr_scan", "android": "https://dc.lft.to/lastmile_qr_scan"}, "is_reserved": 0}, {"lon": -77.02201666666667, "bike_id": "1102e2665843539cecc71616a17b51ae", "lat": 38.905542, "fusion_lon": 0.0, "fusion_lat": 0.0, "type": "electric_scooter", "name": "1102e2665843539cecc71616a17b51ae", "is_disabled": 0, "rental_uris": {"ios": "https://dc.lft.to/lastmile_qr_scan", "android": "https://dc.lft.to/lastmile_qr_scan"}, "is_reserved": 0}, {"lon": -77.02222933333333, "bike_id": "3133b433f40f95d4f43ec077b8b72430", "lat": 38.9124665, "fusion_lon": 0.0, "fusion_lat": 0.0, "type": "electric_scooter", "name": "3133b433f40f95d4f43ec077b8b72430", "is_disabled": 0, "rental_uris": {"ios": "https://dc.lft.to/lastmile_qr_scan", "android": "https://dc.lft.to/lastmile_qr_scan"}, "is_reserved": 0}, {"lon": -77.02592983333334, "bike_id": "f06f9b0e1128bf974c7812d48a7dfed5", "lat": 38.914923, "fusion_lon": 0.0, "fusion_lat": 0.0, "type": "electric_scooter", "name": "f06f9b0e1128bf974c7812d48a7dfed5", "is_disabled": 0, "rental_uris": {"ios": "https://dc.lft.to/lastmile_qr_scan", "android": "https://dc.lft.to/lastmile_qr_scan"}, "is_reserved": 0}, {"lon": -77.00347433333333, "bike_id": "0d63caae148dba6c54374c3eefa7b547", "lat": 38.89922416666667, "fusion_lon": 0.0, "fusion_lat": 0.0, "type": "electric_scooter", "name": "0d63caae148dba6c54374c3eefa7b547", "is_disabled": 0, "rental_uris": {"ios": "https://dc.lft.to/lastmile_qr_scan", "android": "https://dc.lft.to/lastmile_qr_scan"}, "is_reserved": 0}, {"lon": -77.03178166666666, "bike_id": "23400a9fd5bbb3552db850f90c73673b", "lat": 38.918221333333335, "fusion_lon": 0.0, "fusion_lat": 0.0, "type": "electric_scooter", "name": "23400a9fd5bbb3552db850f90c73673b", "is_disabled": 0, "rental_uris": {"ios": "https://dc.lft.to/lastmile_qr_scan", "android": "https://dc.lft.to/lastmile_qr_scan"}, "is_reserved": 0}, {"lon": -77.0135495, "bike_id": "b7cd16110ea6e31e6d00e6743f5bfad6", "lat": 38.91274216666667, "fusion_lon": 0.0, "fusion_lat": 0.0, "type": "electric_scooter", "name": "b7cd16110ea6e31e6d00e6743f5bfad6", "is_disabled": 0, "rental_uris": {"ios": "https://dc.lft.to/lastmile_qr_scan", "android": "https://dc.lft.to/lastmile_qr_scan"}, "is_reserved": 0}, {"lon": -77.04266466666667, "bike_id": "4ff521f1a75c6a4c36ba415ff91e7328", "lat": 38.92234166666667, "fusion_lon": 0.0, "fusion_lat": 0.0, "type": "electric_scooter", "name": "4ff521f1a75c6a4c36ba415ff91e7328", "is_disabled": 0, "rental_uris": {"ios": "https://dc.lft.to/lastmile_qr_scan", "android": "https://dc.lft.to/lastmile_qr_scan"}, "is_reserved": 0}, {"lon": -77.03382483333333, "bike_id": "9fef402f7d671af7df7ca3fbeb7dc559", "lat": 38.90262766666667, "fusion_lon": 0.0, "fusion_lat": 0.0, "type": "electric_scooter", "name": "9fef402f7d671af7df7ca3fbeb7dc559", "is_disabled": 0, "rental_uris": {"ios": "https://dc.lft.to/lastmile_qr_scan", "android": "https://dc.lft.to/lastmile_qr_scan"}, "is_reserved": 0}, {"lon": -77.02838183333333, "bike_id": "313896a4e789e4ca0b831997a55b48d2", "lat": 38.902412166666664, "fusion_lon": 0.0, "fusion_lat": 0.0, "type": "electric_scooter", "name": "313896a4e789e4ca0b831997a55b48d2", "is_disabled": 0, "rental_uris": {"ios": "https://dc.lft.to/lastmile_qr_scan", "android": "https://dc.lft.to/lastmile_qr_scan"}, "is_reserved": 0}, {"lon": -77.04340616666667, "bike_id": "6cf07aa4513643706fe092a2c34cad72", "lat": 38.913254333333335, "fusion_lon": 0.0, "fusion_lat": 0.0, "type": "electric_scooter", "name": "6cf07aa4513643706fe092a2c34cad72", "is_disabled": 0, "rental_uris": {"ios": "https://dc.lft.to/lastmile_qr_scan", "android": "https://dc.lft.to/lastmile_qr_scan"}, "is_reserved": 0}, {"lon": -77.04096233333334, "bike_id": "40e93566c79c7989cfcfd7c3a35ed23f", "lat": 38.91571416666667, "fusion_lon": 0.0, "fusion_lat": 0.0, "type": "electric_scooter", "name": "40e93566c79c7989cfcfd7c3a35ed23f", "is_disabled": 0, "rental_uris": {"ios": "https://dc.lft.to/lastmile_qr_scan", "android": "https://dc.lft.to/lastmile_qr_scan"}, "is_reserved": 0}, {"lon": -77.0120475, "bike_id": "2b675adc2238b0f3f4f49fa24abcf109", "lat": 38.900028, "fusion_lon": 0.0, "fusion_lat": 0.0, "type": "electric_scooter", "name": "2b675adc2238b0f3f4f49fa24abcf109", "is_disabled": 0, "rental_uris": {"ios": "https://dc.lft.to/lastmile_qr_scan", "android": "https://dc.lft.to/lastmile_qr_scan"}, "is_reserved": 0}, {"lon": -77.038307, "bike_id": "4e113b50049a7fecd30325a5d6537a8c", "lat": 38.90670516666667, "fusion_lon": 0.0, "fusion_lat": 0.0, "type": "electric_scooter", "name": "4e113b50049a7fecd30325a5d6537a8c", "is_disabled": 0, "rental_uris": {"ios": "https://dc.lft.to/lastmile_qr_scan", "android": "https://dc.lft.to/lastmile_qr_scan"}, "is_reserved": 0}, {"lon": -77.02173333333333, "bike_id": "1ea7f707ee1669f3af56933011a1c179", "lat": 38.94293533333333, "fusion_lon": 0.0, "fusion_lat": 0.0, "type": "electric_scooter", "name": "1ea7f707ee1669f3af56933011a1c179", "is_disabled": 0, "rental_uris": {"ios": "https://dc.lft.to/lastmile_qr_scan", "android": "https://dc.lft.to/lastmile_qr_scan"}, "is_reserved": 0}, {"lon": -77.031783, "bike_id": "51ae8b8d9add3b89ba2ddb6df4f09ec3", "lat": 38.8919735, "fusion_lon": 0.0, "fusion_lat": 0.0, "type": "electric_scooter", "name": "51ae8b8d9add3b89ba2ddb6df4f09ec3", "is_disabled": 0, "rental_uris": {"ios": "https://dc.lft.to/lastmile_qr_scan", "android": "https://dc.lft.to/lastmile_qr_scan"}, "is_reserved": 0}, {"lon": -76.9890105, "bike_id": "42a7c15e8e71ca6a943da6b9457ef1a3", "lat": 38.9134745, "fusion_lon": 0.0, "fusion_lat": 0.0, "type": "electric_scooter", "name": "42a7c15e8e71ca6a943da6b9457ef1a3", "is_disabled": 0, "rental_uris": {"ios": "https://dc.lft.to/lastmile_qr_scan", "android": "https://dc.lft.to/lastmile_qr_scan"}, "is_reserved": 0}, {"lon": -77.036591, "bike_id": "2ffee681130775d28efe1180e717cbb9", "lat": 38.936091, "fusion_lon": 0.0, "fusion_lat": 0.0, "type": "electric_scooter", "name": "2ffee681130775d28efe1180e717cbb9", "is_disabled": 0, "rental_uris": {"ios": "https://dc.lft.to/lastmile_qr_scan", "android": "https://dc.lft.to/lastmile_qr_scan"}, "is_reserved": 0}, {"lon": -77.0328225, "bike_id": "a53bd31c2eabf7fd87fd603ce48c9b84", "lat": 38.934907, "fusion_lon": 0.0, "fusion_lat": 0.0, "type": "electric_scooter", "name": "a53bd31c2eabf7fd87fd603ce48c9b84", "is_disabled": 0, "rental_uris": {"ios": "https://dc.lft.to/lastmile_qr_scan", "android": "https://dc.lft.to/lastmile_qr_scan"}, "is_reserved": 0}, {"lon": -77.02305416666667, "bike_id": "e3c36bc892bd92a36a9ba3fe1f0e5e5d", "lat": 38.932875833333334, "fusion_lon": 0.0, "fusion_lat": 0.0, "type": "electric_scooter", "name": "e3c36bc892bd92a36a9ba3fe1f0e5e5d", "is_disabled": 0, "rental_uris": {"ios": "https://dc.lft.to/lastmile_qr_scan", "android": "https://dc.lft.to/lastmile_qr_scan"}, "is_reserved": 0}, {"lon": -76.9302635, "bike_id": "ac806a8fa759a84380ffdf0dd1c1f0f9", "lat": 38.900106666666666, "fusion_lon": 0.0, "fusion_lat": 0.0, "type": "electric_scooter", "name": "ac806a8fa759a84380ffdf0dd1c1f0f9", "is_disabled": 0, "rental_uris": {"ios": "https://dc.lft.to/lastmile_qr_scan", "android": "https://dc.lft.to/lastmile_qr_scan"}, "is_reserved": 0}, {"lon": -77.02607883333333, "bike_id": "d8c0c127b065947307cc8786d6dbf9b8", "lat": 38.90369533333333, "fusion_lon": 0.0, "fusion_lat": 0.0, "type": "electric_scooter", "name": "d8c0c127b065947307cc8786d6dbf9b8", "is_disabled": 0, "rental_uris": {"ios": "https://dc.lft.to/lastmile_qr_scan", "android": "https://dc.lft.to/lastmile_qr_scan"}, "is_reserved": 0}, {"lon": -77.02775866666667, "bike_id": "6f2d960ee25150a0e074b6b9043e09c6", "lat": 38.892216833333336, "fusion_lon": 0.0, "fusion_lat": 0.0, "type": "electric_scooter", "name": "6f2d960ee25150a0e074b6b9043e09c6", "is_disabled": 0, "rental_uris": {"ios": "https://dc.lft.to/lastmile_qr_scan", "android": "https://dc.lft.to/lastmile_qr_scan"}, "is_reserved": 0}, {"lon": -77.04196183333333, "bike_id": "88d05a2bf848abf2d5d0071803d5d930", "lat": 38.911257, "fusion_lon": 0.0, "fusion_lat": 0.0, "type": "electric_scooter", "name": "88d05a2bf848abf2d5d0071803d5d930", "is_disabled": 0, "rental_uris": {"ios": "https://dc.lft.to/lastmile_qr_scan", "android": "https://dc.lft.to/lastmile_qr_scan"}, "is_reserved": 0}, {"lon": -77.02295133333334, "bike_id": "023b4aa5524131583fb1b4d2d6b9ea49", "lat": 38.916714166666665, "fusion_lon": 0.0, "fusion_lat": 0.0, "type": "electric_scooter", "name": "023b4aa5524131583fb1b4d2d6b9ea49", "is_disabled": 0, "rental_uris": {"ios": "https://dc.lft.to/lastmile_qr_scan", "android": "https://dc.lft.to/lastmile_qr_scan"}, "is_reserved": 0}, {"lon": -77.0366165, "bike_id": "a44b4b695b7f8cbde3c344c799bf6cd6", "lat": 38.917108, "fusion_lon": 0.0, "fusion_lat": 0.0, "type": "electric_scooter", "name": "a44b4b695b7f8cbde3c344c799bf6cd6", "is_disabled": 0, "rental_uris": {"ios": "https://dc.lft.to/lastmile_qr_scan", "android": "https://dc.lft.to/lastmile_qr_scan"}, "is_reserved": 0}, {"lon": -77.0381185, "bike_id": "66e0222cf0f8152d0acb4a5d56c361e2", "lat": 38.91413466666667, "fusion_lon": 0.0, "fusion_lat": 0.0, "type": "electric_scooter", "name": "66e0222cf0f8152d0acb4a5d56c361e2", "is_disabled": 0, "rental_uris": {"ios": "https://dc.lft.to/lastmile_qr_scan", "android": "https://dc.lft.to/lastmile_qr_scan"}, "is_reserved": 0}, {"lon": -77.0441945, "bike_id": "d8a69ef43d3377f15f19c9a5bcefa054", "lat": 38.9113145, "fusion_lon": 0.0, "fusion_lat": 0.0, "type": "electric_scooter", "name": "d8a69ef43d3377f15f19c9a5bcefa054", "is_disabled": 0, "rental_uris": {"ios": "https://dc.lft.to/lastmile_qr_scan", "android": "https://dc.lft.to/lastmile_qr_scan"}, "is_reserved": 0}, {"lon": -77.028161, "bike_id": "af8b9a24e83a2c140116a3adb950855f", "lat": 38.931723166666664, "fusion_lon": 0.0, "fusion_lat": 0.0, "type": "electric_scooter", "name": "af8b9a24e83a2c140116a3adb950855f", "is_disabled": 0, "rental_uris": {"ios": "https://dc.lft.to/lastmile_qr_scan", "android": "https://dc.lft.to/lastmile_qr_scan"}, "is_reserved": 0}, {"lon": -77.04460883333333, "bike_id": "eb9d119353384a33e0c602d1d2699354", "lat": 38.90542966666667, "fusion_lon": 0.0, "fusion_lat": 0.0, "type": "electric_scooter", "name": "eb9d119353384a33e0c602d1d2699354", "is_disabled": 0, "rental_uris": {"ios": "https://dc.lft.to/lastmile_qr_scan", "android": "https://dc.lft.to/lastmile_qr_scan"}, "is_reserved": 0}, {"lon": -76.91601766666666, "bike_id": "3e63c9a147b0289f3cc7cf9f60de23af", "lat": 38.87981883333333, "fusion_lon": 0.0, "fusion_lat": 0.0, "type": "electric_bike", "name": "3e63c9a147b0289f3cc7cf9f60de23af", "is_disabled": 0, "rental_uris": {"ios": "https://dc.lft.to/lastmile_qr_scan", "android": "https://dc.lft.to/lastmile_qr_scan"}, "is_reserved": 0}, {"lon": -77.02227433333333, "bike_id": "529dcb57f0e171600b6a635af9f7dcd6", "lat": 38.893234, "fusion_lon": 0.0, "fusion_lat": 0.0, "type": "electric_scooter", "name": "529dcb57f0e171600b6a635af9f7dcd6", "is_disabled": 0, "rental_uris": {"ios": "https://dc.lft.to/lastmile_qr_scan", "android": "https://dc.lft.to/lastmile_qr_scan"}, "is_reserved": 0}, {"lon": -77.0319005, "bike_id": "9f8fdb7e191af184bab2f7c27c36eabc", "lat": 38.8921795, "fusion_lon": 0.0, "fusion_lat": 0.0, "type": "electric_scooter", "name": "9f8fdb7e191af184bab2f7c27c36eabc", "is_disabled": 0, "rental_uris": {"ios": "https://dc.lft.to/lastmile_qr_scan", "android": "https://dc.lft.to/lastmile_qr_scan"}, "is_reserved": 0}, {"lon": -77.01254216666666, "bike_id": "bbc24d7fefa4bd7a43008b498c7b780e", "lat": 38.908416, "fusion_lon": 0.0, "fusion_lat": 0.0, "type": "electric_scooter", "name": "bbc24d7fefa4bd7a43008b498c7b780e", "is_disabled": 0, "rental_uris": {"ios": "https://dc.lft.to/lastmile_qr_scan", "android": "https://dc.lft.to/lastmile_qr_scan"}, "is_reserved": 0}, {"lon": -77.0366195, "bike_id": "e4d8873fd9b90c2357be3b9519a152e1", "lat": 38.9171625, "fusion_lon": 0.0, "fusion_lat": 0.0, "type": "electric_scooter", "name": "e4d8873fd9b90c2357be3b9519a152e1", "is_disabled": 0, "rental_uris": {"ios": "https://dc.lft.to/lastmile_qr_scan", "android": "https://dc.lft.to/lastmile_qr_scan"}, "is_reserved": 0}, {"lon": -76.98027366666666, "bike_id": "9d05d099c126355bfcd2a4b602ba0803", "lat": 38.8532205, "fusion_lon": 0.0, "fusion_lat": 0.0, "type": "electric_bike", "name": "9d05d099c126355bfcd2a4b602ba0803", "is_disabled": 0, "rental_uris": {"ios": "https://dc.lft.to/lastmile_qr_scan", "android": "https://dc.lft.to/lastmile_qr_scan"}, "is_reserved": 0}, {"lon": -77.00377433333334, "bike_id": "46786903d7e018fa90f4149e2c02e60d", "lat": 38.876368666666664, "fusion_lon": 0.0, "fusion_lat": 0.0, "type": "electric_scooter", "name": "46786903d7e018fa90f4149e2c02e60d", "is_disabled": 0, "rental_uris": {"ios": "https://dc.lft.to/lastmile_qr_scan", "android": "https://dc.lft.to/lastmile_qr_scan"}, "is_reserved": 0}, {"lon": -77.03529866666666, "bike_id": "a251f666cbc657c5563397fbffb632a5", "lat": 38.924892166666666, "fusion_lon": 0.0, "fusion_lat": 0.0, "type": "electric_scooter", "name": "a251f666cbc657c5563397fbffb632a5", "is_disabled": 0, "rental_uris": {"ios": "https://dc.lft.to/lastmile_qr_scan", "android": "https://dc.lft.to/lastmile_qr_scan"}, "is_reserved": 0}, {"lon": -76.99522516666667, "bike_id": "631cf70fc6ecba6fbf0058839b544ad7", "lat": 38.862633333333335, "fusion_lon": 0.0, "fusion_lat": 0.0, "type": "electric_scooter", "name": "631cf70fc6ecba6fbf0058839b544ad7", "is_disabled": 0, "rental_uris": {"ios": "https://dc.lft.to/lastmile_qr_scan", "android": "https://dc.lft.to/lastmile_qr_scan"}, "is_reserved": 0}, {"lon": -76.948841, "bike_id": "bfc2250e2fde3ab82ea2ca38437424c9", "lat": 38.895089, "fusion_lon": 0.0, "fusion_lat": 0.0, "type": "electric_scooter", "name": "bfc2250e2fde3ab82ea2ca38437424c9", "is_disabled": 0, "rental_uris": {"ios": "https://dc.lft.to/lastmile_qr_scan", "android": "https://dc.lft.to/lastmile_qr_scan"}, "is_reserved": 0}, {"lon": -77.0321245, "bike_id": "ff6bd33f8bbd2f2d8f217f4c47d75755", "lat": 38.897470166666665, "fusion_lon": 0.0, "fusion_lat": 0.0, "type": "electric_scooter", "name": "ff6bd33f8bbd2f2d8f217f4c47d75755", "is_disabled": 0, "rental_uris": {"ios": "https://dc.lft.to/lastmile_qr_scan", "android": "https://dc.lft.to/lastmile_qr_scan"}, "is_reserved": 0}, {"lon": -77.03189866666666, "bike_id": "7aa6b3368faf9ad9419f6ba2aea7a593", "lat": 38.91745183333333, "fusion_lon": 0.0, "fusion_lat": 0.0, "type": "electric_scooter", "name": "7aa6b3368faf9ad9419f6ba2aea7a593", "is_disabled": 0, "rental_uris": {"ios": "https://dc.lft.to/lastmile_qr_scan", "android": "https://dc.lft.to/lastmile_qr_scan"}, "is_reserved": 0}, {"lon": -77.02008066666667, "bike_id": "d02ab869e36adf50a4f5c915535bedbc", "lat": 38.9241815, "fusion_lon": 0.0, "fusion_lat": 0.0, "type": "electric_scooter", "name": "d02ab869e36adf50a4f5c915535bedbc", "is_disabled": 0, "rental_uris": {"ios": "https://dc.lft.to/lastmile_qr_scan", "android": "https://dc.lft.to/lastmile_qr_scan"}, "is_reserved": 0}, {"lon": -77.0574985, "bike_id": "932355d8bf1a533cfbaa23ccfc5894d5", "lat": 38.933555166666665, "fusion_lon": 0.0, "fusion_lat": 0.0, "type": "electric_scooter", "name": "932355d8bf1a533cfbaa23ccfc5894d5", "is_disabled": 0, "rental_uris": {"ios": "https://dc.lft.to/lastmile_qr_scan", "android": "https://dc.lft.to/lastmile_qr_scan"}, "is_reserved": 0}, {"lon": -76.98989783333333, "bike_id": "54c3237d116b31d48370c600ae0b8415", "lat": 38.93358216666667, "fusion_lon": 0.0, "fusion_lat": 0.0, "type": "electric_scooter", "name": "54c3237d116b31d48370c600ae0b8415", "is_disabled": 0, "rental_uris": {"ios": "https://dc.lft.to/lastmile_qr_scan", "android": "https://dc.lft.to/lastmile_qr_scan"}, "is_reserved": 0}, {"lon": -77.03274083333334, "bike_id": "93cdc19e9e13df2aeb245facf2e34555", "lat": 38.901499, "fusion_lon": 0.0, "fusion_lat": 0.0, "type": "electric_scooter", "name": "93cdc19e9e13df2aeb245facf2e34555", "is_disabled": 0, "rental_uris": {"ios": "https://dc.lft.to/lastmile_qr_scan", "android": "https://dc.lft.to/lastmile_qr_scan"}, "is_reserved": 0}, {"lon": -77.0322005, "bike_id": "beadb7a4468acb53095dcfcd87471a8e", "lat": 38.9147135, "fusion_lon": 0.0, "fusion_lat": 0.0, "type": "electric_scooter", "name": "beadb7a4468acb53095dcfcd87471a8e", "is_disabled": 0, "rental_uris": {"ios": "https://dc.lft.to/lastmile_qr_scan", "android": "https://dc.lft.to/lastmile_qr_scan"}, "is_reserved": 0}, {"lon": -76.99033616666667, "bike_id": "0a479f364186d4b9dcb9284ee86bb47c", "lat": 38.888750333333334, "fusion_lon": 0.0, "fusion_lat": 0.0, "type": "electric_scooter", "name": "0a479f364186d4b9dcb9284ee86bb47c", "is_disabled": 0, "rental_uris": {"ios": "https://dc.lft.to/lastmile_qr_scan", "android": "https://dc.lft.to/lastmile_qr_scan"}, "is_reserved": 0}, {"lon": -77.034785, "bike_id": "9c0b7310d03f4b8cdf47b0b3f8b792d6", "lat": 38.91712183333333, "fusion_lon": 0.0, "fusion_lat": 0.0, "type": "electric_scooter", "name": "9c0b7310d03f4b8cdf47b0b3f8b792d6", "is_disabled": 0, "rental_uris": {"ios": "https://dc.lft.to/lastmile_qr_scan", "android": "https://dc.lft.to/lastmile_qr_scan"}, "is_reserved": 0}, {"lon": -77.04512683333333, "bike_id": "8a9723017896ab02b72f15aadebacecb", "lat": 38.903727, "fusion_lon": 0.0, "fusion_lat": 0.0, "type": "electric_scooter", "name": "8a9723017896ab02b72f15aadebacecb", "is_disabled": 0, "rental_uris": {"ios": "https://dc.lft.to/lastmile_qr_scan", "android": "https://dc.lft.to/lastmile_qr_scan"}, "is_reserved": 0}, {"lon": -77.00140916666666, "bike_id": "9ca9a06a5d64905d1c334479a3615311", "lat": 38.89472816666667, "fusion_lon": 0.0, "fusion_lat": 0.0, "type": "electric_scooter", "name": "9ca9a06a5d64905d1c334479a3615311", "is_disabled": 0, "rental_uris": {"ios": "https://dc.lft.to/lastmile_qr_scan", "android": "https://dc.lft.to/lastmile_qr_scan"}, "is_reserved": 0}, {"lon": -76.9267395, "bike_id": "7857f416fde97dca808634c04468f84c", "lat": 38.88036816666666, "fusion_lon": 0.0, "fusion_lat": 0.0, "type": "electric_scooter", "name": "7857f416fde97dca808634c04468f84c", "is_disabled": 0, "rental_uris": {"ios": "https://dc.lft.to/lastmile_qr_scan", "android": "https://dc.lft.to/lastmile_qr_scan"}, "is_reserved": 0}, {"lon": -77.0297825, "bike_id": "2a7f32fcd72a9d8d47b741d0e14a114d", "lat": 38.9244595, "fusion_lon": 0.0, "fusion_lat": 0.0, "type": "electric_scooter", "name": "2a7f32fcd72a9d8d47b741d0e14a114d", "is_disabled": 0, "rental_uris": {"ios": "https://dc.lft.to/lastmile_qr_scan", "android": "https://dc.lft.to/lastmile_qr_scan"}, "is_reserved": 0}, {"lon": -77.04332966666666, "bike_id": "d90902e9e7c6e133c55231c2a205ad87", "lat": 38.908759333333336, "fusion_lon": 0.0, "fusion_lat": 0.0, "type": "electric_scooter", "name": "d90902e9e7c6e133c55231c2a205ad87", "is_disabled": 0, "rental_uris": {"ios": "https://dc.lft.to/lastmile_qr_scan", "android": "https://dc.lft.to/lastmile_qr_scan"}, "is_reserved": 0}, {"lon": -76.99913916666667, "bike_id": "39800c753f72c618a6ccf235094195f6", "lat": 38.9091685, "fusion_lon": 0.0, "fusion_lat": 0.0, "type": "electric_scooter", "name": "39800c753f72c618a6ccf235094195f6", "is_disabled": 0, "rental_uris": {"ios": "https://dc.lft.to/lastmile_qr_scan", "android": "https://dc.lft.to/lastmile_qr_scan"}, "is_reserved": 0}, {"lon": -76.9374405, "bike_id": "245a857f2fffdad5a7d0d9bac716b9d8", "lat": 38.89003533333333, "fusion_lon": 0.0, "fusion_lat": 0.0, "type": "electric_scooter", "name": "245a857f2fffdad5a7d0d9bac716b9d8", "is_disabled": 0, "rental_uris": {"ios": "https://dc.lft.to/lastmile_qr_scan", "android": "https://dc.lft.to/lastmile_qr_scan"}, "is_reserved": 0}, {"lon": -77.03448466666667, "bike_id": "2248f1f73a48a15f6bbc2f091976627c", "lat": 38.90816133333333, "fusion_lon": 0.0, "fusion_lat": 0.0, "type": "electric_scooter", "name": "2248f1f73a48a15f6bbc2f091976627c", "is_disabled": 0, "rental_uris": {"ios": "https://dc.lft.to/lastmile_qr_scan", "android": "https://dc.lft.to/lastmile_qr_scan"}, "is_reserved": 0}, {"lon": -77.038594, "bike_id": "72594bb5cbc06d55cab006e97fa0a231", "lat": 38.915464166666666, "fusion_lon": 0.0, "fusion_lat": 0.0, "type": "electric_scooter", "name": "72594bb5cbc06d55cab006e97fa0a231", "is_disabled": 0, "rental_uris": {"ios": "https://dc.lft.to/lastmile_qr_scan", "android": "https://dc.lft.to/lastmile_qr_scan"}, "is_reserved": 0}, {"lon": -76.97560133333333, "bike_id": "a5aeb9794a4ff8ce471575c531136139", "lat": 38.924535, "fusion_lon": 0.0, "fusion_lat": 0.0, "type": "electric_bike", "name": "a5aeb9794a4ff8ce471575c531136139", "is_disabled": 0, "rental_uris": {"ios": "https://dc.lft.to/lastmile_qr_scan", "android": "https://dc.lft.to/lastmile_qr_scan"}, "is_reserved": 0}, {"lon": -77.03730633333333, "bike_id": "c7047e340b3671c2b427ace6e4893844", "lat": 38.926485666666665, "fusion_lon": 0.0, "fusion_lat": 0.0, "type": "electric_scooter", "name": "c7047e340b3671c2b427ace6e4893844", "is_disabled": 0, "rental_uris": {"ios": "https://dc.lft.to/lastmile_qr_scan", "android": "https://dc.lft.to/lastmile_qr_scan"}, "is_reserved": 0}, {"lon": -77.0326245, "bike_id": "aa11d260dae2e70fdae47577efd7ce59", "lat": 38.92990616666667, "fusion_lon": 0.0, "fusion_lat": 0.0, "type": "electric_scooter", "name": "aa11d260dae2e70fdae47577efd7ce59", "is_disabled": 0, "rental_uris": {"ios": "https://dc.lft.to/lastmile_qr_scan", "android": "https://dc.lft.to/lastmile_qr_scan"}, "is_reserved": 0}, {"lon": -76.978604, "bike_id": "9899dc5248abed3fa5c671b2bd6855c9", "lat": 38.907202166666664, "fusion_lon": 0.0, "fusion_lat": 0.0, "type": "electric_scooter", "name": "9899dc5248abed3fa5c671b2bd6855c9", "is_disabled": 0, "rental_uris": {"ios": "https://dc.lft.to/lastmile_qr_scan", "android": "https://dc.lft.to/lastmile_qr_scan"}, "is_reserved": 0}, {"lon": -77.04676216666667, "bike_id": "576ce757c9bc1c9b47db17afa7ab3385", "lat": 38.8923355, "fusion_lon": 0.0, "fusion_lat": 0.0, "type": "electric_scooter", "name": "576ce757c9bc1c9b47db17afa7ab3385", "is_disabled": 0, "rental_uris": {"ios": "https://dc.lft.to/lastmile_qr_scan", "android": "https://dc.lft.to/lastmile_qr_scan"}, "is_reserved": 0}, {"lon": -76.99595816666667, "bike_id": "a3007fef867e6b0ef5d042e75f48d713", "lat": 38.950692833333335, "fusion_lon": 0.0, "fusion_lat": 0.0, "type": "electric_bike", "name": "a3007fef867e6b0ef5d042e75f48d713", "is_disabled": 0, "rental_uris": {"ios": "https://dc.lft.to/lastmile_qr_scan", "android": "https://dc.lft.to/lastmile_qr_scan"}, "is_reserved": 0}, {"lon": -77.03256683333333, "bike_id": "34e13f334f13be09e6561a9766392acc", "lat": 38.93771616666667, "fusion_lon": 0.0, "fusion_lat": 0.0, "type": "electric_scooter", "name": "34e13f334f13be09e6561a9766392acc", "is_disabled": 0, "rental_uris": {"ios": "https://dc.lft.to/lastmile_qr_scan", "android": "https://dc.lft.to/lastmile_qr_scan"}, "is_reserved": 0}, {"lon": -77.017808, "bike_id": "e811aeab04470f4b5cd394a051aabe6b", "lat": 38.88592666666667, "fusion_lon": 0.0, "fusion_lat": 0.0, "type": "electric_scooter", "name": "e811aeab04470f4b5cd394a051aabe6b", "is_disabled": 0, "rental_uris": {"ios": "https://dc.lft.to/lastmile_qr_scan", "android": "https://dc.lft.to/lastmile_qr_scan"}, "is_reserved": 0}, {"lon": -77.0447485, "bike_id": "50871761d6afec16545442b43fe4415b", "lat": 38.90548033333334, "fusion_lon": 0.0, "fusion_lat": 0.0, "type": "electric_scooter", "name": "50871761d6afec16545442b43fe4415b", "is_disabled": 0, "rental_uris": {"ios": "https://dc.lft.to/lastmile_qr_scan", "android": "https://dc.lft.to/lastmile_qr_scan"}, "is_reserved": 0}, {"lon": -77.03845166666666, "bike_id": "d322565ffcaebb8f7a85ec1f2cd6bbc9", "lat": 38.93244033333333, "fusion_lon": 0.0, "fusion_lat": 0.0, "type": "electric_scooter", "name": "d322565ffcaebb8f7a85ec1f2cd6bbc9", "is_disabled": 0, "rental_uris": {"ios": "https://dc.lft.to/lastmile_qr_scan", "android": "https://dc.lft.to/lastmile_qr_scan"}, "is_reserved": 0}, {"lon": -77.03286316666667, "bike_id": "6ab1c124c5aa6c85ed0138eb68a52e27", "lat": 38.9104465, "fusion_lon": 0.0, "fusion_lat": 0.0, "type": "electric_scooter", "name": "6ab1c124c5aa6c85ed0138eb68a52e27", "is_disabled": 0, "rental_uris": {"ios": "https://dc.lft.to/lastmile_qr_scan", "android": "https://dc.lft.to/lastmile_qr_scan"}, "is_reserved": 0}, {"lon": -77.034491, "bike_id": "8f13550e74185db6c8cae649b07c256c", "lat": 38.909797833333336, "fusion_lon": 0.0, "fusion_lat": 0.0, "type": "electric_scooter", "name": "8f13550e74185db6c8cae649b07c256c", "is_disabled": 0, "rental_uris": {"ios": "https://dc.lft.to/lastmile_qr_scan", "android": "https://dc.lft.to/lastmile_qr_scan"}, "is_reserved": 0}, {"lon": -77.05045716666666, "bike_id": "d0c58ed37ad5a02f0a945bbad5a1f244", "lat": 38.923587, "fusion_lon": 0.0, "fusion_lat": 0.0, "type": "electric_scooter", "name": "d0c58ed37ad5a02f0a945bbad5a1f244", "is_disabled": 0, "rental_uris": {"ios": "https://dc.lft.to/lastmile_qr_scan", "android": "https://dc.lft.to/lastmile_qr_scan"}, "is_reserved": 0}, {"lon": -77.03962566666667, "bike_id": "4be5e24e8ded95f6ec4f8bd2eaac6c71", "lat": 38.898919166666666, "fusion_lon": 0.0, "fusion_lat": 0.0, "type": "electric_scooter", "name": "4be5e24e8ded95f6ec4f8bd2eaac6c71", "is_disabled": 0, "rental_uris": {"ios": "https://dc.lft.to/lastmile_qr_scan", "android": "https://dc.lft.to/lastmile_qr_scan"}, "is_reserved": 0}, {"lon": -76.94994383333334, "bike_id": "388b468a1687a37c23268157799ee320", "lat": 38.893805, "fusion_lon": 0.0, "fusion_lat": 0.0, "type": "electric_scooter", "name": "388b468a1687a37c23268157799ee320", "is_disabled": 0, "rental_uris": {"ios": "https://dc.lft.to/lastmile_qr_scan", "android": "https://dc.lft.to/lastmile_qr_scan"},