{"data": {"bikes": [{"lon": -77.02195083333334, "name": "1a67f1fbebab3976451368dcc94e6a6f", "is_disabled": 0, "type": "electric_scooter", "is_reserved": 0, "fusion_lon": 0.0, "lat": 38.877820666666665, "rental_uris": {"ios": "https://dc.lft.to/lastmile_qr_scan", "android": "https://dc.lft.to/lastmile_qr_scan"}, "bike_id": "1a67f1fbebab3976451368dcc94e6a6f", "fusion_lat": 0.0}, {"lon": -77.04577133333333, "name": "dc155ad0ebcbab17b64f6d13d7ad0038", "is_disabled": 0, "type": "electric_scooter", "is_reserved": 0, "fusion_lon": 0.0, "lat": 38.921334, "rental_uris": {"ios": "https://dc.lft.to/lastmile_qr_scan", "android": "https://dc.lft.to/lastmile_qr_scan"}, "bike_id": "dc155ad0ebcbab17b64f6d13d7ad0038", "fusion_lat": 0.0}, {"lon": -77.02700333333334, "name": "9db33ac2db919a48b560a210ebaacf07", "is_disabled": 0, "type": "electric_scooter", "is_reserved": 0, "fusion_lon": 0.0, "lat": 38.92488133333333, "rental_uris": {"ios": "https://dc.lft.to/lastmile_qr_scan", "android": "https://dc.lft.to/lastmile_qr_scan"}, "bike_id": "9db33ac2db919a48b560a210ebaacf07", "fusion_lat": 0.0}, {"lon": -77.029716, "name": "94df50b647c7152110cbfa99a4271de2", "is_disabled": 0, "type": "electric_scooter", "is_reserved": 0, "fusion_lon": 0.0, "lat": 38.91104433333334, "rental_uris": {"ios": "https://dc.lft.to/lastmile_qr_scan", "android": "https://dc.lft.to/lastmile_qr_scan"}, "bike_id": "94df50b647c7152110cbfa99a4271de2", "fusion_lat": 0.0}, {"lon": -77.01613983333333, "name": "82f36da63c667d1cbcc9ec44e01a18c4", "is_disabled": 0, "type": "electric_scooter", "is_reserved": 0, "fusion_lon": 0.0, "lat": 38.905907666666664, "rental_uris": {"ios": "https://dc.lft.to/lastmile_qr_scan", "android": "https://dc.lft.to/lastmile_qr_scan"}, "bike_id": "82f36da63c667d1cbcc9ec44e01a18c4", "fusion_lat": 0.0}, {"lon": -77.02608583333334, "name": "39c2f8b61c5b491e3480971b4311c354", "is_disabled": 0, "type": "electric_scooter", "is_reserved": 0, "fusion_lon": 0.0, "lat": 38.920278833333334, "rental_uris": {"ios": "https://dc.lft.to/lastmile_qr_scan", "android": "https://dc.lft.to/lastmile_qr_scan"}, "bike_id": "39c2f8b61c5b491e3480971b4311c354", "fusion_lat": 0.0}, {"lon": -77.06346716666667, "name": "1f187e8ffb5fa8213fe134321482e2b6", "is_disabled": 0, "type": "electric_scooter", "is_reserved": 0, "fusion_lon": 0.0, "lat": 38.906946833333336, "rental_uris": {"ios": "https://dc.lft.to/lastmile_qr_scan", "android": "https://dc.lft.to/lastmile_qr_scan"}, "bike_id": "1f187e8ffb5fa8213fe134321482e2b6", "fusion_lat": 0.0}, {"lon": -77.03560083333333, "name": "64fd4ab3eb5788c1dd8375bc6e186832", "is_disabled": 0, "type": "electric_bike", "is_reserved": 0, "fusion_lon": 0.0, "lat": 38.96481, "rental_uris": {"ios": "https://dc.lft.to/lastmile_qr_scan", "android": "https://dc.lft.to/lastmile_qr_scan"}, "bike_id": "64fd4ab3eb5788c1dd8375bc6e186832", "fusion_lat": 0.0}, {"lon": -77.026852, "name": "58420e7c12c1bf857c97183649c8d07d", "is_disabled": 0, "type": "electric_scooter", "is_reserved": 0, "fusion_lon": 0.0, "lat": 38.92577633333333, "rental_uris": {"ios": "https://dc.lft.to/lastmile_qr_scan", "android": "https://dc.lft.to/lastmile_qr_scan"}, "bike_id": "58420e7c12c1bf857c97183649c8d07d", "fusion_lat": 0.0}, {"lon": -77.014443, "name": "a4359f656888c3ada4b46089411aa70f", "is_disabled": 0, "type": "electric_bike", "is_reserved": 0, "fusion_lon": 0.0, "lat": 38.87672933333333, "rental_uris": {"ios": "https://dc.lft.to/lastmile_qr_scan", "android": "https://dc.lft.to/lastmile_qr_scan"}, "bike_id": "a4359f656888c3ada4b46089411aa70f", "fusion_lat": 0.0}, {"lon": -77.00760316666667, "name": "9a52b7d6f434caf89f3619e6a1179bc7", "is_disabled": 0, "type": "electric_bike", "is_reserved": 0, "fusion_lon": 0.0, "lat": 38.99785683333333, "rental_uris": {"ios": "https://dc.lft.to/lastmile_qr_scan", "android": "https://dc.lft.to/lastmile_qr_scan"}, "bike_id": "9a52b7d6f434caf89f3619e6a1179bc7", "fusion_lat": 0.0}, {"lon": -77.0308445, "name": "7b719b41a9df37e88161017149046b32", "is_disabled": 0, "type": "electric_scooter", "is_reserved": 0, "fusion_lon": 0.0, "lat": 38.922474666666666, "rental_uris": {"ios": "https://dc.lft.to/lastmile_qr_scan", "android": "https://dc.lft.to/lastmile_qr_scan"}, "bike_id": "7b719b41a9df37e88161017149046b32", "fusion_lat": 0.0}, {"lon": -77.03199733333334, "name": "7ebd6287e42af2c07d8e96df21a9283f", "is_disabled": 0, "type": "electric_scooter", "is_reserved": 0, "fusion_lon": 0.0, "lat": 38.89656983333333, "rental_uris": {"ios": "https://dc.lft.to/lastmile_qr_scan", "android": "https://dc.lft.to/lastmile_qr_scan"}, "bike_id": "7ebd6287e42af2c07d8e96df21a9283f", "fusion_lat": 0.0}, {"lon": -77.03886266666666, "name": "9aff34339a7266e2ccefd1218de89e95", "is_disabled": 0, "type": "electric_scooter", "is_reserved": 0, "fusion_lon": 0.0, "lat": 38.92154566666667, "rental_uris": {"ios": "https://dc.lft.to/lastmile_qr_scan", "android": "https://dc.lft.to/lastmile_qr_scan"}, "bike_id": "9aff34339a7266e2ccefd1218de89e95", "fusion_lat": 0.0}, {"lon": -77.0208075, "name": "9d50fcf3cd9ff1996609de944a1562ed", "is_disabled": 0, "type": "electric_scooter", "is_reserved": 0, "fusion_lon": 0.0, "lat": 38.930118666666665, "rental_uris": {"ios": "https://dc.lft.to/lastmile_qr_scan", "android": "https://dc.lft.to/lastmile_qr_scan"}, "bike_id": "9d50fcf3cd9ff1996609de944a1562ed", "fusion_lat": 0.0}, {"lon": -76.94564916666667, "name": "4e32ca0977b71a2232e66d582ce319b2", "is_disabled": 0, "type": "electric_bike", "is_reserved": 0, "fusion_lon": 0.0, "lat": 38.866264666666666, "rental_uris": {"ios": "https://dc.lft.to/lastmile_qr_scan", "android": "https://dc.lft.to/lastmile_qr_scan"}, "bike_id": "4e32ca0977b71a2232e66d582ce319b2", "fusion_lat": 0.0}, {"lon": -77.02982283333333, "name": "76641fab3bff7e2d18ded691c2aa2fca", "is_disabled": 0, "type": "electric_scooter", "is_reserved": 0, "fusion_lon": 0.0, "lat": 38.92414216666667, "rental_uris": {"ios": "https://dc.lft.to/lastmile_qr_scan", "android": "https://dc.lft.to/lastmile_qr_scan"}, "bike_id": "76641fab3bff7e2d18ded691c2aa2fca", "fusion_lat": 0.0}, {"lon": -77.09625283333334, "name": "887af3d4c984d3ad38eb2384a54e24e6", "is_disabled": 0, "type": "electric_bike", "is_reserved": 0, "fusion_lon": 0.0, "lat": 38.952538, "rental_uris": {"ios": "https://dc.lft.to/lastmile_qr_scan", "android": "https://dc.lft.to/lastmile_qr_scan"}, "bike_id": "887af3d4c984d3ad38eb2384a54e24e6", "fusion_lat": 0.0}, {"lon": -77.00220633333333, "name": "ad07d467802e3e39b6785523ebf271e6", "is_disabled": 0, "type": "electric_bike", "is_reserved": 0, "fusion_lon": 0.0, "lat": 38.93608916666667, "rental_uris": {"ios": "https://dc.lft.to/lastmile_qr_scan", "android": "https://dc.lft.to/lastmile_qr_scan"}, "bike_id": "ad07d467802e3e39b6785523ebf271e6", "fusion_lat": 0.0}, {"lon": -77.0324825, "name": "54e1e4fe4b569bdf46bc63c5bda43220", "is_disabled": 0, "type": "electric_scooter", "is_reserved": 0, "fusion_lon": 0.0, "lat": 38.902914833333334, "rental_uris": {"ios": "https://dc.lft.to/lastmile_qr_scan", "android": "https://dc.lft.to/lastmile_qr_scan"}, "bike_id": "54e1e4fe4b569bdf46bc63c5bda43220", "fusion_lat": 0.0}, {"lon": -77.05084016666666, "name": "a738d038ff9e983566423957cdff6e59", "is_disabled": 0, "type": "electric_scooter", "is_reserved": 0, "fusion_lon": 0.0, "lat": 38.90065116666667, "rental_uris": {"ios": "https://dc.lft.to/lastmile_qr_scan", "android": "https://dc.lft.to/lastmile_qr_scan"}, "bike_id": "a738d038ff9e983566423957cdff6e59", "fusion_lat": 0.0}, {"lon": -77.00888083333334, "name": "872e58eec796003f6360dc944b281705", "is_disabled": 0, "type": "electric_scooter", "is_reserved": 0, "fusion_lon": 0.0, "lat": 38.909813666666665, "rental_uris": {"ios": "https://dc.lft.to/lastmile_qr_scan", "android": "https://dc.lft.to/lastmile_qr_scan"}, "bike_id": "872e58eec796003f6360dc944b281705", "fusion_lat": 0.0}, {"lon": -76.926331, "name": "c60ef6391ef6f9e54d76281e18f8a0e4", "is_disabled": 0, "type": "electric_scooter", "is_reserved": 0, "fusion_lon": 0.0, "lat": 38.8862355, "rental_uris": {"ios": "https://dc.lft.to/lastmile_qr_scan", "android": "https://dc.lft.to/lastmile_qr_scan"}, "bike_id": "c60ef6391ef6f9e54d76281e18f8a0e4", "fusion_lat": 0.0}, {"lon": -76.9984925, "name": "b582d7ba7666971c73715d6cd79737b6", "is_disabled": 0, "type": "electric_scooter", "is_reserved": 0, "fusion_lon": 0.0, "lat": 38.901247833333336, "rental_uris": {"ios": "https://dc.lft.to/lastmile_qr_scan", "android": "https://dc.lft.to/lastmile_qr_scan"}, "bike_id": "b582d7ba7666971c73715d6cd79737b6", "fusion_lat": 0.0}, {"lon": -77.0098545, "name": "75943fb0f1791099cf523750fc5282b5", "is_disabled": 0, "type": "electric_scooter", "is_reserved": 0, "fusion_lon": 0.0, "lat": 38.91408583333333, "rental_uris": {"ios": "https://dc.lft.to/lastmile_qr_scan", "android": "https://dc.lft.to/lastmile_qr_scan"}, "bike_id": "75943fb0f1791099cf523750fc5282b5", "fusion_lat": 0.0}, {"lon": -77.02318066666666, "name": "2b2abadfcff394f8b53f88e3e785fdc3", "is_disabled": 0, "type": "electric_scooter", "is_reserved": 0, "fusion_lon": 0.0, "lat": 38.9398875, "rental_uris": {"ios": "https://dc.lft.to/lastmile_qr_scan", "android": "https://dc.lft.to/lastmile_qr_scan"}, "bike_id": "2b2abadfcff394f8b53f88e3e785fdc3", "fusion_lat": 0.0}, {"lon": -77.03163783333333, "name": "48e17dfd092b2f71acbb6c73de6b0fb6", "is_disabled": 0, "type": "electric_scooter", "is_reserved": 0, "fusion_lon": 0.0, "lat": 38.883937, "rental_uris": {"ios": "https://dc.lft.to/lastmile_qr_scan", "android": "https://dc.lft.to/lastmile_qr_scan"}, "bike_id": "48e17dfd092b2f71acbb6c73de6b0fb6", "fusion_lat": 0.0}, {"lon": -77.03815833333333, "name": "fe3fa5c6030cb9572e2983b75290f84a", "is_disabled": 0, "type": "electric_scooter", "is_reserved": 0, "fusion_lon": 0.0, "lat": 38.92565666666667, "rental_uris": {"ios": "https://dc.lft.to/lastmile_qr_scan", "android": "https://dc.lft.to/lastmile_qr_scan"}, "bike_id": "fe3fa5c6030cb9572e2983b75290f84a", "fusion_lat": 0.0}, {"lon": -77.02509083333334, "name": "2a009238108c5e9b0d9952f7306774e4", "is_disabled": 0, "type": "electric_scooter", "is_reserved": 0, "fusion_lon": 0.0, "lat": 38.9170915, "rental_uris": {"ios": "https://dc.lft.to/lastmile_qr_scan", "android": "https://dc.lft.to/lastmile_qr_scan"}, "bike_id": "2a009238108c5e9b0d9952f7306774e4", "fusion_lat": 0.0}, {"lon": -77.01804583333333, "name": "afbb29fa6ab55d87e95e233a217cbd31", "is_disabled": 0, "type": "electric_scooter", "is_reserved": 0, "fusion_lon": 0.0, "lat": 38.914059333333334, "rental_uris": {"ios": "https://dc.lft.to/lastmile_qr_scan", "android": "https://dc.lft.to/lastmile_qr_scan"}, "bike_id": "afbb29fa6ab55d87e95e233a217cbd31", "fusion_lat": 0.0}, {"lon": -76.9956625, "name": "91b277686dd8dca64d1d530a530f81fc", "is_disabled": 0, "type": "electric_scooter", "is_reserved": 0, "fusion_lon": 0.0, "lat": 38.950715833333334, "rental_uris": {"ios": "https://dc.lft.to/lastmile_qr_scan", "android": "https://dc.lft.to/lastmile_qr_scan"}, "bike_id": "91b277686dd8dca64d1d530a530f81fc", "fusion_lat": 0.0}, {"lon": -77.034628, "name": "d0c015bbbbde3e1863fd1c398236bee0", "is_disabled": 0, "type": "electric_scooter", "is_reserved": 0, "fusion_lon": 0.0, "lat": 38.921550833333335, "rental_uris": {"ios": "https://dc.lft.to/lastmile_qr_scan", "android": "https://dc.lft.to/lastmile_qr_scan"}, "bike_id": "d0c015bbbbde3e1863fd1c398236bee0", "fusion_lat": 0.0}, {"lon": -77.03209233333334, "name": "f2ac2bbc06261cf583b8541a8ebad8f5", "is_disabled": 0, "type": "electric_scooter", "is_reserved": 0, "fusion_lon": 0.0, "lat": 38.91913866666667, "rental_uris": {"ios": "https://dc.lft.to/lastmile_qr_scan", "android": "https://dc.lft.to/lastmile_qr_scan"}, "bike_id": "f2ac2bbc06261cf583b8541a8ebad8f5", "fusion_lat": 0.0}, {"lon": -77.03093, "name": "7d29ee941a9d91fa0ca88199e89dfdd0", "is_disabled": 0, "type": "electric_scooter", "is_reserved": 0, "fusion_lon": 0.0, "lat": 38.93538783333333, "rental_uris": {"ios": "https://dc.lft.to/lastmile_qr_scan", "android": "https://dc.lft.to/lastmile_qr_scan"}, "bike_id": "7d29ee941a9d91fa0ca88199e89dfdd0", "fusion_lat": 0.0}, {"lon": -77.07360216666666, "name": "1fc8e1393ebdbc94f050be562d18b9d5", "is_disabled": 0, "type": "electric_scooter", "is_reserved": 0, "fusion_lon": 0.0, "lat": 38.933555, "rental_uris": {"ios": "https://dc.lft.to/lastmile_qr_scan", "android": "https://dc.lft.to/lastmile_qr_scan"}, "bike_id": "1fc8e1393ebdbc94f050be562d18b9d5", "fusion_lat": 0.0}, {"lon": -77.0327305, "name": "4e319d26e07c0471511d1c7aecbfddb9", "is_disabled": 0, "type": "electric_scooter", "is_reserved": 0, "fusion_lon": 0.0, "lat": 38.932079333333334, "rental_uris": {"ios": "https://dc.lft.to/lastmile_qr_scan", "android": "https://dc.lft.to/lastmile_qr_scan"}, "bike_id": "4e319d26e07c0471511d1c7aecbfddb9", "fusion_lat": 0.0}, {"lon": -77.05993016666666, "name": "1fcf314addfebd3364ba6d4da7779875", "is_disabled": 0, "type": "electric_scooter", "is_reserved": 0, "fusion_lon": 0.0, "lat": 38.92715883333334, "rental_uris": {"ios": "https://dc.lft.to/lastmile_qr_scan", "android": "https://dc.lft.to/lastmile_qr_scan"}, "bike_id": "1fcf314addfebd3364ba6d4da7779875", "fusion_lat": 0.0}, {"lon": -77.02344966666666, "name": "13d17288cb30a336bdc7a9a996b09dee", "is_disabled": 0, "type": "electric_scooter", "is_reserved": 0, "fusion_lon": 0.0, "lat": 38.943106666666665, "rental_uris": {"ios": "https://dc.lft.to/lastmile_qr_scan", "android": "https://dc.lft.to/lastmile_qr_scan"}, "bike_id": "13d17288cb30a336bdc7a9a996b09dee", "fusion_lat": 0.0}, {"lon": -77.01958083333334, "name": "d21211b0713abcc91bd460fe3995249f", "is_disabled": 0, "type": "electric_scooter", "is_reserved": 0, "fusion_lon": 0.0, "lat": 38.92370283333333, "rental_uris": {"ios": "https://dc.lft.to/lastmile_qr_scan", "android": "https://dc.lft.to/lastmile_qr_scan"}, "bike_id": "d21211b0713abcc91bd460fe3995249f", "fusion_lat": 0.0}, {"lon": -77.05310366666667, "name": "63ee95f3089cba102f26d097515e0315", "is_disabled": 0, "type": "electric_scooter", "is_reserved": 0, "fusion_lon": 0.0, "lat": 38.904358, "rental_uris": {"ios": "https://dc.lft.to/lastmile_qr_scan", "android": "https://dc.lft.to/lastmile_qr_scan"}, "bike_id": "63ee95f3089cba102f26d097515e0315", "fusion_lat": 0.0}, {"lon": -77.03111233333334, "name": "78056efdee843429d630184b17506be4", "is_disabled": 0, "type": "electric_scooter", "is_reserved": 0, "fusion_lon": 0.0, "lat": 38.90975366666667, "rental_uris": {"ios": "https://dc.lft.to/lastmile_qr_scan", "android": "https://dc.lft.to/lastmile_qr_scan"}, "bike_id": "78056efdee843429d630184b17506be4", "fusion_lat": 0.0}, {"lon": -77.06223266666667, "name": "76c1457bd5e5bb831c1d12d5d6c198cc", "is_disabled": 0, "type": "electric_scooter", "is_reserved": 0, "fusion_lon": 0.0, "lat": 38.913161833333334, "rental_uris": {"ios": "https://dc.lft.to/lastmile_qr_scan", "android": "https://dc.lft.to/lastmile_qr_scan"}, "bike_id": "76c1457bd5e5bb831c1d12d5d6c198cc", "fusion_lat": 0.0}, {"lon": -77.05376666666666, "name": "64561054055312980fde6728c0781da2", "is_disabled": 0, "type": "electric_scooter", "is_reserved": 0, "fusion_lon": 0.0, "lat": 38.902603, "rental_uris": {"ios": "https://dc.lft.to/lastmile_qr_scan", "android": "https://dc.lft.to/lastmile_qr_scan"}, "bike_id": "64561054055312980fde6728c0781da2", "fusion_lat": 0.0}, {"lon": -77.00214483333333, "name": "a8e5deaee52f5b5d17a7da710663a0c9", "is_disabled": 0, "type": "electric_scooter", "is_reserved": 0, "fusion_lon": 0.0, "lat": 38.90034416666667, "rental_uris": {"ios": "https://dc.lft.to/lastmile_qr_scan", "android": "https://dc.lft.to/lastmile_qr_scan"}, "bike_id": "a8e5deaee52f5b5d17a7da710663a0c9", "fusion_lat": 0.0}, {"lon": -77.12741066666666, "name": "85298a2c4cf976cc0a3767bb2a3e5b55", "is_disabled": 0, "type": "electric_bike", "is_reserved": 0, "fusion_lon": 0.0, "lat": 38.89566933333333, "rental_uris": {"ios": "https://dc.lft.to/lastmile_qr_scan", "android": "https://dc.lft.to/lastmile_qr_scan"}, "bike_id": "85298a2c4cf976cc0a3767bb2a3e5b55", "fusion_lat": 0.0}, {"lon": -77.03352433333333, "name": "7ee86ac6c79a45347ef1e9bf6c05fadf", "is_disabled": 0, "type": "electric_scooter", "is_reserved": 0, "fusion_lon": 0.0, "lat": 38.90121283333333, "rental_uris": {"ios": "https://dc.lft.to/lastmile_qr_scan", "android": "https://dc.lft.to/lastmile_qr_scan"}, "bike_id": "7ee86ac6c79a45347ef1e9bf6c05fadf", "fusion_lat": 0.0}, {"lon": -77.04469366666666, "name": "3e61d3441eb1db22d2caf5869cf86ece", "is_disabled": 0, "type": "electric_scooter", "is_reserved": 0, "fusion_lon": 0.0, "lat": 38.91535733333333, "rental_uris": {"ios": "https://dc.lft.to/lastmile_qr_scan", "android": "https://dc.lft.to/lastmile_qr_scan"}, "bike_id": "3e61d3441eb1db22d2caf5869cf86ece", "fusion_lat": 0.0}, {"lon": -76.94573316666667, "name": "d0c4dfc95f0f2f09925139a4b0277a48", "is_disabled": 0, "type": "electric_scooter", "is_reserved": 0, "fusion_lon": 0.0, "lat": 38.89927516666667, "rental_uris": {"ios": "https://dc.lft.to/lastmile_qr_scan", "android": "https://dc.lft.to/lastmile_qr_scan"}, "bike_id": "d0c4dfc95f0f2f09925139a4b0277a48", "fusion_lat": 0.0}, {"lon": -77.0345645, "name": "cc9319e60ffabe027a9701a2f24cf7c3", "is_disabled": 0, "type": "electric_scooter", "is_reserved": 0, "fusion_lon": 0.0, "lat": 38.937512, "rental_uris": {"ios": "https://dc.lft.to/lastmile_qr_scan", "android": "https://dc.lft.to/lastmile_qr_scan"}, "bike_id": "cc9319e60ffabe027a9701a2f24cf7c3", "fusion_lat": 0.0}, {"lon": -76.93612266666666, "name": "0681448f22ed3052c2513018244e1409", "is_disabled": 0, "type": "electric_bike", "is_reserved": 0, "fusion_lon": 0.0, "lat": 38.970715166666665, "rental_uris": {"ios": "https://dc.lft.to/lastmile_qr_scan", "android": "https://dc.lft.to/lastmile_qr_scan"}, "bike_id": "0681448f22ed3052c2513018244e1409", "fusion_lat": 0.0}, {"lon": -77.03880783333334, "name": "581256e1253c8a9e8dc186a410f6ae83", "is_disabled": 0, "type": "electric_bike", "is_reserved": 0, "fusion_lon": 0.0, "lat": 39.02626216666667, "rental_uris": {"ios": "https://dc.lft.to/lastmile_qr_scan", "android": "https://dc.lft.to/lastmile_qr_scan"}, "bike_id": "581256e1253c8a9e8dc186a410f6ae83", "fusion_lat": 0.0}, {"lon": -77.01298033333333, "name": "1847771a5b5c109c946ac86cdb0e0c6e", "is_disabled": 0, "type": "electric_scooter", "is_reserved": 0, "fusion_lon": 0.0, "lat": 38.900757666666664, "rental_uris": {"ios": "https://dc.lft.to/lastmile_qr_scan", "android": "https://dc.lft.to/lastmile_qr_scan"}, "bike_id": "1847771a5b5c109c946ac86cdb0e0c6e", "fusion_lat": 0.0}, {"lon": -77.03065983333333, "name": "4a0ff59beae7d496c2b7be789a5407bc", "is_disabled": 0, "type": "electric_scooter", "is_reserved": 0, "fusion_lon": 0.0, "lat": 38.905676166666666, "rental_uris": {"ios": "https://dc.lft.to/lastmile_qr_scan", "android": "https://dc.lft.to/lastmile_qr_scan"}, "bike_id": "4a0ff59beae7d496c2b7be789a5407bc", "fusion_lat": 0.0}, {"lon": -77.05094733333334, "name": "ef61b6b4da487793061ceb0f325c302c", "is_disabled": 0, "type": "electric_bike", "is_reserved": 0, "fusion_lon": 0.0, "lat": 38.813325, "rental_uris": {"ios": "https://dc.lft.to/lastmile_qr_scan", "android": "https://dc.lft.to/lastmile_qr_scan"}, "bike_id": "ef61b6b4da487793061ceb0f325c302c", "fusion_lat": 0.0}, {"lon": -77.02115633333334, "name": "9965d6eeb0b6190c3406531b3f08d324", "is_disabled": 0, "type": "electric_scooter", "is_reserved": 0, "fusion_lon": 0.0, "lat": 38.9174115, "rental_uris": {"ios": "https://dc.lft.to/lastmile_qr_scan", "android": "https://dc.lft.to/lastmile_qr_scan"}, "bike_id": "9965d6eeb0b6190c3406531b3f08d324", "fusion_lat": 0.0}, {"lon": -77.02163833333333, "name": "956e77cbe2c327da373435e96dd8b3f7", "is_disabled": 0, "type": "electric_bike", "is_reserved": 0, "fusion_lon": 0.0, "lat": 38.957464, "rental_uris": {"ios": "https://dc.lft.to/lastmile_qr_scan", "android": "https://dc.lft.to/lastmile_qr_scan"}, "bike_id": "956e77cbe2c327da373435e96dd8b3f7", "fusion_lat": 0.0}, {"lon": -77.00337866666666, "name": "d5d29be52577c54e2031bfc1b6273189", "is_disabled": 0, "type": "electric_scooter", "is_reserved": 0, "fusion_lon": 0.0, "lat": 38.87655433333333, "rental_uris": {"ios": "https://dc.lft.to/lastmile_qr_scan", "android": "https://dc.lft.to/lastmile_qr_scan"}, "bike_id": "d5d29be52577c54e2031bfc1b6273189", "fusion_lat": 0.0}, {"lon": -77.03080516666667, "name": "baf0f9496cb8d27ba03add39c8c5dd1e", "is_disabled": 0, "type": "electric_scooter", "is_reserved": 0, "fusion_lon": 0.0, "lat": 38.9328195, "rental_uris": {"ios": "https://dc.lft.to/lastmile_qr_scan", "android": "https://dc.lft.to/lastmile_qr_scan"}, "bike_id": "baf0f9496cb8d27ba03add39c8c5dd1e", "fusion_lat": 0.0}, {"lon": -77.02026333333333, "name": "db6c1a9ce11ea3cfd0808e3515af3db9", "is_disabled": 0, "type": "electric_scooter", "is_reserved": 0, "fusion_lon": 0.0, "lat": 38.92126566666666, "rental_uris": {"ios": "https://dc.lft.to/lastmile_qr_scan", "android": "https://dc.lft.to/lastmile_qr_scan"}, "bike_id": "db6c1a9ce11ea3cfd0808e3515af3db9", "fusion_lat": 0.0}, {"lon": -77.03194366666666, "name": "5d95316591aeaf68a2a048b90b20434c", "is_disabled": 0, "type": "electric_scooter", "is_reserved": 0, "fusion_lon": 0.0, "lat": 38.91228533333334, "rental_uris": {"ios": "https://dc.lft.to/lastmile_qr_scan", "android": "https://dc.lft.to/lastmile_qr_scan"}, "bike_id": "5d95316591aeaf68a2a048b90b20434c", "fusion_lat": 0.0}, {"lon": -77.033816, "name": "514e4bd60f8b68a64e22744aa7b240d7", "is_disabled": 0, "type": "electric_scooter", "is_reserved": 0, "fusion_lon": 0.0, "lat": 38.921551, "rental_uris": {"ios": "https://dc.lft.to/lastmile_qr_scan", "android": "https://dc.lft.to/lastmile_qr_scan"}, "bike_id": "514e4bd60f8b68a64e22744aa7b240d7", "fusion_lat": 0.0}, {"lon": -77.009624, "name": "3e60f5a2abc0dd50cd65a59e034ae3f4", "is_disabled": 0, "type": "electric_scooter", "is_reserved": 0, "fusion_lon": 0.0, "lat": 38.876335, "rental_uris": {"ios": "https://dc.lft.to/lastmile_qr_scan", "android": "https://dc.lft.to/lastmile_qr_scan"}, "bike_id": "3e60f5a2abc0dd50cd65a59e034ae3f4", "fusion_lat": 0.0}, {"lon": -77.01224316666666, "name": "ffa1ed01c7c9938af3d935719cfd6281", "is_disabled": 0, "type": "electric_scooter", "is_reserved": 0, "fusion_lon": 0.0, "lat": 38.900155, "rental_uris": {"ios": "https://dc.lft.to/lastmile_qr_scan", "android": "https://dc.lft.to/lastmile_qr_scan"}, "bike_id": "ffa1ed01c7c9938af3d935719cfd6281", "fusion_lat": 0.0}, {"lon": -77.051284, "name": "6d8e1b6e015a8a1b4a2cbea8fe1bf1a0", "is_disabled": 0, "type": "electric_scooter", "is_reserved": 0, "fusion_lon": 0.0, "lat": 38.89658566666667, "rental_uris": {"ios": "https://dc.lft.to/lastmile_qr_scan", "android": "https://dc.lft.to/lastmile_qr_scan"}, "bike_id": "6d8e1b6e015a8a1b4a2cbea8fe1bf1a0", "fusion_lat": 0.0}, {"lon": -77.028234, "name": "6b3e7addf34d453680500b4f11d5304a", "is_disabled": 0, "type": "electric_scooter", "is_reserved": 0, "fusion_lon": 0.0, "lat": 38.92231483333333, "rental_uris": {"ios": "https://dc.lft.to/lastmile_qr_scan", "android": "https://dc.lft.to/lastmile_qr_scan"}, "bike_id": "6b3e7addf34d453680500b4f11d5304a", "fusion_lat": 0.0}, {"lon": -77.03283533333334, "name": "f2b9a968f83d86de2f105af0f71bdab2", "is_disabled": 0, "type": "electric_scooter", "is_reserved": 0, "fusion_lon": 0.0, "lat": 38.935408333333335, "rental_uris": {"ios": "https://dc.lft.to/lastmile_qr_scan", "android": "https://dc.lft.to/lastmile_qr_scan"}, "bike_id": "f2b9a968f83d86de2f105af0f71bdab2", "fusion_lat": 0.0}, {"lon": -77.0339965, "name": "46dfdc5e08327412afe5a796bcc061fe", "is_disabled": 0, "type": "electric_scooter", "is_reserved": 0, "fusion_lon": 0.0, "lat": 38.90000466666667, "rental_uris": {"ios": "https://dc.lft.to/lastmile_qr_scan", "android": "https://dc.lft.to/lastmile_qr_scan"}, "bike_id": "46dfdc5e08327412afe5a796bcc061fe", "fusion_lat": 0.0}, {"lon": -76.98451416666667, "name": "207e6e4c2529f8bb56c1fb9c6a88214c", "is_disabled": 0, "type": "electric_scooter", "is_reserved": 0, "fusion_lon": 0.0, "lat": 38.8923815, "rental_uris": {"ios": "https://dc.lft.to/lastmile_qr_scan", "android": "https://dc.lft.to/lastmile_qr_scan"}, "bike_id": "207e6e4c2529f8bb56c1fb9c6a88214c", "fusion_lat": 0.0}, {"lon": -77.034394, "name": "c1c3fe0af3b8565769c5041a85ebc20e", "is_disabled": 0, "type": "electric_scooter", "is_reserved": 0, "fusion_lon": 0.0, "lat": 38.903256999999996, "rental_uris": {"ios": "https://dc.lft.to/lastmile_qr_scan", "android": "https://dc.lft.to/lastmile_qr_scan"}, "bike_id": "c1c3fe0af3b8565769c5041a85ebc20e", "fusion_lat": 0.0}, {"lon": -76.99818733333333, "name": "ce0c081094b182c6da558698e3a87b21", "is_disabled": 0, "type": "electric_scooter", "is_reserved": 0, "fusion_lon": 0.0, "lat": 38.90608566666667, "rental_uris": {"ios": "https://dc.lft.to/lastmile_qr_scan", "android": "https://dc.lft.to/lastmile_qr_scan"}, "bike_id": "ce0c081094b182c6da558698e3a87b21", "fusion_lat": 0.0}, {"lon": -77.02079433333333, "name": "392609559214b0db2b64b84d54ad934e", "is_disabled": 0, "type": "electric_scooter", "is_reserved": 0, "fusion_lon": 0.0, "lat": 38.92287316666667, "rental_uris": {"ios": "https://dc.lft.to/lastmile_qr_scan", "android": "https://dc.lft.to/lastmile_qr_scan"}, "bike_id": "392609559214b0db2b64b84d54ad934e", "fusion_lat": 0.0}, {"lon": -77.03666383333334, "name": "bbaa0b7adcff236b2de629bd6f5b171c", "is_disabled": 0, "type": "electric_scooter", "is_reserved": 0, "fusion_lon": 0.0, "lat": 38.92329466666666, "rental_uris": {"ios": "https://dc.lft.to/lastmile_qr_scan", "android": "https://dc.lft.to/lastmile_qr_scan"}, "bike_id": "bbaa0b7adcff236b2de629bd6f5b171c", "fusion_lat": 0.0}, {"lon": -77.01953683333333, "name": "d24f9baa35125334d9f0ee60ff61cc80", "is_disabled": 0, "type": "electric_scooter", "is_reserved": 0, "fusion_lon": 0.0, "lat": 38.92265166666667, "rental_uris": {"ios": "https://dc.lft.to/lastmile_qr_scan", "android": "https://dc.lft.to/lastmile_qr_scan"}, "bike_id": "d24f9baa35125334d9f0ee60ff61cc80", "fusion_lat": 0.0}, {"lon": -77.04360983333333, "name": "6b8a37cb62fea8407b488d459d4f9bcf", "is_disabled": 0, "type": "electric_scooter", "is_reserved": 0, "fusion_lon": 0.0, "lat": 38.920732, "rental_uris": {"ios": "https://dc.lft.to/lastmile_qr_scan", "android": "https://dc.lft.to/lastmile_qr_scan"}, "bike_id": "6b8a37cb62fea8407b488d459d4f9bcf", "fusion_lat": 0.0}, {"lon": -77.02514366666666, "name": "672e684bc25b1fee9bba56cb2d174ea9", "is_disabled": 0, "type": "electric_scooter", "is_reserved": 0, "fusion_lon": 0.0, "lat": 38.904233, "rental_uris": {"ios": "https://dc.lft.to/lastmile_qr_scan", "android": "https://dc.lft.to/lastmile_qr_scan"}, "bike_id": "672e684bc25b1fee9bba56cb2d174ea9", "fusion_lat": 0.0}, {"lon": -77.02046366666667, "name": "9d263c1d014e71c40547d1cf809988a4", "is_disabled": 0, "type": "electric_scooter", "is_reserved": 0, "fusion_lon": 0.0, "lat": 38.898796833333336, "rental_uris": {"ios": "https://dc.lft.to/lastmile_qr_scan", "android": "https://dc.lft.to/lastmile_qr_scan"}, "bike_id": "9d263c1d014e71c40547d1cf809988a4", "fusion_lat": 0.0}, {"lon": -76.98347233333334, "name": "64396421e0ae98ca902e923336c96e18", "is_disabled": 0, "type": "electric_bike", "is_reserved": 0, "fusion_lon": 0.0, "lat": 38.862702666666664, "rental_uris": {"ios": "https://dc.lft.to/lastmile_qr_scan", "android": "https://dc.lft.to/lastmile_qr_scan"}, "bike_id": "64396421e0ae98ca902e923336c96e18", "fusion_lat": 0.0}, {"lon": -77.04994683333334, "name": "f1b085bb6e0dd411ee0cebdfa58e376a", "is_disabled": 0, "type": "electric_scooter", "is_reserved": 0, "fusion_lon": 0.0, "lat": 38.8923035, "rental_uris": {"ios": "https://dc.lft.to/lastmile_qr_scan", "android": "https://dc.lft.to/lastmile_qr_scan"}, "bike_id": "f1b085bb6e0dd411ee0cebdfa58e376a", "fusion_lat": 0.0}, {"lon": -76.97949716666666, "name": "a87e94df1b0ba9298007812513b61b68", "is_disabled": 0, "type": "electric_bike", "is_reserved": 0, "fusion_lon": 0.0, "lat": 38.92040466666667, "rental_uris": {"ios": "https://dc.lft.to/lastmile_qr_scan", "android": "https://dc.lft.to/lastmile_qr_scan"}, "bike_id": "a87e94df1b0ba9298007812513b61b68", "fusion_lat": 0.0}, {"lon": -77.02222816666666, "name": "a9ca5b571b31c2c2b7be116413c7f1b7", "is_disabled": 0, "type": "electric_scooter", "is_reserved": 0, "fusion_lon": 0.0, "lat": 38.92481683333333, "rental_uris": {"ios": "https://dc.lft.to/lastmile_qr_scan", "android": "https://dc.lft.to/lastmile_qr_scan"}, "bike_id": "a9ca5b571b31c2c2b7be116413c7f1b7", "fusion_lat": 0.0}, {"lon": -77.02177716666667, "name": "e914fc00905d5533eb30a5b1fddaa213", "is_disabled": 0, "type": "electric_scooter", "is_reserved": 0, "fusion_lon": 0.0, "lat": 38.92098216666667, "rental_uris": {"ios": "https://dc.lft.to/lastmile_qr_scan", "android": "https://dc.lft.to/lastmile_qr_scan"}, "bike_id": "e914fc00905d5533eb30a5b1fddaa213", "fusion_lat": 0.0}, {"lon": -77.03172983333333, "name": "a21ae2fd63eaa2bfe937e21acd51b8f3", "is_disabled": 0, "type": "electric_scooter", "is_reserved": 0, "fusion_lon": 0.0, "lat": 38.89231433333333, "rental_uris": {"ios": "https://dc.lft.to/lastmile_qr_scan", "android": "https://dc.lft.to/lastmile_qr_scan"}, "bike_id": "a21ae2fd63eaa2bfe937e21acd51b8f3", "fusion_lat": 0.0}, {"lon": -76.9577015, "name": "ef0a1d4357ec3cf170bbac2991e3bf67", "is_disabled": 0, "type": "electric_scooter", "is_reserved": 0, "fusion_lon": 0.0, "lat": 38.88358266666667, "rental_uris": {"ios": "https://dc.lft.to/lastmile_qr_scan", "android": "https://dc.lft.to/lastmile_qr_scan"}, "bike_id": "ef0a1d4357ec3cf170bbac2991e3bf67", "fusion_lat": 0.0}, {"lon": -77.00703083333333, "name": "7187300693d46b7223d8e290d9d07225", "is_disabled": 0, "type": "electric_scooter", "is_reserved": 0, "fusion_lon": 0.0, "lat": 38.9073325, "rental_uris": {"ios": "https://dc.lft.to/lastmile_qr_scan", "android": "https://dc.lft.to/lastmile_qr_scan"}, "bike_id": "7187300693d46b7223d8e290d9d07225", "fusion_lat": 0.0}, {"lon": -77.007841, "name": "1d09862900d9374d4a06aad64926d8fd", "is_disabled": 0, "type": "electric_scooter", "is_reserved": 0, "fusion_lon": 0.0, "lat": 38.92668366666667, "rental_uris": {"ios": "https://dc.lft.to/lastmile_qr_scan", "android": "https://dc.lft.to/lastmile_qr_scan"}, "bike_id": "1d09862900d9374d4a06aad64926d8fd", "fusion_lat": 0.0}, {"lon": -77.022955, "name": "82b26772ab15048281e9b4f6675dedeb", "is_disabled": 0, "type": "electric_scooter", "is_reserved": 0, "fusion_lon": 0.0, "lat": 38.917761666666664, "rental_uris": {"ios": "https://dc.lft.to/lastmile_qr_scan", "android": "https://dc.lft.to/lastmile_qr_scan"}, "bike_id": "82b26772ab15048281e9b4f6675dedeb", "fusion_lat": 0.0}, {"lon": -77.027943, "name": "48a300629c30c78007b24d0ce01320ef", "is_disabled": 0, "type": "electric_scooter", "is_reserved": 0, "fusion_lon": 0.0, "lat": 38.94180866666667, "rental_uris": {"ios": "https://dc.lft.to/lastmile_qr_scan", "android": "https://dc.lft.to/lastmile_qr_scan"}, "bike_id": "48a300629c30c78007b24d0ce01320ef", "fusion_lat": 0.0}, {"lon": -76.99505633333334, "name": "8db2d5f9b6e615bcd629527bbc60dd59", "is_disabled": 0, "type": "electric_scooter", "is_reserved": 0, "fusion_lon": 0.0, "lat": 38.880076333333335, "rental_uris": {"ios": "https://dc.lft.to/lastmile_qr_scan", "android": "https://dc.lft.to/lastmile_qr_scan"}, "bike_id": "8db2d5f9b6e615bcd629527bbc60dd59", "fusion_lat": 0.0}, {"lon": -77.03291033333333, "name": "02547bda00a6465ea72081f60c631a7b", "is_disabled": 0, "type": "electric_scooter", "is_reserved": 0, "fusion_lon": 0.0, "lat": 38.9351845, "rental_uris": {"ios": "https://dc.lft.to/lastmile_qr_scan", "android": "https://dc.lft.to/lastmile_qr_scan"}, "bike_id": "02547bda00a6465ea72081f60c631a7b", "fusion_lat": 0.0}, {"lon": -77.031775, "name": "4d5cb8e82daf711912489ff0bec669a6", "is_disabled": 0, "type": "electric_scooter", "is_reserved": 0, "fusion_lon": 0.0, "lat": 38.914340833333334, "rental_uris": {"ios": "https://dc.lft.to/lastmile_qr_scan", "android": "https://dc.lft.to/lastmile_qr_scan"}, "bike_id": "4d5cb8e82daf711912489ff0bec669a6", "fusion_lat": 0.0}, {"lon": -76.94723383333333, "name": "222f9331c708c3e8fe8319795904ae9a", "is_disabled": 0, "type": "electric_bike", "is_reserved": 0, "fusion_lon": 0.0, "lat": 38.98383166666667, "rental_uris": {"ios": "https://dc.lft.to/lastmile_qr_scan", "android": "https://dc.lft.to/lastmile_qr_scan"}, "bike_id": "222f9331c708c3e8fe8319795904ae9a", "fusion_lat": 0.0}, {"lon": -77.038798, "name": "6dec12cb94f02994e553598200328e8c", "is_disabled": 0, "type": "electric_scooter", "is_reserved": 0, "fusion_lon": 0.0, "lat": 38.917619333333334, "rental_uris": {"ios": "https://dc.lft.to/lastmile_qr_scan", "android": "https://dc.lft.to/lastmile_qr_scan"}, "bike_id": "6dec12cb94f02994e553598200328e8c", "fusion_lat": 0.0}, {"lon": -77.076426, "name": "c1bf1c28d6572dbcadfcc92d8664fd77", "is_disabled": 0, "type": "electric_scooter", "is_reserved": 0, "fusion_lon": 0.0, "lat": 38.923599833333334, "rental_uris": {"ios": "https://dc.lft.to/lastmile_qr_scan", "android": "https://dc.lft.to/lastmile_qr_scan"}, "bike_id": "c1bf1c28d6572dbcadfcc92d8664fd77", "fusion_lat": 0.0}, {"lon": -77.00206016666667, "name": "698646c2c7e3b6585d8e5cb4e1663d8d", "is_disabled": 0, "type": "electric_scooter", "is_reserved": 0, "fusion_lon": 0.0, "lat": 38.905178166666666, "rental_uris": {"ios": "https://dc.lft.to/lastmile_qr_scan", "android": "https://dc.lft.to/lastmile_qr_scan"}, "bike_id": "698646c2c7e3b6585d8e5cb4e1663d8d", "fusion_lat": 0.0}, {"lon": -77.01251716666667, "name": "0dec311fc879a1a487b1a7247b3f3887", "is_disabled": 0, "type": "electric_scooter", "is_reserved": 0, "fusion_lon": 0.0, "lat": 38.915777166666665, "rental_uris": {"ios": "https://dc.lft.to/lastmile_qr_scan", "android": "https://dc.lft.to/lastmile_qr_scan"}, "bike_id": "0dec311fc879a1a487b1a7247b3f3887", "fusion_lat": 0.0}, {"lon": -77.00743316666667, "name": "90513e192e5d5ea6fc08da1228221fa4", "is_disabled": 0, "type": "electric_scooter", "is_reserved": 0, "fusion_lon": 0.0, "lat": 38.909675166666666, "rental_uris": {"ios": "https://dc.lft.to/lastmile_qr_scan", "android": "https://dc.lft.to/lastmile_qr_scan"}, "bike_id": "90513e192e5d5ea6fc08da1228221fa4", "fusion_lat": 0.0}, {"lon": -77.0021015, "name": "98e99867b32386fbbd46ca3a326b8844", "is_disabled": 0, "type": "electric_scooter", "is_reserved": 0, "fusion_lon": 0.0, "lat": 38.924587, "rental_uris": {"ios": "https://dc.lft.to/lastmile_qr_scan", "android": "https://dc.lft.to/lastmile_qr_scan"}, "bike_id": "98e99867b32386fbbd46ca3a326b8844", "fusion_lat": 0.0}, {"lon": -77.0468615, "name": "78c61826e9f49d379ccc0b11d6e0e3f8", "is_disabled": 0, "type": "electric_scooter", "is_reserved": 0, "fusion_lon": 0.0, "lat": 38.892247833333336, "rental_uris": {"ios": "https://dc.lft.to/lastmile_qr_scan", "android": "https://dc.lft.to/lastmile_qr_scan"}, "bike_id": "78c61826e9f49d379ccc0b11d6e0e3f8", "fusion_lat": 0.0}, {"lon": -77.0245545, "name": "56a8787d2530510ea7801e72807ee261", "is_disabled": 0, "type": "electric_scooter", "is_reserved": 0, "fusion_lon": 0.0, "lat": 38.91826283333333, "rental_uris": {"ios": "https://dc.lft.to/lastmile_qr_scan", "android": "https://dc.lft.to/lastmile_qr_scan"}, "bike_id": "56a8787d2530510ea7801e72807ee261", "fusion_lat": 0.0}, {"lon": -76.97853383333333, "name": "4d941c41540f1b82d59c0c45d39c910c", "is_disabled": 0, "type": "electric_scooter", "is_reserved": 0, "fusion_lon": 0.0, "lat": 38.8971945, "rental_uris": {"ios": "https://dc.lft.to/lastmile_qr_scan", "android": "https://dc.lft.to/lastmile_qr_scan"}, "bike_id": "4d941c41540f1b82d59c0c45d39c910c", "fusion_lat": 0.0}, {"lon": -77.01675366666667, "name": "0f540b26a6338fdae171d1495c8d2073", "is_disabled": 0, "type": "electric_bike", "is_reserved": 0, "fusion_lon": 0.0, "lat": 38.881157, "rental_uris": {"ios": "https://dc.lft.to/lastmile_qr_scan", "android": "https://dc.lft.to/lastmile_qr_scan"}, "bike_id": "0f540b26a6338fdae171d1495c8d2073", "fusion_lat": 0.0}, {"lon": -77.002007, "name": "b36ecd9f593417b88e6bb120e406fd31", "is_disabled": 0, "type": "electric_scooter", "is_reserved": 0, "fusion_lon": 0.0, "lat": 38.911907166666666, "rental_uris": {"ios": "https://dc.lft.to/lastmile_qr_scan", "android": "https://dc.lft.to/lastmile_qr_scan"}, "bike_id": "b36ecd9f593417b88e6bb120e406fd31", "fusion_lat": 0.0}, {"lon": -77.02131033333333, "name": "1f7ade3f91883b5bd27f0445c74bdd1b", "is_disabled": 0, "type": "electric_scooter", "is_reserved": 0, "fusion_lon": 0.0, "lat": 38.93120716666667, "rental_uris": {"ios": "https://dc.lft.to/lastmile_qr_scan", "android": "https://dc.lft.to/lastmile_qr_scan"}, "bike_id": "1f7ade3f91883b5bd27f0445c74bdd1b", "fusion_lat": 0.0}, {"lon": -76.97080116666666, "name": "ae9e020d3da20c8c7db6e753f2d47805", "is_disabled": 0, "type": "electric_scooter", "is_reserved": 0, "fusion_lon": 0.0, "lat": 38.8694465, "rental_uris": {"ios": "https://dc.lft.to/lastmile_qr_scan", "android": "https://dc.lft.to/lastmile_qr_scan"}, "bike_id": "ae9e020d3da20c8c7db6e753f2d47805", "fusion_lat": 0.0}, {"lon": -76.98594733333333, "name": "6e89f62f85a721d4af3e2c2de47cbf19", "is_disabled": 0, "type": "electric_scooter", "is_reserved": 0, "fusion_lon": 0.0, "lat": 38.900272333333334, "rental_uris": {"ios": "https://dc.lft.to/lastmile_qr_scan", "android": "https://dc.lft.to/lastmile_qr_scan"}, "bike_id": "6e89f62f85a721d4af3e2c2de47cbf19", "fusion_lat": 0.0}, {"lon": -77.03181283333333, "name": "4d4559339f890b4d75e773798496b527", "is_disabled": 0, "type": "electric_scooter", "is_reserved": 0, "fusion_lon": 0.0, "lat": 38.9119405, "rental_uris": {"ios": "https://dc.lft.to/lastmile_qr_scan", "android": "https://dc.lft.to/lastmile_qr_scan"}, "bike_id": "4d4559339f890b4d75e773798496b527", "fusion_lat": 0.0}, {"lon": -77.0390005, "name": "9f60fd5b0e5e920c93cae6ddc39961e7", "is_disabled": 0, "type": "electric_scooter", "is_reserved": 0, "fusion_lon": 0.0, "lat": 38.9184165, "rental_uris": {"ios": "https://dc.lft.to/lastmile_qr_scan", "android": "https://dc.lft.to/lastmile_qr_scan"}, "bike_id": "9f60fd5b0e5e920c93cae6ddc39961e7", "fusion_lat": 0.0}, {"lon": -77.05478066666667, "name": "744f5782166fff8d864e1b97677af5d5", "is_disabled": 0, "type": "electric_scooter", "is_reserved": 0, "fusion_lon": 0.0, "lat": 38.897342, "rental_uris": {"ios": "https://dc.lft.to/lastmile_qr_scan", "android": "https://dc.lft.to/lastmile_qr_scan"}, "bike_id": "744f5782166fff8d864e1b97677af5d5", "fusion_lat": 0.0}, {"lon": -77.02214066666667, "name": "7e9ea8b1aa959f845a3da942fcaf01fb", "is_disabled": 0, "type": "electric_scooter", "is_reserved": 0, "fusion_lon": 0.0, "lat": 38.924754666666665, "rental_uris": {"ios": "https://dc.lft.to/lastmile_qr_scan", "android": "https://dc.lft.to/lastmile_qr_scan"}, "bike_id": "7e9ea8b1aa959f845a3da942fcaf01fb", "fusion_lat": 0.0}, {"lon": -77.023791, "name": "e279eccfdec6c29fdcff93b3c41d28be", "is_disabled": 0, "type": "electric_scooter", "is_reserved": 0, "fusion_lon": 0.0, "lat": 38.902117833333335, "rental_uris": {"ios": "https://dc.lft.to/lastmile_qr_scan", "android": "https://dc.lft.to/lastmile_qr_scan"}, "bike_id": "e279eccfdec6c29fdcff93b3c41d28be", "fusion_lat": 0.0}, {"lon": -77.01903833333333, "name": "941e580fbfd487bd22da422ba25da050", "is_disabled": 0, "type": "electric_scooter", "is_reserved": 0, "fusion_lon": 0.0, "lat": 38.923469833333336, "rental_uris": {"ios": "https://dc.lft.to/lastmile_qr_scan", "android": "https://dc.lft.to/lastmile_qr_scan"}, "bike_id": "941e580fbfd487bd22da422ba25da050", "fusion_lat": 0.0}, {"lon": -77.03181583333334, "name": "41b3c19998be7c73e77aa83c30b04d1b", "is_disabled": 0, "type": "electric_scooter", "is_reserved": 0, "fusion_lon": 0.0, "lat": 38.89244633333333, "rental_uris": {"ios": "https://dc.lft.to/lastmile_qr_scan", "android": "https://dc.lft.to/lastmile_qr_scan"}, "bike_id": "41b3c19998be7c73e77aa83c30b04d1b", "fusion_lat": 0.0}, {"lon": -77.0326295, "name": "20bd7b06e7d3b533740b277e86b1eeba", "is_disabled": 0, "type": "electric_scooter", "is_reserved": 0, "fusion_lon": 0.0, "lat": 38.93445783333333, "rental_uris": {"ios": "https://dc.lft.to/lastmile_qr_scan", "android": "https://dc.lft.to/lastmile_qr_scan"}, "bike_id": "20bd7b06e7d3b533740b277e86b1eeba", "fusion_lat": 0.0}, {"lon": -76.98843933333333, "name": "c99daa15ab074420f24fbb71fceeae73", "is_disabled": 0, "type": "electric_scooter", "is_reserved": 0, "fusion_lon": 0.0, "lat": 38.892511666666664, "rental_uris": {"ios": "https://dc.lft.to/lastmile_qr_scan", "android": "https://dc.lft.to/lastmile_qr_scan"}, "bike_id": "c99daa15ab074420f24fbb71fceeae73", "fusion_lat": 0.0}, {"lon": -76.98337966666666, "name": "960409a42d1225c9a0543941895b1e34", "is_disabled": 0, "type": "electric_scooter", "is_reserved": 0, "fusion_lon": 0.0, "lat": 38.895488666666665, "rental_uris": {"ios": "https://dc.lft.to/lastmile_qr_scan", "android": "https://dc.lft.to/lastmile_qr_scan"}, "bike_id": "960409a42d1225c9a0543941895b1e34", "fusion_lat": 0.0}, {"lon": -77.03225833333333, "name": "0f7628bfd6101b51b149b6a265031ee9", "is_disabled": 0, "type": "electric_scooter", "is_reserved": 0, "fusion_lon": 0.0, "lat": 38.92361233333333, "rental_uris": {"ios": "https://dc.lft.to/lastmile_qr_scan", "android": "https://dc.lft.to/lastmile_qr_scan"}, "bike_id": "0f7628bfd6101b51b149b6a265031ee9", "fusion_lat": 0.0}, {"lon": -77.08403433333334, "name": "dd13302b6efcad7e872f01edc57479e2", "is_disabled": 0, "type": "electric_bike", "is_reserved": 0, "fusion_lon": 0.0, "lat": 38.832865, "rental_uris": {"ios": "https://dc.lft.to/lastmile_qr_scan", "android": "https://dc.lft.to/lastmile_qr_scan"}, "bike_id": "dd13302b6efcad7e872f01edc57479e2", "fusion_lat": 0.0}, {"lon": -77.032594, "name": "d6d437b3f1acde6d4b7602bf77ea6c1e", "is_disabled": 0, "type": "electric_scooter", "is_reserved": 0, "fusion_lon": 0.0, "lat": 38.93259183333333, "rental_uris": {"ios": "https://dc.lft.to/lastmile_qr_scan", "android": "https://dc.lft.to/lastmile_qr_scan"}, "bike_id": "d6d437b3f1acde6d4b7602bf77ea6c1e", "fusion_lat": 0.0}, {"lon": -77.03691683333334, "name": "d3597ec8e4f2702335a6a8fd22add2ca", "is_disabled": 0, "type": "electric_scooter", "is_reserved": 0, "fusion_lon": 0.0, "lat": 38.92639883333333, "rental_uris": {"ios": "https://dc.lft.to/lastmile_qr_scan", "android": "https://dc.lft.to/lastmile_qr_scan"}, "bike_id": "d3597ec8e4f2702335a6a8fd22add2ca", "fusion_lat": 0.0}, {"lon": -77.02788583333333, "name": "da36deee0ac91a43d8b7a7b4c798f665", "is_disabled": 0, "type": "electric_scooter", "is_reserved": 0, "fusion_lon": 0.0, "lat": 38.93187483333333, "rental_uris": {"ios": "https://dc.lft.to/lastmile_qr_scan", "android": "https://dc.lft.to/lastmile_qr_scan"}, "bike_id": "da36deee0ac91a43d8b7a7b4c798f665", "fusion_lat": 0.0}, {"lon": -77.0219405, "name": "801209680ad0280653c08b83272e6719", "is_disabled": 0, "type": "electric_scooter", "is_reserved": 0, "fusion_lon": 0.0, "lat": 38.92479433333333, "rental_uris": {"ios": "https://dc.lft.to/lastmile_qr_scan", "android": "https://dc.lft.to/lastmile_qr_scan"}, "bike_id": "801209680ad0280653c08b83272e6719", "fusion_lat": 0.0}, {"lon": -77.02303383333333, "name": "6f73abb945f78362ad129edcfb4e4007", "is_disabled": 0, "type": "electric_scooter", "is_reserved": 0, "fusion_lon": 0.0, "lat": 38.9179245, "rental_uris": {"ios": "https://dc.lft.to/lastmile_qr_scan", "android": "https://dc.lft.to/lastmile_qr_scan"}, "bike_id": "6f73abb945f78362ad129edcfb4e4007", "fusion_lat": 0.0}, {"lon": -77.02565183333333, "name": "ad40d83e47fa6a85ef8492cdb522bb19", "is_disabled": 0, "type": "electric_scooter", "is_reserved": 0, "fusion_lon": 0.0, "lat": 38.903217166666664, "rental_uris": {"ios": "https://dc.lft.to/lastmile_qr_scan", "android": "https://dc.lft.to/lastmile_qr_scan"}, "bike_id": "ad40d83e47fa6a85ef8492cdb522bb19", "fusion_lat": 0.0}, {"lon": -76.9856575, "name": "53b03f74509b5f436992801b4721838a", "is_disabled": 0, "type": "electric_scooter", "is_reserved": 0, "fusion_lon": 0.0, "lat": 38.91281083333333, "rental_uris": {"ios": "https://dc.lft.to/lastmile_qr_scan", "android": "https://dc.lft.to/lastmile_qr_scan"}, "bike_id": "53b03f74509b5f436992801b4721838a", "fusion_lat": 0.0}, {"lon": -76.98550533333334, "name": "074f94da50c9c8895f29f6904adffe8c", "is_disabled": 0, "type": "electric_scooter", "is_reserved": 0, "fusion_lon": 0.0, "lat": 38.897661666666664, "rental_uris": {"ios": "https://dc.lft.to/lastmile_qr_scan", "android": "https://dc.lft.to/lastmile_qr_scan"}, "bike_id": "074f94da50c9c8895f29f6904adffe8c", "fusion_lat": 0.0}, {"lon": -77.02415483333333, "name": "1141e96faf840c54d2ce74a5e45a25dc", "is_disabled": 0, "type": "electric_scooter", "is_reserved": 0, "fusion_lon": 0.0, "lat": 38.9096365, "rental_uris": {"ios": "https://dc.lft.to/lastmile_qr_scan", "android": "https://dc.lft.to/lastmile_qr_scan"}, "bike_id": "1141e96faf840c54d2ce74a5e45a25dc", "fusion_lat": 0.0}, {"lon": -77.07725483333333, "name": "ecfd65dcb89916e778c4715681095ed1", "is_disabled": 0, "type": "electric_scooter", "is_reserved": 0, "fusion_lon": 0.0, "lat": 38.92261416666667, "rental_uris": {"ios": "https://dc.lft.to/lastmile_qr_scan", "android": "https://dc.lft.to/lastmile_qr_scan"}, "bike_id": "ecfd65dcb89916e778c4715681095ed1", "fusion_lat": 0.0}, {"lon": -77.02300933333333, "name": "f054e11884bf2d78471a6d68b1bb4f66", "is_disabled": 0, "type": "electric_scooter", "is_reserved": 0, "fusion_lon": 0.0, "lat": 38.93210216666667, "rental_uris": {"ios": "https://dc.lft.to/lastmile_qr_scan", "android": "https://dc.lft.to/lastmile_qr_scan"}, "bike_id": "f054e11884bf2d78471a6d68b1bb4f66", "fusion_lat": 0.0}, {"lon": -77.033419, "name": "3350702339584b0dba0739d5024bd7e6", "is_disabled": 0, "type": "electric_scooter", "is_reserved": 0, "fusion_lon": 0.0, "lat": 38.89996983333333, "rental_uris": {"ios": "https://dc.lft.to/lastmile_qr_scan", "android": "https://dc.lft.to/lastmile_qr_scan"}, "bike_id": "3350702339584b0dba0739d5024bd7e6", "fusion_lat": 0.0}, {"lon": -77.01764583333333, "name": "ccd4b007367ee802a67c94742b6aaa1d", "is_disabled": 0, "type": "electric_scooter", "is_reserved": 0, "fusion_lon": 0.0, "lat": 38.9026895, "rental_uris": {"ios": "https://dc.lft.to/lastmile_qr_scan", "android": "https://dc.lft.to/lastmile_qr_scan"}, "bike_id": "ccd4b007367ee802a67c94742b6aaa1d", "fusion_lat": 0.0}, {"lon": -77.0363585, "name": "c29b272f6b71f74d8358de93be6b1383", "is_disabled": 0, "type": "electric_scooter", "is_reserved": 0, "fusion_lon": 0.0, "lat": 38.92748983333333, "rental_uris": {"ios": "https://dc.lft.to/lastmile_qr_scan", "android": "https://dc.lft.to/lastmile_qr_scan"}, "bike_id": "c29b272f6b71f74d8358de93be6b1383", "fusion_lat": 0.0}, {"lon": -77.03203883333333, "name": "84d81e34714467b6f332360a30c54785", "is_disabled": 0, "type": "electric_scooter", "is_reserved": 0, "fusion_lon": 0.0, "lat": 38.916051333333336, "rental_uris": {"ios": "https://dc.lft.to/lastmile_qr_scan", "android": "https://dc.lft.to/lastmile_qr_scan"}, "bike_id": "84d81e34714467b6f332360a30c54785", "fusion_lat": 0.0}, {"lon": -76.99911316666666, "name": "86af1accffd98321560a9751b0eb024d", "is_disabled": 0, "type": "electric_scooter", "is_reserved": 0, "fusion_lon": 0.0, "lat": 38.896045, "rental_uris": {"ios": "https://dc.lft.to/lastmile_qr_scan", "android": "https://dc.lft.to/lastmile_qr_scan"}, "bike_id": "86af1accffd98321560a9751b0eb024d", "fusion_lat": 0.0}, {"lon": -77.06260416666667, "name": "7175383c63c934572a1d6b74910cc31b", "is_disabled": 0, "type": "electric_scooter", "is_reserved": 0, "fusion_lon": 0.0, "lat": 38.90597183333333, "rental_uris": {"ios": "https://dc.lft.to/lastmile_qr_scan", "android": "https://dc.lft.to/lastmile_qr_scan"}, "bike_id": "7175383c63c934572a1d6b74910cc31b", "fusion_lat": 0.0}, {"lon": -77.039173, "name": "55bd2a33491f1a3c06971241db698cf4", "is_disabled": 0, "type": "electric_scooter", "is_reserved": 0, "fusion_lon": 0.0, "lat": 38.92480316666666, "rental_uris": {"ios": "https://dc.lft.to/lastmile_qr_scan", "android": "https://dc.lft.to/lastmile_qr_scan"}, "bike_id": "55bd2a33491f1a3c06971241db698cf4", "fusion_lat": 0.0}, {"lon": -77.03457916666666, "name": "88088a0ac9eda5e74cd4c8f04fbc9c13", "is_disabled": 0, "type": "electric_scooter", "is_reserved": 0, "fusion_lon": 0.0, "lat": 38.9064515, "rental_uris": {"ios": "https://dc.lft.to/lastmile_qr_scan", "android": "https://dc.lft.to/lastmile_qr_scan"}, "bike_id": "88088a0ac9eda5e74cd4c8f04fbc9c13", "fusion_lat": 0.0}, {"lon": -77.04758766666667, "name": "1933dab96d01207dda173cea3f4f045a", "is_disabled": 0, "type": "electric_scooter", "is_reserved": 0, "fusion_lon": 0.0, "lat": 38.911286, "rental_uris": {"ios": "https://dc.lft.to/lastmile_qr_scan", "android": "https://dc.lft.to/lastmile_qr_scan"}, "bike_id": "1933dab96d01207dda173cea3f4f045a", "fusion_lat": 0.0}, {"lon": -77.03528166666666, "name": "ede1963762676275b441f15948627c3a", "is_disabled": 0, "type": "electric_scooter", "is_reserved": 0, "fusion_lon": 0.0, "lat": 38.908682, "rental_uris": {"ios": "https://dc.lft.to/lastmile_qr_scan", "android": "https://dc.lft.to/lastmile_qr_scan"}, "bike_id": "ede1963762676275b441f15948627c3a", "fusion_lat": 0.0}, {"lon": -77.02809283333333, "name": "e454520b3a717e77500b3a3d783773ae", "is_disabled": 0, "type": "electric_scooter", "is_reserved": 0, "fusion_lon": 0.0, "lat": 38.907059833333335, "rental_uris": {"ios": "https://dc.lft.to/lastmile_qr_scan", "android": "https://dc.lft.to/lastmile_qr_scan"}, "bike_id": "e454520b3a717e77500b3a3d783773ae", "fusion_lat": 0.0}, {"lon": -77.11471783333333, "name": "86fa9a64286e67710925ee419d9bd17f", "is_disabled": 0, "type": "electric_bike", "is_reserved": 0, "fusion_lon": 0.0, "lat": 38.858360833333336, "rental_uris": {"ios": "https://dc.lft.to/lastmile_qr_scan", "android": "https://dc.lft.to/lastmile_qr_scan"}, "bike_id": "86fa9a64286e67710925ee419d9bd17f", "fusion_lat": 0.0}, {"lon": -77.02811366666667, "name": "6d0803a3ff5379a5208916b150643871", "is_disabled": 0, "type": "electric_scooter", "is_reserved": 0, "fusion_lon": 0.0, "lat": 38.907099, "rental_uris": {"ios": "https://dc.lft.to/lastmile_qr_scan", "android": "https://dc.lft.to/lastmile_qr_scan"}, "bike_id": "6d0803a3ff5379a5208916b150643871", "fusion_lat": 0.0}, {"lon": -77.0204935, "name": "50aad2e5440959ee4216110f394a4d8f", "is_disabled": 0, "type": "electric_scooter", "is_reserved": 0, "fusion_lon": 0.0, "lat": 38.927715166666665, "rental_uris": {"ios": "https://dc.lft.to/lastmile_qr_scan", "android": "https://dc.lft.to/lastmile_qr_scan"}, "bike_id": "50aad2e5440959ee4216110f394a4d8f", "fusion_lat": 0.0}, {"lon": -77.01916233333333, "name": "a4c69b7dd3735271ee8503cf9910d2c6", "is_disabled": 0, "type": "electric_scooter", "is_reserved": 0, "fusion_lon": 0.0, "lat": 38.923677, "rental_uris": {"ios": "https://dc.lft.to/lastmile_qr_scan", "android": "https://dc.lft.to/lastmile_qr_scan"}, "bike_id": "a4c69b7dd3735271ee8503cf9910d2c6", "fusion_lat": 0.0}, {"lon": -77.01614033333334, "name": "d6141cf62ea31045c244829492c64556", "is_disabled": 0, "type": "electric_bike", "is_reserved": 0, "fusion_lon": 0.0, "lat": 38.949457, "rental_uris": {"ios": "https://dc.lft.to/lastmile_qr_scan", "android": "https://dc.lft.to/lastmile_qr_scan"}, "bike_id": "d6141cf62ea31045c244829492c64556", "fusion_lat": 0.0}, {"lon": -77.08018566666667, "name": "bda1d6b0eb76e8b0bc50eb12b492ac98", "is_disabled": 0, "type": "electric_bike", "is_reserved": 0, "fusion_lon": 0.0, "lat": 38.95774816666667, "rental_uris": {"ios": "https://dc.lft.to/lastmile_qr_scan", "android": "https://dc.lft.to/lastmile_qr_scan"}, "bike_id": "bda1d6b0eb76e8b0bc50eb12b492ac98", "fusion_lat": 0.0}, {"lon": -77.03696633333334, "name": "c416791c8100ec752e07790d5f3f3890", "is_disabled": 0, "type": "electric_scooter", "is_reserved": 0, "fusion_lon": 0.0, "lat": 38.930710166666664, "rental_uris": {"ios": "https://dc.lft.to/lastmile_qr_scan", "android": "https://dc.lft.to/lastmile_qr_scan"}, "bike_id": "c416791c8100ec752e07790d5f3f3890", "fusion_lat": 0.0}, {"lon": -77.02758916666667, "name": "b70c0d25276bbda7f620f831900b943e", "is_disabled": 0, "type": "electric_scooter", "is_reserved": 0, "fusion_lon": 0.0, "lat": 38.925832666666665, "rental_uris": {"ios": "https://dc.lft.to/lastmile_qr_scan", "android": "https://dc.lft.to/lastmile_qr_scan"}, "bike_id": "b70c0d25276bbda7f620f831900b943e", "fusion_lat": 0.0}, {"lon": -77.003566, "name": "e8b629f5527a351d49abf656822f44ac", "is_disabled": 0, "type": "electric_scooter", "is_reserved": 0, "fusion_lon": 0.0, "lat": 38.917684, "rental_uris": {"ios": "https://dc.lft.to/lastmile_qr_scan", "android": "https://dc.lft.to/lastmile_qr_scan"}, "bike_id": "e8b629f5527a351d49abf656822f44ac", "fusion_lat": 0.0}, {"lon": -76.990975, "name": "ce016fd8cf7bcdb085752b13e55a19f6", "is_disabled": 0, "type": "electric_bike", "is_reserved": 0, "fusion_lon": 0.0, "lat": 38.80483516666666, "rental_uris": {"ios": "https://dc.lft.to/lastmile_qr_scan", "android": "https://dc.lft.to/lastmile_qr_scan"}, "bike_id": "ce016fd8cf7bcdb085752b13e55a19f6", "fusion_lat": 0.0}, {"lon": -77.01264266666666, "name": "a34fb0ba59020f3b42e77e30c8de37c2", "is_disabled": 0, "type": "electric_scooter", "is_reserved": 0, "fusion_lon": 0.0, "lat": 38.86467416666667, "rental_uris": {"ios": "https://dc.lft.to/lastmile_qr_scan", "android": "https://dc.lft.to/lastmile_qr_scan"}, "bike_id": "a34fb0ba59020f3b42e77e30c8de37c2", "fusion_lat": 0.0}, {"lon": -77.0319985, "name": "7775b13c28a5603fed95d282672aee42", "is_disabled": 0, "type": "electric_scooter", "is_reserved": 0, "fusion_lon": 0.0, "lat": 38.916421666666665, "rental_uris": {"ios": "https://dc.lft.to/lastmile_qr_scan", "android": "https://dc.lft.to/lastmile_qr_scan"}, "bike_id": "7775b13c28a5603fed95d282672aee42", "fusion_lat": 0.0}, {"lon": -76.9871765, "name": "4852e8bc923183b9021752a9cbb96c3a", "is_disabled": 0, "type": "electric_bike", "is_reserved": 0, "fusion_lon": 0.0, "lat": 38.86341616666667, "rental_uris": {"ios": "https://dc.lft.to/lastmile_qr_scan", "android": "https://dc.lft.to/lastmile_qr_scan"}, "bike_id": "4852e8bc923183b9021752a9cbb96c3a", "fusion_lat": 0.0}, {"lon": -76.9755965, "name": "e542d41ad313eaa0d95dce9a06682b85", "is_disabled": 0, "type": "electric_bike", "is_reserved": 0, "fusion_lon": 0.0, "lat": 38.872694333333335, "rental_uris": {"ios": "https://dc.lft.to/lastmile_qr_scan", "android": "https://dc.lft.to/lastmile_qr_scan"}, "bike_id": "e542d41ad313eaa0d95dce9a06682b85", "fusion_lat": 0.0}, {"lon": -77.03657916666667, "name": "65b91bb54687a801a24d0050ca173e5a", "is_disabled": 0, "type": "electric_scooter", "is_reserved": 0, "fusion_lon": 0.0, "lat": 38.92335883333333, "rental_uris": {"ios": "https://dc.lft.to/lastmile_qr_scan", "android": "https://dc.lft.to/lastmile_qr_scan"}, "bike_id": "65b91bb54687a801a24d0050ca173e5a", "fusion_lat": 0.0}, {"lon": -77.01853483333333, "name": "02c496a5248abc83f9fa19e35577b1f9", "is_disabled": 0, "type": "electric_scooter", "is_reserved": 0, "fusion_lon": 0.0, "lat": 38.94888866666667, "rental_uris": {"ios": "https://dc.lft.to/lastmile_qr_scan", "android": "https://dc.lft.to/lastmile_qr_scan"}, "bike_id": "02c496a5248abc83f9fa19e35577b1f9", "fusion_lat": 0.0}, {"lon": -76.99385033333333, "name": "c6a9471334e909f0fdce20edb4cff048", "is_disabled": 0, "type": "electric_scooter", "is_reserved": 0, "fusion_lon": 0.0, "lat": 38.89339283333333, "rental_uris": {"ios": "https://dc.lft.to/lastmile_qr_scan", "android": "https://dc.lft.to/lastmile_qr_scan"}, "bike_id": "c6a9471334e909f0fdce20edb4cff048", "fusion_lat": 0.0}, {"lon": -77.05474116666667, "name": "71f07a2daec1f28548130d2677055d98", "is_disabled": 0, "type": "electric_scooter", "is_reserved": 0, "fusion_lon": 0.0, "lat": 38.8939245, "rental_uris": {"ios": "https://dc.lft.to/lastmile_qr_scan", "android": "https://dc.lft.to/lastmile_qr_scan"}, "bike_id": "71f07a2daec1f28548130d2677055d98", "fusion_lat": 0.0}, {"lon": -77.041542, "name": "b294f0893764c98a0075303ddc0732e8", "is_disabled": 0, "type": "electric_scooter", "is_reserved": 0, "fusion_lon": 0.0, "lat": 38.906259, "rental_uris": {"ios": "https://dc.lft.to/lastmile_qr_scan", "android": "https://dc.lft.to/lastmile_qr_scan"}, "bike_id": "b294f0893764c98a0075303ddc0732e8", "fusion_lat": 0.0}, {"lon": -77.01555866666666, "name": "056e3a9c552bef821669f74a7697f43e", "is_disabled": 0, "type": "electric_scooter", "is_reserved": 0, "fusion_lon": 0.0, "lat": 38.8922365, "rental_uris": {"ios": "https://dc.lft.to/lastmile_qr_scan", "android": "https://dc.lft.to/lastmile_qr_scan"}, "bike_id": "056e3a9c552bef821669f74a7697f43e", "fusion_lat": 0.0}, {"lon": -76.92503366666666, "name": "0b8602d2a7cf21cb90b1d3a3b26cbb4b", "is_disabled": 0, "type": "electric_scooter", "is_reserved": 0, "fusion_lon": 0.0, "lat": 38.8860805, "rental_uris": {"ios": "https://dc.lft.to/lastmile_qr_scan", "android": "https://dc.lft.to/lastmile_qr_scan"}, "bike_id": "0b8602d2a7cf21cb90b1d3a3b26cbb4b", "fusion_lat": 0.0}, {"lon": -77.05697983333333, "name": "a782cb2611c8ad65c1b126596f25ab56", "is_disabled": 0, "type": "electric_scooter", "is_reserved": 0, "fusion_lon": 0.0, "lat": 38.916712, "rental_uris": {"ios": "https://dc.lft.to/lastmile_qr_scan", "android": "https://dc.lft.to/lastmile_qr_scan"}, "bike_id": "a782cb2611c8ad65c1b126596f25ab56", "fusion_lat": 0.0}, {"lon": -77.02797416666667, "name": "29d8a07d11b11474e2d6c3df209b99c0", "is_disabled": 0, "type": "electric_scooter", "is_reserved": 0, "fusion_lon": 0.0, "lat": 38.961432, "rental_uris": {"ios": "https://dc.lft.to/lastmile_qr_scan", "android": "https://dc.lft.to/lastmile_qr_scan"}, "bike_id": "29d8a07d11b11474e2d6c3df209b99c0", "fusion_lat": 0.0}, {"lon": -76.97744266666666, "name": "72d2c49b1ccf3872116138cc55d95032", "is_disabled": 0, "type": "electric_scooter", "is_reserved": 0, "fusion_lon": 0.0, "lat": 38.900105833333335, "rental_uris": {"ios": "https://dc.lft.to/lastmile_qr_scan", "android": "https://dc.lft.to/lastmile_qr_scan"}, "bike_id": "72d2c49b1ccf3872116138cc55d95032", "fusion_lat": 0.0}, {"lon": -76.99339083333334, "name": "a544156697f1ce72ecc3acf981c15be9", "is_disabled": 0, "type": "electric_scooter", "is_reserved": 0, "fusion_lon": 0.0, "lat": 38.9005885, "rental_uris": {"ios": "https://dc.lft.to/lastmile_qr_scan", "android": "https://dc.lft.to/lastmile_qr_scan"}, "bike_id": "a544156697f1ce72ecc3acf981c15be9", "fusion_lat": 0.0}, {"lon": -77.03960616666667, "name": "3ec110782540c7fdf6b274c6aac3b6b0", "is_disabled": 0, "type": "electric_scooter", "is_reserved": 0, "fusion_lon": 0.0, "lat": 38.9198585, "rental_uris": {"ios": "https://dc.lft.to/lastmile_qr_scan", "android": "https://dc.lft.to/lastmile_qr_scan"}, "bike_id": "3ec110782540c7fdf6b274c6aac3b6b0", "fusion_lat": 0.0}, {"lon": -77.0463355, "name": "0a1e8e4a32647948fca4f39098240572", "is_disabled": 0, "type": "electric_scooter", "is_reserved": 0, "fusion_lon": 0.0, "lat": 38.9096195, "rental_uris": {"ios": "https://dc.lft.to/lastmile_qr_scan", "android": "https://dc.lft.to/lastmile_qr_scan"}, "bike_id": "0a1e8e4a32647948fca4f39098240572", "fusion_lat": 0.0}, {"lon": -76.98271833333334, "name": "af3831ccdd4af9379ba73551f8140a9b", "is_disabled": 0, "type": "electric_scooter", "is_reserved": 0, "fusion_lon": 0.0, "lat": 38.903486666666666, "rental_uris": {"ios": "https://dc.lft.to/lastmile_qr_scan", "android": "https://dc.lft.to/lastmile_qr_scan"}, "bike_id": "af3831ccdd4af9379ba73551f8140a9b", "fusion_lat": 0.0}, {"lon": -77.03223116666666, "name": "22ad2283f083f8fbb11b29abcef97709", "is_disabled": 0, "type": "electric_scooter", "is_reserved": 0, "fusion_lon": 0.0, "lat": 38.928826, "rental_uris": {"ios": "https://dc.lft.to/lastmile_qr_scan", "android": "https://dc.lft.to/lastmile_qr_scan"}, "bike_id": "22ad2283f083f8fbb11b29abcef97709", "fusion_lat": 0.0}, {"lon": -76.93058216666667, "name": "8218ec4ac73b75b738e5452e2024261d", "is_disabled": 0, "type": "electric_scooter", "is_reserved": 0, "fusion_lon": 0.0, "lat": 38.89560183333333, "rental_uris": {"ios": "https://dc.lft.to/lastmile_qr_scan", "android": "https://dc.lft.to/lastmile_qr_scan"}, "bike_id": "8218ec4ac73b75b738e5452e2024261d", "fusion_lat": 0.0}, {"lon": -77.0218785, "name": "455dcc6e289fd9a589fcb8793bec4594", "is_disabled": 0, "type": "electric_scooter", "is_reserved": 0, "fusion_lon": 0.0, "lat": 38.90194916666667, "rental_uris": {"ios": "https://dc.lft.to/lastmile_qr_scan", "android": "https://dc.lft.to/lastmile_qr_scan"}, "bike_id": "455dcc6e289fd9a589fcb8793bec4594", "fusion_lat": 0.0}, {"lon": -77.01536583333333, "name": "5cc562a54b579c2ec3f53c7cf60f81d1", "is_disabled": 0, "type": "electric_scooter", "is_reserved": 0, "fusion_lon": 0.0, "lat": 38.902517333333336, "rental_uris": {"ios": "https://dc.lft.to/lastmile_qr_scan", "android": "https://dc.lft.to/lastmile_qr_scan"}, "bike_id": "5cc562a54b579c2ec3f53c7cf60f81d1", "fusion_lat": 0.0}, {"lon": -77.0066335, "name": "a89ef4ec079c81d8cfd98aea1f9b8020", "is_disabled": 0, "type": "electric_scooter", "is_reserved": 0, "fusion_lon": 0.0, "lat": 38.900028166666665, "rental_uris": {"ios": "https://dc.lft.to/lastmile_qr_scan", "android": "https://dc.lft.to/lastmile_qr_scan"}, "bike_id": "a89ef4ec079c81d8cfd98aea1f9b8020", "fusion_lat": 0.0}, {"lon": -77.0034205, "name": "a7fa8e2144cc78f671f1f43d74a0a84d", "is_disabled": 0, "type": "electric_scooter", "is_reserved": 0, "fusion_lon": 0.0, "lat": 38.8973775, "rental_uris": {"ios": "https://dc.lft.to/lastmile_qr_scan", "android": "https://dc.lft.to/lastmile_qr_scan"}, "bike_id": "a7fa8e2144cc78f671f1f43d74a0a84d", "fusion_lat": 0.0}, {"lon": -77.04049333333333, "name": "e0a19ebfc46517277786778e899abcb2", "is_disabled": 0, "type": "electric_scooter", "is_reserved": 0, "fusion_lon": 0.0, "lat": 38.917131499999996, "rental_uris": {"ios": "https://dc.lft.to/lastmile_qr_scan", "android": "https://dc.lft.to/lastmile_qr_scan"}, "bike_id": "e0a19ebfc46517277786778e899abcb2", "fusion_lat": 0.0}, {"lon": -77.02513933333333, "name": "d1abdd1c3ba3a63b3b736139429d074c", "is_disabled": 0, "type": "electric_scooter", "is_reserved": 0, "fusion_lon": 0.0, "lat": 38.920948333333335, "rental_uris": {"ios": "https://dc.lft.to/lastmile_qr_scan", "android": "https://dc.lft.to/lastmile_qr_scan"}, "bike_id": "d1abdd1c3ba3a63b3b736139429d074c", "fusion_lat": 0.0}, {"lon": -77.04172333333334, "name": "aa063c9a38b8780c4a11fc11b895f3f8", "is_disabled": 0, "type": "electric_scooter", "is_reserved": 0, "fusion_lon": 0.0, "lat": 38.917092333333336, "rental_uris": {"ios": "https://dc.lft.to/lastmile_qr_scan", "android": "https://dc.lft.to/lastmile_qr_scan"}, "bike_id": "aa063c9a38b8780c4a11fc11b895f3f8", "fusion_lat": 0.0}, {"lon": -77.02710233333333, "name": "98de41747a069b38c7993804c7fe24f2", "is_disabled": 0, "type": "electric_scooter", "is_reserved": 0, "fusion_lon": 0.0, "lat": 38.91683533333333, "rental_uris": {"ios": "https://dc.lft.to/lastmile_qr_scan", "android": "https://dc.lft.to/lastmile_qr_scan"}, "bike_id": "98de41747a069b38c7993804c7fe24f2", "fusion_lat": 0.0}, {"lon": -77.01917566666667, "name": "de77748c0bba20e13ac5a3cc804a7d60", "is_disabled": 0, "type": "electric_scooter", "is_reserved": 0, "fusion_lon": 0.0, "lat": 38.93277116666667, "rental_uris": {"ios": "https://dc.lft.to/lastmile_qr_scan", "android": "https://dc.lft.to/lastmile_qr_scan"}, "bike_id": "de77748c0bba20e13ac5a3cc804a7d60", "fusion_lat": 0.0}, {"lon": -77.017684, "name": "c0dce2beb91c0607d9a41e8fed6ea741", "is_disabled": 0, "type": "electric_bike", "is_reserved": 0, "fusion_lon": 0.0, "lat": 38.8786365, "rental_uris": {"ios": "https://dc.lft.to/lastmile_qr_scan", "android": "https://dc.lft.to/lastmile_qr_scan"}, "bike_id": "c0dce2beb91c0607d9a41e8fed6ea741", "fusion_lat": 0.0}, {"lon": -77.04596366666667, "name": "0b495bbf22b833c8d1f7b370ca44660a", "is_disabled": 0, "type": "electric_scooter", "is_reserved": 0, "fusion_lon": 0.0, "lat": 38.896162333333336, "rental_uris": {"ios": "https://dc.lft.to/lastmile_qr_scan", "android": "https://dc.lft.to/lastmile_qr_scan"}, "bike_id": "0b495bbf22b833c8d1f7b370ca44660a", "fusion_lat": 0.0}, {"lon": -77.0216115, "name": "9d4e23f1aa93df05570c9f11f71d4d49", "is_disabled": 0, "type": "electric_scooter", "is_reserved": 0, "fusion_lon": 0.0, "lat": 38.92004416666666, "rental_uris": {"ios": "https://dc.lft.to/lastmile_qr_scan", "android": "https://dc.lft.to/lastmile_qr_scan"}, "bike_id": "9d4e23f1aa93df05570c9f11f71d4d49", "fusion_lat": 0.0}, {"lon": -77.0188505, "name": "d3cb4d34d6f204b9eec12ebcfca09ab1", "is_disabled": 0, "type": "electric_scooter", "is_reserved": 0, "fusion_lon": 0.0, "lat": 38.9111385, "rental_uris": {"ios": "https://dc.lft.to/lastmile_qr_scan", "android": "https://dc.lft.to/lastmile_qr_scan"}, "bike_id": "d3cb4d34d6f204b9eec12ebcfca09ab1", "fusion_lat": 0.0}, {"lon": -76.97336066666666, "name": "0c512cf164e3f73fd4c026381dbf25b8", "is_disabled": 0, "type": "electric_scooter", "is_reserved": 0, "fusion_lon": 0.0, "lat": 38.90411916666667, "rental_uris": {"ios": "https://dc.lft.to/lastmile_qr_scan", "android": "https://dc.lft.to/lastmile_qr_scan"}, "bike_id": "0c512cf164e3f73fd4c026381dbf25b8", "fusion_lat": 0.0}, {"lon": -77.07467933333334, "name": "4d2a9ff889df5edeab1abd91a1b43102", "is_disabled": 0, "type": "electric_scooter", "is_reserved": 0, "fusion_lon": 0.0, "lat": 38.922449, "rental_uris": {"ios": "https://dc.lft.to/lastmile_qr_scan", "android": "https://dc.lft.to/lastmile_qr_scan"}, "bike_id": "4d2a9ff889df5edeab1abd91a1b43102", "fusion_lat": 0.0}, {"lon": -77.04085916666666, "name": "c43e3b645f553818c82a01fbe8d0ffaf", "is_disabled": 0, "type": "electric_scooter", "is_reserved": 0, "fusion_lon": 0.0, "lat": 38.92892966666667, "rental_uris": {"ios": "https://dc.lft.to/lastmile_qr_scan", "android": "https://dc.lft.to/lastmile_qr_scan"}, "bike_id": "c43e3b645f553818c82a01fbe8d0ffaf", "fusion_lat": 0.0}, {"lon": -77.03167833333333, "name": "1d59ac34b36e0670d78b1ef03ec06703", "is_disabled": 0, "type": "electric_scooter", "is_reserved": 0, "fusion_lon": 0.0, "lat": 38.9074795, "rental_uris": {"ios": "https://dc.lft.to/lastmile_qr_scan", "android": "https://dc.lft.to/lastmile_qr_scan"}, "bike_id": "1d59ac34b36e0670d78b1ef03ec06703", "fusion_lat": 0.0}, {"lon": -77.03517866666667, "name": "d4412dcf4a417262b5d95937814c3e70", "is_disabled": 0, "type": "electric_scooter", "is_reserved": 0, "fusion_lon": 0.0, "lat": 38.92246766666667, "rental_uris": {"ios": "https://dc.lft.to/lastmile_qr_scan", "android": "https://dc.lft.to/lastmile_qr_scan"}, "bike_id": "d4412dcf4a417262b5d95937814c3e70", "fusion_lat": 0.0}, {"lon": -77.02268383333333, "name": "6d99160b6c667244004c2b0acc8605c9", "is_disabled": 0, "type": "electric_scooter", "is_reserved": 0, "fusion_lon": 0.0, "lat": 38.916534, "rental_uris": {"ios": "https://dc.lft.to/lastmile_qr_scan", "android": "https://dc.lft.to/lastmile_qr_scan"}, "bike_id": "6d99160b6c667244004c2b0acc8605c9", "fusion_lat": 0.0}, {"lon": -77.00065616666667, "name": "dbf51c0d96366ab7c8ed994a57731f26", "is_disabled": 0, "type": "electric_scooter", "is_reserved": 0, "fusion_lon": 0.0, "lat": 38.8877845, "rental_uris": {"ios": "https://dc.lft.to/lastmile_qr_scan", "android": "https://dc.lft.to/lastmile_qr_scan"}, "bike_id": "dbf51c0d96366ab7c8ed994a57731f26", "fusion_lat": 0.0}, {"lon": -76.984202, "name": "7fea657a373dbd1c5f477cd44bdd2b53", "is_disabled": 0, "type": "electric_bike", "is_reserved": 0, "fusion_lon": 0.0, "lat": 38.91001116666666, "rental_uris": {"ios": "https://dc.lft.to/lastmile_qr_scan", "android": "https://dc.lft.to/lastmile_qr_scan"}, "bike_id": "7fea657a373dbd1c5f477cd44bdd2b53", "fusion_lat": 0.0}, {"lon": -76.99859583333334, "name": "6952b4361f248d88977bb5a6dd97b5c7", "is_disabled": 0, "type": "electric_scooter", "is_reserved": 0, "fusion_lon": 0.0, "lat": 38.902573833333335, "rental_uris": {"ios": "https://dc.lft.to/lastmile_qr_scan", "android": "https://dc.lft.to/lastmile_qr_scan"}, "bike_id": "6952b4361f248d88977bb5a6dd97b5c7", "fusion_lat": 0.0}, {"lon": -77.01804833333334, "name": "be98831f70caac264ecab49b0894f83e", "is_disabled": 0, "type": "electric_scooter", "is_reserved": 0, "fusion_lon": 0.0, "lat": 38.92128266666667, "rental_uris": {"ios": "https://dc.lft.to/lastmile_qr_scan", "android": "https://dc.lft.to/lastmile_qr_scan"}, "bike_id": "be98831f70caac264ecab49b0894f83e", "fusion_lat": 0.0}, {"lon": -77.00170216666666, "name": "e1178c353b682ee39ad38a1cf1920f7b", "is_disabled": 0, "type": "electric_scooter", "is_reserved": 0, "fusion_lon": 0.0, "lat": 38.94076583333333, "rental_uris": {"ios": "https://dc.lft.to/lastmile_qr_scan", "android": "https://dc.lft.to/lastmile_qr_scan"}, "bike_id": "e1178c353b682ee39ad38a1cf1920f7b", "fusion_lat": 0.0}, {"lon": -77.03048483333333, "name": "7cf8e2c6a36740a5d5a6ae307a9b6cc1", "is_disabled": 0, "type": "electric_scooter", "is_reserved": 0, "fusion_lon": 0.0, "lat": 38.8843065, "rental_uris": {"ios": "https://dc.lft.to/lastmile_qr_scan", "android": "https://dc.lft.to/lastmile_qr_scan"}, "bike_id": "7cf8e2c6a36740a5d5a6ae307a9b6cc1", "fusion_lat": 0.0}, {"lon": -77.02130333333334, "name": "3082cc4bf229ac98b51300d47ffa6cfb", "is_disabled": 0, "type": "electric_scooter", "is_reserved": 0, "fusion_lon": 0.0, "lat": 38.9239785, "rental_uris": {"ios": "https://dc.lft.to/lastmile_qr_scan", "android": "https://dc.lft.to/lastmile_qr_scan"}, "bike_id": "3082cc4bf229ac98b51300d47ffa6cfb", "fusion_lat": 0.0}, {"lon": -77.01230733333334, "name": "9a3fe8383d411868eb3334432e0f1af3", "is_disabled": 0, "type": "electric_scooter", "is_reserved": 0, "fusion_lon": 0.0, "lat": 38.90010183333333, "rental_uris": {"ios": "https://dc.lft.to/lastmile_qr_scan", "android": "https://dc.lft.to/lastmile_qr_scan"}, "bike_id": "9a3fe8383d411868eb3334432e0f1af3", "fusion_lat": 0.0}, {"lon": -76.98199983333333, "name": "9fc5c72620329d337df651f64d267e1f", "is_disabled": 0, "type": "electric_bike", "is_reserved": 0, "fusion_lon": 0.0, "lat": 38.98504833333333, "rental_uris": {"ios": "https://dc.lft.to/lastmile_qr_scan", "android": "https://dc.lft.to/lastmile_qr_scan"}, "bike_id": "9fc5c72620329d337df651f64d267e1f", "fusion_lat": 0.0}, {"lon": -77.02159533333334, "name": "e53910b9cd9573f4a968301b708908c1", "is_disabled": 0, "type": "electric_scooter", "is_reserved": 0, "fusion_lon": 0.0, "lat": 38.9261625, "rental_uris": {"ios": "https://dc.lft.to/lastmile_qr_scan", "android": "https://dc.lft.to/lastmile_qr_scan"}, "bike_id": "e53910b9cd9573f4a968301b708908c1", "fusion_lat": 0.0}, {"lon": -77.02200733333333, "name": "7a243ea3046c8bfa61690d7d77bdda45", "is_disabled": 0, "type": "electric_scooter", "is_reserved": 0, "fusion_lon": 0.0, "lat": 38.91127216666667, "rental_uris": {"ios": "https://dc.lft.to/lastmile_qr_scan", "android": "https://dc.lft.to/lastmile_qr_scan"}, "bike_id": "7a243ea3046c8bfa61690d7d77bdda45", "fusion_lat": 0.0}, {"lon": -77.02028966666667, "name": "1d3216d0a9ac29f8bc610dc429a42764", "is_disabled": 0, "type": "electric_scooter", "is_reserved": 0, "fusion_lon": 0.0, "lat": 38.924414166666665, "rental_uris": {"ios": "https://dc.lft.to/lastmile_qr_scan", "android": "https://dc.lft.to/lastmile_qr_scan"}, "bike_id": "1d3216d0a9ac29f8bc610dc429a42764", "fusion_lat": 0.0}, {"lon": -77.03588016666667, "name": "56828478cf0ddb1ed7b9814f4b2c9280", "is_disabled": 0, "type": "electric_scooter", "is_reserved": 0, "fusion_lon": 0.0, "lat": 38.91915483333333, "rental_uris": {"ios": "https://dc.lft.to/lastmile_qr_scan", "android": "https://dc.lft.to/lastmile_qr_scan"}, "bike_id": "56828478cf0ddb1ed7b9814f4b2c9280", "fusion_lat": 0.0}, {"lon": -77.02216916666667, "name": "3b182ecef4ff3b44eb8369b0f7f864f6", "is_disabled": 0, "type": "electric_scooter", "is_reserved": 0, "fusion_lon": 0.0, "lat": 38.899862, "rental_uris": {"ios": "https://dc.lft.to/lastmile_qr_scan", "android": "https://dc.lft.to/lastmile_qr_scan"}, "bike_id": "3b182ecef4ff3b44eb8369b0f7f864f6", "fusion_lat": 0.0}, {"lon": -77.02155833333333, "name": "370ce2a22c22add6107698931bb6d2c8", "is_disabled": 0, "type": "electric_scooter", "is_reserved": 0, "fusion_lon": 0.0, "lat": 38.93076283333333, "rental_uris": {"ios": "https://dc.lft.to/lastmile_qr_scan", "android": "https://dc.lft.to/lastmile_qr_scan"}, "bike_id": "370ce2a22c22add6107698931bb6d2c8", "fusion_lat": 0.0}, {"lon": -77.028123, "name": "2518c1ed9d81a5a6062f505a7050fdde", "is_disabled": 0, "type": "electric_scooter", "is_reserved": 0, "fusion_lon": 0.0, "lat": 38.922442833333335, "rental_uris": {"ios": "https://dc.lft.to/lastmile_qr_scan", "android": "https://dc.lft.to/lastmile_qr_scan"}, "bike_id": "2518c1ed9d81a5a6062f505a7050fdde", "fusion_lat": 0.0}, {"lon": -77.02716666666667, "name": "17d804e920f57977fff45ee76be45c25", "is_disabled": 0, "type": "electric_scooter", "is_reserved": 0, "fusion_lon": 0.0, "lat": 38.898750666666665, "rental_uris": {"ios": "https://dc.lft.to/lastmile_qr_scan", "android": "https://dc.lft.to/lastmile_qr_scan"}, "bike_id": "17d804e920f57977fff45ee76be45c25", "fusion_lat": 0.0}, {"lon": -77.0317715, "name": "e80531bd9912ea3475f0e209d99b80f5", "is_disabled": 0, "type": "electric_scooter", "is_reserved": 0, "fusion_lon": 0.0, "lat": 38.892441, "rental_uris": {"ios": "https://dc.lft.to/lastmile_qr_scan", "android": "https://dc.lft.to/lastmile_qr_scan"}, "bike_id": "e80531bd9912ea3475f0e209d99b80f5", "fusion_lat": 0.0}, {"lon": -77.0398875, "name": "9b23d83892fb70d9450be6f388783446", "is_disabled": 0, "type": "electric_bike", "is_reserved": 0, "fusion_lon": 0.0, "lat": 38.933364833333336, "rental_uris": {"ios": "https://dc.lft.to/lastmile_qr_scan", "android": "https://dc.lft.to/lastmile_qr_scan"}, "bike_id": "9b23d83892fb70d9450be6f388783446", "fusion_lat": 0.0}, {"lon": -76.99610883333334, "name": "bb5e422559930713c784d889856bf93c", "is_disabled": 0, "type": "electric_scooter", "is_reserved": 0, "fusion_lon": 0.0, "lat": 38.901511166666666, "rental_uris": {"ios": "https://dc.lft.to/lastmile_qr_scan", "android": "https://dc.lft.to/lastmile_qr_scan"}, "bike_id": "bb5e422559930713c784d889856bf93c", "fusion_lat": 0.0}, {"lon": -77.02684933333333, "name": "2de5e45403477bfe46a6bd9fefdb36cb", "is_disabled": 0, "type": "electric_scooter", "is_reserved": 0, "fusion_lon": 0.0, "lat": 38.9059135, "rental_uris": {"ios": "https://dc.lft.to/lastmile_qr_scan", "android": "https://dc.lft.to/lastmile_qr_scan"}, "bike_id": "2de5e45403477bfe46a6bd9fefdb36cb", "fusion_lat": 0.0}, {"lon": -77.031864, "name": "aceb93625a827bfdc741c115428b918c", "is_disabled": 0, "type": "electric_scooter", "is_reserved": 0, "fusion_lon": 0.0, "lat": 38.910068333333335, "rental_uris": {"ios": "https://dc.lft.to/lastmile_qr_scan", "android": "https://dc.lft.to/lastmile_qr_scan"}, "bike_id": "aceb93625a827bfdc741c115428b918c", "fusion_lat": 0.0}, {"lon": -77.068749, "name": "5aef963a33c7dd8d134182dc85f7bf48", "is_disabled": 0, "type": "electric_scooter", "is_reserved": 0, "fusion_lon": 0.0, "lat": 38.905164666666664, "rental_uris": {"ios": "https://dc.lft.to/lastmile_qr_scan", "android": "https://dc.lft.to/lastmile_qr_scan"}, "bike_id": "5aef963a33c7dd8d134182dc85f7bf48", "fusion_lat": 0.0}, {"lon": -77.01795183333333, "name": "3a13b1222747e1e74f6b263644373753", "is_disabled": 0, "type": "electric_scooter", "is_reserved": 0, "fusion_lon": 0.0, "lat": 38.88038866666667, "rental_uris": {"ios": "https://dc.lft.to/lastmile_qr_scan", "android": "https://dc.lft.to/lastmile_qr_scan"}, "bike_id": "3a13b1222747e1e74f6b263644373753", "fusion_lat": 0.0}, {"lon": -77.03383966666667, "name": "d37cc2088077add9aefc02b97c0e5648", "is_disabled": 0, "type": "electric_scooter", "is_reserved": 0, "fusion_lon": 0.0, "lat": 38.90973366666667, "rental_uris": {"ios": "https://dc.lft.to/lastmile_qr_scan", "android": "https://dc.lft.to/lastmile_qr_scan"}, "bike_id": "d37cc2088077add9aefc02b97c0e5648", "fusion_lat": 0.0}, {"lon": -77.0197335, "name": "2ad33bdfe57a69fa456d056d8bbfecb6", "is_disabled": 0, "type": "electric_scooter", "is_reserved": 0, "fusion_lon": 0.0, "lat": 38.88566266666667, "rental_uris": {"ios": "https://dc.lft.to/lastmile_qr_scan", "android": "https://dc.lft.to/lastmile_qr_scan"}, "bike_id": "2ad33bdfe57a69fa456d056d8bbfecb6", "fusion_lat": 0.0}, {"lon": -77.01776833333334, "name": "1e7f18ae64619a231f1ba01a0cb1c3ab", "is_disabled": 0, "type": "electric_scooter", "is_reserved": 0, "fusion_lon": 0.0, "lat": 38.92048333333334, "rental_uris": {"ios": "https://dc.lft.to/lastmile_qr_scan", "android": "https://dc.lft.to/lastmile_qr_scan"}, "bike_id": "1e7f18ae64619a231f1ba01a0cb1c3ab", "fusion_lat": 0.0}, {"lon": -77.07541416666666, "name": "2cd7fffa70969e57cf7b8fd03d444b69", "is_disabled": 0, "type": "electric_scooter", "is_reserved": 0, "fusion_lon": 0.0, "lat": 38.91535116666667, "rental_uris": {"ios": "https://dc.lft.to/lastmile_qr_scan", "android": "https://dc.lft.to/lastmile_qr_scan"}, "bike_id": "2cd7fffa70969e57cf7b8fd03d444b69", "fusion_lat": 0.0}, {"lon": -76.91802, "name": "b60007a49252133397c77dc42c19984b", "is_disabled": 0, "type": "electric_bike", "is_reserved": 0, "fusion_lon": 0.0, "lat": 39.00007316666667, "rental_uris": {"ios": "https://dc.lft.to/lastmile_qr_scan", "android": "https://dc.lft.to/lastmile_qr_scan"}, "bike_id": "b60007a49252133397c77dc42c19984b", "fusion_lat": 0.0}, {"lon": -77.03378066666667, "name": "c22a1675003b4fa4dfd779f3cfe3ccb7", "is_disabled": 0, "type": "electric_scooter", "is_reserved": 0, "fusion_lon": 0.0, "lat": 38.924732666666664, "rental_uris": {"ios": "https://dc.lft.to/lastmile_qr_scan", "android": "https://dc.lft.to/lastmile_qr_scan"}, "bike_id": "c22a1675003b4fa4dfd779f3cfe3ccb7", "fusion_lat": 0.0}, {"lon": -77.06599833333334, "name": "162f97df9fc29c07eb8466c349b8ff40", "is_disabled": 0, "type": "electric_scooter", "is_reserved": 0, "fusion_lon": 0.0, "lat": 38.91226116666667, "rental_uris": {"ios": "https://dc.lft.to/lastmile_qr_scan", "android": "https://dc.lft.to/lastmile_qr_scan"}, "bike_id": "162f97df9fc29c07eb8466c349b8ff40", "fusion_lat": 0.0}, {"lon": -77.06689266666666, "name": "74d0b1d01d94252f858cb4db9f3f189f", "is_disabled": 0, "type": "electric_scooter", "is_reserved": 0, "fusion_lon": 0.0, "lat": 38.9141965, "rental_uris": {"ios": "https://dc.lft.to/lastmile_qr_scan", "android": "https://dc.lft.to/lastmile_qr_scan"}, "bike_id": "74d0b1d01d94252f858cb4db9f3f189f", "fusion_lat": 0.0}, {"lon": -76.98094366666666, "name": "5a013e210035ecf400371af590eb45eb", "is_disabled": 0, "type": "electric_bike", "is_reserved": 0, "fusion_lon": 0.0, "lat": 38.95357116666667, "rental_uris": {"ios": "https://dc.lft.to/lastmile_qr_scan", "android": "https://dc.lft.to/lastmile_qr_scan"}, "bike_id": "5a013e210035ecf400371af590eb45eb", "fusion_lat": 0.0}, {"lon": -77.04004866666666, "name": "76cdb501e32b1dd4c70bbc11528fb77f", "is_disabled": 0, "type": "electric_scooter", "is_reserved": 0, "fusion_lon": 0.0, "lat": 38.909996166666666, "rental_uris": {"ios": "https://dc.lft.to/lastmile_qr_scan", "android": "https://dc.lft.to/lastmile_qr_scan"}, "bike_id": "76cdb501e32b1dd4c70bbc11528fb77f", "fusion_lat": 0.0}, {"lon": -77.03915183333334, "name": "d913a29f8ce62c7097a564d38e69824e", "is_disabled": 0, "type": "electric_scooter", "is_reserved": 0, "fusion_lon": 0.0, "lat": 38.898562166666665, "rental_uris": {"ios": "https://dc.lft.to/lastmile_qr_scan", "android": "https://dc.lft.to/lastmile_qr_scan"}, "bike_id": "d913a29f8ce62c7097a564d38e69824e", "fusion_lat": 0.0}, {"lon": -77.03185983333333, "name": "33bfc22d72aef577a79d3a6dffa50ded", "is_disabled": 0, "type": "electric_scooter", "is_reserved": 0, "fusion_lon": 0.0, "lat": 38.8924435, "rental_uris": {"ios": "https://dc.lft.to/lastmile_qr_scan", "android": "https://dc.lft.to/lastmile_qr_scan"}, "bike_id": "33bfc22d72aef577a79d3a6dffa50ded", "fusion_lat": 0.0}, {"lon": -77.03668416666666, "name": "6be1130ec744adaea1b787a504395af1", "is_disabled": 0, "type": "electric_scooter", "is_reserved": 0, "fusion_lon": 0.0, "lat": 38.932198666666665, "rental_uris": {"ios": "https://dc.lft.to/lastmile_qr_scan", "android": "https://dc.lft.to/lastmile_qr_scan"}, "bike_id": "6be1130ec744adaea1b787a504395af1", "fusion_lat": 0.0}, {"lon": -77.09047683333333, "name": "f39a123fb59bb907d16a2a2382858616", "is_disabled": 0, "type": "electric_scooter", "is_reserved": 0, "fusion_lon": 0.0, "lat": 38.917610333333336, "rental_uris": {"ios": "https://dc.lft.to/lastmile_qr_scan", "android": "https://dc.lft.to/lastmile_qr_scan"}, "bike_id": "f39a123fb59bb907d16a2a2382858616", "fusion_lat": 0.0}, {"lon": -77.0401235, "name": "5a81c0419514e84f63f819b4071f637d", "is_disabled": 0, "type": "electric_scooter", "is_reserved": 0, "fusion_lon": 0.0, "lat": 38.903912166666665, "rental_uris": {"ios": "https://dc.lft.to/lastmile_qr_scan", "android": "https://dc.lft.to/lastmile_qr_scan"}, "bike_id": "5a81c0419514e84f63f819b4071f637d", "fusion_lat": 0.0}, {"lon": -77.02210133333334, "name": "314e8b9d7f783f298b563c9d84946131", "is_disabled": 0, "type": "electric_scooter", "is_reserved": 0, "fusion_lon": 0.0, "lat": 38.90564416666667, "rental_uris": {"ios": "https://dc.lft.to/lastmile_qr_scan", "android": "https://dc.lft.to/lastmile_qr_scan"}, "bike_id": "314e8b9d7f783f298b563c9d84946131", "fusion_lat": 0.0}, {"lon": -76.99157133333334, "name": "de2e45c881ccd3568f6df288943c6d4c", "is_disabled": 0, "type": "electric_scooter", "is_reserved": 0, "fusion_lon": 0.0, "lat": 38.8916305, "rental_uris": {"ios": "https://dc.lft.to/lastmile_qr_scan", "android": "https://dc.lft.to/lastmile_qr_scan"}, "bike_id": "de2e45c881ccd3568f6df288943c6d4c", "fusion_lat": 0.0}, {"lon": -77.04620033333333, "name": "2558ae54b3703b3dd5013e1600b50e0a", "is_disabled": 0, "type": "electric_scooter", "is_reserved": 0, "fusion_lon": 0.0, "lat": 38.9161925, "rental_uris": {"ios": "https://dc.lft.to/lastmile_qr_scan", "android": "https://dc.lft.to/lastmile_qr_scan"}, "bike_id": "2558ae54b3703b3dd5013e1600b50e0a", "fusion_lat": 0.0}, {"lon": -77.0184135, "name": "ccbe6bc7b857e87d1c08e2fdd42f28e3", "is_disabled": 0, "type": "electric_scooter", "is_reserved": 0, "fusion_lon": 0.0, "lat": 38.908648166666666, "rental_uris": {"ios": "https://dc.lft.to/lastmile_qr_scan", "android": "https://dc.lft.to/lastmile_qr_scan"}, "bike_id": "ccbe6bc7b857e87d1c08e2fdd42f28e3", "fusion_lat": 0.0}, {"lon": -76.97747733333334, "name": "6b7cc2b1933a25cf1589e586e5c2e2e3", "is_disabled": 0, "type": "electric_bike", "is_reserved": 0, "fusion_lon": 0.0, "lat": 38.864900166666665, "rental_uris": {"ios": "https://dc.lft.to/lastmile_qr_scan", "android": "https://dc.lft.to/lastmile_qr_scan"}, "bike_id": "6b7cc2b1933a25cf1589e586e5c2e2e3", "fusion_lat": 0.0}, {"lon": -77.00139566666667, "name": "cc3d5b5b9b933172a4d277995ead742d", "is_disabled": 0, "type": "electric_scooter", "is_reserved": 0, "fusion_lon": 0.0, "lat": 38.88431683333334, "rental_uris": {"ios": "https://dc.lft.to/lastmile_qr_scan", "android": "https://dc.lft.to/lastmile_qr_scan"}, "bike_id": "cc3d5b5b9b933172a4d277995ead742d", "fusion_lat": 0.0}, {"lon": -77.057362, "name": "1270d78b8b5d5412d7df7acabfb1846e", "is_disabled": 0, "type": "electric_scooter", "is_reserved": 0, "fusion_lon": 0.0, "lat": 38.93342783333333, "rental_uris": {"ios": "https://dc.lft.to/lastmile_qr_scan", "android": "https://dc.lft.to/lastmile_qr_scan"}, "bike_id": "1270d78b8b5d5412d7df7acabfb1846e", "fusion_lat": 0.0}, {"lon": -77.01855916666666, "name": "6f0dd9965c474c6ac1e3d8eeff5dd214", "is_disabled": 0, "type": "electric_scooter", "is_reserved": 0, "fusion_lon": 0.0, "lat": 38.874630833333335, "rental_uris": {"ios": "https://dc.lft.to/lastmile_qr_scan", "android": "https://dc.lft.to/lastmile_qr_scan"}, "bike_id": "6f0dd9965c474c6ac1e3d8eeff5dd214", "fusion_lat": 0.0}, {"lon": -77.0265565, "name": "28fb0426effc8cadf1f4ade902cec1aa", "is_disabled": 0, "type": "electric_scooter", "is_reserved": 0, "fusion_lon": 0.0, "lat": 38.92383016666667, "rental_uris": {"ios": "https://dc.lft.to/lastmile_qr_scan", "android": "https://dc.lft.to/lastmile_qr_scan"}, "bike_id": "28fb0426effc8cadf1f4ade902cec1aa", "fusion_lat": 0.0}, {"lon": -76.98474633333333, "name": "9ce38a34febd6ba1b60949973cfce1ad", "is_disabled": 0, "type": "electric_bike", "is_reserved": 0, "fusion_lon": 0.0, "lat": 38.91273483333333, "rental_uris": {"ios": "https://dc.lft.to/lastmile_qr_scan", "android": "https://dc.lft.to/lastmile_qr_scan"}, "bike_id": "9ce38a34febd6ba1b60949973cfce1ad", "fusion_lat": 0.0}, {"lon": -77.02065066666667, "name": "e38c9eb1471370105dfcdaf74ba62e47", "is_disabled": 0, "type": "electric_scooter", "is_reserved": 0, "fusion_lon": 0.0, "lat": 38.93260866666667, "rental_uris": {"ios": "https://dc.lft.to/lastmile_qr_scan", "android": "https://dc.lft.to/lastmile_qr_scan"}, "bike_id": "e38c9eb1471370105dfcdaf74ba62e47", "fusion_lat": 0.0}, {"lon": -76.9978455, "name": "5c9380f099b3435a7814280a66aa26bc", "is_disabled": 0, "type": "electric_scooter", "is_reserved": 0, "fusion_lon": 0.0, "lat": 38.932264833333335, "rental_uris": {"ios": "https://dc.lft.to/lastmile_qr_scan", "android": "https://dc.lft.to/lastmile_qr_scan"}, "bike_id": "5c9380f099b3435a7814280a66aa26bc", "fusion_lat": 0.0}, {"lon": -77.040361, "name": "2f48c69f4fedbae299b737748e2f5668", "is_disabled": 0, "type": "electric_scooter", "is_reserved": 0, "fusion_lon": 0.0, "lat": 38.90487066666667, "rental_uris": {"ios": "https://dc.lft.to/lastmile_qr_scan", "android": "https://dc.lft.to/lastmile_qr_scan"}, "bike_id": "2f48c69f4fedbae299b737748e2f5668", "fusion_lat": 0.0}, {"lon": -77.0217515, "name": "f1732a76181a7c1261550efe94b4c6cc", "is_disabled": 0, "type": "electric_scooter", "is_reserved": 0, "fusion_lon": 0.0, "lat": 38.91406583333333, "rental_uris": {"ios": "https://dc.lft.to/lastmile_qr_scan", "android": "https://dc.lft.to/lastmile_qr_scan"}, "bike_id": "f1732a76181a7c1261550efe94b4c6cc", "fusion_lat": 0.0}, {"lon": -76.93390416666666, "name": "5ca144ca31fa53b8bce3f34465428cdb", "is_disabled": 0, "type": "electric_scooter", "is_reserved": 0, "fusion_lon": 0.0, "lat": 38.89911683333333, "rental_uris": {"ios": "https://dc.lft.to/lastmile_qr_scan", "android": "https://dc.lft.to/lastmile_qr_scan"}, "bike_id": "5ca144ca31fa53b8bce3f34465428cdb", "fusion_lat": 0.0}, {"lon": -77.04238883333333, "name": "e67d1d7debc9b5c738d437a6d6fb758a", "is_disabled": 0, "type": "electric_scooter", "is_reserved": 0, "fusion_lon": 0.0, "lat": 38.92157983333333, "rental_uris": {"ios": "https://dc.lft.to/lastmile_qr_scan", "android": "https://dc.lft.to/lastmile_qr_scan"}, "bike_id": "e67d1d7debc9b5c738d437a6d6fb758a", "fusion_lat": 0.0}, {"lon": -77.0432435, "name": "8367de1585985134f3dd1fdaa9903f4a", "is_disabled": 0, "type": "electric_scooter", "is_reserved": 0, "fusion_lon": 0.0, "lat": 38.89699616666667, "rental_uris": {"ios": "https://dc.lft.to/lastmile_qr_scan", "android": "https://dc.lft.to/lastmile_qr_scan"}, "bike_id": "8367de1585985134f3dd1fdaa9903f4a", "fusion_lat": 0.0}, {"lon": -77.06785216666667, "name": "9d9f69775c4ad4ab1b32148921fc4fc8", "is_disabled": 0, "type": "electric_scooter", "is_reserved": 0, "fusion_lon": 0.0, "lat": 38.952094833333334, "rental_uris": {"ios": "https://dc.lft.to/lastmile_qr_scan", "android": "https://dc.lft.to/lastmile_qr_scan"}, "bike_id": "9d9f69775c4ad4ab1b32148921fc4fc8", "fusion_lat": 0.0}, {"lon": -77.00670783333334, "name": "ca12a9a55332bbaa242924815ef4bd21", "is_disabled": 0, "type": "electric_bike", "is_reserved": 0, "fusion_lon": 0.0, "lat": 38.945058, "rental_uris": {"ios": "https://dc.lft.to/lastmile_qr_scan", "android": "https://dc.lft.to/lastmile_qr_scan"}, "bike_id": "ca12a9a55332bbaa242924815ef4bd21", "fusion_lat": 0.0}, {"lon": -77.079052, "name": "660f54a88fd47203e832e5e45e35975e", "is_disabled": 0, "type": "electric_bike", "is_reserved": 0, "fusion_lon": 0.0, "lat": 38.8393675, "rental_uris": {"ios": "https://dc.lft.to/lastmile_qr_scan", "android": "https://dc.lft.to/lastmile_qr_scan"}, "bike_id": "660f54a88fd47203e832e5e45e35975e", "fusion_lat": 0.0}, {"lon": -77.0488435, "name": "eb12c64834f5703e05589747581fe738", "is_disabled": 0, "type": "electric_scooter", "is_reserved": 0, "fusion_lon": 0.0, "lat": 38.9065465, "rental_uris": {"ios": "https://dc.lft.to/lastmile_qr_scan", "android": "https://dc.lft.to/lastmile_qr_scan"}, "bike_id": "eb12c64834f5703e05589747581fe738", "fusion_lat": 0.0}, {"lon": -77.033604, "name": "5c07defcbc9fbc0f0338959212504290", "is_disabled": 0, "type": "electric_scooter", "is_reserved": 0, "fusion_lon": 0.0, "lat": 38.927525833333334, "rental_uris": {"ios": "https://dc.lft.to/lastmile_qr_scan", "android": "https://dc.lft.to/lastmile_qr_scan"}, "bike_id": "5c07defcbc9fbc0f0338959212504290", "fusion_lat": 0.0}, {"lon": -76.99304033333334, "name": "11ae593a7920f4a92c343d54966c2150", "is_disabled": 0, "type": "electric_scooter", "is_reserved": 0, "fusion_lon": 0.0, "lat": 38.9376995, "rental_uris": {"ios": "https://dc.lft.to/lastmile_qr_scan", "android": "https://dc.lft.to/lastmile_qr_scan"}, "bike_id": "11ae593a7920f4a92c343d54966c2150", "fusion_lat": 0.0}, {"lon": -77.02204083333334, "name": "b956602687586dbcedc9f9c0232928f2", "is_disabled": 0, "type": "electric_scooter", "is_reserved": 0, "fusion_lon": 0.0, "lat": 38.89623133333333, "rental_uris": {"ios": "https://dc.lft.to/lastmile_qr_scan", "android": "https://dc.lft.to/lastmile_qr_scan"}, "bike_id": "b956602687586dbcedc9f9c0232928f2", "fusion_lat": 0.0}, {"lon": -77.027807, "name": "3aef66f1cd5155ed69e62389070ca9fa", "is_disabled": 0, "type": "electric_scooter", "is_reserved": 0, "fusion_lon": 0.0, "lat": 38.929544, "rental_uris": {"ios": "https://dc.lft.to/lastmile_qr_scan", "android": "https://dc.lft.to/lastmile_qr_scan"}, "bike_id": "3aef66f1cd5155ed69e62389070ca9fa", "fusion_lat": 0.0}, {"lon": -77.04189683333334, "name": "8475c1ca61affc4ab2747c489e745a12", "is_disabled": 0, "type": "electric_scooter", "is_reserved": 0, "fusion_lon": 0.0, "lat": 38.9206545, "rental_uris": {"ios": "https://dc.lft.to/lastmile_qr_scan", "android": "https://dc.lft.to/lastmile_qr_scan"}, "bike_id": "8475c1ca61affc4ab2747c489e745a12", "fusion_lat": 0.0}, {"lon": -76.93750133333333, "name": "9d6c4dc44e110627059f596c75d0e8e4", "is_disabled": 0, "type": "electric_scooter", "is_reserved": 0, "fusion_lon": 0.0, "lat": 38.89049933333333, "rental_uris": {"ios": "https://dc.lft.to/lastmile_qr_scan", "android": "https://dc.lft.to/lastmile_qr_scan"}, "bike_id": "9d6c4dc44e110627059f596c75d0e8e4", "fusion_lat": 0.0}, {"lon": -77.01994933333333, "name": "fa312a670d6fe113ac31e71b7967da95", "is_disabled": 0, "type": "electric_scooter", "is_reserved": 0, "fusion_lon": 0.0, "lat": 38.91363233333333, "rental_uris": {"ios": "https://dc.lft.to/lastmile_qr_scan", "android": "https://dc.lft.to/lastmile_qr_scan"}, "bike_id": "fa312a670d6fe113ac31e71b7967da95", "fusion_lat": 0.0}, {"lon": -77.03344966666667, "name": "03929569c133600f257d8f3565e273a0", "is_disabled": 0, "type": "electric_scooter", "is_reserved": 0, "fusion_lon": 0.0, "lat": 38.91713466666667, "rental_uris": {"ios": "https://dc.lft.to/lastmile_qr_scan", "android": "https://dc.lft.to/lastmile_qr_scan"}, "bike_id": "03929569c133600f257d8f3565e273a0", "fusion_lat": 0.0}, {"lon": -76.93910883333334, "name": "8847d9644d4b0ccc6dd7a3a7c0772658", "is_disabled": 0, "type": "electric_scooter", "is_reserved": 0, "fusion_lon": 0.0, "lat": 38.89165883333333, "rental_uris": {"ios": "https://dc.lft.to/lastmile_qr_scan", "android": "https://dc.lft.to/lastmile_qr_scan"}, "bike_id": "8847d9644d4b0ccc6dd7a3a7c0772658", "fusion_lat": 0.0}, {"lon": -77.00921033333333, "name": "d7e64771c23327da179567c2544b4cb9", "is_disabled": 0, "type": "electric_scooter", "is_reserved": 0, "fusion_lon": 0.0, "lat": 38.918803833333335, "rental_uris": {"ios": "https://dc.lft.to/lastmile_qr_scan", "android": "https://dc.lft.to/lastmile_qr_scan"}, "bike_id": "d7e64771c23327da179567c2544b4cb9", "fusion_lat": 0.0}, {"lon": -77.09616283333334, "name": "34a91774a5e4636c9f710e26ae6bd853", "is_disabled": 0, "type": "electric_bike", "is_reserved": 0, "fusion_lon": 0.0, "lat": 38.974418166666666, "rental_uris": {"ios": "https://dc.lft.to/lastmile_qr_scan", "android": "https://dc.lft.to/lastmile_qr_scan"}, "bike_id": "34a91774a5e4636c9f710e26ae6bd853", "fusion_lat": 0.0}, {"lon": -77.040025, "name": "2dd6ce1efc27af63a399bc6208d2bd18", "is_disabled": 0, "type": "electric_scooter", "is_reserved": 0, "fusion_lon": 0.0, "lat": 38.934313, "rental_uris": {"ios": "https://dc.lft.to/lastmile_qr_scan", "android": "https://dc.lft.to/lastmile_qr_scan"}, "bike_id": "2dd6ce1efc27af63a399bc6208d2bd18", "fusion_lat": 0.0}, {"lon": -77.02353583333333, "name": "2db6716834a408782c4ff857aa1ed641", "is_disabled": 0, "type": "electric_scooter", "is_reserved": 0, "fusion_lon": 0.0, "lat": 38.91781233333333, "rental_uris": {"ios": "https://dc.lft.to/lastmile_qr_scan", "android": "https://dc.lft.to/lastmile_qr_scan"}, "bike_id": "2db6716834a408782c4ff857aa1ed641", "fusion_lat": 0.0}, {"lon": -77.04331083333334, "name": "00390b2c1ee44548706ce3cb049ef1f0", "is_disabled": 0, "type": "electric_scooter", "is_reserved": 0, "fusion_lon": 0.0, "lat": 38.901128, "rental_uris": {"ios": "https://dc.lft.to/lastmile_qr_scan", "android": "https://dc.lft.to/lastmile_qr_scan"}, "bike_id": "00390b2c1ee44548706ce3cb049ef1f0", "fusion_lat": 0.0}, {"lon": -77.06582133333333, "name": "6d6ad5fd4a62639daa68f2fd94d8b6c4", "is_disabled": 0, "type": "electric_scooter", "is_reserved": 0, "fusion_lon": 0.0, "lat": 38.91225033333333, "rental_uris": {"ios": "https://dc.lft.to/lastmile_qr_scan", "android": "https://dc.lft.to/lastmile_qr_scan"}, "bike_id": "6d6ad5fd4a62639daa68f2fd94d8b6c4", "fusion_lat": 0.0}, {"lon": -77.0575695, "name": "11e63df381924cb805979b7f72ee4fda", "is_disabled": 0, "type": "electric_scooter", "is_reserved": 0, "fusion_lon": 0.0, "lat": 38.92490466666667, "rental_uris": {"ios": "https://dc.lft.to/lastmile_qr_scan", "android": "https://dc.lft.to/lastmile_qr_scan"}, "bike_id": "11e63df381924cb805979b7f72ee4fda", "fusion_lat": 0.0}, {"lon": -77.0412955, "name": "b61ce8af1d50d8f8629775ea4c2dacc8", "is_disabled": 0, "type": "electric_scooter", "is_reserved": 0, "fusion_lon": 0.0, "lat": 38.9218425, "rental_uris": {"ios": "https://dc.lft.to/lastmile_qr_scan", "android": "https://dc.lft.to/lastmile_qr_scan"}, "bike_id": "b61ce8af1d50d8f8629775ea4c2dacc8", "fusion_lat": 0.0}, {"lon": -77.01013966666666, "name": "c957514ffe6c8b74593f309f4aada115", "is_disabled": 0, "type": "electric_scooter", "is_reserved": 0, "fusion_lon": 0.0, "lat": 38.91408033333333, "rental_uris": {"ios": "https://dc.lft.to/lastmile_qr_scan", "android": "https://dc.lft.to/lastmile_qr_scan"}, "bike_id": "c957514ffe6c8b74593f309f4aada115", "fusion_lat": 0.0}, {"lon": -77.03172933333333, "name": "47885e5faf124b95b8f7b280d0713cc7", "is_disabled": 0, "type": "electric_scooter", "is_reserved": 0, "fusion_lon": 0.0, "lat": 38.913244, "rental_uris": {"ios": "https://dc.lft.to/lastmile_qr_scan", "android": "https://dc.lft.to/lastmile_qr_scan"}, "bike_id": "47885e5faf124b95b8f7b280d0713cc7", "fusion_lat": 0.0}, {"lon": -77.01780366666667, "name": "acc7d26d8b260e7b689ac079cdc3cc34", "is_disabled": 0, "type": "electric_scooter", "is_reserved": 0, "fusion_lon": 0.0, "lat": 38.90402316666667, "rental_uris": {"ios": "https://dc.lft.to/lastmile_qr_scan", "android": "https://dc.lft.to/lastmile_qr_scan"}, "bike_id": "acc7d26d8b260e7b689ac079cdc3cc34", "fusion_lat": 0.0}, {"lon": -77.03461833333333, "name": "46d5be33648748e91616f6234b43c402", "is_disabled": 0, "type": "electric_scooter", "is_reserved": 0, "fusion_lon": 0.0, "lat": 38.91576366666666, "rental_uris": {"ios": "https://dc.lft.to/lastmile_qr_scan", "android": "https://dc.lft.to/lastmile_qr_scan"}, "bike_id": "46d5be33648748e91616f6234b43c402", "fusion_lat": 0.0}, {"lon": -77.01749566666666, "name": "96e743abbe20b0d300397ab7bb8330ef", "is_disabled": 0, "type": "electric_scooter", "is_reserved": 0, "fusion_lon": 0.0, "lat": 38.874944, "rental_uris": {"ios": "https://dc.lft.to/lastmile_qr_scan", "android": "https://dc.lft.to/lastmile_qr_scan"}, "bike_id": "96e743abbe20b0d300397ab7bb8330ef", "fusion_lat": 0.0}, {"lon": -77.04861116666666, "name": "c6464caed9062fc744f27077ee555e29", "is_disabled": 0, "type": "electric_scooter", "is_reserved": 0, "fusion_lon": 0.0, "lat": 38.905321666666666, "rental_uris": {"ios": "https://dc.lft.to/lastmile_qr_scan", "android": "https://dc.lft.to/lastmile_qr_scan"}, "bike_id": "c6464caed9062fc744f27077ee555e29", "fusion_lat": 0.0}, {"lon": -77.02262666666667, "name": "5105348252d8c7935135a0ac6c7a8704", "is_disabled": 0, "type": "electric_scooter", "is_reserved": 0, "fusion_lon": 0.0, "lat": 38.8972555, "rental_uris": {"ios": "https://dc.lft.to/lastmile_qr_scan", "android": "https://dc.lft.to/lastmile_qr_scan"}, "bike_id": "5105348252d8c7935135a0ac6c7a8704", "fusion_lat": 0.0}, {"lon": -77.03637916666666, "name": "a72a8dabecffc0ec40c4396c1c59c228", "is_disabled": 0, "type": "electric_scooter", "is_reserved": 0, "fusion_lon": 0.0, "lat": 38.918743, "rental_uris": {"ios": "https://dc.lft.to/lastmile_qr_scan", "android": "https://dc.lft.to/lastmile_qr_scan"}, "bike_id": "a72a8dabecffc0ec40c4396c1c59c228", "fusion_lat": 0.0}, {"lon": -76.93390283333333, "name": "dd7d8b36d584af9efda249057e586a21", "is_disabled": 0, "type": "electric_scooter", "is_reserved": 0, "fusion_lon": 0.0, "lat": 38.8991245, "rental_uris": {"ios": "https://dc.lft.to/lastmile_qr_scan", "android": "https://dc.lft.to/lastmile_qr_scan"}, "bike_id": "dd7d8b36d584af9efda249057e586a21", "fusion_lat": 0.0}, {"lon": -77.02305266666667, "name": "898cfa864749e4c323ad5380053aff68", "is_disabled": 0, "type": "electric_scooter", "is_reserved": 0, "fusion_lon": 0.0, "lat": 38.907884, "rental_uris": {"ios": "https://dc.lft.to/lastmile_qr_scan", "android": "https://dc.lft.to/lastmile_qr_scan"}, "bike_id": "898cfa864749e4c323ad5380053aff68", "fusion_lat": 0.0}, {"lon": -76.99832116666667, "name": "a990802c3838168b9673b53e3fd324e0", "is_disabled": 0, "type": "electric_scooter", "is_reserved": 0, "fusion_lon": 0.0, "lat": 38.900667166666665, "rental_uris": {"ios": "https://dc.lft.to/lastmile_qr_scan", "android": "https://dc.lft.to/lastmile_qr_scan"}, "bike_id": "a990802c3838168b9673b53e3fd324e0", "fusion_lat": 0.0}, {"lon": -77.00984233333334, "name": "5e06b4cf23e99af97bfdabd14de3b55e", "is_disabled": 0, "type": "electric_scooter", "is_reserved": 0, "fusion_lon": 0.0, "lat": 38.90366366666667, "rental_uris": {"ios": "https://dc.lft.to/lastmile_qr_scan", "android": "https://dc.lft.to/lastmile_qr_scan"}, "bike_id": "5e06b4cf23e99af97bfdabd14de3b55e", "fusion_lat": 0.0}, {"lon": -77.00393466666667, "name": "f110294733ca2631905566c7cd463864", "is_disabled": 0, "type": "electric_bike", "is_reserved": 0, "fusion_lon": 0.0, "lat": 38.9856305, "rental_uris": {"ios": "https://dc.lft.to/lastmile_qr_scan", "android": "https://dc.lft.to/lastmile_qr_scan"}, "bike_id": "f110294733ca2631905566c7cd463864", "fusion_lat": 0.0}, {"lon": -77.0166055, "name": "dde90722b4ab11be86e56d985b799d73", "is_disabled": 0, "type": "electric_scooter", "is_reserved": 0, "fusion_lon": 0.0, "lat": 38.92051266666667, "rental_uris": {"ios": "https://dc.lft.to/lastmile_qr_scan", "android": "https://dc.lft.to/lastmile_qr_scan"}, "bike_id": "dde90722b4ab11be86e56d985b799d73", "fusion_lat": 0.0}, {"lon": -77.22997416666666, "name": "b715b7d0950a1a10c0b056c70cc8f64a", "is_disabled": 0, "type": "electric_bike", "is_reserved": 0, "fusion_lon": 0.0, "lat": 38.871505666666664, "rental_uris": {"ios": "https://dc.lft.to/lastmile_qr_scan", "android": "https://dc.lft.to/lastmile_qr_scan"}, "bike_id": "b715b7d0950a1a10c0b056c70cc8f64a", "fusion_lat": 0.0}, {"lon": -76.97259016666666, "name": "467312c55b4b3e40eb939e6092ddde86", "is_disabled": 0, "type": "electric_bike", "is_reserved": 0, "fusion_lon": 0.0, "lat": 38.8559475, "rental_uris": {"ios": "https://dc.lft.to/lastmile_qr_scan", "android": "https://dc.lft.to/lastmile_qr_scan"}, "bike_id": "467312c55b4b3e40eb939e6092ddde86", "fusion_lat": 0.0}, {"lon": -77.01870066666666, "name": "4143148b627fb2919e8f6288be373efd", "is_disabled": 0, "type": "electric_scooter", "is_reserved": 0, "fusion_lon": 0.0, "lat": 38.881237, "rental_uris": {"ios": "https://dc.lft.to/lastmile_qr_scan", "android": "https://dc.lft.to/lastmile_qr_scan"}, "bike_id": "4143148b627fb2919e8f6288be373efd", "fusion_lat": 0.0},