{"data": {"bikes": [{"name": "39f16b936a12abdc7c4d8b09aba84f8c", "is_disabled": 0, "fusion_lat": 0.0, "fusion_lon": 0.0, "type": "electric_scooter", "lat": 38.89727766666667, "bike_id": "39f16b936a12abdc7c4d8b09aba84f8c", "is_reserved": 0, "lon": -77.02210016666666, "rental_uris": {"android": "https://dc.lft.to/lastmile_qr_scan", "ios": "https://dc.lft.to/lastmile_qr_scan"}}, {"name": "c5ed967d1951392b75a42f95b6dc45fa", "is_disabled": 0, "fusion_lat": 0.0, "fusion_lon": 0.0, "type": "electric_scooter", "lat": 38.88657766666667, "bike_id": "c5ed967d1951392b75a42f95b6dc45fa", "is_reserved": 0, "lon": -77.03388766666667, "rental_uris": {"android": "https://dc.lft.to/lastmile_qr_scan", "ios": "https://dc.lft.to/lastmile_qr_scan"}}, {"name": "bbc9578c36ad7707c8b64433a6b2c956", "is_disabled": 0, "fusion_lat": 0.0, "fusion_lon": 0.0, "type": "electric_scooter", "lat": 38.88075533333333, "bike_id": "bbc9578c36ad7707c8b64433a6b2c956", "is_reserved": 0, "lon": -76.98514383333334, "rental_uris": {"android": "https://dc.lft.to/lastmile_qr_scan", "ios": "https://dc.lft.to/lastmile_qr_scan"}}, {"name": "b1962fd119b3649a0dae4562fa646554", "is_disabled": 0, "fusion_lat": 0.0, "fusion_lon": 0.0, "type": "electric_scooter", "lat": 38.93865066666667, "bike_id": "b1962fd119b3649a0dae4562fa646554", "is_reserved": 0, "lon": -77.02491066666667, "rental_uris": {"android": "https://dc.lft.to/lastmile_qr_scan", "ios": "https://dc.lft.to/lastmile_qr_scan"}}, {"name": "cd541ee0689e695af49f6ccbf568a307", "is_disabled": 0, "fusion_lat": 0.0, "fusion_lon": 0.0, "type": "electric_scooter", "lat": 38.9084305, "bike_id": "cd541ee0689e695af49f6ccbf568a307", "is_reserved": 0, "lon": -77.0386815, "rental_uris": {"android": "https://dc.lft.to/lastmile_qr_scan", "ios": "https://dc.lft.to/lastmile_qr_scan"}}, {"name": "0e801b03abcc977025ccd0e310de4d0e", "is_disabled": 0, "fusion_lat": 0.0, "fusion_lon": 0.0, "type": "electric_scooter", "lat": 38.917102, "bike_id": "0e801b03abcc977025ccd0e310de4d0e", "is_reserved": 0, "lon": -77.03857916666666, "rental_uris": {"android": "https://dc.lft.to/lastmile_qr_scan", "ios": "https://dc.lft.to/lastmile_qr_scan"}}, {"name": "8163f99101f7feac962abac00fa94f17", "is_disabled": 0, "fusion_lat": 0.0, "fusion_lon": 0.0, "type": "electric_scooter", "lat": 38.926470333333334, "bike_id": "8163f99101f7feac962abac00fa94f17", "is_reserved": 0, "lon": -77.041535, "rental_uris": {"android": "https://dc.lft.to/lastmile_qr_scan", "ios": "https://dc.lft.to/lastmile_qr_scan"}}, {"name": "7e21427a84d01dc9f1705825bf637ff4", "is_disabled": 0, "fusion_lat": 0.0, "fusion_lon": 0.0, "type": "electric_scooter", "lat": 38.893163333333334, "bike_id": "7e21427a84d01dc9f1705825bf637ff4", "is_reserved": 0, "lon": -77.0487395, "rental_uris": {"android": "https://dc.lft.to/lastmile_qr_scan", "ios": "https://dc.lft.to/lastmile_qr_scan"}}, {"name": "412cd4b89ed85950d3a5763eef7dbb90", "is_disabled": 0, "fusion_lat": 0.0, "fusion_lon": 0.0, "type": "electric_scooter", "lat": 38.90553766666667, "bike_id": "412cd4b89ed85950d3a5763eef7dbb90", "is_reserved": 0, "lon": -77.04498566666666, "rental_uris": {"android": "https://dc.lft.to/lastmile_qr_scan", "ios": "https://dc.lft.to/lastmile_qr_scan"}}, {"name": "ce6e269da4a458272bccdb5bd5264a55", "is_disabled": 0, "fusion_lat": 0.0, "fusion_lon": 0.0, "type": "electric_scooter", "lat": 38.9109565, "bike_id": "ce6e269da4a458272bccdb5bd5264a55", "is_reserved": 0, "lon": -77.04493383333333, "rental_uris": {"android": "https://dc.lft.to/lastmile_qr_scan", "ios": "https://dc.lft.to/lastmile_qr_scan"}}, {"name": "98a33e5b9e96b6767d18885b5295f177", "is_disabled": 0, "fusion_lat": 0.0, "fusion_lon": 0.0, "type": "electric_scooter", "lat": 38.886080166666666, "bike_id": "98a33e5b9e96b6767d18885b5295f177", "is_reserved": 0, "lon": -76.99516766666666, "rental_uris": {"android": "https://dc.lft.to/lastmile_qr_scan", "ios": "https://dc.lft.to/lastmile_qr_scan"}}, {"name": "b47d2650dc09066a1db4a5979b7ab526", "is_disabled": 0, "fusion_lat": 0.0, "fusion_lon": 0.0, "type": "electric_scooter", "lat": 38.9044555, "bike_id": "b47d2650dc09066a1db4a5979b7ab526", "is_reserved": 0, "lon": -77.028602, "rental_uris": {"android": "https://dc.lft.to/lastmile_qr_scan", "ios": "https://dc.lft.to/lastmile_qr_scan"}}, {"name": "60a32c281e4c100e922aa7fd83c8b4dd", "is_disabled": 0, "fusion_lat": 0.0, "fusion_lon": 0.0, "type": "electric_bike", "lat": 38.967384333333335, "bike_id": "60a32c281e4c100e922aa7fd83c8b4dd", "is_reserved": 0, "lon": -76.96055266666667, "rental_uris": {"android": "https://dc.lft.to/lastmile_qr_scan", "ios": "https://dc.lft.to/lastmile_qr_scan"}}, {"name": "302118fb02d15445ba5cc3e80731cada", "is_disabled": 0, "fusion_lat": 0.0, "fusion_lon": 0.0, "type": "electric_scooter", "lat": 38.91820416666667, "bike_id": "302118fb02d15445ba5cc3e80731cada", "is_reserved": 0, "lon": -77.0369875, "rental_uris": {"android": "https://dc.lft.to/lastmile_qr_scan", "ios": "https://dc.lft.to/lastmile_qr_scan"}}, {"name": "a81f5a58db286819eb83985f7c4380a9", "is_disabled": 0, "fusion_lat": 0.0, "fusion_lon": 0.0, "type": "electric_bike", "lat": 38.89651, "bike_id": "a81f5a58db286819eb83985f7c4380a9", "is_reserved": 0, "lon": -76.93017866666666, "rental_uris": {"android": "https://dc.lft.to/lastmile_qr_scan", "ios": "https://dc.lft.to/lastmile_qr_scan"}}, {"name": "7301c1cb3d62e72807d80d7468c0917c", "is_disabled": 0, "fusion_lat": 0.0, "fusion_lon": 0.0, "type": "electric_scooter", "lat": 38.928217, "bike_id": "7301c1cb3d62e72807d80d7468c0917c", "is_reserved": 0, "lon": -77.0370265, "rental_uris": {"android": "https://dc.lft.to/lastmile_qr_scan", "ios": "https://dc.lft.to/lastmile_qr_scan"}}, {"name": "32e160288e48d8ce21c732aaf15ad945", "is_disabled": 0, "fusion_lat": 0.0, "fusion_lon": 0.0, "type": "electric_scooter", "lat": 38.9225865, "bike_id": "32e160288e48d8ce21c732aaf15ad945", "is_reserved": 0, "lon": -77.0183295, "rental_uris": {"android": "https://dc.lft.to/lastmile_qr_scan", "ios": "https://dc.lft.to/lastmile_qr_scan"}}, {"name": "c44c8bf27a26272c0df4089ed89705a1", "is_disabled": 0, "fusion_lat": 0.0, "fusion_lon": 0.0, "type": "electric_scooter", "lat": 38.92977233333333, "bike_id": "c44c8bf27a26272c0df4089ed89705a1", "is_reserved": 0, "lon": -77.014501, "rental_uris": {"android": "https://dc.lft.to/lastmile_qr_scan", "ios": "https://dc.lft.to/lastmile_qr_scan"}}, {"name": "4755c36e19f151925b398a618e078fb8", "is_disabled": 0, "fusion_lat": 0.0, "fusion_lon": 0.0, "type": "electric_scooter", "lat": 38.89628866666666, "bike_id": "4755c36e19f151925b398a618e078fb8", "is_reserved": 0, "lon": -77.02203216666666, "rental_uris": {"android": "https://dc.lft.to/lastmile_qr_scan", "ios": "https://dc.lft.to/lastmile_qr_scan"}}, {"name": "6dedc8983150d98d301f95aef697f53d", "is_disabled": 0, "fusion_lat": 0.0, "fusion_lon": 0.0, "type": "electric_scooter", "lat": 38.91021033333333, "bike_id": "6dedc8983150d98d301f95aef697f53d", "is_reserved": 0, "lon": -77.04432116666666, "rental_uris": {"android": "https://dc.lft.to/lastmile_qr_scan", "ios": "https://dc.lft.to/lastmile_qr_scan"}}, {"name": "5f790e8f124b1652dfe08784b68a693d", "is_disabled": 0, "fusion_lat": 0.0, "fusion_lon": 0.0, "type": "electric_scooter", "lat": 38.90132633333333, "bike_id": "5f790e8f124b1652dfe08784b68a693d", "is_reserved": 0, "lon": -77.0403345, "rental_uris": {"android": "https://dc.lft.to/lastmile_qr_scan", "ios": "https://dc.lft.to/lastmile_qr_scan"}}, {"name": "8e801a02105f6539d72cc621c5164969", "is_disabled": 0, "fusion_lat": 0.0, "fusion_lon": 0.0, "type": "electric_scooter", "lat": 38.902455333333336, "bike_id": "8e801a02105f6539d72cc621c5164969", "is_reserved": 0, "lon": -77.04398316666666, "rental_uris": {"android": "https://dc.lft.to/lastmile_qr_scan", "ios": "https://dc.lft.to/lastmile_qr_scan"}}, {"name": "2e0cbef41bd70f64de5c3e5a083a6f16", "is_disabled": 0, "fusion_lat": 0.0, "fusion_lon": 0.0, "type": "electric_scooter", "lat": 38.90576016666667, "bike_id": "2e0cbef41bd70f64de5c3e5a083a6f16", "is_reserved": 0, "lon": -77.04139683333334, "rental_uris": {"android": "https://dc.lft.to/lastmile_qr_scan", "ios": "https://dc.lft.to/lastmile_qr_scan"}}, {"name": "f477e25d116c9426aca48803f0191b42", "is_disabled": 0, "fusion_lat": 0.0, "fusion_lon": 0.0, "type": "electric_bike", "lat": 38.811989833333335, "bike_id": "f477e25d116c9426aca48803f0191b42", "is_reserved": 0, "lon": -77.10844333333333, "rental_uris": {"android": "https://dc.lft.to/lastmile_qr_scan", "ios": "https://dc.lft.to/lastmile_qr_scan"}}, {"name": "63565bc0869646845afb28077cd9bc3c", "is_disabled": 0, "fusion_lat": 0.0, "fusion_lon": 0.0, "type": "electric_scooter", "lat": 38.915618333333335, "bike_id": "63565bc0869646845afb28077cd9bc3c", "is_reserved": 0, "lon": -77.03187033333333, "rental_uris": {"android": "https://dc.lft.to/lastmile_qr_scan", "ios": "https://dc.lft.to/lastmile_qr_scan"}}, {"name": "d91708490ca7f54ad52b210dc072f648", "is_disabled": 0, "fusion_lat": 0.0, "fusion_lon": 0.0, "type": "electric_scooter", "lat": 38.88206116666667, "bike_id": "d91708490ca7f54ad52b210dc072f648", "is_reserved": 0, "lon": -76.92705916666667, "rental_uris": {"android": "https://dc.lft.to/lastmile_qr_scan", "ios": "https://dc.lft.to/lastmile_qr_scan"}}, {"name": "a4ff5b91a23a14aee11db730c5aa5a80", "is_disabled": 0, "fusion_lat": 0.0, "fusion_lon": 0.0, "type": "electric_scooter", "lat": 38.90578266666667, "bike_id": "a4ff5b91a23a14aee11db730c5aa5a80", "is_reserved": 0, "lon": -77.00889766666667, "rental_uris": {"android": "https://dc.lft.to/lastmile_qr_scan", "ios": "https://dc.lft.to/lastmile_qr_scan"}}, {"name": "040d0f7239b6215f1b2d224199b8dfa2", "is_disabled": 0, "fusion_lat": 0.0, "fusion_lon": 0.0, "type": "electric_scooter", "lat": 38.91136983333333, "bike_id": "040d0f7239b6215f1b2d224199b8dfa2", "is_reserved": 0, "lon": -77.004645, "rental_uris": {"android": "https://dc.lft.to/lastmile_qr_scan", "ios": "https://dc.lft.to/lastmile_qr_scan"}}, {"name": "1f1065a8d51a50fc35d83ff25584730a", "is_disabled": 0, "fusion_lat": 0.0, "fusion_lon": 0.0, "type": "electric_scooter", "lat": 38.90072833333333, "bike_id": "1f1065a8d51a50fc35d83ff25584730a", "is_reserved": 0, "lon": -77.04840766666666, "rental_uris": {"android": "https://dc.lft.to/lastmile_qr_scan", "ios": "https://dc.lft.to/lastmile_qr_scan"}}, {"name": "4cc8e1ad82f1d8cddf9d5e6251223d1f", "is_disabled": 0, "fusion_lat": 0.0, "fusion_lon": 0.0, "type": "electric_scooter", "lat": 38.88069566666667, "bike_id": "4cc8e1ad82f1d8cddf9d5e6251223d1f", "is_reserved": 0, "lon": -77.0055885, "rental_uris": {"android": "https://dc.lft.to/lastmile_qr_scan", "ios": "https://dc.lft.to/lastmile_qr_scan"}}, {"name": "267b894ef8b9da296956e673b4e81115", "is_disabled": 0, "fusion_lat": 0.0, "fusion_lon": 0.0, "type": "electric_scooter", "lat": 38.908607833333335, "bike_id": "267b894ef8b9da296956e673b4e81115", "is_reserved": 0, "lon": -77.04056383333334, "rental_uris": {"android": "https://dc.lft.to/lastmile_qr_scan", "ios": "https://dc.lft.to/lastmile_qr_scan"}}, {"name": "e1b882cab8059fddc9c2443992efc400", "is_disabled": 0, "fusion_lat": 0.0, "fusion_lon": 0.0, "type": "electric_scooter", "lat": 38.919126, "bike_id": "e1b882cab8059fddc9c2443992efc400", "is_reserved": 0, "lon": -77.02428333333333, "rental_uris": {"android": "https://dc.lft.to/lastmile_qr_scan", "ios": "https://dc.lft.to/lastmile_qr_scan"}}, {"name": "5b626100ba70df0b809c13b83ded94eb", "is_disabled": 0, "fusion_lat": 0.0, "fusion_lon": 0.0, "type": "electric_scooter", "lat": 38.91679716666667, "bike_id": "5b626100ba70df0b809c13b83ded94eb", "is_reserved": 0, "lon": -77.02974733333333, "rental_uris": {"android": "https://dc.lft.to/lastmile_qr_scan", "ios": "https://dc.lft.to/lastmile_qr_scan"}}, {"name": "793f4a0db79a29d69f4c99b30afcca69", "is_disabled": 0, "fusion_lat": 0.0, "fusion_lon": 0.0, "type": "electric_scooter", "lat": 38.90441, "bike_id": "793f4a0db79a29d69f4c99b30afcca69", "is_reserved": 0, "lon": -77.03241116666666, "rental_uris": {"android": "https://dc.lft.to/lastmile_qr_scan", "ios": "https://dc.lft.to/lastmile_qr_scan"}}, {"name": "2c2764ef9ec85a046c1bd8b58c29ee99", "is_disabled": 0, "fusion_lat": 0.0, "fusion_lon": 0.0, "type": "electric_bike", "lat": 38.903773666666666, "bike_id": "2c2764ef9ec85a046c1bd8b58c29ee99", "is_reserved": 0, "lon": -77.04738733333333, "rental_uris": {"android": "https://dc.lft.to/lastmile_qr_scan", "ios": "https://dc.lft.to/lastmile_qr_scan"}}, {"name": "3a2db4fbe5f8ff0990e17a7248e62cf7", "is_disabled": 0, "fusion_lat": 0.0, "fusion_lon": 0.0, "type": "electric_scooter", "lat": 38.91172666666667, "bike_id": "3a2db4fbe5f8ff0990e17a7248e62cf7", "is_reserved": 0, "lon": -77.04447533333334, "rental_uris": {"android": "https://dc.lft.to/lastmile_qr_scan", "ios": "https://dc.lft.to/lastmile_qr_scan"}}, {"name": "3cb8ec92ea1c28263ae8259483b3a7d0", "is_disabled": 0, "fusion_lat": 0.0, "fusion_lon": 0.0, "type": "electric_scooter", "lat": 38.90079183333334, "bike_id": "3cb8ec92ea1c28263ae8259483b3a7d0", "is_reserved": 0, "lon": -77.050603, "rental_uris": {"android": "https://dc.lft.to/lastmile_qr_scan", "ios": "https://dc.lft.to/lastmile_qr_scan"}}, {"name": "2368477f0ff5b4eb90f7d5e9d71b0e55", "is_disabled": 0, "fusion_lat": 0.0, "fusion_lon": 0.0, "type": "electric_scooter", "lat": 38.916922166666666, "bike_id": "2368477f0ff5b4eb90f7d5e9d71b0e55", "is_reserved": 0, "lon": -77.02600466666667, "rental_uris": {"android": "https://dc.lft.to/lastmile_qr_scan", "ios": "https://dc.lft.to/lastmile_qr_scan"}}, {"name": "cf6a281fe2b6889f113e418d4d960af9", "is_disabled": 0, "fusion_lat": 0.0, "fusion_lon": 0.0, "type": "electric_scooter", "lat": 38.905242666666666, "bike_id": "cf6a281fe2b6889f113e418d4d960af9", "is_reserved": 0, "lon": -77.06382683333334, "rental_uris": {"android": "https://dc.lft.to/lastmile_qr_scan", "ios": "https://dc.lft.to/lastmile_qr_scan"}}, {"name": "114c34a384a4dedda6bd40e0bc239890", "is_disabled": 0, "fusion_lat": 0.0, "fusion_lon": 0.0, "type": "electric_scooter", "lat": 38.906600166666664, "bike_id": "114c34a384a4dedda6bd40e0bc239890", "is_reserved": 0, "lon": -77.0433375, "rental_uris": {"android": "https://dc.lft.to/lastmile_qr_scan", "ios": "https://dc.lft.to/lastmile_qr_scan"}}, {"name": "23dfb099b6f16f0c230bf70964b138e1", "is_disabled": 0, "fusion_lat": 0.0, "fusion_lon": 0.0, "type": "electric_scooter", "lat": 38.92329466666666, "bike_id": "23dfb099b6f16f0c230bf70964b138e1", "is_reserved": 0, "lon": -76.99909683333334, "rental_uris": {"android": "https://dc.lft.to/lastmile_qr_scan", "ios": "https://dc.lft.to/lastmile_qr_scan"}}, {"name": "9575e1d4ced01c769a34e9221606c621", "is_disabled": 0, "fusion_lat": 0.0, "fusion_lon": 0.0, "type": "electric_scooter", "lat": 38.8802, "bike_id": "9575e1d4ced01c769a34e9221606c621", "is_reserved": 0, "lon": -76.98483766666666, "rental_uris": {"android": "https://dc.lft.to/lastmile_qr_scan", "ios": "https://dc.lft.to/lastmile_qr_scan"}}, {"name": "e138fbc9a459a355e378aacd0a50e28d", "is_disabled": 0, "fusion_lat": 0.0, "fusion_lon": 0.0, "type": "electric_bike", "lat": 38.882442, "bike_id": "e138fbc9a459a355e378aacd0a50e28d", "is_reserved": 0, "lon": -76.9625735, "rental_uris": {"android": "https://dc.lft.to/lastmile_qr_scan", "ios": "https://dc.lft.to/lastmile_qr_scan"}}, {"name": "adc49cf308e22489f856dd139de874ea", "is_disabled": 0, "fusion_lat": 0.0, "fusion_lon": 0.0, "type": "electric_scooter", "lat": 38.8984495, "bike_id": "adc49cf308e22489f856dd139de874ea", "is_reserved": 0, "lon": -77.04154633333333, "rental_uris": {"android": "https://dc.lft.to/lastmile_qr_scan", "ios": "https://dc.lft.to/lastmile_qr_scan"}}, {"name": "ea0fb1b387537135fc9a14ae0bba7723", "is_disabled": 0, "fusion_lat": 0.0, "fusion_lon": 0.0, "type": "electric_scooter", "lat": 38.900254333333336, "bike_id": "ea0fb1b387537135fc9a14ae0bba7723", "is_reserved": 0, "lon": -77.00209883333333, "rental_uris": {"android": "https://dc.lft.to/lastmile_qr_scan", "ios": "https://dc.lft.to/lastmile_qr_scan"}}, {"name": "5e786292f6a5b391814f3d5121f09e08", "is_disabled": 0, "fusion_lat": 0.0, "fusion_lon": 0.0, "type": "electric_scooter", "lat": 38.92512816666667, "bike_id": "5e786292f6a5b391814f3d5121f09e08", "is_reserved": 0, "lon": -77.05260033333333, "rental_uris": {"android": "https://dc.lft.to/lastmile_qr_scan", "ios": "https://dc.lft.to/lastmile_qr_scan"}}, {"name": "1cfe65f9f36fe4fe7c88be2d06c40d3f", "is_disabled": 0, "fusion_lat": 0.0, "fusion_lon": 0.0, "type": "electric_scooter", "lat": 38.92821933333333, "bike_id": "1cfe65f9f36fe4fe7c88be2d06c40d3f", "is_reserved": 0, "lon": -77.02286183333334, "rental_uris": {"android": "https://dc.lft.to/lastmile_qr_scan", "ios": "https://dc.lft.to/lastmile_qr_scan"}}, {"name": "bcbb0ce624be0586018ba324d9cb5ee3", "is_disabled": 0, "fusion_lat": 0.0, "fusion_lon": 0.0, "type": "electric_scooter", "lat": 38.8901635, "bike_id": "bcbb0ce624be0586018ba324d9cb5ee3", "is_reserved": 0, "lon": -76.93735516666666, "rental_uris": {"android": "https://dc.lft.to/lastmile_qr_scan", "ios": "https://dc.lft.to/lastmile_qr_scan"}}, {"name": "b2cd8fb03f0bbf071a53454b88881855", "is_disabled": 0, "fusion_lat": 0.0, "fusion_lon": 0.0, "type": "electric_scooter", "lat": 38.9084335, "bike_id": "b2cd8fb03f0bbf071a53454b88881855", "is_reserved": 0, "lon": -77.034559, "rental_uris": {"android": "https://dc.lft.to/lastmile_qr_scan", "ios": "https://dc.lft.to/lastmile_qr_scan"}}, {"name": "94b6d1f8e5bdc3b77c3a9f68c065ebbc", "is_disabled": 0, "fusion_lat": 0.0, "fusion_lon": 0.0, "type": "electric_bike", "lat": 38.9362615, "bike_id": "94b6d1f8e5bdc3b77c3a9f68c065ebbc", "is_reserved": 0, "lon": -77.09025516666667, "rental_uris": {"android": "https://dc.lft.to/lastmile_qr_scan", "ios": "https://dc.lft.to/lastmile_qr_scan"}}, {"name": "c0e41630870a5f87bcbcd2a83defd35f", "is_disabled": 0, "fusion_lat": 0.0, "fusion_lon": 0.0, "type": "electric_scooter", "lat": 38.910811, "bike_id": "c0e41630870a5f87bcbcd2a83defd35f", "is_reserved": 0, "lon": -76.9926775, "rental_uris": {"android": "https://dc.lft.to/lastmile_qr_scan", "ios": "https://dc.lft.to/lastmile_qr_scan"}}, {"name": "26831b116c52a8a3aa5a8ad92d1472bf", "is_disabled": 0, "fusion_lat": 0.0, "fusion_lon": 0.0, "type": "electric_scooter", "lat": 38.919013166666666, "bike_id": "26831b116c52a8a3aa5a8ad92d1472bf", "is_reserved": 0, "lon": -77.020966, "rental_uris": {"android": "https://dc.lft.to/lastmile_qr_scan", "ios": "https://dc.lft.to/lastmile_qr_scan"}}, {"name": "3e37f17383a0e90950128f61627d8ef5", "is_disabled": 0, "fusion_lat": 0.0, "fusion_lon": 0.0, "type": "electric_scooter", "lat": 38.915628833333336, "bike_id": "3e37f17383a0e90950128f61627d8ef5", "is_reserved": 0, "lon": -77.031854, "rental_uris": {"android": "https://dc.lft.to/lastmile_qr_scan", "ios": "https://dc.lft.to/lastmile_qr_scan"}}, {"name": "43662e7776323e7ea1c82662805a7251", "is_disabled": 0, "fusion_lat": 0.0, "fusion_lon": 0.0, "type": "electric_scooter", "lat": 38.9309595, "bike_id": "43662e7776323e7ea1c82662805a7251", "is_reserved": 0, "lon": -77.03815783333333, "rental_uris": {"android": "https://dc.lft.to/lastmile_qr_scan", "ios": "https://dc.lft.to/lastmile_qr_scan"}}, {"name": "00b317bfc63bc69b837206d01f2a7b69", "is_disabled": 0, "fusion_lat": 0.0, "fusion_lon": 0.0, "type": "electric_bike", "lat": 38.80131433333333, "bike_id": "00b317bfc63bc69b837206d01f2a7b69", "is_reserved": 0, "lon": -77.0704815, "rental_uris": {"android": "https://dc.lft.to/lastmile_qr_scan", "ios": "https://dc.lft.to/lastmile_qr_scan"}}, {"name": "f9fbb3ec39a1865c45e772cfd1cf0489", "is_disabled": 0, "fusion_lat": 0.0, "fusion_lon": 0.0, "type": "electric_scooter", "lat": 38.90713683333333, "bike_id": "f9fbb3ec39a1865c45e772cfd1cf0489", "is_reserved": 0, "lon": -77.048177, "rental_uris": {"android": "https://dc.lft.to/lastmile_qr_scan", "ios": "https://dc.lft.to/lastmile_qr_scan"}}, {"name": "4880da775d120ecd47569944e365808a", "is_disabled": 0, "fusion_lat": 0.0, "fusion_lon": 0.0, "type": "electric_scooter", "lat": 38.91794133333333, "bike_id": "4880da775d120ecd47569944e365808a", "is_reserved": 0, "lon": -77.03181466666666, "rental_uris": {"android": "https://dc.lft.to/lastmile_qr_scan", "ios": "https://dc.lft.to/lastmile_qr_scan"}}, {"name": "9d06e70a79f53f99263feaac021d45f8", "is_disabled": 0, "fusion_lat": 0.0, "fusion_lon": 0.0, "type": "electric_scooter", "lat": 38.8753665, "bike_id": "9d06e70a79f53f99263feaac021d45f8", "is_reserved": 0, "lon": -77.00584116666667, "rental_uris": {"android": "https://dc.lft.to/lastmile_qr_scan", "ios": "https://dc.lft.to/lastmile_qr_scan"}}, {"name": "290ac42737d48d8186a6c51304db69b9", "is_disabled": 0, "fusion_lat": 0.0, "fusion_lon": 0.0, "type": "electric_scooter", "lat": 38.908092333333336, "bike_id": "290ac42737d48d8186a6c51304db69b9", "is_reserved": 0, "lon": -77.038423, "rental_uris": {"android": "https://dc.lft.to/lastmile_qr_scan", "ios": "https://dc.lft.to/lastmile_qr_scan"}}, {"name": "bee1b7baf04bf6f9c721e63feb30bdee", "is_disabled": 0, "fusion_lat": 0.0, "fusion_lon": 0.0, "type": "electric_scooter", "lat": 38.894731166666666, "bike_id": "bee1b7baf04bf6f9c721e63feb30bdee", "is_reserved": 0, "lon": -77.01096583333333, "rental_uris": {"android": "https://dc.lft.to/lastmile_qr_scan", "ios": "https://dc.lft.to/lastmile_qr_scan"}}, {"name": "144e96444a539ffb97268470ce4f9e53", "is_disabled": 0, "fusion_lat": 0.0, "fusion_lon": 0.0, "type": "electric_scooter", "lat": 38.890137833333334, "bike_id": "144e96444a539ffb97268470ce4f9e53", "is_reserved": 0, "lon": -76.93728983333334, "rental_uris": {"android": "https://dc.lft.to/lastmile_qr_scan", "ios": "https://dc.lft.to/lastmile_qr_scan"}}, {"name": "0748031a9caf7acb248e3d44d1aa60fc", "is_disabled": 0, "fusion_lat": 0.0, "fusion_lon": 0.0, "type": "electric_scooter", "lat": 38.90131083333333, "bike_id": "0748031a9caf7acb248e3d44d1aa60fc", "is_reserved": 0, "lon": -77.0085545, "rental_uris": {"android": "https://dc.lft.to/lastmile_qr_scan", "ios": "https://dc.lft.to/lastmile_qr_scan"}}, {"name": "38532c0849b3344cb70c90868ebe75bc", "is_disabled": 0, "fusion_lat": 0.0, "fusion_lon": 0.0, "type": "electric_bike", "lat": 38.907418166666666, "bike_id": "38532c0849b3344cb70c90868ebe75bc", "is_reserved": 0, "lon": -77.04562133333333, "rental_uris": {"android": "https://dc.lft.to/lastmile_qr_scan", "ios": "https://dc.lft.to/lastmile_qr_scan"}}, {"name": "323279b8c95f3a33c06621c04c463bb7", "is_disabled": 0, "fusion_lat": 0.0, "fusion_lon": 0.0, "type": "electric_scooter", "lat": 38.8980175, "bike_id": "323279b8c95f3a33c06621c04c463bb7", "is_reserved": 0, "lon": -77.04008716666667, "rental_uris": {"android": "https://dc.lft.to/lastmile_qr_scan", "ios": "https://dc.lft.to/lastmile_qr_scan"}}, {"name": "70a2cfd5ef528e4b7d107f4e1ccebc88", "is_disabled": 0, "fusion_lat": 0.0, "fusion_lon": 0.0, "type": "electric_scooter", "lat": 38.922623333333334, "bike_id": "70a2cfd5ef528e4b7d107f4e1ccebc88", "is_reserved": 0, "lon": -77.04251016666667, "rental_uris": {"android": "https://dc.lft.to/lastmile_qr_scan", "ios": "https://dc.lft.to/lastmile_qr_scan"}}, {"name": "de917f93385897603a20ddaf6ceaa351", "is_disabled": 0, "fusion_lat": 0.0, "fusion_lon": 0.0, "type": "electric_scooter", "lat": 38.90687416666667, "bike_id": "de917f93385897603a20ddaf6ceaa351", "is_reserved": 0, "lon": -77.04199016666666, "rental_uris": {"android": "https://dc.lft.to/lastmile_qr_scan", "ios": "https://dc.lft.to/lastmile_qr_scan"}}, {"name": "03b3eb0599826a527130edc3c68683ee", "is_disabled": 0, "fusion_lat": 0.0, "fusion_lon": 0.0, "type": "electric_scooter", "lat": 38.934842, "bike_id": "03b3eb0599826a527130edc3c68683ee", "is_reserved": 0, "lon": -77.06483816666666, "rental_uris": {"android": "https://dc.lft.to/lastmile_qr_scan", "ios": "https://dc.lft.to/lastmile_qr_scan"}}, {"name": "0467bc80965ed84c15e530ce3f77cedd", "is_disabled": 0, "fusion_lat": 0.0, "fusion_lon": 0.0, "type": "electric_scooter", "lat": 38.951930833333336, "bike_id": "0467bc80965ed84c15e530ce3f77cedd", "is_reserved": 0, "lon": -77.0274165, "rental_uris": {"android": "https://dc.lft.to/lastmile_qr_scan", "ios": "https://dc.lft.to/lastmile_qr_scan"}}, {"name": "d53f57e497a8449fdfc125cb7512ebf8", "is_disabled": 0, "fusion_lat": 0.0, "fusion_lon": 0.0, "type": "electric_scooter", "lat": 38.905257666666664, "bike_id": "d53f57e497a8449fdfc125cb7512ebf8", "is_reserved": 0, "lon": -77.04181916666667, "rental_uris": {"android": "https://dc.lft.to/lastmile_qr_scan", "ios": "https://dc.lft.to/lastmile_qr_scan"}}, {"name": "66964132c7f1236f65e93071ba8c7b14", "is_disabled": 0, "fusion_lat": 0.0, "fusion_lon": 0.0, "type": "electric_scooter", "lat": 38.90154033333334, "bike_id": "66964132c7f1236f65e93071ba8c7b14", "is_reserved": 0, "lon": -77.02862916666666, "rental_uris": {"android": "https://dc.lft.to/lastmile_qr_scan", "ios": "https://dc.lft.to/lastmile_qr_scan"}}, {"name": "87d814227701aa0a0bfd6dc0d95f76e7", "is_disabled": 0, "fusion_lat": 0.0, "fusion_lon": 0.0, "type": "electric_scooter", "lat": 38.908761166666665, "bike_id": "87d814227701aa0a0bfd6dc0d95f76e7", "is_reserved": 0, "lon": -77.08595983333333, "rental_uris": {"android": "https://dc.lft.to/lastmile_qr_scan", "ios": "https://dc.lft.to/lastmile_qr_scan"}}, {"name": "dbc784499396e733e0590f4336f3f292", "is_disabled": 0, "fusion_lat": 0.0, "fusion_lon": 0.0, "type": "electric_scooter", "lat": 38.90772033333333, "bike_id": "dbc784499396e733e0590f4336f3f292", "is_reserved": 0, "lon": -77.042506, "rental_uris": {"android": "https://dc.lft.to/lastmile_qr_scan", "ios": "https://dc.lft.to/lastmile_qr_scan"}}, {"name": "68bb79904a4f36257fbb0a53b84bda37", "is_disabled": 0, "fusion_lat": 0.0, "fusion_lon": 0.0, "type": "electric_scooter", "lat": 38.9181035, "bike_id": "68bb79904a4f36257fbb0a53b84bda37", "is_reserved": 0, "lon": -77.08960483333334, "rental_uris": {"android": "https://dc.lft.to/lastmile_qr_scan", "ios": "https://dc.lft.to/lastmile_qr_scan"}}, {"name": "1eff2413fd1ae66c72fee201724725fb", "is_disabled": 0, "fusion_lat": 0.0, "fusion_lon": 0.0, "type": "electric_scooter", "lat": 38.904656, "bike_id": "1eff2413fd1ae66c72fee201724725fb", "is_reserved": 0, "lon": -77.041735, "rental_uris": {"android": "https://dc.lft.to/lastmile_qr_scan", "ios": "https://dc.lft.to/lastmile_qr_scan"}}, {"name": "2e5b964da4173e4322af53f886ea5e56", "is_disabled": 0, "fusion_lat": 0.0, "fusion_lon": 0.0, "type": "electric_scooter", "lat": 38.896254166666665, "bike_id": "2e5b964da4173e4322af53f886ea5e56", "is_reserved": 0, "lon": -77.0238155, "rental_uris": {"android": "https://dc.lft.to/lastmile_qr_scan", "ios": "https://dc.lft.to/lastmile_qr_scan"}}, {"name": "a17d1d9415e6ed5d7f246cce77222459", "is_disabled": 0, "fusion_lat": 0.0, "fusion_lon": 0.0, "type": "electric_bike", "lat": 38.96321233333333, "bike_id": "a17d1d9415e6ed5d7f246cce77222459", "is_reserved": 0, "lon": -76.9736555, "rental_uris": {"android": "https://dc.lft.to/lastmile_qr_scan", "ios": "https://dc.lft.to/lastmile_qr_scan"}}, {"name": "929f4a649197aad731d08e9ea775ca27", "is_disabled": 0, "fusion_lat": 0.0, "fusion_lon": 0.0, "type": "electric_scooter", "lat": 38.917036, "bike_id": "929f4a649197aad731d08e9ea775ca27", "is_reserved": 0, "lon": -77.034664, "rental_uris": {"android": "https://dc.lft.to/lastmile_qr_scan", "ios": "https://dc.lft.to/lastmile_qr_scan"}}, {"name": "7888411dd80b3ebc4b5164a47a6aa410", "is_disabled": 0, "fusion_lat": 0.0, "fusion_lon": 0.0, "type": "electric_scooter", "lat": 38.902739, "bike_id": "7888411dd80b3ebc4b5164a47a6aa410", "is_reserved": 0, "lon": -77.03962333333334, "rental_uris": {"android": "https://dc.lft.to/lastmile_qr_scan", "ios": "https://dc.lft.to/lastmile_qr_scan"}}, {"name": "0d0a33ae0d2e2e640141ce772fafe41b", "is_disabled": 0, "fusion_lat": 0.0, "fusion_lon": 0.0, "type": "electric_scooter", "lat": 38.903902, "bike_id": "0d0a33ae0d2e2e640141ce772fafe41b", "is_reserved": 0, "lon": -77.03429216666666, "rental_uris": {"android": "https://dc.lft.to/lastmile_qr_scan", "ios": "https://dc.lft.to/lastmile_qr_scan"}}, {"name": "18f9b82076b0a502b15d2d67ae4a1ad9", "is_disabled": 0, "fusion_lat": 0.0, "fusion_lon": 0.0, "type": "electric_scooter", "lat": 38.909508, "bike_id": "18f9b82076b0a502b15d2d67ae4a1ad9", "is_reserved": 0, "lon": -77.03202383333333, "rental_uris": {"android": "https://dc.lft.to/lastmile_qr_scan", "ios": "https://dc.lft.to/lastmile_qr_scan"}}, {"name": "dece2fc8cf041b00b8d09f44e3925210", "is_disabled": 0, "fusion_lat": 0.0, "fusion_lon": 0.0, "type": "electric_bike", "lat": 38.94837233333333, "bike_id": "dece2fc8cf041b00b8d09f44e3925210", "is_reserved": 0, "lon": -76.999021, "rental_uris": {"android": "https://dc.lft.to/lastmile_qr_scan", "ios": "https://dc.lft.to/lastmile_qr_scan"}}, {"name": "05e34ff0dc014acca26813a00d5f55fa", "is_disabled": 0, "fusion_lat": 0.0, "fusion_lon": 0.0, "type": "electric_bike", "lat": 38.96298633333333, "bike_id": "05e34ff0dc014acca26813a00d5f55fa", "is_reserved": 0, "lon": -77.01113783333334, "rental_uris": {"android": "https://dc.lft.to/lastmile_qr_scan", "ios": "https://dc.lft.to/lastmile_qr_scan"}}, {"name": "f47822b690adb2cf316fe80bb31c0798", "is_disabled": 0, "fusion_lat": 0.0, "fusion_lon": 0.0, "type": "electric_scooter", "lat": 38.9359715, "bike_id": "f47822b690adb2cf316fe80bb31c0798", "is_reserved": 0, "lon": -77.037783, "rental_uris": {"android": "https://dc.lft.to/lastmile_qr_scan", "ios": "https://dc.lft.to/lastmile_qr_scan"}}, {"name": "e7c07914a6baf2da46054a05a3e15902", "is_disabled": 0, "fusion_lat": 0.0, "fusion_lon": 0.0, "type": "electric_scooter", "lat": 38.9304335, "bike_id": "e7c07914a6baf2da46054a05a3e15902", "is_reserved": 0, "lon": -77.01231783333333, "rental_uris": {"android": "https://dc.lft.to/lastmile_qr_scan", "ios": "https://dc.lft.to/lastmile_qr_scan"}}, {"name": "659409363d18156ae5b91063857121f0", "is_disabled": 0, "fusion_lat": 0.0, "fusion_lon": 0.0, "type": "electric_scooter", "lat": 38.90127733333333, "bike_id": "659409363d18156ae5b91063857121f0", "is_reserved": 0, "lon": -77.03975983333333, "rental_uris": {"android": "https://dc.lft.to/lastmile_qr_scan", "ios": "https://dc.lft.to/lastmile_qr_scan"}}, {"name": "b22ed10bc329670e6076fc6311ad0ba4", "is_disabled": 0, "fusion_lat": 0.0, "fusion_lon": 0.0, "type": "electric_scooter", "lat": 38.92311983333333, "bike_id": "b22ed10bc329670e6076fc6311ad0ba4", "is_reserved": 0, "lon": -77.01956583333333, "rental_uris": {"android": "https://dc.lft.to/lastmile_qr_scan", "ios": "https://dc.lft.to/lastmile_qr_scan"}}, {"name": "39474b8d87bfc169a82879e80a4e6866", "is_disabled": 0, "fusion_lat": 0.0, "fusion_lon": 0.0, "type": "electric_scooter", "lat": 38.9179845, "bike_id": "39474b8d87bfc169a82879e80a4e6866", "is_reserved": 0, "lon": -77.0402225, "rental_uris": {"android": "https://dc.lft.to/lastmile_qr_scan", "ios": "https://dc.lft.to/lastmile_qr_scan"}}, {"name": "32a0196e9d3b20df6330b0622ffad5ef", "is_disabled": 0, "fusion_lat": 0.0, "fusion_lon": 0.0, "type": "electric_scooter", "lat": 38.89214583333333, "bike_id": "32a0196e9d3b20df6330b0622ffad5ef", "is_reserved": 0, "lon": -77.02351366666667, "rental_uris": {"android": "https://dc.lft.to/lastmile_qr_scan", "ios": "https://dc.lft.to/lastmile_qr_scan"}}, {"name": "0c2e7f7f41243622651ee9074d81854a", "is_disabled": 0, "fusion_lat": 0.0, "fusion_lon": 0.0, "type": "electric_scooter", "lat": 38.89920766666667, "bike_id": "0c2e7f7f41243622651ee9074d81854a", "is_reserved": 0, "lon": -76.933795, "rental_uris": {"android": "https://dc.lft.to/lastmile_qr_scan", "ios": "https://dc.lft.to/lastmile_qr_scan"}}, {"name": "93d741941b7982172c8793065d2873d7", "is_disabled": 0, "fusion_lat": 0.0, "fusion_lon": 0.0, "type": "electric_scooter", "lat": 38.924416666666666, "bike_id": "93d741941b7982172c8793065d2873d7", "is_reserved": 0, "lon": -77.02160216666667, "rental_uris": {"android": "https://dc.lft.to/lastmile_qr_scan", "ios": "https://dc.lft.to/lastmile_qr_scan"}}, {"name": "d8f965472d7bd10922bc460b5554300b", "is_disabled": 0, "fusion_lat": 0.0, "fusion_lon": 0.0, "type": "electric_scooter", "lat": 38.8982475, "bike_id": "d8f965472d7bd10922bc460b5554300b", "is_reserved": 0, "lon": -76.9465, "rental_uris": {"android": "https://dc.lft.to/lastmile_qr_scan", "ios": "https://dc.lft.to/lastmile_qr_scan"}}, {"name": "6b02097eb9bcab8a69f8257a2b8ee719", "is_disabled": 0, "fusion_lat": 0.0, "fusion_lon": 0.0, "type": "electric_bike", "lat": 39.06293766666667, "bike_id": "6b02097eb9bcab8a69f8257a2b8ee719", "is_reserved": 0, "lon": -77.04982383333333, "rental_uris": {"android": "https://dc.lft.to/lastmile_qr_scan", "ios": "https://dc.lft.to/lastmile_qr_scan"}}, {"name": "0cde6541422376b4d12682c78bb1ac2c", "is_disabled": 0, "fusion_lat": 0.0, "fusion_lon": 0.0, "type": "electric_scooter", "lat": 38.929741666666665, "bike_id": "0cde6541422376b4d12682c78bb1ac2c", "is_reserved": 0, "lon": -77.0132625, "rental_uris": {"android": "https://dc.lft.to/lastmile_qr_scan", "ios": "https://dc.lft.to/lastmile_qr_scan"}}, {"name": "965993c1d06bcdda844099a51c6dde4c", "is_disabled": 0, "fusion_lat": 0.0, "fusion_lon": 0.0, "type": "electric_scooter", "lat": 38.94875233333333, "bike_id": "965993c1d06bcdda844099a51c6dde4c", "is_reserved": 0, "lon": -77.02691033333333, "rental_uris": {"android": "https://dc.lft.to/lastmile_qr_scan", "ios": "https://dc.lft.to/lastmile_qr_scan"}}, {"name": "da473efcb9c1d6153c5f427149fc8c4b", "is_disabled": 0, "fusion_lat": 0.0, "fusion_lon": 0.0, "type": "electric_scooter", "lat": 38.89856533333333, "bike_id": "da473efcb9c1d6153c5f427149fc8c4b", "is_reserved": 0, "lon": -76.92746916666667, "rental_uris": {"android": "https://dc.lft.to/lastmile_qr_scan", "ios": "https://dc.lft.to/lastmile_qr_scan"}}, {"name": "f83ec7a6b5bd2ed4130c87a8a4e77f74", "is_disabled": 0, "fusion_lat": 0.0, "fusion_lon": 0.0, "type": "electric_scooter", "lat": 38.8553785, "bike_id": "f83ec7a6b5bd2ed4130c87a8a4e77f74", "is_reserved": 0, "lon": -76.98420783333333, "rental_uris": {"android": "https://dc.lft.to/lastmile_qr_scan", "ios": "https://dc.lft.to/lastmile_qr_scan"}}, {"name": "8b0c7e38a0b8b8e7d314f1b322311f95", "is_disabled": 0, "fusion_lat": 0.0, "fusion_lon": 0.0, "type": "electric_scooter", "lat": 38.89688966666667, "bike_id": "8b0c7e38a0b8b8e7d314f1b322311f95", "is_reserved": 0, "lon": -77.02408666666666, "rental_uris": {"android": "https://dc.lft.to/lastmile_qr_scan", "ios": "https://dc.lft.to/lastmile_qr_scan"}}, {"name": "7db122023c64b4c41f20fbfd1d230a0e", "is_disabled": 0, "fusion_lat": 0.0, "fusion_lon": 0.0, "type": "electric_scooter", "lat": 38.90078116666667, "bike_id": "7db122023c64b4c41f20fbfd1d230a0e", "is_reserved": 0, "lon": -76.93018316666667, "rental_uris": {"android": "https://dc.lft.to/lastmile_qr_scan", "ios": "https://dc.lft.to/lastmile_qr_scan"}}, {"name": "e00136fc88e5a029d8be89af5b7dbb77", "is_disabled": 0, "fusion_lat": 0.0, "fusion_lon": 0.0, "type": "electric_scooter", "lat": 38.91767333333333, "bike_id": "e00136fc88e5a029d8be89af5b7dbb77", "is_reserved": 0, "lon": -77.04062666666667, "rental_uris": {"android": "https://dc.lft.to/lastmile_qr_scan", "ios": "https://dc.lft.to/lastmile_qr_scan"}}, {"name": "75384a60d37fc0397cd6ff5beab8a79a", "is_disabled": 0, "fusion_lat": 0.0, "fusion_lon": 0.0, "type": "electric_scooter", "lat": 38.923102666666665, "bike_id": "75384a60d37fc0397cd6ff5beab8a79a", "is_reserved": 0, "lon": -77.01955133333334, "rental_uris": {"android": "https://dc.lft.to/lastmile_qr_scan", "ios": "https://dc.lft.to/lastmile_qr_scan"}}, {"name": "b4311d13b0de182198dc3fcc2151ad07", "is_disabled": 0, "fusion_lat": 0.0, "fusion_lon": 0.0, "type": "electric_scooter", "lat": 38.9072325, "bike_id": "b4311d13b0de182198dc3fcc2151ad07", "is_reserved": 0, "lon": -77.04356833333334, "rental_uris": {"android": "https://dc.lft.to/lastmile_qr_scan", "ios": "https://dc.lft.to/lastmile_qr_scan"}}, {"name": "c6e85583b850c568ca2b787d04ba5bd5", "is_disabled": 0, "fusion_lat": 0.0, "fusion_lon": 0.0, "type": "electric_scooter", "lat": 38.88486316666667, "bike_id": "c6e85583b850c568ca2b787d04ba5bd5", "is_reserved": 0, "lon": -76.926187, "rental_uris": {"android": "https://dc.lft.to/lastmile_qr_scan", "ios": "https://dc.lft.to/lastmile_qr_scan"}}, {"name": "279f991fe694797d9b2073e159cbd556", "is_disabled": 0, "fusion_lat": 0.0, "fusion_lon": 0.0, "type": "electric_bike", "lat": 38.95648933333333, "bike_id": "279f991fe694797d9b2073e159cbd556", "is_reserved": 0, "lon": -77.012828, "rental_uris": {"android": "https://dc.lft.to/lastmile_qr_scan", "ios": "https://dc.lft.to/lastmile_qr_scan"}}, {"name": "2ed5669747048a6f010046cfae500cd0", "is_disabled": 0, "fusion_lat": 0.0, "fusion_lon": 0.0, "type": "electric_bike", "lat": 38.9565135, "bike_id": "2ed5669747048a6f010046cfae500cd0", "is_reserved": 0, "lon": -77.01283716666667, "rental_uris": {"android": "https://dc.lft.to/lastmile_qr_scan", "ios": "https://dc.lft.to/lastmile_qr_scan"}}, {"name": "fc98527896c2513add26ea258c2adf3f", "is_disabled": 0, "fusion_lat": 0.0, "fusion_lon": 0.0, "type": "electric_bike", "lat": 38.98819266666667, "bike_id": "fc98527896c2513add26ea258c2adf3f", "is_reserved": 0, "lon": -77.026589, "rental_uris": {"android": "https://dc.lft.to/lastmile_qr_scan", "ios": "https://dc.lft.to/lastmile_qr_scan"}}, {"name": "d62c0d0d41d275f58b05b81cae74a5c6", "is_disabled": 0, "fusion_lat": 0.0, "fusion_lon": 0.0, "type": "electric_scooter", "lat": 38.90753, "bike_id": "d62c0d0d41d275f58b05b81cae74a5c6", "is_reserved": 0, "lon": -77.030873, "rental_uris": {"android": "https://dc.lft.to/lastmile_qr_scan", "ios": "https://dc.lft.to/lastmile_qr_scan"}}, {"name": "75f2649c2b70dfcfad5c7d7627ddf5de", "is_disabled": 0, "fusion_lat": 0.0, "fusion_lon": 0.0, "type": "electric_scooter", "lat": 38.8665815, "bike_id": "75f2649c2b70dfcfad5c7d7627ddf5de", "is_reserved": 0, "lon": -76.98885883333334, "rental_uris": {"android": "https://dc.lft.to/lastmile_qr_scan", "ios": "https://dc.lft.to/lastmile_qr_scan"}}, {"name": "9f73ffd82e1a747c5cbbe88c3bce8a20", "is_disabled": 0, "fusion_lat": 0.0, "fusion_lon": 0.0, "type": "electric_scooter", "lat": 38.90234783333333, "bike_id": "9f73ffd82e1a747c5cbbe88c3bce8a20", "is_reserved": 0, "lon": -77.02688666666667, "rental_uris": {"android": "https://dc.lft.to/lastmile_qr_scan", "ios": "https://dc.lft.to/lastmile_qr_scan"}}, {"name": "f1599b502396c2c8aa0674b6371f6637", "is_disabled": 0, "fusion_lat": 0.0, "fusion_lon": 0.0, "type": "electric_scooter", "lat": 38.9181835, "bike_id": "f1599b502396c2c8aa0674b6371f6637", "is_reserved": 0, "lon": -77.0369765, "rental_uris": {"android": "https://dc.lft.to/lastmile_qr_scan", "ios": "https://dc.lft.to/lastmile_qr_scan"}}, {"name": "dc32788602d8c5991ff06d18f00214f2", "is_disabled": 0, "fusion_lat": 0.0, "fusion_lon": 0.0, "type": "electric_scooter", "lat": 38.9067845, "bike_id": "dc32788602d8c5991ff06d18f00214f2", "is_reserved": 0, "lon": -77.038516, "rental_uris": {"android": "https://dc.lft.to/lastmile_qr_scan", "ios": "https://dc.lft.to/lastmile_qr_scan"}}, {"name": "c9485c45420ef166a4f616c7afe75d1e", "is_disabled": 0, "fusion_lat": 0.0, "fusion_lon": 0.0, "type": "electric_scooter", "lat": 38.8960765, "bike_id": "c9485c45420ef166a4f616c7afe75d1e", "is_reserved": 0, "lon": -77.03174766666666, "rental_uris": {"android": "https://dc.lft.to/lastmile_qr_scan", "ios": "https://dc.lft.to/lastmile_qr_scan"}}, {"name": "67c7f2023b7d0395e2dcfe26ee3b34f5", "is_disabled": 0, "fusion_lat": 0.0, "fusion_lon": 0.0, "type": "electric_scooter", "lat": 38.904669, "bike_id": "67c7f2023b7d0395e2dcfe26ee3b34f5", "is_reserved": 0, "lon": -77.03799366666667, "rental_uris": {"android": "https://dc.lft.to/lastmile_qr_scan", "ios": "https://dc.lft.to/lastmile_qr_scan"}}, {"name": "88ad2c919978950cb47f910877f45167", "is_disabled": 0, "fusion_lat": 0.0, "fusion_lon": 0.0, "type": "electric_scooter", "lat": 38.900381333333335, "bike_id": "88ad2c919978950cb47f910877f45167", "is_reserved": 0, "lon": -77.01499333333334, "rental_uris": {"android": "https://dc.lft.to/lastmile_qr_scan", "ios": "https://dc.lft.to/lastmile_qr_scan"}}, {"name": "a82d638d84e58b1fede9a07e3e30b43d", "is_disabled": 0, "fusion_lat": 0.0, "fusion_lon": 0.0, "type": "electric_scooter", "lat": 38.907915, "bike_id": "a82d638d84e58b1fede9a07e3e30b43d", "is_reserved": 0, "lon": -77.04009666666667, "rental_uris": {"android": "https://dc.lft.to/lastmile_qr_scan", "ios": "https://dc.lft.to/lastmile_qr_scan"}}, {"name": "117ee9a2962a7627da0b2b26cadab08b", "is_disabled": 0, "fusion_lat": 0.0, "fusion_lon": 0.0, "type": "electric_scooter", "lat": 38.887438833333334, "bike_id": "117ee9a2962a7627da0b2b26cadab08b", "is_reserved": 0, "lon": -77.01541333333333, "rental_uris": {"android": "https://dc.lft.to/lastmile_qr_scan", "ios": "https://dc.lft.to/lastmile_qr_scan"}}, {"name": "ea77fb540a0821a251c8b36740294ba2", "is_disabled": 0, "fusion_lat": 0.0, "fusion_lon": 0.0, "type": "electric_scooter", "lat": 38.920429, "bike_id": "ea77fb540a0821a251c8b36740294ba2", "is_reserved": 0, "lon": -77.0173275, "rental_uris": {"android": "https://dc.lft.to/lastmile_qr_scan", "ios": "https://dc.lft.to/lastmile_qr_scan"}}, {"name": "b7da18db56def81b19439984126d6760", "is_disabled": 0, "fusion_lat": 0.0, "fusion_lon": 0.0, "type": "electric_bike", "lat": 39.024344666666664, "bike_id": "b7da18db56def81b19439984126d6760", "is_reserved": 0, "lon": -77.1310415, "rental_uris": {"android": "https://dc.lft.to/lastmile_qr_scan", "ios": "https://dc.lft.to/lastmile_qr_scan"}}, {"name": "523cf7b12400443ae6d0d2a80eb8b482", "is_disabled": 0, "fusion_lat": 0.0, "fusion_lon": 0.0, "type": "electric_scooter", "lat": 38.922333, "bike_id": "523cf7b12400443ae6d0d2a80eb8b482", "is_reserved": 0, "lon": -77.02337483333334, "rental_uris": {"android": "https://dc.lft.to/lastmile_qr_scan", "ios": "https://dc.lft.to/lastmile_qr_scan"}}, {"name": "8d9f3cc5887369722c271fad2e50502e", "is_disabled": 0, "fusion_lat": 0.0, "fusion_lon": 0.0, "type": "electric_scooter", "lat": 38.86067233333333, "bike_id": "8d9f3cc5887369722c271fad2e50502e", "is_reserved": 0, "lon": -76.968994, "rental_uris": {"android": "https://dc.lft.to/lastmile_qr_scan", "ios": "https://dc.lft.to/lastmile_qr_scan"}}, {"name": "c134f53fec024430aad3a543c6ece816", "is_disabled": 0, "fusion_lat": 0.0, "fusion_lon": 0.0, "type": "electric_scooter", "lat": 38.91000833333333, "bike_id": "c134f53fec024430aad3a543c6ece816", "is_reserved": 0, "lon": -77.034694, "rental_uris": {"android": "https://dc.lft.to/lastmile_qr_scan", "ios": "https://dc.lft.to/lastmile_qr_scan"}}, {"name": "5d2a02648af66ac93483998321888c81", "is_disabled": 0, "fusion_lat": 0.0, "fusion_lon": 0.0, "type": "electric_scooter", "lat": 38.89222016666667, "bike_id": "5d2a02648af66ac93483998321888c81", "is_reserved": 0, "lon": -77.045056, "rental_uris": {"android": "https://dc.lft.to/lastmile_qr_scan", "ios": "https://dc.lft.to/lastmile_qr_scan"}}, {"name": "756a994e5f267f0d0e514199460d1869", "is_disabled": 0, "fusion_lat": 0.0, "fusion_lon": 0.0, "type": "electric_scooter", "lat": 38.90588, "bike_id": "756a994e5f267f0d0e514199460d1869", "is_reserved": 0, "lon": -77.04478716666667, "rental_uris": {"android": "https://dc.lft.to/lastmile_qr_scan", "ios": "https://dc.lft.to/lastmile_qr_scan"}}, {"name": "7fb264724c1818fa481cc5c394d7033b", "is_disabled": 0, "fusion_lat": 0.0, "fusion_lon": 0.0, "type": "electric_scooter", "lat": 38.9055855, "bike_id": "7fb264724c1818fa481cc5c394d7033b", "is_reserved": 0, "lon": -77.04662266666666, "rental_uris": {"android": "https://dc.lft.to/lastmile_qr_scan", "ios": "https://dc.lft.to/lastmile_qr_scan"}}, {"name": "9e35dbe3bc5696eb9180391e979dce15", "is_disabled": 0, "fusion_lat": 0.0, "fusion_lon": 0.0, "type": "electric_bike", "lat": 38.947831666666666, "bike_id": "9e35dbe3bc5696eb9180391e979dce15", "is_reserved": 0, "lon": -76.97215616666666, "rental_uris": {"android": "https://dc.lft.to/lastmile_qr_scan", "ios": "https://dc.lft.to/lastmile_qr_scan"}}, {"name": "3132c265c3d64de88a1604ca33decb98", "is_disabled": 0, "fusion_lat": 0.0, "fusion_lon": 0.0, "type": "electric_scooter", "lat": 38.8877785, "bike_id": "3132c265c3d64de88a1604ca33decb98", "is_reserved": 0, "lon": -76.95531466666667, "rental_uris": {"android": "https://dc.lft.to/lastmile_qr_scan", "ios": "https://dc.lft.to/lastmile_qr_scan"}}, {"name": "b80e44b3af3a3dbac95e294ccc2eb8a0", "is_disabled": 0, "fusion_lat": 0.0, "fusion_lon": 0.0, "type": "electric_scooter", "lat": 38.902609166666664, "bike_id": "b80e44b3af3a3dbac95e294ccc2eb8a0", "is_reserved": 0, "lon": -77.03661316666667, "rental_uris": {"android": "https://dc.lft.to/lastmile_qr_scan", "ios": "https://dc.lft.to/lastmile_qr_scan"}}, {"name": "48b63c3afc3e90ffc25a206550c371de", "is_disabled": 0, "fusion_lat": 0.0, "fusion_lon": 0.0, "type": "electric_scooter", "lat": 38.916912333333336, "bike_id": "48b63c3afc3e90ffc25a206550c371de", "is_reserved": 0, "lon": -77.03435833333333, "rental_uris": {"android": "https://dc.lft.to/lastmile_qr_scan", "ios": "https://dc.lft.to/lastmile_qr_scan"}}, {"name": "809185e83a4b11d523e443894cb5cf81", "is_disabled": 0, "fusion_lat": 0.0, "fusion_lon": 0.0, "type": "electric_scooter", "lat": 38.91411383333333, "bike_id": "809185e83a4b11d523e443894cb5cf81", "is_reserved": 0, "lon": -77.0455655, "rental_uris": {"android": "https://dc.lft.to/lastmile_qr_scan", "ios": "https://dc.lft.to/lastmile_qr_scan"}}, {"name": "7da54468cc5f0c784b6cbe07645fb7ca", "is_disabled": 0, "fusion_lat": 0.0, "fusion_lon": 0.0, "type": "electric_scooter", "lat": 38.86399466666667, "bike_id": "7da54468cc5f0c784b6cbe07645fb7ca", "is_reserved": 0, "lon": -76.974447, "rental_uris": {"android": "https://dc.lft.to/lastmile_qr_scan", "ios": "https://dc.lft.to/lastmile_qr_scan"}}, {"name": "370e5b132623488cec01cb5b8f14462c", "is_disabled": 0, "fusion_lat": 0.0, "fusion_lon": 0.0, "type": "electric_scooter", "lat": 38.8999385, "bike_id": "370e5b132623488cec01cb5b8f14462c", "is_reserved": 0, "lon": -77.03208316666667, "rental_uris": {"android": "https://dc.lft.to/lastmile_qr_scan", "ios": "https://dc.lft.to/lastmile_qr_scan"}}, {"name": "27eb4d9ada4a4b3c1fd1d52b364dd8da", "is_disabled": 0, "fusion_lat": 0.0, "fusion_lon": 0.0, "type": "electric_scooter", "lat": 38.902954333333334, "bike_id": "27eb4d9ada4a4b3c1fd1d52b364dd8da", "is_reserved": 0, "lon": -77.03473883333334, "rental_uris": {"android": "https://dc.lft.to/lastmile_qr_scan", "ios": "https://dc.lft.to/lastmile_qr_scan"}}, {"name": "bc8f3d3505acaf9b491d3f9fb9e62cd6", "is_disabled": 0, "fusion_lat": 0.0, "fusion_lon": 0.0, "type": "electric_scooter", "lat": 38.8662255, "bike_id": "bc8f3d3505acaf9b491d3f9fb9e62cd6", "is_reserved": 0, "lon": -76.989011, "rental_uris": {"android": "https://dc.lft.to/lastmile_qr_scan", "ios": "https://dc.lft.to/lastmile_qr_scan"}}, {"name": "827727423684308b28e7093162072950", "is_disabled": 0, "fusion_lat": 0.0, "fusion_lon": 0.0, "type": "electric_scooter", "lat": 38.90710166666667, "bike_id": "827727423684308b28e7093162072950", "is_reserved": 0, "lon": -77.00085883333334, "rental_uris": {"android": "https://dc.lft.to/lastmile_qr_scan", "ios": "https://dc.lft.to/lastmile_qr_scan"}}, {"name": "a06e9a3769efe00a74601cdadc69f2d3", "is_disabled": 0, "fusion_lat": 0.0, "fusion_lon": 0.0, "type": "electric_scooter", "lat": 38.9345355, "bike_id": "a06e9a3769efe00a74601cdadc69f2d3", "is_reserved": 0, "lon": -77.03757, "rental_uris": {"android": "https://dc.lft.to/lastmile_qr_scan", "ios": "https://dc.lft.to/lastmile_qr_scan"}}, {"name": "45afe2326dab01af8dbd1306fac7e045", "is_disabled": 0, "fusion_lat": 0.0, "fusion_lon": 0.0, "type": "electric_scooter", "lat": 38.897022666666665, "bike_id": "45afe2326dab01af8dbd1306fac7e045", "is_reserved": 0, "lon": -76.93002133333333, "rental_uris": {"android": "https://dc.lft.to/lastmile_qr_scan", "ios": "https://dc.lft.to/lastmile_qr_scan"}}, {"name": "5adfbbaee813444d281781b4a465c46f", "is_disabled": 0, "fusion_lat": 0.0, "fusion_lon": 0.0, "type": "electric_scooter", "lat": 38.902861, "bike_id": "5adfbbaee813444d281781b4a465c46f", "is_reserved": 0, "lon": -77.0460345, "rental_uris": {"android": "https://dc.lft.to/lastmile_qr_scan", "ios": "https://dc.lft.to/lastmile_qr_scan"}}, {"name": "1c8a9094cfbfc774d2c659d5b8f74f84", "is_disabled": 0, "fusion_lat": 0.0, "fusion_lon": 0.0, "type": "electric_scooter", "lat": 38.923155666666666, "bike_id": "1c8a9094cfbfc774d2c659d5b8f74f84", "is_reserved": 0, "lon": -77.03549466666666, "rental_uris": {"android": "https://dc.lft.to/lastmile_qr_scan", "ios": "https://dc.lft.to/lastmile_qr_scan"}}, {"name": "328dae01f18e4134664e2c5771948182", "is_disabled": 0, "fusion_lat": 0.0, "fusion_lon": 0.0, "type": "electric_scooter", "lat": 38.9098545, "bike_id": "328dae01f18e4134664e2c5771948182", "is_reserved": 0, "lon": -77.03204883333333, "rental_uris": {"android": "https://dc.lft.to/lastmile_qr_scan", "ios": "https://dc.lft.to/lastmile_qr_scan"}}, {"name": "8fcc0c2bde5737e2ef20ec1832d5d258", "is_disabled": 0, "fusion_lat": 0.0, "fusion_lon": 0.0, "type": "electric_scooter", "lat": 38.902894, "bike_id": "8fcc0c2bde5737e2ef20ec1832d5d258", "is_reserved": 0, "lon": -77.02070533333334, "rental_uris": {"android": "https://dc.lft.to/lastmile_qr_scan", "ios": "https://dc.lft.to/lastmile_qr_scan"}}, {"name": "d37590e674243da8704e2ba4029742e0", "is_disabled": 0, "fusion_lat": 0.0, "fusion_lon": 0.0, "type": "electric_scooter", "lat": 38.90728766666667, "bike_id": "d37590e674243da8704e2ba4029742e0", "is_reserved": 0, "lon": -77.04141116666666, "rental_uris": {"android": "https://dc.lft.to/lastmile_qr_scan", "ios": "https://dc.lft.to/lastmile_qr_scan"}}, {"name": "62325bfef0a15ee16bd7abc753e71627", "is_disabled": 0, "fusion_lat": 0.0, "fusion_lon": 0.0, "type": "electric_scooter", "lat": 38.90039266666667, "bike_id": "62325bfef0a15ee16bd7abc753e71627", "is_reserved": 0, "lon": -77.04050933333333, "rental_uris": {"android": "https://dc.lft.to/lastmile_qr_scan", "ios": "https://dc.lft.to/lastmile_qr_scan"}}, {"name": "d48ab0e5c75be2603baeb95781c82ffc", "is_disabled": 0, "fusion_lat": 0.0, "fusion_lon": 0.0, "type": "electric_scooter", "lat": 38.905121333333334, "bike_id": "d48ab0e5c75be2603baeb95781c82ffc", "is_reserved": 0, "lon": -77.04158033333333, "rental_uris": {"android": "https://dc.lft.to/lastmile_qr_scan", "ios": "https://dc.lft.to/lastmile_qr_scan"}}, {"name": "c7578c3141b6e2f82bc4b33576b9459b", "is_disabled": 0, "fusion_lat": 0.0, "fusion_lon": 0.0, "type": "electric_scooter", "lat": 38.91999066666666, "bike_id": "c7578c3141b6e2f82bc4b33576b9459b", "is_reserved": 0, "lon": -77.03219466666667, "rental_uris": {"android": "https://dc.lft.to/lastmile_qr_scan", "ios": "https://dc.lft.to/lastmile_qr_scan"}}, {"name": "a14e6f47d2849c395b30e87fb2c43e28", "is_disabled": 0, "fusion_lat": 0.0, "fusion_lon": 0.0, "type": "electric_scooter", "lat": 38.88046116666666, "bike_id": "a14e6f47d2849c395b30e87fb2c43e28", "is_reserved": 0, "lon": -77.019983, "rental_uris": {"android": "https://dc.lft.to/lastmile_qr_scan", "ios": "https://dc.lft.to/lastmile_qr_scan"}}, {"name": "03595be644185062edce43fa38190717", "is_disabled": 0, "fusion_lat": 0.0, "fusion_lon": 0.0, "type": "electric_scooter", "lat": 38.9112295, "bike_id": "03595be644185062edce43fa38190717", "is_reserved": 0, "lon": -77.003202, "rental_uris": {"android": "https://dc.lft.to/lastmile_qr_scan", "ios": "https://dc.lft.to/lastmile_qr_scan"}}, {"name": "130b078b012223521e081a8850ac390d", "is_disabled": 0, "fusion_lat": 0.0, "fusion_lon": 0.0, "type": "electric_scooter", "lat": 38.898904333333334, "bike_id": "130b078b012223521e081a8850ac390d", "is_reserved": 0, "lon": -76.9340255, "rental_uris": {"android": "https://dc.lft.to/lastmile_qr_scan", "ios": "https://dc.lft.to/lastmile_qr_scan"}}, {"name": "bab937adfe1c885c4f6f67f203253fbe", "is_disabled": 0, "fusion_lat": 0.0, "fusion_lon": 0.0, "type": "electric_scooter", "lat": 38.9028335, "bike_id": "bab937adfe1c885c4f6f67f203253fbe", "is_reserved": 0, "lon": -77.04599233333333, "rental_uris": {"android": "https://dc.lft.to/lastmile_qr_scan", "ios": "https://dc.lft.to/lastmile_qr_scan"}}, {"name": "29d5b41e56da414967e9808512411a69", "is_disabled": 0, "fusion_lat": 0.0, "fusion_lon": 0.0, "type": "electric_scooter", "lat": 38.9385705, "bike_id": "29d5b41e56da414967e9808512411a69", "is_reserved": 0, "lon": -77.02649583333333, "rental_uris": {"android": "https://dc.lft.to/lastmile_qr_scan", "ios": "https://dc.lft.to/lastmile_qr_scan"}}, {"name": "7d49a8b369c282d67fdef218c71dbd9b", "is_disabled": 0, "fusion_lat": 0.0, "fusion_lon": 0.0, "type": "electric_scooter", "lat": 38.924958, "bike_id": "7d49a8b369c282d67fdef218c71dbd9b", "is_reserved": 0, "lon": -77.02156083333334, "rental_uris": {"android": "https://dc.lft.to/lastmile_qr_scan", "ios": "https://dc.lft.to/lastmile_qr_scan"}}, {"name": "764f40edfe183bd46f7ec584e7b2fb35", "is_disabled": 0, "fusion_lat": 0.0, "fusion_lon": 0.0, "type": "electric_scooter", "lat": 38.921597, "bike_id": "764f40edfe183bd46f7ec584e7b2fb35", "is_reserved": 0, "lon": -77.02028416666667, "rental_uris": {"android": "https://dc.lft.to/lastmile_qr_scan", "ios": "https://dc.lft.to/lastmile_qr_scan"}}, {"name": "7b0099484bf4ad8f403f9f50104b05a8", "is_disabled": 0, "fusion_lat": 0.0, "fusion_lon": 0.0, "type": "electric_scooter", "lat": 38.934794333333336, "bike_id": "7b0099484bf4ad8f403f9f50104b05a8", "is_reserved": 0, "lon": -77.0579505, "rental_uris": {"android": "https://dc.lft.to/lastmile_qr_scan", "ios": "https://dc.lft.to/lastmile_qr_scan"}}, {"name": "d461585b5d26d01265a39ce60b9020a7", "is_disabled": 0, "fusion_lat": 0.0, "fusion_lon": 0.0, "type": "electric_scooter", "lat": 38.9032885, "bike_id": "d461585b5d26d01265a39ce60b9020a7", "is_reserved": 0, "lon": -77.04350883333333, "rental_uris": {"android": "https://dc.lft.to/lastmile_qr_scan", "ios": "https://dc.lft.to/lastmile_qr_scan"}}, {"name": "021f74188277b384c25328c6e0aed089", "is_disabled": 0, "fusion_lat": 0.0, "fusion_lon": 0.0, "type": "electric_scooter", "lat": 38.917108999999996, "bike_id": "021f74188277b384c25328c6e0aed089", "is_reserved": 0, "lon": -77.034736, "rental_uris": {"android": "https://dc.lft.to/lastmile_qr_scan", "ios": "https://dc.lft.to/lastmile_qr_scan"}}, {"name": "34b870349fe2508a5120b1b30bda3684", "is_disabled": 0, "fusion_lat": 0.0, "fusion_lon": 0.0, "type": "electric_scooter", "lat": 38.92890233333333, "bike_id": "34b870349fe2508a5120b1b30bda3684", "is_reserved": 0, "lon": -77.03247433333334, "rental_uris": {"android": "https://dc.lft.to/lastmile_qr_scan", "ios": "https://dc.lft.to/lastmile_qr_scan"}}, {"name": "fdf5c3454870c04e0b5b976fd6959935", "is_disabled": 0, "fusion_lat": 0.0, "fusion_lon": 0.0, "type": "electric_scooter", "lat": 38.89357483333333, "bike_id": "fdf5c3454870c04e0b5b976fd6959935", "is_reserved": 0, "lon": -77.00341616666667, "rental_uris": {"android": "https://dc.lft.to/lastmile_qr_scan", "ios": "https://dc.lft.to/lastmile_qr_scan"}}, {"name": "02dd187ccc5ce06b414315a2427b632c", "is_disabled": 0, "fusion_lat": 0.0, "fusion_lon": 0.0, "type": "electric_bike", "lat": 38.87729, "bike_id": "02dd187ccc5ce06b414315a2427b632c", "is_reserved": 0, "lon": -76.9811085, "rental_uris": {"android": "https://dc.lft.to/lastmile_qr_scan", "ios": "https://dc.lft.to/lastmile_qr_scan"}}, {"name": "4d2b89c4fdade72135b1234e7d70e80c", "is_disabled": 0, "fusion_lat": 0.0, "fusion_lon": 0.0, "type": "electric_scooter", "lat": 38.924532, "bike_id": "4d2b89c4fdade72135b1234e7d70e80c", "is_reserved": 0, "lon": -77.04001283333334, "rental_uris": {"android": "https://dc.lft.to/lastmile_qr_scan", "ios": "https://dc.lft.to/lastmile_qr_scan"}}, {"name": "96da64535b504c0c1ccab1f9425f18e3", "is_disabled": 0, "fusion_lat": 0.0, "fusion_lon": 0.0, "type": "electric_scooter", "lat": 38.894702333333335, "bike_id": "96da64535b504c0c1ccab1f9425f18e3", "is_reserved": 0, "lon": -77.02264283333334, "rental_uris": {"android": "https://dc.lft.to/lastmile_qr_scan", "ios": "https://dc.lft.to/lastmile_qr_scan"}}, {"name": "6ccce803519228b142620a18d6ed1ccb", "is_disabled": 0, "fusion_lat": 0.0, "fusion_lon": 0.0, "type": "electric_scooter", "lat": 38.86055416666667, "bike_id": "6ccce803519228b142620a18d6ed1ccb", "is_reserved": 0, "lon": -76.984209, "rental_uris": {"android": "https://dc.lft.to/lastmile_qr_scan", "ios": "https://dc.lft.to/lastmile_qr_scan"}}, {"name": "17e78f94f2dc87322d5f5639885f7610", "is_disabled": 0, "fusion_lat": 0.0, "fusion_lon": 0.0, "type": "electric_bike", "lat": 38.87871716666667, "bike_id": "17e78f94f2dc87322d5f5639885f7610", "is_reserved": 0, "lon": -76.990191, "rental_uris": {"android": "https://dc.lft.to/lastmile_qr_scan", "ios": "https://dc.lft.to/lastmile_qr_scan"}}, {"name": "acc7628485886aff7568149886424932", "is_disabled": 0, "fusion_lat": 0.0, "fusion_lon": 0.0, "type": "electric_scooter", "lat": 38.900329, "bike_id": "acc7628485886aff7568149886424932", "is_reserved": 0, "lon": -76.99626883333333, "rental_uris": {"android": "https://dc.lft.to/lastmile_qr_scan", "ios": "https://dc.lft.to/lastmile_qr_scan"}}, {"name": "b75428b8e9afe08b88603821e76d0265", "is_disabled": 0, "fusion_lat": 0.0, "fusion_lon": 0.0, "type": "electric_scooter", "lat": 38.9285685, "bike_id": "b75428b8e9afe08b88603821e76d0265", "is_reserved": 0, "lon": -77.03310783333333, "rental_uris": {"android": "https://dc.lft.to/lastmile_qr_scan", "ios": "https://dc.lft.to/lastmile_qr_scan"}}, {"name": "923c99534a5d48a74e5a334a43e0e66a", "is_disabled": 0, "fusion_lat": 0.0, "fusion_lon": 0.0, "type": "electric_scooter", "lat": 38.9055935, "bike_id": "923c99534a5d48a74e5a334a43e0e66a", "is_reserved": 0, "lon": -77.04333133333333, "rental_uris": {"android": "https://dc.lft.to/lastmile_qr_scan", "ios": "https://dc.lft.to/lastmile_qr_scan"}}, {"name": "19c3e1d5412d4b12364e5aeac0fcd383", "is_disabled": 0, "fusion_lat": 0.0, "fusion_lon": 0.0, "type": "electric_scooter", "lat": 38.90642116666667, "bike_id": "19c3e1d5412d4b12364e5aeac0fcd383", "is_reserved": 0, "lon": -77.04657816666666, "rental_uris": {"android": "https://dc.lft.to/lastmile_qr_scan", "ios": "https://dc.lft.to/lastmile_qr_scan"}}, {"name": "db129cf7bdb56ae84aef7c8fb495f379", "is_disabled": 0, "fusion_lat": 0.0, "fusion_lon": 0.0, "type": "electric_scooter", "lat": 38.900682, "bike_id": "db129cf7bdb56ae84aef7c8fb495f379", "is_reserved": 0, "lon": -77.04895966666666, "rental_uris": {"android": "https://dc.lft.to/lastmile_qr_scan", "ios": "https://dc.lft.to/lastmile_qr_scan"}}, {"name": "d684b98ae33678712745fac8edffa4a4", "is_disabled": 0, "fusion_lat": 0.0, "fusion_lon": 0.0, "type": "electric_scooter", "lat": 38.91113383333333, "bike_id": "d684b98ae33678712745fac8edffa4a4", "is_reserved": 0, "lon": -77.0315235, "rental_uris": {"android": "https://dc.lft.to/lastmile_qr_scan", "ios": "https://dc.lft.to/lastmile_qr_scan"}}, {"name": "93d426adee7cd12dc575568cce174e90", "is_disabled": 0, "fusion_lat": 0.0, "fusion_lon": 0.0, "type": "electric_scooter", "lat": 38.89143766666667, "bike_id": "93d426adee7cd12dc575568cce174e90", "is_reserved": 0, "lon": -76.939203, "rental_uris": {"android": "https://dc.lft.to/lastmile_qr_scan", "ios": "https://dc.lft.to/lastmile_qr_scan"}}, {"name": "a56fbc05354e3cf2deb5298a88ad37cd", "is_disabled": 0, "fusion_lat": 0.0, "fusion_lon": 0.0, "type": "electric_scooter", "lat": 38.922672666666664, "bike_id": "a56fbc05354e3cf2deb5298a88ad37cd", "is_reserved": 0, "lon": -77.01916416666667, "rental_uris": {"android": "https://dc.lft.to/lastmile_qr_scan", "ios": "https://dc.lft.to/lastmile_qr_scan"}}, {"name": "186934afc4e7a8ce239f32dd9ad34c65", "is_disabled": 0, "fusion_lat": 0.0, "fusion_lon": 0.0, "type": "electric_bike", "lat": 38.85785683333334, "bike_id": "186934afc4e7a8ce239f32dd9ad34c65", "is_reserved": 0, "lon": -77.1202235, "rental_uris": {"android": "https://dc.lft.to/lastmile_qr_scan", "ios": "https://dc.lft.to/lastmile_qr_scan"}}, {"name": "aa48d360c217ec42c17b49a2092d9499", "is_disabled": 0, "fusion_lat": 0.0, "fusion_lon": 0.0, "type": "electric_scooter", "lat": 38.90562333333333, "bike_id": "aa48d360c217ec42c17b49a2092d9499", "is_reserved": 0, "lon": -77.02507283333334, "rental_uris": {"android": "https://dc.lft.to/lastmile_qr_scan", "ios": "https://dc.lft.to/lastmile_qr_scan"}}, {"name": "774885eaaf9f77a0f78abaa95e65a463", "is_disabled": 0, "fusion_lat": 0.0, "fusion_lon": 0.0, "type": "electric_scooter", "lat": 38.89602383333333, "bike_id": "774885eaaf9f77a0f78abaa95e65a463", "is_reserved": 0, "lon": -77.02988533333334, "rental_uris": {"android": "https://dc.lft.to/lastmile_qr_scan", "ios": "https://dc.lft.to/lastmile_qr_scan"}}, {"name": "ec5f3617bd75154b92f2a6fb29ca2943", "is_disabled": 0, "fusion_lat": 0.0, "fusion_lon": 0.0, "type": "electric_scooter", "lat": 38.920694833333336, "bike_id": "ec5f3617bd75154b92f2a6fb29ca2943", "is_reserved": 0, "lon": -77.01475816666667, "rental_uris": {"android": "https://dc.lft.to/lastmile_qr_scan", "ios": "https://dc.lft.to/lastmile_qr_scan"}}, {"name": "a0921fac7f79c66d079a8150436d5fc3", "is_disabled": 0, "fusion_lat": 0.0, "fusion_lon": 0.0, "type": "electric_scooter", "lat": 38.918163166666666, "bike_id": "a0921fac7f79c66d079a8150436d5fc3", "is_reserved": 0, "lon": -77.02587966666667, "rental_uris": {"android": "https://dc.lft.to/lastmile_qr_scan", "ios": "https://dc.lft.to/lastmile_qr_scan"}}, {"name": "45dd7f6043999d31eb7031ed6119a17f", "is_disabled": 0, "fusion_lat": 0.0, "fusion_lon": 0.0, "type": "electric_scooter", "lat": 38.89719266666667, "bike_id": "45dd7f6043999d31eb7031ed6119a17f", "is_reserved": 0, "lon": -77.033035, "rental_uris": {"android": "https://dc.lft.to/lastmile_qr_scan", "ios": "https://dc.lft.to/lastmile_qr_scan"}}, {"name": "648a59b6c6711871facf9c73c11dfe63", "is_disabled": 0, "fusion_lat": 0.0, "fusion_lon": 0.0, "type": "electric_scooter", "lat": 38.938199166666664, "bike_id": "648a59b6c6711871facf9c73c11dfe63", "is_reserved": 0, "lon": -77.03378733333334, "rental_uris": {"android": "https://dc.lft.to/lastmile_qr_scan", "ios": "https://dc.lft.to/lastmile_qr_scan"}}, {"name": "2ee3ed37b4c4c37d0f6e7b27a132b01b", "is_disabled": 0, "fusion_lat": 0.0, "fusion_lon": 0.0, "type": "electric_scooter", "lat": 38.925131, "bike_id": "2ee3ed37b4c4c37d0f6e7b27a132b01b", "is_reserved": 0, "lon": -77.05258516666666, "rental_uris": {"android": "https://dc.lft.to/lastmile_qr_scan", "ios": "https://dc.lft.to/lastmile_qr_scan"}}, {"name": "533f39536f1df8a79c0346b71d79cb0c", "is_disabled": 0, "fusion_lat": 0.0, "fusion_lon": 0.0, "type": "electric_scooter", "lat": 38.892211833333334, "bike_id": "533f39536f1df8a79c0346b71d79cb0c", "is_reserved": 0, "lon": -77.02348266666667, "rental_uris": {"android": "https://dc.lft.to/lastmile_qr_scan", "ios": "https://dc.lft.to/lastmile_qr_scan"}}, {"name": "2d5c953382a601ec5c0646eea02267e2", "is_disabled": 0, "fusion_lat": 0.0, "fusion_lon": 0.0, "type": "electric_scooter", "lat": 38.884906666666666, "bike_id": "2d5c953382a601ec5c0646eea02267e2", "is_reserved": 0, "lon": -77.00711483333333, "rental_uris": {"android": "https://dc.lft.to/lastmile_qr_scan", "ios": "https://dc.lft.to/lastmile_qr_scan"}}, {"name": "e0ac8bf8503fd84ccd1ec399ba812811", "is_disabled": 0, "fusion_lat": 0.0, "fusion_lon": 0.0, "type": "electric_scooter", "lat": 38.8936995, "bike_id": "e0ac8bf8503fd84ccd1ec399ba812811", "is_reserved": 0, "lon": -77.04789666666667, "rental_uris": {"android": "https://dc.lft.to/lastmile_qr_scan", "ios": "https://dc.lft.to/lastmile_qr_scan"}}, {"name": "87ec0a3e3cfbc094ba2d3ef6817af4cf", "is_disabled": 0, "fusion_lat": 0.0, "fusion_lon": 0.0, "type": "electric_scooter", "lat": 38.92103933333333, "bike_id": "87ec0a3e3cfbc094ba2d3ef6817af4cf", "is_reserved": 0, "lon": -77.022131, "rental_uris": {"android": "https://dc.lft.to/lastmile_qr_scan", "ios": "https://dc.lft.to/lastmile_qr_scan"}}, {"name": "a49733594b6b501b065e31d88151507f", "is_disabled": 0, "fusion_lat": 0.0, "fusion_lon": 0.0, "type": "electric_scooter", "lat": 38.92228333333333, "bike_id": "a49733594b6b501b065e31d88151507f", "is_reserved": 0, "lon": -77.04496033333334, "rental_uris": {"android": "https://dc.lft.to/lastmile_qr_scan", "ios": "https://dc.lft.to/lastmile_qr_scan"}}, {"name": "c5aeeaa834043ef389174a0dc4d9d86e", "is_disabled": 0, "fusion_lat": 0.0, "fusion_lon": 0.0, "type": "electric_scooter", "lat": 38.9203185, "bike_id": "c5aeeaa834043ef389174a0dc4d9d86e", "is_reserved": 0, "lon": -76.98490416666667, "rental_uris": {"android": "https://dc.lft.to/lastmile_qr_scan", "ios": "https://dc.lft.to/lastmile_qr_scan"}}, {"name": "2117b9aae5053ff7c46711fe5cfc36b5", "is_disabled": 0, "fusion_lat": 0.0, "fusion_lon": 0.0, "type": "electric_scooter", "lat": 38.882979166666665, "bike_id": "2117b9aae5053ff7c46711fe5cfc36b5", "is_reserved": 0, "lon": -77.03150916666667, "rental_uris": {"android": "https://dc.lft.to/lastmile_qr_scan", "ios": "https://dc.lft.to/lastmile_qr_scan"}}, {"name": "e9ef051d74549f54f04f489b927f733f", "is_disabled": 0, "fusion_lat": 0.0, "fusion_lon": 0.0, "type": "electric_scooter", "lat": 38.922696333333334, "bike_id": "e9ef051d74549f54f04f489b927f733f", "is_reserved": 0, "lon": -77.01830166666667, "rental_uris": {"android": "https://dc.lft.to/lastmile_qr_scan", "ios": "https://dc.lft.to/lastmile_qr_scan"}}, {"name": "f285ffd771cd3080ab25c341224bda09", "is_disabled": 0, "fusion_lat": 0.0, "fusion_lon": 0.0, "type": "electric_scooter", "lat": 38.95475416666667, "bike_id": "f285ffd771cd3080ab25c341224bda09", "is_reserved": 0, "lon": -76.9887875, "rental_uris": {"android": "https://dc.lft.to/lastmile_qr_scan", "ios": "https://dc.lft.to/lastmile_qr_scan"}}, {"name": "004a767fe8bc29c6dcfda6ed4c8c403a", "is_disabled": 0, "fusion_lat": 0.0, "fusion_lon": 0.0, "type": "electric_scooter", "lat": 38.88721316666667, "bike_id": "004a767fe8bc29c6dcfda6ed4c8c403a", "is_reserved": 0, "lon": -77.0282185, "rental_uris": {"android": "https://dc.lft.to/lastmile_qr_scan", "ios": "https://dc.lft.to/lastmile_qr_scan"}}, {"name": "d994ed5042a115c19e5102800358a307", "is_disabled": 0, "fusion_lat": 0.0, "fusion_lon": 0.0, "type": "electric_scooter", "lat": 38.90189816666667, "bike_id": "d994ed5042a115c19e5102800358a307", "is_reserved": 0, "lon": -77.01247333333333, "rental_uris": {"android": "https://dc.lft.to/lastmile_qr_scan", "ios": "https://dc.lft.to/lastmile_qr_scan"}}, {"name": "cb245e5d17f7199f271427e54aab903f", "is_disabled": 0, "fusion_lat": 0.0, "fusion_lon": 0.0, "type": "electric_bike", "lat": 39.052733, "bike_id": "cb245e5d17f7199f271427e54aab903f", "is_reserved": 0, "lon": -77.08078216666667, "rental_uris": {"android": "https://dc.lft.to/lastmile_qr_scan", "ios": "https://dc.lft.to/lastmile_qr_scan"}}, {"name": "641086e8a4ac59bd4f1c611db86a3f0e", "is_disabled": 0, "fusion_lat": 0.0, "fusion_lon": 0.0, "type": "electric_scooter", "lat": 38.866588166666666, "bike_id": "641086e8a4ac59bd4f1c611db86a3f0e", "is_reserved": 0, "lon": -76.98887816666667, "rental_uris": {"android": "https://dc.lft.to/lastmile_qr_scan", "ios": "https://dc.lft.to/lastmile_qr_scan"}}, {"name": "1c04cada7611957579126d9e857e9e80", "is_disabled": 0, "fusion_lat": 0.0, "fusion_lon": 0.0, "type": "electric_scooter", "lat": 38.90436, "bike_id": "1c04cada7611957579126d9e857e9e80", "is_reserved": 0, "lon": -77.032226, "rental_uris": {"android": "https://dc.lft.to/lastmile_qr_scan", "ios": "https://dc.lft.to/lastmile_qr_scan"}}, {"name": "e621e7659387160ac8886964963b6253", "is_disabled": 0, "fusion_lat": 0.0, "fusion_lon": 0.0, "type": "electric_scooter", "lat": 38.943079, "bike_id": "e621e7659387160ac8886964963b6253", "is_reserved": 0, "lon": -77.08832066666666, "rental_uris": {"android": "https://dc.lft.to/lastmile_qr_scan", "ios": "https://dc.lft.to/lastmile_qr_scan"}}, {"name": "d80c97913ddeff870cc41126c883abf9", "is_disabled": 0, "fusion_lat": 0.0, "fusion_lon": 0.0, "type": "electric_scooter", "lat": 38.869925, "bike_id": "d80c97913ddeff870cc41126c883abf9", "is_reserved": 0, "lon": -76.976015, "rental_uris": {"android": "https://dc.lft.to/lastmile_qr_scan", "ios": "https://dc.lft.to/lastmile_qr_scan"}}, {"name": "1ba5b6c06abd0552bd014adbc89e5170", "is_disabled": 0, "fusion_lat": 0.0, "fusion_lon": 0.0, "type": "electric_scooter", "lat": 38.92386183333333, "bike_id": "1ba5b6c06abd0552bd014adbc89e5170", "is_reserved": 0, "lon": -77.040813, "rental_uris": {"android": "https://dc.lft.to/lastmile_qr_scan", "ios": "https://dc.lft.to/lastmile_qr_scan"}}, {"name": "36107a080e0f890ea82a4d326ac8034a", "is_disabled": 0, "fusion_lat": 0.0, "fusion_lon": 0.0, "type": "electric_scooter", "lat": 38.914952, "bike_id": "36107a080e0f890ea82a4d326ac8034a", "is_reserved": 0, "lon": -77.01471516666666, "rental_uris": {"android": "https://dc.lft.to/lastmile_qr_scan", "ios": "https://dc.lft.to/lastmile_qr_scan"}}, {"name": "8aa1243480c040194e6489bf89879936", "is_disabled": 0, "fusion_lat": 0.0, "fusion_lon": 0.0, "type": "electric_scooter", "lat": 38.98449166666666, "bike_id": "8aa1243480c040194e6489bf89879936", "is_reserved": 0, "lon": -77.02644966666666, "rental_uris": {"android": "https://dc.lft.to/lastmile_qr_scan", "ios": "https://dc.lft.to/lastmile_qr_scan"}}, {"name": "a4e6a8f3f2dfd45a95250d5317b4de54", "is_disabled": 0, "fusion_lat": 0.0, "fusion_lon": 0.0, "type": "electric_scooter", "lat": 38.90714116666667, "bike_id": "a4e6a8f3f2dfd45a95250d5317b4de54", "is_reserved": 0, "lon": -77.02899133333334, "rental_uris": {"android": "https://dc.lft.to/lastmile_qr_scan", "ios": "https://dc.lft.to/lastmile_qr_scan"}}, {"name": "1d4a9ffd807548eb9ed81e63f7f813f9", "is_disabled": 0, "fusion_lat": 0.0, "fusion_lon": 0.0, "type": "electric_scooter", "lat": 38.898513666666666, "bike_id": "1d4a9ffd807548eb9ed81e63f7f813f9", "is_reserved": 0, "lon": -77.02371483333333, "rental_uris": {"android": "https://dc.lft.to/lastmile_qr_scan", "ios": "https://dc.lft.to/lastmile_qr_scan"}}, {"name": "4120ae0897a63d53af132f07c2ec3a05", "is_disabled": 0, "fusion_lat": 0.0, "fusion_lon": 0.0, "type": "electric_scooter", "lat": 38.90364966666667, "bike_id": "4120ae0897a63d53af132f07c2ec3a05", "is_reserved": 0, "lon": -77.0425295, "rental_uris": {"android": "https://dc.lft.to/lastmile_qr_scan", "ios": "https://dc.lft.to/lastmile_qr_scan"}}, {"name": "120d0f04d14f2216cd03c07ca29d1a75", "is_disabled": 0, "fusion_lat": 0.0, "fusion_lon": 0.0, "type": "electric_scooter", "lat": 38.924353833333335, "bike_id": "120d0f04d14f2216cd03c07ca29d1a75", "is_reserved": 0, "lon": -77.05207666666666, "rental_uris": {"android": "https://dc.lft.to/lastmile_qr_scan", "ios": "https://dc.lft.to/lastmile_qr_scan"}}, {"name": "0f9f0e2a3fe255bb7003ccc96e870c49", "is_disabled": 0, "fusion_lat": 0.0, "fusion_lon": 0.0, "type": "electric_scooter", "lat": 38.895049, "bike_id": "0f9f0e2a3fe255bb7003ccc96e870c49", "is_reserved": 0, "lon": -77.04680316666666, "rental_uris": {"android": "https://dc.lft.to/lastmile_qr_scan", "ios": "https://dc.lft.to/lastmile_qr_scan"}}, {"name": "84abf0eb08dbfd6fdbcd73994c2506a1", "is_disabled": 0, "fusion_lat": 0.0, "fusion_lon": 0.0, "type": "electric_scooter", "lat": 38.90670383333333, "bike_id": "84abf0eb08dbfd6fdbcd73994c2506a1", "is_reserved": 0, "lon": -77.038486, "rental_uris": {"android": "https://dc.lft.to/lastmile_qr_scan", "ios": "https://dc.lft.to/lastmile_qr_scan"}}, {"name": "32b833758921d12c2b84c607dde1c83f", "is_disabled": 0, "fusion_lat": 0.0, "fusion_lon": 0.0, "type": "electric_scooter", "lat": 38.9025395, "bike_id": "32b833758921d12c2b84c607dde1c83f", "is_reserved": 0, "lon": -77.0418475, "rental_uris": {"android": "https://dc.lft.to/lastmile_qr_scan", "ios": "https://dc.lft.to/lastmile_qr_scan"}}, {"name": "eb3498abace43a7e47c956eb24e1b620", "is_disabled": 0, "fusion_lat": 0.0, "fusion_lon": 0.0, "type": "electric_scooter", "lat": 38.91871283333333, "bike_id": "eb3498abace43a7e47c956eb24e1b620", "is_reserved": 0, "lon": -77.04757066666667, "rental_uris": {"android": "https://dc.lft.to/lastmile_qr_scan", "ios": "https://dc.lft.to/lastmile_qr_scan"}}, {"name": "40065a7e642bf9187d73dd17dc00d4e8", "is_disabled": 0, "fusion_lat": 0.0, "fusion_lon": 0.0, "type": "electric_scooter", "lat": 38.88130783333333, "bike_id": "40065a7e642bf9187d73dd17dc00d4e8", "is_reserved": 0, "lon": -77.01670933333334, "rental_uris": {"android": "https://dc.lft.to/lastmile_qr_scan", "ios": "https://dc.lft.to/lastmile_qr_scan"}}, {"name": "05c782e1f6529e3df5b166350908cbc5", "is_disabled": 0, "fusion_lat": 0.0, "fusion_lon": 0.0, "type": "electric_scooter", "lat": 38.91619466666667, "bike_id": "05c782e1f6529e3df5b166350908cbc5", "is_reserved": 0, "lon": -77.0220525, "rental_uris": {"android": "https://dc.lft.to/lastmile_qr_scan", "ios": "https://dc.lft.to/lastmile_qr_scan"}}, {"name": "9eca54d934f4afb4c80f25558653b9f7", "is_disabled": 0, "fusion_lat": 0.0, "fusion_lon": 0.0, "type": "electric_scooter", "lat": 38.908181166666665, "bike_id": "9eca54d934f4afb4c80f25558653b9f7", "is_reserved": 0, "lon": -77.03841766666666, "rental_uris": {"android": "https://dc.lft.to/lastmile_qr_scan", "ios": "https://dc.lft.to/lastmile_qr_scan"}}, {"name": "48f65820771c868540ec3877328d2805", "is_disabled": 0, "fusion_lat": 0.0, "fusion_lon": 0.0, "type": "electric_scooter", "lat": 38.8960735, "bike_id": "48f65820771c868540ec3877328d2805", "is_reserved": 0, "lon": -77.04561516666666, "rental_uris": {"android": "https://dc.lft.to/lastmile_qr_scan", "ios": "https://dc.lft.to/lastmile_qr_scan"}}, {"name": "80cb4a42522ce56157e22d708734d5f7", "is_disabled": 0, "fusion_lat": 0.0, "fusion_lon": 0.0, "type": "electric_scooter", "lat": 38.86255416666667, "bike_id": "80cb4a42522ce56157e22d708734d5f7", "is_reserved": 0, "lon": -76.99514583333334, "rental_uris": {"android": "https://dc.lft.to/lastmile_qr_scan", "ios": "https://dc.lft.to/lastmile_qr_scan"}}, {"name": "101848fd46fc4d2db863da4df9e43482", "is_disabled": 0, "fusion_lat": 0.0, "fusion_lon": 0.0, "type": "electric_scooter", "lat": 38.90631166666667, "bike_id": "101848fd46fc4d2db863da4df9e43482", "is_reserved": 0, "lon": -77.0413705, "rental_uris": {"android": "https://dc.lft.to/lastmile_qr_scan", "ios": "https://dc.lft.to/lastmile_qr_scan"}}, {"name": "d5207d6632285cf7c45b5cc98d29b3ff", "is_disabled": 0, "fusion_lat": 0.0, "fusion_lon": 0.0, "type": "electric_scooter", "lat": 38.92858016666667, "bike_id": "d5207d6632285cf7c45b5cc98d29b3ff", "is_reserved": 0, "lon": -77.03320983333333, "rental_uris": {"android": "https://dc.lft.to/lastmile_qr_scan", "ios": "https://dc.lft.to/lastmile_qr_scan"}}, {"name": "196bac24a7e186d7fac574b1bf94705f", "is_disabled": 0, "fusion_lat": 0.0, "fusion_lon": 0.0, "type": "electric_scooter", "lat": 38.91549766666667, "bike_id": "196bac24a7e186d7fac574b1bf94705f", "is_reserved": 0, "lon": -77.02210133333334, "rental_uris": {"android": "https://dc.lft.to/lastmile_qr_scan", "ios": "https://dc.lft.to/lastmile_qr_scan"}}, {"name": "0b0cd374852120df2e52ae2ba4f893f4", "is_disabled": 0, "fusion_lat": 0.0, "fusion_lon": 0.0, "type": "electric_scooter", "lat": 38.887371, "bike_id": "0b0cd374852120df2e52ae2ba4f893f4", "is_reserved": 0, "lon": -77.02213033333334, "rental_uris": {"android": "https://dc.lft.to/lastmile_qr_scan", "ios": "https://dc.lft.to/lastmile_qr_scan"}}, {"name": "8f29c25720f44a649085684855490cc0", "is_disabled": 0, "fusion_lat": 0.0, "fusion_lon": 0.0, "type": "electric_scooter", "lat": 38.936095, "bike_id": "8f29c25720f44a649085684855490cc0", "is_reserved": 0, "lon": -77.02924333333333, "rental_uris": {"android": "https://dc.lft.to/lastmile_qr_scan", "ios": "https://dc.lft.to/lastmile_qr_scan"}}, {"name": "6464c442d03eb82311e28a4ac0fa41cd", "is_disabled": 0, "fusion_lat": 0.0, "fusion_lon": 0.0, "type": "electric_scooter", "lat": 38.906276166666665, "bike_id": "6464c442d03eb82311e28a4ac0fa41cd", "is_reserved": 0, "lon": -77.03852516666667, "rental_uris": {"android": "https://dc.lft.to/lastmile_qr_scan", "ios": "https://dc.lft.to/lastmile_qr_scan"}}, {"name": "a1bae30ea10ca7a586e106981987dd97", "is_disabled": 0, "fusion_lat": 0.0, "fusion_lon": 0.0, "type": "electric_scooter", "lat": 38.90480783333334, "bike_id": "a1bae30ea10ca7a586e106981987dd97", "is_reserved": 0, "lon": -77.0600665, "rental_uris": {"android": "https://dc.lft.to/lastmile_qr_scan", "ios": "https://dc.lft.to/lastmile_qr_scan"}}, {"name": "3c9bbee215f9e1ad53248b866291299b", "is_disabled": 0, "fusion_lat": 0.0, "fusion_lon": 0.0, "type": "electric_scooter", "lat": 38.9203685, "bike_id": "3c9bbee215f9e1ad53248b866291299b", "is_reserved": 0, "lon": -77.025882, "rental_uris": {"android": "https://dc.lft.to/lastmile_qr_scan", "ios": "https://dc.lft.to/lastmile_qr_scan"}}, {"name": "8c63529130673a74ad2aafed164324df", "is_disabled": 0, "fusion_lat": 0.0, "fusion_lon": 0.0, "type": "electric_scooter", "lat": 38.92823933333333, "bike_id": "8c63529130673a74ad2aafed164324df", "is_reserved": 0, "lon": -77.05418383333334, "rental_uris": {"android": "https://dc.lft.to/lastmile_qr_scan", "ios": "https://dc.lft.to/lastmile_qr_scan"}}, {"name": "529bca2ca21ac8cf52026c9aec7c6fc9", "is_disabled": 0, "fusion_lat": 0.0, "fusion_lon": 0.0, "type": "electric_scooter", "lat": 38.88565, "bike_id": "529bca2ca21ac8cf52026c9aec7c6fc9", "is_reserved": 0, "lon": -77.02008716666667, "rental_uris": {"android": "https://dc.lft.to/lastmile_qr_scan", "ios": "https://dc.lft.to/lastmile_qr_scan"}}, {"name": "d1cb93e99bc0acce4091f9e063a4ec6d", "is_disabled": 0, "fusion_lat": 0.0, "fusion_lon": 0.0, "type": "electric_scooter", "lat": 38.90649766666667, "bike_id": "d1cb93e99bc0acce4091f9e063a4ec6d", "is_reserved": 0, "lon": -77.0270985, "rental_uris": {"android": "https://dc.lft.to/lastmile_qr_scan", "ios": "https://dc.lft.to/lastmile_qr_scan"}}, {"name": "bef02ab26584497943506a89265e51ff", "is_disabled": 0, "fusion_lat": 0.0, "fusion_lon": 0.0, "type": "electric_bike", "lat": 38.9224415, "bike_id": "bef02ab26584497943506a89265e51ff", "is_reserved": 0, "lon": -77.019504, "rental_uris": {"android": "https://dc.lft.to/lastmile_qr_scan", "ios": "https://dc.lft.to/lastmile_qr_scan"}}, {"name": "865055378804964bd6b2444eacf6c1a6", "is_disabled": 0, "fusion_lat": 0.0, "fusion_lon": 0.0, "type": "electric_scooter", "lat": 38.90826766666667, "bike_id": "865055378804964bd6b2444eacf6c1a6", "is_reserved": 0, "lon": -77.03315183333333, "rental_uris": {"android": "https://dc.lft.to/lastmile_qr_scan", "ios": "https://dc.lft.to/lastmile_qr_scan"}}, {"name": "d9efc15def8e2208d807a818a0fc27fb", "is_disabled": 0, "fusion_lat": 0.0, "fusion_lon": 0.0, "type": "electric_scooter", "lat": 38.8370025, "bike_id": "d9efc15def8e2208d807a818a0fc27fb", "is_reserved": 0, "lon": -77.00572783333334, "rental_uris": {"android": "https://dc.lft.to/lastmile_qr_scan", "ios": "https://dc.lft.to/lastmile_qr_scan"}}, {"name": "151de5173e146e65553a5081d5ec3fd1", "is_disabled": 0, "fusion_lat": 0.0, "fusion_lon": 0.0, "type": "electric_scooter", "lat": 38.84433666666666, "bike_id": "151de5173e146e65553a5081d5ec3fd1", "is_reserved": 0, "lon": -76.99717333333334, "rental_uris": {"android": "https://dc.lft.to/lastmile_qr_scan", "ios": "https://dc.lft.to/lastmile_qr_scan"}}, {"name": "76b3b33bbfa5a4c32e543a3a5130e4e5", "is_disabled": 0, "fusion_lat": 0.0, "fusion_lon": 0.0, "type": "electric_scooter", "lat": 38.89112166666666, "bike_id": "76b3b33bbfa5a4c32e543a3a5130e4e5", "is_reserved": 0, "lon": -76.99162433333333, "rental_uris": {"android": "https://dc.lft.to/lastmile_qr_scan", "ios": "https://dc.lft.to/lastmile_qr_scan"}}, {"name": "da9874871849fbfe564b8f819a2463b7", "is_disabled": 0, "fusion_lat": 0.0, "fusion_lon": 0.0, "type": "electric_scooter", "lat": 38.908977, "bike_id": "da9874871849fbfe564b8f819a2463b7", "is_reserved": 0, "lon": -77.041489, "rental_uris": {"android": "https://dc.lft.to/lastmile_qr_scan", "ios": "https://dc.lft.to/lastmile_qr_scan"}}, {"name": "e4575b65086a651cd21e7bc745896aa3", "is_disabled": 0, "fusion_lat": 0.0, "fusion_lon": 0.0, "type": "electric_scooter", "lat": 38.920333, "bike_id": "e4575b65086a651cd21e7bc745896aa3", "is_reserved": 0, "lon": -77.0258875, "rental_uris": {"android": "https://dc.lft.to/lastmile_qr_scan", "ios": "https://dc.lft.to/lastmile_qr_scan"}}, {"name": "a8fd59b87baec0ecfea09e6a3533bc08", "is_disabled": 0, "fusion_lat": 0.0, "fusion_lon": 0.0, "type": "electric_scooter", "lat": 38.910193166666666, "bike_id": "a8fd59b87baec0ecfea09e6a3533bc08", "is_reserved": 0, "lon": -77.03204166666667, "rental_uris": {"android": "https://dc.lft.to/lastmile_qr_scan", "ios": "https://dc.lft.to/lastmile_qr_scan"}}, {"name": "a395b00be4cebeb8eddae05b8bf2e104", "is_disabled": 0, "fusion_lat": 0.0, "fusion_lon": 0.0, "type": "electric_bike", "lat": 39.01477383333334, "bike_id": "a395b00be4cebeb8eddae05b8bf2e104", "is_reserved": 0, "lon": -77.05497233333334, "rental_uris": {"android": "https://dc.lft.to/lastmile_qr_scan", "ios": "https://dc.lft.to/lastmile_qr_scan"}}, {"name": "377adc850a479cc9905a1b480d465dd6", "is_disabled": 0, "fusion_lat": 0.0, "fusion_lon": 0.0, "type": "electric_scooter", "lat": 38.906216666666666, "bike_id": "377adc850a479cc9905a1b480d465dd6", "is_reserved": 0, "lon": -77.02383816666666, "rental_uris": {"android": "https://dc.lft.to/lastmile_qr_scan", "ios": "https://dc.lft.to/lastmile_qr_scan"}}, {"name": "bdab987c8ccc39b2f88f021985b455be", "is_disabled": 0, "fusion_lat": 0.0, "fusion_lon": 0.0, "type": "electric_bike", "lat": 38.967409333333336, "bike_id": "bdab987c8ccc39b2f88f021985b455be", "is_reserved": 0, "lon": -76.981958, "rental_uris": {"android": "https://dc.lft.to/lastmile_qr_scan", "ios": "https://dc.lft.to/lastmile_qr_scan"}}, {"name": "824a2e36f4c36854a0541e4b5b238612", "is_disabled": 0, "fusion_lat": 0.0, "fusion_lon": 0.0, "type": "electric_scooter", "lat": 38.915605666666664, "bike_id": "824a2e36f4c36854a0541e4b5b238612", "is_reserved": 0, "lon": -77.04098566666667, "rental_uris": {"android": "https://dc.lft.to/lastmile_qr_scan", "ios": "https://dc.lft.to/lastmile_qr_scan"}}, {"name": "01322205e866554674a80323d1c117b4", "is_disabled": 0, "fusion_lat": 0.0, "fusion_lon": 0.0, "type": "electric_scooter", "lat": 38.91703033333334, "bike_id": "01322205e866554674a80323d1c117b4", "is_reserved": 0, "lon": -77.02304216666667, "rental_uris": {"android": "https://dc.lft.to/lastmile_qr_scan", "ios": "https://dc.lft.to/lastmile_qr_scan"}}, {"name": "487ae2b4f269867cb11067e80bfb1e8c", "is_disabled": 0, "fusion_lat": 0.0, "fusion_lon": 0.0, "type": "electric_scooter", "lat": 38.90237233333333, "bike_id": "487ae2b4f269867cb11067e80bfb1e8c", "is_reserved": 0, "lon": -77.00200516666666, "rental_uris": {"android": "https://dc.lft.to/lastmile_qr_scan", "ios": "https://dc.lft.to/lastmile_qr_scan"}}, {"name": "dfdc6b64d50a5d8747ac9b5b37bfec10", "is_disabled": 0, "fusion_lat": 0.0, "fusion_lon": 0.0, "type": "electric_scooter", "lat": 38.909676166666664, "bike_id": "dfdc6b64d50a5d8747ac9b5b37bfec10", "is_reserved": 0, "lon": -77.03220916666666, "rental_uris": {"android": "https://dc.lft.to/lastmile_qr_scan", "ios": "https://dc.lft.to/lastmile_qr_scan"}}, {"name": "ad7e2562cb9759c009763ed1af984cb0", "is_disabled": 0, "fusion_lat": 0.0, "fusion_lon": 0.0, "type": "electric_scooter", "lat": 38.917441333333336, "bike_id": "ad7e2562cb9759c009763ed1af984cb0", "is_reserved": 0, "lon": -77.0364435, "rental_uris": {"android": "https://dc.lft.to/lastmile_qr_scan", "ios": "https://dc.lft.to/lastmile_qr_scan"}}, {"name": "f5e9306fd45d36172eef3aadd41da11d", "is_disabled": 0, "fusion_lat": 0.0, "fusion_lon": 0.0, "type": "electric_scooter", "lat": 38.910238666666665, "bike_id": "f5e9306fd45d36172eef3aadd41da11d", "is_reserved": 0, "lon": -77.045012, "rental_uris": {"android": "https://dc.lft.to/lastmile_qr_scan", "ios": "https://dc.lft.to/lastmile_qr_scan"}}, {"name": "2a4971671a3fea51ac421cbdc42f1b2d", "is_disabled": 0, "fusion_lat": 0.0, "fusion_lon": 0.0, "type": "electric_scooter", "lat": 38.903893, "bike_id": "2a4971671a3fea51ac421cbdc42f1b2d", "is_reserved": 0, "lon": -77.04300866666667, "rental_uris": {"android": "https://dc.lft.to/lastmile_qr_scan", "ios": "https://dc.lft.to/lastmile_qr_scan"}}, {"name": "8ea21a6a6ec39abf18a9b7b83aad44a3", "is_disabled": 0, "fusion_lat": 0.0, "fusion_lon": 0.0, "type": "electric_scooter", "lat": 38.902687666666665, "bike_id": "8ea21a6a6ec39abf18a9b7b83aad44a3", "is_reserved": 0, "lon": -77.03962733333333, "rental_uris": {"android": "https://dc.lft.to/lastmile_qr_scan", "ios": "https://dc.lft.to/lastmile_qr_scan"}}, {"name": "7ae91a3138d9b33a10201895a09cf3fc", "is_disabled": 0, "fusion_lat": 0.0, "fusion_lon": 0.0, "type": "electric_bike", "lat": 38.892897, "bike_id": "7ae91a3138d9b33a10201895a09cf3fc", "is_reserved": 0, "lon": -77.025905, "rental_uris": {"android": "https://dc.lft.to/lastmile_qr_scan", "ios": "https://dc.lft.to/lastmile_qr_scan"}}, {"name": "1c1812692e5a2c305c10831f16a90b31", "is_disabled": 0, "fusion_lat": 0.0, "fusion_lon": 0.0, "type": "electric_scooter", "lat": 38.892200333333335, "bike_id": "1c1812692e5a2c305c10831f16a90b31", "is_reserved": 0, "lon": -77.046886, "rental_uris": {"android": "https://dc.lft.to/lastmile_qr_scan", "ios": "https://dc.lft.to/lastmile_qr_scan"}}, {"name": "e2f874e8e4fed91c9aa2531946ec89a8", "is_disabled": 0, "fusion_lat": 0.0, "fusion_lon": 0.0, "type": "electric_scooter", "lat": 38.91266566666667, "bike_id": "e2f874e8e4fed91c9aa2531946ec89a8", "is_reserved": 0, "lon": -77.02868933333333, "rental_uris": {"android": "https://dc.lft.to/lastmile_qr_scan", "ios": "https://dc.lft.to/lastmile_qr_scan"}}, {"name": "b81bdcd86aa230b2bc45af5cad08e5b4", "is_disabled": 0, "fusion_lat": 0.0, "fusion_lon": 0.0, "type": "electric_scooter", "lat": 38.9095675, "bike_id": "b81bdcd86aa230b2bc45af5cad08e5b4", "is_reserved": 0, "lon": -77.03868183333333, "rental_uris": {"android": "https://dc.lft.to/lastmile_qr_scan", "ios": "https://dc.lft.to/lastmile_qr_scan"}}, {"name": "50d841ea51b13027d50e9569b461e2fd", "is_disabled": 0, "fusion_lat": 0.0, "fusion_lon": 0.0, "type": "electric_scooter", "lat": 38.92228566666667, "bike_id": "50d841ea51b13027d50e9569b461e2fd", "is_reserved": 0, "lon": -77.02334033333334, "rental_uris": {"android": "https://dc.lft.to/lastmile_qr_scan", "ios": "https://dc.lft.to/lastmile_qr_scan"}}, {"name": "d766e361ec6dad19227242081a30c255", "is_disabled": 0, "fusion_lat": 0.0, "fusion_lon": 0.0, "type": "electric_scooter", "lat": 38.88809366666667, "bike_id": "d766e361ec6dad19227242081a30c255", "is_reserved": 0, "lon": -76.93345366666667, "rental_uris": {"android": "https://dc.lft.to/lastmile_qr_scan", "ios": "https://dc.lft.to/lastmile_qr_scan"}}, {"name": "52b0af9852cd8906de1cf05a52319adb", "is_disabled": 0, "fusion_lat": 0.0, "fusion_lon": 0.0, "type": "electric_scooter", "lat": 38.931728166666666, "bike_id": "52b0af9852cd8906de1cf05a52319adb", "is_reserved": 0, "lon": -77.03846183333333, "rental_uris": {"android": "https://dc.lft.to/lastmile_qr_scan", "ios": "https://dc.lft.to/lastmile_qr_scan"}}, {"name": "5d2f3ba1214c5bb6aa4c290c7e417b7e", "is_disabled": 0, "fusion_lat": 0.0, "fusion_lon": 0.0, "type": "electric_scooter", "lat": 38.924698166666666, "bike_id": "5d2f3ba1214c5bb6aa4c290c7e417b7e", "is_reserved": 0, "lon": -77.0220395, "rental_uris": {"android": "https://dc.lft.to/lastmile_qr_scan", "ios": "https://dc.lft.to/lastmile_qr_scan"}}, {"name": "1b6706eca8c0a86a79ebd8ad5ec943d5", "is_disabled": 0, "fusion_lat": 0.0, "fusion_lon": 0.0, "type": "electric_scooter", "lat": 38.916491666666666, "bike_id": "1b6706eca8c0a86a79ebd8ad5ec943d5", "is_reserved": 0, "lon": -77.02970066666667, "rental_uris": {"android": "https://dc.lft.to/lastmile_qr_scan", "ios": "https://dc.lft.to/lastmile_qr_scan"}}, {"name": "47e99d1b377a73a5770f4ceaf94adc2d", "is_disabled": 0, "fusion_lat": 0.0, "fusion_lon": 0.0, "type": "electric_bike", "lat": 38.86089466666667, "bike_id": "47e99d1b377a73a5770f4ceaf94adc2d", "is_reserved": 0, "lon": -77.09589233333334, "rental_uris": {"android": "https://dc.lft.to/lastmile_qr_scan", "ios": "https://dc.lft.to/lastmile_qr_scan"}}, {"name": "2d43fb913891d3aebd9475344780f607", "is_disabled": 0, "fusion_lat": 0.0, "fusion_lon": 0.0, "type": "electric_scooter", "lat": 38.9215925, "bike_id": "2d43fb913891d3aebd9475344780f607", "is_reserved": 0, "lon": -77.03234583333334, "rental_uris": {"android": "https://dc.lft.to/lastmile_qr_scan", "ios": "https://dc.lft.to/lastmile_qr_scan"}}, {"name": "97eae37e58fdd903af8dc884198fbf34", "is_disabled": 0, "fusion_lat": 0.0, "fusion_lon": 0.0, "type": "electric_scooter", "lat": 38.90570483333333, "bike_id": "97eae37e58fdd903af8dc884198fbf34", "is_reserved": 0, "lon": -77.038396, "rental_uris": {"android": "https://dc.lft.to/lastmile_qr_scan", "ios": "https://dc.lft.to/lastmile_qr_scan"}}, {"name": "6d90bedb2284ec8898156bb7801e7a33", "is_disabled": 0, "fusion_lat": 0.0, "fusion_lon": 0.0, "type": "electric_scooter", "lat": 38.887246, "bike_id": "6d90bedb2284ec8898156bb7801e7a33", "is_reserved": 0, "lon": -77.02823783333334, "rental_uris": {"android": "https://dc.lft.to/lastmile_qr_scan", "ios": "https://dc.lft.to/lastmile_qr_scan"}}, {"name": "51ca1e514363ea42bd71fb4a4e4bfab3", "is_disabled": 0, "fusion_lat": 0.0, "fusion_lon": 0.0, "type": "electric_scooter", "lat": 38.9209665, "bike_id": "51ca1e514363ea42bd71fb4a4e4bfab3", "is_reserved": 0, "lon": -77.00430383333334, "rental_uris": {"android": "https://dc.lft.to/lastmile_qr_scan", "ios": "https://dc.lft.to/lastmile_qr_scan"}}, {"name": "b88470f677edc1506c06470e0a4b62c4", "is_disabled": 0, "fusion_lat": 0.0, "fusion_lon": 0.0, "type": "electric_scooter", "lat": 38.8952285, "bike_id": "b88470f677edc1506c06470e0a4b62c4", "is_reserved": 0, "lon": -77.00339483333333, "rental_uris": {"android": "https://dc.lft.to/lastmile_qr_scan", "ios": "https://dc.lft.to/lastmile_qr_scan"}}, {"name": "d4c8b1627debac6b3f4a6125c5eac476", "is_disabled": 0, "fusion_lat": 0.0, "fusion_lon": 0.0, "type": "electric_scooter", "lat": 38.90156016666667, "bike_id": "d4c8b1627debac6b3f4a6125c5eac476", "is_reserved": 0, "lon": -76.97631816666667, "rental_uris": {"android": "https://dc.lft.to/lastmile_qr_scan", "ios": "https://dc.lft.to/lastmile_qr_scan"}}, {"name": "dbe3886e9d79ceed6f22767c78476b66", "is_disabled": 0, "fusion_lat": 0.0, "fusion_lon": 0.0, "type": "electric_scooter", "lat": 38.893383, "bike_id": "dbe3886e9d79ceed6f22767c78476b66", "is_reserved": 0, "lon": -77.012301, "rental_uris": {"android": "https://dc.lft.to/lastmile_qr_scan", "ios": "https://dc.lft.to/lastmile_qr_scan"}}, {"name": "894ba6e34b69c62d81180eeaedbc367b", "is_disabled": 0, "fusion_lat": 0.0, "fusion_lon": 0.0, "type": "electric_scooter", "lat": 38.899074, "bike_id": "894ba6e34b69c62d81180eeaedbc367b", "is_reserved": 0, "lon": -76.9337145, "rental_uris": {"android": "https://dc.lft.to/lastmile_qr_scan", "ios": "https://dc.lft.to/lastmile_qr_scan"}}, {"name": "f14f98a15eeb07aac6dd15f60462cf9e", "is_disabled": 0, "fusion_lat": 0.0, "fusion_lon": 0.0, "type": "electric_scooter", "lat": 38.915655, "bike_id": "f14f98a15eeb07aac6dd15f60462cf9e", "is_reserved": 0, "lon": -77.02392783333333, "rental_uris": {"android": "https://dc.lft.to/lastmile_qr_scan", "ios": "https://dc.lft.to/lastmile_qr_scan"}}, {"name": "f62323064b74210d8d3e7e5ae983df35", "is_disabled": 0, "fusion_lat": 0.0, "fusion_lon": 0.0, "type": "electric_scooter", "lat": 38.924029166666664, "bike_id": "f62323064b74210d8d3e7e5ae983df35", "is_reserved": 0, "lon": -77.02694316666667, "rental_uris": {"android": "https://dc.lft.to/lastmile_qr_scan", "ios": "https://dc.lft.to/lastmile_qr_scan"}}, {"name": "45f52cbd16737e598869661ca3927ed6", "is_disabled": 0, "fusion_lat": 0.0, "fusion_lon": 0.0, "type": "electric_scooter", "lat": 38.90490366666667, "bike_id": "45f52cbd16737e598869661ca3927ed6", "is_reserved": 0, "lon": -77.06030333333334, "rental_uris": {"android": "https://dc.lft.to/lastmile_qr_scan", "ios": "https://dc.lft.to/lastmile_qr_scan"}}, {"name": "14a40963c8b3f622c38c28d852cab585", "is_disabled": 0, "fusion_lat": 0.0, "fusion_lon": 0.0, "type": "electric_scooter", "lat": 38.86386616666667, "bike_id": "14a40963c8b3f622c38c28d852cab585", "is_reserved": 0, "lon": -76.9892485, "rental_uris": {"android": "https://dc.lft.to/lastmile_qr_scan", "ios": "https://dc.lft.to/lastmile_qr_scan"}}, {"name": "28ccfcca253b92ca104b67fb736830e7", "is_disabled": 0, "fusion_lat": 0.0, "fusion_lon": 0.0, "type": "electric_scooter", "lat": 38.927471, "bike_id": "28ccfcca253b92ca104b67fb736830e7", "is_reserved": 0, "lon": -77.02540916666666, "rental_uris": {"android": "https://dc.lft.to/lastmile_qr_scan", "ios": "https://dc.lft.to/lastmile_qr_scan"}}, {"name": "efeb96d4318637410bffcc9e2e6337ad", "is_disabled": 0, "fusion_lat": 0.0, "fusion_lon": 0.0, "type": "electric_scooter", "lat": 38.9052275, "bike_id": "efeb96d4318637410bffcc9e2e6337ad", "is_reserved": 0, "lon": -77.0647005, "rental_uris": {"android": "https://dc.lft.to/lastmile_qr_scan", "ios": "https://dc.lft.to/lastmile_qr_scan"}}, {"name": "a1d3c2e1eb707a568cef181d0685e038", "is_disabled": 0, "fusion_lat": 0.0, "fusion_lon": 0.0, "type": "electric_bike", "lat": 38.96227116666667, "bike_id": "a1d3c2e1eb707a568cef181d0685e038", "is_reserved": 0, "lon": -77.02638966666666, "rental_uris": {"android": "https://dc.lft.to/lastmile_qr_scan", "ios": "https://dc.lft.to/lastmile_qr_scan"}}, {"name": "85fdaa86fccc8847de6bb1245b8eb36a", "is_disabled": 0, "fusion_lat": 0.0, "fusion_lon": 0.0, "type": "electric_scooter", "lat": 38.921055, "bike_id": "85fdaa86fccc8847de6bb1245b8eb36a", "is_reserved": 0, "lon": -76.99411516666666, "rental_uris": {"android": "https://dc.lft.to/lastmile_qr_scan", "ios": "https://dc.lft.to/lastmile_qr_scan"}}, {"name": "0c6eb35fe4cd400b969549f35d827bf7", "is_disabled": 0, "fusion_lat": 0.0, "fusion_lon": 0.0, "type": "electric_scooter", "lat": 38.89747033333333, "bike_id": "0c6eb35fe4cd400b969549f35d827bf7", "is_reserved": 0, "lon": -77.03339133333333, "rental_uris": {"android": "https://dc.lft.to/lastmile_qr_scan", "ios": "https://dc.lft.to/lastmile_qr_scan"}}, {"name": "e0eb04488a5edb9f138c0fb3583532a4", "is_disabled": 0, "fusion_lat": 0.0, "fusion_lon": 0.0, "type": "electric_scooter", "lat": 38.895005833333336, "bike_id": "e0eb04488a5edb9f138c0fb3583532a4", "is_reserved": 0, "lon": -76.934741, "rental_uris": {"android": "https://dc.lft.to/lastmile_qr_scan", "ios": "https://dc.lft.to/lastmile_qr_scan"}}, {"name": "15049e8710a61099ba1809aec4999576", "is_disabled": 0, "fusion_lat": 0.0, "fusion_lon": 0.0, "type": "electric_bike", "lat": 39.0563685, "bike_id": "15049e8710a61099ba1809aec4999576", "is_reserved": 0, "lon": -77.12530466666666, "rental_uris": {"android": "https://dc.lft.to/lastmile_qr_scan", "ios": "https://dc.lft.to/lastmile_qr_scan"}}, {"name": "f5871a93c342ab51428467345352164d", "is_disabled": 0, "fusion_lat": 0.0, "fusion_lon": 0.0, "type": "electric_scooter", "lat": 38.90555483333333, "bike_id": "f5871a93c342ab51428467345352164d", "is_reserved": 0, "lon": -77.04336033333334, "rental_uris": {"android": "https://dc.lft.to/lastmile_qr_scan", "ios": "https://dc.lft.to/lastmile_qr_scan"}}, {"name": "96a7b4fe2ebae157682d30790d2982e3", "is_disabled": 0, "fusion_lat": 0.0, "fusion_lon": 0.0, "type": "electric_scooter", "lat": 38.91175666666667, "bike_id": "96a7b4fe2ebae157682d30790d2982e3", "is_reserved": 0, "lon": -77.03860066666667, "rental_uris": {"android": "https://dc.lft.to/lastmile_qr_scan", "ios": "https://dc.lft.to/lastmile_qr_scan"}}, {"name": "cd5e7bd0c1e41ebd30784c7c94af3fc1", "is_disabled": 0, "fusion_lat": 0.0, "fusion_lon": 0.0, "type": "electric_scooter", "lat": 38.90383216666667, "bike_id": "cd5e7bd0c1e41ebd30784c7c94af3fc1", "is_reserved": 0, "lon": -77.038379, "rental_uris": {"android": "https://dc.lft.to/lastmile_qr_scan", "ios": "https://dc.lft.to/lastmile_qr_scan"}}, {"name": "0aab3bbd40ddb932a4a2a963fef9e649", "is_disabled": 0, "fusion_lat": 0.0, "fusion_lon": 0.0, "type": "electric_scooter", "lat": 38.9228895, "bike_id": "0aab3bbd40ddb932a4a2a963fef9e649", "is_reserved": 0, "lon": -77.042814, "rental_uris": {"android": "https://dc.lft.to/lastmile_qr_scan", "ios": "https://dc.lft.to/lastmile_qr_scan"}}, {"name": "0203de11048eb07f196cba14fd893ab4", "is_disabled": 0, "fusion_lat": 0.0, "fusion_lon": 0.0, "type": "electric_scooter", "lat": 38.905731333333335, "bike_id": "0203de11048eb07f196cba14fd893ab4", "is_reserved": 0, "lon": -77.0438445, "rental_uris": {"android": "https://dc.lft.to/lastmile_qr_scan", "ios": "https://dc.lft.to/lastmile_qr_scan"}}, {"name": "288d4fc327185e2a4e3888eb53f9f054", "is_disabled": 0, "fusion_lat": 0.0, "fusion_lon": 0.0, "type": "electric_scooter", "lat": 38.913328, "bike_id": "288d4fc327185e2a4e3888eb53f9f054", "is_reserved": 0, "lon": -77.02579916666667, "rental_uris": {"android": "https://dc.lft.to/lastmile_qr_scan", "ios": "https://dc.lft.to/lastmile_qr_scan"}}, {"name": "e973cc2c2b1ab9dd86e597bfb46d9ed0", "is_disabled": 0, "fusion_lat": 0.0, "fusion_lon": 0.0, "type": "electric_scooter", "lat": 38.910247166666664, "bike_id": "e973cc2c2b1ab9dd86e597bfb46d9ed0", "is_reserved": 0, "lon": -77.034448, "rental_uris": {"android": "https://dc.lft.to/lastmile_qr_scan", "ios": "https://dc.lft.to/lastmile_qr_scan"}}, {"name": "59fb4549a49128063aec2a2d7deccfff", "is_disabled": 0, "fusion_lat": 0.0, "fusion_lon": 0.0, "type": "electric_scooter", "lat": 38.862222333333335, "bike_id": "59fb4549a49128063aec2a2d7deccfff", "is_reserved": 0, "lon": -76.99498183333333, "rental_uris": {"android": "https://dc.lft.to/lastmile_qr_scan", "ios": "https://dc.lft.to/lastmile_qr_scan"}}, {"name": "be3f659e5166ca283e8ce42aa9daf178", "is_disabled": 0, "fusion_lat": 0.0, "fusion_lon": 0.0, "type": "electric_scooter", "lat": 38.922577833333335, "bike_id": "be3f659e5166ca283e8ce42aa9daf178", "is_reserved": 0, "lon": -77.04287766666667, "rental_uris": {"android": "https://dc.lft.to/lastmile_qr_scan", "ios": "https://dc.lft.to/lastmile_qr_scan"}}, {"name": "f4a4fd4ce5ee42add0ec754d3010aec7", "is_disabled": 0, "fusion_lat": 0.0, "fusion_lon": 0.0, "type": "electric_scooter", "lat": 38.91885966666667, "bike_id": "f4a4fd4ce5ee42add0ec754d3010aec7", "is_reserved": 0, "lon": -77.02974866666666, "rental_uris": {"android": "https://dc.lft.to/lastmile_qr_scan", "ios": "https://dc.lft.to/lastmile_qr_scan"}}, {"name": "ad2c4a97139513945aedb155c41c3dbf", "is_disabled": 0, "fusion_lat": 0.0, "fusion_lon": 0.0, "type": "electric_scooter", "lat": 38.924408666666665, "bike_id": "ad2c4a97139513945aedb155c41c3dbf", "is_reserved": 0, "lon": -77.040387, "rental_uris": {"android": "https://dc.lft.to/lastmile_qr_scan", "ios": "https://dc.lft.to/lastmile_qr_scan"}}, {"name": "25c7a3b7a46ce34217aec7f4b0e1aa4a", "is_disabled": 0, "fusion_lat": 0.0, "fusion_lon": 0.0, "type": "electric_scooter", "lat": 38.915643, "bike_id": "25c7a3b7a46ce34217aec7f4b0e1aa4a", "is_reserved": 0, "lon": -77.03236616666666, "rental_uris": {"android": "https://dc.lft.to/lastmile_qr_scan", "ios": "https://dc.lft.to/lastmile_qr_scan"}}, {"name": "df36852e27a9d89c7cc327c708b0b5f2", "is_disabled": 0, "fusion_lat": 0.0, "fusion_lon": 0.0, "type": "electric_scooter", "lat": 38.9204415, "bike_id": "df36852e27a9d89c7cc327c708b0b5f2", "is_reserved": 0, "lon": -77.04194466666667, "rental_uris": {"android": "https://dc.lft.to/lastmile_qr_scan", "ios": "https://dc.lft.to/lastmile_qr_scan"}}, {"name": "03c16a2eb9a108d00203391a9b177f00", "is_disabled": 0, "fusion_lat": 0.0, "fusion_lon": 0.0, "type": "electric_scooter", "lat": 38.91926216666667, "bike_id": "03c16a2eb9a108d00203391a9b177f00", "is_reserved": 0, "lon": -77.034115, "rental_uris": {"android": "https://dc.lft.to/lastmile_qr_scan", "ios": "https://dc.lft.to/lastmile_qr_scan"}}, {"name": "790800cd0d1df035aa962814af68f83b", "is_disabled": 0, "fusion_lat": 0.0, "fusion_lon": 0.0, "type": "electric_scooter", "lat": 38.8836275, "bike_id": "790800cd0d1df035aa962814af68f83b", "is_reserved": 0, "lon": -76.94156533333333, "rental_uris": {"android": "https://dc.lft.to/lastmile_qr_scan", "ios": "https://dc.lft.to/lastmile_qr_scan"}},