{"data": {"bikes": [{"lat": 38.8955445, "fusion_lat": 0.0, "type": "electric_scooter", "bike_id": "3b16205c38d527972cca9c8233d7128c", "rental_uris": {"ios": "https://dc.lft.to/lastmile_qr_scan", "android": "https://dc.lft.to/lastmile_qr_scan"}, "fusion_lon": 0.0, "lon": -76.9487165, "name": "3b16205c38d527972cca9c8233d7128c", "is_reserved": 0, "is_disabled": 0}, {"lat": 38.8954455, "fusion_lat": 0.0, "type": "electric_scooter", "bike_id": "3ebd13f6a1c81efe14639b4fe3d5fe19", "rental_uris": {"ios": "https://dc.lft.to/lastmile_qr_scan", "android": "https://dc.lft.to/lastmile_qr_scan"}, "fusion_lon": 0.0, "lon": -76.94942483333334, "name": "3ebd13f6a1c81efe14639b4fe3d5fe19", "is_reserved": 0, "is_disabled": 0}, {"lat": 38.807619833333334, "fusion_lat": 0.0, "type": "electric_bike", "bike_id": "e13c814c217bda68dd85a86b64ff903c", "rental_uris": {"ios": "https://dc.lft.to/lastmile_qr_scan", "android": "https://dc.lft.to/lastmile_qr_scan"}, "fusion_lon": 0.0, "lon": -77.129824, "name": "e13c814c217bda68dd85a86b64ff903c", "is_reserved": 0, "is_disabled": 0}, {"lat": 38.89607933333333, "fusion_lat": 0.0, "type": "electric_scooter", "bike_id": "32f8c2b81c488f1ab350faca42a793cf", "rental_uris": {"ios": "https://dc.lft.to/lastmile_qr_scan", "android": "https://dc.lft.to/lastmile_qr_scan"}, "fusion_lon": 0.0, "lon": -77.02148433333333, "name": "32f8c2b81c488f1ab350faca42a793cf", "is_reserved": 0, "is_disabled": 0}, {"lat": 38.8983075, "fusion_lat": 0.0, "type": "electric_scooter", "bike_id": "55578cdf369d96d3504bdec0e345342c", "rental_uris": {"ios": "https://dc.lft.to/lastmile_qr_scan", "android": "https://dc.lft.to/lastmile_qr_scan"}, "fusion_lon": 0.0, "lon": -76.94651366666666, "name": "55578cdf369d96d3504bdec0e345342c", "is_reserved": 0, "is_disabled": 0}, {"lat": 38.90063816666667, "fusion_lat": 0.0, "type": "electric_scooter", "bike_id": "477563f30b551a0235fd7ee08d7088d1", "rental_uris": {"ios": "https://dc.lft.to/lastmile_qr_scan", "android": "https://dc.lft.to/lastmile_qr_scan"}, "fusion_lon": 0.0, "lon": -76.927448, "name": "477563f30b551a0235fd7ee08d7088d1", "is_reserved": 0, "is_disabled": 0}, {"lat": 38.924736833333334, "fusion_lat": 0.0, "type": "electric_scooter", "bike_id": "c352cf647937e5f656fbec28747f7b32", "rental_uris": {"ios": "https://dc.lft.to/lastmile_qr_scan", "android": "https://dc.lft.to/lastmile_qr_scan"}, "fusion_lon": 0.0, "lon": -77.05236016666667, "name": "c352cf647937e5f656fbec28747f7b32", "is_reserved": 0, "is_disabled": 0}, {"lat": 38.896613333333335, "fusion_lat": 0.0, "type": "electric_scooter", "bike_id": "f001f163ff957777ceda101910a1835c", "rental_uris": {"ios": "https://dc.lft.to/lastmile_qr_scan", "android": "https://dc.lft.to/lastmile_qr_scan"}, "fusion_lon": 0.0, "lon": -77.05106133333334, "name": "f001f163ff957777ceda101910a1835c", "is_reserved": 0, "is_disabled": 0}, {"lat": 38.8922335, "fusion_lat": 0.0, "type": "electric_scooter", "bike_id": "b3eff6cc0ecafbc86f45920e75b0c5fa", "rental_uris": {"ios": "https://dc.lft.to/lastmile_qr_scan", "android": "https://dc.lft.to/lastmile_qr_scan"}, "fusion_lon": 0.0, "lon": -77.041977, "name": "b3eff6cc0ecafbc86f45920e75b0c5fa", "is_reserved": 0, "is_disabled": 0}, {"lat": 38.90492616666667, "fusion_lat": 0.0, "type": "electric_scooter", "bike_id": "ea2bb608498b430a0f4fb6afacd1dd25", "rental_uris": {"ios": "https://dc.lft.to/lastmile_qr_scan", "android": "https://dc.lft.to/lastmile_qr_scan"}, "fusion_lon": 0.0, "lon": -77.03464633333333, "name": "ea2bb608498b430a0f4fb6afacd1dd25", "is_reserved": 0, "is_disabled": 0}, {"lat": 38.90838633333333, "fusion_lat": 0.0, "type": "electric_scooter", "bike_id": "62b1e7b95a03c9ff328c68477d98e802", "rental_uris": {"ios": "https://dc.lft.to/lastmile_qr_scan", "android": "https://dc.lft.to/lastmile_qr_scan"}, "fusion_lon": 0.0, "lon": -77.03540283333334, "name": "62b1e7b95a03c9ff328c68477d98e802", "is_reserved": 0, "is_disabled": 0}, {"lat": 38.904213, "fusion_lat": 0.0, "type": "electric_scooter", "bike_id": "6f3332ac1964bc1cc8c7264f7e17826a", "rental_uris": {"ios": "https://dc.lft.to/lastmile_qr_scan", "android": "https://dc.lft.to/lastmile_qr_scan"}, "fusion_lon": 0.0, "lon": -77.02955666666666, "name": "6f3332ac1964bc1cc8c7264f7e17826a", "is_reserved": 0, "is_disabled": 0}, {"lat": 38.878201, "fusion_lat": 0.0, "type": "electric_scooter", "bike_id": "2448f9598035db39b458553d0d980984", "rental_uris": {"ios": "https://dc.lft.to/lastmile_qr_scan", "android": "https://dc.lft.to/lastmile_qr_scan"}, "fusion_lon": 0.0, "lon": -77.02234516666667, "name": "2448f9598035db39b458553d0d980984", "is_reserved": 0, "is_disabled": 0}, {"lat": 38.88181016666667, "fusion_lat": 0.0, "type": "electric_scooter", "bike_id": "a267a41a9e1ddaa66e51c0a1dea59f32", "rental_uris": {"ios": "https://dc.lft.to/lastmile_qr_scan", "android": "https://dc.lft.to/lastmile_qr_scan"}, "fusion_lon": 0.0, "lon": -76.99259033333334, "name": "a267a41a9e1ddaa66e51c0a1dea59f32", "is_reserved": 0, "is_disabled": 0}, {"lat": 38.90427716666667, "fusion_lat": 0.0, "type": "electric_scooter", "bike_id": "9dc5cf0e08dd4046d2984eafae66e1ba", "rental_uris": {"ios": "https://dc.lft.to/lastmile_qr_scan", "android": "https://dc.lft.to/lastmile_qr_scan"}, "fusion_lon": 0.0, "lon": -77.01980683333333, "name": "9dc5cf0e08dd4046d2984eafae66e1ba", "is_reserved": 0, "is_disabled": 0}, {"lat": 38.92864616666667, "fusion_lat": 0.0, "type": "electric_scooter", "bike_id": "ace16336cb9e518dfe2ca616db883ac3", "rental_uris": {"ios": "https://dc.lft.to/lastmile_qr_scan", "android": "https://dc.lft.to/lastmile_qr_scan"}, "fusion_lon": 0.0, "lon": -77.03453466666667, "name": "ace16336cb9e518dfe2ca616db883ac3", "is_reserved": 0, "is_disabled": 0}, {"lat": 38.90574383333333, "fusion_lat": 0.0, "type": "electric_scooter", "bike_id": "6410e0231f09f8401a24e07116ec4239", "rental_uris": {"ios": "https://dc.lft.to/lastmile_qr_scan", "android": "https://dc.lft.to/lastmile_qr_scan"}, "fusion_lon": 0.0, "lon": -77.03462566666667, "name": "6410e0231f09f8401a24e07116ec4239", "is_reserved": 0, "is_disabled": 0}, {"lat": 38.90210966666667, "fusion_lat": 0.0, "type": "electric_scooter", "bike_id": "618cc475e54e6bd103f05c765471ce88", "rental_uris": {"ios": "https://dc.lft.to/lastmile_qr_scan", "android": "https://dc.lft.to/lastmile_qr_scan"}, "fusion_lon": 0.0, "lon": -77.0469965, "name": "618cc475e54e6bd103f05c765471ce88", "is_reserved": 0, "is_disabled": 0}, {"lat": 38.911152333333334, "fusion_lat": 0.0, "type": "electric_scooter", "bike_id": "1e74483476219aa2b1efd00ba68b578e", "rental_uris": {"ios": "https://dc.lft.to/lastmile_qr_scan", "android": "https://dc.lft.to/lastmile_qr_scan"}, "fusion_lon": 0.0, "lon": -77.0453445, "name": "1e74483476219aa2b1efd00ba68b578e", "is_reserved": 0, "is_disabled": 0}, {"lat": 38.92017366666666, "fusion_lat": 0.0, "type": "electric_scooter", "bike_id": "b9a38690e99778e655ca518df0457d9f", "rental_uris": {"ios": "https://dc.lft.to/lastmile_qr_scan", "android": "https://dc.lft.to/lastmile_qr_scan"}, "fusion_lon": 0.0, "lon": -77.02059683333333, "name": "b9a38690e99778e655ca518df0457d9f", "is_reserved": 0, "is_disabled": 0}, {"lat": 38.875340333333334, "fusion_lat": 0.0, "type": "electric_scooter", "bike_id": "ebddc6ed465f472a54b185f06e36b1eb", "rental_uris": {"ios": "https://dc.lft.to/lastmile_qr_scan", "android": "https://dc.lft.to/lastmile_qr_scan"}, "fusion_lon": 0.0, "lon": -77.00507283333333, "name": "ebddc6ed465f472a54b185f06e36b1eb", "is_reserved": 0, "is_disabled": 0}, {"lat": 38.901458166666664, "fusion_lat": 0.0, "type": "electric_scooter", "bike_id": "7aa69cb0fa049ba38ea4227dae748f7e", "rental_uris": {"ios": "https://dc.lft.to/lastmile_qr_scan", "android": "https://dc.lft.to/lastmile_qr_scan"}, "fusion_lon": 0.0, "lon": -77.01901916666667, "name": "7aa69cb0fa049ba38ea4227dae748f7e", "is_reserved": 0, "is_disabled": 0}, {"lat": 38.892271, "fusion_lat": 0.0, "type": "electric_scooter", "bike_id": "eb35133306ac495f5e2995710a190210", "rental_uris": {"ios": "https://dc.lft.to/lastmile_qr_scan", "android": "https://dc.lft.to/lastmile_qr_scan"}, "fusion_lon": 0.0, "lon": -77.02577816666667, "name": "eb35133306ac495f5e2995710a190210", "is_reserved": 0, "is_disabled": 0}, {"lat": 38.90380716666667, "fusion_lat": 0.0, "type": "electric_scooter", "bike_id": "a64b778a88bf9e877f831329a1bf95f6", "rental_uris": {"ios": "https://dc.lft.to/lastmile_qr_scan", "android": "https://dc.lft.to/lastmile_qr_scan"}, "fusion_lon": 0.0, "lon": -77.04017666666667, "name": "a64b778a88bf9e877f831329a1bf95f6", "is_reserved": 0, "is_disabled": 0}, {"lat": 38.87613916666667, "fusion_lat": 0.0, "type": "electric_scooter", "bike_id": "d5e0f36ef0cc575196856268b77a4ccc", "rental_uris": {"ios": "https://dc.lft.to/lastmile_qr_scan", "android": "https://dc.lft.to/lastmile_qr_scan"}, "fusion_lon": 0.0, "lon": -76.96552199999999, "name": "d5e0f36ef0cc575196856268b77a4ccc", "is_reserved": 0, "is_disabled": 0}, {"lat": 38.929004, "fusion_lat": 0.0, "type": "electric_scooter", "bike_id": "df2889c0bb957b53c374d7600bcd96c4", "rental_uris": {"ios": "https://dc.lft.to/lastmile_qr_scan", "android": "https://dc.lft.to/lastmile_qr_scan"}, "fusion_lon": 0.0, "lon": -77.01623316666667, "name": "df2889c0bb957b53c374d7600bcd96c4", "is_reserved": 0, "is_disabled": 0}, {"lat": 38.895515833333334, "fusion_lat": 0.0, "type": "electric_scooter", "bike_id": "f95d841bef1c13ddf27b562487c03f27", "rental_uris": {"ios": "https://dc.lft.to/lastmile_qr_scan", "android": "https://dc.lft.to/lastmile_qr_scan"}, "fusion_lon": 0.0, "lon": -77.009181, "name": "f95d841bef1c13ddf27b562487c03f27", "is_reserved": 0, "is_disabled": 0}, {"lat": 38.9246325, "fusion_lat": 0.0, "type": "electric_scooter", "bike_id": "e8d8bad592d6fbc70708e269c9276ec1", "rental_uris": {"ios": "https://dc.lft.to/lastmile_qr_scan", "android": "https://dc.lft.to/lastmile_qr_scan"}, "fusion_lon": 0.0, "lon": -77.04027033333334, "name": "e8d8bad592d6fbc70708e269c9276ec1", "is_reserved": 0, "is_disabled": 0}, {"lat": 38.89837033333333, "fusion_lat": 0.0, "type": "electric_scooter", "bike_id": "ae919303278d83392fcec5e1907a6196", "rental_uris": {"ios": "https://dc.lft.to/lastmile_qr_scan", "android": "https://dc.lft.to/lastmile_qr_scan"}, "fusion_lon": 0.0, "lon": -77.030332, "name": "ae919303278d83392fcec5e1907a6196", "is_reserved": 0, "is_disabled": 0}, {"lat": 38.89913333333333, "fusion_lat": 0.0, "type": "electric_scooter", "bike_id": "5f9d2b6cd1e750ff5241dac7cd8966ef", "rental_uris": {"ios": "https://dc.lft.to/lastmile_qr_scan", "android": "https://dc.lft.to/lastmile_qr_scan"}, "fusion_lon": 0.0, "lon": -77.01379983333334, "name": "5f9d2b6cd1e750ff5241dac7cd8966ef", "is_reserved": 0, "is_disabled": 0}, {"lat": 38.86658666666666, "fusion_lat": 0.0, "type": "electric_scooter", "bike_id": "d3fb554020050c3e46eee4dab57b9067", "rental_uris": {"ios": "https://dc.lft.to/lastmile_qr_scan", "android": "https://dc.lft.to/lastmile_qr_scan"}, "fusion_lon": 0.0, "lon": -76.98896266666667, "name": "d3fb554020050c3e46eee4dab57b9067", "is_reserved": 0, "is_disabled": 0}, {"lat": 38.873368666666664, "fusion_lat": 0.0, "type": "electric_scooter", "bike_id": "c522f390b9a706fe8899d093981fff82", "rental_uris": {"ios": "https://dc.lft.to/lastmile_qr_scan", "android": "https://dc.lft.to/lastmile_qr_scan"}, "fusion_lon": 0.0, "lon": -77.00056533333333, "name": "c522f390b9a706fe8899d093981fff82", "is_reserved": 0, "is_disabled": 0}, {"lat": 38.92652233333333, "fusion_lat": 0.0, "type": "electric_scooter", "bike_id": "b09bf87fcecfbfd04338693859933035", "rental_uris": {"ios": "https://dc.lft.to/lastmile_qr_scan", "android": "https://dc.lft.to/lastmile_qr_scan"}, "fusion_lon": 0.0, "lon": -77.03725666666666, "name": "b09bf87fcecfbfd04338693859933035", "is_reserved": 0, "is_disabled": 0}, {"lat": 38.899361166666665, "fusion_lat": 0.0, "type": "electric_scooter", "bike_id": "30fef48c5de9632f751d261c1d084287", "rental_uris": {"ios": "https://dc.lft.to/lastmile_qr_scan", "android": "https://dc.lft.to/lastmile_qr_scan"}, "fusion_lon": 0.0, "lon": -77.04025066666667, "name": "30fef48c5de9632f751d261c1d084287", "is_reserved": 0, "is_disabled": 0}, {"lat": 38.92516466666667, "fusion_lat": 0.0, "type": "electric_scooter", "bike_id": "cab97f70c4e65235b997d7222c4c36da", "rental_uris": {"ios": "https://dc.lft.to/lastmile_qr_scan", "android": "https://dc.lft.to/lastmile_qr_scan"}, "fusion_lon": 0.0, "lon": -76.996357, "name": "cab97f70c4e65235b997d7222c4c36da", "is_reserved": 0, "is_disabled": 0}, {"lat": 38.92590233333333, "fusion_lat": 0.0, "type": "electric_scooter", "bike_id": "35ba419afed3cc65492bec106d292f17", "rental_uris": {"ios": "https://dc.lft.to/lastmile_qr_scan", "android": "https://dc.lft.to/lastmile_qr_scan"}, "fusion_lon": 0.0, "lon": -77.09678416666667, "name": "35ba419afed3cc65492bec106d292f17", "is_reserved": 0, "is_disabled": 0}, {"lat": 38.95059233333333, "fusion_lat": 0.0, "type": "electric_scooter", "bike_id": "12912dbb5efeed32ec44c2b33be65441", "rental_uris": {"ios": "https://dc.lft.to/lastmile_qr_scan", "android": "https://dc.lft.to/lastmile_qr_scan"}, "fusion_lon": 0.0, "lon": -77.080283, "name": "12912dbb5efeed32ec44c2b33be65441", "is_reserved": 0, "is_disabled": 0}, {"lat": 38.9180215, "fusion_lat": 0.0, "type": "electric_scooter", "bike_id": "1e8571547c2c21d4ccbae228b5e44053", "rental_uris": {"ios": "https://dc.lft.to/lastmile_qr_scan", "android": "https://dc.lft.to/lastmile_qr_scan"}, "fusion_lon": 0.0, "lon": -77.02487766666667, "name": "1e8571547c2c21d4ccbae228b5e44053", "is_reserved": 0, "is_disabled": 0}, {"lat": 38.91420333333333, "fusion_lat": 0.0, "type": "electric_scooter", "bike_id": "0de7a1764705d0825b3b08de2fee3af6", "rental_uris": {"ios": "https://dc.lft.to/lastmile_qr_scan", "android": "https://dc.lft.to/lastmile_qr_scan"}, "fusion_lon": 0.0, "lon": -77.00879516666667, "name": "0de7a1764705d0825b3b08de2fee3af6", "is_reserved": 0, "is_disabled": 0}, {"lat": 38.91728833333333, "fusion_lat": 0.0, "type": "electric_scooter", "bike_id": "bff857e21caf77715ec3a706b615a494", "rental_uris": {"ios": "https://dc.lft.to/lastmile_qr_scan", "android": "https://dc.lft.to/lastmile_qr_scan"}, "fusion_lon": 0.0, "lon": -77.02566266666666, "name": "bff857e21caf77715ec3a706b615a494", "is_reserved": 0, "is_disabled": 0}, {"lat": 38.91526966666667, "fusion_lat": 0.0, "type": "electric_scooter", "bike_id": "516b21198fcf1a295212f113100a6497", "rental_uris": {"ios": "https://dc.lft.to/lastmile_qr_scan", "android": "https://dc.lft.to/lastmile_qr_scan"}, "fusion_lon": 0.0, "lon": -77.0486145, "name": "516b21198fcf1a295212f113100a6497", "is_reserved": 0, "is_disabled": 0}, {"lat": 38.90138116666667, "fusion_lat": 0.0, "type": "electric_scooter", "bike_id": "904359074de806917801bd59c1397f79", "rental_uris": {"ios": "https://dc.lft.to/lastmile_qr_scan", "android": "https://dc.lft.to/lastmile_qr_scan"}, "fusion_lon": 0.0, "lon": -77.03203016666667, "name": "904359074de806917801bd59c1397f79", "is_reserved": 0, "is_disabled": 0}, {"lat": 38.9176115, "fusion_lat": 0.0, "type": "electric_scooter", "bike_id": "e2b5d706ee3ed0d784c06e3d2a6bb759", "rental_uris": {"ios": "https://dc.lft.to/lastmile_qr_scan", "android": "https://dc.lft.to/lastmile_qr_scan"}, "fusion_lon": 0.0, "lon": -77.03637616666667, "name": "e2b5d706ee3ed0d784c06e3d2a6bb759", "is_reserved": 0, "is_disabled": 0}, {"lat": 38.93450633333333, "fusion_lat": 0.0, "type": "electric_scooter", "bike_id": "b14f4f01236d1bc7111bafded4eafd44", "rental_uris": {"ios": "https://dc.lft.to/lastmile_qr_scan", "android": "https://dc.lft.to/lastmile_qr_scan"}, "fusion_lon": 0.0, "lon": -77.09051833333334, "name": "b14f4f01236d1bc7111bafded4eafd44", "is_reserved": 0, "is_disabled": 0}, {"lat": 38.919581, "fusion_lat": 0.0, "type": "electric_scooter", "bike_id": "bd3bd67fb077c69744e77e33407da1e6", "rental_uris": {"ios": "https://dc.lft.to/lastmile_qr_scan", "android": "https://dc.lft.to/lastmile_qr_scan"}, "fusion_lon": 0.0, "lon": -77.01762716666667, "name": "bd3bd67fb077c69744e77e33407da1e6", "is_reserved": 0, "is_disabled": 0}, {"lat": 38.9118975, "fusion_lat": 0.0, "type": "electric_scooter", "bike_id": "bc8e0ca467d948688888ae10c9023b73", "rental_uris": {"ios": "https://dc.lft.to/lastmile_qr_scan", "android": "https://dc.lft.to/lastmile_qr_scan"}, "fusion_lon": 0.0, "lon": -77.035016, "name": "bc8e0ca467d948688888ae10c9023b73", "is_reserved": 0, "is_disabled": 0}, {"lat": 38.892250833333335, "fusion_lat": 0.0, "type": "electric_scooter", "bike_id": "9d436a2c19324e2392402b401ec11224", "rental_uris": {"ios": "https://dc.lft.to/lastmile_qr_scan", "android": "https://dc.lft.to/lastmile_qr_scan"}, "fusion_lon": 0.0, "lon": -77.0277655, "name": "9d436a2c19324e2392402b401ec11224", "is_reserved": 0, "is_disabled": 0}, {"lat": 38.875746, "fusion_lat": 0.0, "type": "electric_bike", "bike_id": "da6f61df752c594041300b9e05445538", "rental_uris": {"ios": "https://dc.lft.to/lastmile_qr_scan", "android": "https://dc.lft.to/lastmile_qr_scan"}, "fusion_lon": 0.0, "lon": -77.23407316666666, "name": "da6f61df752c594041300b9e05445538", "is_reserved": 0, "is_disabled": 0}, {"lat": 38.9106175, "fusion_lat": 0.0, "type": "electric_scooter", "bike_id": "351e25b7b9f0c241cc1e13e82f149a32", "rental_uris": {"ios": "https://dc.lft.to/lastmile_qr_scan", "android": "https://dc.lft.to/lastmile_qr_scan"}, "fusion_lon": 0.0, "lon": -77.03426016666667, "name": "351e25b7b9f0c241cc1e13e82f149a32", "is_reserved": 0, "is_disabled": 0}, {"lat": 38.8992025, "fusion_lat": 0.0, "type": "electric_scooter", "bike_id": "aece2c27dce1f4ab96ad087d48c69933", "rental_uris": {"ios": "https://dc.lft.to/lastmile_qr_scan", "android": "https://dc.lft.to/lastmile_qr_scan"}, "fusion_lon": 0.0, "lon": -77.04146966666667, "name": "aece2c27dce1f4ab96ad087d48c69933", "is_reserved": 0, "is_disabled": 0}, {"lat": 38.896863, "fusion_lat": 0.0, "type": "electric_scooter", "bike_id": "f395cd20397061c64c910fac3a86f7be", "rental_uris": {"ios": "https://dc.lft.to/lastmile_qr_scan", "android": "https://dc.lft.to/lastmile_qr_scan"}, "fusion_lon": 0.0, "lon": -76.93710516666667, "name": "f395cd20397061c64c910fac3a86f7be", "is_reserved": 0, "is_disabled": 0}, {"lat": 38.905375666666664, "fusion_lat": 0.0, "type": "electric_scooter", "bike_id": "87fce793fc42ae1d50b49c8b1823f80a", "rental_uris": {"ios": "https://dc.lft.to/lastmile_qr_scan", "android": "https://dc.lft.to/lastmile_qr_scan"}, "fusion_lon": 0.0, "lon": -77.02975316666667, "name": "87fce793fc42ae1d50b49c8b1823f80a", "is_reserved": 0, "is_disabled": 0}, {"lat": 38.9126875, "fusion_lat": 0.0, "type": "electric_scooter", "bike_id": "ddd454f7f54a88ce1637cb0eec50ecad", "rental_uris": {"ios": "https://dc.lft.to/lastmile_qr_scan", "android": "https://dc.lft.to/lastmile_qr_scan"}, "fusion_lon": 0.0, "lon": -77.04702583333334, "name": "ddd454f7f54a88ce1637cb0eec50ecad", "is_reserved": 0, "is_disabled": 0}, {"lat": 38.899055, "fusion_lat": 0.0, "type": "electric_scooter", "bike_id": "75fa3ac6ab5c6f823a0e95df045bc7ce", "rental_uris": {"ios": "https://dc.lft.to/lastmile_qr_scan", "android": "https://dc.lft.to/lastmile_qr_scan"}, "fusion_lon": 0.0, "lon": -76.99957066666667, "name": "75fa3ac6ab5c6f823a0e95df045bc7ce", "is_reserved": 0, "is_disabled": 0}, {"lat": 38.918039, "fusion_lat": 0.0, "type": "electric_scooter", "bike_id": "ac468b5dd13a62419659d3dc5e66fe68", "rental_uris": {"ios": "https://dc.lft.to/lastmile_qr_scan", "android": "https://dc.lft.to/lastmile_qr_scan"}, "fusion_lon": 0.0, "lon": -77.03440083333334, "name": "ac468b5dd13a62419659d3dc5e66fe68", "is_reserved": 0, "is_disabled": 0}, {"lat": 38.8064445, "fusion_lat": 0.0, "type": "electric_bike", "bike_id": "60d727910b2a27501f96d0b802e0aa4d", "rental_uris": {"ios": "https://dc.lft.to/lastmile_qr_scan", "android": "https://dc.lft.to/lastmile_qr_scan"}, "fusion_lon": 0.0, "lon": -77.06247766666667, "name": "60d727910b2a27501f96d0b802e0aa4d", "is_reserved": 0, "is_disabled": 0}, {"lat": 38.91007916666667, "fusion_lat": 0.0, "type": "electric_scooter", "bike_id": "360e8042cdb5359579744485508bc980", "rental_uris": {"ios": "https://dc.lft.to/lastmile_qr_scan", "android": "https://dc.lft.to/lastmile_qr_scan"}, "fusion_lon": 0.0, "lon": -77.02091, "name": "360e8042cdb5359579744485508bc980", "is_reserved": 0, "is_disabled": 0}, {"lat": 38.88746366666667, "fusion_lat": 0.0, "type": "electric_scooter", "bike_id": "6884a86639763e82a3a301f73b48a98d", "rental_uris": {"ios": "https://dc.lft.to/lastmile_qr_scan", "android": "https://dc.lft.to/lastmile_qr_scan"}, "fusion_lon": 0.0, "lon": -77.01775533333333, "name": "6884a86639763e82a3a301f73b48a98d", "is_reserved": 0, "is_disabled": 0}, {"lat": 38.91679166666667, "fusion_lat": 0.0, "type": "electric_scooter", "bike_id": "d16a2c0319c099a95d289bb6168b8893", "rental_uris": {"ios": "https://dc.lft.to/lastmile_qr_scan", "android": "https://dc.lft.to/lastmile_qr_scan"}, "fusion_lon": 0.0, "lon": -77.02302316666666, "name": "d16a2c0319c099a95d289bb6168b8893", "is_reserved": 0, "is_disabled": 0}, {"lat": 38.90028816666667, "fusion_lat": 0.0, "type": "electric_scooter", "bike_id": "58e3c1fb480f13fd7e4d45468a2a4fd2", "rental_uris": {"ios": "https://dc.lft.to/lastmile_qr_scan", "android": "https://dc.lft.to/lastmile_qr_scan"}, "fusion_lon": 0.0, "lon": -77.01762466666666, "name": "58e3c1fb480f13fd7e4d45468a2a4fd2", "is_reserved": 0, "is_disabled": 0}, {"lat": 38.835175666666665, "fusion_lat": 0.0, "type": "electric_bike", "bike_id": "a027dc93475d1195a1c87455cd4326dd", "rental_uris": {"ios": "https://dc.lft.to/lastmile_qr_scan", "android": "https://dc.lft.to/lastmile_qr_scan"}, "fusion_lon": 0.0, "lon": -76.98669916666667, "name": "a027dc93475d1195a1c87455cd4326dd", "is_reserved": 0, "is_disabled": 0}, {"lat": 38.90040833333333, "fusion_lat": 0.0, "type": "electric_scooter", "bike_id": "de02346b20050bb094682a26a9c696cc", "rental_uris": {"ios": "https://dc.lft.to/lastmile_qr_scan", "android": "https://dc.lft.to/lastmile_qr_scan"}, "fusion_lon": 0.0, "lon": -77.02394916666667, "name": "de02346b20050bb094682a26a9c696cc", "is_reserved": 0, "is_disabled": 0}, {"lat": 38.920696166666666, "fusion_lat": 0.0, "type": "electric_scooter", "bike_id": "91439fef810f90d2314bdc4af6258703", "rental_uris": {"ios": "https://dc.lft.to/lastmile_qr_scan", "android": "https://dc.lft.to/lastmile_qr_scan"}, "fusion_lon": 0.0, "lon": -77.02318433333333, "name": "91439fef810f90d2314bdc4af6258703", "is_reserved": 0, "is_disabled": 0}, {"lat": 38.924686666666666, "fusion_lat": 0.0, "type": "electric_scooter", "bike_id": "7b81422df15b7c0f82b513f45f310c90", "rental_uris": {"ios": "https://dc.lft.to/lastmile_qr_scan", "android": "https://dc.lft.to/lastmile_qr_scan"}, "fusion_lon": 0.0, "lon": -77.02244133333333, "name": "7b81422df15b7c0f82b513f45f310c90", "is_reserved": 0, "is_disabled": 0}, {"lat": 38.916917833333336, "fusion_lat": 0.0, "type": "electric_scooter", "bike_id": "06aac8e815e30c079f718017b82e0abf", "rental_uris": {"ios": "https://dc.lft.to/lastmile_qr_scan", "android": "https://dc.lft.to/lastmile_qr_scan"}, "fusion_lon": 0.0, "lon": -77.00921383333333, "name": "06aac8e815e30c079f718017b82e0abf", "is_reserved": 0, "is_disabled": 0}, {"lat": 38.90082916666667, "fusion_lat": 0.0, "type": "electric_scooter", "bike_id": "8fbd3618d0ff594cb637697b6243cd55", "rental_uris": {"ios": "https://dc.lft.to/lastmile_qr_scan", "android": "https://dc.lft.to/lastmile_qr_scan"}, "fusion_lon": 0.0, "lon": -77.047857, "name": "8fbd3618d0ff594cb637697b6243cd55", "is_reserved": 0, "is_disabled": 0}, {"lat": 38.8899575, "fusion_lat": 0.0, "type": "electric_scooter", "bike_id": "38431dd5768416f86d2c2ef121fb657b", "rental_uris": {"ios": "https://dc.lft.to/lastmile_qr_scan", "android": "https://dc.lft.to/lastmile_qr_scan"}, "fusion_lon": 0.0, "lon": -76.9543185, "name": "38431dd5768416f86d2c2ef121fb657b", "is_reserved": 0, "is_disabled": 0}, {"lat": 38.93263966666667, "fusion_lat": 0.0, "type": "electric_scooter", "bike_id": "ba385791525ac84d1079884e268b0087", "rental_uris": {"ios": "https://dc.lft.to/lastmile_qr_scan", "android": "https://dc.lft.to/lastmile_qr_scan"}, "fusion_lon": 0.0, "lon": -77.02086683333333, "name": "ba385791525ac84d1079884e268b0087", "is_reserved": 0, "is_disabled": 0}, {"lat": 38.909477, "fusion_lat": 0.0, "type": "electric_scooter", "bike_id": "135296018a6cb588ee6419014bfbe8f1", "rental_uris": {"ios": "https://dc.lft.to/lastmile_qr_scan", "android": "https://dc.lft.to/lastmile_qr_scan"}, "fusion_lon": 0.0, "lon": -77.0342285, "name": "135296018a6cb588ee6419014bfbe8f1", "is_reserved": 0, "is_disabled": 0}, {"lat": 38.9072395, "fusion_lat": 0.0, "type": "electric_scooter", "bike_id": "2fcd74aac31a9a671c8cc2732447377b", "rental_uris": {"ios": "https://dc.lft.to/lastmile_qr_scan", "android": "https://dc.lft.to/lastmile_qr_scan"}, "fusion_lon": 0.0, "lon": -77.0432175, "name": "2fcd74aac31a9a671c8cc2732447377b", "is_reserved": 0, "is_disabled": 0}, {"lat": 38.946498166666665, "fusion_lat": 0.0, "type": "electric_scooter", "bike_id": "60d98a9d22f5ba53d0d08ab4ab3bcca6", "rental_uris": {"ios": "https://dc.lft.to/lastmile_qr_scan", "android": "https://dc.lft.to/lastmile_qr_scan"}, "fusion_lon": 0.0, "lon": -77.02962716666667, "name": "60d98a9d22f5ba53d0d08ab4ab3bcca6", "is_reserved": 0, "is_disabled": 0}, {"lat": 38.92757, "fusion_lat": 0.0, "type": "electric_scooter", "bike_id": "4709fbe1ffd14f84dd18d1d413913a7d", "rental_uris": {"ios": "https://dc.lft.to/lastmile_qr_scan", "android": "https://dc.lft.to/lastmile_qr_scan"}, "fusion_lon": 0.0, "lon": -77.03345166666666, "name": "4709fbe1ffd14f84dd18d1d413913a7d", "is_reserved": 0, "is_disabled": 0}, {"lat": 38.92445683333333, "fusion_lat": 0.0, "type": "electric_scooter", "bike_id": "974dd7ce09a071f84e865b972fa3f8dd", "rental_uris": {"ios": "https://dc.lft.to/lastmile_qr_scan", "android": "https://dc.lft.to/lastmile_qr_scan"}, "fusion_lon": 0.0, "lon": -77.02030316666666, "name": "974dd7ce09a071f84e865b972fa3f8dd", "is_reserved": 0, "is_disabled": 0}, {"lat": 38.918183, "fusion_lat": 0.0, "type": "electric_scooter", "bike_id": "54339afa0bce1578c56e281a31dcc03d", "rental_uris": {"ios": "https://dc.lft.to/lastmile_qr_scan", "android": "https://dc.lft.to/lastmile_qr_scan"}, "fusion_lon": 0.0, "lon": -77.03557166666667, "name": "54339afa0bce1578c56e281a31dcc03d", "is_reserved": 0, "is_disabled": 0}, {"lat": 38.916876, "fusion_lat": 0.0, "type": "electric_scooter", "bike_id": "e17b4f104947a56ca3ecbeb3f1a68ad2", "rental_uris": {"ios": "https://dc.lft.to/lastmile_qr_scan", "android": "https://dc.lft.to/lastmile_qr_scan"}, "fusion_lon": 0.0, "lon": -77.02952016666667, "name": "e17b4f104947a56ca3ecbeb3f1a68ad2", "is_reserved": 0, "is_disabled": 0}, {"lat": 38.89236016666667, "fusion_lat": 0.0, "type": "electric_scooter", "bike_id": "efa0e8b708b81428a54dd2b5b726424a", "rental_uris": {"ios": "https://dc.lft.to/lastmile_qr_scan", "android": "https://dc.lft.to/lastmile_qr_scan"}, "fusion_lon": 0.0, "lon": -77.04872533333334, "name": "efa0e8b708b81428a54dd2b5b726424a", "is_reserved": 0, "is_disabled": 0}, {"lat": 38.923707666666665, "fusion_lat": 0.0, "type": "electric_scooter", "bike_id": "6ef021f2060f5b91d960ed5837365098", "rental_uris": {"ios": "https://dc.lft.to/lastmile_qr_scan", "android": "https://dc.lft.to/lastmile_qr_scan"}, "fusion_lon": 0.0, "lon": -77.02915883333333, "name": "6ef021f2060f5b91d960ed5837365098", "is_reserved": 0, "is_disabled": 0}, {"lat": 38.9270525, "fusion_lat": 0.0, "type": "electric_scooter", "bike_id": "b25a597cca149ee81febfd3fc457881c", "rental_uris": {"ios": "https://dc.lft.to/lastmile_qr_scan", "android": "https://dc.lft.to/lastmile_qr_scan"}, "fusion_lon": 0.0, "lon": -76.99762866666667, "name": "b25a597cca149ee81febfd3fc457881c", "is_reserved": 0, "is_disabled": 0}, {"lat": 38.9086685, "fusion_lat": 0.0, "type": "electric_scooter", "bike_id": "a0b9902989f233c6ae3e3fb5b7e7192c", "rental_uris": {"ios": "https://dc.lft.to/lastmile_qr_scan", "android": "https://dc.lft.to/lastmile_qr_scan"}, "fusion_lon": 0.0, "lon": -77.04018766666667, "name": "a0b9902989f233c6ae3e3fb5b7e7192c", "is_reserved": 0, "is_disabled": 0}, {"lat": 38.87375083333333, "fusion_lat": 0.0, "type": "electric_scooter", "bike_id": "59fb9a1454e0f71505ff7fa514db132e", "rental_uris": {"ios": "https://dc.lft.to/lastmile_qr_scan", "android": "https://dc.lft.to/lastmile_qr_scan"}, "fusion_lon": 0.0, "lon": -77.00162166666667, "name": "59fb9a1454e0f71505ff7fa514db132e", "is_reserved": 0, "is_disabled": 0}, {"lat": 38.89833433333333, "fusion_lat": 0.0, "type": "electric_scooter", "bike_id": "621deaba627144c345c16b3d204443fb", "rental_uris": {"ios": "https://dc.lft.to/lastmile_qr_scan", "android": "https://dc.lft.to/lastmile_qr_scan"}, "fusion_lon": 0.0, "lon": -77.0316755, "name": "621deaba627144c345c16b3d204443fb", "is_reserved": 0, "is_disabled": 0}, {"lat": 38.90634383333333, "fusion_lat": 0.0, "type": "electric_scooter", "bike_id": "e7c420319e71f34a301fc2fe76874d25", "rental_uris": {"ios": "https://dc.lft.to/lastmile_qr_scan", "android": "https://dc.lft.to/lastmile_qr_scan"}, "fusion_lon": 0.0, "lon": -77.03888616666667, "name": "e7c420319e71f34a301fc2fe76874d25", "is_reserved": 0, "is_disabled": 0}, {"lat": 38.8813415, "fusion_lat": 0.0, "type": "electric_bike", "bike_id": "1e3ec4a3505ca99a933b3487f4c1d2e8", "rental_uris": {"ios": "https://dc.lft.to/lastmile_qr_scan", "android": "https://dc.lft.to/lastmile_qr_scan"}, "fusion_lon": 0.0, "lon": -76.9954785, "name": "1e3ec4a3505ca99a933b3487f4c1d2e8", "is_reserved": 0, "is_disabled": 0}, {"lat": 38.875458, "fusion_lat": 0.0, "type": "electric_scooter", "bike_id": "287574baef847fe24d51db48555f1779", "rental_uris": {"ios": "https://dc.lft.to/lastmile_qr_scan", "android": "https://dc.lft.to/lastmile_qr_scan"}, "fusion_lon": 0.0, "lon": -77.005374, "name": "287574baef847fe24d51db48555f1779", "is_reserved": 0, "is_disabled": 0}, {"lat": 38.9342915, "fusion_lat": 0.0, "type": "electric_scooter", "bike_id": "ed5a5661ec5da21d26bef385c3536b0b", "rental_uris": {"ios": "https://dc.lft.to/lastmile_qr_scan", "android": "https://dc.lft.to/lastmile_qr_scan"}, "fusion_lon": 0.0, "lon": -77.03999966666667, "name": "ed5a5661ec5da21d26bef385c3536b0b", "is_reserved": 0, "is_disabled": 0}, {"lat": 38.909468, "fusion_lat": 0.0, "type": "electric_scooter", "bike_id": "832108bf3bafab3e01d659ac91d5edbc", "rental_uris": {"ios": "https://dc.lft.to/lastmile_qr_scan", "android": "https://dc.lft.to/lastmile_qr_scan"}, "fusion_lon": 0.0, "lon": -77.023064, "name": "832108bf3bafab3e01d659ac91d5edbc", "is_reserved": 0, "is_disabled": 0}, {"lat": 38.928594333333336, "fusion_lat": 0.0, "type": "electric_scooter", "bike_id": "eac1e62b31d4f5e728463c5a3398b494", "rental_uris": {"ios": "https://dc.lft.to/lastmile_qr_scan", "android": "https://dc.lft.to/lastmile_qr_scan"}, "fusion_lon": 0.0, "lon": -77.03254616666666, "name": "eac1e62b31d4f5e728463c5a3398b494", "is_reserved": 0, "is_disabled": 0}, {"lat": 38.989924333333335, "fusion_lat": 0.0, "type": "electric_bike", "bike_id": "b8ea10460080085be457500177ae4526", "rental_uris": {"ios": "https://dc.lft.to/lastmile_qr_scan", "android": "https://dc.lft.to/lastmile_qr_scan"}, "fusion_lon": 0.0, "lon": -77.0964005, "name": "b8ea10460080085be457500177ae4526", "is_reserved": 0, "is_disabled": 0}, {"lat": 38.9050735, "fusion_lat": 0.0, "type": "electric_scooter", "bike_id": "634146a076d058773dec6b19c5498446", "rental_uris": {"ios": "https://dc.lft.to/lastmile_qr_scan", "android": "https://dc.lft.to/lastmile_qr_scan"}, "fusion_lon": 0.0, "lon": -77.06019366666666, "name": "634146a076d058773dec6b19c5498446", "is_reserved": 0, "is_disabled": 0}, {"lat": 38.883341333333334, "fusion_lat": 0.0, "type": "electric_scooter", "bike_id": "27574b70ab6c3fdd97a512287e56ab2f", "rental_uris": {"ios": "https://dc.lft.to/lastmile_qr_scan", "android": "https://dc.lft.to/lastmile_qr_scan"}, "fusion_lon": 0.0, "lon": -77.01141966666667, "name": "27574b70ab6c3fdd97a512287e56ab2f", "is_reserved": 0, "is_disabled": 0}, {"lat": 38.925021666666666, "fusion_lat": 0.0, "type": "electric_scooter", "bike_id": "1f318f852459fa485588fe2cb91310ee", "rental_uris": {"ios": "https://dc.lft.to/lastmile_qr_scan", "android": "https://dc.lft.to/lastmile_qr_scan"}, "fusion_lon": 0.0, "lon": -77.03905216666666, "name": "1f318f852459fa485588fe2cb91310ee", "is_reserved": 0, "is_disabled": 0}, {"lat": 38.899511, "fusion_lat": 0.0, "type": "electric_scooter", "bike_id": "ac3c9a721451de22038acd3defe99987", "rental_uris": {"ios": "https://dc.lft.to/lastmile_qr_scan", "android": "https://dc.lft.to/lastmile_qr_scan"}, "fusion_lon": 0.0, "lon": -77.020075, "name": "ac3c9a721451de22038acd3defe99987", "is_reserved": 0, "is_disabled": 0}, {"lat": 38.89567183333333, "fusion_lat": 0.0, "type": "electric_bike", "bike_id": "12731d1037731bd0060a40f8e57f14e4", "rental_uris": {"ios": "https://dc.lft.to/lastmile_qr_scan", "android": "https://dc.lft.to/lastmile_qr_scan"}, "fusion_lon": 0.0, "lon": -77.12737883333334, "name": "12731d1037731bd0060a40f8e57f14e4", "is_reserved": 0, "is_disabled": 0}, {"lat": 39.01416116666667, "fusion_lat": 0.0, "type": "electric_bike", "bike_id": "b2bf1efb02e586d1c8e349ae015beea6", "rental_uris": {"ios": "https://dc.lft.to/lastmile_qr_scan", "android": "https://dc.lft.to/lastmile_qr_scan"}, "fusion_lon": 0.0, "lon": -77.0449785, "name": "b2bf1efb02e586d1c8e349ae015beea6", "is_reserved": 0, "is_disabled": 0}, {"lat": 38.91408883333333, "fusion_lat": 0.0, "type": "electric_scooter", "bike_id": "bb0d528621890d65712ee9b05c342735", "rental_uris": {"ios": "https://dc.lft.to/lastmile_qr_scan", "android": "https://dc.lft.to/lastmile_qr_scan"}, "fusion_lon": 0.0, "lon": -77.0283305, "name": "bb0d528621890d65712ee9b05c342735", "is_reserved": 0, "is_disabled": 0}, {"lat": 38.91060516666667, "fusion_lat": 0.0, "type": "electric_scooter", "bike_id": "a836c303d4261cdc0e8e1d3bc3d46671", "rental_uris": {"ios": "https://dc.lft.to/lastmile_qr_scan", "android": "https://dc.lft.to/lastmile_qr_scan"}, "fusion_lon": 0.0, "lon": -77.0528445, "name": "a836c303d4261cdc0e8e1d3bc3d46671", "is_reserved": 0, "is_disabled": 0}, {"lat": 38.915586833333336, "fusion_lat": 0.0, "type": "electric_scooter", "bike_id": "005f78d47722d5e4575cc5d150351a0b", "rental_uris": {"ios": "https://dc.lft.to/lastmile_qr_scan", "android": "https://dc.lft.to/lastmile_qr_scan"}, "fusion_lon": 0.0, "lon": -77.01013433333334, "name": "005f78d47722d5e4575cc5d150351a0b", "is_reserved": 0, "is_disabled": 0}, {"lat": 38.898882666666665, "fusion_lat": 0.0, "type": "electric_scooter", "bike_id": "2b72ed4bd2531b5dcf50668e35a5ce89", "rental_uris": {"ios": "https://dc.lft.to/lastmile_qr_scan", "android": "https://dc.lft.to/lastmile_qr_scan"}, "fusion_lon": 0.0, "lon": -76.93174633333334, "name": "2b72ed4bd2531b5dcf50668e35a5ce89", "is_reserved": 0, "is_disabled": 0}, {"lat": 38.944533, "fusion_lat": 0.0, "type": "electric_scooter", "bike_id": "3a47285bb269cdefb61a8a21a95e0779", "rental_uris": {"ios": "https://dc.lft.to/lastmile_qr_scan", "android": "https://dc.lft.to/lastmile_qr_scan"}, "fusion_lon": 0.0, "lon": -77.02801883333333, "name": "3a47285bb269cdefb61a8a21a95e0779", "is_reserved": 0, "is_disabled": 0}, {"lat": 38.916188166666664, "fusion_lat": 0.0, "type": "electric_scooter", "bike_id": "e578f8416aac647a0f0477cec302ac4d", "rental_uris": {"ios": "https://dc.lft.to/lastmile_qr_scan", "android": "https://dc.lft.to/lastmile_qr_scan"}, "fusion_lon": 0.0, "lon": -77.03166966666667, "name": "e578f8416aac647a0f0477cec302ac4d", "is_reserved": 0, "is_disabled": 0}, {"lat": 38.93282416666667, "fusion_lat": 0.0, "type": "electric_scooter", "bike_id": "540f296c70a7c49ad3f03fe5e62f9ff5", "rental_uris": {"ios": "https://dc.lft.to/lastmile_qr_scan", "android": "https://dc.lft.to/lastmile_qr_scan"}, "fusion_lon": 0.0, "lon": -76.98434816666666, "name": "540f296c70a7c49ad3f03fe5e62f9ff5", "is_reserved": 0, "is_disabled": 0}, {"lat": 38.90285266666667, "fusion_lat": 0.0, "type": "electric_scooter", "bike_id": "21ca036097819b759684b444b3e9a2ca", "rental_uris": {"ios": "https://dc.lft.to/lastmile_qr_scan", "android": "https://dc.lft.to/lastmile_qr_scan"}, "fusion_lon": 0.0, "lon": -77.03462633333334, "name": "21ca036097819b759684b444b3e9a2ca", "is_reserved": 0, "is_disabled": 0}, {"lat": 38.898054333333334, "fusion_lat": 0.0, "type": "electric_scooter", "bike_id": "7a63e4e8aa26abbc37835943f4367885", "rental_uris": {"ios": "https://dc.lft.to/lastmile_qr_scan", "android": "https://dc.lft.to/lastmile_qr_scan"}, "fusion_lon": 0.0, "lon": -77.02200666666667, "name": "7a63e4e8aa26abbc37835943f4367885", "is_reserved": 0, "is_disabled": 0}, {"lat": 38.904589, "fusion_lat": 0.0, "type": "electric_scooter", "bike_id": "80eaff97739037e4ce234373e0fd4387", "rental_uris": {"ios": "https://dc.lft.to/lastmile_qr_scan", "android": "https://dc.lft.to/lastmile_qr_scan"}, "fusion_lon": 0.0, "lon": -76.98237183333333, "name": "80eaff97739037e4ce234373e0fd4387", "is_reserved": 0, "is_disabled": 0}, {"lat": 38.92764916666667, "fusion_lat": 0.0, "type": "electric_scooter", "bike_id": "ed56044d051b4084b448ed9a44c05404", "rental_uris": {"ios": "https://dc.lft.to/lastmile_qr_scan", "android": "https://dc.lft.to/lastmile_qr_scan"}, "fusion_lon": 0.0, "lon": -77.05264, "name": "ed56044d051b4084b448ed9a44c05404", "is_reserved": 0, "is_disabled": 0}, {"lat": 38.9308435, "fusion_lat": 0.0, "type": "electric_scooter", "bike_id": "9cc51a8330160b0678a4ddb52453e7d2", "rental_uris": {"ios": "https://dc.lft.to/lastmile_qr_scan", "android": "https://dc.lft.to/lastmile_qr_scan"}, "fusion_lon": 0.0, "lon": -76.99616983333334, "name": "9cc51a8330160b0678a4ddb52453e7d2", "is_reserved": 0, "is_disabled": 0}, {"lat": 38.9199345, "fusion_lat": 0.0, "type": "electric_scooter", "bike_id": "587c0e20c2a190f2aa28235920d4ac54", "rental_uris": {"ios": "https://dc.lft.to/lastmile_qr_scan", "android": "https://dc.lft.to/lastmile_qr_scan"}, "fusion_lon": 0.0, "lon": -77.02370316666666, "name": "587c0e20c2a190f2aa28235920d4ac54", "is_reserved": 0, "is_disabled": 0}, {"lat": 38.9001905, "fusion_lat": 0.0, "type": "electric_scooter", "bike_id": "5dac4dbe883fb856cab7e62894256898", "rental_uris": {"ios": "https://dc.lft.to/lastmile_qr_scan", "android": "https://dc.lft.to/lastmile_qr_scan"}, "fusion_lon": 0.0, "lon": -77.03929983333333, "name": "5dac4dbe883fb856cab7e62894256898", "is_reserved": 0, "is_disabled": 0}, {"lat": 38.921411166666665, "fusion_lat": 0.0, "type": "electric_scooter", "bike_id": "22362faecc0de272db60b526ea5e3b3f", "rental_uris": {"ios": "https://dc.lft.to/lastmile_qr_scan", "android": "https://dc.lft.to/lastmile_qr_scan"}, "fusion_lon": 0.0, "lon": -77.0183225, "name": "22362faecc0de272db60b526ea5e3b3f", "is_reserved": 0, "is_disabled": 0}, {"lat": 38.90137716666667, "fusion_lat": 0.0, "type": "electric_scooter", "bike_id": "ed0d800f241b5085480dab8ab61ce3c1", "rental_uris": {"ios": "https://dc.lft.to/lastmile_qr_scan", "android": "https://dc.lft.to/lastmile_qr_scan"}, "fusion_lon": 0.0, "lon": -77.0134825, "name": "ed0d800f241b5085480dab8ab61ce3c1", "is_reserved": 0, "is_disabled": 0}, {"lat": 38.9075935, "fusion_lat": 0.0, "type": "electric_scooter", "bike_id": "d28ea0c66842716a10179d0bbc09378b", "rental_uris": {"ios": "https://dc.lft.to/lastmile_qr_scan", "android": "https://dc.lft.to/lastmile_qr_scan"}, "fusion_lon": 0.0, "lon": -77.03741283333333, "name": "d28ea0c66842716a10179d0bbc09378b", "is_reserved": 0, "is_disabled": 0}, {"lat": 38.961466, "fusion_lat": 0.0, "type": "electric_scooter", "bike_id": "35817e1700ac26faff7311605ff99c18", "rental_uris": {"ios": "https://dc.lft.to/lastmile_qr_scan", "android": "https://dc.lft.to/lastmile_qr_scan"}, "fusion_lon": 0.0, "lon": -77.02779966666667, "name": "35817e1700ac26faff7311605ff99c18", "is_reserved": 0, "is_disabled": 0}, {"lat": 38.91786183333333, "fusion_lat": 0.0, "type": "electric_scooter", "bike_id": "42b45ad4acfadbe5b1cd79926ec5e0e7", "rental_uris": {"ios": "https://dc.lft.to/lastmile_qr_scan", "android": "https://dc.lft.to/lastmile_qr_scan"}, "fusion_lon": 0.0, "lon": -77.040724, "name": "42b45ad4acfadbe5b1cd79926ec5e0e7", "is_reserved": 0, "is_disabled": 0}, {"lat": 38.8714865, "fusion_lat": 0.0, "type": "electric_scooter", "bike_id": "c1dc0ed63cd1e2f2c88450cd788c1999", "rental_uris": {"ios": "https://dc.lft.to/lastmile_qr_scan", "android": "https://dc.lft.to/lastmile_qr_scan"}, "fusion_lon": 0.0, "lon": -77.006791, "name": "c1dc0ed63cd1e2f2c88450cd788c1999", "is_reserved": 0, "is_disabled": 0}, {"lat": 38.907784166666666, "fusion_lat": 0.0, "type": "electric_scooter", "bike_id": "540383fa2f26f47d0016b92e81a1715c", "rental_uris": {"ios": "https://dc.lft.to/lastmile_qr_scan", "android": "https://dc.lft.to/lastmile_qr_scan"}, "fusion_lon": 0.0, "lon": -77.004036, "name": "540383fa2f26f47d0016b92e81a1715c", "is_reserved": 0, "is_disabled": 0}, {"lat": 38.812578333333335, "fusion_lat": 0.0, "type": "electric_bike", "bike_id": "8b85e341761f9a53e128d806e51875ce", "rental_uris": {"ios": "https://dc.lft.to/lastmile_qr_scan", "android": "https://dc.lft.to/lastmile_qr_scan"}, "fusion_lon": 0.0, "lon": -77.11776083333334, "name": "8b85e341761f9a53e128d806e51875ce", "is_reserved": 0, "is_disabled": 0}, {"lat": 38.92853266666667, "fusion_lat": 0.0, "type": "electric_scooter", "bike_id": "abad67e449dbf225525210bea157c95d", "rental_uris": {"ios": "https://dc.lft.to/lastmile_qr_scan", "android": "https://dc.lft.to/lastmile_qr_scan"}, "fusion_lon": 0.0, "lon": -77.03303283333334, "name": "abad67e449dbf225525210bea157c95d", "is_reserved": 0, "is_disabled": 0}, {"lat": 38.919511166666666, "fusion_lat": 0.0, "type": "electric_scooter", "bike_id": "0f73a0600bb2d99e50c8f60a0b668959", "rental_uris": {"ios": "https://dc.lft.to/lastmile_qr_scan", "android": "https://dc.lft.to/lastmile_qr_scan"}, "fusion_lon": 0.0, "lon": -77.01895933333333, "name": "0f73a0600bb2d99e50c8f60a0b668959", "is_reserved": 0, "is_disabled": 0}, {"lat": 38.90381516666667, "fusion_lat": 0.0, "type": "electric_scooter", "bike_id": "ebc626d1450d4a340b4049d2ce2da97d", "rental_uris": {"ios": "https://dc.lft.to/lastmile_qr_scan", "android": "https://dc.lft.to/lastmile_qr_scan"}, "fusion_lon": 0.0, "lon": -77.05068283333334, "name": "ebc626d1450d4a340b4049d2ce2da97d", "is_reserved": 0, "is_disabled": 0}, {"lat": 38.89805066666667, "fusion_lat": 0.0, "type": "electric_scooter", "bike_id": "23855a984df1b39d47a7b2ca924112dd", "rental_uris": {"ios": "https://dc.lft.to/lastmile_qr_scan", "android": "https://dc.lft.to/lastmile_qr_scan"}, "fusion_lon": 0.0, "lon": -77.0109705, "name": "23855a984df1b39d47a7b2ca924112dd", "is_reserved": 0, "is_disabled": 0}, {"lat": 38.942957, "fusion_lat": 0.0, "type": "electric_scooter", "bike_id": "a5b7fd6082b9acf390c15d61b6123fb9", "rental_uris": {"ios": "https://dc.lft.to/lastmile_qr_scan", "android": "https://dc.lft.to/lastmile_qr_scan"}, "fusion_lon": 0.0, "lon": -77.02164733333333, "name": "a5b7fd6082b9acf390c15d61b6123fb9", "is_reserved": 0, "is_disabled": 0}, {"lat": 38.93882983333334, "fusion_lat": 0.0, "type": "electric_scooter", "bike_id": "852e22e0d172597a41d07777f8dcbaf6", "rental_uris": {"ios": "https://dc.lft.to/lastmile_qr_scan", "android": "https://dc.lft.to/lastmile_qr_scan"}, "fusion_lon": 0.0, "lon": -77.02482216666667, "name": "852e22e0d172597a41d07777f8dcbaf6", "is_reserved": 0, "is_disabled": 0}, {"lat": 38.884347, "fusion_lat": 0.0, "type": "electric_scooter", "bike_id": "83ac5d6ba8fc02874bb50d6e567731c6", "rental_uris": {"ios": "https://dc.lft.to/lastmile_qr_scan", "android": "https://dc.lft.to/lastmile_qr_scan"}, "fusion_lon": 0.0, "lon": -76.957538, "name": "83ac5d6ba8fc02874bb50d6e567731c6", "is_reserved": 0, "is_disabled": 0}, {"lat": 38.887303833333334, "fusion_lat": 0.0, "type": "electric_scooter", "bike_id": "ae49e6dea5d39e4f10cbd76336232e09", "rental_uris": {"ios": "https://dc.lft.to/lastmile_qr_scan", "android": "https://dc.lft.to/lastmile_qr_scan"}, "fusion_lon": 0.0, "lon": -76.98355933333333, "name": "ae49e6dea5d39e4f10cbd76336232e09", "is_reserved": 0, "is_disabled": 0}, {"lat": 38.91905333333333, "fusion_lat": 0.0, "type": "electric_scooter", "bike_id": "23a69ff4c60d6c6c5e65f44019eb86ac", "rental_uris": {"ios": "https://dc.lft.to/lastmile_qr_scan", "android": "https://dc.lft.to/lastmile_qr_scan"}, "fusion_lon": 0.0, "lon": -77.02047166666667, "name": "23a69ff4c60d6c6c5e65f44019eb86ac", "is_reserved": 0, "is_disabled": 0}, {"lat": 38.918209833333336, "fusion_lat": 0.0, "type": "electric_scooter", "bike_id": "bc0cb7f159cb8a95b8a549256cfe703a", "rental_uris": {"ios": "https://dc.lft.to/lastmile_qr_scan", "android": "https://dc.lft.to/lastmile_qr_scan"}, "fusion_lon": 0.0, "lon": -77.03463516666666, "name": "bc0cb7f159cb8a95b8a549256cfe703a", "is_reserved": 0, "is_disabled": 0}, {"lat": 38.924836, "fusion_lat": 0.0, "type": "electric_scooter", "bike_id": "a34bda337a5a75237bf43257a8f0fce5", "rental_uris": {"ios": "https://dc.lft.to/lastmile_qr_scan", "android": "https://dc.lft.to/lastmile_qr_scan"}, "fusion_lon": 0.0, "lon": -77.022176, "name": "a34bda337a5a75237bf43257a8f0fce5", "is_reserved": 0, "is_disabled": 0}, {"lat": 38.924202333333334, "fusion_lat": 0.0, "type": "electric_scooter", "bike_id": "04d2f199bdaaaaffa6e7eb93d5cbb626", "rental_uris": {"ios": "https://dc.lft.to/lastmile_qr_scan", "android": "https://dc.lft.to/lastmile_qr_scan"}, "fusion_lon": 0.0, "lon": -77.05743983333333, "name": "04d2f199bdaaaaffa6e7eb93d5cbb626", "is_reserved": 0, "is_disabled": 0}, {"lat": 38.93102566666666, "fusion_lat": 0.0, "type": "electric_scooter", "bike_id": "53ced3b822a4ffc49d8b7261a30975f8", "rental_uris": {"ios": "https://dc.lft.to/lastmile_qr_scan", "android": "https://dc.lft.to/lastmile_qr_scan"}, "fusion_lon": 0.0, "lon": -77.03084533333333, "name": "53ced3b822a4ffc49d8b7261a30975f8", "is_reserved": 0, "is_disabled": 0}, {"lat": 38.920451666666665, "fusion_lat": 0.0, "type": "electric_scooter", "bike_id": "41ac983505c0b3e4b640a503b552a23e", "rental_uris": {"ios": "https://dc.lft.to/lastmile_qr_scan", "android": "https://dc.lft.to/lastmile_qr_scan"}, "fusion_lon": 0.0, "lon": -77.01698716666667, "name": "41ac983505c0b3e4b640a503b552a23e", "is_reserved": 0, "is_disabled": 0}, {"lat": 38.93439816666667, "fusion_lat": 0.0, "type": "electric_scooter", "bike_id": "ac1aceb3c362391ca8ce9a9a3b7c20cf", "rental_uris": {"ios": "https://dc.lft.to/lastmile_qr_scan", "android": "https://dc.lft.to/lastmile_qr_scan"}, "fusion_lon": 0.0, "lon": -76.9971395, "name": "ac1aceb3c362391ca8ce9a9a3b7c20cf", "is_reserved": 0, "is_disabled": 0}, {"lat": 38.873386833333335, "fusion_lat": 0.0, "type": "electric_scooter", "bike_id": "d7b39e69d9dbcfbed95c1967dbba0d85", "rental_uris": {"ios": "https://dc.lft.to/lastmile_qr_scan", "android": "https://dc.lft.to/lastmile_qr_scan"}, "fusion_lon": 0.0, "lon": -76.99163633333333, "name": "d7b39e69d9dbcfbed95c1967dbba0d85", "is_reserved": 0, "is_disabled": 0}, {"lat": 38.9048395, "fusion_lat": 0.0, "type": "electric_scooter", "bike_id": "e6fb087d541c8707bf46675482043e7e", "rental_uris": {"ios": "https://dc.lft.to/lastmile_qr_scan", "android": "https://dc.lft.to/lastmile_qr_scan"}, "fusion_lon": 0.0, "lon": -77.02110283333333, "name": "e6fb087d541c8707bf46675482043e7e", "is_reserved": 0, "is_disabled": 0}, {"lat": 38.924623833333335, "fusion_lat": 0.0, "type": "electric_scooter", "bike_id": "76541d72dfa394a9a821ed06dcfa0206", "rental_uris": {"ios": "https://dc.lft.to/lastmile_qr_scan", "android": "https://dc.lft.to/lastmile_qr_scan"}, "fusion_lon": 0.0, "lon": -77.04027833333333, "name": "76541d72dfa394a9a821ed06dcfa0206", "is_reserved": 0, "is_disabled": 0}, {"lat": 38.87120433333333, "fusion_lat": 0.0, "type": "electric_scooter", "bike_id": "39b08a604c93c3e78f07adfed5466562", "rental_uris": {"ios": "https://dc.lft.to/lastmile_qr_scan", "android": "https://dc.lft.to/lastmile_qr_scan"}, "fusion_lon": 0.0, "lon": -77.00756233333334, "name": "39b08a604c93c3e78f07adfed5466562", "is_reserved": 0, "is_disabled": 0}, {"lat": 38.920322666666664, "fusion_lat": 0.0, "type": "electric_scooter", "bike_id": "da39f01bb7ebf1e4d4fd05b9e4b55dad", "rental_uris": {"ios": "https://dc.lft.to/lastmile_qr_scan", "android": "https://dc.lft.to/lastmile_qr_scan"}, "fusion_lon": 0.0, "lon": -77.07139183333334, "name": "da39f01bb7ebf1e4d4fd05b9e4b55dad", "is_reserved": 0, "is_disabled": 0}, {"lat": 38.9214505, "fusion_lat": 0.0, "type": "electric_scooter", "bike_id": "9decf756f78360ae784d3f54b1bad796", "rental_uris": {"ios": "https://dc.lft.to/lastmile_qr_scan", "android": "https://dc.lft.to/lastmile_qr_scan"}, "fusion_lon": 0.0, "lon": -77.03480433333333, "name": "9decf756f78360ae784d3f54b1bad796", "is_reserved": 0, "is_disabled": 0}, {"lat": 38.91720733333333, "fusion_lat": 0.0, "type": "electric_scooter", "bike_id": "c9e37ad54b7b53e2ae9828fbf865a5ff", "rental_uris": {"ios": "https://dc.lft.to/lastmile_qr_scan", "android": "https://dc.lft.to/lastmile_qr_scan"}, "fusion_lon": 0.0, "lon": -77.02699233333334, "name": "c9e37ad54b7b53e2ae9828fbf865a5ff", "is_reserved": 0, "is_disabled": 0}, {"lat": 38.884959, "fusion_lat": 0.0, "type": "electric_scooter", "bike_id": "546cca48b90f2526a936d11909b25659", "rental_uris": {"ios": "https://dc.lft.to/lastmile_qr_scan", "android": "https://dc.lft.to/lastmile_qr_scan"}, "fusion_lon": 0.0, "lon": -76.98057566666667, "name": "546cca48b90f2526a936d11909b25659", "is_reserved": 0, "is_disabled": 0}, {"lat": 38.9618605, "fusion_lat": 0.0, "type": "electric_bike", "bike_id": "2115d4eeb6a45ab5bf91546f5a46c4f5", "rental_uris": {"ios": "https://dc.lft.to/lastmile_qr_scan", "android": "https://dc.lft.to/lastmile_qr_scan"}, "fusion_lon": 0.0, "lon": -77.05262116666667, "name": "2115d4eeb6a45ab5bf91546f5a46c4f5", "is_reserved": 0, "is_disabled": 0}, {"lat": 38.94313133333333, "fusion_lat": 0.0, "type": "electric_scooter", "bike_id": "abb1cbd65762789be2732979801b0aa9", "rental_uris": {"ios": "https://dc.lft.to/lastmile_qr_scan", "android": "https://dc.lft.to/lastmile_qr_scan"}, "fusion_lon": 0.0, "lon": -77.02488083333333, "name": "abb1cbd65762789be2732979801b0aa9", "is_reserved": 0, "is_disabled": 0}, {"lat": 38.8986795, "fusion_lat": 0.0, "type": "electric_scooter", "bike_id": "3fe02fa61214b17e36e9d744c89e708c", "rental_uris": {"ios": "https://dc.lft.to/lastmile_qr_scan", "android": "https://dc.lft.to/lastmile_qr_scan"}, "fusion_lon": 0.0, "lon": -77.02182683333334, "name": "3fe02fa61214b17e36e9d744c89e708c", "is_reserved": 0, "is_disabled": 0}, {"lat": 38.9251135, "fusion_lat": 0.0, "type": "electric_scooter", "bike_id": "42b59a2a94cce31789e4ac058de0339a", "rental_uris": {"ios": "https://dc.lft.to/lastmile_qr_scan", "android": "https://dc.lft.to/lastmile_qr_scan"}, "fusion_lon": 0.0, "lon": -77.0228335, "name": "42b59a2a94cce31789e4ac058de0339a", "is_reserved": 0, "is_disabled": 0}, {"lat": 38.910989, "fusion_lat": 0.0, "type": "electric_scooter", "bike_id": "ca3fd153136fa74d1d8e9383b6b5b5bc", "rental_uris": {"ios": "https://dc.lft.to/lastmile_qr_scan", "android": "https://dc.lft.to/lastmile_qr_scan"}, "fusion_lon": 0.0, "lon": -77.03180066666667, "name": "ca3fd153136fa74d1d8e9383b6b5b5bc", "is_reserved": 0, "is_disabled": 0}, {"lat": 38.911217, "fusion_lat": 0.0, "type": "electric_scooter", "bike_id": "d63c36af2d3b81b4c2c8fb5ab6347347", "rental_uris": {"ios": "https://dc.lft.to/lastmile_qr_scan", "android": "https://dc.lft.to/lastmile_qr_scan"}, "fusion_lon": 0.0, "lon": -77.04465033333334, "name": "d63c36af2d3b81b4c2c8fb5ab6347347", "is_reserved": 0, "is_disabled": 0}, {"lat": 38.91045716666667, "fusion_lat": 0.0, "type": "electric_scooter", "bike_id": "94d4a5c2b7c1ae98bb1ad5857335681b", "rental_uris": {"ios": "https://dc.lft.to/lastmile_qr_scan", "android": "https://dc.lft.to/lastmile_qr_scan"}, "fusion_lon": 0.0, "lon": -77.032064, "name": "94d4a5c2b7c1ae98bb1ad5857335681b", "is_reserved": 0, "is_disabled": 0}, {"lat": 38.90361016666667, "fusion_lat": 0.0, "type": "electric_scooter", "bike_id": "5dd27f81af3732874f765a1fed8f8da5", "rental_uris": {"ios": "https://dc.lft.to/lastmile_qr_scan", "android": "https://dc.lft.to/lastmile_qr_scan"}, "fusion_lon": 0.0, "lon": -77.02217566666667, "name": "5dd27f81af3732874f765a1fed8f8da5", "is_reserved": 0, "is_disabled": 0}, {"lat": 38.901301333333336, "fusion_lat": 0.0, "type": "electric_scooter", "bike_id": "32d1865934faf9014ac3204bc056a574", "rental_uris": {"ios": "https://dc.lft.to/lastmile_qr_scan", "android": "https://dc.lft.to/lastmile_qr_scan"}, "fusion_lon": 0.0, "lon": -77.03491733333334, "name": "32d1865934faf9014ac3204bc056a574", "is_reserved": 0, "is_disabled": 0}, {"lat": 38.89225066666667, "fusion_lat": 0.0, "type": "electric_scooter", "bike_id": "667d3e914a02858da33179533c3360b0", "rental_uris": {"ios": "https://dc.lft.to/lastmile_qr_scan", "android": "https://dc.lft.to/lastmile_qr_scan"}, "fusion_lon": 0.0, "lon": -77.0322275, "name": "667d3e914a02858da33179533c3360b0", "is_reserved": 0, "is_disabled": 0}, {"lat": 38.925136, "fusion_lat": 0.0, "type": "electric_scooter", "bike_id": "06f5c768c326119aa21a9f3c8d0179d1", "rental_uris": {"ios": "https://dc.lft.to/lastmile_qr_scan", "android": "https://dc.lft.to/lastmile_qr_scan"}, "fusion_lon": 0.0, "lon": -77.0236055, "name": "06f5c768c326119aa21a9f3c8d0179d1", "is_reserved": 0, "is_disabled": 0}, {"lat": 38.91611533333333, "fusion_lat": 0.0, "type": "electric_scooter", "bike_id": "71f959b3c815f580b8513c013ba9d93a", "rental_uris": {"ios": "https://dc.lft.to/lastmile_qr_scan", "android": "https://dc.lft.to/lastmile_qr_scan"}, "fusion_lon": 0.0, "lon": -77.02178333333333, "name": "71f959b3c815f580b8513c013ba9d93a", "is_reserved": 0, "is_disabled": 0}, {"lat": 38.924907, "fusion_lat": 0.0, "type": "electric_scooter", "bike_id": "f743805e1031b86c8c7ece360f9589f7", "rental_uris": {"ios": "https://dc.lft.to/lastmile_qr_scan", "android": "https://dc.lft.to/lastmile_qr_scan"}, "fusion_lon": 0.0, "lon": -77.025853, "name": "f743805e1031b86c8c7ece360f9589f7", "is_reserved": 0, "is_disabled": 0}, {"lat": 38.935587, "fusion_lat": 0.0, "type": "electric_scooter", "bike_id": "02f682a25658d9c4ed15fbc659c2312a", "rental_uris": {"ios": "https://dc.lft.to/lastmile_qr_scan", "android": "https://dc.lft.to/lastmile_qr_scan"}, "fusion_lon": 0.0, "lon": -77.087789, "name": "02f682a25658d9c4ed15fbc659c2312a", "is_reserved": 0, "is_disabled": 0}, {"lat": 38.92970616666667, "fusion_lat": 0.0, "type": "electric_scooter", "bike_id": "83ac198f130b23b02219c58688b5c0ce", "rental_uris": {"ios": "https://dc.lft.to/lastmile_qr_scan", "android": "https://dc.lft.to/lastmile_qr_scan"}, "fusion_lon": 0.0, "lon": -77.02792666666667, "name": "83ac198f130b23b02219c58688b5c0ce", "is_reserved": 0, "is_disabled": 0}, {"lat": 38.96143, "fusion_lat": 0.0, "type": "electric_scooter", "bike_id": "11a5d6a7a286b13773ce384f71811f8d", "rental_uris": {"ios": "https://dc.lft.to/lastmile_qr_scan", "android": "https://dc.lft.to/lastmile_qr_scan"}, "fusion_lon": 0.0, "lon": -77.0278095, "name": "11a5d6a7a286b13773ce384f71811f8d", "is_reserved": 0, "is_disabled": 0}, {"lat": 38.8924335, "fusion_lat": 0.0, "type": "electric_scooter", "bike_id": "4960a85b738ac59fb20a1c2500b36d3a", "rental_uris": {"ios": "https://dc.lft.to/lastmile_qr_scan", "android": "https://dc.lft.to/lastmile_qr_scan"}, "fusion_lon": 0.0, "lon": -77.031813, "name": "4960a85b738ac59fb20a1c2500b36d3a", "is_reserved": 0, "is_disabled": 0}, {"lat": 38.897387333333334, "fusion_lat": 0.0, "type": "electric_scooter", "bike_id": "868ba1e972b12b10d9db3964ed783e92", "rental_uris": {"ios": "https://dc.lft.to/lastmile_qr_scan", "android": "https://dc.lft.to/lastmile_qr_scan"}, "fusion_lon": 0.0, "lon": -77.049244, "name": "868ba1e972b12b10d9db3964ed783e92", "is_reserved": 0, "is_disabled": 0}, {"lat": 38.89980583333333, "fusion_lat": 0.0, "type": "electric_scooter", "bike_id": "e4b07588ff2fbd1b9cc86400216ac5cd", "rental_uris": {"ios": "https://dc.lft.to/lastmile_qr_scan", "android": "https://dc.lft.to/lastmile_qr_scan"}, "fusion_lon": 0.0, "lon": -76.9854735, "name": "e4b07588ff2fbd1b9cc86400216ac5cd", "is_reserved": 0, "is_disabled": 0}, {"lat": 38.868934333333335, "fusion_lat": 0.0, "type": "electric_bike", "bike_id": "fb636831ed05bd00d4894d6f14aaffaf", "rental_uris": {"ios": "https://dc.lft.to/lastmile_qr_scan", "android": "https://dc.lft.to/lastmile_qr_scan"}, "fusion_lon": 0.0, "lon": -76.9851385, "name": "fb636831ed05bd00d4894d6f14aaffaf", "is_reserved": 0, "is_disabled": 0}, {"lat": 38.915733333333336, "fusion_lat": 0.0, "type": "electric_scooter", "bike_id": "5ab3fd81f8a6f3300b6b12df2500734e", "rental_uris": {"ios": "https://dc.lft.to/lastmile_qr_scan", "android": "https://dc.lft.to/lastmile_qr_scan"}, "fusion_lon": 0.0, "lon": -77.019012, "name": "5ab3fd81f8a6f3300b6b12df2500734e", "is_reserved": 0, "is_disabled": 0}, {"lat": 38.922293, "fusion_lat": 0.0, "type": "electric_scooter", "bike_id": "a6e5ac5a016ae378babce478b62baac3", "rental_uris": {"ios": "https://dc.lft.to/lastmile_qr_scan", "android": "https://dc.lft.to/lastmile_qr_scan"}, "fusion_lon": 0.0, "lon": -77.02110733333333, "name": "a6e5ac5a016ae378babce478b62baac3", "is_reserved": 0, "is_disabled": 0}, {"lat": 38.92342816666667, "fusion_lat": 0.0, "type": "electric_scooter", "bike_id": "009b03ceb4eec2058e0acbad18d1054a", "rental_uris": {"ios": "https://dc.lft.to/lastmile_qr_scan", "android": "https://dc.lft.to/lastmile_qr_scan"}, "fusion_lon": 0.0, "lon": -77.05174683333334, "name": "009b03ceb4eec2058e0acbad18d1054a", "is_reserved": 0, "is_disabled": 0}, {"lat": 38.90439883333333, "fusion_lat": 0.0, "type": "electric_scooter", "bike_id": "62e7c048f3ab212f75367012b55d88d3", "rental_uris": {"ios": "https://dc.lft.to/lastmile_qr_scan", "android": "https://dc.lft.to/lastmile_qr_scan"}, "fusion_lon": 0.0, "lon": -76.998233, "name": "62e7c048f3ab212f75367012b55d88d3", "is_reserved": 0, "is_disabled": 0}, {"lat": 38.90268916666667, "fusion_lat": 0.0, "type": "electric_scooter", "bike_id": "0fa43fd69798939934995911ddffd0f6", "rental_uris": {"ios": "https://dc.lft.to/lastmile_qr_scan", "android": "https://dc.lft.to/lastmile_qr_scan"}, "fusion_lon": 0.0, "lon": -77.03764833333334, "name": "0fa43fd69798939934995911ddffd0f6", "is_reserved": 0, "is_disabled": 0}, {"lat": 38.8924575, "fusion_lat": 0.0, "type": "electric_scooter", "bike_id": "04a091c3c11df8eac927df3f26889bc2", "rental_uris": {"ios": "https://dc.lft.to/lastmile_qr_scan", "android": "https://dc.lft.to/lastmile_qr_scan"}, "fusion_lon": 0.0, "lon": -77.04656033333333, "name": "04a091c3c11df8eac927df3f26889bc2", "is_reserved": 0, "is_disabled": 0}, {"lat": 38.893874833333335, "fusion_lat": 0.0, "type": "electric_scooter", "bike_id": "79f4830b112a050754da5c0fb6ae984d", "rental_uris": {"ios": "https://dc.lft.to/lastmile_qr_scan", "android": "https://dc.lft.to/lastmile_qr_scan"}, "fusion_lon": 0.0, "lon": -76.9230365, "name": "79f4830b112a050754da5c0fb6ae984d", "is_reserved": 0, "is_disabled": 0}, {"lat": 38.89644533333333, "fusion_lat": 0.0, "type": "electric_scooter", "bike_id": "a27d3c6bb7f0ab8fe8d0fc62ba439913", "rental_uris": {"ios": "https://dc.lft.to/lastmile_qr_scan", "android": "https://dc.lft.to/lastmile_qr_scan"}, "fusion_lon": 0.0, "lon": -77.02398816666667, "name": "a27d3c6bb7f0ab8fe8d0fc62ba439913", "is_reserved": 0, "is_disabled": 0}, {"lat": 38.950143833333335, "fusion_lat": 0.0, "type": "electric_scooter", "bike_id": "6688317db00f0b8c28dbe30acf7f969e", "rental_uris": {"ios": "https://dc.lft.to/lastmile_qr_scan", "android": "https://dc.lft.to/lastmile_qr_scan"}, "fusion_lon": 0.0, "lon": -77.08028383333334, "name": "6688317db00f0b8c28dbe30acf7f969e", "is_reserved": 0, "is_disabled": 0}, {"lat": 38.877172, "fusion_lat": 0.0, "type": "electric_scooter", "bike_id": "31917186a063579117c73b7e0138557b", "rental_uris": {"ios": "https://dc.lft.to/lastmile_qr_scan", "android": "https://dc.lft.to/lastmile_qr_scan"}, "fusion_lon": 0.0, "lon": -77.0170755, "name": "31917186a063579117c73b7e0138557b", "is_reserved": 0, "is_disabled": 0}, {"lat": 38.847571333333335, "fusion_lat": 0.0, "type": "electric_scooter", "bike_id": "d3f31cae6757f402f0456e50b24bd9f7", "rental_uris": {"ios": "https://dc.lft.to/lastmile_qr_scan", "android": "https://dc.lft.to/lastmile_qr_scan"}, "fusion_lon": 0.0, "lon": -76.994976, "name": "d3f31cae6757f402f0456e50b24bd9f7", "is_reserved": 0, "is_disabled": 0}, {"lat": 38.96443216666667, "fusion_lat": 0.0, "type": "electric_bike", "bike_id": "540fc8b4d7b1cb38c8caaf81dde002dd", "rental_uris": {"ios": "https://dc.lft.to/lastmile_qr_scan", "android": "https://dc.lft.to/lastmile_qr_scan"}, "fusion_lon": 0.0, "lon": -77.03154383333333, "name": "540fc8b4d7b1cb38c8caaf81dde002dd", "is_reserved": 0, "is_disabled": 0}, {"lat": 38.90515116666667, "fusion_lat": 0.0, "type": "electric_scooter", "bike_id": "f9cbf9d90adbc1ee19ab1aca23a46ffb", "rental_uris": {"ios": "https://dc.lft.to/lastmile_qr_scan", "android": "https://dc.lft.to/lastmile_qr_scan"}, "fusion_lon": 0.0, "lon": -77.04826566666667, "name": "f9cbf9d90adbc1ee19ab1aca23a46ffb", "is_reserved": 0, "is_disabled": 0}, {"lat": 39.05256516666667, "fusion_lat": 0.0, "type": "electric_bike", "bike_id": "e5a8f5f177b489451db87fce0dc51883", "rental_uris": {"ios": "https://dc.lft.to/lastmile_qr_scan", "android": "https://dc.lft.to/lastmile_qr_scan"}, "fusion_lon": 0.0, "lon": -77.08062383333333, "name": "e5a8f5f177b489451db87fce0dc51883", "is_reserved": 0, "is_disabled": 0}, {"lat": 38.907782, "fusion_lat": 0.0, "type": "electric_scooter", "bike_id": "6c8d00c6e8008f3bac0a25cd0c6081fe", "rental_uris": {"ios": "https://dc.lft.to/lastmile_qr_scan", "android": "https://dc.lft.to/lastmile_qr_scan"}, "fusion_lon": 0.0, "lon": -77.07165166666667, "name": "6c8d00c6e8008f3bac0a25cd0c6081fe", "is_reserved": 0, "is_disabled": 0}, {"lat": 38.8696815, "fusion_lat": 0.0, "type": "electric_scooter", "bike_id": "91e253e90453f8fd4151b0d7747c8435", "rental_uris": {"ios": "https://dc.lft.to/lastmile_qr_scan", "android": "https://dc.lft.to/lastmile_qr_scan"}, "fusion_lon": 0.0, "lon": -76.9785045, "name": "91e253e90453f8fd4151b0d7747c8435", "is_reserved": 0, "is_disabled": 0}, {"lat": 38.87375983333333, "fusion_lat": 0.0, "type": "electric_scooter", "bike_id": "8ddb0b70ee3fd644097996a03e960b62", "rental_uris": {"ios": "https://dc.lft.to/lastmile_qr_scan", "android": "https://dc.lft.to/lastmile_qr_scan"}, "fusion_lon": 0.0, "lon": -77.00087016666667, "name": "8ddb0b70ee3fd644097996a03e960b62", "is_reserved": 0, "is_disabled": 0}, {"lat": 38.8949705, "fusion_lat": 0.0, "type": "electric_scooter", "bike_id": "433f819d757759746edf4e344aab3284", "rental_uris": {"ios": "https://dc.lft.to/lastmile_qr_scan", "android": "https://dc.lft.to/lastmile_qr_scan"}, "fusion_lon": 0.0, "lon": -77.0035645, "name": "433f819d757759746edf4e344aab3284", "is_reserved": 0, "is_disabled": 0}, {"lat": 38.8924465, "fusion_lat": 0.0, "type": "electric_scooter", "bike_id": "474bd40874dc91fbb35d137e67466db0", "rental_uris": {"ios": "https://dc.lft.to/lastmile_qr_scan", "android": "https://dc.lft.to/lastmile_qr_scan"}, "fusion_lon": 0.0, "lon": -77.04870383333333, "name": "474bd40874dc91fbb35d137e67466db0", "is_reserved": 0, "is_disabled": 0}, {"lat": 38.8727115, "fusion_lat": 0.0, "type": "electric_scooter", "bike_id": "c9cb662eb68a62a823a555781d017da0", "rental_uris": {"ios": "https://dc.lft.to/lastmile_qr_scan", "android": "https://dc.lft.to/lastmile_qr_scan"}, "fusion_lon": 0.0, "lon": -77.013639, "name": "c9cb662eb68a62a823a555781d017da0", "is_reserved": 0, "is_disabled": 0}, {"lat": 38.89745, "fusion_lat": 0.0, "type": "electric_scooter", "bike_id": "c62e9fdf7df010c86a6de55632de99cd", "rental_uris": {"ios": "https://dc.lft.to/lastmile_qr_scan", "android": "https://dc.lft.to/lastmile_qr_scan"}, "fusion_lon": 0.0, "lon": -77.04613183333333, "name": "c62e9fdf7df010c86a6de55632de99cd", "is_reserved": 0, "is_disabled": 0}, {"lat": 38.89362416666667, "fusion_lat": 0.0, "type": "electric_scooter", "bike_id": "b39c7e0d4ed1e9d3ec0c7183ab5889dd", "rental_uris": {"ios": "https://dc.lft.to/lastmile_qr_scan", "android": "https://dc.lft.to/lastmile_qr_scan"}, "fusion_lon": 0.0, "lon": -77.02623183333333, "name": "b39c7e0d4ed1e9d3ec0c7183ab5889dd", "is_reserved": 0, "is_disabled": 0}, {"lat": 38.94257266666666, "fusion_lat": 0.0, "type": "electric_scooter", "bike_id": "327a52bcf0e870565555abd95cfb71d0", "rental_uris": {"ios": "https://dc.lft.to/lastmile_qr_scan", "android": "https://dc.lft.to/lastmile_qr_scan"}, "fusion_lon": 0.0, "lon": -77.03627033333333, "name": "327a52bcf0e870565555abd95cfb71d0", "is_reserved": 0, "is_disabled": 0}, {"lat": 38.92296316666667, "fusion_lat": 0.0, "type": "electric_scooter", "bike_id": "089ff4879f912d5a56a242ceca754a13", "rental_uris": {"ios": "https://dc.lft.to/lastmile_qr_scan", "android": "https://dc.lft.to/lastmile_qr_scan"}, "fusion_lon": 0.0, "lon": -77.04268166666667, "name": "089ff4879f912d5a56a242ceca754a13", "is_reserved": 0, "is_disabled": 0}, {"lat": 38.898785, "fusion_lat": 0.0, "type": "electric_scooter", "bike_id": "48dd41110e11bc57fc57d8740604d2fd", "rental_uris": {"ios": "https://dc.lft.to/lastmile_qr_scan", "android": "https://dc.lft.to/lastmile_qr_scan"}, "fusion_lon": 0.0, "lon": -77.05003833333333, "name": "48dd41110e11bc57fc57d8740604d2fd", "is_reserved": 0, "is_disabled": 0}, {"lat": 38.90216233333334, "fusion_lat": 0.0, "type": "electric_scooter", "bike_id": "7acbdad87706be4dd60b5aaf4b84f049", "rental_uris": {"ios": "https://dc.lft.to/lastmile_qr_scan", "android": "https://dc.lft.to/lastmile_qr_scan"}, "fusion_lon": 0.0, "lon": -77.005673, "name": "7acbdad87706be4dd60b5aaf4b84f049", "is_reserved": 0, "is_disabled": 0}, {"lat": 38.8199035, "fusion_lat": 0.0, "type": "electric_bike", "bike_id": "bf51a82b85134c4f2ab086f7525b25b6", "rental_uris": {"ios": "https://dc.lft.to/lastmile_qr_scan", "android": "https://dc.lft.to/lastmile_qr_scan"}, "fusion_lon": 0.0, "lon": -76.9980745, "name": "bf51a82b85134c4f2ab086f7525b25b6", "is_reserved": 0, "is_disabled": 0}, {"lat": 38.9275935, "fusion_lat": 0.0, "type": "electric_scooter", "bike_id": "2e9101baa71edce4366a3c5d464f08d2", "rental_uris": {"ios": "https://dc.lft.to/lastmile_qr_scan", "android": "https://dc.lft.to/lastmile_qr_scan"}, "fusion_lon": 0.0, "lon": -77.05262066666667, "name": "2e9101baa71edce4366a3c5d464f08d2", "is_reserved": 0, "is_disabled": 0}, {"lat": 38.902416333333335, "fusion_lat": 0.0, "type": "electric_scooter", "bike_id": "ac5a8989853c314d72d7f5dc81112651", "rental_uris": {"ios": "https://dc.lft.to/lastmile_qr_scan", "android": "https://dc.lft.to/lastmile_qr_scan"}, "fusion_lon": 0.0, "lon": -77.00198333333333, "name": "ac5a8989853c314d72d7f5dc81112651", "is_reserved": 0, "is_disabled": 0}, {"lat": 38.923763, "fusion_lat": 0.0, "type": "electric_scooter", "bike_id": "ef3a3e83e0c0fbcd4c0c8fbfe77d15bc", "rental_uris": {"ios": "https://dc.lft.to/lastmile_qr_scan", "android": "https://dc.lft.to/lastmile_qr_scan"}, "fusion_lon": 0.0, "lon": -77.0212235, "name": "ef3a3e83e0c0fbcd4c0c8fbfe77d15bc", "is_reserved": 0, "is_disabled": 0}, {"lat": 38.9206475, "fusion_lat": 0.0, "type": "electric_scooter", "bike_id": "e0aa726c4bd40b82568a18eee823d72b", "rental_uris": {"ios": "https://dc.lft.to/lastmile_qr_scan", "android": "https://dc.lft.to/lastmile_qr_scan"}, "fusion_lon": 0.0, "lon": -77.0456335, "name": "e0aa726c4bd40b82568a18eee823d72b", "is_reserved": 0, "is_disabled": 0}, {"lat": 38.924488833333335, "fusion_lat": 0.0, "type": "electric_scooter", "bike_id": "c7108c9091769553e3e405328bb0ab8b", "rental_uris": {"ios": "https://dc.lft.to/lastmile_qr_scan", "android": "https://dc.lft.to/lastmile_qr_scan"}, "fusion_lon": 0.0, "lon": -76.989858, "name": "c7108c9091769553e3e405328bb0ab8b", "is_reserved": 0, "is_disabled": 0}, {"lat": 38.90949033333333, "fusion_lat": 0.0, "type": "electric_scooter", "bike_id": "3a754fd8bb719d3f1869e46e88acd74a", "rental_uris": {"ios": "https://dc.lft.to/lastmile_qr_scan", "android": "https://dc.lft.to/lastmile_qr_scan"}, "fusion_lon": 0.0, "lon": -77.0343085, "name": "3a754fd8bb719d3f1869e46e88acd74a", "is_reserved": 0, "is_disabled": 0}, {"lat": 38.9006705, "fusion_lat": 0.0, "type": "electric_scooter", "bike_id": "2dd33e3302fa5831ee72396b38ae01a1", "rental_uris": {"ios": "https://dc.lft.to/lastmile_qr_scan", "android": "https://dc.lft.to/lastmile_qr_scan"}, "fusion_lon": 0.0, "lon": -77.045571, "name": "2dd33e3302fa5831ee72396b38ae01a1", "is_reserved": 0, "is_disabled": 0}, {"lat": 38.9160135, "fusion_lat": 0.0, "type": "electric_scooter", "bike_id": "f4de3f8c04c1ab6c2aa468f01d6caa86", "rental_uris": {"ios": "https://dc.lft.to/lastmile_qr_scan", "android": "https://dc.lft.to/lastmile_qr_scan"}, "fusion_lon": 0.0, "lon": -77.0322435, "name": "f4de3f8c04c1ab6c2aa468f01d6caa86", "is_reserved": 0, "is_disabled": 0}, {"lat": 38.9024025, "fusion_lat": 0.0, "type": "electric_scooter", "bike_id": "c054e04a27938e9641331b220461c3f2", "rental_uris": {"ios": "https://dc.lft.to/lastmile_qr_scan", "android": "https://dc.lft.to/lastmile_qr_scan"}, "fusion_lon": 0.0, "lon": -77.02689083333334, "name": "c054e04a27938e9641331b220461c3f2", "is_reserved": 0, "is_disabled": 0}, {"lat": 38.91124416666667, "fusion_lat": 0.0, "type": "electric_scooter", "bike_id": "86f9996a14efe84202fb78731e779ec6", "rental_uris": {"ios": "https://dc.lft.to/lastmile_qr_scan", "android": "https://dc.lft.to/lastmile_qr_scan"}, "fusion_lon": 0.0, "lon": -76.9976645, "name": "86f9996a14efe84202fb78731e779ec6", "is_reserved": 0, "is_disabled": 0}, {"lat": 38.891779166666666, "fusion_lat": 0.0, "type": "electric_scooter", "bike_id": "cccfbe6c385fd00981499066fde15b78", "rental_uris": {"ios": "https://dc.lft.to/lastmile_qr_scan", "android": "https://dc.lft.to/lastmile_qr_scan"}, "fusion_lon": 0.0, "lon": -76.92646433333333, "name": "cccfbe6c385fd00981499066fde15b78", "is_reserved": 0, "is_disabled": 0}, {"lat": 38.884344166666665, "fusion_lat": 0.0, "type": "electric_scooter", "bike_id": "897b14ea40b375a1600290fa3beeda89", "rental_uris": {"ios": "https://dc.lft.to/lastmile_qr_scan", "android": "https://dc.lft.to/lastmile_qr_scan"}, "fusion_lon": 0.0, "lon": -77.01768933333334, "name": "897b14ea40b375a1600290fa3beeda89", "is_reserved": 0, "is_disabled": 0}, {"lat": 38.892332833333334, "fusion_lat": 0.0, "type": "electric_scooter", "bike_id": "6511ef2b9688e02d633b9f3dec16ec9e", "rental_uris": {"ios": "https://dc.lft.to/lastmile_qr_scan", "android": "https://dc.lft.to/lastmile_qr_scan"}, "fusion_lon": 0.0, "lon": -77.04322966666666, "name": "6511ef2b9688e02d633b9f3dec16ec9e", "is_reserved": 0, "is_disabled": 0}, {"lat": 38.925220833333334, "fusion_lat": 0.0, "type": "electric_scooter", "bike_id": "870b04c1e29c0559e024d78112443fda", "rental_uris": {"ios": "https://dc.lft.to/lastmile_qr_scan", "android": "https://dc.lft.to/lastmile_qr_scan"}, "fusion_lon": 0.0, "lon": -77.050348, "name": "870b04c1e29c0559e024d78112443fda", "is_reserved": 0, "is_disabled": 0}, {"lat": 38.9170805, "fusion_lat": 0.0, "type": "electric_scooter", "bike_id": "b0252fa020cbcfc7c1534adb3f271c2c", "rental_uris": {"ios": "https://dc.lft.to/lastmile_qr_scan", "android": "https://dc.lft.to/lastmile_qr_scan"}, "fusion_lon": 0.0, "lon": -77.036727, "name": "b0252fa020cbcfc7c1534adb3f271c2c", "is_reserved": 0, "is_disabled": 0}, {"lat": 38.91742033333333, "fusion_lat": 0.0, "type": "electric_scooter", "bike_id": "2781b70467cf42b3a64a931c20790c1a", "rental_uris": {"ios": "https://dc.lft.to/lastmile_qr_scan", "android": "https://dc.lft.to/lastmile_qr_scan"}, "fusion_lon": 0.0, "lon": -77.0364215, "name": "2781b70467cf42b3a64a931c20790c1a", "is_reserved": 0, "is_disabled": 0}, {"lat": 38.939315666666666, "fusion_lat": 0.0, "type": "electric_scooter", "bike_id": "72cc210d9e2d1671c115b206d4bfb797", "rental_uris": {"ios": "https://dc.lft.to/lastmile_qr_scan", "android": "https://dc.lft.to/lastmile_qr_scan"}, "fusion_lon": 0.0, "lon": -77.015839, "name": "72cc210d9e2d1671c115b206d4bfb797", "is_reserved": 0, "is_disabled": 0}, {"lat": 38.8802975, "fusion_lat": 0.0, "type": "electric_scooter", "bike_id": "65ddcecb4d5db45140c198699bfa7dc1", "rental_uris": {"ios": "https://dc.lft.to/lastmile_qr_scan", "android": "https://dc.lft.to/lastmile_qr_scan"}, "fusion_lon": 0.0, "lon": -77.00597433333333, "name": "65ddcecb4d5db45140c198699bfa7dc1", "is_reserved": 0, "is_disabled": 0}, {"lat": 38.907325166666666, "fusion_lat": 0.0, "type": "electric_scooter", "bike_id": "f1058758456e29c652addfcaf5592c06", "rental_uris": {"ios": "https://dc.lft.to/lastmile_qr_scan", "android": "https://dc.lft.to/lastmile_qr_scan"}, "fusion_lon": 0.0, "lon": -77.009526, "name": "f1058758456e29c652addfcaf5592c06", "is_reserved": 0, "is_disabled": 0}, {"lat": 38.92882683333333, "fusion_lat": 0.0, "type": "electric_scooter", "bike_id": "3af9b713ab03f89175292a1073eebdca", "rental_uris": {"ios": "https://dc.lft.to/lastmile_qr_scan", "android": "https://dc.lft.to/lastmile_qr_scan"}, "fusion_lon": 0.0, "lon": -77.0322495, "name": "3af9b713ab03f89175292a1073eebdca", "is_reserved": 0, "is_disabled": 0}, {"lat": 38.912591166666665, "fusion_lat": 0.0, "type": "electric_scooter", "bike_id": "10a5ed8c9f2dac9b85edda7a813393bb", "rental_uris": {"ios": "https://dc.lft.to/lastmile_qr_scan", "android": "https://dc.lft.to/lastmile_qr_scan"}, "fusion_lon": 0.0, "lon": -77.0380115, "name": "10a5ed8c9f2dac9b85edda7a813393bb", "is_reserved": 0, "is_disabled": 0}, {"lat": 38.89744916666667, "fusion_lat": 0.0, "type": "electric_scooter", "bike_id": "0bdd0bc487e18b2faf3e43c2ad6fc50e", "rental_uris": {"ios": "https://dc.lft.to/lastmile_qr_scan", "android": "https://dc.lft.to/lastmile_qr_scan"}, "fusion_lon": 0.0, "lon": -77.00141016666667, "name": "0bdd0bc487e18b2faf3e43c2ad6fc50e", "is_reserved": 0, "is_disabled": 0}, {"lat": 38.92897283333333, "fusion_lat": 0.0, "type": "electric_scooter", "bike_id": "5b48f2ce0764de211769cb5c027f2280", "rental_uris": {"ios": "https://dc.lft.to/lastmile_qr_scan", "android": "https://dc.lft.to/lastmile_qr_scan"}, "fusion_lon": 0.0, "lon": -77.05807533333333, "name": "5b48f2ce0764de211769cb5c027f2280", "is_reserved": 0, "is_disabled": 0}, {"lat": 38.90024116666667, "fusion_lat": 0.0, "type": "electric_scooter", "bike_id": "0283294d8b39b0eea3e7efcd41750ac9", "rental_uris": {"ios": "https://dc.lft.to/lastmile_qr_scan", "android": "https://dc.lft.to/lastmile_qr_scan"}, "fusion_lon": 0.0, "lon": -76.9986565, "name": "0283294d8b39b0eea3e7efcd41750ac9", "is_reserved": 0, "is_disabled": 0}, {"lat": 38.83105966666667, "fusion_lat": 0.0, "type": "electric_bike", "bike_id": "dec8e945fabb3e1456d427116a9a2305", "rental_uris": {"ios": "https://dc.lft.to/lastmile_qr_scan", "android": "https://dc.lft.to/lastmile_qr_scan"}, "fusion_lon": 0.0, "lon": -77.11281933333333, "name": "dec8e945fabb3e1456d427116a9a2305", "is_reserved": 0, "is_disabled": 0}, {"lat": 38.910731166666665, "fusion_lat": 0.0, "type": "electric_scooter", "bike_id": "959491385d8905c0e8fd1ef9a458cbcd", "rental_uris": {"ios": "https://dc.lft.to/lastmile_qr_scan", "android": "https://dc.lft.to/lastmile_qr_scan"}, "fusion_lon": 0.0, "lon": -77.02720216666667, "name": "959491385d8905c0e8fd1ef9a458cbcd", "is_reserved": 0, "is_disabled": 0}, {"lat": 38.91818983333334, "fusion_lat": 0.0, "type": "electric_scooter", "bike_id": "c1c3e92817478dd8f3fff6b4a184a128", "rental_uris": {"ios": "https://dc.lft.to/lastmile_qr_scan", "android": "https://dc.lft.to/lastmile_qr_scan"}, "fusion_lon": 0.0, "lon": -77.041712, "name": "c1c3e92817478dd8f3fff6b4a184a128", "is_reserved": 0, "is_disabled": 0}, {"lat": 38.897211, "fusion_lat": 0.0, "type": "electric_scooter", "bike_id": "7deba7ecdd27a194d9d254a830dd61fe", "rental_uris": {"ios": "https://dc.lft.to/lastmile_qr_scan", "android": "https://dc.lft.to/lastmile_qr_scan"}, "fusion_lon": 0.0, "lon": -77.02682366666667, "name": "7deba7ecdd27a194d9d254a830dd61fe", "is_reserved": 0, "is_disabled": 0}, {"lat": 38.921699333333336, "fusion_lat": 0.0, "type": "electric_scooter", "bike_id": "39a6a8cf71f3382561622c52a4e3a695", "rental_uris": {"ios": "https://dc.lft.to/lastmile_qr_scan", "android": "https://dc.lft.to/lastmile_qr_scan"}, "fusion_lon": 0.0, "lon": -77.0401645, "name": "39a6a8cf71f3382561622c52a4e3a695", "is_reserved": 0, "is_disabled": 0}, {"lat": 38.855123, "fusion_lat": 0.0, "type": "electric_bike", "bike_id": "48255621bc11f6b28078ed0b2025398b", "rental_uris": {"ios": "https://dc.lft.to/lastmile_qr_scan", "android": "https://dc.lft.to/lastmile_qr_scan"}, "fusion_lon": 0.0, "lon": -76.9841605, "name": "48255621bc11f6b28078ed0b2025398b", "is_reserved": 0, "is_disabled": 0}, {"lat": 38.95414266666667, "fusion_lat": 0.0, "type": "electric_scooter", "bike_id": "b0cef74d4e2d8d6b439ac3e36de06203", "rental_uris": {"ios": "https://dc.lft.to/lastmile_qr_scan", "android": "https://dc.lft.to/lastmile_qr_scan"}, "fusion_lon": 0.0, "lon": -77.02791983333333, "name": "b0cef74d4e2d8d6b439ac3e36de06203", "is_reserved": 0, "is_disabled": 0}, {"lat": 38.88769166666667, "fusion_lat": 0.0, "type": "electric_scooter", "bike_id": "9640dbf09cfbb169f27128e5036ade3f", "rental_uris": {"ios": "https://dc.lft.to/lastmile_qr_scan", "android": "https://dc.lft.to/lastmile_qr_scan"}, "fusion_lon": 0.0, "lon": -77.02235566666667, "name": "9640dbf09cfbb169f27128e5036ade3f", "is_reserved": 0, "is_disabled": 0}, {"lat": 38.92611016666667, "fusion_lat": 0.0, "type": "electric_scooter", "bike_id": "916bfbd68ddda61fcac196ab3a4b0e25", "rental_uris": {"ios": "https://dc.lft.to/lastmile_qr_scan", "android": "https://dc.lft.to/lastmile_qr_scan"}, "fusion_lon": 0.0, "lon": -77.02157833333334, "name": "916bfbd68ddda61fcac196ab3a4b0e25", "is_reserved": 0, "is_disabled": 0}, {"lat": 38.87716533333333, "fusion_lat": 0.0, "type": "electric_scooter", "bike_id": "28c889204a7526d009ecbec2f230ff46", "rental_uris": {"ios": "https://dc.lft.to/lastmile_qr_scan", "android": "https://dc.lft.to/lastmile_qr_scan"}, "fusion_lon": 0.0, "lon": -77.006645, "name": "28c889204a7526d009ecbec2f230ff46", "is_reserved": 0, "is_disabled": 0}, {"lat": 38.8845015, "fusion_lat": 0.0, "type": "electric_scooter", "bike_id": "1f1072ebd8a45b8c04fea5cbd5c9ea56", "rental_uris": {"ios": "https://dc.lft.to/lastmile_qr_scan", "android": "https://dc.lft.to/lastmile_qr_scan"}, "fusion_lon": 0.0, "lon": -77.0288535, "name": "1f1072ebd8a45b8c04fea5cbd5c9ea56", "is_reserved": 0, "is_disabled": 0}, {"lat": 38.9245675, "fusion_lat": 0.0, "type": "electric_scooter", "bike_id": "dbaef8233046f250951d3401cb6dab6f", "rental_uris": {"ios": "https://dc.lft.to/lastmile_qr_scan", "android": "https://dc.lft.to/lastmile_qr_scan"}, "fusion_lon": 0.0, "lon": -77.05224166666666, "name": "dbaef8233046f250951d3401cb6dab6f", "is_reserved": 0, "is_disabled": 0}, {"lat": 38.874647833333334, "fusion_lat": 0.0, "type": "electric_scooter", "bike_id": "b42433ff08317e78de7fdfc5c4d0e56e", "rental_uris": {"ios": "https://dc.lft.to/lastmile_qr_scan", "android": "https://dc.lft.to/lastmile_qr_scan"}, "fusion_lon": 0.0, "lon": -77.00544266666667, "name": "b42433ff08317e78de7fdfc5c4d0e56e", "is_reserved": 0, "is_disabled": 0}, {"lat": 38.881214, "fusion_lat": 0.0, "type": "electric_scooter", "bike_id": "973cbb689de749198b2f04bccc239cf2", "rental_uris": {"ios": "https://dc.lft.to/lastmile_qr_scan", "android": "https://dc.lft.to/lastmile_qr_scan"}, "fusion_lon": 0.0, "lon": -77.01740133333334, "name": "973cbb689de749198b2f04bccc239cf2", "is_reserved": 0, "is_disabled": 0}, {"lat": 38.92266566666667, "fusion_lat": 0.0, "type": "electric_scooter", "bike_id": "580a67271ce9c837a48260fd07c9286e", "rental_uris": {"ios": "https://dc.lft.to/lastmile_qr_scan", "android": "https://dc.lft.to/lastmile_qr_scan"}, "fusion_lon": 0.0, "lon": -77.02440216666666, "name": "580a67271ce9c837a48260fd07c9286e", "is_reserved": 0, "is_disabled": 0}, {"lat": 38.915017166666665, "fusion_lat": 0.0, "type": "electric_scooter", "bike_id": "341c82094222247e6be60d34146ca26a", "rental_uris": {"ios": "https://dc.lft.to/lastmile_qr_scan", "android": "https://dc.lft.to/lastmile_qr_scan"}, "fusion_lon": 0.0, "lon": -76.98372016666667, "name": "341c82094222247e6be60d34146ca26a", "is_reserved": 0, "is_disabled": 0}, {"lat": 38.90263483333333, "fusion_lat": 0.0, "type": "electric_scooter", "bike_id": "9593ad08217475590db39f1ca9f7ec4e", "rental_uris": {"ios": "https://dc.lft.to/lastmile_qr_scan", "android": "https://dc.lft.to/lastmile_qr_scan"}, "fusion_lon": 0.0, "lon": -77.0278515, "name": "9593ad08217475590db39f1ca9f7ec4e", "is_reserved": 0, "is_disabled": 0}, {"lat": 38.91554716666667, "fusion_lat": 0.0, "type": "electric_scooter", "bike_id": "0fa9a0b1b1b5cfb2200d23cf22e74fc6", "rental_uris": {"ios": "https://dc.lft.to/lastmile_qr_scan", "android": "https://dc.lft.to/lastmile_qr_scan"}, "fusion_lon": 0.0, "lon": -77.02842083333333, "name": "0fa9a0b1b1b5cfb2200d23cf22e74fc6", "is_reserved": 0, "is_disabled": 0}, {"lat": 38.851771166666666, "fusion_lat": 0.0, "type": "electric_scooter", "bike_id": "037b9bade2936068d46f1f072d34a068", "rental_uris": {"ios": "https://dc.lft.to/lastmile_qr_scan", "android": "https://dc.lft.to/lastmile_qr_scan"}, "fusion_lon": 0.0, "lon": -76.9957685, "name": "037b9bade2936068d46f1f072d34a068", "is_reserved": 0, "is_disabled": 0}, {"lat": 38.906796, "fusion_lat": 0.0, "type": "electric_scooter", "bike_id": "c06870317f8ed54707e804a2f55f3d86", "rental_uris": {"ios": "https://dc.lft.to/lastmile_qr_scan", "android": "https://dc.lft.to/lastmile_qr_scan"}, "fusion_lon": 0.0, "lon": -77.04479983333333, "name": "c06870317f8ed54707e804a2f55f3d86", "is_reserved": 0, "is_disabled": 0}, {"lat": 38.9164825, "fusion_lat": 0.0, "type": "electric_scooter", "bike_id": "ffe001f1c455c1181cc7ce0eb9cd791f", "rental_uris": {"ios": "https://dc.lft.to/lastmile_qr_scan", "android": "https://dc.lft.to/lastmile_qr_scan"}, "fusion_lon": 0.0, "lon": -77.02254883333333, "name": "ffe001f1c455c1181cc7ce0eb9cd791f", "is_reserved": 0, "is_disabled": 0}, {"lat": 38.8954495, "fusion_lat": 0.0, "type": "electric_scooter", "bike_id": "1c64e4a1473d05acf17090ba6a61a6df", "rental_uris": {"ios": "https://dc.lft.to/lastmile_qr_scan", "android": "https://dc.lft.to/lastmile_qr_scan"}, "fusion_lon": 0.0, "lon": -76.98337483333333, "name": "1c64e4a1473d05acf17090ba6a61a6df", "is_reserved": 0, "is_disabled": 0}, {"lat": 38.90021383333333, "fusion_lat": 0.0, "type": "electric_scooter", "bike_id": "e6de9291ea473ea612f5a92845472ee4", "rental_uris": {"ios": "https://dc.lft.to/lastmile_qr_scan", "android": "https://dc.lft.to/lastmile_qr_scan"}, "fusion_lon": 0.0, "lon": -76.99867216666667, "name": "e6de9291ea473ea612f5a92845472ee4", "is_reserved": 0, "is_disabled": 0}, {"lat": 38.915709166666666, "fusion_lat": 0.0, "type": "electric_scooter", "bike_id": "6d14ad00b090b90c778361f834decf98", "rental_uris": {"ios": "https://dc.lft.to/lastmile_qr_scan", "android": "https://dc.lft.to/lastmile_qr_scan"}, "fusion_lon": 0.0, "lon": -77.01999933333333, "name": "6d14ad00b090b90c778361f834decf98", "is_reserved": 0, "is_disabled": 0}, {"lat": 38.92673966666667, "fusion_lat": 0.0, "type": "electric_scooter", "bike_id": "a38832395ad64b206d05bf782742a1a6", "rental_uris": {"ios": "https://dc.lft.to/lastmile_qr_scan", "android": "https://dc.lft.to/lastmile_qr_scan"}, "fusion_lon": 0.0, "lon": -77.0228875, "name": "a38832395ad64b206d05bf782742a1a6", "is_reserved": 0, "is_disabled": 0}, {"lat": 38.887673, "fusion_lat": 0.0, "type": "electric_scooter", "bike_id": "63102e7f80c7e5d2200d56fefc08db23", "rental_uris": {"ios": "https://dc.lft.to/lastmile_qr_scan", "android": "https://dc.lft.to/lastmile_qr_scan"}, "fusion_lon": 0.0, "lon": -77.0018725, "name": "63102e7f80c7e5d2200d56fefc08db23", "is_reserved": 0, "is_disabled": 0}, {"lat": 38.9057075, "fusion_lat": 0.0, "type": "electric_scooter", "bike_id": "e63a49e79f8659d1b33becf9abad9d64", "rental_uris": {"ios": "https://dc.lft.to/lastmile_qr_scan", "android": "https://dc.lft.to/lastmile_qr_scan"}, "fusion_lon": 0.0, "lon": -77.00602483333333, "name": "e63a49e79f8659d1b33becf9abad9d64", "is_reserved": 0, "is_disabled": 0}, {"lat": 38.89198316666667, "fusion_lat": 0.0, "type": "electric_scooter", "bike_id": "b26769b3a93b906171091ee3cf20f649", "rental_uris": {"ios": "https://dc.lft.to/lastmile_qr_scan", "android": "https://dc.lft.to/lastmile_qr_scan"}, "fusion_lon": 0.0, "lon": -77.002919, "name": "b26769b3a93b906171091ee3cf20f649", "is_reserved": 0, "is_disabled": 0}, {"lat": 38.91052783333333, "fusion_lat": 0.0, "type": "electric_scooter", "bike_id": "078dcd99ac69558efadf1724f6addd17", "rental_uris": {"ios": "https://dc.lft.to/lastmile_qr_scan", "android": "https://dc.lft.to/lastmile_qr_scan"}, "fusion_lon": 0.0, "lon": -77.043377, "name": "078dcd99ac69558efadf1724f6addd17", "is_reserved": 0, "is_disabled": 0}, {"lat": 38.923342166666664, "fusion_lat": 0.0, "type": "electric_scooter", "bike_id": "4ba503226f814fe53c2131ffce9b5f1a", "rental_uris": {"ios": "https://dc.lft.to/lastmile_qr_scan", "android": "https://dc.lft.to/lastmile_qr_scan"}, "fusion_lon": 0.0, "lon": -77.03040783333333, "name": "4ba503226f814fe53c2131ffce9b5f1a", "is_reserved": 0, "is_disabled": 0}, {"lat": 38.898315333333336, "fusion_lat": 0.0, "type": "electric_scooter", "bike_id": "36363527dbf591fd26985131eaad1ee4", "rental_uris": {"ios": "https://dc.lft.to/lastmile_qr_scan", "android": "https://dc.lft.to/lastmile_qr_scan"}, "fusion_lon": 0.0, "lon": -77.03149066666667, "name": "36363527dbf591fd26985131eaad1ee4", "is_reserved": 0, "is_disabled": 0}, {"lat": 38.91018733333333, "fusion_lat": 0.0, "type": "electric_scooter", "bike_id": "8640e0b0af20c4ed01a1531fca492d47", "rental_uris": {"ios": "https://dc.lft.to/lastmile_qr_scan", "android": "https://dc.lft.to/lastmile_qr_scan"}, "fusion_lon": 0.0, "lon": -77.01657466666667, "name": "8640e0b0af20c4ed01a1531fca492d47", "is_reserved": 0, "is_disabled": 0}, {"lat": 38.924594, "fusion_lat": 0.0, "type": "electric_scooter", "bike_id": "24bda45620e6d6746031465ed53e4b66", "rental_uris": {"ios": "https://dc.lft.to/lastmile_qr_scan", "android": "https://dc.lft.to/lastmile_qr_scan"}, "fusion_lon": 0.0, "lon": -77.040259, "name": "24bda45620e6d6746031465ed53e4b66", "is_reserved": 0, "is_disabled": 0}, {"lat": 38.92407433333333, "fusion_lat": 0.0, "type": "electric_scooter", "bike_id": "a5496ad12b2fb7d5c6bf164be192f704", "rental_uris": {"ios": "https://dc.lft.to/lastmile_qr_scan", "android": "https://dc.lft.to/lastmile_qr_scan"}, "fusion_lon": 0.0, "lon": -77.021335, "name": "a5496ad12b2fb7d5c6bf164be192f704", "is_reserved": 0, "is_disabled": 0}, {"lat": 38.9182415, "fusion_lat": 0.0, "type": "electric_scooter", "bike_id": "0ccce326f251e2d1b65fd06128a5e816", "rental_uris": {"ios": "https://dc.lft.to/lastmile_qr_scan", "android": "https://dc.lft.to/lastmile_qr_scan"}, "fusion_lon": 0.0, "lon": -77.02417383333334, "name": "0ccce326f251e2d1b65fd06128a5e816", "is_reserved": 0, "is_disabled": 0}, {"lat": 38.925031833333335, "fusion_lat": 0.0, "type": "electric_scooter", "bike_id": "7dbf1330b491a2a90cb235e2ed6da6d8", "rental_uris": {"ios": "https://dc.lft.to/lastmile_qr_scan", "android": "https://dc.lft.to/lastmile_qr_scan"}, "fusion_lon": 0.0, "lon": -77.02269066666666, "name": "7dbf1330b491a2a90cb235e2ed6da6d8", "is_reserved": 0, "is_disabled": 0}, {"lat": 38.888248833333336, "fusion_lat": 0.0, "type": "electric_scooter", "bike_id": "c6c68043b08142b17bc8a69f7ca1f4eb", "rental_uris": {"ios": "https://dc.lft.to/lastmile_qr_scan", "android": "https://dc.lft.to/lastmile_qr_scan"}, "fusion_lon": 0.0, "lon": -76.9771945, "name": "c6c68043b08142b17bc8a69f7ca1f4eb", "is_reserved": 0, "is_disabled": 0}, {"lat": 38.955948666666664, "fusion_lat": 0.0, "type": "electric_bike", "bike_id": "789975fe85f1b2c5a97110dde47e7f65", "rental_uris": {"ios": "https://dc.lft.to/lastmile_qr_scan", "android": "https://dc.lft.to/lastmile_qr_scan"}, "fusion_lon": 0.0, "lon": -77.01007133333333, "name": "789975fe85f1b2c5a97110dde47e7f65", "is_reserved": 0, "is_disabled": 0}, {"lat": 38.8944325, "fusion_lat": 0.0, "type": "electric_scooter", "bike_id": "fa6bd94bea52f93465bf15e561c81076", "rental_uris": {"ios": "https://dc.lft.to/lastmile_qr_scan", "android": "https://dc.lft.to/lastmile_qr_scan"}, "fusion_lon": 0.0, "lon": -76.978081, "name": "fa6bd94bea52f93465bf15e561c81076", "is_reserved": 0, "is_disabled": 0}, {"lat": 38.904745, "fusion_lat": 0.0, "type": "electric_scooter", "bike_id": "219b0e3b157c9391489bf8c9f1856115", "rental_uris": {"ios": "https://dc.lft.to/lastmile_qr_scan", "android": "https://dc.lft.to/lastmile_qr_scan"}, "fusion_lon": 0.0, "lon": -77.03554016666666, "name": "219b0e3b157c9391489bf8c9f1856115", "is_reserved": 0, "is_disabled": 0}, {"lat": 38.921515166666666, "fusion_lat": 0.0, "type": "electric_scooter", "bike_id": "a6be164557aa64ab50cd392c912963e0", "rental_uris": {"ios": "https://dc.lft.to/lastmile_qr_scan", "android": "https://dc.lft.to/lastmile_qr_scan"}, "fusion_lon": 0.0, "lon": -77.03867783333334, "name": "a6be164557aa64ab50cd392c912963e0", "is_reserved": 0, "is_disabled": 0}, {"lat": 38.95636666666667, "fusion_lat": 0.0, "type": "electric_scooter", "bike_id": "c61a0c74965e7cc0db4086cf332b9de6", "rental_uris": {"ios": "https://dc.lft.to/lastmile_qr_scan", "android": "https://dc.lft.to/lastmile_qr_scan"}, "fusion_lon": 0.0, "lon": -77.03302633333334, "name": "c61a0c74965e7cc0db4086cf332b9de6", "is_reserved": 0, "is_disabled": 0}, {"lat": 38.89221833333333, "fusion_lat": 0.0, "type": "electric_scooter", "bike_id": "49e7bf2bd0de18528ae72bea7dd2dec6", "rental_uris": {"ios": "https://dc.lft.to/lastmile_qr_scan", "android": "https://dc.lft.to/lastmile_qr_scan"}, "fusion_lon": 0.0, "lon": -77.044679, "name": "49e7bf2bd0de18528ae72bea7dd2dec6", "is_reserved": 0, "is_disabled": 0}, {"lat": 38.91691516666667, "fusion_lat": 0.0, "type": "electric_scooter", "bike_id": "1b4649b7a00c1a31c9cb98617cc7af81", "rental_uris": {"ios": "https://dc.lft.to/lastmile_qr_scan", "android": "https://dc.lft.to/lastmile_qr_scan"}, "fusion_lon": 0.0, "lon": -77.02871383333333, "name": "1b4649b7a00c1a31c9cb98617cc7af81", "is_reserved": 0, "is_disabled": 0}, {"lat": 38.90581, "fusion_lat": 0.0, "type": "electric_scooter", "bike_id": "1e5d468413aa7978e77e24b0f5e7d562", "rental_uris": {"ios": "https://dc.lft.to/lastmile_qr_scan", "android": "https://dc.lft.to/lastmile_qr_scan"}, "fusion_lon": 0.0, "lon": -77.04321866666666, "name": "1e5d468413aa7978e77e24b0f5e7d562", "is_reserved": 0, "is_disabled": 0}, {"lat": 38.9319, "fusion_lat": 0.0, "type": "electric_scooter", "bike_id": "fb043559330fd31a7b172ee44ff2c695", "rental_uris": {"ios": "https://dc.lft.to/lastmile_qr_scan", "android": "https://dc.lft.to/lastmile_qr_scan"}, "fusion_lon": 0.0, "lon": -77.03461166666666, "name": "fb043559330fd31a7b172ee44ff2c695", "is_reserved": 0, "is_disabled": 0}, {"lat": 38.86269583333333, "fusion_lat": 0.0, "type": "electric_scooter", "bike_id": "266ed7b089d252f22ae642f409fcb2aa", "rental_uris": {"ios": "https://dc.lft.to/lastmile_qr_scan", "android": "https://dc.lft.to/lastmile_qr_scan"}, "fusion_lon": 0.0, "lon": -76.9953305, "name": "266ed7b089d252f22ae642f409fcb2aa", "is_reserved": 0, "is_disabled": 0}, {"lat": 38.9361785, "fusion_lat": 0.0, "type": "electric_scooter", "bike_id": "1dc5aadbcd479c6612c935295dd776f8", "rental_uris": {"ios": "https://dc.lft.to/lastmile_qr_scan", "android": "https://dc.lft.to/lastmile_qr_scan"}, "fusion_lon": 0.0, "lon": -77.03188983333334, "name": "1dc5aadbcd479c6612c935295dd776f8", "is_reserved": 0, "is_disabled": 0}, {"lat": 38.939058, "fusion_lat": 0.0, "type": "electric_scooter", "bike_id": "2ba82b307046f2f936c9a4c8c5a8f107", "rental_uris": {"ios": "https://dc.lft.to/lastmile_qr_scan", "android": "https://dc.lft.to/lastmile_qr_scan"}, "fusion_lon": 0.0, "lon": -77.02483066666667, "name": "2ba82b307046f2f936c9a4c8c5a8f107", "is_reserved": 0, "is_disabled": 0}, {"lat": 38.96082883333333, "fusion_lat": 0.0, "type": "electric_scooter", "bike_id": "cb81d7558d6b9a7c3484654978e4feda", "rental_uris": {"ios": "https://dc.lft.to/lastmile_qr_scan", "android": "https://dc.lft.to/lastmile_qr_scan"}, "fusion_lon": 0.0, "lon": -77.0288355, "name": "cb81d7558d6b9a7c3484654978e4feda", "is_reserved": 0, "is_disabled": 0}, {"lat": 38.90290816666667, "fusion_lat": 0.0, "type": "electric_scooter", "bike_id": "32d0ecef431418cec22e8f9df1d21932", "rental_uris": {"ios": "https://dc.lft.to/lastmile_qr_scan", "android": "https://dc.lft.to/lastmile_qr_scan"}, "fusion_lon": 0.0, "lon": -77.040776, "name": "32d0ecef431418cec22e8f9df1d21932", "is_reserved": 0, "is_disabled": 0}, {"lat": 38.91030516666667, "fusion_lat": 0.0, "type": "electric_scooter", "bike_id": "a9346584efef551197cc230b30ccbcef", "rental_uris": {"ios": "https://dc.lft.to/lastmile_qr_scan", "android": "https://dc.lft.to/lastmile_qr_scan"}, "fusion_lon": 0.0, "lon": -77.02927966666667, "name": "a9346584efef551197cc230b30ccbcef", "is_reserved": 0, "is_disabled": 0}, {"lat": 38.87663283333333, "fusion_lat": 0.0, "type": "electric_scooter", "bike_id": "83788a4820fec8f82076d2616aeeea9c", "rental_uris": {"ios": "https://dc.lft.to/lastmile_qr_scan", "android": "https://dc.lft.to/lastmile_qr_scan"}, "fusion_lon": 0.0, "lon": -76.997938, "name": "83788a4820fec8f82076d2616aeeea9c", "is_reserved": 0, "is_disabled": 0}, {"lat": 38.892687333333335, "fusion_lat": 0.0, "type": "electric_scooter", "bike_id": "01d72f75196f2bcda63c11eaa8374d86", "rental_uris": {"ios": "https://dc.lft.to/lastmile_qr_scan", "android": "https://dc.lft.to/lastmile_qr_scan"}, "fusion_lon": 0.0, "lon": -77.00355283333333, "name": "01d72f75196f2bcda63c11eaa8374d86", "is_reserved": 0, "is_disabled": 0}, {"lat": 38.96179566666667, "fusion_lat": 0.0, "type": "electric_scooter", "bike_id": "8570357f47c102990f63bdf5e467af18", "rental_uris": {"ios": "https://dc.lft.to/lastmile_qr_scan", "android": "https://dc.lft.to/lastmile_qr_scan"}, "fusion_lon": 0.0, "lon": -77.01434083333334, "name": "8570357f47c102990f63bdf5e467af18", "is_reserved": 0, "is_disabled": 0}, {"lat": 38.80981416666667, "fusion_lat": 0.0, "type": "electric_bike", "bike_id": "de454886714af311b971dd40561287b5", "rental_uris": {"ios": "https://dc.lft.to/lastmile_qr_scan", "android": "https://dc.lft.to/lastmile_qr_scan"}, "fusion_lon": 0.0, "lon": -77.07657133333333, "name": "de454886714af311b971dd40561287b5", "is_reserved": 0, "is_disabled": 0}, {"lat": 38.8918595, "fusion_lat": 0.0, "type": "electric_scooter", "bike_id": "aa7a6325e4d54b0f11341c5d73cde7b9", "rental_uris": {"ios": "https://dc.lft.to/lastmile_qr_scan", "android": "https://dc.lft.to/lastmile_qr_scan"}, "fusion_lon": 0.0, "lon": -77.0033595, "name": "aa7a6325e4d54b0f11341c5d73cde7b9", "is_reserved": 0, "is_disabled": 0}, {"lat": 38.924126333333334, "fusion_lat": 0.0, "type": "electric_scooter", "bike_id": "cf3585344f3deea1aa7434672ad6f339", "rental_uris": {"ios": "https://dc.lft.to/lastmile_qr_scan", "android": "https://dc.lft.to/lastmile_qr_scan"}, "fusion_lon": 0.0, "lon": -77.02002433333334, "name": "cf3585344f3deea1aa7434672ad6f339", "is_reserved": 0, "is_disabled": 0}, {"lat": 38.9166135, "fusion_lat": 0.0, "type": "electric_scooter", "bike_id": "ae7da3f41d83aa08b6f5afe55332a015", "rental_uris": {"ios": "https://dc.lft.to/lastmile_qr_scan", "android": "https://dc.lft.to/lastmile_qr_scan"}, "fusion_lon": 0.0, "lon": -77.02463383333334, "name": "ae7da3f41d83aa08b6f5afe55332a015", "is_reserved": 0, "is_disabled": 0}, {"lat": 38.921563, "fusion_lat": 0.0, "type": "electric_scooter", "bike_id": "95e89437f3e66323a5323b254194afea", "rental_uris": {"ios": "https://dc.lft.to/lastmile_qr_scan", "android": "https://dc.lft.to/lastmile_qr_scan"}, "fusion_lon": 0.0, "lon": -77.0339975, "name": "95e89437f3e66323a5323b254194afea", "is_reserved": 0, "is_disabled": 0}, {"lat": 38.89230516666667, "fusion_lat": 0.0, "type": "electric_scooter", "bike_id": "81e8165095b28deceba1daae3c259033", "rental_uris": {"ios": "https://dc.lft.to/lastmile_qr_scan", "android": "https://dc.lft.to/lastmile_qr_scan"}, "fusion_lon": 0.0, "lon": -77.022061, "name": "81e8165095b28deceba1daae3c259033", "is_reserved": 0, "is_disabled": 0}, {"lat": 38.892284833333335, "fusion_lat": 0.0, "type": "electric_scooter", "bike_id": "350d5219311675c72477402d8dfc47a2", "rental_uris": {"ios": "https://dc.lft.to/lastmile_qr_scan", "android": "https://dc.lft.to/lastmile_qr_scan"}, "fusion_lon": 0.0, "lon": -77.04893216666666, "name": "350d5219311675c72477402d8dfc47a2", "is_reserved": 0, "is_disabled": 0}, {"lat": 38.89582033333333, "fusion_lat": 0.0, "type": "electric_scooter", "bike_id": "eb633601afa1c20dfbcc16a468d3b531", "rental_uris": {"ios": "https://dc.lft.to/lastmile_qr_scan", "android": "https://dc.lft.to/lastmile_qr_scan"}, "fusion_lon": 0.0, "lon": -76.9831565, "name": "eb633601afa1c20dfbcc16a468d3b531", "is_reserved": 0, "is_disabled": 0}, {"lat": 38.949682, "fusion_lat": 0.0, "type": "electric_scooter", "bike_id": "5d4f5f583de13699d28504795c5ae2ae", "rental_uris": {"ios": "https://dc.lft.to/lastmile_qr_scan", "android": "https://dc.lft.to/lastmile_qr_scan"}, "fusion_lon": 0.0, "lon": -77.06653733333333, "name": "5d4f5f583de13699d28504795c5ae2ae", "is_reserved": 0, "is_disabled": 0}, {"lat": 38.926654666666664, "fusion_lat": 0.0, "type": "electric_scooter", "bike_id": "8173ee08bb05e7523fed7aa870be3275", "rental_uris": {"ios": "https://dc.lft.to/lastmile_qr_scan", "android": "https://dc.lft.to/lastmile_qr_scan"}, "fusion_lon": 0.0, "lon": -77.037258, "name": "8173ee08bb05e7523fed7aa870be3275", "is_reserved": 0, "is_disabled": 0}, {"lat": 38.906705333333335, "fusion_lat": 0.0, "type": "electric_scooter", "bike_id": "bb11d2f6ec50a5d86263a13cf4e7921a", "rental_uris": {"ios": "https://dc.lft.to/lastmile_qr_scan", "android": "https://dc.lft.to/lastmile_qr_scan"}, "fusion_lon": 0.0, "lon": -77.02708016666666, "name": "bb11d2f6ec50a5d86263a13cf4e7921a", "is_reserved": 0, "is_disabled": 0}, {"lat": 38.876191166666665, "fusion_lat": 0.0, "type": "electric_scooter", "bike_id": "2d6386d8600a4f1c36d72f7e709ac8aa", "rental_uris": {"ios": "https://dc.lft.to/lastmile_qr_scan", "android": "https://dc.lft.to/lastmile_qr_scan"}, "fusion_lon": 0.0, "lon": -76.96544566666667, "name": "2d6386d8600a4f1c36d72f7e709ac8aa", "is_reserved": 0, "is_disabled": 0}, {"lat": 38.89582683333333, "fusion_lat": 0.0, "type": "electric_scooter", "bike_id": "ae500b632378e8e7dfd1699587282cc5", "rental_uris": {"ios": "https://dc.lft.to/lastmile_qr_scan", "android": "https://dc.lft.to/lastmile_qr_scan"}, "fusion_lon": 0.0, "lon": -76.98322233333333, "name": "ae500b632378e8e7dfd1699587282cc5", "is_reserved": 0, "is_disabled": 0}, {"lat": 38.90370683333333, "fusion_lat": 0.0, "type": "electric_scooter", "bike_id": "d934f8dd5a527df09f7b6e186ceb9219", "rental_uris": {"ios": "https://dc.lft.to/lastmile_qr_scan", "android": "https://dc.lft.to/lastmile_qr_scan"}, "fusion_lon": 0.0, "lon": -77.04506833333333, "name": "d934f8dd5a527df09f7b6e186ceb9219", "is_reserved": 0, "is_disabled": 0}, {"lat": 38.890437666666664, "fusion_lat": 0.0, "type": "electric_scooter", "bike_id": "bac1a8754c33156e0154bebd14654eb5", "rental_uris": {"ios": "https://dc.lft.to/lastmile_qr_scan", "android": "https://dc.lft.to/lastmile_qr_scan"}, "fusion_lon": 0.0, "lon": -76.93755583333333, "name": "bac1a8754c33156e0154bebd14654eb5", "is_reserved": 0, "is_disabled": 0}, {"lat": 38.898869833333336, "fusion_lat": 0.0, "type": "electric_scooter", "bike_id": "39cb5abb8927d9c9a31f8c10f288f184", "rental_uris": {"ios": "https://dc.lft.to/lastmile_qr_scan", "android": "https://dc.lft.to/lastmile_qr_scan"}, "fusion_lon": 0.0, "lon": -77.01208583333333, "name": "39cb5abb8927d9c9a31f8c10f288f184", "is_reserved": 0, "is_disabled": 0}, {"lat": 38.9232515, "fusion_lat": 0.0, "type": "electric_scooter", "bike_id": "e5952e3a06ae03c3f96f64bebcd30bdd", "rental_uris": {"ios": "https://dc.lft.to/lastmile_qr_scan", "android": "https://dc.lft.to/lastmile_qr_scan"}, "fusion_lon": 0.0, "lon": -77.019406, "name": "e5952e3a06ae03c3f96f64bebcd30bdd", "is_reserved": 0, "is_disabled": 0}, {"lat": 38.897475, "fusion_lat": 0.0, "type": "electric_scooter", "bike_id": "99a76078a1dd792cab2ae0f13391415e", "rental_uris": {"ios": "https://dc.lft.to/lastmile_qr_scan", "android": "https://dc.lft.to/lastmile_qr_scan"},