{"data": {"bikes": [{"bike_id": "697dd84ad07e6c64f0b34231395e598a", "lat": 38.919963333333335, "is_disabled": 0, "lon": -77.032207, "fusion_lon": 0.0, "is_reserved": 0, "fusion_lat": 0.0, "rental_uris": {"android": "https://dc.lft.to/lastmile_qr_scan", "ios": "https://dc.lft.to/lastmile_qr_scan"}, "type": "electric_scooter", "name": "697dd84ad07e6c64f0b34231395e598a"}, {"bike_id": "b0b0ee88bcd8060fb989f6f24cdcdc5b", "lat": 38.91753283333333, "is_disabled": 0, "lon": -77.02816966666667, "fusion_lon": 0.0, "is_reserved": 0, "fusion_lat": 0.0, "rental_uris": {"android": "https://dc.lft.to/lastmile_qr_scan", "ios": "https://dc.lft.to/lastmile_qr_scan"}, "type": "electric_scooter", "name": "b0b0ee88bcd8060fb989f6f24cdcdc5b"}, {"bike_id": "f3436f6f3912d6f286f8d8114ce1a2d9", "lat": 38.84283933333333, "is_disabled": 0, "lon": -76.98840366666667, "fusion_lon": 0.0, "is_reserved": 0, "fusion_lat": 0.0, "rental_uris": {"android": "https://dc.lft.to/lastmile_qr_scan", "ios": "https://dc.lft.to/lastmile_qr_scan"}, "type": "electric_bike", "name": "f3436f6f3912d6f286f8d8114ce1a2d9"}, {"bike_id": "420070ca06ef10f01a02d460622e03b8", "lat": 38.9273165, "is_disabled": 0, "lon": -77.05256983333334, "fusion_lon": 0.0, "is_reserved": 0, "fusion_lat": 0.0, "rental_uris": {"android": "https://dc.lft.to/lastmile_qr_scan", "ios": "https://dc.lft.to/lastmile_qr_scan"}, "type": "electric_scooter", "name": "420070ca06ef10f01a02d460622e03b8"}, {"bike_id": "73e3db9a0100b8b9d1289f3570768a41", "lat": 38.912685833333335, "is_disabled": 0, "lon": -77.03903966666667, "fusion_lon": 0.0, "is_reserved": 0, "fusion_lat": 0.0, "rental_uris": {"android": "https://dc.lft.to/lastmile_qr_scan", "ios": "https://dc.lft.to/lastmile_qr_scan"}, "type": "electric_scooter", "name": "73e3db9a0100b8b9d1289f3570768a41"}, {"bike_id": "ec3f9bf2f9810b14d4b248bc0ff54980", "lat": 38.92447833333333, "is_disabled": 0, "lon": -77.02021, "fusion_lon": 0.0, "is_reserved": 0, "fusion_lat": 0.0, "rental_uris": {"android": "https://dc.lft.to/lastmile_qr_scan", "ios": "https://dc.lft.to/lastmile_qr_scan"}, "type": "electric_scooter", "name": "ec3f9bf2f9810b14d4b248bc0ff54980"}, {"bike_id": "b29e991b9cab07aed39ee3a34f4c37ab", "lat": 38.9237595, "is_disabled": 0, "lon": -77.03130216666666, "fusion_lon": 0.0, "is_reserved": 0, "fusion_lat": 0.0, "rental_uris": {"android": "https://dc.lft.to/lastmile_qr_scan", "ios": "https://dc.lft.to/lastmile_qr_scan"}, "type": "electric_bike", "name": "b29e991b9cab07aed39ee3a34f4c37ab"}, {"bike_id": "1f95bf8d92f01d2df47a7b4c1e123bbe", "lat": 38.905041833333335, "is_disabled": 0, "lon": -77.02585216666667, "fusion_lon": 0.0, "is_reserved": 0, "fusion_lat": 0.0, "rental_uris": {"android": "https://dc.lft.to/lastmile_qr_scan", "ios": "https://dc.lft.to/lastmile_qr_scan"}, "type": "electric_scooter", "name": "1f95bf8d92f01d2df47a7b4c1e123bbe"}, {"bike_id": "75ecbf680d017e291b819451d9ee9e8b", "lat": 38.90595833333333, "is_disabled": 0, "lon": -77.0472145, "fusion_lon": 0.0, "is_reserved": 0, "fusion_lat": 0.0, "rental_uris": {"android": "https://dc.lft.to/lastmile_qr_scan", "ios": "https://dc.lft.to/lastmile_qr_scan"}, "type": "electric_scooter", "name": "75ecbf680d017e291b819451d9ee9e8b"}, {"bike_id": "fd19c037bc736046726e84ab0b21740a", "lat": 38.87677583333333, "is_disabled": 0, "lon": -77.01789816666667, "fusion_lon": 0.0, "is_reserved": 0, "fusion_lat": 0.0, "rental_uris": {"android": "https://dc.lft.to/lastmile_qr_scan", "ios": "https://dc.lft.to/lastmile_qr_scan"}, "type": "electric_scooter", "name": "fd19c037bc736046726e84ab0b21740a"}, {"bike_id": "2bbfbcdcd74fe9ddf70042228aff1aca", "lat": 38.93730866666667, "is_disabled": 0, "lon": -77.032686, "fusion_lon": 0.0, "is_reserved": 0, "fusion_lat": 0.0, "rental_uris": {"android": "https://dc.lft.to/lastmile_qr_scan", "ios": "https://dc.lft.to/lastmile_qr_scan"}, "type": "electric_scooter", "name": "2bbfbcdcd74fe9ddf70042228aff1aca"}, {"bike_id": "e02be303cd6da4e6e839f51cddc344de", "lat": 38.799891333333335, "is_disabled": 0, "lon": -77.12980416666667, "fusion_lon": 0.0, "is_reserved": 0, "fusion_lat": 0.0, "rental_uris": {"android": "https://dc.lft.to/lastmile_qr_scan", "ios": "https://dc.lft.to/lastmile_qr_scan"}, "type": "electric_bike", "name": "e02be303cd6da4e6e839f51cddc344de"}, {"bike_id": "3606c0066e28260bfdaefb37e971530f", "lat": 38.924788166666666, "is_disabled": 0, "lon": -77.03048416666667, "fusion_lon": 0.0, "is_reserved": 0, "fusion_lat": 0.0, "rental_uris": {"android": "https://dc.lft.to/lastmile_qr_scan", "ios": "https://dc.lft.to/lastmile_qr_scan"}, "type": "electric_scooter", "name": "3606c0066e28260bfdaefb37e971530f"}, {"bike_id": "632f96d1ef3f1760a15d72ed4b2b6c81", "lat": 38.923367, "is_disabled": 0, "lon": -77.03657183333333, "fusion_lon": 0.0, "is_reserved": 0, "fusion_lat": 0.0, "rental_uris": {"android": "https://dc.lft.to/lastmile_qr_scan", "ios": "https://dc.lft.to/lastmile_qr_scan"}, "type": "electric_scooter", "name": "632f96d1ef3f1760a15d72ed4b2b6c81"}, {"bike_id": "0d580d58493c9f3a0b2834e7c875886d", "lat": 38.91740216666667, "is_disabled": 0, "lon": -77.069032, "fusion_lon": 0.0, "is_reserved": 0, "fusion_lat": 0.0, "rental_uris": {"android": "https://dc.lft.to/lastmile_qr_scan", "ios": "https://dc.lft.to/lastmile_qr_scan"}, "type": "electric_scooter", "name": "0d580d58493c9f3a0b2834e7c875886d"}, {"bike_id": "1a759b6e5e6dfde1f1685bd0f33a8962", "lat": 38.881112333333334, "is_disabled": 0, "lon": -77.01670783333333, "fusion_lon": 0.0, "is_reserved": 0, "fusion_lat": 0.0, "rental_uris": {"android": "https://dc.lft.to/lastmile_qr_scan", "ios": "https://dc.lft.to/lastmile_qr_scan"}, "type": "electric_scooter", "name": "1a759b6e5e6dfde1f1685bd0f33a8962"}, {"bike_id": "91c7fd5e5bc7faf7768a89c8a5277ae5", "lat": 38.9542955, "is_disabled": 0, "lon": -77.01850966666667, "fusion_lon": 0.0, "is_reserved": 0, "fusion_lat": 0.0, "rental_uris": {"android": "https://dc.lft.to/lastmile_qr_scan", "ios": "https://dc.lft.to/lastmile_qr_scan"}, "type": "electric_scooter", "name": "91c7fd5e5bc7faf7768a89c8a5277ae5"}, {"bike_id": "6662845780ce24e5841518ef3b581ce1", "lat": 38.92070066666667, "is_disabled": 0, "lon": -77.0321585, "fusion_lon": 0.0, "is_reserved": 0, "fusion_lat": 0.0, "rental_uris": {"android": "https://dc.lft.to/lastmile_qr_scan", "ios": "https://dc.lft.to/lastmile_qr_scan"}, "type": "electric_scooter", "name": "6662845780ce24e5841518ef3b581ce1"}, {"bike_id": "46036bf77a6ef9df4ffb65096bde4e1d", "lat": 38.907299333333334, "is_disabled": 0, "lon": -77.053256, "fusion_lon": 0.0, "is_reserved": 0, "fusion_lat": 0.0, "rental_uris": {"android": "https://dc.lft.to/lastmile_qr_scan", "ios": "https://dc.lft.to/lastmile_qr_scan"}, "type": "electric_scooter", "name": "46036bf77a6ef9df4ffb65096bde4e1d"}, {"bike_id": "8b618aae449224a61a1b1ca998f131db", "lat": 38.922753, "is_disabled": 0, "lon": -77.01892383333333, "fusion_lon": 0.0, "is_reserved": 0, "fusion_lat": 0.0, "rental_uris": {"android": "https://dc.lft.to/lastmile_qr_scan", "ios": "https://dc.lft.to/lastmile_qr_scan"}, "type": "electric_scooter", "name": "8b618aae449224a61a1b1ca998f131db"}, {"bike_id": "8354c414106bd3726c191a28771c8697", "lat": 38.90813966666666, "is_disabled": 0, "lon": -77.03915266666667, "fusion_lon": 0.0, "is_reserved": 0, "fusion_lat": 0.0, "rental_uris": {"android": "https://dc.lft.to/lastmile_qr_scan", "ios": "https://dc.lft.to/lastmile_qr_scan"}, "type": "electric_scooter", "name": "8354c414106bd3726c191a28771c8697"}, {"bike_id": "7916039a6dafe80dd83f0b5bd6be610b", "lat": 38.923955, "is_disabled": 0, "lon": -77.04221366666667, "fusion_lon": 0.0, "is_reserved": 0, "fusion_lat": 0.0, "rental_uris": {"android": "https://dc.lft.to/lastmile_qr_scan", "ios": "https://dc.lft.to/lastmile_qr_scan"}, "type": "electric_scooter", "name": "7916039a6dafe80dd83f0b5bd6be610b"}, {"bike_id": "72709e7b69c24d30ec9e76e4144d7e2a", "lat": 38.936778333333336, "is_disabled": 0, "lon": -77.03285383333333, "fusion_lon": 0.0, "is_reserved": 0, "fusion_lat": 0.0, "rental_uris": {"android": "https://dc.lft.to/lastmile_qr_scan", "ios": "https://dc.lft.to/lastmile_qr_scan"}, "type": "electric_scooter", "name": "72709e7b69c24d30ec9e76e4144d7e2a"}, {"bike_id": "f1527b6592844d9311fdd9a862b8299b", "lat": 38.921784833333334, "is_disabled": 0, "lon": -77.02107283333333, "fusion_lon": 0.0, "is_reserved": 0, "fusion_lat": 0.0, "rental_uris": {"android": "https://dc.lft.to/lastmile_qr_scan", "ios": "https://dc.lft.to/lastmile_qr_scan"}, "type": "electric_scooter", "name": "f1527b6592844d9311fdd9a862b8299b"}, {"bike_id": "552511894cadc578176ad873c92549f3", "lat": 38.96382666666667, "is_disabled": 0, "lon": -77.01200766666666, "fusion_lon": 0.0, "is_reserved": 0, "fusion_lat": 0.0, "rental_uris": {"android": "https://dc.lft.to/lastmile_qr_scan", "ios": "https://dc.lft.to/lastmile_qr_scan"}, "type": "electric_bike", "name": "552511894cadc578176ad873c92549f3"}, {"bike_id": "f5b6e890514455f28abc61cb6b02153e", "lat": 38.90958533333333, "is_disabled": 0, "lon": -77.03429116666666, "fusion_lon": 0.0, "is_reserved": 0, "fusion_lat": 0.0, "rental_uris": {"android": "https://dc.lft.to/lastmile_qr_scan", "ios": "https://dc.lft.to/lastmile_qr_scan"}, "type": "electric_scooter", "name": "f5b6e890514455f28abc61cb6b02153e"}, {"bike_id": "affb0578f41e3eb2f359ab9bb7f18814", "lat": 38.89523533333333, "is_disabled": 0, "lon": -77.021885, "fusion_lon": 0.0, "is_reserved": 0, "fusion_lat": 0.0, "rental_uris": {"android": "https://dc.lft.to/lastmile_qr_scan", "ios": "https://dc.lft.to/lastmile_qr_scan"}, "type": "electric_scooter", "name": "affb0578f41e3eb2f359ab9bb7f18814"}, {"bike_id": "9f1edb478ed8853bbe7d26c52c578323", "lat": 38.8959475, "is_disabled": 0, "lon": -77.028037, "fusion_lon": 0.0, "is_reserved": 0, "fusion_lat": 0.0, "rental_uris": {"android": "https://dc.lft.to/lastmile_qr_scan", "ios": "https://dc.lft.to/lastmile_qr_scan"}, "type": "electric_scooter", "name": "9f1edb478ed8853bbe7d26c52c578323"}, {"bike_id": "40d4bc33fcababcededf88d9c2cbd358", "lat": 38.927060833333336, "is_disabled": 0, "lon": -77.02340966666667, "fusion_lon": 0.0, "is_reserved": 0, "fusion_lat": 0.0, "rental_uris": {"android": "https://dc.lft.to/lastmile_qr_scan", "ios": "https://dc.lft.to/lastmile_qr_scan"}, "type": "electric_scooter", "name": "40d4bc33fcababcededf88d9c2cbd358"}, {"bike_id": "230fe88d56955efd465bc41009d43b0f", "lat": 38.915861, "is_disabled": 0, "lon": -77.04488583333334, "fusion_lon": 0.0, "is_reserved": 0, "fusion_lat": 0.0, "rental_uris": {"android": "https://dc.lft.to/lastmile_qr_scan", "ios": "https://dc.lft.to/lastmile_qr_scan"}, "type": "electric_scooter", "name": "230fe88d56955efd465bc41009d43b0f"}, {"bike_id": "e5c34f4fd685bd3828f79cd569830260", "lat": 38.91551033333333, "is_disabled": 0, "lon": -77.02035866666667, "fusion_lon": 0.0, "is_reserved": 0, "fusion_lat": 0.0, "rental_uris": {"android": "https://dc.lft.to/lastmile_qr_scan", "ios": "https://dc.lft.to/lastmile_qr_scan"}, "type": "electric_scooter", "name": "e5c34f4fd685bd3828f79cd569830260"}, {"bike_id": "0eca4726ee368474d6792a4ad7a5afe2", "lat": 38.92598233333333, "is_disabled": 0, "lon": -77.04429516666667, "fusion_lon": 0.0, "is_reserved": 0, "fusion_lat": 0.0, "rental_uris": {"android": "https://dc.lft.to/lastmile_qr_scan", "ios": "https://dc.lft.to/lastmile_qr_scan"}, "type": "electric_scooter", "name": "0eca4726ee368474d6792a4ad7a5afe2"}, {"bike_id": "1b7f2d7ec625f6e98b0591b0d1b9ff48", "lat": 38.90378166666667, "is_disabled": 0, "lon": -77.0480415, "fusion_lon": 0.0, "is_reserved": 0, "fusion_lat": 0.0, "rental_uris": {"android": "https://dc.lft.to/lastmile_qr_scan", "ios": "https://dc.lft.to/lastmile_qr_scan"}, "type": "electric_scooter", "name": "1b7f2d7ec625f6e98b0591b0d1b9ff48"}, {"bike_id": "11d0fbcbed61e1f77260ac96e0af5472", "lat": 38.839950333333334, "is_disabled": 0, "lon": -76.977027, "fusion_lon": 0.0, "is_reserved": 0, "fusion_lat": 0.0, "rental_uris": {"android": "https://dc.lft.to/lastmile_qr_scan", "ios": "https://dc.lft.to/lastmile_qr_scan"}, "type": "electric_bike", "name": "11d0fbcbed61e1f77260ac96e0af5472"}, {"bike_id": "9c5d54d5b948f4c586110e284ae35e44", "lat": 38.89884466666667, "is_disabled": 0, "lon": -77.00918833333333, "fusion_lon": 0.0, "is_reserved": 0, "fusion_lat": 0.0, "rental_uris": {"android": "https://dc.lft.to/lastmile_qr_scan", "ios": "https://dc.lft.to/lastmile_qr_scan"}, "type": "electric_scooter", "name": "9c5d54d5b948f4c586110e284ae35e44"}, {"bike_id": "cb858749e823d7d2d511aa6e6a146941", "lat": 38.8718015, "is_disabled": 0, "lon": -77.00609133333333, "fusion_lon": 0.0, "is_reserved": 0, "fusion_lat": 0.0, "rental_uris": {"android": "https://dc.lft.to/lastmile_qr_scan", "ios": "https://dc.lft.to/lastmile_qr_scan"}, "type": "electric_scooter", "name": "cb858749e823d7d2d511aa6e6a146941"}, {"bike_id": "b1127bdff80aea6f8fff467de7bb5043", "lat": 38.9097135, "is_disabled": 0, "lon": -77.0344125, "fusion_lon": 0.0, "is_reserved": 0, "fusion_lat": 0.0, "rental_uris": {"android": "https://dc.lft.to/lastmile_qr_scan", "ios": "https://dc.lft.to/lastmile_qr_scan"}, "type": "electric_scooter", "name": "b1127bdff80aea6f8fff467de7bb5043"}, {"bike_id": "3c56dc80ceb72ffe8b7061f82240b09b", "lat": 38.906621333333334, "is_disabled": 0, "lon": -76.979395, "fusion_lon": 0.0, "is_reserved": 0, "fusion_lat": 0.0, "rental_uris": {"android": "https://dc.lft.to/lastmile_qr_scan", "ios": "https://dc.lft.to/lastmile_qr_scan"}, "type": "electric_scooter", "name": "3c56dc80ceb72ffe8b7061f82240b09b"}, {"bike_id": "8b3512fbc1abb09cfb34759db3476c34", "lat": 38.9133005, "is_disabled": 0, "lon": -77.03334516666666, "fusion_lon": 0.0, "is_reserved": 0, "fusion_lat": 0.0, "rental_uris": {"android": "https://dc.lft.to/lastmile_qr_scan", "ios": "https://dc.lft.to/lastmile_qr_scan"}, "type": "electric_scooter", "name": "8b3512fbc1abb09cfb34759db3476c34"}, {"bike_id": "a0d800de91a92896cadd9401106e1528", "lat": 38.887371333333334, "is_disabled": 0, "lon": -77.01529983333333, "fusion_lon": 0.0, "is_reserved": 0, "fusion_lat": 0.0, "rental_uris": {"android": "https://dc.lft.to/lastmile_qr_scan", "ios": "https://dc.lft.to/lastmile_qr_scan"}, "type": "electric_scooter", "name": "a0d800de91a92896cadd9401106e1528"}, {"bike_id": "969e059b6f6fc808946578087bc07155", "lat": 38.898261, "is_disabled": 0, "lon": -77.02997433333333, "fusion_lon": 0.0, "is_reserved": 0, "fusion_lat": 0.0, "rental_uris": {"android": "https://dc.lft.to/lastmile_qr_scan", "ios": "https://dc.lft.to/lastmile_qr_scan"}, "type": "electric_scooter", "name": "969e059b6f6fc808946578087bc07155"}, {"bike_id": "d3fa7807e98bf7f0074a6b613605faab", "lat": 38.931032, "is_disabled": 0, "lon": -77.03262916666667, "fusion_lon": 0.0, "is_reserved": 0, "fusion_lat": 0.0, "rental_uris": {"android": "https://dc.lft.to/lastmile_qr_scan", "ios": "https://dc.lft.to/lastmile_qr_scan"}, "type": "electric_scooter", "name": "d3fa7807e98bf7f0074a6b613605faab"}, {"bike_id": "252eeb4cf53e0ed88e215eb04fe4a199", "lat": 38.8973085, "is_disabled": 0, "lon": -77.05477966666666, "fusion_lon": 0.0, "is_reserved": 0, "fusion_lat": 0.0, "rental_uris": {"android": "https://dc.lft.to/lastmile_qr_scan", "ios": "https://dc.lft.to/lastmile_qr_scan"}, "type": "electric_scooter", "name": "252eeb4cf53e0ed88e215eb04fe4a199"}, {"bike_id": "c828438f1c473153f890b8be6acdd69c", "lat": 38.915444, "is_disabled": 0, "lon": -77.03867866666667, "fusion_lon": 0.0, "is_reserved": 0, "fusion_lat": 0.0, "rental_uris": {"android": "https://dc.lft.to/lastmile_qr_scan", "ios": "https://dc.lft.to/lastmile_qr_scan"}, "type": "electric_scooter", "name": "c828438f1c473153f890b8be6acdd69c"}, {"bike_id": "aa5a253b5296550265471a1753b819c9", "lat": 38.8949855, "is_disabled": 0, "lon": -77.00951416666666, "fusion_lon": 0.0, "is_reserved": 0, "fusion_lat": 0.0, "rental_uris": {"android": "https://dc.lft.to/lastmile_qr_scan", "ios": "https://dc.lft.to/lastmile_qr_scan"}, "type": "electric_scooter", "name": "aa5a253b5296550265471a1753b819c9"}, {"bike_id": "766022e8f85816a2542e55bce1de7363", "lat": 38.89224133333333, "is_disabled": 0, "lon": -77.04506266666667, "fusion_lon": 0.0, "is_reserved": 0, "fusion_lat": 0.0, "rental_uris": {"android": "https://dc.lft.to/lastmile_qr_scan", "ios": "https://dc.lft.to/lastmile_qr_scan"}, "type": "electric_scooter", "name": "766022e8f85816a2542e55bce1de7363"}, {"bike_id": "20351aed3c52adbd178c45e6671351dc", "lat": 38.92949266666667, "is_disabled": 0, "lon": -77.04406666666667, "fusion_lon": 0.0, "is_reserved": 0, "fusion_lat": 0.0, "rental_uris": {"android": "https://dc.lft.to/lastmile_qr_scan", "ios": "https://dc.lft.to/lastmile_qr_scan"}, "type": "electric_scooter", "name": "20351aed3c52adbd178c45e6671351dc"}, {"bike_id": "7550ffc25fcfc78f37aa154fd755e863", "lat": 38.890198, "is_disabled": 0, "lon": -76.9370495, "fusion_lon": 0.0, "is_reserved": 0, "fusion_lat": 0.0, "rental_uris": {"android": "https://dc.lft.to/lastmile_qr_scan", "ios": "https://dc.lft.to/lastmile_qr_scan"}, "type": "electric_scooter", "name": "7550ffc25fcfc78f37aa154fd755e863"}, {"bike_id": "cec3b47bd2ac73fdb6d085e79f262d3f", "lat": 38.8738415, "is_disabled": 0, "lon": -76.96986033333333, "fusion_lon": 0.0, "is_reserved": 0, "fusion_lat": 0.0, "rental_uris": {"android": "https://dc.lft.to/lastmile_qr_scan", "ios": "https://dc.lft.to/lastmile_qr_scan"}, "type": "electric_scooter", "name": "cec3b47bd2ac73fdb6d085e79f262d3f"}, {"bike_id": "ee5f112403089797a4f168534e8c832f", "lat": 38.841113, "is_disabled": 0, "lon": -77.07016916666667, "fusion_lon": 0.0, "is_reserved": 0, "fusion_lat": 0.0, "rental_uris": {"android": "https://dc.lft.to/lastmile_qr_scan", "ios": "https://dc.lft.to/lastmile_qr_scan"}, "type": "electric_bike", "name": "ee5f112403089797a4f168534e8c832f"}, {"bike_id": "3ebce016d498986145ba3d82a405b729", "lat": 38.899041833333335, "is_disabled": 0, "lon": -77.0488095, "fusion_lon": 0.0, "is_reserved": 0, "fusion_lat": 0.0, "rental_uris": {"android": "https://dc.lft.to/lastmile_qr_scan", "ios": "https://dc.lft.to/lastmile_qr_scan"}, "type": "electric_scooter", "name": "3ebce016d498986145ba3d82a405b729"}, {"bike_id": "5394597359b3c049d9368671808392f6", "lat": 38.8764765, "is_disabled": 0, "lon": -76.96506933333333, "fusion_lon": 0.0, "is_reserved": 0, "fusion_lat": 0.0, "rental_uris": {"android": "https://dc.lft.to/lastmile_qr_scan", "ios": "https://dc.lft.to/lastmile_qr_scan"}, "type": "electric_scooter", "name": "5394597359b3c049d9368671808392f6"}, {"bike_id": "923a9382516a9cd7b65384f76f87f169", "lat": 38.921568, "is_disabled": 0, "lon": -77.02089883333333, "fusion_lon": 0.0, "is_reserved": 0, "fusion_lat": 0.0, "rental_uris": {"android": "https://dc.lft.to/lastmile_qr_scan", "ios": "https://dc.lft.to/lastmile_qr_scan"}, "type": "electric_scooter", "name": "923a9382516a9cd7b65384f76f87f169"}, {"bike_id": "28cb48e0af09f14c4374b340f9319b35", "lat": 38.90083816666667, "is_disabled": 0, "lon": -77.02522916666666, "fusion_lon": 0.0, "is_reserved": 0, "fusion_lat": 0.0, "rental_uris": {"android": "https://dc.lft.to/lastmile_qr_scan", "ios": "https://dc.lft.to/lastmile_qr_scan"}, "type": "electric_scooter", "name": "28cb48e0af09f14c4374b340f9319b35"}, {"bike_id": "66a2c83a7e435c85e5645db1c09a7fde", "lat": 38.905068166666666, "is_disabled": 0, "lon": -77.05909516666667, "fusion_lon": 0.0, "is_reserved": 0, "fusion_lat": 0.0, "rental_uris": {"android": "https://dc.lft.to/lastmile_qr_scan", "ios": "https://dc.lft.to/lastmile_qr_scan"}, "type": "electric_scooter", "name": "66a2c83a7e435c85e5645db1c09a7fde"}, {"bike_id": "cc586f430650195a6bf9de5fd88f5150", "lat": 38.879129666666664, "is_disabled": 0, "lon": -76.98465266666666, "fusion_lon": 0.0, "is_reserved": 0, "fusion_lat": 0.0, "rental_uris": {"android": "https://dc.lft.to/lastmile_qr_scan", "ios": "https://dc.lft.to/lastmile_qr_scan"}, "type": "electric_bike", "name": "cc586f430650195a6bf9de5fd88f5150"}, {"bike_id": "7b2c32279f3e083f35006dc62d9f945d", "lat": 38.9119185, "is_disabled": 0, "lon": -76.987314, "fusion_lon": 0.0, "is_reserved": 0, "fusion_lat": 0.0, "rental_uris": {"android": "https://dc.lft.to/lastmile_qr_scan", "ios": "https://dc.lft.to/lastmile_qr_scan"}, "type": "electric_scooter", "name": "7b2c32279f3e083f35006dc62d9f945d"}, {"bike_id": "c402865a7dca4666b00cf424ede496c4", "lat": 38.91295983333333, "is_disabled": 0, "lon": -77.06143083333333, "fusion_lon": 0.0, "is_reserved": 0, "fusion_lat": 0.0, "rental_uris": {"android": "https://dc.lft.to/lastmile_qr_scan", "ios": "https://dc.lft.to/lastmile_qr_scan"}, "type": "electric_scooter", "name": "c402865a7dca4666b00cf424ede496c4"}, {"bike_id": "e9d94930abddbede0c60824fe38b8b07", "lat": 38.916692166666664, "is_disabled": 0, "lon": -77.02970666666667, "fusion_lon": 0.0, "is_reserved": 0, "fusion_lat": 0.0, "rental_uris": {"android": "https://dc.lft.to/lastmile_qr_scan", "ios": "https://dc.lft.to/lastmile_qr_scan"}, "type": "electric_scooter", "name": "e9d94930abddbede0c60824fe38b8b07"}, {"bike_id": "28717c18e80d35fe040cbf3f30035517", "lat": 38.86502266666667, "is_disabled": 0, "lon": -76.98985633333334, "fusion_lon": 0.0, "is_reserved": 0, "fusion_lat": 0.0, "rental_uris": {"android": "https://dc.lft.to/lastmile_qr_scan", "ios": "https://dc.lft.to/lastmile_qr_scan"}, "type": "electric_scooter", "name": "28717c18e80d35fe040cbf3f30035517"}, {"bike_id": "ecfd0edf8fb912bff1d4010dc105df26", "lat": 38.92034316666667, "is_disabled": 0, "lon": -77.0122455, "fusion_lon": 0.0, "is_reserved": 0, "fusion_lat": 0.0, "rental_uris": {"android": "https://dc.lft.to/lastmile_qr_scan", "ios": "https://dc.lft.to/lastmile_qr_scan"}, "type": "electric_scooter", "name": "ecfd0edf8fb912bff1d4010dc105df26"}, {"bike_id": "6f31388c0c25434dfd239b4f733591b6", "lat": 38.934396666666665, "is_disabled": 0, "lon": -77.039931, "fusion_lon": 0.0, "is_reserved": 0, "fusion_lat": 0.0, "rental_uris": {"android": "https://dc.lft.to/lastmile_qr_scan", "ios": "https://dc.lft.to/lastmile_qr_scan"}, "type": "electric_scooter", "name": "6f31388c0c25434dfd239b4f733591b6"}, {"bike_id": "5b6ab0fd4da6ec8d8e0b142fd852dbb5", "lat": 38.87426816666667, "is_disabled": 0, "lon": -77.08571316666666, "fusion_lon": 0.0, "is_reserved": 0, "fusion_lat": 0.0, "rental_uris": {"android": "https://dc.lft.to/lastmile_qr_scan", "ios": "https://dc.lft.to/lastmile_qr_scan"}, "type": "electric_bike", "name": "5b6ab0fd4da6ec8d8e0b142fd852dbb5"}, {"bike_id": "0d0f03184ac455053c0eadcea0a1047e", "lat": 38.87653566666667, "is_disabled": 0, "lon": -77.00063466666667, "fusion_lon": 0.0, "is_reserved": 0, "fusion_lat": 0.0, "rental_uris": {"android": "https://dc.lft.to/lastmile_qr_scan", "ios": "https://dc.lft.to/lastmile_qr_scan"}, "type": "electric_scooter", "name": "0d0f03184ac455053c0eadcea0a1047e"}, {"bike_id": "2d0f1466b403e9e65e70ca44de343a6e", "lat": 38.8980335, "is_disabled": 0, "lon": -77.02922266666667, "fusion_lon": 0.0, "is_reserved": 0, "fusion_lat": 0.0, "rental_uris": {"android": "https://dc.lft.to/lastmile_qr_scan", "ios": "https://dc.lft.to/lastmile_qr_scan"}, "type": "electric_scooter", "name": "2d0f1466b403e9e65e70ca44de343a6e"}, {"bike_id": "bf83f10020fd7b52773b9e8e6104c44c", "lat": 38.957053, "is_disabled": 0, "lon": -77.024099, "fusion_lon": 0.0, "is_reserved": 0, "fusion_lat": 0.0, "rental_uris": {"android": "https://dc.lft.to/lastmile_qr_scan", "ios": "https://dc.lft.to/lastmile_qr_scan"}, "type": "electric_scooter", "name": "bf83f10020fd7b52773b9e8e6104c44c"}, {"bike_id": "9f3ab22d81f1580db9612a3d463aa7a6", "lat": 38.89227416666667, "is_disabled": 0, "lon": -77.031714, "fusion_lon": 0.0, "is_reserved": 0, "fusion_lat": 0.0, "rental_uris": {"android": "https://dc.lft.to/lastmile_qr_scan", "ios": "https://dc.lft.to/lastmile_qr_scan"}, "type": "electric_scooter", "name": "9f3ab22d81f1580db9612a3d463aa7a6"}, {"bike_id": "120d0040f5f0529fdfe0fc6da1afaa68", "lat": 38.95106916666667, "is_disabled": 0, "lon": -77.0335585, "fusion_lon": 0.0, "is_reserved": 0, "fusion_lat": 0.0, "rental_uris": {"android": "https://dc.lft.to/lastmile_qr_scan", "ios": "https://dc.lft.to/lastmile_qr_scan"}, "type": "electric_scooter", "name": "120d0040f5f0529fdfe0fc6da1afaa68"}, {"bike_id": "0c439d3624ee9e09a77cafae4512fa42", "lat": 38.9361085, "is_disabled": 0, "lon": -77.03808966666666, "fusion_lon": 0.0, "is_reserved": 0, "fusion_lat": 0.0, "rental_uris": {"android": "https://dc.lft.to/lastmile_qr_scan", "ios": "https://dc.lft.to/lastmile_qr_scan"}, "type": "electric_scooter", "name": "0c439d3624ee9e09a77cafae4512fa42"}, {"bike_id": "13d06dda5aa0a944cce91e6bca6fbbb5", "lat": 38.94615983333333, "is_disabled": 0, "lon": -77.07871366666667, "fusion_lon": 0.0, "is_reserved": 0, "fusion_lat": 0.0, "rental_uris": {"android": "https://dc.lft.to/lastmile_qr_scan", "ios": "https://dc.lft.to/lastmile_qr_scan"}, "type": "electric_scooter", "name": "13d06dda5aa0a944cce91e6bca6fbbb5"}, {"bike_id": "a7864b19d67e8c82b72d5b2f528cdfa8", "lat": 38.80756816666667, "is_disabled": 0, "lon": -77.094501, "fusion_lon": 0.0, "is_reserved": 0, "fusion_lat": 0.0, "rental_uris": {"android": "https://dc.lft.to/lastmile_qr_scan", "ios": "https://dc.lft.to/lastmile_qr_scan"}, "type": "electric_bike", "name": "a7864b19d67e8c82b72d5b2f528cdfa8"}, {"bike_id": "12eacc03466060a9ec6fed42fd82abed", "lat": 38.92319283333333, "is_disabled": 0, "lon": -77.0199625, "fusion_lon": 0.0, "is_reserved": 0, "fusion_lat": 0.0, "rental_uris": {"android": "https://dc.lft.to/lastmile_qr_scan", "ios": "https://dc.lft.to/lastmile_qr_scan"}, "type": "electric_scooter", "name": "12eacc03466060a9ec6fed42fd82abed"}, {"bike_id": "c219f3410e34dd852e3c704f46745940", "lat": 38.8942155, "is_disabled": 0, "lon": -76.99959733333333, "fusion_lon": 0.0, "is_reserved": 0, "fusion_lat": 0.0, "rental_uris": {"android": "https://dc.lft.to/lastmile_qr_scan", "ios": "https://dc.lft.to/lastmile_qr_scan"}, "type": "electric_scooter", "name": "c219f3410e34dd852e3c704f46745940"}, {"bike_id": "a2b84b76cb79c78f52128cc99d81c4af", "lat": 38.90557583333333, "is_disabled": 0, "lon": -77.03245766666667, "fusion_lon": 0.0, "is_reserved": 0, "fusion_lat": 0.0, "rental_uris": {"android": "https://dc.lft.to/lastmile_qr_scan", "ios": "https://dc.lft.to/lastmile_qr_scan"}, "type": "electric_scooter", "name": "a2b84b76cb79c78f52128cc99d81c4af"}, {"bike_id": "14c0d3f4fafd9695f678480e16a4901d", "lat": 39.00006183333333, "is_disabled": 0, "lon": -76.91799966666666, "fusion_lon": 0.0, "is_reserved": 0, "fusion_lat": 0.0, "rental_uris": {"android": "https://dc.lft.to/lastmile_qr_scan", "ios": "https://dc.lft.to/lastmile_qr_scan"}, "type": "electric_bike", "name": "14c0d3f4fafd9695f678480e16a4901d"}, {"bike_id": "b8e4f4a9da7d4bfb23deb10f10f7f8cc", "lat": 38.8861, "is_disabled": 0, "lon": -77.01794616666666, "fusion_lon": 0.0, "is_reserved": 0, "fusion_lat": 0.0, "rental_uris": {"android": "https://dc.lft.to/lastmile_qr_scan", "ios": "https://dc.lft.to/lastmile_qr_scan"}, "type": "electric_scooter", "name": "b8e4f4a9da7d4bfb23deb10f10f7f8cc"}, {"bike_id": "f3c4dc96918b07895bfc4de45e317e5b", "lat": 38.8717765, "is_disabled": 0, "lon": -77.00608233333334, "fusion_lon": 0.0, "is_reserved": 0, "fusion_lat": 0.0, "rental_uris": {"android": "https://dc.lft.to/lastmile_qr_scan", "ios": "https://dc.lft.to/lastmile_qr_scan"}, "type": "electric_scooter", "name": "f3c4dc96918b07895bfc4de45e317e5b"}, {"bike_id": "64f5ebc0bd651b8277259fcc6f9637b2", "lat": 38.915733833333334, "is_disabled": 0, "lon": -77.03199316666667, "fusion_lon": 0.0, "is_reserved": 0, "fusion_lat": 0.0, "rental_uris": {"android": "https://dc.lft.to/lastmile_qr_scan", "ios": "https://dc.lft.to/lastmile_qr_scan"}, "type": "electric_scooter", "name": "64f5ebc0bd651b8277259fcc6f9637b2"}, {"bike_id": "9a4aaec541e1e0a4249580bf52351418", "lat": 38.79986016666667, "is_disabled": 0, "lon": -77.12979866666667, "fusion_lon": 0.0, "is_reserved": 0, "fusion_lat": 0.0, "rental_uris": {"android": "https://dc.lft.to/lastmile_qr_scan", "ios": "https://dc.lft.to/lastmile_qr_scan"}, "type": "electric_bike", "name": "9a4aaec541e1e0a4249580bf52351418"}, {"bike_id": "a4ad33d8a1f972ef4352cd7a5046ddf6", "lat": 38.896875666666666, "is_disabled": 0, "lon": -76.932997, "fusion_lon": 0.0, "is_reserved": 0, "fusion_lat": 0.0, "rental_uris": {"android": "https://dc.lft.to/lastmile_qr_scan", "ios": "https://dc.lft.to/lastmile_qr_scan"}, "type": "electric_scooter", "name": "a4ad33d8a1f972ef4352cd7a5046ddf6"}, {"bike_id": "d2486ccdad4f9b26f576e4077aad8f76", "lat": 38.94509033333333, "is_disabled": 0, "lon": -77.0336605, "fusion_lon": 0.0, "is_reserved": 0, "fusion_lat": 0.0, "rental_uris": {"android": "https://dc.lft.to/lastmile_qr_scan", "ios": "https://dc.lft.to/lastmile_qr_scan"}, "type": "electric_scooter", "name": "d2486ccdad4f9b26f576e4077aad8f76"}, {"bike_id": "68489ac802c4007bc29dc0d44e8088fd", "lat": 38.93430166666667, "is_disabled": 0, "lon": -77.04004666666667, "fusion_lon": 0.0, "is_reserved": 0, "fusion_lat": 0.0, "rental_uris": {"android": "https://dc.lft.to/lastmile_qr_scan", "ios": "https://dc.lft.to/lastmile_qr_scan"}, "type": "electric_scooter", "name": "68489ac802c4007bc29dc0d44e8088fd"}, {"bike_id": "7f9f4dd967bd0445f55f558d843f9abb", "lat": 38.86656583333333, "is_disabled": 0, "lon": -76.98889383333334, "fusion_lon": 0.0, "is_reserved": 0, "fusion_lat": 0.0, "rental_uris": {"android": "https://dc.lft.to/lastmile_qr_scan", "ios": "https://dc.lft.to/lastmile_qr_scan"}, "type": "electric_scooter", "name": "7f9f4dd967bd0445f55f558d843f9abb"}, {"bike_id": "1a129fe67d912ce0c5d1a165e05a6da1", "lat": 38.92653683333333, "is_disabled": 0, "lon": -77.02433333333333, "fusion_lon": 0.0, "is_reserved": 0, "fusion_lat": 0.0, "rental_uris": {"android": "https://dc.lft.to/lastmile_qr_scan", "ios": "https://dc.lft.to/lastmile_qr_scan"}, "type": "electric_scooter", "name": "1a129fe67d912ce0c5d1a165e05a6da1"}, {"bike_id": "c0353109dc92b9e134f689c77fe486af", "lat": 38.94241366666667, "is_disabled": 0, "lon": -77.05872583333333, "fusion_lon": 0.0, "is_reserved": 0, "fusion_lat": 0.0, "rental_uris": {"android": "https://dc.lft.to/lastmile_qr_scan", "ios": "https://dc.lft.to/lastmile_qr_scan"}, "type": "electric_scooter", "name": "c0353109dc92b9e134f689c77fe486af"}, {"bike_id": "56f3e050498e379aed31fc05de196df7", "lat": 38.920753500000004, "is_disabled": 0, "lon": -77.02520683333333, "fusion_lon": 0.0, "is_reserved": 0, "fusion_lat": 0.0, "rental_uris": {"android": "https://dc.lft.to/lastmile_qr_scan", "ios": "https://dc.lft.to/lastmile_qr_scan"}, "type": "electric_scooter", "name": "56f3e050498e379aed31fc05de196df7"}, {"bike_id": "840ddb6295e051fffe92585f3d014fc0", "lat": 38.92310883333333, "is_disabled": 0, "lon": -77.0421985, "fusion_lon": 0.0, "is_reserved": 0, "fusion_lat": 0.0, "rental_uris": {"android": "https://dc.lft.to/lastmile_qr_scan", "ios": "https://dc.lft.to/lastmile_qr_scan"}, "type": "electric_scooter", "name": "840ddb6295e051fffe92585f3d014fc0"}, {"bike_id": "fdfbe4e98e0a450be645f2b16fd82b23", "lat": 38.9210675, "is_disabled": 0, "lon": -77.0313035, "fusion_lon": 0.0, "is_reserved": 0, "fusion_lat": 0.0, "rental_uris": {"android": "https://dc.lft.to/lastmile_qr_scan", "ios": "https://dc.lft.to/lastmile_qr_scan"}, "type": "electric_scooter", "name": "fdfbe4e98e0a450be645f2b16fd82b23"}, {"bike_id": "cc09e2ee58d2b6cc7996e8865215506d", "lat": 38.90411683333333, "is_disabled": 0, "lon": -77.06780733333333, "fusion_lon": 0.0, "is_reserved": 0, "fusion_lat": 0.0, "rental_uris": {"android": "https://dc.lft.to/lastmile_qr_scan", "ios": "https://dc.lft.to/lastmile_qr_scan"}, "type": "electric_scooter", "name": "cc09e2ee58d2b6cc7996e8865215506d"}, {"bike_id": "8b817aa7417df2d24e3ff42b81fd81a0", "lat": 38.92441983333333, "is_disabled": 0, "lon": -77.03906683333334, "fusion_lon": 0.0, "is_reserved": 0, "fusion_lat": 0.0, "rental_uris": {"android": "https://dc.lft.to/lastmile_qr_scan", "ios": "https://dc.lft.to/lastmile_qr_scan"}, "type": "electric_scooter", "name": "8b817aa7417df2d24e3ff42b81fd81a0"}, {"bike_id": "df86847b35644495b51017c2e1fa0e61", "lat": 38.8922375, "is_disabled": 0, "lon": -77.03339583333333, "fusion_lon": 0.0, "is_reserved": 0, "fusion_lat": 0.0, "rental_uris": {"android": "https://dc.lft.to/lastmile_qr_scan", "ios": "https://dc.lft.to/lastmile_qr_scan"}, "type": "electric_scooter", "name": "df86847b35644495b51017c2e1fa0e61"}, {"bike_id": "694567715480bc719beade0530539aa6", "lat": 38.89021366666667, "is_disabled": 0, "lon": -76.93705783333333, "fusion_lon": 0.0, "is_reserved": 0, "fusion_lat": 0.0, "rental_uris": {"android": "https://dc.lft.to/lastmile_qr_scan", "ios": "https://dc.lft.to/lastmile_qr_scan"}, "type": "electric_scooter", "name": "694567715480bc719beade0530539aa6"}, {"bike_id": "cf2097ad1a14859879b9c9c6274e5d63", "lat": 38.883736, "is_disabled": 0, "lon": -76.99518583333334, "fusion_lon": 0.0, "is_reserved": 0, "fusion_lat": 0.0, "rental_uris": {"android": "https://dc.lft.to/lastmile_qr_scan", "ios": "https://dc.lft.to/lastmile_qr_scan"}, "type": "electric_scooter", "name": "cf2097ad1a14859879b9c9c6274e5d63"}, {"bike_id": "5b44cc96476085ebdfad8503c27af4c2", "lat": 38.9565435, "is_disabled": 0, "lon": -77.0225235, "fusion_lon": 0.0, "is_reserved": 0, "fusion_lat": 0.0, "rental_uris": {"android": "https://dc.lft.to/lastmile_qr_scan", "ios": "https://dc.lft.to/lastmile_qr_scan"}, "type": "electric_scooter", "name": "5b44cc96476085ebdfad8503c27af4c2"}, {"bike_id": "ca82a8ed8066376272040c49cd4defe1", "lat": 38.90174, "is_disabled": 0, "lon": -77.024788, "fusion_lon": 0.0, "is_reserved": 0, "fusion_lat": 0.0, "rental_uris": {"android": "https://dc.lft.to/lastmile_qr_scan", "ios": "https://dc.lft.to/lastmile_qr_scan"}, "type": "electric_scooter", "name": "ca82a8ed8066376272040c49cd4defe1"}, {"bike_id": "a1229dc06ea761e5ab738b2e6debe39c", "lat": 38.92201283333333, "is_disabled": 0, "lon": -77.04194183333334, "fusion_lon": 0.0, "is_reserved": 0, "fusion_lat": 0.0, "rental_uris": {"android": "https://dc.lft.to/lastmile_qr_scan", "ios": "https://dc.lft.to/lastmile_qr_scan"}, "type": "electric_scooter", "name": "a1229dc06ea761e5ab738b2e6debe39c"}, {"bike_id": "b38ba354a65bd27186a2d6fa6033784b", "lat": 38.877702666666664, "is_disabled": 0, "lon": -76.99597533333333, "fusion_lon": 0.0, "is_reserved": 0, "fusion_lat": 0.0, "rental_uris": {"android": "https://dc.lft.to/lastmile_qr_scan", "ios": "https://dc.lft.to/lastmile_qr_scan"}, "type": "electric_scooter", "name": "b38ba354a65bd27186a2d6fa6033784b"}, {"bike_id": "beecd087f91faf94c67fd5e3204fc333", "lat": 38.917788333333334, "is_disabled": 0, "lon": -77.044167, "fusion_lon": 0.0, "is_reserved": 0, "fusion_lat": 0.0, "rental_uris": {"android": "https://dc.lft.to/lastmile_qr_scan", "ios": "https://dc.lft.to/lastmile_qr_scan"}, "type": "electric_scooter", "name": "beecd087f91faf94c67fd5e3204fc333"}, {"bike_id": "f2e4cc28913c9bff76904573a0ea9d8d", "lat": 38.91841866666667, "is_disabled": 0, "lon": -77.02301733333333, "fusion_lon": 0.0, "is_reserved": 0, "fusion_lat": 0.0, "rental_uris": {"android": "https://dc.lft.to/lastmile_qr_scan", "ios": "https://dc.lft.to/lastmile_qr_scan"}, "type": "electric_scooter", "name": "f2e4cc28913c9bff76904573a0ea9d8d"}, {"bike_id": "570e9588da040f94e230c2f6bda9735b", "lat": 38.91112016666666, "is_disabled": 0, "lon": -77.03866033333334, "fusion_lon": 0.0, "is_reserved": 0, "fusion_lat": 0.0, "rental_uris": {"android": "https://dc.lft.to/lastmile_qr_scan", "ios": "https://dc.lft.to/lastmile_qr_scan"}, "type": "electric_scooter", "name": "570e9588da040f94e230c2f6bda9735b"}, {"bike_id": "f4ea83c14f112961a8657644c7adcb1e", "lat": 38.91947283333333, "is_disabled": 0, "lon": -77.02593083333333, "fusion_lon": 0.0, "is_reserved": 0, "fusion_lat": 0.0, "rental_uris": {"android": "https://dc.lft.to/lastmile_qr_scan", "ios": "https://dc.lft.to/lastmile_qr_scan"}, "type": "electric_scooter", "name": "f4ea83c14f112961a8657644c7adcb1e"}, {"bike_id": "123e7ac91f8999ee3671f5bc1d1e7e43", "lat": 38.90971583333334, "is_disabled": 0, "lon": -77.045543, "fusion_lon": 0.0, "is_reserved": 0, "fusion_lat": 0.0, "rental_uris": {"android": "https://dc.lft.to/lastmile_qr_scan", "ios": "https://dc.lft.to/lastmile_qr_scan"}, "type": "electric_scooter", "name": "123e7ac91f8999ee3671f5bc1d1e7e43"}, {"bike_id": "474681937576445f405dfbf3f0a6405c", "lat": 38.90123216666667, "is_disabled": 0, "lon": -77.03643316666667, "fusion_lon": 0.0, "is_reserved": 0, "fusion_lat": 0.0, "rental_uris": {"android": "https://dc.lft.to/lastmile_qr_scan", "ios": "https://dc.lft.to/lastmile_qr_scan"}, "type": "electric_scooter", "name": "474681937576445f405dfbf3f0a6405c"}, {"bike_id": "65f5d98f7984095f382a91e9b771d4bd", "lat": 38.91466066666667, "is_disabled": 0, "lon": -77.0454155, "fusion_lon": 0.0, "is_reserved": 0, "fusion_lat": 0.0, "rental_uris": {"android": "https://dc.lft.to/lastmile_qr_scan", "ios": "https://dc.lft.to/lastmile_qr_scan"}, "type": "electric_scooter", "name": "65f5d98f7984095f382a91e9b771d4bd"}, {"bike_id": "37adb1b666fa991ad8edb4da4455300d", "lat": 38.88852416666667, "is_disabled": 0, "lon": -76.95740866666667, "fusion_lon": 0.0, "is_reserved": 0, "fusion_lat": 0.0, "rental_uris": {"android": "https://dc.lft.to/lastmile_qr_scan", "ios": "https://dc.lft.to/lastmile_qr_scan"}, "type": "electric_bike", "name": "37adb1b666fa991ad8edb4da4455300d"}, {"bike_id": "c27a2cf061ec31046fd08960d370a25e", "lat": 38.902441, "is_disabled": 0, "lon": -77.026662, "fusion_lon": 0.0, "is_reserved": 0, "fusion_lat": 0.0, "rental_uris": {"android": "https://dc.lft.to/lastmile_qr_scan", "ios": "https://dc.lft.to/lastmile_qr_scan"}, "type": "electric_scooter", "name": "c27a2cf061ec31046fd08960d370a25e"}, {"bike_id": "8c287172221ef6854d0ff1488d38a1b2", "lat": 38.90866233333333, "is_disabled": 0, "lon": -76.99802383333333, "fusion_lon": 0.0, "is_reserved": 0, "fusion_lat": 0.0, "rental_uris": {"android": "https://dc.lft.to/lastmile_qr_scan", "ios": "https://dc.lft.to/lastmile_qr_scan"}, "type": "electric_bike", "name": "8c287172221ef6854d0ff1488d38a1b2"}, {"bike_id": "6d48133de9cd4e84bdd2a956e7f0732f", "lat": 38.89080366666666, "is_disabled": 0, "lon": -76.9471905, "fusion_lon": 0.0, "is_reserved": 0, "fusion_lat": 0.0, "rental_uris": {"android": "https://dc.lft.to/lastmile_qr_scan", "ios": "https://dc.lft.to/lastmile_qr_scan"}, "type": "electric_scooter", "name": "6d48133de9cd4e84bdd2a956e7f0732f"}, {"bike_id": "bace83045c1a3439ed98f59fa9cb6c18", "lat": 38.9087865, "is_disabled": 0, "lon": -77.06784383333333, "fusion_lon": 0.0, "is_reserved": 0, "fusion_lat": 0.0, "rental_uris": {"android": "https://dc.lft.to/lastmile_qr_scan", "ios": "https://dc.lft.to/lastmile_qr_scan"}, "type": "electric_scooter", "name": "bace83045c1a3439ed98f59fa9cb6c18"}, {"bike_id": "fb9604ffec1f66ca38c172cd4073e6be", "lat": 38.90564916666666, "is_disabled": 0, "lon": -77.007761, "fusion_lon": 0.0, "is_reserved": 0, "fusion_lat": 0.0, "rental_uris": {"android": "https://dc.lft.to/lastmile_qr_scan", "ios": "https://dc.lft.to/lastmile_qr_scan"}, "type": "electric_scooter", "name": "fb9604ffec1f66ca38c172cd4073e6be"}, {"bike_id": "de9975c02e1dcdd7103b35f7f713f5ba", "lat": 38.897287166666665, "is_disabled": 0, "lon": -77.03026, "fusion_lon": 0.0, "is_reserved": 0, "fusion_lat": 0.0, "rental_uris": {"android": "https://dc.lft.to/lastmile_qr_scan", "ios": "https://dc.lft.to/lastmile_qr_scan"}, "type": "electric_scooter", "name": "de9975c02e1dcdd7103b35f7f713f5ba"}, {"bike_id": "f8733ba0b6963b379113155e52ac733b", "lat": 38.90875883333333, "is_disabled": 0, "lon": -77.03840983333333, "fusion_lon": 0.0, "is_reserved": 0, "fusion_lat": 0.0, "rental_uris": {"android": "https://dc.lft.to/lastmile_qr_scan", "ios": "https://dc.lft.to/lastmile_qr_scan"}, "type": "electric_scooter", "name": "f8733ba0b6963b379113155e52ac733b"}, {"bike_id": "cc809dfc0a6e05f34c40b7b26e70c2e0", "lat": 38.900298666666664, "is_disabled": 0, "lon": -76.9895585, "fusion_lon": 0.0, "is_reserved": 0, "fusion_lat": 0.0, "rental_uris": {"android": "https://dc.lft.to/lastmile_qr_scan", "ios": "https://dc.lft.to/lastmile_qr_scan"}, "type": "electric_scooter", "name": "cc809dfc0a6e05f34c40b7b26e70c2e0"}, {"bike_id": "840ac5b98942078d5757b605c923b7fc", "lat": 38.9043795, "is_disabled": 0, "lon": -76.97261933333333, "fusion_lon": 0.0, "is_reserved": 0, "fusion_lat": 0.0, "rental_uris": {"android": "https://dc.lft.to/lastmile_qr_scan", "ios": "https://dc.lft.to/lastmile_qr_scan"}, "type": "electric_scooter", "name": "840ac5b98942078d5757b605c923b7fc"}, {"bike_id": "4362ad6ad9558db6230d1850e85a6d6e", "lat": 38.9086695, "is_disabled": 0, "lon": -77.03226583333333, "fusion_lon": 0.0, "is_reserved": 0, "fusion_lat": 0.0, "rental_uris": {"android": "https://dc.lft.to/lastmile_qr_scan", "ios": "https://dc.lft.to/lastmile_qr_scan"}, "type": "electric_scooter", "name": "4362ad6ad9558db6230d1850e85a6d6e"}, {"bike_id": "4c8a88b8d461c31a31c81f962e8571d9", "lat": 38.95081, "is_disabled": 0, "lon": -77.012457, "fusion_lon": 0.0, "is_reserved": 0, "fusion_lat": 0.0, "rental_uris": {"android": "https://dc.lft.to/lastmile_qr_scan", "ios": "https://dc.lft.to/lastmile_qr_scan"}, "type": "electric_bike", "name": "4c8a88b8d461c31a31c81f962e8571d9"}, {"bike_id": "25b94e94098e99c7b80b40034787d006", "lat": 38.885517166666666, "is_disabled": 0, "lon": -77.15644833333333, "fusion_lon": 0.0, "is_reserved": 0, "fusion_lat": 0.0, "rental_uris": {"android": "https://dc.lft.to/lastmile_qr_scan", "ios": "https://dc.lft.to/lastmile_qr_scan"}, "type": "electric_bike", "name": "25b94e94098e99c7b80b40034787d006"}, {"bike_id": "3a5b66a36af1b59a24eb362e25df0c9a", "lat": 38.918369, "is_disabled": 0, "lon": -77.02292366666667, "fusion_lon": 0.0, "is_reserved": 0, "fusion_lat": 0.0, "rental_uris": {"android": "https://dc.lft.to/lastmile_qr_scan", "ios": "https://dc.lft.to/lastmile_qr_scan"}, "type": "electric_scooter", "name": "3a5b66a36af1b59a24eb362e25df0c9a"}, {"bike_id": "5c33dd356465efbd7c662712276c110c", "lat": 38.93954433333333, "is_disabled": 0, "lon": -77.036641, "fusion_lon": 0.0, "is_reserved": 0, "fusion_lat": 0.0, "rental_uris": {"android": "https://dc.lft.to/lastmile_qr_scan", "ios": "https://dc.lft.to/lastmile_qr_scan"}, "type": "electric_scooter", "name": "5c33dd356465efbd7c662712276c110c"}, {"bike_id": "d3f017ed8b2b4276b1aca80e1ac243bb", "lat": 38.89505466666667, "is_disabled": 0, "lon": -76.93477666666666, "fusion_lon": 0.0, "is_reserved": 0, "fusion_lat": 0.0, "rental_uris": {"android": "https://dc.lft.to/lastmile_qr_scan", "ios": "https://dc.lft.to/lastmile_qr_scan"}, "type": "electric_scooter", "name": "d3f017ed8b2b4276b1aca80e1ac243bb"}, {"bike_id": "a08a4faaee583f79bb34fc034aa66d7f", "lat": 38.9035515, "is_disabled": 0, "lon": -77.01643916666667, "fusion_lon": 0.0, "is_reserved": 0, "fusion_lat": 0.0, "rental_uris": {"android": "https://dc.lft.to/lastmile_qr_scan", "ios": "https://dc.lft.to/lastmile_qr_scan"}, "type": "electric_scooter", "name": "a08a4faaee583f79bb34fc034aa66d7f"}, {"bike_id": "424a1809fa4b0553088995367a702d78", "lat": 38.903675166666666, "is_disabled": 0, "lon": -77.00135016666667, "fusion_lon": 0.0, "is_reserved": 0, "fusion_lat": 0.0, "rental_uris": {"android": "https://dc.lft.to/lastmile_qr_scan", "ios": "https://dc.lft.to/lastmile_qr_scan"}, "type": "electric_scooter", "name": "424a1809fa4b0553088995367a702d78"}, {"bike_id": "4e9954dde0ec5ea38b356e0b72fd339b", "lat": 38.89741516666667, "is_disabled": 0, "lon": -77.05526566666667, "fusion_lon": 0.0, "is_reserved": 0, "fusion_lat": 0.0, "rental_uris": {"android": "https://dc.lft.to/lastmile_qr_scan", "ios": "https://dc.lft.to/lastmile_qr_scan"}, "type": "electric_scooter", "name": "4e9954dde0ec5ea38b356e0b72fd339b"}, {"bike_id": "ed423b1e2941d25850e2d2bc6185dcdc", "lat": 38.87841233333333, "is_disabled": 0, "lon": -77.00034433333333, "fusion_lon": 0.0, "is_reserved": 0, "fusion_lat": 0.0, "rental_uris": {"android": "https://dc.lft.to/lastmile_qr_scan", "ios": "https://dc.lft.to/lastmile_qr_scan"}, "type": "electric_scooter", "name": "ed423b1e2941d25850e2d2bc6185dcdc"}, {"bike_id": "df7dda0998c029b256cc6aef4fef22b1", "lat": 38.932304333333335, "is_disabled": 0, "lon": -77.03875, "fusion_lon": 0.0, "is_reserved": 0, "fusion_lat": 0.0, "rental_uris": {"android": "https://dc.lft.to/lastmile_qr_scan", "ios": "https://dc.lft.to/lastmile_qr_scan"}, "type": "electric_scooter", "name": "df7dda0998c029b256cc6aef4fef22b1"}, {"bike_id": "ad2e252635363f4a03a8ff3f3639ca43", "lat": 38.918153833333335, "is_disabled": 0, "lon": -77.02889966666666, "fusion_lon": 0.0, "is_reserved": 0, "fusion_lat": 0.0, "rental_uris": {"android": "https://dc.lft.to/lastmile_qr_scan", "ios": "https://dc.lft.to/lastmile_qr_scan"}, "type": "electric_scooter", "name": "ad2e252635363f4a03a8ff3f3639ca43"}, {"bike_id": "9e47379cc72c97049b59d3d83f39a8a6", "lat": 38.9091995, "is_disabled": 0, "lon": -77.04414666666666, "fusion_lon": 0.0, "is_reserved": 0, "fusion_lat": 0.0, "rental_uris": {"android": "https://dc.lft.to/lastmile_qr_scan", "ios": "https://dc.lft.to/lastmile_qr_scan"}, "type": "electric_scooter", "name": "9e47379cc72c97049b59d3d83f39a8a6"}, {"bike_id": "102498a52bfa804ac8780c2bbc7e3c6d", "lat": 38.961319833333334, "is_disabled": 0, "lon": -77.00061866666667, "fusion_lon": 0.0, "is_reserved": 0, "fusion_lat": 0.0, "rental_uris": {"android": "https://dc.lft.to/lastmile_qr_scan", "ios": "https://dc.lft.to/lastmile_qr_scan"}, "type": "electric_scooter", "name": "102498a52bfa804ac8780c2bbc7e3c6d"}, {"bike_id": "8e553fc09ca5402a1047c1dfdae41c41", "lat": 38.92101666666667, "is_disabled": 0, "lon": -77.04704266666667, "fusion_lon": 0.0, "is_reserved": 0, "fusion_lat": 0.0, "rental_uris": {"android": "https://dc.lft.to/lastmile_qr_scan", "ios": "https://dc.lft.to/lastmile_qr_scan"}, "type": "electric_scooter", "name": "8e553fc09ca5402a1047c1dfdae41c41"}, {"bike_id": "85fbf62b2b55d70015f8f921c552cd02", "lat": 38.875791, "is_disabled": 0, "lon": -77.23411266666666, "fusion_lon": 0.0, "is_reserved": 0, "fusion_lat": 0.0, "rental_uris": {"android": "https://dc.lft.to/lastmile_qr_scan", "ios": "https://dc.lft.to/lastmile_qr_scan"}, "type": "electric_bike", "name": "85fbf62b2b55d70015f8f921c552cd02"}, {"bike_id": "a37911875e4c425efb1ca671f7f89c11", "lat": 38.92043366666667, "is_disabled": 0, "lon": -77.0716505, "fusion_lon": 0.0, "is_reserved": 0, "fusion_lat": 0.0, "rental_uris": {"android": "https://dc.lft.to/lastmile_qr_scan", "ios": "https://dc.lft.to/lastmile_qr_scan"}, "type": "electric_bike", "name": "a37911875e4c425efb1ca671f7f89c11"}, {"bike_id": "5db238efaeb78f710219269d02575b21", "lat": 38.92379416666667, "is_disabled": 0, "lon": -77.03777766666667, "fusion_lon": 0.0, "is_reserved": 0, "fusion_lat": 0.0, "rental_uris": {"android": "https://dc.lft.to/lastmile_qr_scan", "ios": "https://dc.lft.to/lastmile_qr_scan"}, "type": "electric_scooter", "name": "5db238efaeb78f710219269d02575b21"}, {"bike_id": "56b020159b91a6afae784b30d8d9a617", "lat": 38.9065225, "is_disabled": 0, "lon": -77.04244316666667, "fusion_lon": 0.0, "is_reserved": 0, "fusion_lat": 0.0, "rental_uris": {"android": "https://dc.lft.to/lastmile_qr_scan", "ios": "https://dc.lft.to/lastmile_qr_scan"}, "type": "electric_scooter", "name": "56b020159b91a6afae784b30d8d9a617"}, {"bike_id": "191ee46bbb7ca2f7e8420d3a6e064e74", "lat": 38.90730766666667, "is_disabled": 0, "lon": -76.986165, "fusion_lon": 0.0, "is_reserved": 0, "fusion_lat": 0.0, "rental_uris": {"android": "https://dc.lft.to/lastmile_qr_scan", "ios": "https://dc.lft.to/lastmile_qr_scan"}, "type": "electric_scooter", "name": "191ee46bbb7ca2f7e8420d3a6e064e74"}, {"bike_id": "95a6eec65890570069a1e6bf445b637c", "lat": 38.928451833333334, "is_disabled": 0, "lon": -77.03246083333333, "fusion_lon": 0.0, "is_reserved": 0, "fusion_lat": 0.0, "rental_uris": {"android": "https://dc.lft.to/lastmile_qr_scan", "ios": "https://dc.lft.to/lastmile_qr_scan"}, "type": "electric_scooter", "name": "95a6eec65890570069a1e6bf445b637c"}, {"bike_id": "093c0cd596c01e456f23317d51dff611", "lat": 38.92433716666667, "is_disabled": 0, "lon": -77.04002816666667, "fusion_lon": 0.0, "is_reserved": 0, "fusion_lat": 0.0, "rental_uris": {"android": "https://dc.lft.to/lastmile_qr_scan", "ios": "https://dc.lft.to/lastmile_qr_scan"}, "type": "electric_scooter", "name": "093c0cd596c01e456f23317d51dff611"}, {"bike_id": "70edb17bd688aed07e91d413e95c5e93", "lat": 38.911112, "is_disabled": 0, "lon": -77.03867966666667, "fusion_lon": 0.0, "is_reserved": 0, "fusion_lat": 0.0, "rental_uris": {"android": "https://dc.lft.to/lastmile_qr_scan", "ios": "https://dc.lft.to/lastmile_qr_scan"}, "type": "electric_scooter", "name": "70edb17bd688aed07e91d413e95c5e93"}, {"bike_id": "fa0b140bc6e152c7f39aaf6046fd324e", "lat": 38.87646816666667, "is_disabled": 0, "lon": -76.96506416666666, "fusion_lon": 0.0, "is_reserved": 0, "fusion_lat": 0.0, "rental_uris": {"android": "https://dc.lft.to/lastmile_qr_scan", "ios": "https://dc.lft.to/lastmile_qr_scan"}, "type": "electric_scooter", "name": "fa0b140bc6e152c7f39aaf6046fd324e"}, {"bike_id": "686ac737e822dd8148b28915a09ffb07", "lat": 38.902029, "is_disabled": 0, "lon": -77.01304483333334, "fusion_lon": 0.0, "is_reserved": 0, "fusion_lat": 0.0, "rental_uris": {"android": "https://dc.lft.to/lastmile_qr_scan", "ios": "https://dc.lft.to/lastmile_qr_scan"}, "type": "electric_scooter", "name": "686ac737e822dd8148b28915a09ffb07"}, {"bike_id": "6b97aef4ea29776c2f16e3bb59a859ba", "lat": 38.899139166666664, "is_disabled": 0, "lon": -76.93383083333333, "fusion_lon": 0.0, "is_reserved": 0, "fusion_lat": 0.0, "rental_uris": {"android": "https://dc.lft.to/lastmile_qr_scan", "ios": "https://dc.lft.to/lastmile_qr_scan"}, "type": "electric_scooter", "name": "6b97aef4ea29776c2f16e3bb59a859ba"}, {"bike_id": "bff711ead6dbbe44307dd5bdb2c17038", "lat": 38.93282416666667, "is_disabled": 0, "lon": -77.040821, "fusion_lon": 0.0, "is_reserved": 0, "fusion_lat": 0.0, "rental_uris": {"android": "https://dc.lft.to/lastmile_qr_scan", "ios": "https://dc.lft.to/lastmile_qr_scan"}, "type": "electric_scooter", "name": "bff711ead6dbbe44307dd5bdb2c17038"}, {"bike_id": "39fa83673efa350b896015c549a3addf", "lat": 38.8976915, "is_disabled": 0, "lon": -77.03186483333333, "fusion_lon": 0.0, "is_reserved": 0, "fusion_lat": 0.0, "rental_uris": {"android": "https://dc.lft.to/lastmile_qr_scan", "ios": "https://dc.lft.to/lastmile_qr_scan"}, "type": "electric_scooter", "name": "39fa83673efa350b896015c549a3addf"}, {"bike_id": "37f9815ccd6b845e597d1400eea82e97", "lat": 38.8899755, "is_disabled": 0, "lon": -77.0005545, "fusion_lon": 0.0, "is_reserved": 0, "fusion_lat": 0.0, "rental_uris": {"android": "https://dc.lft.to/lastmile_qr_scan", "ios": "https://dc.lft.to/lastmile_qr_scan"}, "type": "electric_scooter", "name": "37f9815ccd6b845e597d1400eea82e97"}, {"bike_id": "50f4cf250d4937fc2f9da160dbb49ec1", "lat": 38.913617333333335, "is_disabled": 0, "lon": -77.04661666666667, "fusion_lon": 0.0, "is_reserved": 0, "fusion_lat": 0.0, "rental_uris": {"android": "https://dc.lft.to/lastmile_qr_scan", "ios": "https://dc.lft.to/lastmile_qr_scan"}, "type": "electric_scooter", "name": "50f4cf250d4937fc2f9da160dbb49ec1"}, {"bike_id": "5c47b26a707ab931065b7ce062f630b7", "lat": 38.89932483333333, "is_disabled": 0, "lon": -77.04193783333334, "fusion_lon": 0.0, "is_reserved": 0, "fusion_lat": 0.0, "rental_uris": {"android": "https://dc.lft.to/lastmile_qr_scan", "ios": "https://dc.lft.to/lastmile_qr_scan"}, "type": "electric_scooter", "name": "5c47b26a707ab931065b7ce062f630b7"}, {"bike_id": "fc9d363f134da095461dd6099b2744fb", "lat": 38.89232283333333, "is_disabled": 0, "lon": -77.0283665, "fusion_lon": 0.0, "is_reserved": 0, "fusion_lat": 0.0, "rental_uris": {"android": "https://dc.lft.to/lastmile_qr_scan", "ios": "https://dc.lft.to/lastmile_qr_scan"}, "type": "electric_scooter", "name": "fc9d363f134da095461dd6099b2744fb"}, {"bike_id": "2cce0640a785d58efc27cd4959aa5705", "lat": 38.920571333333335, "is_disabled": 0, "lon": -77.03299583333333, "fusion_lon": 0.0, "is_reserved": 0, "fusion_lat": 0.0, "rental_uris": {"android": "https://dc.lft.to/lastmile_qr_scan", "ios": "https://dc.lft.to/lastmile_qr_scan"}, "type": "electric_scooter", "name": "2cce0640a785d58efc27cd4959aa5705"}, {"bike_id": "52453e3e2035dd3d7f2a9ae882f2cd1d", "lat": 38.859946, "is_disabled": 0, "lon": -76.985535, "fusion_lon": 0.0, "is_reserved": 0, "fusion_lat": 0.0, "rental_uris": {"android": "https://dc.lft.to/lastmile_qr_scan", "ios": "https://dc.lft.to/lastmile_qr_scan"}, "type": "electric_scooter", "name": "52453e3e2035dd3d7f2a9ae882f2cd1d"}, {"bike_id": "f35409dda7fdd4fa3100b6288b9629dc", "lat": 38.910194, "is_disabled": 0, "lon": -77.04459483333333, "fusion_lon": 0.0, "is_reserved": 0, "fusion_lat": 0.0, "rental_uris": {"android": "https://dc.lft.to/lastmile_qr_scan", "ios": "https://dc.lft.to/lastmile_qr_scan"}, "type": "electric_scooter", "name": "f35409dda7fdd4fa3100b6288b9629dc"}, {"bike_id": "ec3a1b9a6bc620db4f7d12db57e316a5", "lat": 38.91550183333333, "is_disabled": 0, "lon": -77.01195416666667, "fusion_lon": 0.0, "is_reserved": 0, "fusion_lat": 0.0, "rental_uris": {"android": "https://dc.lft.to/lastmile_qr_scan", "ios": "https://dc.lft.to/lastmile_qr_scan"}, "type": "electric_scooter", "name": "ec3a1b9a6bc620db4f7d12db57e316a5"}, {"bike_id": "1595883d0907e5712e0d9454931b17a0", "lat": 38.91635333333333, "is_disabled": 0, "lon": -77.03195983333333, "fusion_lon": 0.0, "is_reserved": 0, "fusion_lat": 0.0, "rental_uris": {"android": "https://dc.lft.to/lastmile_qr_scan", "ios": "https://dc.lft.to/lastmile_qr_scan"}, "type": "electric_scooter", "name": "1595883d0907e5712e0d9454931b17a0"}, {"bike_id": "6bfdf20eb705e56b74a5beea690d743e", "lat": 38.933259, "is_disabled": 0, "lon": -77.03811916666666, "fusion_lon": 0.0, "is_reserved": 0, "fusion_lat": 0.0, "rental_uris": {"android": "https://dc.lft.to/lastmile_qr_scan", "ios": "https://dc.lft.to/lastmile_qr_scan"}, "type": "electric_scooter", "name": "6bfdf20eb705e56b74a5beea690d743e"}, {"bike_id": "8b31768821154b044881bbce2f33ce9a", "lat": 38.9083895, "is_disabled": 0, "lon": -77.03184566666667, "fusion_lon": 0.0, "is_reserved": 0, "fusion_lat": 0.0, "rental_uris": {"android": "https://dc.lft.to/lastmile_qr_scan", "ios": "https://dc.lft.to/lastmile_qr_scan"}, "type": "electric_scooter", "name": "8b31768821154b044881bbce2f33ce9a"}, {"bike_id": "7c526b346522c824bca8bc5e19702293", "lat": 38.9096275, "is_disabled": 0, "lon": -77.03400616666667, "fusion_lon": 0.0, "is_reserved": 0, "fusion_lat": 0.0, "rental_uris": {"android": "https://dc.lft.to/lastmile_qr_scan", "ios": "https://dc.lft.to/lastmile_qr_scan"}, "type": "electric_scooter", "name": "7c526b346522c824bca8bc5e19702293"}, {"bike_id": "00f3a2bee64e36eb6862d2e70ed46a58", "lat": 38.86127466666667, "is_disabled": 0, "lon": -76.98378033333333, "fusion_lon": 0.0, "is_reserved": 0, "fusion_lat": 0.0, "rental_uris": {"android": "https://dc.lft.to/lastmile_qr_scan", "ios": "https://dc.lft.to/lastmile_qr_scan"}, "type": "electric_scooter", "name": "00f3a2bee64e36eb6862d2e70ed46a58"}, {"bike_id": "525d4694d7dcbd102c0e7bc050e94f28", "lat": 38.90910866666667, "is_disabled": 0, "lon": -77.07261983333333, "fusion_lon": 0.0, "is_reserved": 0, "fusion_lat": 0.0, "rental_uris": {"android": "https://dc.lft.to/lastmile_qr_scan", "ios": "https://dc.lft.to/lastmile_qr_scan"}, "type": "electric_scooter", "name": "525d4694d7dcbd102c0e7bc050e94f28"}, {"bike_id": "fd37fd01e114389fb4399522172eade4", "lat": 38.91927116666667, "is_disabled": 0, "lon": -77.01364033333333, "fusion_lon": 0.0, "is_reserved": 0, "fusion_lat": 0.0, "rental_uris": {"android": "https://dc.lft.to/lastmile_qr_scan", "ios": "https://dc.lft.to/lastmile_qr_scan"}, "type": "electric_scooter", "name": "fd37fd01e114389fb4399522172eade4"}, {"bike_id": "4d4e0dd27e08bd809f02cf822e39f434", "lat": 38.901417, "is_disabled": 0, "lon": -77.04412283333333, "fusion_lon": 0.0, "is_reserved": 0, "fusion_lat": 0.0, "rental_uris": {"android": "https://dc.lft.to/lastmile_qr_scan", "ios": "https://dc.lft.to/lastmile_qr_scan"}, "type": "electric_scooter", "name": "4d4e0dd27e08bd809f02cf822e39f434"}, {"bike_id": "dce259fcf486865aeada550c0bcb0bb5", "lat": 38.904087, "is_disabled": 0, "lon": -76.97328766666666, "fusion_lon": 0.0, "is_reserved": 0, "fusion_lat": 0.0, "rental_uris": {"android": "https://dc.lft.to/lastmile_qr_scan", "ios": "https://dc.lft.to/lastmile_qr_scan"}, "type": "electric_scooter", "name": "dce259fcf486865aeada550c0bcb0bb5"}, {"bike_id": "8247f0525451e193ccffb68b0155e6ea", "lat": 38.89316, "is_disabled": 0, "lon": -77.02607, "fusion_lon": 0.0, "is_reserved": 0, "fusion_lat": 0.0, "rental_uris": {"android": "https://dc.lft.to/lastmile_qr_scan", "ios": "https://dc.lft.to/lastmile_qr_scan"}, "type": "electric_scooter", "name": "8247f0525451e193ccffb68b0155e6ea"}, {"bike_id": "0c1929e1175b6ffefd3ffc5c37d74220", "lat": 38.93843833333333, "is_disabled": 0, "lon": -77.028336, "fusion_lon": 0.0, "is_reserved": 0, "fusion_lat": 0.0, "rental_uris": {"android": "https://dc.lft.to/lastmile_qr_scan", "ios": "https://dc.lft.to/lastmile_qr_scan"}, "type": "electric_scooter", "name": "0c1929e1175b6ffefd3ffc5c37d74220"}, {"bike_id": "9d1d0e8f0785c777fd1e45a1f685750f", "lat": 38.892239833333335, "is_disabled": 0, "lon": -77.04512216666667, "fusion_lon": 0.0, "is_reserved": 0, "fusion_lat": 0.0, "rental_uris": {"android": "https://dc.lft.to/lastmile_qr_scan", "ios": "https://dc.lft.to/lastmile_qr_scan"}, "type": "electric_scooter", "name": "9d1d0e8f0785c777fd1e45a1f685750f"}, {"bike_id": "2fea18ae5b1f02c5a569d7382eaf464e", "lat": 38.9182385, "is_disabled": 0, "lon": -77.04518566666667, "fusion_lon": 0.0, "is_reserved": 0, "fusion_lat": 0.0, "rental_uris": {"android": "https://dc.lft.to/lastmile_qr_scan", "ios": "https://dc.lft.to/lastmile_qr_scan"}, "type": "electric_scooter", "name": "2fea18ae5b1f02c5a569d7382eaf464e"}, {"bike_id": "5e2a0a2d28307ee521783642e710e5a6", "lat": 38.929696, "is_disabled": 0, "lon": -77.03777866666667, "fusion_lon": 0.0, "is_reserved": 0, "fusion_lat": 0.0, "rental_uris": {"android": "https://dc.lft.to/lastmile_qr_scan", "ios": "https://dc.lft.to/lastmile_qr_scan"}, "type": "electric_scooter", "name": "5e2a0a2d28307ee521783642e710e5a6"}, {"bike_id": "0fc47daf34089801422f857471d8fde9", "lat": 38.91684516666667, "is_disabled": 0, "lon": -76.994201, "fusion_lon": 0.0, "is_reserved": 0, "fusion_lat": 0.0, "rental_uris": {"android": "https://dc.lft.to/lastmile_qr_scan", "ios": "https://dc.lft.to/lastmile_qr_scan"}, "type": "electric_scooter", "name": "0fc47daf34089801422f857471d8fde9"}, {"bike_id": "40d0bcf969795e0988aff0ba4ba6cb16", "lat": 38.8922255, "is_disabled": 0, "lon": -77.041973, "fusion_lon": 0.0, "is_reserved": 0, "fusion_lat": 0.0, "rental_uris": {"android": "https://dc.lft.to/lastmile_qr_scan", "ios": "https://dc.lft.to/lastmile_qr_scan"}, "type": "electric_scooter", "name": "40d0bcf969795e0988aff0ba4ba6cb16"}, {"bike_id": "5ad28011d6941604d5fbe69fc15fdf7b", "lat": 38.916314166666666, "is_disabled": 0, "lon": -77.03574583333334, "fusion_lon": 0.0, "is_reserved": 0, "fusion_lat": 0.0, "rental_uris": {"android": "https://dc.lft.to/lastmile_qr_scan", "ios": "https://dc.lft.to/lastmile_qr_scan"}, "type": "electric_scooter", "name": "5ad28011d6941604d5fbe69fc15fdf7b"}, {"bike_id": "e3a03a0004b39451cf4dabb49f73e280", "lat": 38.831154833333336, "is_disabled": 0, "lon": -77.00778283333334, "fusion_lon": 0.0, "is_reserved": 0, "fusion_lat": 0.0, "rental_uris": {"android": "https://dc.lft.to/lastmile_qr_scan", "ios": "https://dc.lft.to/lastmile_qr_scan"}, "type": "electric_scooter", "name": "e3a03a0004b39451cf4dabb49f73e280"}, {"bike_id": "bfa37cf4fbd0ec9d4f4f07d2bdb2f660", "lat": 38.9141415, "is_disabled": 0, "lon": -77.02526783333333, "fusion_lon": 0.0, "is_reserved": 0, "fusion_lat": 0.0, "rental_uris": {"android": "https://dc.lft.to/lastmile_qr_scan", "ios": "https://dc.lft.to/lastmile_qr_scan"}, "type": "electric_scooter", "name": "bfa37cf4fbd0ec9d4f4f07d2bdb2f660"}, {"bike_id": "f9610a8e4bdfd5ac2dde059b7a8db9ff", "lat": 38.9021735, "is_disabled": 0, "lon": -77.04095016666666, "fusion_lon": 0.0, "is_reserved": 0, "fusion_lat": 0.0, "rental_uris": {"android": "https://dc.lft.to/lastmile_qr_scan", "ios": "https://dc.lft.to/lastmile_qr_scan"}, "type": "electric_scooter", "name": "f9610a8e4bdfd5ac2dde059b7a8db9ff"}, {"bike_id": "a985e94943365f4c2b57eff11261d98f", "lat": 38.90360483333333, "is_disabled": 0, "lon": -77.03197566666667, "fusion_lon": 0.0, "is_reserved": 0, "fusion_lat": 0.0, "rental_uris": {"android": "https://dc.lft.to/lastmile_qr_scan", "ios": "https://dc.lft.to/lastmile_qr_scan"}, "type": "electric_scooter", "name": "a985e94943365f4c2b57eff11261d98f"}, {"bike_id": "0f2c42338a56ad7a192057690da813c4", "lat": 38.89998516666667, "is_disabled": 0, "lon": -77.03988016666666, "fusion_lon": 0.0, "is_reserved": 0, "fusion_lat": 0.0, "rental_uris": {"android": "https://dc.lft.to/lastmile_qr_scan", "ios": "https://dc.lft.to/lastmile_qr_scan"}, "type": "electric_scooter", "name": "0f2c42338a56ad7a192057690da813c4"}, {"bike_id": "78ee657daf8ec67e902bf79b7640c4ec", "lat": 38.924176333333335, "is_disabled": 0, "lon": -77.02033683333333, "fusion_lon": 0.0, "is_reserved": 0, "fusion_lat": 0.0, "rental_uris": {"android": "https://dc.lft.to/lastmile_qr_scan", "ios": "https://dc.lft.to/lastmile_qr_scan"}, "type": "electric_scooter", "name": "78ee657daf8ec67e902bf79b7640c4ec"}, {"bike_id": "5c5dd74fbdb34ca66308fb4625cc5964", "lat": 38.923055, "is_disabled": 0, "lon": -77.0429585, "fusion_lon": 0.0, "is_reserved": 0, "fusion_lat": 0.0, "rental_uris": {"android": "https://dc.lft.to/lastmile_qr_scan", "ios": "https://dc.lft.to/lastmile_qr_scan"}, "type": "electric_scooter", "name": "5c5dd74fbdb34ca66308fb4625cc5964"}, {"bike_id": "81e63141841b9a0c8b41312864d26df5", "lat": 38.914894833333335, "is_disabled": 0, "lon": -77.03212766666667, "fusion_lon": 0.0, "is_reserved": 0, "fusion_lat": 0.0, "rental_uris": {"android": "https://dc.lft.to/lastmile_qr_scan", "ios": "https://dc.lft.to/lastmile_qr_scan"}, "type": "electric_scooter", "name": "81e63141841b9a0c8b41312864d26df5"}, {"bike_id": "e2f0ac44dc311b2e37df40c4fa2dd7f1", "lat": 38.90243183333333, "is_disabled": 0, "lon": -77.00195683333334, "fusion_lon": 0.0, "is_reserved": 0, "fusion_lat": 0.0, "rental_uris": {"android": "https://dc.lft.to/lastmile_qr_scan", "ios": "https://dc.lft.to/lastmile_qr_scan"}, "type": "electric_scooter", "name": "e2f0ac44dc311b2e37df40c4fa2dd7f1"}, {"bike_id": "d66acedd9ed40f79f6d3b5dc31f5326c", "lat": 38.915695, "is_disabled": 0, "lon": -77.0416805, "fusion_lon": 0.0, "is_reserved": 0, "fusion_lat": 0.0, "rental_uris": {"android": "https://dc.lft.to/lastmile_qr_scan", "ios": "https://dc.lft.to/lastmile_qr_scan"}, "type": "electric_scooter", "name": "d66acedd9ed40f79f6d3b5dc31f5326c"}, {"bike_id": "3d08ef5d0a2a7477811a17564b08aac5", "lat": 38.92446, "is_disabled": 0, "lon": -77.02976316666667, "fusion_lon": 0.0, "is_reserved": 0, "fusion_lat": 0.0, "rental_uris": {"android": "https://dc.lft.to/lastmile_qr_scan", "ios": "https://dc.lft.to/lastmile_qr_scan"}, "type": "electric_scooter", "name": "3d08ef5d0a2a7477811a17564b08aac5"}, {"bike_id": "b11e19e58dc39777a9eee141b9b18428", "lat": 38.941795666666664, "is_disabled": 0, "lon": -76.99437683333333, "fusion_lon": 0.0, "is_reserved": 0, "fusion_lat": 0.0, "rental_uris": {"android": "https://dc.lft.to/lastmile_qr_scan", "ios": "https://dc.lft.to/lastmile_qr_scan"}, "type": "electric_scooter", "name": "b11e19e58dc39777a9eee141b9b18428"}, {"bike_id": "8955c8e33b0f6279f1d72672f99b5334", "lat": 38.894907833333335, "is_disabled": 0, "lon": -77.02308133333334, "fusion_lon": 0.0, "is_reserved": 0, "fusion_lat": 0.0, "rental_uris": {"android": "https://dc.lft.to/lastmile_qr_scan", "ios": "https://dc.lft.to/lastmile_qr_scan"}, "type": "electric_scooter", "name": "8955c8e33b0f6279f1d72672f99b5334"}, {"bike_id": "5ae7ff62c3da7a2ce34c46bd5a9c3f77", "lat": 38.90994116666667, "is_disabled": 0, "lon": -77.04461916666666, "fusion_lon": 0.0, "is_reserved": 0, "fusion_lat": 0.0, "rental_uris": {"android": "https://dc.lft.to/lastmile_qr_scan", "ios": "https://dc.lft.to/lastmile_qr_scan"}, "type": "electric_scooter", "name": "5ae7ff62c3da7a2ce34c46bd5a9c3f77"}, {"bike_id": "4870e118b79dda36a1733aa89fe763ee", "lat": 38.88747333333333, "is_disabled": 0, "lon": -77.01730666666667, "fusion_lon": 0.0, "is_reserved": 0, "fusion_lat": 0.0, "rental_uris": {"android": "https://dc.lft.to/lastmile_qr_scan", "ios": "https://dc.lft.to/lastmile_qr_scan"}, "type": "electric_scooter", "name": "4870e118b79dda36a1733aa89fe763ee"}, {"bike_id": "f4bde09cce9e17f0bad370e6123f03e3", "lat": 38.92468216666666, "is_disabled": 0, "lon": -77.0306805, "fusion_lon": 0.0, "is_reserved": 0, "fusion_lat": 0.0, "rental_uris": {"android": "https://dc.lft.to/lastmile_qr_scan", "ios": "https://dc.lft.to/lastmile_qr_scan"}, "type": "electric_scooter", "name": "f4bde09cce9e17f0bad370e6123f03e3"}, {"bike_id": "e2a1a0cc41d6f8d5f1c8883b1c7c79aa", "lat": 38.9037885, "is_disabled": 0, "lon": -77.066898, "fusion_lon": 0.0, "is_reserved": 0, "fusion_lat": 0.0, "rental_uris": {"android": "https://dc.lft.to/lastmile_qr_scan", "ios": "https://dc.lft.to/lastmile_qr_scan"}, "type": "electric_scooter", "name": "e2a1a0cc41d6f8d5f1c8883b1c7c79aa"}, {"bike_id": "013c35617bc8cce63876cfe98e7f1312", "lat": 38.885996166666665, "is_disabled": 0, "lon": -76.99101866666666, "fusion_lon": 0.0, "is_reserved": 0, "fusion_lat": 0.0, "rental_uris": {"android": "https://dc.lft.to/lastmile_qr_scan", "ios": "https://dc.lft.to/lastmile_qr_scan"}, "type": "electric_scooter", "name": "013c35617bc8cce63876cfe98e7f1312"}, {"bike_id": "ee0757501e4797502251bdc598ed5197", "lat": 38.862695333333335, "is_disabled": 0, "lon": -76.99571233333333, "fusion_lon": 0.0, "is_reserved": 0, "fusion_lat": 0.0, "rental_uris": {"android": "https://dc.lft.to/lastmile_qr_scan", "ios": "https://dc.lft.to/lastmile_qr_scan"}, "type": "electric_scooter", "name": "ee0757501e4797502251bdc598ed5197"}, {"bike_id": "e7f86238ba66fbb6982bb2d4a797d021", "lat": 38.897193666666666, "is_disabled": 0, "lon": -77.0079295, "fusion_lon": 0.0, "is_reserved": 0, "fusion_lat": 0.0, "rental_uris": {"android": "https://dc.lft.to/lastmile_qr_scan", "ios": "https://dc.lft.to/lastmile_qr_scan"}, "type": "electric_scooter", "name": "e7f86238ba66fbb6982bb2d4a797d021"}, {"bike_id": "82b5a7a6bb69549f88f75d6a7c27d2f5", "lat": 38.919716666666666, "is_disabled": 0, "lon": -77.02171566666667, "fusion_lon": 0.0, "is_reserved": 0, "fusion_lat": 0.0, "rental_uris": {"android": "https://dc.lft.to/lastmile_qr_scan", "ios": "https://dc.lft.to/lastmile_qr_scan"}, "type": "electric_scooter", "name": "82b5a7a6bb69549f88f75d6a7c27d2f5"}, {"bike_id": "b0570686879f641de66e9c5077f1e77f", "lat": 38.92060566666667, "is_disabled": 0, "lon": -77.03810816666666, "fusion_lon": 0.0, "is_reserved": 0, "fusion_lat": 0.0, "rental_uris": {"android": "https://dc.lft.to/lastmile_qr_scan", "ios": "https://dc.lft.to/lastmile_qr_scan"}, "type": "electric_scooter", "name": "b0570686879f641de66e9c5077f1e77f"}, {"bike_id": "bc503328a6522b218e1a131c45d989f8", "lat": 38.877311166666665, "is_disabled": 0, "lon": -76.99481916666667, "fusion_lon": 0.0, "is_reserved": 0, "fusion_lat": 0.0, "rental_uris": {"android": "https://dc.lft.to/lastmile_qr_scan", "ios": "https://dc.lft.to/lastmile_qr_scan"}, "type": "electric_scooter", "name": "bc503328a6522b218e1a131c45d989f8"}, {"bike_id": "64cb6a9246fa1c8cedd8e1597a4643da", "lat": 38.8991225, "is_disabled": 0, "lon": -76.93382666666666, "fusion_lon": 0.0, "is_reserved": 0, "fusion_lat": 0.0, "rental_uris": {"android": "https://dc.lft.to/lastmile_qr_scan", "ios": "https://dc.lft.to/lastmile_qr_scan"}, "type": "electric_scooter", "name": "64cb6a9246fa1c8cedd8e1597a4643da"}, {"bike_id": "07eef4c0e67ede30dae5c151fcac6f1c", "lat": 38.876392333333335, "is_disabled": 0, "lon": -76.99324233333333, "fusion_lon": 0.0, "is_reserved": 0, "fusion_lat": 0.0, "rental_uris": {"android": "https://dc.lft.to/lastmile_qr_scan", "ios": "https://dc.lft.to/lastmile_qr_scan"}, "type": "electric_scooter", "name": "07eef4c0e67ede30dae5c151fcac6f1c"}, {"bike_id": "b29a995dd1f889032603340c0f56acde", "lat": 38.872482833333336, "is_disabled": 0, "lon": -76.97729766666667, "fusion_lon": 0.0, "is_reserved": 0, "fusion_lat": 0.0, "rental_uris": {"android": "https://dc.lft.to/lastmile_qr_scan", "ios": "https://dc.lft.to/lastmile_qr_scan"}, "type": "electric_scooter", "name": "b29a995dd1f889032603340c0f56acde"}, {"bike_id": "8211f3e0080b614054a4935ba583db68", "lat": 38.94330333333333, "is_disabled": 0, "lon": -77.01479116666667, "fusion_lon": 0.0, "is_reserved": 0, "fusion_lat": 0.0, "rental_uris": {"android": "https://dc.lft.to/lastmile_qr_scan", "ios": "https://dc.lft.to/lastmile_qr_scan"}, "type": "electric_scooter", "name": "8211f3e0080b614054a4935ba583db68"}, {"bike_id": "a31c33898470a01db6119d08efae6019", "lat": 38.9051895, "is_disabled": 0, "lon": -77.0582515, "fusion_lon": 0.0, "is_reserved": 0, "fusion_lat": 0.0, "rental_uris": {"android": "https://dc.lft.to/lastmile_qr_scan", "ios": "https://dc.lft.to/lastmile_qr_scan"}, "type": "electric_scooter", "name": "a31c33898470a01db6119d08efae6019"}, {"bike_id": "95becb6e15e5cc005b915553cc7a3c04", "lat": 38.900872, "is_disabled": 0, "lon": -77.01242466666666, "fusion_lon": 0.0, "is_reserved": 0, "fusion_lat": 0.0, "rental_uris": {"android": "https://dc.lft.to/lastmile_qr_scan", "ios": "https://dc.lft.to/lastmile_qr_scan"}, "type": "electric_scooter", "name": "95becb6e15e5cc005b915553cc7a3c04"}, {"bike_id": "bd7b8cf6765618e4d19fe26d18cf4f91", "lat": 38.93469183333333, "is_disabled": 0, "lon": -77.04114333333334, "fusion_lon": 0.0, "is_reserved": 0, "fusion_lat": 0.0, "rental_uris": {"android": "https://dc.lft.to/lastmile_qr_scan", "ios": "https://dc.lft.to/lastmile_qr_scan"}, "type": "electric_scooter", "name": "bd7b8cf6765618e4d19fe26d18cf4f91"}, {"bike_id": "2291b158d074448f2927f9bb1be75c38", "lat": 38.91340366666667, "is_disabled": 0, "lon": -77.04874283333334, "fusion_lon": 0.0, "is_reserved": 0, "fusion_lat": 0.0, "rental_uris": {"android": "https://dc.lft.to/lastmile_qr_scan", "ios": "https://dc.lft.to/lastmile_qr_scan"}, "type": "electric_scooter", "name": "2291b158d074448f2927f9bb1be75c38"}, {"bike_id": "8fd42cee8de88eaa0c28b17b81d1c371", "lat": 38.91971683333333, "is_disabled": 0, "lon": -77.01814383333334, "fusion_lon": 0.0, "is_reserved": 0, "fusion_lat": 0.0, "rental_uris": {"android": "https://dc.lft.to/lastmile_qr_scan", "ios": "https://dc.lft.to/lastmile_qr_scan"}, "type": "electric_scooter", "name": "8fd42cee8de88eaa0c28b17b81d1c371"}, {"bike_id": "e65f877594b0e91d6ceadbb05b3725e0", "lat": 38.90093666666667, "is_disabled": 0, "lon": -77.0245685, "fusion_lon": 0.0, "is_reserved": 0, "fusion_lat": 0.0, "rental_uris": {"android": "https://dc.lft.to/lastmile_qr_scan", "ios": "https://dc.lft.to/lastmile_qr_scan"}, "type": "electric_scooter", "name": "e65f877594b0e91d6ceadbb05b3725e0"}, {"bike_id": "4e340a2136a800ea8978781010d3c584", "lat": 38.897465333333336, "is_disabled": 0, "lon": -77.021882, "fusion_lon": 0.0, "is_reserved": 0, "fusion_lat": 0.0, "rental_uris": {"android": "https://dc.lft.to/lastmile_qr_scan", "ios": "https://dc.lft.to/lastmile_qr_scan"}, "type": "electric_scooter", "name": "4e340a2136a800ea8978781010d3c584"}, {"bike_id": "704ba0ebe0f9b363fe5d7755bc347363", "lat": 38.90724933333333, "is_disabled": 0, "lon": -76.9982395, "fusion_lon": 0.0, "is_reserved": 0, "fusion_lat": 0.0, "rental_uris": {"android": "https://dc.lft.to/lastmile_qr_scan", "ios": "https://dc.lft.to/lastmile_qr_scan"}, "type": "electric_scooter", "name": "704ba0ebe0f9b363fe5d7755bc347363"}, {"bike_id": "f6e65ba05e65066010f87449ade902c9", "lat": 38.919415666666666, "is_disabled": 0, "lon": -77.01798533333333, "fusion_lon": 0.0, "is_reserved": 0, "fusion_lat": 0.0, "rental_uris": {"android": "https://dc.lft.to/lastmile_qr_scan", "ios": "https://dc.lft.to/lastmile_qr_scan"}, "type": "electric_scooter", "name": "f6e65ba05e65066010f87449ade902c9"}, {"bike_id": "b6c48e81d1f60ae34eb3134369865682", "lat": 38.91690766666667, "is_disabled": 0, "lon": -77.03860516666667, "fusion_lon": 0.0, "is_reserved": 0, "fusion_lat": 0.0, "rental_uris": {"android": "https://dc.lft.to/lastmile_qr_scan", "ios": "https://dc.lft.to/lastmile_qr_scan"}, "type": "electric_scooter", "name": "b6c48e81d1f60ae34eb3134369865682"}, {"bike_id": "2f4a772685ea7335b20083776ee652b3", "lat": 38.952981333333334, "is_disabled": 0, "lon": -77.02400116666666, "fusion_lon": 0.0, "is_reserved": 0, "fusion_lat": 0.0, "rental_uris": {"android": "https://dc.lft.to/lastmile_qr_scan", "ios": "https://dc.lft.to/lastmile_qr_scan"}, "type": "electric_bike", "name": "2f4a772685ea7335b20083776ee652b3"}, {"bike_id": "a6b1e49b098dde146544686938559eb4", "lat": 38.863335166666666, "is_disabled": 0, "lon": -76.98721266666666, "fusion_lon": 0.0, "is_reserved": 0, "fusion_lat": 0.0, "rental_uris": {"android": "https://dc.lft.to/lastmile_qr_scan", "ios": "https://dc.lft.to/lastmile_qr_scan"}, "type": "electric_bike", "name": "a6b1e49b098dde146544686938559eb4"}, {"bike_id": "56720a381370ef93fe27a1adee68f04e", "lat": 38.91682683333333, "is_disabled": 0, "lon": -76.98038416666667, "fusion_lon": 0.0, "is_reserved": 0, "fusion_lat": 0.0, "rental_uris": {"android": "https://dc.lft.to/lastmile_qr_scan", "ios": "https://dc.lft.to/lastmile_qr_scan"}, "type": "electric_scooter", "name": "56720a381370ef93fe27a1adee68f04e"}, {"bike_id": "484b89f91ca21c2529064035332ca178", "lat": 38.907954333333336, "is_disabled": 0, "lon": -77.03870166666667, "fusion_lon": 0.0, "is_reserved": 0, "fusion_lat": 0.0, "rental_uris": {"android": "https://dc.lft.to/lastmile_qr_scan", "ios": "https://dc.lft.to/lastmile_qr_scan"}, "type": "electric_scooter", "name": "484b89f91ca21c2529064035332ca178"}, {"bike_id": "265eda17dce6fe4a9c4a18031fc0864b", "lat": 38.841029, "is_disabled": 0, "lon": -77.089443, "fusion_lon": 0.0, "is_reserved": 0, "fusion_lat": 0.0, "rental_uris": {"android": "https://dc.lft.to/lastmile_qr_scan", "ios": "https://dc.lft.to/lastmile_qr_scan"}, "type": "electric_bike", "name": "265eda17dce6fe4a9c4a18031fc0864b"}, {"bike_id": "63c81ec87078ac8bff52a74af2a62e57", "lat": 38.91335183333333, "is_disabled": 0, "lon": -77.049656, "fusion_lon": 0.0, "is_reserved": 0, "fusion_lat": 0.0, "rental_uris": {"android": "https://dc.lft.to/lastmile_qr_scan", "ios": "https://dc.lft.to/lastmile_qr_scan"}, "type": "electric_scooter", "name": "63c81ec87078ac8bff52a74af2a62e57"}, {"bike_id": "681c4876de6f77a4cb060cfbae179127", "lat": 38.9269285, "is_disabled": 0, "lon": -77.02288483333334, "fusion_lon": 0.0, "is_reserved": 0, "fusion_lat": 0.0, "rental_uris": {"android": "https://dc.lft.to/lastmile_qr_scan", "ios": "https://dc.lft.to/lastmile_qr_scan"}, "type": "electric_scooter", "name": "681c4876de6f77a4cb060cfbae179127"}, {"bike_id": "d291f74c9be267107a1e50e2538c204a", "lat": 38.90547483333334, "is_disabled": 0, "lon": -77.02199566666667, "fusion_lon": 0.0, "is_reserved": 0, "fusion_lat": 0.0, "rental_uris": {"android": "https://dc.lft.to/lastmile_qr_scan", "ios": "https://dc.lft.to/lastmile_qr_scan"}, "type": "electric_scooter", "name": "d291f74c9be267107a1e50e2538c204a"}, {"bike_id": "dc8aa5ebcf691910ce7b93a79e5e8517", "lat": 38.876359, "is_disabled": 0, "lon": -76.99792466666666, "fusion_lon": 0.0, "is_reserved": 0, "fusion_lat": 0.0, "rental_uris": {"android": "https://dc.lft.to/lastmile_qr_scan", "ios": "https://dc.lft.to/lastmile_qr_scan"}, "type": "electric_scooter", "name": "dc8aa5ebcf691910ce7b93a79e5e8517"}, {"bike_id": "b70d4c0f0ac666ec4785f2596468d174", "lat": 38.944201166666666, "is_disabled": 0, "lon": -76.975663, "fusion_lon": 0.0, "is_reserved": 0, "fusion_lat": 0.0, "rental_uris": {"android": "https://dc.lft.to/lastmile_qr_scan", "ios": "https://dc.lft.to/lastmile_qr_scan"}, "type": "electric_scooter", "name": "b70d4c0f0ac666ec4785f2596468d174"}, {"bike_id": "3c9bc6328b43dca0a278cf15c17a7e07", "lat": 38.8899685, "is_disabled": 0, "lon": -77.003505, "fusion_lon": 0.0, "is_reserved": 0, "fusion_lat": 0.0, "rental_uris": {"android": "https://dc.lft.to/lastmile_qr_scan", "ios": "https://dc.lft.to/lastmile_qr_scan"}, "type": "electric_scooter", "name": "3c9bc6328b43dca0a278cf15c17a7e07"}, {"bike_id": "8c3adcfd3a4951ba28c7b182dd924871", "lat": 38.922159666666666, "is_disabled": 0, "lon": -76.98833683333334, "fusion_lon": 0.0, "is_reserved": 0, "fusion_lat": 0.0, "rental_uris": {"android": "https://dc.lft.to/lastmile_qr_scan", "ios": "https://dc.lft.to/lastmile_qr_scan"}, "type": "electric_bike", "name": "8c3adcfd3a4951ba28c7b182dd924871"}, {"bike_id": "c2c36a6088dd216cc02fa92c88388c86", "lat": 38.910077333333334, "is_disabled": 0, "lon": -77.03453716666667, "fusion_lon": 0.0, "is_reserved": 0, "fusion_lat": 0.0, "rental_uris": {"android": "https://dc.lft.to/lastmile_qr_scan", "ios": "https://dc.lft.to/lastmile_qr_scan"}, "type": "electric_scooter", "name": "c2c36a6088dd216cc02fa92c88388c86"}, {"bike_id": "04951f643a0bf8c7d81d3f4bb7f4dafd", "lat": 38.952229333333335, "is_disabled": 0, "lon": -77.0683255, "fusion_lon": 0.0, "is_reserved": 0, "fusion_lat": 0.0, "rental_uris": {"android": "https://dc.lft.to/lastmile_qr_scan", "ios": "https://dc.lft.to/lastmile_qr_scan"}, "type": "electric_scooter", "name": "04951f643a0bf8c7d81d3f4bb7f4dafd"}, {"bike_id": "e38aabc34978541ff149a240ba7b25aa", "lat": 38.90301566666667, "is_disabled": 0, "lon": -77.02621983333333, "fusion_lon": 0.0, "is_reserved": 0, "fusion_lat": 0.0, "rental_uris": {"android": "https://dc.lft.to/lastmile_qr_scan", "ios": "https://dc.lft.to/lastmile_qr_scan"}, "type": "electric_scooter", "name": "e38aabc34978541ff149a240ba7b25aa"}, {"bike_id": "6deb0e624006c8603eaacd1f25d11735", "lat": 38.910372833333334, "is_disabled": 0, "lon": -77.07543033333333, "fusion_lon": 0.0, "is_reserved": 0, "fusion_lat": 0.0, "rental_uris": {"android": "https://dc.lft.to/lastmile_qr_scan", "ios": "https://dc.lft.to/lastmile_qr_scan"}, "type": "electric_scooter", "name": "6deb0e624006c8603eaacd1f25d11735"}, {"bike_id": "b1f1a218e71b9cb5b1a920997346ebea", "lat": 38.905461833333334, "is_disabled": 0, "lon": -77.04081716666667, "fusion_lon": 0.0, "is_reserved": 0, "fusion_lat": 0.0, "rental_uris": {"android": "https://dc.lft.to/lastmile_qr_scan", "ios": "https://dc.lft.to/lastmile_qr_scan"}, "type": "electric_scooter", "name": "b1f1a218e71b9cb5b1a920997346ebea"}, {"bike_id": "4e9ae93de0c49b34e87ccd456663b3a6", "lat": 38.922405, "is_disabled": 0, "lon": -77.020946, "fusion_lon": 0.0, "is_reserved": 0, "fusion_lat": 0.0, "rental_uris": {"android": "https://dc.lft.to/lastmile_qr_scan", "ios": "https://dc.lft.to/lastmile_qr_scan"}, "type": "electric_scooter", "name": "4e9ae93de0c49b34e87ccd456663b3a6"}, {"bike_id": "5e95d2a82dff7292801f67b833c7b8f1", "lat": 38.980452666666665, "is_disabled": 0, "lon": -76.95798166666667, "fusion_lon": 0.0, "is_reserved": 0, "fusion_lat": 0.0, "rental_uris": {"android": "https://dc.lft.to/lastmile_qr_scan", "ios": "https://dc.lft.to/lastmile_qr_scan"}, "type": "electric_bike", "name": "5e95d2a82dff7292801f67b833c7b8f1"}, {"bike_id": "1c31a8819e58e143cc68f92b6df86a6d", "lat": 38.881898166666666, "is_disabled": 0, "lon": -77.02198716666666, "fusion_lon": 0.0, "is_reserved": 0, "fusion_lat": 0.0, "rental_uris": {"android": "https://dc.lft.to/lastmile_qr_scan", "ios": "https://dc.lft.to/lastmile_qr_scan"}, "type": "electric_scooter", "name": "1c31a8819e58e143cc68f92b6df86a6d"}, {"bike_id": "6f2ae795ae50533070146cab48b811de", "lat": 38.807375, "is_disabled": 0, "lon": -77.0972155, "fusion_lon": 0.0, "is_reserved": 0, "fusion_lat": 0.0, "rental_uris": {"android": "https://dc.lft.to/lastmile_qr_scan", "ios": "https://dc.lft.to/lastmile_qr_scan"}, "type": "electric_bike", "name": "6f2ae795ae50533070146cab48b811de"}, {"bike_id": "a450a8a34bee2084c49dfd9f789213b5", "lat": 38.86263266666667, "is_disabled": 0, "lon": -76.983512, "fusion_lon": 0.0, "is_reserved": 0, "fusion_lat": 0.0, "rental_uris": {"android": "https://dc.lft.to/lastmile_qr_scan", "ios": "https://dc.lft.to/lastmile_qr_scan"}, "type": "electric_bike", "name": "a450a8a34bee2084c49dfd9f789213b5"}, {"bike_id": "21b60c649492e3a4497fa5d2ea31dfdb", "lat": 38.920682666666664, "is_disabled": 0, "lon": -77.023625, "fusion_lon": 0.0, "is_reserved": 0, "fusion_lat": 0.0, "rental_uris": {"android": "https://dc.lft.to/lastmile_qr_scan", "ios": "https://dc.lft.to/lastmile_qr_scan"}, "type": "electric_scooter", "name": "21b60c649492e3a4497fa5d2ea31dfdb"}, {"bike_id": "fbc5c7485b70d4fe0d8a5acf4cbf0878", "lat": 38.91925066666667, "is_disabled": 0, "lon": -77.024114, "fusion_lon": 0.0, "is_reserved": 0, "fusion_lat": 0.0, "rental_uris": {"android": "https://dc.lft.to/lastmile_qr_scan", "ios": "https://dc.lft.to/lastmile_qr_scan"}, "type": "electric_scooter", "name": "fbc5c7485b70d4fe0d8a5acf4cbf0878"}, {"bike_id": "c309d88b591dde7c4c421316ce30c504", "lat": 38.89399266666667, "is_disabled": 0, "lon": -77.021185, "fusion_lon": 0.0, "is_reserved": 0, "fusion_lat": 0.0, "rental_uris": {"android": "https://dc.lft.to/lastmile_qr_scan", "ios": "https://dc.lft.to/lastmile_qr_scan"}, "type": "electric_scooter", "name": "c309d88b591dde7c4c421316ce30c504"}, {"bike_id": "5914d5ab149e2b748d0bc241423074b6", "lat": 38.905024166666664, "is_disabled": 0, "lon": -77.02593116666667, "fusion_lon": 0.0, "is_reserved": 0, "fusion_lat": 0.0, "rental_uris": {"android": "https://dc.lft.to/lastmile_qr_scan", "ios": "https://dc.lft.to/lastmile_qr_scan"}, "type": "electric_scooter", "name": "5914d5ab149e2b748d0bc241423074b6"}, {"bike_id": "c78e330ee0c37493e75a421598f2f3a3", "lat": 38.924828833333336, "is_disabled": 0, "lon": -77.02557416666667, "fusion_lon": 0.0, "is_reserved": 0, "fusion_lat": 0.0, "rental_uris": {"android": "https://dc.lft.to/lastmile_qr_scan", "ios": "https://dc.lft.to/lastmile_qr_scan"}, "type": "electric_scooter", "name": "c78e330ee0c37493e75a421598f2f3a3"}, {"bike_id": "3b632cbdb32051c612ddbb2b55ad8f3a", "lat": 38.918221, "is_disabled": 0, "lon": -77.02982, "fusion_lon": 0.0, "is_reserved": 0, "fusion_lat": 0.0, "rental_uris": {"android": "https://dc.lft.to/lastmile_qr_scan", "ios": "https://dc.lft.to/lastmile_qr_scan"}, "type": "electric_scooter", "name": "3b632cbdb32051c612ddbb2b55ad8f3a"}, {"bike_id": "ef29ea071c1362f6b837ee616922ed46", "lat": 38.921141166666665, "is_disabled": 0, "lon": -77.04211, "fusion_lon": 0.0, "is_reserved": 0, "fusion_lat": 0.0, "rental_uris": {"android": "https://dc.lft.to/lastmile_qr_scan", "ios": "https://dc.lft.to/lastmile_qr_scan"}, "type": "electric_scooter", "name": "ef29ea071c1362f6b837ee616922ed46"}, {"bike_id": "d3241d62988cc6a36068186b9968bbeb", "lat": 38.92891733333333, "is_disabled": 0, "lon": -77.03360183333334, "fusion_lon": 0.0, "is_reserved": 0, "fusion_lat": 0.0, "rental_uris": {"android": "https://dc.lft.to/lastmile_qr_scan", "ios": "https://dc.lft.to/lastmile_qr_scan"}, "type": "electric_scooter", "name": "d3241d62988cc6a36068186b9968bbeb"}, {"bike_id": "bc6553d64134e365f8e36a236c0baaa9", "lat": 38.91103616666667, "is_disabled": 0, "lon": -77.00216866666666, "fusion_lon": 0.0, "is_reserved": 0, "fusion_lat": 0.0, "rental_uris": {"android": "https://dc.lft.to/lastmile_qr_scan", "ios": "https://dc.lft.to/lastmile_qr_scan"}, "type": "electric_scooter", "name": "bc6553d64134e365f8e36a236c0baaa9"}, {"bike_id": "c6a7147cd1566379d4cff12b9c553ab1", "lat": 38.8717485, "is_disabled": 0, "lon": -77.00580166666667, "fusion_lon": 0.0, "is_reserved": 0, "fusion_lat": 0.0, "rental_uris": {"android": "https://dc.lft.to/lastmile_qr_scan", "ios": "https://dc.lft.to/lastmile_qr_scan"}, "type": "electric_scooter", "name": "c6a7147cd1566379d4cff12b9c553ab1"}, {"bike_id": "f24cf7969d3d8552d6e8ead985e95546", "lat": 38.887157, "is_disabled": 0, "lon": -77.02204266666666, "fusion_lon": 0.0, "is_reserved": 0, "fusion_lat": 0.0, "rental_uris": {"android": "https://dc.lft.to/lastmile_qr_scan", "ios": "https://dc.lft.to/lastmile_qr_scan"}, "type": "electric_scooter", "name": "f24cf7969d3d8552d6e8ead985e95546"}, {"bike_id": "16a4c5d8c2f0938d667d6edff48f1825", "lat": 38.91849466666667, "is_disabled": 0, "lon": -77.0900215, "fusion_lon": 0.0, "is_reserved": 0, "fusion_lat": 0.0, "rental_uris": {"android": "https://dc.lft.to/lastmile_qr_scan", "ios": "https://dc.lft.to/lastmile_qr_scan"}, "type": "electric_scooter", "name": "16a4c5d8c2f0938d667d6edff48f1825"}, {"bike_id": "603dcea60b835827c50af77f6fb4f172", "lat": 38.886300166666665, "is_disabled": 0, "lon": -77.02223183333334, "fusion_lon": 0.0, "is_reserved": 0, "fusion_lat": 0.0, "rental_uris": {"android": "https://dc.lft.to/lastmile_qr_scan", "ios": "https://dc.lft.to/lastmile_qr_scan"}, "type": "electric_scooter", "name": "603dcea60b835827c50af77f6fb4f172"}, {"bike_id": "94990c50100ba0e572e4952c7db1f96c", "lat": 38.892239833333335, "is_disabled": 0, "lon": -77.04514083333333, "fusion_lon": 0.0, "is_reserved": 0, "fusion_lat": 0.0, "rental_uris": {"android": "https://dc.lft.to/lastmile_qr_scan", "ios": "https://dc.lft.to/lastmile_qr_scan"}, "type": "electric_scooter", "name": "94990c50100ba0e572e4952c7db1f96c"}, {"bike_id": "f2530ed7e646fc846d78a2625691b2fc", "lat": 38.871785833333334, "is_disabled": 0, "lon": -77.006076, "fusion_lon": 0.0, "is_reserved": 0, "fusion_lat": 0.0, "rental_uris": {"android": "https://dc.lft.to/lastmile_qr_scan", "ios": "https://dc.lft.to/lastmile_qr_scan"}, "type": "electric_scooter", "name": "f2530ed7e646fc846d78a2625691b2fc"}, {"bike_id": "f7963834ce13ab32cfe64a323f60cadd", "lat": 38.92603666666667, "is_disabled": 0, "lon": -77.02154883333333, "fusion_lon": 0.0, "is_reserved": 0, "fusion_lat": 0.0, "rental_uris": {"android": "https://dc.lft.to/lastmile_qr_scan", "ios": "https://dc.lft.to/lastmile_qr_scan"}, "type": "electric_scooter", "name": "f7963834ce13ab32cfe64a323f60cadd"}, {"bike_id": "1699b2e1f80589c37df050fd41e39f51", "lat": 38.897096166666664, "is_disabled": 0, "lon": -77.02889316666666, "fusion_lon": 0.0, "is_reserved": 0, "fusion_lat": 0.0, "rental_uris": {"android": "https://dc.lft.to/lastmile_qr_scan", "ios": "https://dc.lft.to/lastmile_qr_scan"}, "type": "electric_scooter", "name": "1699b2e1f80589c37df050fd41e39f51"}, {"bike_id": "1b591448cc6d2ed11b684471237651ba", "lat": 38.91190616666667, "is_disabled": 0, "lon": -76.987688, "fusion_lon": 0.0, "is_reserved": 0, "fusion_lat": 0.0, "rental_uris": {"android": "https://dc.lft.to/lastmile_qr_scan", "ios": "https://dc.lft.to/lastmile_qr_scan"}, "type": "electric_scooter", "name": "1b591448cc6d2ed11b684471237651ba"}, {"bike_id": "0ae38d74660e8dcc84a24586a902872d", "lat": 38.8998715, "is_disabled": 0, "lon": -77.02119983333333, "fusion_lon": 0.0, "is_reserved": 0, "fusion_lat": 0.0, "rental_uris": {"android": "https://dc.lft.to/lastmile_qr_scan", "ios": "https://dc.lft.to/lastmile_qr_scan"}, "type": "electric_bike", "name": "0ae38d74660e8dcc84a24586a902872d"}, {"bike_id": "5d84f0739103fddd0b77a50e6b7195cd", "lat": 38.919874166666666, "is_disabled": 0, "lon": -77.0408665, "fusion_lon": 0.0, "is_reserved": 0, "fusion_lat": 0.0, "rental_uris": {"android": "https://dc.lft.to/lastmile_qr_scan", "ios": "https://dc.lft.to/lastmile_qr_scan"}, "type": "electric_scooter", "name": "5d84f0739103fddd0b77a50e6b7195cd"}, {"bike_id": "fea7a5a3199a10f5784c066aae743bf3", "lat": 38.90026966666667, "is_disabled": 0, "lon": -76.9919325, "fusion_lon": 0.0, "is_reserved": 0, "fusion_lat": 0.0, "rental_uris": {"android": "https://dc.lft.to/lastmile_qr_scan", "ios": "https://dc.lft.to/lastmile_qr_scan"}, "type": "electric_scooter", "name": "fea7a5a3199a10f5784c066aae743bf3"}, {"bike_id": "2787ea954a224019b0320ceac128d12a", "lat": 38.89231266666667, "is_disabled": 0, "lon": -77.04875383333334, "fusion_lon": 0.0, "is_reserved": 0, "fusion_lat": 0.0, "rental_uris": {"android": "https://dc.lft.to/lastmile_qr_scan", "ios": "https://dc.lft.to/lastmile_qr_scan"}, "type": "electric_scooter", "name": "2787ea954a224019b0320ceac128d12a"}, {"bike_id": "00b9762a5d915d7a4a6bd6c26425dec6", "lat": 38.819839333333334, "is_disabled": 0, "lon": -76.99814666666667, "fusion_lon": 0.0, "is_reserved": 0, "fusion_lat": 0.0, "rental_uris": {"android": "https://dc.lft.to/lastmile_qr_scan", "ios": "https://dc.lft.to/lastmile_qr_scan"}, "type": "electric_bike", "name": "00b9762a5d915d7a4a6bd6c26425dec6"}, {"bike_id": "4ec67c706b0343cb20965a7f1fe7bd89", "lat": 38.89524, "is_disabled": 0, "lon": -77.01130366666666, "fusion_lon": 0.0, "is_reserved": 0, "fusion_lat": 0.0, "rental_uris": {"android": "https://dc.lft.to/lastmile_qr_scan", "ios": "https://dc.lft.to/lastmile_qr_scan"}, "type": "electric_scooter", "name": "4ec67c706b0343cb20965a7f1fe7bd89"}, {"bike_id": "50cfa0a6a5f213824ac259ccd9b11b9a", "lat": 38.917149, "is_disabled": 0, "lon": -77.0269635, "fusion_lon": 0.0, "is_reserved": 0, "fusion_lat": 0.0, "rental_uris": {"android": "https://dc.lft.to/lastmile_qr_scan", "ios": "https://dc.lft.to/lastmile_qr_scan"}, "type": "electric_scooter", "name": "50cfa0a6a5f213824ac259ccd9b11b9a"}, {"bike_id": "62e89b6d7298aaaac15c44744ab9e114", "lat": 38.89554066666667, "is_disabled": 0, "lon": -77.00912133333334, "fusion_lon": 0.0, "is_reserved": 0, "fusion_lat": 0.0, "rental_uris": {"android": "https://dc.lft.to/lastmile_qr_scan", "ios": "https://dc.lft.to/lastmile_qr_scan"}, "type": "electric_scooter", "name": "62e89b6d7298aaaac15c44744ab9e114"}, {"bike_id": "1555cafde7538b2ea22a630e766814f0", "lat": 38.947797, "is_disabled": 0, "lon": -77.04073766666667, "fusion_lon": 0.0, "is_reserved": 0, "fusion_lat": 0.0, "rental_uris": {"android": "https://dc.lft.to/lastmile_qr_scan", "ios": "https://dc.lft.to/lastmile_qr_scan"}, "type": "electric_scooter", "name": "1555cafde7538b2ea22a630e766814f0"}, {"bike_id": "59a8b68c4cec77026bc39733c220daf5", "lat": 38.9319415, "is_disabled": 0, "lon": -77.0296835, "fusion_lon": 0.0, "is_reserved": 0, "fusion_lat": 0.0, "rental_uris": {"android": "https://dc.lft.to/lastmile_qr_scan", "ios": "https://dc.lft.to/lastmile_qr_scan"}, "type": "electric_scooter", "name": "59a8b68c4cec77026bc39733c220daf5"}, {"bike_id": "d9dd69d2ee2365cabe9b3b456b79549b", "lat": 38.903526666666664, "is_disabled": 0, "lon": -77.02893083333333, "fusion_lon": 0.0, "is_reserved": 0, "fusion_lat": 0.0, "rental_uris": {"android": "https://dc.lft.to/lastmile_qr_scan", "ios": "https://dc.lft.to/lastmile_qr_scan"}, "type": "electric_scooter", "name": "d9dd69d2ee2365cabe9b3b456b79549b"}, {"bike_id": "499238e854f31342232c66c149c853da", "lat": 38.971958666666666, "is_disabled": 0, "lon": -77.02717616666666, "fusion_lon": 0.0, "is_reserved": 0, "fusion_lat": 0.0, "rental_uris": {"android": "https://dc.lft.to/lastmile_qr_scan", "ios": "https://dc.lft.to/lastmile_qr_scan"}, "type": "electric_bike", "name": "499238e854f31342232c66c149c853da"}, {"bike_id": "e71c9c003f853be25863a41d89517f21", "lat": 38.89713716666667, "is_disabled": 0, "lon": -77.02640983333333, "fusion_lon": 0.0, "is_reserved": 0, "fusion_lat": 0.0, "rental_uris": {"android": "https://dc.lft.to/lastmile_qr_scan", "ios": "https://dc.lft.to/lastmile_qr_scan"}, "type": "electric_scooter", "name": "e71c9c003f853be25863a41d89517f21"}, {"bike_id": "55ea003485d3bad75e79598b2e5ed72f", "lat": 38.879220333333336, "is_disabled": 0, "lon": -76.99543716666666, "fusion_lon": 0.0, "is_reserved": 0, "fusion_lat": 0.0, "rental_uris": {"android": "https://dc.lft.to/lastmile_qr_scan", "ios": "https://dc.lft.to/lastmile_qr_scan"}, "type": "electric_scooter", "name": "55ea003485d3bad75e79598b2e5ed72f"}, {"bike_id": "fadb00035b87e8e6e97889701c216577", "lat": 38.925511666666665, "is_disabled": 0, "lon": -76.98312983333334, "fusion_lon": 0.0, "is_reserved": 0, "fusion_lat": 0.0, "rental_uris": {"android": "https://dc.lft.to/lastmile_qr_scan", "ios": "https://dc.lft.to/lastmile_qr_scan"}, "type": "electric_scooter", "name": "fadb00035b87e8e6e97889701c216577"}, {"bike_id": "abdf8436056545382a11b774318bf7a7", "lat": 38.90240083333333, "is_disabled": 0, "lon": -77.00201616666666, "fusion_lon": 0.0, "is_reserved": 0, "fusion_lat": 0.0, "rental_uris": {"android": "https://dc.lft.to/lastmile_qr_scan", "ios": "https://dc.lft.to/lastmile_qr_scan"}, "type": "electric_scooter", "name": "abdf8436056545382a11b774318bf7a7"}, {"bike_id": "b5d49d0b1afe5f8f668a22489658f141", "lat": 38.892222, "is_disabled": 0, "lon": -77.017282, "fusion_lon": 0.0, "is_reserved": 0, "fusion_lat": 0.0, "rental_uris": {"android": "https://dc.lft.to/lastmile_qr_scan", "ios": "https://dc.lft.to/lastmile_qr_scan"}, "type": "electric_scooter", "name": "b5d49d0b1afe5f8f668a22489658f141"}, {"bike_id": "14dbfb0797933f3622b69eb03c68f1ef", "lat": 38.87143066666667, "is_disabled": 0, "lon": -77.00674183333334, "fusion_lon": 0.0, "is_reserved": 0, "fusion_lat": 0.0, "rental_uris": {"android": "https://dc.lft.to/lastmile_qr_scan", "ios": "https://dc.lft.to/lastmile_qr_scan"}, "type": "electric_scooter", "name": "14dbfb0797933f3622b69eb03c68f1ef"}, {"bike_id": "6d06c4229b5dc79e9bab699548256e23", "lat": 38.911052833333336, "is_disabled": 0, "lon": -77.041529, "fusion_lon": 0.0, "is_reserved": 0, "fusion_lat": 0.0, "rental_uris": {"android": "https://dc.lft.to/lastmile_qr_scan", "ios": "https://dc.lft.to/lastmile_qr_scan"}, "type": "electric_scooter", "name": "6d06c4229b5dc79e9bab699548256e23"}, {"bike_id": "b9b181f72068fc53445e42c427ce14f2", "lat": 38.8808215, "is_disabled": 0, "lon": -76.98532816666666, "fusion_lon": 0.0, "is_reserved": 0, "fusion_lat": 0.0, "rental_uris": {"android": "https://dc.lft.to/lastmile_qr_scan", "ios": "https://dc.lft.to/lastmile_qr_scan"}, "type": "electric_scooter", "name": "b9b181f72068fc53445e42c427ce14f2"}, {"bike_id": "4e75a3cb8893580df7ff9f9166677238", "lat": 38.95655516666667, "is_disabled": 0, "lon": -77.01969283333334, "fusion_lon": 0.0, "is_reserved": 0, "fusion_lat": 0.0, "rental_uris": {"android": "https://dc.lft.to/lastmile_qr_scan", "ios": "https://dc.lft.to/lastmile_qr_scan"}, "type": "electric_scooter", "name": "4e75a3cb8893580df7ff9f9166677238"}, {"bike_id": "97fcd13ddf0321cbc019402cdae3e8dd", "lat": 38.92106883333334, "is_disabled": 0, "lon": -77.02080816666667, "fusion_lon": 0.0, "is_reserved": 0, "fusion_lat": 0.0, "rental_uris": {"android": "https://dc.lft.to/lastmile_qr_scan", "ios": "https://dc.lft.to/lastmile_qr_scan"}, "type": "electric_scooter", "name": "97fcd13ddf0321cbc019402cdae3e8dd"}, {"bike_id": "85d74cb08f7579c00944ddcd74ae7f5c", "lat": 38.923923333333335, "is_disabled": 0, "lon": -77.01956116666666, "fusion_lon": 0.0, "is_reserved": 0, "fusion_lat": 0.0, "rental_uris": {"android": "https://dc.lft.to/lastmile_qr_scan", "ios": "https://dc.lft.to/lastmile_qr_scan"}, "type": "electric_scooter", "name": "85d74cb08f7579c00944ddcd74ae7f5c"}, {"bike_id": "0a3883478d9f773883a5accdbb9d683e", "lat": 38.94475216666667, "is_disabled": 0, "lon": -76.986875, "fusion_lon": 0.0, "is_reserved": 0, "fusion_lat": 0.0, "rental_uris": {"android": "https://dc.lft.to/lastmile_qr_scan", "ios": "https://dc.lft.to/lastmile_qr_scan"}, "type": "electric_bike", "name": "0a3883478d9f773883a5accdbb9d683e"}, {"bike_id": "f397387ea6700571772cdb97a0632f26", "lat": 38.9036195, "is_disabled": 0, "lon": -77.007415, "fusion_lon": 0.0, "is_reserved": 0, "fusion_lat": 0.0, "rental_uris": {"android": "https://dc.lft.to/lastmile_qr_scan", "ios": "https://dc.lft.to/lastmile_qr_scan"}, "type": "electric_scooter", "name": "f397387ea6700571772cdb97a0632f26"}, {"bike_id": "deb11e4b5333b244de580d8281b98109", "lat": 38.9246645, "is_disabled": 0, "lon": -77.03535783333334, "fusion_lon": 0.0, "is_reserved": 0, "fusion_lat": 0.0, "rental_uris": {"android": "https://dc.lft.to/lastmile_qr_scan", "ios": "https://dc.lft.to/lastmile_qr_scan"}, "type": "electric_scooter", "name": "deb11e4b5333b244de580d8281b98109"}, {"bike_id": "4750945742956ab6cf055b2278a8b734", "lat": 38.89630566666666, "is_disabled": 0, "lon": -77.0322405, "fusion_lon": 0.0, "is_reserved": 0, "fusion_lat": 0.0, "rental_uris": {"android": "https://dc.lft.to/lastmile_qr_scan", "ios": "https://dc.lft.to/lastmile_qr_scan"}, "type": "electric_scooter", "name": "4750945742956ab6cf055b2278a8b734"}, {"bike_id": "8fc40dce4bbead5005d69246c3e9b180", "lat": 38.91205733333334, "is_disabled": 0, "lon": -77.03647333333333, "fusion_lon": 0.0, "is_reserved": 0, "fusion_lat": 0.0, "rental_uris": {"android": "https://dc.lft.to/lastmile_qr_scan", "ios": "https://dc.lft.to/lastmile_qr_scan"}, "type": "electric_scooter", "name": "8fc40dce4bbead5005d69246c3e9b180"}, {"bike_id": "45e0b6c6004cd9548b6b2f0c32ebee76", "lat": 38.8767265, "is_disabled": 0, "lon": -77.00937783333333, "fusion_lon": 0.0, "is_reserved": 0, "fusion_lat": 0.0, "rental_uris": {"android": "https://dc.lft.to/lastmile_qr_scan", "ios": "https://dc.lft.to/lastmile_qr_scan"}, "type": "electric_scooter", "name": "45e0b6c6004cd9548b6b2f0c32ebee76"}, {"bike_id": "b7996f89edbb5ac43cfac0a5cf68246b", "lat": 38.90982, "is_disabled": 0, "lon": -76.99708483333333, "fusion_lon": 0.0, "is_reserved": 0, "fusion_lat": 0.0, "rental_uris": {"android": "https://dc.lft.to/lastmile_qr_scan", "ios": "https://dc.lft.to/lastmile_qr_scan"}, "type": "electric_scooter", "name": "b7996f89edbb5ac43cfac0a5cf68246b"}, {"bike_id": "4f9534be321fc579ede1d719369ef735", "lat": 38.885584333333334, "is_disabled": 0, "lon": -76.99796483333333, "fusion_lon": 0.0, "is_reserved": 0, "fusion_lat": 0.0, "rental_uris": {"android": "https://dc.lft.to/lastmile_qr_scan", "ios": "https://dc.lft.to/lastmile_qr_scan"}, "type": "electric_scooter", "name": "4f9534be321fc579ede1d719369ef735"}, {"bike_id": "d56d092eaf6b7823c8d0da75984dc64f", "lat": 38.9179795, "is_disabled": 0, "lon": -77.02955716666666, "fusion_lon": 0.0, "is_reserved": 0, "fusion_lat": 0.0, "rental_uris": {"android": "https://dc.lft.to/lastmile_qr_scan", "ios": "https://dc.lft.to/lastmile_qr_scan"}, "type": "electric_scooter", "name": "d56d092eaf6b7823c8d0da75984dc64f"}, {"bike_id": "0977270c80f8bbc00af723627454b590", "lat": 38.86263533333333, "is_disabled": 0, "lon": -76.98347966666667, "fusion_lon": 0.0, "is_reserved": 0, "fusion_lat": 0.0, "rental_uris": {"android": "https://dc.lft.to/lastmile_qr_scan", "ios": "https://dc.lft.to/lastmile_qr_scan"}, "type": "electric_bike", "name": "0977270c80f8bbc00af723627454b590"}, {"bike_id": "090210e7e293aa5a2d103bc6cffdcd13", "lat": 38.897423833333335, "is_disabled": 0, "lon": -77.0397505, "fusion_lon": 0.0, "is_reserved": 0, "fusion_lat": 0.0, "rental_uris": {"android": "https://dc.lft.to/lastmile_qr_scan", "ios": "https://dc.lft.to/lastmile_qr_scan"}, "type": "electric_scooter", "name": "090210e7e293aa5a2d103bc6cffdcd13"}, {"bike_id": "14951b9dbd6295989c920687d94ad3c3", "lat": 38.905919833333336, "is_disabled": 0, "lon": -77.04611533333333, "fusion_lon": 0.0, "is_reserved": 0, "fusion_lat": 0.0, "rental_uris": {"android": "https://dc.lft.to/lastmile_qr_scan", "ios": "https://dc.lft.to/lastmile_qr_scan"}, "type": "electric_scooter", "name": "14951b9dbd6295989c920687d94ad3c3"}, {"bike_id": "ac7b50f27986b32e1d083d6f7b9b77df", "lat": 38.862367, "is_disabled": 0, "lon": -76.99592683333333, "fusion_lon": 0.0, "is_reserved": 0, "fusion_lat": 0.0, "rental_uris": {"android": "https://dc.lft.to/lastmile_qr_scan", "ios": "https://dc.lft.to/lastmile_qr_scan"}, "type": "electric_bike", "name": "ac7b50f27986b32e1d083d6f7b9b77df"}, {"bike_id": "e69b0af7ec1521e6a56be0a47e890e5e", "lat": 38.91772616666667, "is_disabled": 0, "lon": -77.02346583333333, "fusion_lon": 0.0, "is_reserved": 0, "fusion_lat": 0.0, "rental_uris": {"android": "https://dc.lft.to/lastmile_qr_scan", "ios": "https://dc.lft.to/lastmile_qr_scan"}, "type": "electric_scooter", "name": "e69b0af7ec1521e6a56be0a47e890e5e"}, {"bike_id": "8853bfc2cc9f311d1814453c6a7611d3", "lat": 38.912599, "is_disabled": 0, "lon": -77.04735483333333, "fusion_lon": 0.0, "is_reserved": 0, "fusion_lat": 0.0, "rental_uris": {"android": "https://dc.lft.to/lastmile_qr_scan", "ios": "https://dc.lft.to/lastmile_qr_scan"}, "type": "electric_scooter", "name": "8853bfc2cc9f311d1814453c6a7611d3"},