{"data": {"bikes": [{"lat": 38.895061, "is_disabled": 0, "type": "electric_scooter", "fusion_lon": 0.0, "rental_uris": {"android": "https://dc.lft.to/lastmile_qr_scan", "ios": "https://dc.lft.to/lastmile_qr_scan"}, "fusion_lat": 0.0, "is_reserved": 0, "bike_id": "6389bbd98237fb5a5e4534ace748169f", "name": "6389bbd98237fb5a5e4534ace748169f", "lon": -77.00330616666666}, {"lat": 39.0528245, "is_disabled": 0, "type": "electric_bike", "fusion_lon": 0.0, "rental_uris": {"android": "https://dc.lft.to/lastmile_qr_scan", "ios": "https://dc.lft.to/lastmile_qr_scan"}, "fusion_lat": 0.0, "is_reserved": 0, "bike_id": "c06f444d9427d25e15441f0e4c023af9", "name": "c06f444d9427d25e15441f0e4c023af9", "lon": -77.0806905}, {"lat": 38.92362933333333, "is_disabled": 0, "type": "electric_scooter", "fusion_lon": 0.0, "rental_uris": {"android": "https://dc.lft.to/lastmile_qr_scan", "ios": "https://dc.lft.to/lastmile_qr_scan"}, "fusion_lat": 0.0, "is_reserved": 0, "bike_id": "b1bc6d8c565e4135fb7a9eadac3c7e45", "name": "b1bc6d8c565e4135fb7a9eadac3c7e45", "lon": -77.05187}, {"lat": 38.90863916666667, "is_disabled": 0, "type": "electric_scooter", "fusion_lon": 0.0, "rental_uris": {"android": "https://dc.lft.to/lastmile_qr_scan", "ios": "https://dc.lft.to/lastmile_qr_scan"}, "fusion_lat": 0.0, "is_reserved": 0, "bike_id": "786127143d7b2961fed3a10edfef7b2e", "name": "786127143d7b2961fed3a10edfef7b2e", "lon": -77.04569183333334}, {"lat": 38.92417066666667, "is_disabled": 0, "type": "electric_scooter", "fusion_lon": 0.0, "rental_uris": {"android": "https://dc.lft.to/lastmile_qr_scan", "ios": "https://dc.lft.to/lastmile_qr_scan"}, "fusion_lat": 0.0, "is_reserved": 0, "bike_id": "97e8144f33cfd80f3ed741eda4d33441", "name": "97e8144f33cfd80f3ed741eda4d33441", "lon": -77.019482}, {"lat": 38.871926333333334, "is_disabled": 0, "type": "electric_scooter", "fusion_lon": 0.0, "rental_uris": {"android": "https://dc.lft.to/lastmile_qr_scan", "ios": "https://dc.lft.to/lastmile_qr_scan"}, "fusion_lat": 0.0, "is_reserved": 0, "bike_id": "2f8c81632bfe15818657d17497d0677c", "name": "2f8c81632bfe15818657d17497d0677c", "lon": -77.01080366666666}, {"lat": 38.961044666666666, "is_disabled": 0, "type": "electric_bike", "fusion_lon": 0.0, "rental_uris": {"android": "https://dc.lft.to/lastmile_qr_scan", "ios": "https://dc.lft.to/lastmile_qr_scan"}, "fusion_lat": 0.0, "is_reserved": 0, "bike_id": "ea8b202f51a6244bda8ceeed2c819b3a", "name": "ea8b202f51a6244bda8ceeed2c819b3a", "lon": -76.928153}, {"lat": 38.92745383333333, "is_disabled": 0, "type": "electric_scooter", "fusion_lon": 0.0, "rental_uris": {"android": "https://dc.lft.to/lastmile_qr_scan", "ios": "https://dc.lft.to/lastmile_qr_scan"}, "fusion_lat": 0.0, "is_reserved": 0, "bike_id": "f7d5b4374df56981eeb679026e34b15b", "name": "f7d5b4374df56981eeb679026e34b15b", "lon": -77.036337}, {"lat": 38.918151333333334, "is_disabled": 0, "type": "electric_scooter", "fusion_lon": 0.0, "rental_uris": {"android": "https://dc.lft.to/lastmile_qr_scan", "ios": "https://dc.lft.to/lastmile_qr_scan"}, "fusion_lat": 0.0, "is_reserved": 0, "bike_id": "304dff09854beb9223b59b49c878c71e", "name": "304dff09854beb9223b59b49c878c71e", "lon": -77.03716183333333}, {"lat": 38.88725783333334, "is_disabled": 0, "type": "electric_scooter", "fusion_lon": 0.0, "rental_uris": {"android": "https://dc.lft.to/lastmile_qr_scan", "ios": "https://dc.lft.to/lastmile_qr_scan"}, "fusion_lat": 0.0, "is_reserved": 0, "bike_id": "ce1b50f835d963d43bc9e7b2688b95ec", "name": "ce1b50f835d963d43bc9e7b2688b95ec", "lon": -77.02836833333333}, {"lat": 38.916236833333336, "is_disabled": 0, "type": "electric_scooter", "fusion_lon": 0.0, "rental_uris": {"android": "https://dc.lft.to/lastmile_qr_scan", "ios": "https://dc.lft.to/lastmile_qr_scan"}, "fusion_lat": 0.0, "is_reserved": 0, "bike_id": "38b1f0b8656bddcaa288ba6009f9e472", "name": "38b1f0b8656bddcaa288ba6009f9e472", "lon": -77.03279966666666}, {"lat": 38.90245316666667, "is_disabled": 0, "type": "electric_scooter", "fusion_lon": 0.0, "rental_uris": {"android": "https://dc.lft.to/lastmile_qr_scan", "ios": "https://dc.lft.to/lastmile_qr_scan"}, "fusion_lat": 0.0, "is_reserved": 0, "bike_id": "7250957d4a54f031117bc42b0e6f08bd", "name": "7250957d4a54f031117bc42b0e6f08bd", "lon": -76.99556383333334}, {"lat": 38.9334825, "is_disabled": 0, "type": "electric_scooter", "fusion_lon": 0.0, "rental_uris": {"android": "https://dc.lft.to/lastmile_qr_scan", "ios": "https://dc.lft.to/lastmile_qr_scan"}, "fusion_lat": 0.0, "is_reserved": 0, "bike_id": "f762db8ae92ecc2a1bf6917f1ada32b6", "name": "f762db8ae92ecc2a1bf6917f1ada32b6", "lon": -77.02380033333333}, {"lat": 38.890828666666664, "is_disabled": 0, "type": "electric_scooter", "fusion_lon": 0.0, "rental_uris": {"android": "https://dc.lft.to/lastmile_qr_scan", "ios": "https://dc.lft.to/lastmile_qr_scan"}, "fusion_lat": 0.0, "is_reserved": 0, "bike_id": "4d0db12e1733fc1ff6d7296d3529528b", "name": "4d0db12e1733fc1ff6d7296d3529528b", "lon": -77.04041783333334}, {"lat": 38.869966166666664, "is_disabled": 0, "type": "electric_scooter", "fusion_lon": 0.0, "rental_uris": {"android": "https://dc.lft.to/lastmile_qr_scan", "ios": "https://dc.lft.to/lastmile_qr_scan"}, "fusion_lat": 0.0, "is_reserved": 0, "bike_id": "88d71d9b935f87986f13114ce1686c80", "name": "88d71d9b935f87986f13114ce1686c80", "lon": -76.9758935}, {"lat": 38.897512166666665, "is_disabled": 0, "type": "electric_scooter", "fusion_lon": 0.0, "rental_uris": {"android": "https://dc.lft.to/lastmile_qr_scan", "ios": "https://dc.lft.to/lastmile_qr_scan"}, "fusion_lat": 0.0, "is_reserved": 0, "bike_id": "aa04974bd6b5b75f085ed4abd19d6250", "name": "aa04974bd6b5b75f085ed4abd19d6250", "lon": -77.02722833333333}, {"lat": 38.915548, "is_disabled": 0, "type": "electric_scooter", "fusion_lon": 0.0, "rental_uris": {"android": "https://dc.lft.to/lastmile_qr_scan", "ios": "https://dc.lft.to/lastmile_qr_scan"}, "fusion_lat": 0.0, "is_reserved": 0, "bike_id": "98d41604a0f77ac7f31c0c51e7b8bfc4", "name": "98d41604a0f77ac7f31c0c51e7b8bfc4", "lon": -77.0243295}, {"lat": 38.91710716666667, "is_disabled": 0, "type": "electric_scooter", "fusion_lon": 0.0, "rental_uris": {"android": "https://dc.lft.to/lastmile_qr_scan", "ios": "https://dc.lft.to/lastmile_qr_scan"}, "fusion_lat": 0.0, "is_reserved": 0, "bike_id": "ff276b701b7d3f6d014d855ef6ecace2", "name": "ff276b701b7d3f6d014d855ef6ecace2", "lon": -77.04607166666666}, {"lat": 38.907619, "is_disabled": 0, "type": "electric_scooter", "fusion_lon": 0.0, "rental_uris": {"android": "https://dc.lft.to/lastmile_qr_scan", "ios": "https://dc.lft.to/lastmile_qr_scan"}, "fusion_lat": 0.0, "is_reserved": 0, "bike_id": "35afc551fa79beea9c957cb0ac86578e", "name": "35afc551fa79beea9c957cb0ac86578e", "lon": -77.041512}, {"lat": 38.92145266666667, "is_disabled": 0, "type": "electric_scooter", "fusion_lon": 0.0, "rental_uris": {"android": "https://dc.lft.to/lastmile_qr_scan", "ios": "https://dc.lft.to/lastmile_qr_scan"}, "fusion_lat": 0.0, "is_reserved": 0, "bike_id": "2bc108173ff37312e208236e845425c3", "name": "2bc108173ff37312e208236e845425c3", "lon": -77.03507766666667}, {"lat": 38.9327095, "is_disabled": 0, "type": "electric_scooter", "fusion_lon": 0.0, "rental_uris": {"android": "https://dc.lft.to/lastmile_qr_scan", "ios": "https://dc.lft.to/lastmile_qr_scan"}, "fusion_lat": 0.0, "is_reserved": 0, "bike_id": "934573b24f6b60fd0ad972934986fab8", "name": "934573b24f6b60fd0ad972934986fab8", "lon": -77.03967533333334}, {"lat": 38.916932, "is_disabled": 0, "type": "electric_scooter", "fusion_lon": 0.0, "rental_uris": {"android": "https://dc.lft.to/lastmile_qr_scan", "ios": "https://dc.lft.to/lastmile_qr_scan"}, "fusion_lat": 0.0, "is_reserved": 0, "bike_id": "af97aee5e576cad41bc6c4c8e107429f", "name": "af97aee5e576cad41bc6c4c8e107429f", "lon": -77.03769783333334}, {"lat": 38.9261925, "is_disabled": 0, "type": "electric_scooter", "fusion_lon": 0.0, "rental_uris": {"android": "https://dc.lft.to/lastmile_qr_scan", "ios": "https://dc.lft.to/lastmile_qr_scan"}, "fusion_lat": 0.0, "is_reserved": 0, "bike_id": "f79ddf1b356776792de5610dabf79c7a", "name": "f79ddf1b356776792de5610dabf79c7a", "lon": -77.04322816666667}, {"lat": 38.906601333333334, "is_disabled": 0, "type": "electric_scooter", "fusion_lon": 0.0, "rental_uris": {"android": "https://dc.lft.to/lastmile_qr_scan", "ios": "https://dc.lft.to/lastmile_qr_scan"}, "fusion_lat": 0.0, "is_reserved": 0, "bike_id": "e18ebe11e7f1dadb11d35e8e64de801b", "name": "e18ebe11e7f1dadb11d35e8e64de801b", "lon": -77.06528583333333}, {"lat": 38.900474333333335, "is_disabled": 0, "type": "electric_scooter", "fusion_lon": 0.0, "rental_uris": {"android": "https://dc.lft.to/lastmile_qr_scan", "ios": "https://dc.lft.to/lastmile_qr_scan"}, "fusion_lat": 0.0, "is_reserved": 0, "bike_id": "6a222feb74c6431d41b2d544548dfe4d", "name": "6a222feb74c6431d41b2d544548dfe4d", "lon": -77.04877383333333}, {"lat": 38.909452333333334, "is_disabled": 0, "type": "electric_scooter", "fusion_lon": 0.0, "rental_uris": {"android": "https://dc.lft.to/lastmile_qr_scan", "ios": "https://dc.lft.to/lastmile_qr_scan"}, "fusion_lat": 0.0, "is_reserved": 0, "bike_id": "0f3d33f26e2b1e6658441f504d14ece1", "name": "0f3d33f26e2b1e6658441f504d14ece1", "lon": -77.04496366666666}, {"lat": 38.88588883333333, "is_disabled": 0, "type": "electric_scooter", "fusion_lon": 0.0, "rental_uris": {"android": "https://dc.lft.to/lastmile_qr_scan", "ios": "https://dc.lft.to/lastmile_qr_scan"}, "fusion_lat": 0.0, "is_reserved": 0, "bike_id": "10d02ad2c79f91cfdee7a400be5427d2", "name": "10d02ad2c79f91cfdee7a400be5427d2", "lon": -77.03665616666666}, {"lat": 38.9034535, "is_disabled": 0, "type": "electric_scooter", "fusion_lon": 0.0, "rental_uris": {"android": "https://dc.lft.to/lastmile_qr_scan", "ios": "https://dc.lft.to/lastmile_qr_scan"}, "fusion_lat": 0.0, "is_reserved": 0, "bike_id": "818a97f1b2be3e941dc18282b73b254d", "name": "818a97f1b2be3e941dc18282b73b254d", "lon": -76.982771}, {"lat": 38.89636, "is_disabled": 0, "type": "electric_scooter", "fusion_lon": 0.0, "rental_uris": {"android": "https://dc.lft.to/lastmile_qr_scan", "ios": "https://dc.lft.to/lastmile_qr_scan"}, "fusion_lat": 0.0, "is_reserved": 0, "bike_id": "0d21d0e0561de19810ff6ec6749edf80", "name": "0d21d0e0561de19810ff6ec6749edf80", "lon": -76.99946566666667}, {"lat": 38.90475416666666, "is_disabled": 0, "type": "electric_scooter", "fusion_lon": 0.0, "rental_uris": {"android": "https://dc.lft.to/lastmile_qr_scan", "ios": "https://dc.lft.to/lastmile_qr_scan"}, "fusion_lat": 0.0, "is_reserved": 0, "bike_id": "f9bee1b7683a87e47b54dd4c69905f6a", "name": "f9bee1b7683a87e47b54dd4c69905f6a", "lon": -76.98912483333334}, {"lat": 38.931720166666665, "is_disabled": 0, "type": "electric_scooter", "fusion_lon": 0.0, "rental_uris": {"android": "https://dc.lft.to/lastmile_qr_scan", "ios": "https://dc.lft.to/lastmile_qr_scan"}, "fusion_lat": 0.0, "is_reserved": 0, "bike_id": "f185e8db502da741069673b6f46dcf03", "name": "f185e8db502da741069673b6f46dcf03", "lon": -77.03418583333334}, {"lat": 38.91747266666667, "is_disabled": 0, "type": "electric_scooter", "fusion_lon": 0.0, "rental_uris": {"android": "https://dc.lft.to/lastmile_qr_scan", "ios": "https://dc.lft.to/lastmile_qr_scan"}, "fusion_lat": 0.0, "is_reserved": 0, "bike_id": "c0f0432599705f20b62471728fe1a63a", "name": "c0f0432599705f20b62471728fe1a63a", "lon": -77.032011}, {"lat": 38.920743333333334, "is_disabled": 0, "type": "electric_scooter", "fusion_lon": 0.0, "rental_uris": {"android": "https://dc.lft.to/lastmile_qr_scan", "ios": "https://dc.lft.to/lastmile_qr_scan"}, "fusion_lat": 0.0, "is_reserved": 0, "bike_id": "9a04fe2dd5538eda22acf0f1a3ec203d", "name": "9a04fe2dd5538eda22acf0f1a3ec203d", "lon": -77.02318766666667}, {"lat": 38.86630916666667, "is_disabled": 0, "type": "electric_scooter", "fusion_lon": 0.0, "rental_uris": {"android": "https://dc.lft.to/lastmile_qr_scan", "ios": "https://dc.lft.to/lastmile_qr_scan"}, "fusion_lat": 0.0, "is_reserved": 0, "bike_id": "f10760f0595576c6728dd022acd36f46", "name": "f10760f0595576c6728dd022acd36f46", "lon": -76.98720433333334}, {"lat": 38.9233885, "is_disabled": 0, "type": "electric_scooter", "fusion_lon": 0.0, "rental_uris": {"android": "https://dc.lft.to/lastmile_qr_scan", "ios": "https://dc.lft.to/lastmile_qr_scan"}, "fusion_lat": 0.0, "is_reserved": 0, "bike_id": "d697446d9082606df8b68c03dcbfb938", "name": "d697446d9082606df8b68c03dcbfb938", "lon": -77.01902466666667}, {"lat": 38.80709566666667, "is_disabled": 0, "type": "electric_bike", "fusion_lon": 0.0, "rental_uris": {"android": "https://dc.lft.to/lastmile_qr_scan", "ios": "https://dc.lft.to/lastmile_qr_scan"}, "fusion_lat": 0.0, "is_reserved": 0, "bike_id": "fe0094597550f187471a3f5dc5bf338f", "name": "fe0094597550f187471a3f5dc5bf338f", "lon": -77.061736}, {"lat": 38.92575166666666, "is_disabled": 0, "type": "electric_scooter", "fusion_lon": 0.0, "rental_uris": {"android": "https://dc.lft.to/lastmile_qr_scan", "ios": "https://dc.lft.to/lastmile_qr_scan"}, "fusion_lat": 0.0, "is_reserved": 0, "bike_id": "f318421662dea6b64b9925307d5eeb5b", "name": "f318421662dea6b64b9925307d5eeb5b", "lon": -77.0257155}, {"lat": 38.91229416666667, "is_disabled": 0, "type": "electric_scooter", "fusion_lon": 0.0, "rental_uris": {"android": "https://dc.lft.to/lastmile_qr_scan", "ios": "https://dc.lft.to/lastmile_qr_scan"}, "fusion_lat": 0.0, "is_reserved": 0, "bike_id": "e73b1f849a53e214120e4d979fce68c7", "name": "e73b1f849a53e214120e4d979fce68c7", "lon": -77.03863583333333}, {"lat": 38.916926, "is_disabled": 0, "type": "electric_scooter", "fusion_lon": 0.0, "rental_uris": {"android": "https://dc.lft.to/lastmile_qr_scan", "ios": "https://dc.lft.to/lastmile_qr_scan"}, "fusion_lat": 0.0, "is_reserved": 0, "bike_id": "d2b05597c014e7338a39573f510a91ae", "name": "d2b05597c014e7338a39573f510a91ae", "lon": -77.02979333333333}, {"lat": 38.9994595, "is_disabled": 0, "type": "electric_bike", "fusion_lon": 0.0, "rental_uris": {"android": "https://dc.lft.to/lastmile_qr_scan", "ios": "https://dc.lft.to/lastmile_qr_scan"}, "fusion_lat": 0.0, "is_reserved": 0, "bike_id": "6afa7c403e06298f87b3cf8bc0aa0128", "name": "6afa7c403e06298f87b3cf8bc0aa0128", "lon": -77.07434816666667}, {"lat": 38.924263833333335, "is_disabled": 0, "type": "electric_scooter", "fusion_lon": 0.0, "rental_uris": {"android": "https://dc.lft.to/lastmile_qr_scan", "ios": "https://dc.lft.to/lastmile_qr_scan"}, "fusion_lat": 0.0, "is_reserved": 0, "bike_id": "55e86758940e908e192cc65f689ff872", "name": "55e86758940e908e192cc65f689ff872", "lon": -77.051823}, {"lat": 38.88838583333333, "is_disabled": 0, "type": "electric_scooter", "fusion_lon": 0.0, "rental_uris": {"android": "https://dc.lft.to/lastmile_qr_scan", "ios": "https://dc.lft.to/lastmile_qr_scan"}, "fusion_lat": 0.0, "is_reserved": 0, "bike_id": "9f580966726fdd5f244b56a053df4f71", "name": "9f580966726fdd5f244b56a053df4f71", "lon": -77.04904416666666}, {"lat": 38.899493666666665, "is_disabled": 0, "type": "electric_scooter", "fusion_lon": 0.0, "rental_uris": {"android": "https://dc.lft.to/lastmile_qr_scan", "ios": "https://dc.lft.to/lastmile_qr_scan"}, "fusion_lat": 0.0, "is_reserved": 0, "bike_id": "724543f7c3cf9973dbe692321b3eb5c4", "name": "724543f7c3cf9973dbe692321b3eb5c4", "lon": -77.0488515}, {"lat": 38.893557666666666, "is_disabled": 0, "type": "electric_scooter", "fusion_lon": 0.0, "rental_uris": {"android": "https://dc.lft.to/lastmile_qr_scan", "ios": "https://dc.lft.to/lastmile_qr_scan"}, "fusion_lat": 0.0, "is_reserved": 0, "bike_id": "f895871ad887f4df696d8d970b9a3055", "name": "f895871ad887f4df696d8d970b9a3055", "lon": -76.949259}, {"lat": 38.88550383333333, "is_disabled": 0, "type": "electric_scooter", "fusion_lon": 0.0, "rental_uris": {"android": "https://dc.lft.to/lastmile_qr_scan", "ios": "https://dc.lft.to/lastmile_qr_scan"}, "fusion_lat": 0.0, "is_reserved": 0, "bike_id": "fb097821f8582d06cdca2872d3426220", "name": "fb097821f8582d06cdca2872d3426220", "lon": -76.99781116666666}, {"lat": 38.893653666666665, "is_disabled": 0, "type": "electric_scooter", "fusion_lon": 0.0, "rental_uris": {"android": "https://dc.lft.to/lastmile_qr_scan", "ios": "https://dc.lft.to/lastmile_qr_scan"}, "fusion_lat": 0.0, "is_reserved": 0, "bike_id": "05bac98f64f9510ca52236aff8a19818", "name": "05bac98f64f9510ca52236aff8a19818", "lon": -77.05492733333334}, {"lat": 38.9305075, "is_disabled": 0, "type": "electric_scooter", "fusion_lon": 0.0, "rental_uris": {"android": "https://dc.lft.to/lastmile_qr_scan", "ios": "https://dc.lft.to/lastmile_qr_scan"}, "fusion_lat": 0.0, "is_reserved": 0, "bike_id": "09cb9336621d8809be13fc91cee35933", "name": "09cb9336621d8809be13fc91cee35933", "lon": -77.0235215}, {"lat": 38.90381566666667, "is_disabled": 0, "type": "electric_scooter", "fusion_lon": 0.0, "rental_uris": {"android": "https://dc.lft.to/lastmile_qr_scan", "ios": "https://dc.lft.to/lastmile_qr_scan"}, "fusion_lat": 0.0, "is_reserved": 0, "bike_id": "cbebdd8b349f2056743799d9271ac846", "name": "cbebdd8b349f2056743799d9271ac846", "lon": -77.01618616666667}, {"lat": 38.91053083333333, "is_disabled": 0, "type": "electric_scooter", "fusion_lon": 0.0, "rental_uris": {"android": "https://dc.lft.to/lastmile_qr_scan", "ios": "https://dc.lft.to/lastmile_qr_scan"}, "fusion_lat": 0.0, "is_reserved": 0, "bike_id": "9322745cfe5c84312aa34bdedee30a68", "name": "9322745cfe5c84312aa34bdedee30a68", "lon": -77.0437545}, {"lat": 38.923443166666665, "is_disabled": 0, "type": "electric_scooter", "fusion_lon": 0.0, "rental_uris": {"android": "https://dc.lft.to/lastmile_qr_scan", "ios": "https://dc.lft.to/lastmile_qr_scan"}, "fusion_lat": 0.0, "is_reserved": 0, "bike_id": "83404dd38e5afd6f391e0db0f0a8bdcd", "name": "83404dd38e5afd6f391e0db0f0a8bdcd", "lon": -77.024347}, {"lat": 38.901373, "is_disabled": 0, "type": "electric_scooter", "fusion_lon": 0.0, "rental_uris": {"android": "https://dc.lft.to/lastmile_qr_scan", "ios": "https://dc.lft.to/lastmile_qr_scan"}, "fusion_lat": 0.0, "is_reserved": 0, "bike_id": "429d7c5a5f12162a309e09cd5f1ed971", "name": "429d7c5a5f12162a309e09cd5f1ed971", "lon": -77.0432685}, {"lat": 38.884932666666664, "is_disabled": 0, "type": "electric_scooter", "fusion_lon": 0.0, "rental_uris": {"android": "https://dc.lft.to/lastmile_qr_scan", "ios": "https://dc.lft.to/lastmile_qr_scan"}, "fusion_lat": 0.0, "is_reserved": 0, "bike_id": "aa6a0f695ec6fd1794be3e79d1bd66d3", "name": "aa6a0f695ec6fd1794be3e79d1bd66d3", "lon": -77.00729633333333}, {"lat": 38.94457466666667, "is_disabled": 0, "type": "electric_scooter", "fusion_lon": 0.0, "rental_uris": {"android": "https://dc.lft.to/lastmile_qr_scan", "ios": "https://dc.lft.to/lastmile_qr_scan"}, "fusion_lat": 0.0, "is_reserved": 0, "bike_id": "028b211f4146961f9e3e5a1624ed7df2", "name": "028b211f4146961f9e3e5a1624ed7df2", "lon": -77.06029083333334}, {"lat": 38.95261883333333, "is_disabled": 0, "type": "electric_scooter", "fusion_lon": 0.0, "rental_uris": {"android": "https://dc.lft.to/lastmile_qr_scan", "ios": "https://dc.lft.to/lastmile_qr_scan"}, "fusion_lat": 0.0, "is_reserved": 0, "bike_id": "d9d0a5ffb9b079d5f042aefb1a86eb8a", "name": "d9d0a5ffb9b079d5f042aefb1a86eb8a", "lon": -77.0256945}, {"lat": 38.89222983333333, "is_disabled": 0, "type": "electric_scooter", "fusion_lon": 0.0, "rental_uris": {"android": "https://dc.lft.to/lastmile_qr_scan", "ios": "https://dc.lft.to/lastmile_qr_scan"}, "fusion_lat": 0.0, "is_reserved": 0, "bike_id": "5af9e2af224bb012b569711a8f4252fc", "name": "5af9e2af224bb012b569711a8f4252fc", "lon": -77.03214883333334}, {"lat": 38.92385216666667, "is_disabled": 0, "type": "electric_scooter", "fusion_lon": 0.0, "rental_uris": {"android": "https://dc.lft.to/lastmile_qr_scan", "ios": "https://dc.lft.to/lastmile_qr_scan"}, "fusion_lat": 0.0, "is_reserved": 0, "bike_id": "e7c7ba315a07eceb0195eef239a8363d", "name": "e7c7ba315a07eceb0195eef239a8363d", "lon": -77.02741233333333}, {"lat": 38.90053016666667, "is_disabled": 0, "type": "electric_scooter", "fusion_lon": 0.0, "rental_uris": {"android": "https://dc.lft.to/lastmile_qr_scan", "ios": "https://dc.lft.to/lastmile_qr_scan"}, "fusion_lat": 0.0, "is_reserved": 0, "bike_id": "17bd2bd57bc9c5c90a98491fc544e997", "name": "17bd2bd57bc9c5c90a98491fc544e997", "lon": -77.04321033333333}, {"lat": 38.89429616666666, "is_disabled": 0, "type": "electric_scooter", "fusion_lon": 0.0, "rental_uris": {"android": "https://dc.lft.to/lastmile_qr_scan", "ios": "https://dc.lft.to/lastmile_qr_scan"}, "fusion_lat": 0.0, "is_reserved": 0, "bike_id": "4b77f83867302092b15d50c7b966b096", "name": "4b77f83867302092b15d50c7b966b096", "lon": -76.94880316666666}, {"lat": 38.9272115, "is_disabled": 0, "type": "electric_bike", "fusion_lon": 0.0, "rental_uris": {"android": "https://dc.lft.to/lastmile_qr_scan", "ios": "https://dc.lft.to/lastmile_qr_scan"}, "fusion_lat": 0.0, "is_reserved": 0, "bike_id": "502459d5dd2c0629416d9add9df3fca2", "name": "502459d5dd2c0629416d9add9df3fca2", "lon": -77.07325266666666}, {"lat": 38.8861135, "is_disabled": 0, "type": "electric_scooter", "fusion_lon": 0.0, "rental_uris": {"android": "https://dc.lft.to/lastmile_qr_scan", "ios": "https://dc.lft.to/lastmile_qr_scan"}, "fusion_lat": 0.0, "is_reserved": 0, "bike_id": "94f06225d80032e0d8f52d16fbd5a3b2", "name": "94f06225d80032e0d8f52d16fbd5a3b2", "lon": -76.95590383333334}, {"lat": 38.91694616666667, "is_disabled": 0, "type": "electric_scooter", "fusion_lon": 0.0, "rental_uris": {"android": "https://dc.lft.to/lastmile_qr_scan", "ios": "https://dc.lft.to/lastmile_qr_scan"}, "fusion_lat": 0.0, "is_reserved": 0, "bike_id": "fb30348b58519606d92248b37f6f78e4", "name": "fb30348b58519606d92248b37f6f78e4", "lon": -77.037659}, {"lat": 38.915714333333334, "is_disabled": 0, "type": "electric_scooter", "fusion_lon": 0.0, "rental_uris": {"android": "https://dc.lft.to/lastmile_qr_scan", "ios": "https://dc.lft.to/lastmile_qr_scan"}, "fusion_lat": 0.0, "is_reserved": 0, "bike_id": "1b4056cf2c5dd9179606066f6af6b4cb", "name": "1b4056cf2c5dd9179606066f6af6b4cb", "lon": -77.03191466666667}, {"lat": 38.916972333333334, "is_disabled": 0, "type": "electric_scooter", "fusion_lon": 0.0, "rental_uris": {"android": "https://dc.lft.to/lastmile_qr_scan", "ios": "https://dc.lft.to/lastmile_qr_scan"}, "fusion_lat": 0.0, "is_reserved": 0, "bike_id": "20980eaeefacdb3303755015a2cf0771", "name": "20980eaeefacdb3303755015a2cf0771", "lon": -77.03488383333334}, {"lat": 38.8747275, "is_disabled": 0, "type": "electric_scooter", "fusion_lon": 0.0, "rental_uris": {"android": "https://dc.lft.to/lastmile_qr_scan", "ios": "https://dc.lft.to/lastmile_qr_scan"}, "fusion_lat": 0.0, "is_reserved": 0, "bike_id": "95103fe86adaf2890393586e7eb22d1a", "name": "95103fe86adaf2890393586e7eb22d1a", "lon": -77.00519116666666}, {"lat": 38.8635185, "is_disabled": 0, "type": "electric_scooter", "fusion_lon": 0.0, "rental_uris": {"android": "https://dc.lft.to/lastmile_qr_scan", "ios": "https://dc.lft.to/lastmile_qr_scan"}, "fusion_lat": 0.0, "is_reserved": 0, "bike_id": "6be7384df0bfde4379a96c10f606db16", "name": "6be7384df0bfde4379a96c10f606db16", "lon": -76.99060983333334}, {"lat": 38.913486, "is_disabled": 0, "type": "electric_scooter", "fusion_lon": 0.0, "rental_uris": {"android": "https://dc.lft.to/lastmile_qr_scan", "ios": "https://dc.lft.to/lastmile_qr_scan"}, "fusion_lat": 0.0, "is_reserved": 0, "bike_id": "5d5310adfae268fed58eb86586214eed", "name": "5d5310adfae268fed58eb86586214eed", "lon": -77.04157816666667}, {"lat": 38.922210166666666, "is_disabled": 0, "type": "electric_scooter", "fusion_lon": 0.0, "rental_uris": {"android": "https://dc.lft.to/lastmile_qr_scan", "ios": "https://dc.lft.to/lastmile_qr_scan"}, "fusion_lat": 0.0, "is_reserved": 0, "bike_id": "1ff1033b6e1ed4037e558cec44a6f90d", "name": "1ff1033b6e1ed4037e558cec44a6f90d", "lon": -77.04317566666667}, {"lat": 38.9064365, "is_disabled": 0, "type": "electric_scooter", "fusion_lon": 0.0, "rental_uris": {"android": "https://dc.lft.to/lastmile_qr_scan", "ios": "https://dc.lft.to/lastmile_qr_scan"}, "fusion_lat": 0.0, "is_reserved": 0, "bike_id": "46fab4755ada0ab91adb26a977bd80d5", "name": "46fab4755ada0ab91adb26a977bd80d5", "lon": -77.01132883333334}, {"lat": 38.855164333333335, "is_disabled": 0, "type": "electric_bike", "fusion_lon": 0.0, "rental_uris": {"android": "https://dc.lft.to/lastmile_qr_scan", "ios": "https://dc.lft.to/lastmile_qr_scan"}, "fusion_lat": 0.0, "is_reserved": 0, "bike_id": "569869408fe44b44d7594c16b35c400f", "name": "569869408fe44b44d7594c16b35c400f", "lon": -76.98438233333333}, {"lat": 38.930314, "is_disabled": 0, "type": "electric_scooter", "fusion_lon": 0.0, "rental_uris": {"android": "https://dc.lft.to/lastmile_qr_scan", "ios": "https://dc.lft.to/lastmile_qr_scan"}, "fusion_lat": 0.0, "is_reserved": 0, "bike_id": "2de4fd24f54aa072402c962c218f0c5c", "name": "2de4fd24f54aa072402c962c218f0c5c", "lon": -77.03635233333334}, {"lat": 38.89340833333333, "is_disabled": 0, "type": "electric_scooter", "fusion_lon": 0.0, "rental_uris": {"android": "https://dc.lft.to/lastmile_qr_scan", "ios": "https://dc.lft.to/lastmile_qr_scan"}, "fusion_lat": 0.0, "is_reserved": 0, "bike_id": "2397c2616e8ae936eaf1ec9af730bd41", "name": "2397c2616e8ae936eaf1ec9af730bd41", "lon": -77.0216665}, {"lat": 38.871864333333335, "is_disabled": 0, "type": "electric_scooter", "fusion_lon": 0.0, "rental_uris": {"android": "https://dc.lft.to/lastmile_qr_scan", "ios": "https://dc.lft.to/lastmile_qr_scan"}, "fusion_lat": 0.0, "is_reserved": 0, "bike_id": "b4ccf2f4a8f8123e82f70166ad80c1db", "name": "b4ccf2f4a8f8123e82f70166ad80c1db", "lon": -77.00601283333333}, {"lat": 38.9095295, "is_disabled": 0, "type": "electric_scooter", "fusion_lon": 0.0, "rental_uris": {"android": "https://dc.lft.to/lastmile_qr_scan", "ios": "https://dc.lft.to/lastmile_qr_scan"}, "fusion_lat": 0.0, "is_reserved": 0, "bike_id": "051d7d5c4353058ded807e225a27034d", "name": "051d7d5c4353058ded807e225a27034d", "lon": -77.02717783333334}, {"lat": 38.921779, "is_disabled": 0, "type": "electric_scooter", "fusion_lon": 0.0, "rental_uris": {"android": "https://dc.lft.to/lastmile_qr_scan", "ios": "https://dc.lft.to/lastmile_qr_scan"}, "fusion_lat": 0.0, "is_reserved": 0, "bike_id": "1a0cc7f0ddbe5db3ebdf9abb9a4964cf", "name": "1a0cc7f0ddbe5db3ebdf9abb9a4964cf", "lon": -77.04230016666666}, {"lat": 38.912559333333334, "is_disabled": 0, "type": "electric_scooter", "fusion_lon": 0.0, "rental_uris": {"android": "https://dc.lft.to/lastmile_qr_scan", "ios": "https://dc.lft.to/lastmile_qr_scan"}, "fusion_lat": 0.0, "is_reserved": 0, "bike_id": "f05848d94fa15a9e19bc131809a6ecfe", "name": "f05848d94fa15a9e19bc131809a6ecfe", "lon": -77.0446665}, {"lat": 38.9376765, "is_disabled": 0, "type": "electric_scooter", "fusion_lon": 0.0, "rental_uris": {"android": "https://dc.lft.to/lastmile_qr_scan", "ios": "https://dc.lft.to/lastmile_qr_scan"}, "fusion_lat": 0.0, "is_reserved": 0, "bike_id": "44d533343ce53f1eaaf83c7a3731926c", "name": "44d533343ce53f1eaaf83c7a3731926c", "lon": -77.02261916666667}, {"lat": 38.9287315, "is_disabled": 0, "type": "electric_scooter", "fusion_lon": 0.0, "rental_uris": {"android": "https://dc.lft.to/lastmile_qr_scan", "ios": "https://dc.lft.to/lastmile_qr_scan"}, "fusion_lat": 0.0, "is_reserved": 0, "bike_id": "0bad84e7b58f03056435b97ba4551635", "name": "0bad84e7b58f03056435b97ba4551635", "lon": -77.03443633333333}, {"lat": 38.922575333333334, "is_disabled": 0, "type": "electric_scooter", "fusion_lon": 0.0, "rental_uris": {"android": "https://dc.lft.to/lastmile_qr_scan", "ios": "https://dc.lft.to/lastmile_qr_scan"}, "fusion_lat": 0.0, "is_reserved": 0, "bike_id": "928d6bd040117de174c0bc2f8a2f62dc", "name": "928d6bd040117de174c0bc2f8a2f62dc", "lon": -77.07031083333334}, {"lat": 38.909828833333336, "is_disabled": 0, "type": "electric_scooter", "fusion_lon": 0.0, "rental_uris": {"android": "https://dc.lft.to/lastmile_qr_scan", "ios": "https://dc.lft.to/lastmile_qr_scan"}, "fusion_lat": 0.0, "is_reserved": 0, "bike_id": "627b69d01da479e5a6c9575840c68fac", "name": "627b69d01da479e5a6c9575840c68fac", "lon": -77.03289816666667}, {"lat": 38.918675, "is_disabled": 0, "type": "electric_scooter", "fusion_lon": 0.0, "rental_uris": {"android": "https://dc.lft.to/lastmile_qr_scan", "ios": "https://dc.lft.to/lastmile_qr_scan"}, "fusion_lat": 0.0, "is_reserved": 0, "bike_id": "62dd49f69116a6baec7cbb9855345f8f", "name": "62dd49f69116a6baec7cbb9855345f8f", "lon": -77.0417475}, {"lat": 38.8637585, "is_disabled": 0, "type": "electric_scooter", "fusion_lon": 0.0, "rental_uris": {"android": "https://dc.lft.to/lastmile_qr_scan", "ios": "https://dc.lft.to/lastmile_qr_scan"}, "fusion_lat": 0.0, "is_reserved": 0, "bike_id": "0bbb5c7bce28462c4fa8e6e0c7e3e249", "name": "0bbb5c7bce28462c4fa8e6e0c7e3e249", "lon": -76.99060133333333}, {"lat": 38.892208333333336, "is_disabled": 0, "type": "electric_scooter", "fusion_lon": 0.0, "rental_uris": {"android": "https://dc.lft.to/lastmile_qr_scan", "ios": "https://dc.lft.to/lastmile_qr_scan"}, "fusion_lat": 0.0, "is_reserved": 0, "bike_id": "5a01af818f9bd97d7e4499288caac69e", "name": "5a01af818f9bd97d7e4499288caac69e", "lon": -77.03212916666666}, {"lat": 38.900047666666666, "is_disabled": 0, "type": "electric_scooter", "fusion_lon": 0.0, "rental_uris": {"android": "https://dc.lft.to/lastmile_qr_scan", "ios": "https://dc.lft.to/lastmile_qr_scan"}, "fusion_lat": 0.0, "is_reserved": 0, "bike_id": "cbe0458964d05654ac4fe203cac2fb8b", "name": "cbe0458964d05654ac4fe203cac2fb8b", "lon": -77.00669616666667}, {"lat": 38.91708783333333, "is_disabled": 0, "type": "electric_scooter", "fusion_lon": 0.0, "rental_uris": {"android": "https://dc.lft.to/lastmile_qr_scan", "ios": "https://dc.lft.to/lastmile_qr_scan"}, "fusion_lat": 0.0, "is_reserved": 0, "bike_id": "f6ee5878b4ed4699ccf7d562a3eab27f", "name": "f6ee5878b4ed4699ccf7d562a3eab27f", "lon": -77.03008066666666}, {"lat": 38.90533816666667, "is_disabled": 0, "type": "electric_scooter", "fusion_lon": 0.0, "rental_uris": {"android": "https://dc.lft.to/lastmile_qr_scan", "ios": "https://dc.lft.to/lastmile_qr_scan"}, "fusion_lat": 0.0, "is_reserved": 0, "bike_id": "06ec0082727d06d49fc68ecf4951d55d", "name": "06ec0082727d06d49fc68ecf4951d55d", "lon": -77.02208133333333}, {"lat": 38.916532333333336, "is_disabled": 0, "type": "electric_scooter", "fusion_lon": 0.0, "rental_uris": {"android": "https://dc.lft.to/lastmile_qr_scan", "ios": "https://dc.lft.to/lastmile_qr_scan"}, "fusion_lat": 0.0, "is_reserved": 0, "bike_id": "0b61d3980e1d5dfe42088c0f7708bca7", "name": "0b61d3980e1d5dfe42088c0f7708bca7", "lon": -77.03715133333333}, {"lat": 38.888401, "is_disabled": 0, "type": "electric_scooter", "fusion_lon": 0.0, "rental_uris": {"android": "https://dc.lft.to/lastmile_qr_scan", "ios": "https://dc.lft.to/lastmile_qr_scan"}, "fusion_lat": 0.0, "is_reserved": 0, "bike_id": "97355f0ffcfe859e9f50373151bc861f", "name": "97355f0ffcfe859e9f50373151bc861f", "lon": -76.91758483333334}, {"lat": 38.880043, "is_disabled": 0, "type": "electric_scooter", "fusion_lon": 0.0, "rental_uris": {"android": "https://dc.lft.to/lastmile_qr_scan", "ios": "https://dc.lft.to/lastmile_qr_scan"}, "fusion_lat": 0.0, "is_reserved": 0, "bike_id": "4bf7266ce19511ea50a891174f91c486", "name": "4bf7266ce19511ea50a891174f91c486", "lon": -77.00551666666667}, {"lat": 38.91879866666667, "is_disabled": 0, "type": "electric_scooter", "fusion_lon": 0.0, "rental_uris": {"android": "https://dc.lft.to/lastmile_qr_scan", "ios": "https://dc.lft.to/lastmile_qr_scan"}, "fusion_lat": 0.0, "is_reserved": 0, "bike_id": "d7f7262c18b2bfa6859780d3c0e565cf", "name": "d7f7262c18b2bfa6859780d3c0e565cf", "lon": -77.03503816666667}, {"lat": 38.9001185, "is_disabled": 0, "type": "electric_scooter", "fusion_lon": 0.0, "rental_uris": {"android": "https://dc.lft.to/lastmile_qr_scan", "ios": "https://dc.lft.to/lastmile_qr_scan"}, "fusion_lat": 0.0, "is_reserved": 0, "bike_id": "ad019a29caecaf7db04aed9bbf7f9a86", "name": "ad019a29caecaf7db04aed9bbf7f9a86", "lon": -77.00193166666666}, {"lat": 38.94270483333333, "is_disabled": 0, "type": "electric_scooter", "fusion_lon": 0.0, "rental_uris": {"android": "https://dc.lft.to/lastmile_qr_scan", "ios": "https://dc.lft.to/lastmile_qr_scan"}, "fusion_lat": 0.0, "is_reserved": 0, "bike_id": "a42fc99de1f82482d24d727f3721a797", "name": "a42fc99de1f82482d24d727f3721a797", "lon": -77.02846283333334}, {"lat": 38.91706966666667, "is_disabled": 0, "type": "electric_scooter", "fusion_lon": 0.0, "rental_uris": {"android": "https://dc.lft.to/lastmile_qr_scan", "ios": "https://dc.lft.to/lastmile_qr_scan"}, "fusion_lat": 0.0, "is_reserved": 0, "bike_id": "7d8781a0a453706736c5c32f4522b2a9", "name": "7d8781a0a453706736c5c32f4522b2a9", "lon": -77.034182}, {"lat": 38.90654883333333, "is_disabled": 0, "type": "electric_scooter", "fusion_lon": 0.0, "rental_uris": {"android": "https://dc.lft.to/lastmile_qr_scan", "ios": "https://dc.lft.to/lastmile_qr_scan"}, "fusion_lat": 0.0, "is_reserved": 0, "bike_id": "bc769e47341f6e9e0d85b4e2fb1088d0", "name": "bc769e47341f6e9e0d85b4e2fb1088d0", "lon": -76.97805916666667}, {"lat": 38.90703466666667, "is_disabled": 0, "type": "electric_bike", "fusion_lon": 0.0, "rental_uris": {"android": "https://dc.lft.to/lastmile_qr_scan", "ios": "https://dc.lft.to/lastmile_qr_scan"}, "fusion_lat": 0.0, "is_reserved": 0, "bike_id": "4d5a5eaee9b1ae16a7708f9132373102", "name": "4d5a5eaee9b1ae16a7708f9132373102", "lon": -77.02186166666667}, {"lat": 38.8900475, "is_disabled": 0, "type": "electric_scooter", "fusion_lon": 0.0, "rental_uris": {"android": "https://dc.lft.to/lastmile_qr_scan", "ios": "https://dc.lft.to/lastmile_qr_scan"}, "fusion_lat": 0.0, "is_reserved": 0, "bike_id": "c0a5df2fab75bcc5ccb88201d9e2b594", "name": "c0a5df2fab75bcc5ccb88201d9e2b594", "lon": -77.00045366666667}, {"lat": 38.8130945, "is_disabled": 0, "type": "electric_bike", "fusion_lon": 0.0, "rental_uris": {"android": "https://dc.lft.to/lastmile_qr_scan", "ios": "https://dc.lft.to/lastmile_qr_scan"}, "fusion_lat": 0.0, "is_reserved": 0, "bike_id": "2f5cb3a01e8a42b86a9c7ec622805bf8", "name": "2f5cb3a01e8a42b86a9c7ec622805bf8", "lon": -77.10965133333333}, {"lat": 38.90852866666667, "is_disabled": 0, "type": "electric_scooter", "fusion_lon": 0.0, "rental_uris": {"android": "https://dc.lft.to/lastmile_qr_scan", "ios": "https://dc.lft.to/lastmile_qr_scan"}, "fusion_lat": 0.0, "is_reserved": 0, "bike_id": "4975cf6a1309e765e1d6360e8000c56a", "name": "4975cf6a1309e765e1d6360e8000c56a", "lon": -77.02517416666667}, {"lat": 38.94553533333333, "is_disabled": 0, "type": "electric_bike", "fusion_lon": 0.0, "rental_uris": {"android": "https://dc.lft.to/lastmile_qr_scan", "ios": "https://dc.lft.to/lastmile_qr_scan"}, "fusion_lat": 0.0, "is_reserved": 0, "bike_id": "6129102dba8ef3e40bb16282df6f7119", "name": "6129102dba8ef3e40bb16282df6f7119", "lon": -76.89540416666667}, {"lat": 38.91479133333333, "is_disabled": 0, "type": "electric_scooter", "fusion_lon": 0.0, "rental_uris": {"android": "https://dc.lft.to/lastmile_qr_scan", "ios": "https://dc.lft.to/lastmile_qr_scan"}, "fusion_lat": 0.0, "is_reserved": 0, "bike_id": "5d75db6e561343022174dc4e6dc09c87", "name": "5d75db6e561343022174dc4e6dc09c87", "lon": -77.025687}, {"lat": 38.91125866666667, "is_disabled": 0, "type": "electric_scooter", "fusion_lon": 0.0, "rental_uris": {"android": "https://dc.lft.to/lastmile_qr_scan", "ios": "https://dc.lft.to/lastmile_qr_scan"}, "fusion_lat": 0.0, "is_reserved": 0, "bike_id": "e38783fc166751df133b4c775b61d64d", "name": "e38783fc166751df133b4c775b61d64d", "lon": -77.03185383333333}, {"lat": 38.9178395, "is_disabled": 0, "type": "electric_scooter", "fusion_lon": 0.0, "rental_uris": {"android": "https://dc.lft.to/lastmile_qr_scan", "ios": "https://dc.lft.to/lastmile_qr_scan"}, "fusion_lat": 0.0, "is_reserved": 0, "bike_id": "dd1c602eaeb98949016cbcebf728a387", "name": "dd1c602eaeb98949016cbcebf728a387", "lon": -77.02472533333334}, {"lat": 38.91448366666667, "is_disabled": 0, "type": "electric_scooter", "fusion_lon": 0.0, "rental_uris": {"android": "https://dc.lft.to/lastmile_qr_scan", "ios": "https://dc.lft.to/lastmile_qr_scan"}, "fusion_lat": 0.0, "is_reserved": 0, "bike_id": "a2898fe467239cc792fab021c1a52c5a", "name": "a2898fe467239cc792fab021c1a52c5a", "lon": -77.03660783333333}, {"lat": 38.89964666666667, "is_disabled": 0, "type": "electric_bike", "fusion_lon": 0.0, "rental_uris": {"android": "https://dc.lft.to/lastmile_qr_scan", "ios": "https://dc.lft.to/lastmile_qr_scan"}, "fusion_lat": 0.0, "is_reserved": 0, "bike_id": "ec86a68eefe732c53325ae8249517650", "name": "ec86a68eefe732c53325ae8249517650", "lon": -76.98673133333334}, {"lat": 38.93361016666667, "is_disabled": 0, "type": "electric_scooter", "fusion_lon": 0.0, "rental_uris": {"android": "https://dc.lft.to/lastmile_qr_scan", "ios": "https://dc.lft.to/lastmile_qr_scan"}, "fusion_lat": 0.0, "is_reserved": 0, "bike_id": "9bf883c395b7954a8bc5481e483e7c93", "name": "9bf883c395b7954a8bc5481e483e7c93", "lon": -77.07305666666667}, {"lat": 38.9529155, "is_disabled": 0, "type": "electric_bike", "fusion_lon": 0.0, "rental_uris": {"android": "https://dc.lft.to/lastmile_qr_scan", "ios": "https://dc.lft.to/lastmile_qr_scan"}, "fusion_lat": 0.0, "is_reserved": 0, "bike_id": "f74ab3b5da302fef6cdcdb722744f803", "name": "f74ab3b5da302fef6cdcdb722744f803", "lon": -76.94593416666666}, {"lat": 38.8938605, "is_disabled": 0, "type": "electric_scooter", "fusion_lon": 0.0, "rental_uris": {"android": "https://dc.lft.to/lastmile_qr_scan", "ios": "https://dc.lft.to/lastmile_qr_scan"}, "fusion_lat": 0.0, "is_reserved": 0, "bike_id": "1c4dcf79e0bec06e19ab5fe6c2c6389a", "name": "1c4dcf79e0bec06e19ab5fe6c2c6389a", "lon": -77.04681383333333}, {"lat": 38.903724833333335, "is_disabled": 0, "type": "electric_scooter", "fusion_lon": 0.0, "rental_uris": {"android": "https://dc.lft.to/lastmile_qr_scan", "ios": "https://dc.lft.to/lastmile_qr_scan"}, "fusion_lat": 0.0, "is_reserved": 0, "bike_id": "c3d2ea3c73581511dd648721d15bafee", "name": "c3d2ea3c73581511dd648721d15bafee", "lon": -77.039481}, {"lat": 38.921444, "is_disabled": 0, "type": "electric_scooter", "fusion_lon": 0.0, "rental_uris": {"android": "https://dc.lft.to/lastmile_qr_scan", "ios": "https://dc.lft.to/lastmile_qr_scan"}, "fusion_lat": 0.0, "is_reserved": 0, "bike_id": "afd4519eecb35fa952a89a5a916da733", "name": "afd4519eecb35fa952a89a5a916da733", "lon": -77.020853}, {"lat": 38.929731833333335, "is_disabled": 0, "type": "electric_scooter", "fusion_lon": 0.0, "rental_uris": {"android": "https://dc.lft.to/lastmile_qr_scan", "ios": "https://dc.lft.to/lastmile_qr_scan"}, "fusion_lat": 0.0, "is_reserved": 0, "bike_id": "70cea2ea942ac0c7b9c34b999de5106c", "name": "70cea2ea942ac0c7b9c34b999de5106c", "lon": -77.05509383333333}, {"lat": 38.9293675, "is_disabled": 0, "type": "electric_scooter", "fusion_lon": 0.0, "rental_uris": {"android": "https://dc.lft.to/lastmile_qr_scan", "ios": "https://dc.lft.to/lastmile_qr_scan"}, "fusion_lat": 0.0, "is_reserved": 0, "bike_id": "2a9a94830561d6b821ac99bdbe867cc8", "name": "2a9a94830561d6b821ac99bdbe867cc8", "lon": -77.03767583333334}, {"lat": 38.91051783333333, "is_disabled": 0, "type": "electric_scooter", "fusion_lon": 0.0, "rental_uris": {"android": "https://dc.lft.to/lastmile_qr_scan", "ios": "https://dc.lft.to/lastmile_qr_scan"}, "fusion_lat": 0.0, "is_reserved": 0, "bike_id": "0e39acecef5cadb5ede649ae4f9528f8", "name": "0e39acecef5cadb5ede649ae4f9528f8", "lon": -77.02684016666667}, {"lat": 38.89807066666667, "is_disabled": 0, "type": "electric_scooter", "fusion_lon": 0.0, "rental_uris": {"android": "https://dc.lft.to/lastmile_qr_scan", "ios": "https://dc.lft.to/lastmile_qr_scan"}, "fusion_lat": 0.0, "is_reserved": 0, "bike_id": "ac78d6ee79feb4a15f3c99b2c31241ab", "name": "ac78d6ee79feb4a15f3c99b2c31241ab", "lon": -77.03987416666666}, {"lat": 38.89629716666666, "is_disabled": 0, "type": "electric_scooter", "fusion_lon": 0.0, "rental_uris": {"android": "https://dc.lft.to/lastmile_qr_scan", "ios": "https://dc.lft.to/lastmile_qr_scan"}, "fusion_lat": 0.0, "is_reserved": 0, "bike_id": "efd8b650fa7fee5429d5dfba194aa1bf", "name": "efd8b650fa7fee5429d5dfba194aa1bf", "lon": -77.0219545}, {"lat": 38.895141, "is_disabled": 0, "type": "electric_scooter", "fusion_lon": 0.0, "rental_uris": {"android": "https://dc.lft.to/lastmile_qr_scan", "ios": "https://dc.lft.to/lastmile_qr_scan"}, "fusion_lat": 0.0, "is_reserved": 0, "bike_id": "7267a35c9067370cf82913ee51508369", "name": "7267a35c9067370cf82913ee51508369", "lon": -76.948831}, {"lat": 38.88624033333333, "is_disabled": 0, "type": "electric_scooter", "fusion_lon": 0.0, "rental_uris": {"android": "https://dc.lft.to/lastmile_qr_scan", "ios": "https://dc.lft.to/lastmile_qr_scan"}, "fusion_lat": 0.0, "is_reserved": 0, "bike_id": "10c32f9b5fb808b761f6ab0a9efe79f0", "name": "10c32f9b5fb808b761f6ab0a9efe79f0", "lon": -77.019744}, {"lat": 38.93612983333333, "is_disabled": 0, "type": "electric_scooter", "fusion_lon": 0.0, "rental_uris": {"android": "https://dc.lft.to/lastmile_qr_scan", "ios": "https://dc.lft.to/lastmile_qr_scan"}, "fusion_lat": 0.0, "is_reserved": 0, "bike_id": "ea1b775fb527b5d02ee4cf85c2682c00", "name": "ea1b775fb527b5d02ee4cf85c2682c00", "lon": -77.05895483333333}, {"lat": 38.919676333333335, "is_disabled": 0, "type": "electric_scooter", "fusion_lon": 0.0, "rental_uris": {"android": "https://dc.lft.to/lastmile_qr_scan", "ios": "https://dc.lft.to/lastmile_qr_scan"}, "fusion_lat": 0.0, "is_reserved": 0, "bike_id": "63e2a8b1ea9301d9423b580dc70c31e2", "name": "63e2a8b1ea9301d9423b580dc70c31e2", "lon": -77.024001}, {"lat": 38.957622666666666, "is_disabled": 0, "type": "electric_bike", "fusion_lon": 0.0, "rental_uris": {"android": "https://dc.lft.to/lastmile_qr_scan", "ios": "https://dc.lft.to/lastmile_qr_scan"}, "fusion_lat": 0.0, "is_reserved": 0, "bike_id": "295d97d75d1d208bd56e6d08cadeb427", "name": "295d97d75d1d208bd56e6d08cadeb427", "lon": -77.007072}, {"lat": 38.898787666666664, "is_disabled": 0, "type": "electric_scooter", "fusion_lon": 0.0, "rental_uris": {"android": "https://dc.lft.to/lastmile_qr_scan", "ios": "https://dc.lft.to/lastmile_qr_scan"}, "fusion_lat": 0.0, "is_reserved": 0, "bike_id": "3ded71eefff9db872dd8a4444b71f494", "name": "3ded71eefff9db872dd8a4444b71f494", "lon": -76.931967}, {"lat": 38.90425116666667, "is_disabled": 0, "type": "electric_scooter", "fusion_lon": 0.0, "rental_uris": {"android": "https://dc.lft.to/lastmile_qr_scan", "ios": "https://dc.lft.to/lastmile_qr_scan"}, "fusion_lat": 0.0, "is_reserved": 0, "bike_id": "2c0b145acab13607ea7e4cbbe916155a", "name": "2c0b145acab13607ea7e4cbbe916155a", "lon": -77.04998616666667}, {"lat": 38.911316166666666, "is_disabled": 0, "type": "electric_scooter", "fusion_lon": 0.0, "rental_uris": {"android": "https://dc.lft.to/lastmile_qr_scan", "ios": "https://dc.lft.to/lastmile_qr_scan"}, "fusion_lat": 0.0, "is_reserved": 0, "bike_id": "f4985660b8c0106a144ab5081f7c2577", "name": "f4985660b8c0106a144ab5081f7c2577", "lon": -77.04406483333334}, {"lat": 38.9155245, "is_disabled": 0, "type": "electric_scooter", "fusion_lon": 0.0, "rental_uris": {"android": "https://dc.lft.to/lastmile_qr_scan", "ios": "https://dc.lft.to/lastmile_qr_scan"}, "fusion_lat": 0.0, "is_reserved": 0, "bike_id": "7f13ff7f033b3104c5b5613db032cd1d", "name": "7f13ff7f033b3104c5b5613db032cd1d", "lon": -77.01195133333333}, {"lat": 38.86505316666667, "is_disabled": 0, "type": "electric_scooter", "fusion_lon": 0.0, "rental_uris": {"android": "https://dc.lft.to/lastmile_qr_scan", "ios": "https://dc.lft.to/lastmile_qr_scan"}, "fusion_lat": 0.0, "is_reserved": 0, "bike_id": "f4aa88f69a6a707777ed22ed7374410a", "name": "f4aa88f69a6a707777ed22ed7374410a", "lon": -76.990035}, {"lat": 38.9499095, "is_disabled": 0, "type": "electric_scooter", "fusion_lon": 0.0, "rental_uris": {"android": "https://dc.lft.to/lastmile_qr_scan", "ios": "https://dc.lft.to/lastmile_qr_scan"}, "fusion_lat": 0.0, "is_reserved": 0, "bike_id": "59ecff0899f586884c028a9b55800128", "name": "59ecff0899f586884c028a9b55800128", "lon": -77.0270625}, {"lat": 38.892335, "is_disabled": 0, "type": "electric_scooter", "fusion_lon": 0.0, "rental_uris": {"android": "https://dc.lft.to/lastmile_qr_scan", "ios": "https://dc.lft.to/lastmile_qr_scan"}, "fusion_lat": 0.0, "is_reserved": 0, "bike_id": "abfe73e47a630a0d422335fe32ee38b3", "name": "abfe73e47a630a0d422335fe32ee38b3", "lon": -77.04875316666667}, {"lat": 38.866864666666665, "is_disabled": 0, "type": "electric_scooter", "fusion_lon": 0.0, "rental_uris": {"android": "https://dc.lft.to/lastmile_qr_scan", "ios": "https://dc.lft.to/lastmile_qr_scan"}, "fusion_lat": 0.0, "is_reserved": 0, "bike_id": "731e3f13b9bbb510cc75d136dfc86e4d", "name": "731e3f13b9bbb510cc75d136dfc86e4d", "lon": -76.9859515}, {"lat": 38.91042683333333, "is_disabled": 0, "type": "electric_scooter", "fusion_lon": 0.0, "rental_uris": {"android": "https://dc.lft.to/lastmile_qr_scan", "ios": "https://dc.lft.to/lastmile_qr_scan"}, "fusion_lat": 0.0, "is_reserved": 0, "bike_id": "5219943dc2877cc939292411d5fed23f", "name": "5219943dc2877cc939292411d5fed23f", "lon": -77.043997}, {"lat": 38.88837683333333, "is_disabled": 0, "type": "electric_scooter", "fusion_lon": 0.0, "rental_uris": {"android": "https://dc.lft.to/lastmile_qr_scan", "ios": "https://dc.lft.to/lastmile_qr_scan"}, "fusion_lat": 0.0, "is_reserved": 0, "bike_id": "65f58fd40e7650c0d8f7ff83e50ec58e", "name": "65f58fd40e7650c0d8f7ff83e50ec58e", "lon": -76.99366616666667}, {"lat": 38.886085666666666, "is_disabled": 0, "type": "electric_scooter", "fusion_lon": 0.0, "rental_uris": {"android": "https://dc.lft.to/lastmile_qr_scan", "ios": "https://dc.lft.to/lastmile_qr_scan"}, "fusion_lat": 0.0, "is_reserved": 0, "bike_id": "9f7401084fe6e473473970d59cbc72ba", "name": "9f7401084fe6e473473970d59cbc72ba", "lon": -76.99482116666667}, {"lat": 38.8974175, "is_disabled": 0, "type": "electric_scooter", "fusion_lon": 0.0, "rental_uris": {"android": "https://dc.lft.to/lastmile_qr_scan", "ios": "https://dc.lft.to/lastmile_qr_scan"}, "fusion_lat": 0.0, "is_reserved": 0, "bike_id": "2810fc5dda040603d1a340baf80089b6", "name": "2810fc5dda040603d1a340baf80089b6", "lon": -77.01314266666667}, {"lat": 38.927459, "is_disabled": 0, "type": "electric_scooter", "fusion_lon": 0.0, "rental_uris": {"android": "https://dc.lft.to/lastmile_qr_scan", "ios": "https://dc.lft.to/lastmile_qr_scan"}, "fusion_lat": 0.0, "is_reserved": 0, "bike_id": "e44764f82aa1709b3bc31d89940fd256", "name": "e44764f82aa1709b3bc31d89940fd256", "lon": -77.02537483333333}, {"lat": 38.9168315, "is_disabled": 0, "type": "electric_scooter", "fusion_lon": 0.0, "rental_uris": {"android": "https://dc.lft.to/lastmile_qr_scan", "ios": "https://dc.lft.to/lastmile_qr_scan"}, "fusion_lat": 0.0, "is_reserved": 0, "bike_id": "6362ba5fb6479dc95a2422a5fb48b054", "name": "6362ba5fb6479dc95a2422a5fb48b054", "lon": -77.0297605}, {"lat": 38.930538166666665, "is_disabled": 0, "type": "electric_scooter", "fusion_lon": 0.0, "rental_uris": {"android": "https://dc.lft.to/lastmile_qr_scan", "ios": "https://dc.lft.to/lastmile_qr_scan"}, "fusion_lat": 0.0, "is_reserved": 0, "bike_id": "b3e0e61be055126ab7c4e048385bc6b9", "name": "b3e0e61be055126ab7c4e048385bc6b9", "lon": -77.058424}, {"lat": 38.92223216666667, "is_disabled": 0, "type": "electric_scooter", "fusion_lon": 0.0, "rental_uris": {"android": "https://dc.lft.to/lastmile_qr_scan", "ios": "https://dc.lft.to/lastmile_qr_scan"}, "fusion_lat": 0.0, "is_reserved": 0, "bike_id": "7cbfaa39ddc5939ec3bdfe3fd0c67c5f", "name": "7cbfaa39ddc5939ec3bdfe3fd0c67c5f", "lon": -77.04247983333333}, {"lat": 38.962202833333336, "is_disabled": 0, "type": "electric_bike", "fusion_lon": 0.0, "rental_uris": {"android": "https://dc.lft.to/lastmile_qr_scan", "ios": "https://dc.lft.to/lastmile_qr_scan"}, "fusion_lat": 0.0, "is_reserved": 0, "bike_id": "78931d00c862b651b93aa83d0ddfeaad", "name": "78931d00c862b651b93aa83d0ddfeaad", "lon": -77.0263135}, {"lat": 38.923017333333334, "is_disabled": 0, "type": "electric_scooter", "fusion_lon": 0.0, "rental_uris": {"android": "https://dc.lft.to/lastmile_qr_scan", "ios": "https://dc.lft.to/lastmile_qr_scan"}, "fusion_lat": 0.0, "is_reserved": 0, "bike_id": "2c6c4084883ab3acfd0fedbfaf13990c", "name": "2c6c4084883ab3acfd0fedbfaf13990c", "lon": -77.0426755}, {"lat": 38.95960066666667, "is_disabled": 0, "type": "electric_bike", "fusion_lon": 0.0, "rental_uris": {"android": "https://dc.lft.to/lastmile_qr_scan", "ios": "https://dc.lft.to/lastmile_qr_scan"}, "fusion_lat": 0.0, "is_reserved": 0, "bike_id": "506492134d2ec7d82102db96aa226b2d", "name": "506492134d2ec7d82102db96aa226b2d", "lon": -77.10088916666666}, {"lat": 38.935064, "is_disabled": 0, "type": "electric_scooter", "fusion_lon": 0.0, "rental_uris": {"android": "https://dc.lft.to/lastmile_qr_scan", "ios": "https://dc.lft.to/lastmile_qr_scan"}, "fusion_lat": 0.0, "is_reserved": 0, "bike_id": "acd9ca6fe652fc67154bce221dce0559", "name": "acd9ca6fe652fc67154bce221dce0559", "lon": -77.058068}, {"lat": 38.9038425, "is_disabled": 0, "type": "electric_scooter", "fusion_lon": 0.0, "rental_uris": {"android": "https://dc.lft.to/lastmile_qr_scan", "ios": "https://dc.lft.to/lastmile_qr_scan"}, "fusion_lat": 0.0, "is_reserved": 0, "bike_id": "80d2b55f6ceb75052907c7087cb549ed", "name": "80d2b55f6ceb75052907c7087cb549ed", "lon": -77.018444}, {"lat": 38.89732516666667, "is_disabled": 0, "type": "electric_scooter", "fusion_lon": 0.0, "rental_uris": {"android": "https://dc.lft.to/lastmile_qr_scan", "ios": "https://dc.lft.to/lastmile_qr_scan"}, "fusion_lat": 0.0, "is_reserved": 0, "bike_id": "43c2f0e1e0a6b314ea45866405a8b4ba", "name": "43c2f0e1e0a6b314ea45866405a8b4ba", "lon": -77.04361566666667}, {"lat": 38.88460583333333, "is_disabled": 0, "type": "electric_scooter", "fusion_lon": 0.0, "rental_uris": {"android": "https://dc.lft.to/lastmile_qr_scan", "ios": "https://dc.lft.to/lastmile_qr_scan"}, "fusion_lat": 0.0, "is_reserved": 0, "bike_id": "475ed69e11e89e76d54ab792c0ee09c0", "name": "475ed69e11e89e76d54ab792c0ee09c0", "lon": -76.9262205}, {"lat": 38.9386855, "is_disabled": 0, "type": "electric_bike", "fusion_lon": 0.0, "rental_uris": {"android": "https://dc.lft.to/lastmile_qr_scan", "ios": "https://dc.lft.to/lastmile_qr_scan"}, "fusion_lat": 0.0, "is_reserved": 0, "bike_id": "fd03472bda1c9857f49eb1b4276e7780", "name": "fd03472bda1c9857f49eb1b4276e7780", "lon": -76.94293416666666}, {"lat": 38.919666166666666, "is_disabled": 0, "type": "electric_bike", "fusion_lon": 0.0, "rental_uris": {"android": "https://dc.lft.to/lastmile_qr_scan", "ios": "https://dc.lft.to/lastmile_qr_scan"}, "fusion_lat": 0.0, "is_reserved": 0, "bike_id": "4460fdcf0fc6afb74230dcc25a6748f3", "name": "4460fdcf0fc6afb74230dcc25a6748f3", "lon": -77.04384816666666}, {"lat": 38.876663, "is_disabled": 0, "type": "electric_scooter", "fusion_lon": 0.0, "rental_uris": {"android": "https://dc.lft.to/lastmile_qr_scan", "ios": "https://dc.lft.to/lastmile_qr_scan"}, "fusion_lat": 0.0, "is_reserved": 0, "bike_id": "aca02c45ce709596b787c20da0430d88", "name": "aca02c45ce709596b787c20da0430d88", "lon": -77.00759333333333}, {"lat": 38.8656535, "is_disabled": 0, "type": "electric_scooter", "fusion_lon": 0.0, "rental_uris": {"android": "https://dc.lft.to/lastmile_qr_scan", "ios": "https://dc.lft.to/lastmile_qr_scan"}, "fusion_lat": 0.0, "is_reserved": 0, "bike_id": "519f143bd2db62cea2bfedb597499b00", "name": "519f143bd2db62cea2bfedb597499b00", "lon": -76.98922583333334}, {"lat": 38.921408166666666, "is_disabled": 0, "type": "electric_scooter", "fusion_lon": 0.0, "rental_uris": {"android": "https://dc.lft.to/lastmile_qr_scan", "ios": "https://dc.lft.to/lastmile_qr_scan"}, "fusion_lat": 0.0, "is_reserved": 0, "bike_id": "7e997213acb2363654de57ef4f45bfd4", "name": "7e997213acb2363654de57ef4f45bfd4", "lon": -77.02875116666667}, {"lat": 38.92338683333333, "is_disabled": 0, "type": "electric_scooter", "fusion_lon": 0.0, "rental_uris": {"android": "https://dc.lft.to/lastmile_qr_scan", "ios": "https://dc.lft.to/lastmile_qr_scan"}, "fusion_lat": 0.0, "is_reserved": 0, "bike_id": "f8b2e9400936806c1d927a13571799b3", "name": "f8b2e9400936806c1d927a13571799b3", "lon": -77.021247}, {"lat": 38.923633833333334, "is_disabled": 0, "type": "electric_scooter", "fusion_lon": 0.0, "rental_uris": {"android": "https://dc.lft.to/lastmile_qr_scan", "ios": "https://dc.lft.to/lastmile_qr_scan"}, "fusion_lat": 0.0, "is_reserved": 0, "bike_id": "43dc5a8a92d45db815fe5a50451b23a3", "name": "43dc5a8a92d45db815fe5a50451b23a3", "lon": -77.0504905}, {"lat": 38.812029833333334, "is_disabled": 0, "type": "electric_bike", "fusion_lon": 0.0, "rental_uris": {"android": "https://dc.lft.to/lastmile_qr_scan", "ios": "https://dc.lft.to/lastmile_qr_scan"}, "fusion_lat": 0.0, "is_reserved": 0, "bike_id": "7c1e62af90f7fce199e954c28dbd3e78", "name": "7c1e62af90f7fce199e954c28dbd3e78", "lon": -77.10833566666666}, {"lat": 38.93858766666666, "is_disabled": 0, "type": "electric_scooter", "fusion_lon": 0.0, "rental_uris": {"android": "https://dc.lft.to/lastmile_qr_scan", "ios": "https://dc.lft.to/lastmile_qr_scan"}, "fusion_lat": 0.0, "is_reserved": 0, "bike_id": "8836452f4f6b1c9aa19cc527658a701a", "name": "8836452f4f6b1c9aa19cc527658a701a", "lon": -77.02455366666666}, {"lat": 38.831603666666666, "is_disabled": 0, "type": "electric_bike", "fusion_lon": 0.0, "rental_uris": {"android": "https://dc.lft.to/lastmile_qr_scan", "ios": "https://dc.lft.to/lastmile_qr_scan"}, "fusion_lat": 0.0, "is_reserved": 0, "bike_id": "f24c5c64b0a795019da4bad9393dd8c4", "name": "f24c5c64b0a795019da4bad9393dd8c4", "lon": -76.9954545}, {"lat": 38.891752833333335, "is_disabled": 0, "type": "electric_scooter", "fusion_lon": 0.0, "rental_uris": {"android": "https://dc.lft.to/lastmile_qr_scan", "ios": "https://dc.lft.to/lastmile_qr_scan"}, "fusion_lat": 0.0, "is_reserved": 0, "bike_id": "cc78aea0283cc98f4b998ecb560af74c", "name": "cc78aea0283cc98f4b998ecb560af74c", "lon": -76.99025816666666}, {"lat": 38.923646, "is_disabled": 0, "type": "electric_scooter", "fusion_lon": 0.0, "rental_uris": {"android": "https://dc.lft.to/lastmile_qr_scan", "ios": "https://dc.lft.to/lastmile_qr_scan"}, "fusion_lat": 0.0, "is_reserved": 0, "bike_id": "cff44de9432b9ab79fba6d4e12cc2070", "name": "cff44de9432b9ab79fba6d4e12cc2070", "lon": -77.051308}, {"lat": 38.93851333333333, "is_disabled": 0, "type": "electric_scooter", "fusion_lon": 0.0, "rental_uris": {"android": "https://dc.lft.to/lastmile_qr_scan", "ios": "https://dc.lft.to/lastmile_qr_scan"}, "fusion_lat": 0.0, "is_reserved": 0, "bike_id": "09a0e703430ab60a74f2d3561fc83193", "name": "09a0e703430ab60a74f2d3561fc83193", "lon": -77.02474166666667}, {"lat": 38.892191333333336, "is_disabled": 0, "type": "electric_scooter", "fusion_lon": 0.0, "rental_uris": {"android": "https://dc.lft.to/lastmile_qr_scan", "ios": "https://dc.lft.to/lastmile_qr_scan"}, "fusion_lat": 0.0, "is_reserved": 0, "bike_id": "0b3701f7ba5e951b2d3c96e70c8c01ab", "name": "0b3701f7ba5e951b2d3c96e70c8c01ab", "lon": -77.02628566666667}, {"lat": 38.891979166666665, "is_disabled": 0, "type": "electric_scooter", "fusion_lon": 0.0, "rental_uris": {"android": "https://dc.lft.to/lastmile_qr_scan", "ios": "https://dc.lft.to/lastmile_qr_scan"}, "fusion_lat": 0.0, "is_reserved": 0, "bike_id": "f7b39171e01fcc6f548d5cb70cd4022e", "name": "f7b39171e01fcc6f548d5cb70cd4022e", "lon": -77.02768433333334}, {"lat": 38.90026616666667, "is_disabled": 0, "type": "electric_scooter", "fusion_lon": 0.0, "rental_uris": {"android": "https://dc.lft.to/lastmile_qr_scan", "ios": "https://dc.lft.to/lastmile_qr_scan"}, "fusion_lat": 0.0, "is_reserved": 0, "bike_id": "706837839593ec99a71a2fc27e843c96", "name": "706837839593ec99a71a2fc27e843c96", "lon": -76.9993205}, {"lat": 38.90367533333333, "is_disabled": 0, "type": "electric_scooter", "fusion_lon": 0.0, "rental_uris": {"android": "https://dc.lft.to/lastmile_qr_scan", "ios": "https://dc.lft.to/lastmile_qr_scan"}, "fusion_lat": 0.0, "is_reserved": 0, "bike_id": "6ced182d2e2b968609f2bf03db4feb8d", "name": "6ced182d2e2b968609f2bf03db4feb8d", "lon": -77.02380883333333}, {"lat": 39.0147885, "is_disabled": 0, "type": "electric_bike", "fusion_lon": 0.0, "rental_uris": {"android": "https://dc.lft.to/lastmile_qr_scan", "ios": "https://dc.lft.to/lastmile_qr_scan"}, "fusion_lat": 0.0, "is_reserved": 0, "bike_id": "86a704987cd5c055fbf4840fd640aefd", "name": "86a704987cd5c055fbf4840fd640aefd", "lon": -77.0549605}, {"lat": 38.96739316666667, "is_disabled": 0, "type": "electric_bike", "fusion_lon": 0.0, "rental_uris": {"android": "https://dc.lft.to/lastmile_qr_scan", "ios": "https://dc.lft.to/lastmile_qr_scan"}, "fusion_lat": 0.0, "is_reserved": 0, "bike_id": "627a86f1ac80c23c9f865f47660b7f5c", "name": "627a86f1ac80c23c9f865f47660b7f5c", "lon": -76.98196916666667}, {"lat": 38.91110616666667, "is_disabled": 0, "type": "electric_scooter", "fusion_lon": 0.0, "rental_uris": {"android": "https://dc.lft.to/lastmile_qr_scan", "ios": "https://dc.lft.to/lastmile_qr_scan"}, "fusion_lat": 0.0, "is_reserved": 0, "bike_id": "acceabb36b93605a96c9e19e2a9297d8", "name": "acceabb36b93605a96c9e19e2a9297d8", "lon": -77.0440505}, {"lat": 38.9136035, "is_disabled": 0, "type": "electric_scooter", "fusion_lon": 0.0, "rental_uris": {"android": "https://dc.lft.to/lastmile_qr_scan", "ios": "https://dc.lft.to/lastmile_qr_scan"}, "fusion_lat": 0.0, "is_reserved": 0, "bike_id": "fa232a570105e7c91a2f04acdd05407f", "name": "fa232a570105e7c91a2f04acdd05407f", "lon": -77.039591}, {"lat": 38.8899265, "is_disabled": 0, "type": "electric_scooter", "fusion_lon": 0.0, "rental_uris": {"android": "https://dc.lft.to/lastmile_qr_scan", "ios": "https://dc.lft.to/lastmile_qr_scan"}, "fusion_lat": 0.0, "is_reserved": 0, "bike_id": "983696845a3851839c1b960da605a7c5", "name": "983696845a3851839c1b960da605a7c5", "lon": -76.99737566666667}, {"lat": 38.90787783333333, "is_disabled": 0, "type": "electric_scooter", "fusion_lon": 0.0, "rental_uris": {"android": "https://dc.lft.to/lastmile_qr_scan", "ios": "https://dc.lft.to/lastmile_qr_scan"}, "fusion_lat": 0.0, "is_reserved": 0, "bike_id": "6ec52d404f538669dafb6b4a8f3c6b41", "name": "6ec52d404f538669dafb6b4a8f3c6b41", "lon": -77.02278783333334}, {"lat": 38.9347655, "is_disabled": 0, "type": "electric_scooter", "fusion_lon": 0.0, "rental_uris": {"android": "https://dc.lft.to/lastmile_qr_scan", "ios": "https://dc.lft.to/lastmile_qr_scan"}, "fusion_lat": 0.0, "is_reserved": 0, "bike_id": "2fb9f2875a965955ba3677e6e316d792", "name": "2fb9f2875a965955ba3677e6e316d792", "lon": -77.02838183333333}, {"lat": 38.917725833333336, "is_disabled": 0, "type": "electric_scooter", "fusion_lon": 0.0, "rental_uris": {"android": "https://dc.lft.to/lastmile_qr_scan", "ios": "https://dc.lft.to/lastmile_qr_scan"}, "fusion_lat": 0.0, "is_reserved": 0, "bike_id": "cd2b8c8b00efcad34f951d08a75f13a6", "name": "cd2b8c8b00efcad34f951d08a75f13a6", "lon": -77.04105166666666}, {"lat": 38.9265445, "is_disabled": 0, "type": "electric_scooter", "fusion_lon": 0.0, "rental_uris": {"android": "https://dc.lft.to/lastmile_qr_scan", "ios": "https://dc.lft.to/lastmile_qr_scan"}, "fusion_lat": 0.0, "is_reserved": 0, "bike_id": "8d17895e7fbdf05d00175178668a9208", "name": "8d17895e7fbdf05d00175178668a9208", "lon": -77.02419583333334}, {"lat": 38.916798166666666, "is_disabled": 0, "type": "electric_scooter", "fusion_lon": 0.0, "rental_uris": {"android": "https://dc.lft.to/lastmile_qr_scan", "ios": "https://dc.lft.to/lastmile_qr_scan"}, "fusion_lat": 0.0, "is_reserved": 0, "bike_id": "d5aac7ef51d244f77d8427350a473104", "name": "d5aac7ef51d244f77d8427350a473104", "lon": -77.02322666666667}, {"lat": 38.924298666666665, "is_disabled": 0, "type": "electric_scooter", "fusion_lon": 0.0, "rental_uris": {"android": "https://dc.lft.to/lastmile_qr_scan", "ios": "https://dc.lft.to/lastmile_qr_scan"}, "fusion_lat": 0.0, "is_reserved": 0, "bike_id": "fb3c91f575a85692b4949bccfc31a1e4", "name": "fb3c91f575a85692b4949bccfc31a1e4", "lon": -77.05182966666666}, {"lat": 38.913929833333334, "is_disabled": 0, "type": "electric_scooter", "fusion_lon": 0.0, "rental_uris": {"android": "https://dc.lft.to/lastmile_qr_scan", "ios": "https://dc.lft.to/lastmile_qr_scan"}, "fusion_lat": 0.0, "is_reserved": 0, "bike_id": "360abba72bd231d62735391132ee6068", "name": "360abba72bd231d62735391132ee6068", "lon": -77.03332066666667}, {"lat": 38.87147233333334, "is_disabled": 0, "type": "electric_scooter", "fusion_lon": 0.0, "rental_uris": {"android": "https://dc.lft.to/lastmile_qr_scan", "ios": "https://dc.lft.to/lastmile_qr_scan"}, "fusion_lat": 0.0, "is_reserved": 0, "bike_id": "063aabe98cb75f808b7a80b65f185133", "name": "063aabe98cb75f808b7a80b65f185133", "lon": -76.97745583333334}, {"lat": 38.912277333333336, "is_disabled": 0, "type": "electric_scooter", "fusion_lon": 0.0, "rental_uris": {"android": "https://dc.lft.to/lastmile_qr_scan", "ios": "https://dc.lft.to/lastmile_qr_scan"}, "fusion_lat": 0.0, "is_reserved": 0, "bike_id": "ae3581e0ed934b2ca544af6d64332655", "name": "ae3581e0ed934b2ca544af6d64332655", "lon": -77.06585883333334}, {"lat": 38.877103, "is_disabled": 0, "type": "electric_scooter", "fusion_lon": 0.0, "rental_uris": {"android": "https://dc.lft.to/lastmile_qr_scan", "ios": "https://dc.lft.to/lastmile_qr_scan"}, "fusion_lat": 0.0, "is_reserved": 0, "bike_id": "02f57a3ed4f740efa9afcb92a95d2a40", "name": "02f57a3ed4f740efa9afcb92a95d2a40", "lon": -76.993839}, {"lat": 38.955579, "is_disabled": 0, "type": "electric_scooter", "fusion_lon": 0.0, "rental_uris": {"android": "https://dc.lft.to/lastmile_qr_scan", "ios": "https://dc.lft.to/lastmile_qr_scan"}, "fusion_lat": 0.0, "is_reserved": 0, "bike_id": "512461994eaf5180ee514f41511a19a1", "name": "512461994eaf5180ee514f41511a19a1", "lon": -77.07006183333333}, {"lat": 38.95016183333333, "is_disabled": 0, "type": "electric_scooter", "fusion_lon": 0.0, "rental_uris": {"android": "https://dc.lft.to/lastmile_qr_scan", "ios": "https://dc.lft.to/lastmile_qr_scan"}, "fusion_lat": 0.0, "is_reserved": 0, "bike_id": "38a2df4712d120ae4fbb9bec0052b687", "name": "38a2df4712d120ae4fbb9bec0052b687", "lon": -77.06725}, {"lat": 38.91637866666667, "is_disabled": 0, "type": "electric_scooter", "fusion_lon": 0.0, "rental_uris": {"android": "https://dc.lft.to/lastmile_qr_scan", "ios": "https://dc.lft.to/lastmile_qr_scan"}, "fusion_lat": 0.0, "is_reserved": 0, "bike_id": "be2ff8ef339013c6702dce5905ac1f5c", "name": "be2ff8ef339013c6702dce5905ac1f5c", "lon": -77.01085116666667}, {"lat": 38.905963166666666, "is_disabled": 0, "type": "electric_scooter", "fusion_lon": 0.0, "rental_uris": {"android": "https://dc.lft.to/lastmile_qr_scan", "ios": "https://dc.lft.to/lastmile_qr_scan"}, "fusion_lat": 0.0, "is_reserved": 0, "bike_id": "0dfa4697d1d54a1d261d87ad2b85928b", "name": "0dfa4697d1d54a1d261d87ad2b85928b", "lon": -77.032569}, {"lat": 38.8717875, "is_disabled": 0, "type": "electric_scooter", "fusion_lon": 0.0, "rental_uris": {"android": "https://dc.lft.to/lastmile_qr_scan", "ios": "https://dc.lft.to/lastmile_qr_scan"}, "fusion_lat": 0.0, "is_reserved": 0, "bike_id": "0aa9c448d2cd108c2c76c0972fe69f98", "name": "0aa9c448d2cd108c2c76c0972fe69f98", "lon": -77.00609283333333}, {"lat": 38.91123566666667, "is_disabled": 0, "type": "electric_scooter", "fusion_lon": 0.0, "rental_uris": {"android": "https://dc.lft.to/lastmile_qr_scan", "ios": "https://dc.lft.to/lastmile_qr_scan"}, "fusion_lat": 0.0, "is_reserved": 0, "bike_id": "0352f304280e44f0bcdc77e6ef6dbbb4", "name": "0352f304280e44f0bcdc77e6ef6dbbb4", "lon": -77.0318325}, {"lat": 38.9006765, "is_disabled": 0, "type": "electric_scooter", "fusion_lon": 0.0, "rental_uris": {"android": "https://dc.lft.to/lastmile_qr_scan", "ios": "https://dc.lft.to/lastmile_qr_scan"}, "fusion_lat": 0.0, "is_reserved": 0, "bike_id": "7259f5ca1ae496efc9faa077703b89bc", "name": "7259f5ca1ae496efc9faa077703b89bc", "lon": -76.92745416666666}, {"lat": 38.887998, "is_disabled": 0, "type": "electric_scooter", "fusion_lon": 0.0, "rental_uris": {"android": "https://dc.lft.to/lastmile_qr_scan", "ios": "https://dc.lft.to/lastmile_qr_scan"}, "fusion_lat": 0.0, "is_reserved": 0, "bike_id": "ed6f5ffa21382d71d3c894cda60f43ff", "name": "ed6f5ffa21382d71d3c894cda60f43ff", "lon": -76.93356566666667}, {"lat": 38.899827, "is_disabled": 0, "type": "electric_scooter", "fusion_lon": 0.0, "rental_uris": {"android": "https://dc.lft.to/lastmile_qr_scan", "ios": "https://dc.lft.to/lastmile_qr_scan"}, "fusion_lat": 0.0, "is_reserved": 0, "bike_id": "26646ca1ad92a088b09a7a3d0d62d1e3", "name": "26646ca1ad92a088b09a7a3d0d62d1e3", "lon": -77.04811916666667}, {"lat": 38.9180855, "is_disabled": 0, "type": "electric_scooter", "fusion_lon": 0.0, "rental_uris": {"android": "https://dc.lft.to/lastmile_qr_scan", "ios": "https://dc.lft.to/lastmile_qr_scan"}, "fusion_lat": 0.0, "is_reserved": 0, "bike_id": "93ee3ccae66a1ee02a424789914ce6fc", "name": "93ee3ccae66a1ee02a424789914ce6fc", "lon": -77.03440266666667}, {"lat": 38.83566316666667, "is_disabled": 0, "type": "electric_scooter", "fusion_lon": 0.0, "rental_uris": {"android": "https://dc.lft.to/lastmile_qr_scan", "ios": "https://dc.lft.to/lastmile_qr_scan"}, "fusion_lat": 0.0, "is_reserved": 0, "bike_id": "367def152daf2aba9a3a374f85b8baec", "name": "367def152daf2aba9a3a374f85b8baec", "lon": -76.99496633333334}, {"lat": 38.92238366666667, "is_disabled": 0, "type": "electric_scooter", "fusion_lon": 0.0, "rental_uris": {"android": "https://dc.lft.to/lastmile_qr_scan", "ios": "https://dc.lft.to/lastmile_qr_scan"}, "fusion_lat": 0.0, "is_reserved": 0, "bike_id": "f62eaf813ff7779d35115bdb538a0e7f", "name": "f62eaf813ff7779d35115bdb538a0e7f", "lon": -77.03095766666667}, {"lat": 38.90950333333333, "is_disabled": 0, "type": "electric_scooter", "fusion_lon": 0.0, "rental_uris": {"android": "https://dc.lft.to/lastmile_qr_scan", "ios": "https://dc.lft.to/lastmile_qr_scan"}, "fusion_lat": 0.0, "is_reserved": 0, "bike_id": "8e69b33eca4877a70e98d3658a90a9e7", "name": "8e69b33eca4877a70e98d3658a90a9e7", "lon": -77.04427033333333}, {"lat": 38.915548, "is_disabled": 0, "type": "electric_scooter", "fusion_lon": 0.0, "rental_uris": {"android": "https://dc.lft.to/lastmile_qr_scan", "ios": "https://dc.lft.to/lastmile_qr_scan"}, "fusion_lat": 0.0, "is_reserved": 0, "bike_id": "30b35d08b0944992cc7f5bd5d3a01175", "name": "30b35d08b0944992cc7f5bd5d3a01175", "lon": -77.02554466666666}, {"lat": 38.892285666666666, "is_disabled": 0, "type": "electric_scooter", "fusion_lon": 0.0, "rental_uris": {"android": "https://dc.lft.to/lastmile_qr_scan", "ios": "https://dc.lft.to/lastmile_qr_scan"}, "fusion_lat": 0.0, "is_reserved": 0, "bike_id": "4b7aeedc16734c9a5dff8a1108a034bf", "name": "4b7aeedc16734c9a5dff8a1108a034bf", "lon": -77.04634783333333}, {"lat": 38.8991775, "is_disabled": 0, "type": "electric_scooter", "fusion_lon": 0.0, "rental_uris": {"android": "https://dc.lft.to/lastmile_qr_scan", "ios": "https://dc.lft.to/lastmile_qr_scan"}, "fusion_lat": 0.0, "is_reserved": 0, "bike_id": "cfc1cc0b1d8859619617e73d271beb0d", "name": "cfc1cc0b1d8859619617e73d271beb0d", "lon": -77.0092455}, {"lat": 38.91884733333333, "is_disabled": 0, "type": "electric_scooter", "fusion_lon": 0.0, "rental_uris": {"android": "https://dc.lft.to/lastmile_qr_scan", "ios": "https://dc.lft.to/lastmile_qr_scan"}, "fusion_lat": 0.0, "is_reserved": 0, "bike_id": "39c1b47cffde6b9a446011338e8626d1", "name": "39c1b47cffde6b9a446011338e8626d1", "lon": -77.03560233333333}, {"lat": 38.92378166666667, "is_disabled": 0, "type": "electric_scooter", "fusion_lon": 0.0, "rental_uris": {"android": "https://dc.lft.to/lastmile_qr_scan", "ios": "https://dc.lft.to/lastmile_qr_scan"}, "fusion_lat": 0.0, "is_reserved": 0, "bike_id": "9b6c54bb261d6a501746acd3260b0766", "name": "9b6c54bb261d6a501746acd3260b0766", "lon": -77.019368}, {"lat": 38.93535116666666, "is_disabled": 0, "type": "electric_scooter", "fusion_lon": 0.0, "rental_uris": {"android": "https://dc.lft.to/lastmile_qr_scan", "ios": "https://dc.lft.to/lastmile_qr_scan"}, "fusion_lat": 0.0, "is_reserved": 0, "bike_id": "07696825ce8f43da7fcbdd372810fab2", "name": "07696825ce8f43da7fcbdd372810fab2", "lon": -77.023519}, {"lat": 38.912701166666665, "is_disabled": 0, "type": "electric_scooter", "fusion_lon": 0.0, "rental_uris": {"android": "https://dc.lft.to/lastmile_qr_scan", "ios": "https://dc.lft.to/lastmile_qr_scan"}, "fusion_lat": 0.0, "is_reserved": 0, "bike_id": "cdded9bece214980c635d5e7f91bbf95", "name": "cdded9bece214980c635d5e7f91bbf95", "lon": -77.0105885}, {"lat": 38.89569683333333, "is_disabled": 0, "type": "electric_scooter", "fusion_lon": 0.0, "rental_uris": {"android": "https://dc.lft.to/lastmile_qr_scan", "ios": "https://dc.lft.to/lastmile_qr_scan"}, "fusion_lat": 0.0, "is_reserved": 0, "bike_id": "990a205d10c2a2e6cec1f04fe68261f4", "name": "990a205d10c2a2e6cec1f04fe68261f4", "lon": -77.02841716666667}, {"lat": 38.850202833333334, "is_disabled": 0, "type": "electric_bike", "fusion_lon": 0.0, "rental_uris": {"android": "https://dc.lft.to/lastmile_qr_scan", "ios": "https://dc.lft.to/lastmile_qr_scan"}, "fusion_lat": 0.0, "is_reserved": 0, "bike_id": "e0bc1e07aff65cae6f241a6de5badc04", "name": "e0bc1e07aff65cae6f241a6de5badc04", "lon": -77.09823333333334}, {"lat": 38.928158, "is_disabled": 0, "type": "electric_scooter", "fusion_lon": 0.0, "rental_uris": {"android": "https://dc.lft.to/lastmile_qr_scan", "ios": "https://dc.lft.to/lastmile_qr_scan"}, "fusion_lat": 0.0, "is_reserved": 0, "bike_id": "834e4ed2eb3a3cd04e8c671ba38b68d7", "name": "834e4ed2eb3a3cd04e8c671ba38b68d7", "lon": -77.03599583333333}, {"lat": 38.876606833333334, "is_disabled": 0, "type": "electric_scooter", "fusion_lon": 0.0, "rental_uris": {"android": "https://dc.lft.to/lastmile_qr_scan", "ios": "https://dc.lft.to/lastmile_qr_scan"}, "fusion_lat": 0.0, "is_reserved": 0, "bike_id": "77ed86012416cdaab4d01c2cd6227d86", "name": "77ed86012416cdaab4d01c2cd6227d86", "lon": -77.0060735}, {"lat": 38.8775515, "is_disabled": 0, "type": "electric_scooter", "fusion_lon": 0.0, "rental_uris": {"android": "https://dc.lft.to/lastmile_qr_scan", "ios": "https://dc.lft.to/lastmile_qr_scan"}, "fusion_lat": 0.0, "is_reserved": 0, "bike_id": "3dae82f7a043a489d825823cf0fcaca5", "name": "3dae82f7a043a489d825823cf0fcaca5", "lon": -77.00831516666666}, {"lat": 38.902725833333335, "is_disabled": 0, "type": "electric_bike", "fusion_lon": 0.0, "rental_uris": {"android": "https://dc.lft.to/lastmile_qr_scan", "ios": "https://dc.lft.to/lastmile_qr_scan"}, "fusion_lat": 0.0, "is_reserved": 0, "bike_id": "f4e1467f2c4ee31d7d4da14b714673b7", "name": "f4e1467f2c4ee31d7d4da14b714673b7", "lon": -76.92927116666667}, {"lat": 38.916315166666664, "is_disabled": 0, "type": "electric_scooter", "fusion_lon": 0.0, "rental_uris": {"android": "https://dc.lft.to/lastmile_qr_scan", "ios": "https://dc.lft.to/lastmile_qr_scan"}, "fusion_lat": 0.0, "is_reserved": 0, "bike_id": "2959c5954c1235ac46ab29a7c756c9fe", "name": "2959c5954c1235ac46ab29a7c756c9fe", "lon": -77.03146933333333}, {"lat": 38.912097833333334, "is_disabled": 0, "type": "electric_scooter", "fusion_lon": 0.0, "rental_uris": {"android": "https://dc.lft.to/lastmile_qr_scan", "ios": "https://dc.lft.to/lastmile_qr_scan"}, "fusion_lat": 0.0, "is_reserved": 0, "bike_id": "4a3c86ab61b9c4eeb6dc151d57bf359a", "name": "4a3c86ab61b9c4eeb6dc151d57bf359a", "lon": -77.029485}, {"lat": 38.90542666666666, "is_disabled": 0, "type": "electric_scooter", "fusion_lon": 0.0, "rental_uris": {"android": "https://dc.lft.to/lastmile_qr_scan", "ios": "https://dc.lft.to/lastmile_qr_scan"}, "fusion_lat": 0.0, "is_reserved": 0, "bike_id": "c3e424301f51bdc4abb1b09d50db3a02", "name": "c3e424301f51bdc4abb1b09d50db3a02", "lon": -77.04922316666666}, {"lat": 38.8921845, "is_disabled": 0, "type": "electric_scooter", "fusion_lon": 0.0, "rental_uris": {"android": "https://dc.lft.to/lastmile_qr_scan", "ios": "https://dc.lft.to/lastmile_qr_scan"}, "fusion_lat": 0.0, "is_reserved": 0, "bike_id": "b31a9b47d463d1b66c71388027a1c7e5", "name": "b31a9b47d463d1b66c71388027a1c7e5", "lon": -77.04375333333333}, {"lat": 38.90242933333333, "is_disabled": 0, "type": "electric_scooter", "fusion_lon": 0.0, "rental_uris": {"android": "https://dc.lft.to/lastmile_qr_scan", "ios": "https://dc.lft.to/lastmile_qr_scan"}, "fusion_lat": 0.0, "is_reserved": 0, "bike_id": "0dd767096ab388abdfe19db02cccd324", "name": "0dd767096ab388abdfe19db02cccd324", "lon": -77.01509133333333}, {"lat": 38.9117685, "is_disabled": 0, "type": "electric_scooter", "fusion_lon": 0.0, "rental_uris": {"android": "https://dc.lft.to/lastmile_qr_scan", "ios": "https://dc.lft.to/lastmile_qr_scan"}, "fusion_lat": 0.0, "is_reserved": 0, "bike_id": "23d12aa7ca25a6b16cf99148e22329ba", "name": "23d12aa7ca25a6b16cf99148e22329ba", "lon": -77.02948283333333}, {"lat": 38.893685166666664, "is_disabled": 0, "type": "electric_scooter", "fusion_lon": 0.0, "rental_uris": {"android": "https://dc.lft.to/lastmile_qr_scan", "ios": "https://dc.lft.to/lastmile_qr_scan"}, "fusion_lat": 0.0, "is_reserved": 0, "bike_id": "1b5d19d413b7335a9d0fa68a16d67560", "name": "1b5d19d413b7335a9d0fa68a16d67560", "lon": -76.95015633333334}, {"lat": 38.908978833333336, "is_disabled": 0, "type": "electric_scooter", "fusion_lon": 0.0, "rental_uris": {"android": "https://dc.lft.to/lastmile_qr_scan", "ios": "https://dc.lft.to/lastmile_qr_scan"}, "fusion_lat": 0.0, "is_reserved": 0, "bike_id": "64f4a3cbb70972a121e4fd39f65bb7e1", "name": "64f4a3cbb70972a121e4fd39f65bb7e1", "lon": -76.99859966666666}, {"lat": 38.89681483333333, "is_disabled": 0, "type": "electric_scooter", "fusion_lon": 0.0, "rental_uris": {"android": "https://dc.lft.to/lastmile_qr_scan", "ios": "https://dc.lft.to/lastmile_qr_scan"}, "fusion_lat": 0.0, "is_reserved": 0, "bike_id": "832ca76a6aa0d6f9aa76eddf89f52b7a", "name": "832ca76a6aa0d6f9aa76eddf89f52b7a", "lon": -76.93534783333334}, {"lat": 39.042322166666665, "is_disabled": 0, "type": "electric_bike", "fusion_lon": 0.0, "rental_uris": {"android": "https://dc.lft.to/lastmile_qr_scan", "ios": "https://dc.lft.to/lastmile_qr_scan"}, "fusion_lat": 0.0, "is_reserved": 0, "bike_id": "0282d37eb32a9dc4ef83e4c147ede940", "name": "0282d37eb32a9dc4ef83e4c147ede940", "lon": -76.9973465}, {"lat": 38.8763145, "is_disabled": 0, "type": "electric_scooter", "fusion_lon": 0.0, "rental_uris": {"android": "https://dc.lft.to/lastmile_qr_scan", "ios": "https://dc.lft.to/lastmile_qr_scan"}, "fusion_lat": 0.0, "is_reserved": 0, "bike_id": "2fbd2b65bd9bf0819d623dba9566126f", "name": "2fbd2b65bd9bf0819d623dba9566126f", "lon": -77.00939966666667}, {"lat": 38.941808333333334, "is_disabled": 0, "type": "electric_scooter", "fusion_lon": 0.0, "rental_uris": {"android": "https://dc.lft.to/lastmile_qr_scan", "ios": "https://dc.lft.to/lastmile_qr_scan"}, "fusion_lat": 0.0, "is_reserved": 0, "bike_id": "aabdc8f5d9c841ce371d796fa394afeb", "name": "aabdc8f5d9c841ce371d796fa394afeb", "lon": -77.02532766666667}, {"lat": 38.88688666666667, "is_disabled": 0, "type": "electric_scooter", "fusion_lon": 0.0, "rental_uris": {"android": "https://dc.lft.to/lastmile_qr_scan", "ios": "https://dc.lft.to/lastmile_qr_scan"}, "fusion_lat": 0.0, "is_reserved": 0, "bike_id": "acbe387ef58eb61fe4334e5b24bdfc59", "name": "acbe387ef58eb61fe4334e5b24bdfc59", "lon": -76.95465983333334}, {"lat": 38.930832833333334, "is_disabled": 0, "type": "electric_scooter", "fusion_lon": 0.0, "rental_uris": {"android": "https://dc.lft.to/lastmile_qr_scan", "ios": "https://dc.lft.to/lastmile_qr_scan"}, "fusion_lat": 0.0, "is_reserved": 0, "bike_id": "fd27908b20470ea0d35b60ebbf3c7f52", "name": "fd27908b20470ea0d35b60ebbf3c7f52", "lon": -77.028085}, {"lat": 38.9363355, "is_disabled": 0, "type": "electric_scooter", "fusion_lon": 0.0, "rental_uris": {"android": "https://dc.lft.to/lastmile_qr_scan", "ios": "https://dc.lft.to/lastmile_qr_scan"}, "fusion_lat": 0.0, "is_reserved": 0, "bike_id": "3d5050339511452da89a06afb26c6c79", "name": "3d5050339511452da89a06afb26c6c79", "lon": -77.03653583333333}, {"lat": 38.86506, "is_disabled": 0, "type": "electric_scooter", "fusion_lon": 0.0, "rental_uris": {"android": "https://dc.lft.to/lastmile_qr_scan", "ios": "https://dc.lft.to/lastmile_qr_scan"}, "fusion_lat": 0.0, "is_reserved": 0, "bike_id": "f38e394c24d6b1964bb846c5055048f2", "name": "f38e394c24d6b1964bb846c5055048f2", "lon": -76.99004666666667}, {"lat": 38.90559983333333, "is_disabled": 0, "type": "electric_scooter", "fusion_lon": 0.0, "rental_uris": {"android": "https://dc.lft.to/lastmile_qr_scan", "ios": "https://dc.lft.to/lastmile_qr_scan"}, "fusion_lat": 0.0, "is_reserved": 0, "bike_id": "d46ff602b9496aedd163dd9248eb79e7", "name": "d46ff602b9496aedd163dd9248eb79e7", "lon": -76.991167}, {"lat": 38.905368833333334, "is_disabled": 0, "type": "electric_scooter", "fusion_lon": 0.0, "rental_uris": {"android": "https://dc.lft.to/lastmile_qr_scan", "ios": "https://dc.lft.to/lastmile_qr_scan"}, "fusion_lat": 0.0, "is_reserved": 0, "bike_id": "71af6191807b310b1ef94b402c9ffb49", "name": "71af6191807b310b1ef94b402c9ffb49", "lon": -77.05911833333333}, {"lat": 38.930791, "is_disabled": 0, "type": "electric_scooter", "fusion_lon": 0.0, "rental_uris": {"android": "https://dc.lft.to/lastmile_qr_scan", "ios": "https://dc.lft.to/lastmile_qr_scan"}, "fusion_lat": 0.0, "is_reserved": 0, "bike_id": "3d4e1835a5dd4be3456a1419864e4824", "name": "3d4e1835a5dd4be3456a1419864e4824", "lon": -77.0375895}, {"lat": 38.892185166666664, "is_disabled": 0, "type": "electric_scooter", "fusion_lon": 0.0, "rental_uris": {"android": "https://dc.lft.to/lastmile_qr_scan", "ios": "https://dc.lft.to/lastmile_qr_scan"}, "fusion_lat": 0.0, "is_reserved": 0, "bike_id": "6e807383318681d848445567d6477639", "name": "6e807383318681d848445567d6477639", "lon": -77.031397}, {"lat": 38.88745516666667, "is_disabled": 0, "type": "electric_scooter", "fusion_lon": 0.0, "rental_uris": {"android": "https://dc.lft.to/lastmile_qr_scan", "ios": "https://dc.lft.to/lastmile_qr_scan"}, "fusion_lat": 0.0, "is_reserved": 0, "bike_id": "98666d53038b861dbb367b37633f76b4", "name": "98666d53038b861dbb367b37633f76b4", "lon": -77.0273615}, {"lat": 38.925489666666664, "is_disabled": 0, "type": "electric_scooter", "fusion_lon": 0.0, "rental_uris": {"android": "https://dc.lft.to/lastmile_qr_scan", "ios": "https://dc.lft.to/lastmile_qr_scan"}, "fusion_lat": 0.0, "is_reserved": 0, "bike_id": "8533b35ab0836d3d03ffa012683d2f6f", "name": "8533b35ab0836d3d03ffa012683d2f6f", "lon": -77.03497566666667}, {"lat": 38.926907166666666, "is_disabled": 0, "type": "electric_scooter", "fusion_lon": 0.0, "rental_uris": {"android": "https://dc.lft.to/lastmile_qr_scan", "ios": "https://dc.lft.to/lastmile_qr_scan"}, "fusion_lat": 0.0, "is_reserved": 0, "bike_id": "75e648188bfed765bfded9857a77f250", "name": "75e648188bfed765bfded9857a77f250", "lon": -77.02964933333334}, {"lat": 38.8923005, "is_disabled": 0, "type": "electric_scooter", "fusion_lon": 0.0, "rental_uris": {"android": "https://dc.lft.to/lastmile_qr_scan", "ios": "https://dc.lft.to/lastmile_qr_scan"}, "fusion_lat": 0.0, "is_reserved": 0, "bike_id": "bdc50649debf99799871298960870272", "name": "bdc50649debf99799871298960870272", "lon": -77.05006466666667}, {"lat": 38.89365516666667, "is_disabled": 0, "type": "electric_scooter", "fusion_lon": 0.0, "rental_uris": {"android": "https://dc.lft.to/lastmile_qr_scan", "ios": "https://dc.lft.to/lastmile_qr_scan"}, "fusion_lat": 0.0, "is_reserved": 0, "bike_id": "29963f728b7c5989ad08e4bcb13640cd", "name": "29963f728b7c5989ad08e4bcb13640cd", "lon": -76.94822033333334}, {"lat": 38.897513333333336, "is_disabled": 0, "type": "electric_scooter", "fusion_lon": 0.0, "rental_uris": {"android": "https://dc.lft.to/lastmile_qr_scan", "ios": "https://dc.lft.to/lastmile_qr_scan"}, "fusion_lat": 0.0, "is_reserved": 0, "bike_id": "929b27bed3887ccc4e047db4cf0624fd", "name": "929b27bed3887ccc4e047db4cf0624fd", "lon": -77.04385933333333}, {"lat": 38.892228833333334, "is_disabled": 0, "type": "electric_scooter", "fusion_lon": 0.0, "rental_uris": {"android": "https://dc.lft.to/lastmile_qr_scan", "ios": "https://dc.lft.to/lastmile_qr_scan"}, "fusion_lat": 0.0, "is_reserved": 0, "bike_id": "526b0d666583d9e60ce00633a47f155d", "name": "526b0d666583d9e60ce00633a47f155d", "lon": -77.04470133333334}, {"lat": 38.92260733333333, "is_disabled": 0, "type": "electric_scooter", "fusion_lon": 0.0, "rental_uris": {"android": "https://dc.lft.to/lastmile_qr_scan", "ios": "https://dc.lft.to/lastmile_qr_scan"}, "fusion_lat": 0.0, "is_reserved": 0, "bike_id": "6f97fd1067754248fbe70de95acddf37", "name": "6f97fd1067754248fbe70de95acddf37", "lon": -77.01950516666666}, {"lat": 38.91035883333333, "is_disabled": 0, "type": "electric_scooter", "fusion_lon": 0.0, "rental_uris": {"android": "https://dc.lft.to/lastmile_qr_scan", "ios": "https://dc.lft.to/lastmile_qr_scan"}, "fusion_lat": 0.0, "is_reserved": 0, "bike_id": "bd732195ff4ba0bfffe9f14398958b65", "name": "bd732195ff4ba0bfffe9f14398958b65", "lon": -77.02301833333334}, {"lat": 38.872766, "is_disabled": 0, "type": "electric_bike", "fusion_lon": 0.0, "rental_uris": {"android": "https://dc.lft.to/lastmile_qr_scan", "ios": "https://dc.lft.to/lastmile_qr_scan"}, "fusion_lat": 0.0, "is_reserved": 0, "bike_id": "f60a6fce16742d3b9cab9bd8c8936821", "name": "f60a6fce16742d3b9cab9bd8c8936821", "lon": -77.23334033333333}, {"lat": 38.90511166666667, "is_disabled": 0, "type": "electric_scooter", "fusion_lon": 0.0, "rental_uris": {"android": "https://dc.lft.to/lastmile_qr_scan", "ios": "https://dc.lft.to/lastmile_qr_scan"}, "fusion_lat": 0.0, "is_reserved": 0, "bike_id": "7ba2bb985ba489dcb30eac58a7d3380d", "name": "7ba2bb985ba489dcb30eac58a7d3380d", "lon": -77.06889866666667}, {"lat": 38.95539083333333, "is_disabled": 0, "type": "electric_scooter", "fusion_lon": 0.0, "rental_uris": {"android": "https://dc.lft.to/lastmile_qr_scan", "ios": "https://dc.lft.to/lastmile_qr_scan"}, "fusion_lat": 0.0, "is_reserved": 0, "bike_id": "a54d8110b6b1248fabee4ac32ece92cc", "name": "a54d8110b6b1248fabee4ac32ece92cc", "lon": -77.02470583333333}, {"lat": 38.855386333333335, "is_disabled": 0, "type": "electric_scooter", "fusion_lon": 0.0, "rental_uris": {"android": "https://dc.lft.to/lastmile_qr_scan", "ios": "https://dc.lft.to/lastmile_qr_scan"}, "fusion_lat": 0.0, "is_reserved": 0, "bike_id": "bb0e67477377979d6dfc75b834450b49", "name": "bb0e67477377979d6dfc75b834450b49", "lon": -76.98420066666667}, {"lat": 38.90268533333333, "is_disabled": 0, "type": "electric_scooter", "fusion_lon": 0.0, "rental_uris": {"android": "https://dc.lft.to/lastmile_qr_scan", "ios": "https://dc.lft.to/lastmile_qr_scan"}, "fusion_lat": 0.0, "is_reserved": 0, "bike_id": "1e974363ef1f7619a51fab97f5565648", "name": "1e974363ef1f7619a51fab97f5565648", "lon": -77.01724233333333}, {"lat": 38.892770666666664, "is_disabled": 0, "type": "electric_scooter", "fusion_lon": 0.0, "rental_uris": {"android": "https://dc.lft.to/lastmile_qr_scan", "ios": "https://dc.lft.to/lastmile_qr_scan"}, "fusion_lat": 0.0, "is_reserved": 0, "bike_id": "caa01242aeb04124f1acce1a67d468a0", "name": "caa01242aeb04124f1acce1a67d468a0", "lon": -77.04873366666666}, {"lat": 38.93578616666667, "is_disabled": 0, "type": "electric_scooter", "fusion_lon": 0.0, "rental_uris": {"android": "https://dc.lft.to/lastmile_qr_scan", "ios": "https://dc.lft.to/lastmile_qr_scan"}, "fusion_lat": 0.0, "is_reserved": 0, "bike_id": "92a65089df30c1f8a303cd81c24c0013", "name": "92a65089df30c1f8a303cd81c24c0013", "lon": -77.08115416666666}, {"lat": 38.916441666666664, "is_disabled": 0, "type": "electric_bike", "fusion_lon": 0.0, "rental_uris": {"android": "https://dc.lft.to/lastmile_qr_scan", "ios": "https://dc.lft.to/lastmile_qr_scan"}, "fusion_lat": 0.0, "is_reserved": 0, "bike_id": "7431afebaec4837294c343dc579f0674", "name": "7431afebaec4837294c343dc579f0674", "lon": -76.9730585}, {"lat": 38.88489366666667, "is_disabled": 0, "type": "electric_scooter", "fusion_lon": 0.0, "rental_uris": {"android": "https://dc.lft.to/lastmile_qr_scan", "ios": "https://dc.lft.to/lastmile_qr_scan"}, "fusion_lat": 0.0, "is_reserved": 0, "bike_id": "0b6338c321ee7f4dfdce3583104e0f10", "name": "0b6338c321ee7f4dfdce3583104e0f10", "lon": -76.92625033333333}, {"lat": 38.90552616666667, "is_disabled": 0, "type": "electric_scooter", "fusion_lon": 0.0, "rental_uris": {"android": "https://dc.lft.to/lastmile_qr_scan", "ios": "https://dc.lft.to/lastmile_qr_scan"}, "fusion_lat": 0.0, "is_reserved": 0, "bike_id": "ec760ebcae95dd7ec54e3d38b1586d85", "name": "ec760ebcae95dd7ec54e3d38b1586d85", "lon": -77.00602433333333}, {"lat": 38.92090066666667, "is_disabled": 0, "type": "electric_scooter", "fusion_lon": 0.0, "rental_uris": {"android": "https://dc.lft.to/lastmile_qr_scan", "ios": "https://dc.lft.to/lastmile_qr_scan"}, "fusion_lat": 0.0, "is_reserved": 0, "bike_id": "4ad1930b765a738d3f03057d1c849e11", "name": "4ad1930b765a738d3f03057d1c849e11", "lon": -77.02219133333334}, {"lat": 38.944118833333334, "is_disabled": 0, "type": "electric_scooter", "fusion_lon": 0.0, "rental_uris": {"android": "https://dc.lft.to/lastmile_qr_scan", "ios": "https://dc.lft.to/lastmile_qr_scan"}, "fusion_lat": 0.0, "is_reserved": 0, "bike_id": "25de2760bc796b5d2af8757401bea35e", "name": "25de2760bc796b5d2af8757401bea35e", "lon": -77.02599433333333}, {"lat": 38.931732, "is_disabled": 0, "type": "electric_scooter", "fusion_lon": 0.0, "rental_uris": {"android": "https://dc.lft.to/lastmile_qr_scan", "ios": "https://dc.lft.to/lastmile_qr_scan"}, "fusion_lat": 0.0, "is_reserved": 0, "bike_id": "dfc0b0214a7948bbd932535c0c995321", "name": "dfc0b0214a7948bbd932535c0c995321", "lon": -77.0710665}, {"lat": 38.92274833333333, "is_disabled": 0, "type": "electric_scooter", "fusion_lon": 0.0, "rental_uris": {"android": "https://dc.lft.to/lastmile_qr_scan", "ios": "https://dc.lft.to/lastmile_qr_scan"}, "fusion_lat": 0.0, "is_reserved": 0, "bike_id": "c92a2aa7bd042c41e7072c3e9a4f7e27", "name": "c92a2aa7bd042c41e7072c3e9a4f7e27", "lon": -77.01908933333333}, {"lat": 38.900865333333336, "is_disabled": 0, "type": "electric_scooter", "fusion_lon": 0.0, "rental_uris": {"android": "https://dc.lft.to/lastmile_qr_scan", "ios": "https://dc.lft.to/lastmile_qr_scan"}, "fusion_lat": 0.0, "is_reserved": 0, "bike_id": "6af8139160863e73a3456e7866ff3376", "name": "6af8139160863e73a3456e7866ff3376", "lon": -76.93019616666666}, {"lat": 38.898382166666664, "is_disabled": 0, "type": "electric_scooter", "fusion_lon": 0.0, "rental_uris": {"android": "https://dc.lft.to/lastmile_qr_scan", "ios": "https://dc.lft.to/lastmile_qr_scan"}, "fusion_lat": 0.0, "is_reserved": 0, "bike_id": "66345ddc4c873abd16c8398a766eaefa", "name": "66345ddc4c873abd16c8398a766eaefa", "lon": -77.02400066666667}, {"lat": 38.87208233333333, "is_disabled": 0, "type": "electric_scooter", "fusion_lon": 0.0, "rental_uris": {"android": "https://dc.lft.to/lastmile_qr_scan", "ios": "https://dc.lft.to/lastmile_qr_scan"}, "fusion_lat": 0.0, "is_reserved": 0, "bike_id": "4d9cc6d9d94889a908309d3fdecb2828", "name": "4d9cc6d9d94889a908309d3fdecb2828", "lon": -76.97837216666667}, {"lat": 38.95064083333333, "is_disabled": 0, "type": "electric_scooter", "fusion_lon": 0.0, "rental_uris": {"android": "https://dc.lft.to/lastmile_qr_scan", "ios": "https://dc.lft.to/lastmile_qr_scan"}, "fusion_lat": 0.0, "is_reserved": 0, "bike_id": "a0cecb72bcba8cc4d3679e4be71bbc3f", "name": "a0cecb72bcba8cc4d3679e4be71bbc3f", "lon": -77.08013983333333}, {"lat": 38.908244833333335, "is_disabled": 0, "type": "electric_scooter", "fusion_lon": 0.0, "rental_uris": {"android": "https://dc.lft.to/lastmile_qr_scan", "ios": "https://dc.lft.to/lastmile_qr_scan"}, "fusion_lat": 0.0, "is_reserved": 0, "bike_id": "56d0d6dd8c27445d07925cb9891c1dbc", "name": "56d0d6dd8c27445d07925cb9891c1dbc", "lon": -77.0433825}, {"lat": 38.87249633333333, "is_disabled": 0, "type": "electric_scooter", "fusion_lon": 0.0, "rental_uris": {"android": "https://dc.lft.to/lastmile_qr_scan", "ios": "https://dc.lft.to/lastmile_qr_scan"}, "fusion_lat": 0.0, "is_reserved": 0, "bike_id": "e5003bf1f2922d9600ec7550fd81d543", "name": "e5003bf1f2922d9600ec7550fd81d543", "lon": -76.97726966666667}, {"lat": 38.91094783333333, "is_disabled": 0, "type": "electric_scooter", "fusion_lon": 0.0, "rental_uris": {"android": "https://dc.lft.to/lastmile_qr_scan", "ios": "https://dc.lft.to/lastmile_qr_scan"}, "fusion_lat": 0.0, "is_reserved": 0, "bike_id": "3fa47a1841530e239022f4a706f56ebb", "name": "3fa47a1841530e239022f4a706f56ebb", "lon": -77.04494483333333}, {"lat": 38.91982133333333, "is_disabled": 0, "type": "electric_scooter", "fusion_lon": 0.0, "rental_uris": {"android": "https://dc.lft.to/lastmile_qr_scan", "ios": "https://dc.lft.to/lastmile_qr_scan"}, "fusion_lat": 0.0, "is_reserved": 0, "bike_id": "c1876bd84b88f5dfbd209746f97569d5", "name": "c1876bd84b88f5dfbd209746f97569d5", "lon": -77.01206433333333}, {"lat": 38.9338895, "is_disabled": 0, "type": "electric_scooter", "fusion_lon": 0.0, "rental_uris": {"android": "https://dc.lft.to/lastmile_qr_scan", "ios": "https://dc.lft.to/lastmile_qr_scan"}, "fusion_lat": 0.0, "is_reserved": 0, "bike_id": "2c0a9e6e5a5822df6555a62233d273ff", "name": "2c0a9e6e5a5822df6555a62233d273ff", "lon": -77.02263366666666}, {"lat": 38.92682283333333, "is_disabled": 0, "type": "electric_scooter", "fusion_lon": 0.0, "rental_uris": {"android": "https://dc.lft.to/lastmile_qr_scan", "ios": "https://dc.lft.to/lastmile_qr_scan"}, "fusion_lat": 0.0, "is_reserved": 0, "bike_id": "3acc6e51459fdce20d044064389be528", "name": "3acc6e51459fdce20d044064389be528", "lon": -77.02677116666666}, {"lat": 38.89232833333333, "is_disabled": 0, "type": "electric_scooter", "fusion_lon": 0.0, "rental_uris": {"android": "https://dc.lft.to/lastmile_qr_scan", "ios": "https://dc.lft.to/lastmile_qr_scan"}, "fusion_lat": 0.0, "is_reserved": 0, "bike_id": "0462e1037f5428408aef8d296ed703f8", "name": "0462e1037f5428408aef8d296ed703f8", "lon": -77.02384733333334}, {"lat": 38.99610216666667, "is_disabled": 0, "type": "electric_scooter", "fusion_lon": 0.0, "rental_uris": {"android": "https://dc.lft.to/lastmile_qr_scan", "ios": "https://dc.lft.to/lastmile_qr_scan"}, "fusion_lat": 0.0, "is_reserved": 0, "bike_id": "7945ff61d58d5ad2d503ec5a9e7b833c", "name": "7945ff61d58d5ad2d503ec5a9e7b833c", "lon": -77.0323145}, {"lat": 38.884417666666664, "is_disabled": 0, "type": "electric_scooter", "fusion_lon": 0.0, "rental_uris": {"android": "https://dc.lft.to/lastmile_qr_scan", "ios": "https://dc.lft.to/lastmile_qr_scan"}, "fusion_lat": 0.0, "is_reserved": 0, "bike_id": "d201d59ca6ef21b3f759a2a2b28ead4d", "name": "d201d59ca6ef21b3f759a2a2b28ead4d", "lon": -76.92942916666667}, {"lat": 38.87556983333333, "is_disabled": 0, "type": "electric_scooter", "fusion_lon": 0.0, "rental_uris": {"android": "https://dc.lft.to/lastmile_qr_scan", "ios": "https://dc.lft.to/lastmile_qr_scan"}, "fusion_lat": 0.0, "is_reserved": 0, "bike_id": "88ca73f734f6f3d8797b3a9f15051f5d", "name": "88ca73f734f6f3d8797b3a9f15051f5d", "lon": -77.00576116666667}, {"lat": 38.89325916666667, "is_disabled": 0, "type": "electric_scooter", "fusion_lon": 0.0, "rental_uris": {"android": "https://dc.lft.to/lastmile_qr_scan", "ios": "https://dc.lft.to/lastmile_qr_scan"}, "fusion_lat": 0.0, "is_reserved": 0, "bike_id": "44c7f49ab4cc9989ffed3f1697cef6c3", "name": "44c7f49ab4cc9989ffed3f1697cef6c3", "lon": -77.0467615}, {"lat": 38.893533166666664, "is_disabled": 0, "type": "electric_scooter", "fusion_lon": 0.0, "rental_uris": {"android": "https://dc.lft.to/lastmile_qr_scan", "ios": "https://dc.lft.to/lastmile_qr_scan"}, "fusion_lat": 0.0, "is_reserved": 0, "bike_id": "7f2c268e2e331a19abd9cbca15a3a8be", "name": "7f2c268e2e331a19abd9cbca15a3a8be", "lon": -77.022188}, {"lat": 38.89727083333333, "is_disabled": 0, "type": "electric_scooter", "fusion_lon": 0.0, "rental_uris": {"android": "https://dc.lft.to/lastmile_qr_scan", "ios": "https://dc.lft.to/lastmile_qr_scan"}, "fusion_lat": 0.0, "is_reserved": 0, "bike_id": "9b72c21406bc3c92b83f9498b2212f48", "name": "9b72c21406bc3c92b83f9498b2212f48", "lon": -77.043538}, {"lat": 38.897424666666666, "is_disabled": 0, "type": "electric_scooter", "fusion_lon": 0.0, "rental_uris": {"android": "https://dc.lft.to/lastmile_qr_scan", "ios": "https://dc.lft.to/lastmile_qr_scan"}, "fusion_lat": 0.0, "is_reserved": 0, "bike_id": "3648aa8a4b954a85347946ac6cbb399a", "name": "3648aa8a4b954a85347946ac6cbb399a", "lon": -77.00329416666666}, {"lat": 38.928264166666665, "is_disabled": 0, "type": "electric_scooter", "fusion_lon": 0.0, "rental_uris": {"android": "https://dc.lft.to/lastmile_qr_scan", "ios": "https://dc.lft.to/lastmile_qr_scan"}, "fusion_lat": 0.0, "is_reserved": 0, "bike_id": "6045e237952df73dd0406f54df1180ac", "name": "6045e237952df73dd0406f54df1180ac", "lon": -77.02155233333333}, {"lat": 38.89240066666667, "is_disabled": 0, "type": "electric_scooter", "fusion_lon": 0.0, "rental_uris": {"android": "https://dc.lft.to/lastmile_qr_scan", "ios": "https://dc.lft.to/lastmile_qr_scan"}, "fusion_lat": 0.0, "is_reserved": 0, "bike_id": "8d323197c8b85b72d09035b56dc3f463", "name": "8d323197c8b85b72d09035b56dc3f463", "lon": -77.04163133333333}, {"lat": 38.930522, "is_disabled": 0, "type": "electric_scooter", "fusion_lon": 0.0, "rental_uris": {"android": "https://dc.lft.to/lastmile_qr_scan", "ios": "https://dc.lft.to/lastmile_qr_scan"}, "fusion_lat": 0.0, "is_reserved": 0, "bike_id": "55f4cfde328b12ff05b62ce598d9d3a6", "name": "55f4cfde328b12ff05b62ce598d9d3a6", "lon": -77.0363205}, {"lat": 38.91126233333333, "is_disabled": 0, "type": "electric_scooter", "fusion_lon": 0.0, "rental_uris": {"android": "https://dc.lft.to/lastmile_qr_scan", "ios": "https://dc.lft.to/lastmile_qr_scan"}, "fusion_lat": 0.0, "is_reserved": 0, "bike_id": "c20c04a34452bb1eb68822601e1fc850", "name": "c20c04a34452bb1eb68822601e1fc850", "lon": -77.0318235}, {"lat": 38.91190233333333, "is_disabled": 0, "type": "electric_scooter", "fusion_lon": 0.0, "rental_uris": {"android": "https://dc.lft.to/lastmile_qr_scan", "ios": "https://dc.lft.to/lastmile_qr_scan"}, "fusion_lat": 0.0, "is_reserved": 0, "bike_id": "ee440bcacc2c26402860f0f6d9ebf82d", "name": "ee440bcacc2c26402860f0f6d9ebf82d", "lon": -77.03834866666666}, {"lat": 38.93914683333333, "is_disabled": 0, "type": "electric_scooter", "fusion_lon": 0.0, "rental_uris": {"android": "https://dc.lft.to/lastmile_qr_scan", "ios": "https://dc.lft.to/lastmile_qr_scan"}, "fusion_lat": 0.0, "is_reserved": 0, "bike_id": "7993f90738d37f5ebd4d424e2408b0da", "name": "7993f90738d37f5ebd4d424e2408b0da", "lon": -77.02488683333333}, {"lat": 38.91073933333333, "is_disabled": 0, "type": "electric_scooter", "fusion_lon": 0.0, "rental_uris": {"android": "https://dc.lft.to/lastmile_qr_scan", "ios": "https://dc.lft.to/lastmile_qr_scan"}, "fusion_lat": 0.0, "is_reserved": 0, "bike_id": "aa4fbff996c5416a73b08b0b22c6cd68", "name": "aa4fbff996c5416a73b08b0b22c6cd68", "lon": -77.02727033333333}, {"lat": 38.898976166666664, "is_disabled": 0, "type": "electric_scooter", "fusion_lon": 0.0, "rental_uris": {"android": "https://dc.lft.to/lastmile_qr_scan", "ios": "https://dc.lft.to/lastmile_qr_scan"}, "fusion_lat": 0.0, "is_reserved": 0, "bike_id": "88a9da6eeb8d1211ca7af3a6ac793882", "name": "88a9da6eeb8d1211ca7af3a6ac793882", "lon": -77.03944883333334}, {"lat": 38.87452783333333, "is_disabled": 0, "type": "electric_scooter", "fusion_lon": 0.0, "rental_uris": {"android": "https://dc.lft.to/lastmile_qr_scan", "ios": "https://dc.lft.to/lastmile_qr_scan"}, "fusion_lat": 0.0, "is_reserved": 0, "bike_id": "9aad7754d485696e71e1aeab11d4669d", "name": "9aad7754d485696e71e1aeab11d4669d", "lon": -77.00125733333333}, {"lat": 38.900775833333334, "is_disabled": 0, "type": "electric_scooter", "fusion_lon": 0.0, "rental_uris": {"android": "https://dc.lft.to/lastmile_qr_scan", "ios": "https://dc.lft.to/lastmile_qr_scan"}, "fusion_lat": 0.0, "is_reserved": 0, "bike_id": "1a70c70bebebfcd913531fa518188c6f", "name": "1a70c70bebebfcd913531fa518188c6f", "lon": -77.04943383333334}, {"lat": 38.89226583333333, "is_disabled": 0, "type": "electric_scooter", "fusion_lon": 0.0, "rental_uris": {"android": "https://dc.lft.to/lastmile_qr_scan", "ios": "https://dc.lft.to/lastmile_qr_scan"}, "fusion_lat": 0.0, "is_reserved": 0, "bike_id": "ef60f75d9514541017629437d863e03b", "name": "ef60f75d9514541017629437d863e03b", "lon": -77.044775}, {"lat": 38.87629666666667, "is_disabled": 0, "type": "electric_scooter", "fusion_lon": 0.0, "rental_uris": {"android": "https://dc.lft.to/lastmile_qr_scan", "ios": "https://dc.lft.to/lastmile_qr_scan"}, "fusion_lat": 0.0, "is_reserved": 0, "bike_id": "7c6d1575989600f8cc24a39118d6373e", "name": "7c6d1575989600f8cc24a39118d6373e", "lon": -77.0094205}, {"lat": 38.888690833333335, "is_disabled": 0, "type": "electric_scooter", "fusion_lon": 0.0, "rental_uris": {"android": "https://dc.lft.to/lastmile_qr_scan", "ios": "https://dc.lft.to/lastmile_qr_scan"}, "fusion_lat": 0.0, "is_reserved": 0, "bike_id": "61ee65c76ae7d404b243ba3d919bf7a0", "name": "61ee65c76ae7d404b243ba3d919bf7a0", "lon": -77.0399885}, {"lat": 38.88816666666666, "is_disabled": 0, "type": "electric_bike", "fusion_lon": 0.0, "rental_uris": {"android": "https://dc.lft.to/lastmile_qr_scan", "ios": "https://dc.lft.to/lastmile_qr_scan"}, "fusion_lat": 0.0, "is_reserved": 0, "bike_id": "b2fc1f60df444f46ff4fc239c489690c", "name": "b2fc1f60df444f46ff4fc239c489690c", "lon": -77.038429}, {"lat": 38.9013155, "is_disabled": 0, "type": "electric_scooter", "fusion_lon": 0.0, "rental_uris": {"android": "https://dc.lft.to/lastmile_qr_scan", "ios": "https://dc.lft.to/lastmile_qr_scan"}, "fusion_lat": 0.0, "is_reserved": 0, "bike_id": "a27e2286e244e2019a862db60b73c14f", "name": "a27e2286e244e2019a862db60b73c14f", "lon": -77.03311583333333}, {"lat": 38.9247535, "is_disabled": 0, "type": "electric_scooter", "fusion_lon": 0.0, "rental_uris": {"android": "https://dc.lft.to/lastmile_qr_scan", "ios": "https://dc.lft.to/lastmile_qr_scan"}, "fusion_lat": 0.0, "is_reserved": 0, "bike_id": "08eb3882e4e77e4064b8f504b8322b02", "name": "08eb3882e4e77e4064b8f504b8322b02", "lon": -77.02277416666666}, {"lat": 38.900057333333336, "is_disabled": 0, "type": "electric_scooter", "fusion_lon": 0.0, "rental_uris": {"android": "https://dc.lft.to/lastmile_qr_scan", "ios": "https://dc.lft.to/lastmile_qr_scan"}, "fusion_lat": 0.0, "is_reserved": 0, "bike_id": "82c3391978d16776d51fd7301e59ba57", "name": "82c3391978d16776d51fd7301e59ba57", "lon": -76.95192716666666}, {"lat": 38.9014825, "is_disabled": 0, "type": "electric_scooter", "fusion_lon": 0.0, "rental_uris": {"android": "https://dc.lft.to/lastmile_qr_scan", "ios": "https://dc.lft.to/lastmile_qr_scan"}, "fusion_lat": 0.0, "is_reserved": 0, "bike_id": "ae11b97f305e12df2e433a0f4c5b4850", "name": "ae11b97f305e12df2e433a0f4c5b4850", "lon": -77.04012083333333}, {"lat": 38.91703716666667, "is_disabled": 0, "type": "electric_scooter", "fusion_lon": 0.0, "rental_uris": {"android": "https://dc.lft.to/lastmile_qr_scan", "ios": "https://dc.lft.to/lastmile_qr_scan"}, "fusion_lat": 0.0, "is_reserved": 0, "bike_id": "61af4f93bae038c0f24eb7815b5a443e", "name": "61af4f93bae038c0f24eb7815b5a443e", "lon": -77.04014516666666}, {"lat": 38.9191515, "is_disabled": 0, "type": "electric_scooter", "fusion_lon": 0.0, "rental_uris": {"android": "https://dc.lft.to/lastmile_qr_scan", "ios": "https://dc.lft.to/lastmile_qr_scan"}, "fusion_lat": 0.0, "is_reserved": 0, "bike_id": "64f23a778863dcbd82b3eba98bb5fe2e", "name": "64f23a778863dcbd82b3eba98bb5fe2e", "lon": -77.03160033333333}, {"lat": 38.892343, "is_disabled": 0, "type": "electric_scooter", "fusion_lon": 0.0, "rental_uris": {"android": "https://dc.lft.to/lastmile_qr_scan", "ios": "https://dc.lft.to/lastmile_qr_scan"}, "fusion_lat": 0.0, "is_reserved": 0, "bike_id": "3102ffa03e9748083efd02a5ad302d34", "name": "3102ffa03e9748083efd02a5ad302d34", "lon": -77.0176655}, {"lat": 38.918093166666665, "is_disabled": 0, "type": "electric_scooter", "fusion_lon": 0.0, "rental_uris": {"android": "https://dc.lft.to/lastmile_qr_scan", "ios": "https://dc.lft.to/lastmile_qr_scan"},