{"data": {"bikes": [{"lat": 38.92061266666666, "is_disabled": 0, "type": "electric_scooter", "lon": -77.024531, "bike_id": "51c92d3a05dd7ecd379cd0b33fb78bf7", "fusion_lat": 0.0, "name": "51c92d3a05dd7ecd379cd0b33fb78bf7", "is_reserved": 0, "rental_uris": {"android": "https://dc.lft.to/lastmile_qr_scan", "ios": "https://dc.lft.to/lastmile_qr_scan"}, "fusion_lon": 0.0}, {"lat": 38.8706535, "is_disabled": 0, "type": "electric_scooter", "lon": -77.00840183333334, "bike_id": "b3b5e56b0850be7039cee4cc5f7fc5d5", "fusion_lat": 0.0, "name": "b3b5e56b0850be7039cee4cc5f7fc5d5", "is_reserved": 0, "rental_uris": {"android": "https://dc.lft.to/lastmile_qr_scan", "ios": "https://dc.lft.to/lastmile_qr_scan"}, "fusion_lon": 0.0}, {"lat": 38.90270483333333, "is_disabled": 0, "type": "electric_scooter", "lon": -77.00327316666667, "bike_id": "0a1c846bc3021d36fdd5ba6df997b995", "fusion_lat": 0.0, "name": "0a1c846bc3021d36fdd5ba6df997b995", "is_reserved": 0, "rental_uris": {"android": "https://dc.lft.to/lastmile_qr_scan", "ios": "https://dc.lft.to/lastmile_qr_scan"}, "fusion_lon": 0.0}, {"lat": 38.90008133333333, "is_disabled": 0, "type": "electric_scooter", "lon": -77.02167883333334, "bike_id": "84f9dd0c718c7301fb21d8cfc072a653", "fusion_lat": 0.0, "name": "84f9dd0c718c7301fb21d8cfc072a653", "is_reserved": 0, "rental_uris": {"android": "https://dc.lft.to/lastmile_qr_scan", "ios": "https://dc.lft.to/lastmile_qr_scan"}, "fusion_lon": 0.0}, {"lat": 38.895013, "is_disabled": 0, "type": "electric_scooter", "lon": -77.003247, "bike_id": "2ea108a246699b2e06729669e60548de", "fusion_lat": 0.0, "name": "2ea108a246699b2e06729669e60548de", "is_reserved": 0, "rental_uris": {"android": "https://dc.lft.to/lastmile_qr_scan", "ios": "https://dc.lft.to/lastmile_qr_scan"}, "fusion_lon": 0.0}, {"lat": 38.92033516666667, "is_disabled": 0, "type": "electric_scooter", "lon": -77.04178666666667, "bike_id": "d4f941dd12f59d68e8ae3642c8a191c9", "fusion_lat": 0.0, "name": "d4f941dd12f59d68e8ae3642c8a191c9", "is_reserved": 0, "rental_uris": {"android": "https://dc.lft.to/lastmile_qr_scan", "ios": "https://dc.lft.to/lastmile_qr_scan"}, "fusion_lon": 0.0}, {"lat": 38.8791505, "is_disabled": 0, "type": "electric_scooter", "lon": -77.00885133333334, "bike_id": "b5ab6bf8dc4a0d1338843ef5e6d3543d", "fusion_lat": 0.0, "name": "b5ab6bf8dc4a0d1338843ef5e6d3543d", "is_reserved": 0, "rental_uris": {"android": "https://dc.lft.to/lastmile_qr_scan", "ios": "https://dc.lft.to/lastmile_qr_scan"}, "fusion_lon": 0.0}, {"lat": 38.9182175, "is_disabled": 0, "type": "electric_scooter", "lon": -77.01217833333334, "bike_id": "7507b9561949892b0ead1c06c503e10d", "fusion_lat": 0.0, "name": "7507b9561949892b0ead1c06c503e10d", "is_reserved": 0, "rental_uris": {"android": "https://dc.lft.to/lastmile_qr_scan", "ios": "https://dc.lft.to/lastmile_qr_scan"}, "fusion_lon": 0.0}, {"lat": 38.8844675, "is_disabled": 0, "type": "electric_scooter", "lon": -77.01754983333333, "bike_id": "6d1dca47141b711d879340f341023030", "fusion_lat": 0.0, "name": "6d1dca47141b711d879340f341023030", "is_reserved": 0, "rental_uris": {"android": "https://dc.lft.to/lastmile_qr_scan", "ios": "https://dc.lft.to/lastmile_qr_scan"}, "fusion_lon": 0.0}, {"lat": 38.892836333333335, "is_disabled": 0, "type": "electric_scooter", "lon": -76.958508, "bike_id": "1d82b85b5a97c3bc8468aaa50b9ffce5", "fusion_lat": 0.0, "name": "1d82b85b5a97c3bc8468aaa50b9ffce5", "is_reserved": 0, "rental_uris": {"android": "https://dc.lft.to/lastmile_qr_scan", "ios": "https://dc.lft.to/lastmile_qr_scan"}, "fusion_lon": 0.0}, {"lat": 38.899983666666664, "is_disabled": 0, "type": "electric_scooter", "lon": -76.9996115, "bike_id": "13fa518f08bfb016d8565d261258338a", "fusion_lat": 0.0, "name": "13fa518f08bfb016d8565d261258338a", "is_reserved": 0, "rental_uris": {"android": "https://dc.lft.to/lastmile_qr_scan", "ios": "https://dc.lft.to/lastmile_qr_scan"}, "fusion_lon": 0.0}, {"lat": 38.8792825, "is_disabled": 0, "type": "electric_scooter", "lon": -77.00402583333333, "bike_id": "d10471346bd63bb8c60bd152320b2a2a", "fusion_lat": 0.0, "name": "d10471346bd63bb8c60bd152320b2a2a", "is_reserved": 0, "rental_uris": {"android": "https://dc.lft.to/lastmile_qr_scan", "ios": "https://dc.lft.to/lastmile_qr_scan"}, "fusion_lon": 0.0}, {"lat": 38.892718, "is_disabled": 0, "type": "electric_scooter", "lon": -77.02025466666667, "bike_id": "dda9534e6ab1450aa0879feaa99f71fd", "fusion_lat": 0.0, "name": "dda9534e6ab1450aa0879feaa99f71fd", "is_reserved": 0, "rental_uris": {"android": "https://dc.lft.to/lastmile_qr_scan", "ios": "https://dc.lft.to/lastmile_qr_scan"}, "fusion_lon": 0.0}, {"lat": 38.92463083333333, "is_disabled": 0, "type": "electric_scooter", "lon": -77.080481, "bike_id": "0907f5a9fc5e47a48dbdb3c2908f721b", "fusion_lat": 0.0, "name": "0907f5a9fc5e47a48dbdb3c2908f721b", "is_reserved": 0, "rental_uris": {"android": "https://dc.lft.to/lastmile_qr_scan", "ios": "https://dc.lft.to/lastmile_qr_scan"}, "fusion_lon": 0.0}, {"lat": 38.92956366666667, "is_disabled": 0, "type": "electric_scooter", "lon": -76.99089566666666, "bike_id": "2457f7ea6d14f4cefebbd3aa9c4e4f0e", "fusion_lat": 0.0, "name": "2457f7ea6d14f4cefebbd3aa9c4e4f0e", "is_reserved": 0, "rental_uris": {"android": "https://dc.lft.to/lastmile_qr_scan", "ios": "https://dc.lft.to/lastmile_qr_scan"}, "fusion_lon": 0.0}, {"lat": 38.91520533333333, "is_disabled": 0, "type": "electric_scooter", "lon": -77.03845583333333, "bike_id": "371ff1dbc2f8d603138856e3719f6d24", "fusion_lat": 0.0, "name": "371ff1dbc2f8d603138856e3719f6d24", "is_reserved": 0, "rental_uris": {"android": "https://dc.lft.to/lastmile_qr_scan", "ios": "https://dc.lft.to/lastmile_qr_scan"}, "fusion_lon": 0.0}, {"lat": 38.92020466666666, "is_disabled": 0, "type": "electric_scooter", "lon": -77.04194733333334, "bike_id": "943566999f5e407927250308ea2ed1cf", "fusion_lat": 0.0, "name": "943566999f5e407927250308ea2ed1cf", "is_reserved": 0, "rental_uris": {"android": "https://dc.lft.to/lastmile_qr_scan", "ios": "https://dc.lft.to/lastmile_qr_scan"}, "fusion_lon": 0.0}, {"lat": 38.91763783333333, "is_disabled": 0, "type": "electric_scooter", "lon": -77.00449666666667, "bike_id": "c1dc68e66953d9a631afe3971b010425", "fusion_lat": 0.0, "name": "c1dc68e66953d9a631afe3971b010425", "is_reserved": 0, "rental_uris": {"android": "https://dc.lft.to/lastmile_qr_scan", "ios": "https://dc.lft.to/lastmile_qr_scan"}, "fusion_lon": 0.0}, {"lat": 38.8521965, "is_disabled": 0, "type": "electric_bike", "lon": -77.12956283333334, "bike_id": "6099a6445ccf19ba06aea9c34b8851ae", "fusion_lat": 0.0, "name": "6099a6445ccf19ba06aea9c34b8851ae", "is_reserved": 0, "rental_uris": {"android": "https://dc.lft.to/lastmile_qr_scan", "ios": "https://dc.lft.to/lastmile_qr_scan"}, "fusion_lon": 0.0}, {"lat": 38.900703166666666, "is_disabled": 0, "type": "electric_scooter", "lon": -77.007503, "bike_id": "288c16360bbedd784b3d3716a95c647f", "fusion_lat": 0.0, "name": "288c16360bbedd784b3d3716a95c647f", "is_reserved": 0, "rental_uris": {"android": "https://dc.lft.to/lastmile_qr_scan", "ios": "https://dc.lft.to/lastmile_qr_scan"}, "fusion_lon": 0.0}, {"lat": 38.89603666666667, "is_disabled": 0, "type": "electric_scooter", "lon": -77.04410383333334, "bike_id": "b9d626dc3827dc26a329edb6bd62a25a", "fusion_lat": 0.0, "name": "b9d626dc3827dc26a329edb6bd62a25a", "is_reserved": 0, "rental_uris": {"android": "https://dc.lft.to/lastmile_qr_scan", "ios": "https://dc.lft.to/lastmile_qr_scan"}, "fusion_lon": 0.0}, {"lat": 38.80061333333333, "is_disabled": 0, "type": "electric_bike", "lon": -77.07118566666666, "bike_id": "873983a186c6691c7dd58136ef40ff8d", "fusion_lat": 0.0, "name": "873983a186c6691c7dd58136ef40ff8d", "is_reserved": 0, "rental_uris": {"android": "https://dc.lft.to/lastmile_qr_scan", "ios": "https://dc.lft.to/lastmile_qr_scan"}, "fusion_lon": 0.0}, {"lat": 38.921709166666666, "is_disabled": 0, "type": "electric_scooter", "lon": -77.05137883333333, "bike_id": "ac29c75456fbc0bce240bc28af97df0d", "fusion_lat": 0.0, "name": "ac29c75456fbc0bce240bc28af97df0d", "is_reserved": 0, "rental_uris": {"android": "https://dc.lft.to/lastmile_qr_scan", "ios": "https://dc.lft.to/lastmile_qr_scan"}, "fusion_lon": 0.0}, {"lat": 38.865919166666664, "is_disabled": 0, "type": "electric_bike", "lon": -76.93229316666667, "bike_id": "3a8c4ab56bd368f230721deca04f1d19", "fusion_lat": 0.0, "name": "3a8c4ab56bd368f230721deca04f1d19", "is_reserved": 0, "rental_uris": {"android": "https://dc.lft.to/lastmile_qr_scan", "ios": "https://dc.lft.to/lastmile_qr_scan"}, "fusion_lon": 0.0}, {"lat": 38.91818133333334, "is_disabled": 0, "type": "electric_scooter", "lon": -76.99970683333333, "bike_id": "e7fe25c48e7de4b067ccc9d3736c989e", "fusion_lat": 0.0, "name": "e7fe25c48e7de4b067ccc9d3736c989e", "is_reserved": 0, "rental_uris": {"android": "https://dc.lft.to/lastmile_qr_scan", "ios": "https://dc.lft.to/lastmile_qr_scan"}, "fusion_lon": 0.0}, {"lat": 38.911279666666665, "is_disabled": 0, "type": "electric_scooter", "lon": -77.03737166666667, "bike_id": "ffc8d4cc4b09989981b87d555896be69", "fusion_lat": 0.0, "name": "ffc8d4cc4b09989981b87d555896be69", "is_reserved": 0, "rental_uris": {"android": "https://dc.lft.to/lastmile_qr_scan", "ios": "https://dc.lft.to/lastmile_qr_scan"}, "fusion_lon": 0.0}, {"lat": 38.90994366666666, "is_disabled": 0, "type": "electric_scooter", "lon": -77.04009316666667, "bike_id": "c718b2c8304a70ba8df38d16f3370853", "fusion_lat": 0.0, "name": "c718b2c8304a70ba8df38d16f3370853", "is_reserved": 0, "rental_uris": {"android": "https://dc.lft.to/lastmile_qr_scan", "ios": "https://dc.lft.to/lastmile_qr_scan"}, "fusion_lon": 0.0}, {"lat": 38.93232616666667, "is_disabled": 0, "type": "electric_scooter", "lon": -77.04409566666666, "bike_id": "16e64c2bd9b03936bdec88e5100ad78a", "fusion_lat": 0.0, "name": "16e64c2bd9b03936bdec88e5100ad78a", "is_reserved": 0, "rental_uris": {"android": "https://dc.lft.to/lastmile_qr_scan", "ios": "https://dc.lft.to/lastmile_qr_scan"}, "fusion_lon": 0.0}, {"lat": 38.93460783333333, "is_disabled": 0, "type": "electric_scooter", "lon": -77.03241683333333, "bike_id": "6c785e36a006bd8840ed5fb5d9b6a2c6", "fusion_lat": 0.0, "name": "6c785e36a006bd8840ed5fb5d9b6a2c6", "is_reserved": 0, "rental_uris": {"android": "https://dc.lft.to/lastmile_qr_scan", "ios": "https://dc.lft.to/lastmile_qr_scan"}, "fusion_lon": 0.0}, {"lat": 38.91684016666667, "is_disabled": 0, "type": "electric_scooter", "lon": -77.02953, "bike_id": "5b072309d19a0fbe464dcd27435d3914", "fusion_lat": 0.0, "name": "5b072309d19a0fbe464dcd27435d3914", "is_reserved": 0, "rental_uris": {"android": "https://dc.lft.to/lastmile_qr_scan", "ios": "https://dc.lft.to/lastmile_qr_scan"}, "fusion_lon": 0.0}, {"lat": 38.88519066666667, "is_disabled": 0, "type": "electric_scooter", "lon": -77.01509483333334, "bike_id": "0cf57754fd4c8522bbba34d453be7fda", "fusion_lat": 0.0, "name": "0cf57754fd4c8522bbba34d453be7fda", "is_reserved": 0, "rental_uris": {"android": "https://dc.lft.to/lastmile_qr_scan", "ios": "https://dc.lft.to/lastmile_qr_scan"}, "fusion_lon": 0.0}, {"lat": 38.962163, "is_disabled": 0, "type": "electric_bike", "lon": -77.02779866666667, "bike_id": "eaaa2fc3f9ab4f693b97b0bcd9c3fae0", "fusion_lat": 0.0, "name": "eaaa2fc3f9ab4f693b97b0bcd9c3fae0", "is_reserved": 0, "rental_uris": {"android": "https://dc.lft.to/lastmile_qr_scan", "ios": "https://dc.lft.to/lastmile_qr_scan"}, "fusion_lon": 0.0}, {"lat": 38.865181, "is_disabled": 0, "type": "electric_scooter", "lon": -76.99031033333333, "bike_id": "093bd474fc2f452aedf4f575e723093d", "fusion_lat": 0.0, "name": "093bd474fc2f452aedf4f575e723093d", "is_reserved": 0, "rental_uris": {"android": "https://dc.lft.to/lastmile_qr_scan", "ios": "https://dc.lft.to/lastmile_qr_scan"}, "fusion_lon": 0.0}, {"lat": 38.91615516666667, "is_disabled": 0, "type": "electric_scooter", "lon": -77.03641866666666, "bike_id": "d336481640eb34fbe0f93e778b7b3e44", "fusion_lat": 0.0, "name": "d336481640eb34fbe0f93e778b7b3e44", "is_reserved": 0, "rental_uris": {"android": "https://dc.lft.to/lastmile_qr_scan", "ios": "https://dc.lft.to/lastmile_qr_scan"}, "fusion_lon": 0.0}, {"lat": 38.92381916666667, "is_disabled": 0, "type": "electric_scooter", "lon": -77.057556, "bike_id": "55ad22f202f8c575be50aa30c4def4b1", "fusion_lat": 0.0, "name": "55ad22f202f8c575be50aa30c4def4b1", "is_reserved": 0, "rental_uris": {"android": "https://dc.lft.to/lastmile_qr_scan", "ios": "https://dc.lft.to/lastmile_qr_scan"}, "fusion_lon": 0.0}, {"lat": 38.91565766666667, "is_disabled": 0, "type": "electric_scooter", "lon": -77.038518, "bike_id": "447d78e8aabc0e07387969525b38e00b", "fusion_lat": 0.0, "name": "447d78e8aabc0e07387969525b38e00b", "is_reserved": 0, "rental_uris": {"android": "https://dc.lft.to/lastmile_qr_scan", "ios": "https://dc.lft.to/lastmile_qr_scan"}, "fusion_lon": 0.0}, {"lat": 38.954974166666666, "is_disabled": 0, "type": "electric_scooter", "lon": -77.06574066666667, "bike_id": "d6eb42b5bf7f50e254bd55db983b0e18", "fusion_lat": 0.0, "name": "d6eb42b5bf7f50e254bd55db983b0e18", "is_reserved": 0, "rental_uris": {"android": "https://dc.lft.to/lastmile_qr_scan", "ios": "https://dc.lft.to/lastmile_qr_scan"}, "fusion_lon": 0.0}, {"lat": 38.9120165, "is_disabled": 0, "type": "electric_scooter", "lon": -77.01467833333334, "bike_id": "edf32b8be5511608acb9cb630e1fc44c", "fusion_lat": 0.0, "name": "edf32b8be5511608acb9cb630e1fc44c", "is_reserved": 0, "rental_uris": {"android": "https://dc.lft.to/lastmile_qr_scan", "ios": "https://dc.lft.to/lastmile_qr_scan"}, "fusion_lon": 0.0}, {"lat": 38.9526045, "is_disabled": 0, "type": "electric_scooter", "lon": -77.0696965, "bike_id": "f88037d9516db268a38faae956da300b", "fusion_lat": 0.0, "name": "f88037d9516db268a38faae956da300b", "is_reserved": 0, "rental_uris": {"android": "https://dc.lft.to/lastmile_qr_scan", "ios": "https://dc.lft.to/lastmile_qr_scan"}, "fusion_lon": 0.0}, {"lat": 38.916851666666666, "is_disabled": 0, "type": "electric_scooter", "lon": -77.029468, "bike_id": "f9c921091239ef75b1d6392a962796b2", "fusion_lat": 0.0, "name": "f9c921091239ef75b1d6392a962796b2", "is_reserved": 0, "rental_uris": {"android": "https://dc.lft.to/lastmile_qr_scan", "ios": "https://dc.lft.to/lastmile_qr_scan"}, "fusion_lon": 0.0}, {"lat": 38.906741333333336, "is_disabled": 0, "type": "electric_scooter", "lon": -77.036348, "bike_id": "7b00b981d4fb12e35ba24acae365ca0d", "fusion_lat": 0.0, "name": "7b00b981d4fb12e35ba24acae365ca0d", "is_reserved": 0, "rental_uris": {"android": "https://dc.lft.to/lastmile_qr_scan", "ios": "https://dc.lft.to/lastmile_qr_scan"}, "fusion_lon": 0.0}, {"lat": 38.91973216666667, "is_disabled": 0, "type": "electric_scooter", "lon": -77.043214, "bike_id": "8d3378d8b846cee22bef33954ffef9f7", "fusion_lat": 0.0, "name": "8d3378d8b846cee22bef33954ffef9f7", "is_reserved": 0, "rental_uris": {"android": "https://dc.lft.to/lastmile_qr_scan", "ios": "https://dc.lft.to/lastmile_qr_scan"}, "fusion_lon": 0.0}, {"lat": 38.90265266666667, "is_disabled": 0, "type": "electric_scooter", "lon": -77.0193, "bike_id": "83870a48523992a995c9f63f52dd6b6e", "fusion_lat": 0.0, "name": "83870a48523992a995c9f63f52dd6b6e", "is_reserved": 0, "rental_uris": {"android": "https://dc.lft.to/lastmile_qr_scan", "ios": "https://dc.lft.to/lastmile_qr_scan"}, "fusion_lon": 0.0}, {"lat": 38.924463, "is_disabled": 0, "type": "electric_scooter", "lon": -77.04204316666667, "bike_id": "9a5d405954839d368e826f381552bc2d", "fusion_lat": 0.0, "name": "9a5d405954839d368e826f381552bc2d", "is_reserved": 0, "rental_uris": {"android": "https://dc.lft.to/lastmile_qr_scan", "ios": "https://dc.lft.to/lastmile_qr_scan"}, "fusion_lon": 0.0}, {"lat": 38.901373166666666, "is_disabled": 0, "type": "electric_scooter", "lon": -77.00076583333333, "bike_id": "8346cc2dfc741e463cdc04193e6c1840", "fusion_lat": 0.0, "name": "8346cc2dfc741e463cdc04193e6c1840", "is_reserved": 0, "rental_uris": {"android": "https://dc.lft.to/lastmile_qr_scan", "ios": "https://dc.lft.to/lastmile_qr_scan"}, "fusion_lon": 0.0}, {"lat": 38.9051965, "is_disabled": 0, "type": "electric_scooter", "lon": -77.02705083333333, "bike_id": "50557635803606ec1fe9960403837be2", "fusion_lat": 0.0, "name": "50557635803606ec1fe9960403837be2", "is_reserved": 0, "rental_uris": {"android": "https://dc.lft.to/lastmile_qr_scan", "ios": "https://dc.lft.to/lastmile_qr_scan"}, "fusion_lon": 0.0}, {"lat": 38.9222385, "is_disabled": 0, "type": "electric_scooter", "lon": -77.03295516666667, "bike_id": "07f21be0a5a723a574143a52c1928a04", "fusion_lat": 0.0, "name": "07f21be0a5a723a574143a52c1928a04", "is_reserved": 0, "rental_uris": {"android": "https://dc.lft.to/lastmile_qr_scan", "ios": "https://dc.lft.to/lastmile_qr_scan"}, "fusion_lon": 0.0}, {"lat": 38.9000705, "is_disabled": 0, "type": "electric_scooter", "lon": -76.99856233333334, "bike_id": "84ee6e0de02b7d1df019d3bf2109b839", "fusion_lat": 0.0, "name": "84ee6e0de02b7d1df019d3bf2109b839", "is_reserved": 0, "rental_uris": {"android": "https://dc.lft.to/lastmile_qr_scan", "ios": "https://dc.lft.to/lastmile_qr_scan"}, "fusion_lon": 0.0}, {"lat": 39.0159275, "is_disabled": 0, "type": "electric_bike", "lon": -77.04423266666667, "bike_id": "7bf66fe684274a5b4e957788e50a0ea1", "fusion_lat": 0.0, "name": "7bf66fe684274a5b4e957788e50a0ea1", "is_reserved": 0, "rental_uris": {"android": "https://dc.lft.to/lastmile_qr_scan", "ios": "https://dc.lft.to/lastmile_qr_scan"}, "fusion_lon": 0.0}, {"lat": 38.96103633333333, "is_disabled": 0, "type": "electric_scooter", "lon": -77.08287766666666, "bike_id": "f4df2cb8630550f65e4385415db3c200", "fusion_lat": 0.0, "name": "f4df2cb8630550f65e4385415db3c200", "is_reserved": 0, "rental_uris": {"android": "https://dc.lft.to/lastmile_qr_scan", "ios": "https://dc.lft.to/lastmile_qr_scan"}, "fusion_lon": 0.0}, {"lat": 38.89120416666667, "is_disabled": 0, "type": "electric_scooter", "lon": -76.94091883333333, "bike_id": "ae3a47916c43f4bfba9d8277558aef54", "fusion_lat": 0.0, "name": "ae3a47916c43f4bfba9d8277558aef54", "is_reserved": 0, "rental_uris": {"android": "https://dc.lft.to/lastmile_qr_scan", "ios": "https://dc.lft.to/lastmile_qr_scan"}, "fusion_lon": 0.0}, {"lat": 38.936597166666665, "is_disabled": 0, "type": "electric_bike", "lon": -77.05591916666667, "bike_id": "cda557825e5a5674d2eef7d0b88227a0", "fusion_lat": 0.0, "name": "cda557825e5a5674d2eef7d0b88227a0", "is_reserved": 0, "rental_uris": {"android": "https://dc.lft.to/lastmile_qr_scan", "ios": "https://dc.lft.to/lastmile_qr_scan"}, "fusion_lon": 0.0}, {"lat": 38.922479333333335, "is_disabled": 0, "type": "electric_scooter", "lon": -77.030689, "bike_id": "05e011d797ac3f8bb275738797987b20", "fusion_lat": 0.0, "name": "05e011d797ac3f8bb275738797987b20", "is_reserved": 0, "rental_uris": {"android": "https://dc.lft.to/lastmile_qr_scan", "ios": "https://dc.lft.to/lastmile_qr_scan"}, "fusion_lon": 0.0}, {"lat": 38.93012566666667, "is_disabled": 0, "type": "electric_bike", "lon": -77.21646833333334, "bike_id": "19e23a02930c7bd2903baf955f8112df", "fusion_lat": 0.0, "name": "19e23a02930c7bd2903baf955f8112df", "is_reserved": 0, "rental_uris": {"android": "https://dc.lft.to/lastmile_qr_scan", "ios": "https://dc.lft.to/lastmile_qr_scan"}, "fusion_lon": 0.0}, {"lat": 38.901504833333334, "is_disabled": 0, "type": "electric_bike", "lon": -76.98663533333334, "bike_id": "2e9d734f0bdaf31f12888cba0791f30b", "fusion_lat": 0.0, "name": "2e9d734f0bdaf31f12888cba0791f30b", "is_reserved": 0, "rental_uris": {"android": "https://dc.lft.to/lastmile_qr_scan", "ios": "https://dc.lft.to/lastmile_qr_scan"}, "fusion_lon": 0.0}, {"lat": 38.9195835, "is_disabled": 0, "type": "electric_bike", "lon": -76.97262583333334, "bike_id": "0c5713606a69016d85f24d9b2777a888", "fusion_lat": 0.0, "name": "0c5713606a69016d85f24d9b2777a888", "is_reserved": 0, "rental_uris": {"android": "https://dc.lft.to/lastmile_qr_scan", "ios": "https://dc.lft.to/lastmile_qr_scan"}, "fusion_lon": 0.0}, {"lat": 38.93372166666666, "is_disabled": 0, "type": "electric_scooter", "lon": -77.03799333333333, "bike_id": "fdc4070d6eab0a04a4dde04849b800f6", "fusion_lat": 0.0, "name": "fdc4070d6eab0a04a4dde04849b800f6", "is_reserved": 0, "rental_uris": {"android": "https://dc.lft.to/lastmile_qr_scan", "ios": "https://dc.lft.to/lastmile_qr_scan"}, "fusion_lon": 0.0}, {"lat": 38.962748833333336, "is_disabled": 0, "type": "electric_bike", "lon": -77.03244416666666, "bike_id": "6968880d6e2f5b1d52e383426a0d1943", "fusion_lat": 0.0, "name": "6968880d6e2f5b1d52e383426a0d1943", "is_reserved": 0, "rental_uris": {"android": "https://dc.lft.to/lastmile_qr_scan", "ios": "https://dc.lft.to/lastmile_qr_scan"}, "fusion_lon": 0.0}, {"lat": 38.919500166666666, "is_disabled": 0, "type": "electric_scooter", "lon": -77.04880833333333, "bike_id": "a43aa0567bb60d4fcbdee08fb434881e", "fusion_lat": 0.0, "name": "a43aa0567bb60d4fcbdee08fb434881e", "is_reserved": 0, "rental_uris": {"android": "https://dc.lft.to/lastmile_qr_scan", "ios": "https://dc.lft.to/lastmile_qr_scan"}, "fusion_lon": 0.0}, {"lat": 38.902208333333334, "is_disabled": 0, "type": "electric_scooter", "lon": -76.94593366666666, "bike_id": "c253592a1f467badbe069ce5b6145793", "fusion_lat": 0.0, "name": "c253592a1f467badbe069ce5b6145793", "is_reserved": 0, "rental_uris": {"android": "https://dc.lft.to/lastmile_qr_scan", "ios": "https://dc.lft.to/lastmile_qr_scan"}, "fusion_lon": 0.0}, {"lat": 38.89776616666666, "is_disabled": 0, "type": "electric_scooter", "lon": -77.0436705, "bike_id": "ef48e0bf0ce41ad40f29733a75f6b389", "fusion_lat": 0.0, "name": "ef48e0bf0ce41ad40f29733a75f6b389", "is_reserved": 0, "rental_uris": {"android": "https://dc.lft.to/lastmile_qr_scan", "ios": "https://dc.lft.to/lastmile_qr_scan"}, "fusion_lon": 0.0}, {"lat": 38.947401666666664, "is_disabled": 0, "type": "electric_scooter", "lon": -77.0652255, "bike_id": "c9813f87c12de972fd5426b5b8d9328e", "fusion_lat": 0.0, "name": "c9813f87c12de972fd5426b5b8d9328e", "is_reserved": 0, "rental_uris": {"android": "https://dc.lft.to/lastmile_qr_scan", "ios": "https://dc.lft.to/lastmile_qr_scan"}, "fusion_lon": 0.0}, {"lat": 38.8664575, "is_disabled": 0, "type": "electric_scooter", "lon": -76.98886383333334, "bike_id": "b5db906b0b80972dad13a3313460e499", "fusion_lat": 0.0, "name": "b5db906b0b80972dad13a3313460e499", "is_reserved": 0, "rental_uris": {"android": "https://dc.lft.to/lastmile_qr_scan", "ios": "https://dc.lft.to/lastmile_qr_scan"}, "fusion_lon": 0.0}, {"lat": 38.90043083333333, "is_disabled": 0, "type": "electric_scooter", "lon": -76.9973975, "bike_id": "f3ff34cdc1911d2b91197d55b4e1d878", "fusion_lat": 0.0, "name": "f3ff34cdc1911d2b91197d55b4e1d878", "is_reserved": 0, "rental_uris": {"android": "https://dc.lft.to/lastmile_qr_scan", "ios": "https://dc.lft.to/lastmile_qr_scan"}, "fusion_lon": 0.0}, {"lat": 38.899104333333334, "is_disabled": 0, "type": "electric_scooter", "lon": -76.93351466666667, "bike_id": "5bf6a9a6e2b9d54ee96e9744fb82bade", "fusion_lat": 0.0, "name": "5bf6a9a6e2b9d54ee96e9744fb82bade", "is_reserved": 0, "rental_uris": {"android": "https://dc.lft.to/lastmile_qr_scan", "ios": "https://dc.lft.to/lastmile_qr_scan"}, "fusion_lon": 0.0}, {"lat": 38.930601333333335, "is_disabled": 0, "type": "electric_scooter", "lon": -77.04179083333334, "bike_id": "fb83025169f78f70a003a658128ec5b8", "fusion_lat": 0.0, "name": "fb83025169f78f70a003a658128ec5b8", "is_reserved": 0, "rental_uris": {"android": "https://dc.lft.to/lastmile_qr_scan", "ios": "https://dc.lft.to/lastmile_qr_scan"}, "fusion_lon": 0.0}, {"lat": 38.90048566666667, "is_disabled": 0, "type": "electric_scooter", "lon": -76.9938375, "bike_id": "785be9fe3940267b166a6ebb5bc0471c", "fusion_lat": 0.0, "name": "785be9fe3940267b166a6ebb5bc0471c", "is_reserved": 0, "rental_uris": {"android": "https://dc.lft.to/lastmile_qr_scan", "ios": "https://dc.lft.to/lastmile_qr_scan"}, "fusion_lon": 0.0}, {"lat": 38.908608, "is_disabled": 0, "type": "electric_scooter", "lon": -76.9916515, "bike_id": "f903b397affe55568b40264b36b9487a", "fusion_lat": 0.0, "name": "f903b397affe55568b40264b36b9487a", "is_reserved": 0, "rental_uris": {"android": "https://dc.lft.to/lastmile_qr_scan", "ios": "https://dc.lft.to/lastmile_qr_scan"}, "fusion_lon": 0.0}, {"lat": 38.906176333333335, "is_disabled": 0, "type": "electric_scooter", "lon": -76.98982466666666, "bike_id": "99f47489d12087e6dcf1d1dba615b273", "fusion_lat": 0.0, "name": "99f47489d12087e6dcf1d1dba615b273", "is_reserved": 0, "rental_uris": {"android": "https://dc.lft.to/lastmile_qr_scan", "ios": "https://dc.lft.to/lastmile_qr_scan"}, "fusion_lon": 0.0}, {"lat": 38.927443, "is_disabled": 0, "type": "electric_scooter", "lon": -77.02536183333333, "bike_id": "d53f28b84005ca74e7133878a2d6418d", "fusion_lat": 0.0, "name": "d53f28b84005ca74e7133878a2d6418d", "is_reserved": 0, "rental_uris": {"android": "https://dc.lft.to/lastmile_qr_scan", "ios": "https://dc.lft.to/lastmile_qr_scan"}, "fusion_lon": 0.0}, {"lat": 38.89128916666667, "is_disabled": 0, "type": "electric_scooter", "lon": -76.94386566666667, "bike_id": "37b793c2be600a1ec40e04ae54abaabd", "fusion_lat": 0.0, "name": "37b793c2be600a1ec40e04ae54abaabd", "is_reserved": 0, "rental_uris": {"android": "https://dc.lft.to/lastmile_qr_scan", "ios": "https://dc.lft.to/lastmile_qr_scan"}, "fusion_lon": 0.0}, {"lat": 38.91977966666666, "is_disabled": 0, "type": "electric_scooter", "lon": -77.042988, "bike_id": "e98d6943d0aff8dc2e835096bd995e78", "fusion_lat": 0.0, "name": "e98d6943d0aff8dc2e835096bd995e78", "is_reserved": 0, "rental_uris": {"android": "https://dc.lft.to/lastmile_qr_scan", "ios": "https://dc.lft.to/lastmile_qr_scan"}, "fusion_lon": 0.0}, {"lat": 38.895397, "is_disabled": 0, "type": "electric_scooter", "lon": -77.028179, "bike_id": "b09c4a1de53ea46a75728cc4d2ec3acf", "fusion_lat": 0.0, "name": "b09c4a1de53ea46a75728cc4d2ec3acf", "is_reserved": 0, "rental_uris": {"android": "https://dc.lft.to/lastmile_qr_scan", "ios": "https://dc.lft.to/lastmile_qr_scan"}, "fusion_lon": 0.0}, {"lat": 38.91103566666666, "is_disabled": 0, "type": "electric_scooter", "lon": -77.0422995, "bike_id": "3c885ca1bdc5b856a906d2dfe684d116", "fusion_lat": 0.0, "name": "3c885ca1bdc5b856a906d2dfe684d116", "is_reserved": 0, "rental_uris": {"android": "https://dc.lft.to/lastmile_qr_scan", "ios": "https://dc.lft.to/lastmile_qr_scan"}, "fusion_lon": 0.0}, {"lat": 38.90975733333333, "is_disabled": 0, "type": "electric_scooter", "lon": -77.03872416666667, "bike_id": "f7656f86616831e4d3190808953d0e16", "fusion_lat": 0.0, "name": "f7656f86616831e4d3190808953d0e16", "is_reserved": 0, "rental_uris": {"android": "https://dc.lft.to/lastmile_qr_scan", "ios": "https://dc.lft.to/lastmile_qr_scan"}, "fusion_lon": 0.0}, {"lat": 38.859072166666664, "is_disabled": 0, "type": "electric_scooter", "lon": -76.99153966666667, "bike_id": "c734caa5f8a1a27f2b896af331a20a6e", "fusion_lat": 0.0, "name": "c734caa5f8a1a27f2b896af331a20a6e", "is_reserved": 0, "rental_uris": {"android": "https://dc.lft.to/lastmile_qr_scan", "ios": "https://dc.lft.to/lastmile_qr_scan"}, "fusion_lon": 0.0}, {"lat": 38.800612, "is_disabled": 0, "type": "electric_bike", "lon": -77.07115416666667, "bike_id": "abc52debe1338190d50b110271740976", "fusion_lat": 0.0, "name": "abc52debe1338190d50b110271740976", "is_reserved": 0, "rental_uris": {"android": "https://dc.lft.to/lastmile_qr_scan", "ios": "https://dc.lft.to/lastmile_qr_scan"}, "fusion_lon": 0.0}, {"lat": 38.93494833333333, "is_disabled": 0, "type": "electric_bike", "lon": -76.986542, "bike_id": "857ce655df20eb9538878cf06192863c", "fusion_lat": 0.0, "name": "857ce655df20eb9538878cf06192863c", "is_reserved": 0, "rental_uris": {"android": "https://dc.lft.to/lastmile_qr_scan", "ios": "https://dc.lft.to/lastmile_qr_scan"}, "fusion_lon": 0.0}, {"lat": 38.86648566666667, "is_disabled": 0, "type": "electric_scooter", "lon": -76.98886383333334, "bike_id": "6c80efcc62c099e6fce683a468490219", "fusion_lat": 0.0, "name": "6c80efcc62c099e6fce683a468490219", "is_reserved": 0, "rental_uris": {"android": "https://dc.lft.to/lastmile_qr_scan", "ios": "https://dc.lft.to/lastmile_qr_scan"}, "fusion_lon": 0.0}, {"lat": 38.88494516666667, "is_disabled": 0, "type": "electric_scooter", "lon": -77.00707783333333, "bike_id": "be2914ef1eddcb97c952d01d2b5f70ca", "fusion_lat": 0.0, "name": "be2914ef1eddcb97c952d01d2b5f70ca", "is_reserved": 0, "rental_uris": {"android": "https://dc.lft.to/lastmile_qr_scan", "ios": "https://dc.lft.to/lastmile_qr_scan"}, "fusion_lon": 0.0}, {"lat": 38.88687916666667, "is_disabled": 0, "type": "electric_scooter", "lon": -77.01300983333333, "bike_id": "4ccb4f51d4903d45f8dd789de30626d9", "fusion_lat": 0.0, "name": "4ccb4f51d4903d45f8dd789de30626d9", "is_reserved": 0, "rental_uris": {"android": "https://dc.lft.to/lastmile_qr_scan", "ios": "https://dc.lft.to/lastmile_qr_scan"}, "fusion_lon": 0.0}, {"lat": 38.91425383333333, "is_disabled": 0, "type": "electric_scooter", "lon": -77.0220345, "bike_id": "374f49340bcdc19a629f51ca85706c9c", "fusion_lat": 0.0, "name": "374f49340bcdc19a629f51ca85706c9c", "is_reserved": 0, "rental_uris": {"android": "https://dc.lft.to/lastmile_qr_scan", "ios": "https://dc.lft.to/lastmile_qr_scan"}, "fusion_lon": 0.0}, {"lat": 38.91912083333333, "is_disabled": 0, "type": "electric_scooter", "lon": -77.04178266666666, "bike_id": "9f438778d550ad9a56dbe2a7302e9150", "fusion_lat": 0.0, "name": "9f438778d550ad9a56dbe2a7302e9150", "is_reserved": 0, "rental_uris": {"android": "https://dc.lft.to/lastmile_qr_scan", "ios": "https://dc.lft.to/lastmile_qr_scan"}, "fusion_lon": 0.0}, {"lat": 38.94286666666667, "is_disabled": 0, "type": "electric_scooter", "lon": -77.02175033333333, "bike_id": "90b42f53268e4505d3fb41aa951090bb", "fusion_lat": 0.0, "name": "90b42f53268e4505d3fb41aa951090bb", "is_reserved": 0, "rental_uris": {"android": "https://dc.lft.to/lastmile_qr_scan", "ios": "https://dc.lft.to/lastmile_qr_scan"}, "fusion_lon": 0.0}, {"lat": 38.93236533333334, "is_disabled": 0, "type": "electric_scooter", "lon": -76.996092, "bike_id": "da74a0f5f74875a2786d63781dafba95", "fusion_lat": 0.0, "name": "da74a0f5f74875a2786d63781dafba95", "is_reserved": 0, "rental_uris": {"android": "https://dc.lft.to/lastmile_qr_scan", "ios": "https://dc.lft.to/lastmile_qr_scan"}, "fusion_lon": 0.0}, {"lat": 38.91413216666667, "is_disabled": 0, "type": "electric_scooter", "lon": -77.03997866666667, "bike_id": "35b9222c1c6517d147898f8ba8f8f9a1", "fusion_lat": 0.0, "name": "35b9222c1c6517d147898f8ba8f8f9a1", "is_reserved": 0, "rental_uris": {"android": "https://dc.lft.to/lastmile_qr_scan", "ios": "https://dc.lft.to/lastmile_qr_scan"}, "fusion_lon": 0.0}, {"lat": 38.911823, "is_disabled": 0, "type": "electric_scooter", "lon": -77.00211083333333, "bike_id": "7f430ec1405458aa93f2f2758175c621", "fusion_lat": 0.0, "name": "7f430ec1405458aa93f2f2758175c621", "is_reserved": 0, "rental_uris": {"android": "https://dc.lft.to/lastmile_qr_scan", "ios": "https://dc.lft.to/lastmile_qr_scan"}, "fusion_lon": 0.0}, {"lat": 38.88766233333333, "is_disabled": 0, "type": "electric_scooter", "lon": -76.95597566666666, "bike_id": "f09143ce800ee5a483e94d727faaab6c", "fusion_lat": 0.0, "name": "f09143ce800ee5a483e94d727faaab6c", "is_reserved": 0, "rental_uris": {"android": "https://dc.lft.to/lastmile_qr_scan", "ios": "https://dc.lft.to/lastmile_qr_scan"}, "fusion_lon": 0.0}, {"lat": 38.88487633333333, "is_disabled": 0, "type": "electric_scooter", "lon": -77.00711616666666, "bike_id": "93ff0ce7611f7d6b88a846e5d88ff40f", "fusion_lat": 0.0, "name": "93ff0ce7611f7d6b88a846e5d88ff40f", "is_reserved": 0, "rental_uris": {"android": "https://dc.lft.to/lastmile_qr_scan", "ios": "https://dc.lft.to/lastmile_qr_scan"}, "fusion_lon": 0.0}, {"lat": 38.866242666666665, "is_disabled": 0, "type": "electric_scooter", "lon": -76.98699216666667, "bike_id": "0fa75112187c616834e2ac2a5d91ad14", "fusion_lat": 0.0, "name": "0fa75112187c616834e2ac2a5d91ad14", "is_reserved": 0, "rental_uris": {"android": "https://dc.lft.to/lastmile_qr_scan", "ios": "https://dc.lft.to/lastmile_qr_scan"}, "fusion_lon": 0.0}, {"lat": 38.84272133333333, "is_disabled": 0, "type": "electric_bike", "lon": -76.98846666666667, "bike_id": "bd15051b583d163a9e8cf2a0d16d663b", "fusion_lat": 0.0, "name": "bd15051b583d163a9e8cf2a0d16d663b", "is_reserved": 0, "rental_uris": {"android": "https://dc.lft.to/lastmile_qr_scan", "ios": "https://dc.lft.to/lastmile_qr_scan"}, "fusion_lon": 0.0}, {"lat": 38.93479816666667, "is_disabled": 0, "type": "electric_scooter", "lon": -77.03582783333333, "bike_id": "966d6b424ff080d0b1d671ca10d495ab", "fusion_lat": 0.0, "name": "966d6b424ff080d0b1d671ca10d495ab", "is_reserved": 0, "rental_uris": {"android": "https://dc.lft.to/lastmile_qr_scan", "ios": "https://dc.lft.to/lastmile_qr_scan"}, "fusion_lon": 0.0}, {"lat": 38.843028333333336, "is_disabled": 0, "type": "electric_scooter", "lon": -76.99937833333334, "bike_id": "0fc06bae901b6bc71c7fc014392ab244", "fusion_lat": 0.0, "name": "0fc06bae901b6bc71c7fc014392ab244", "is_reserved": 0, "rental_uris": {"android": "https://dc.lft.to/lastmile_qr_scan", "ios": "https://dc.lft.to/lastmile_qr_scan"}, "fusion_lon": 0.0}, {"lat": 38.875853166666666, "is_disabled": 0, "type": "electric_bike", "lon": -77.105579, "bike_id": "269d4cefc7b446549b919d22ccfcf33c", "fusion_lat": 0.0, "name": "269d4cefc7b446549b919d22ccfcf33c", "is_reserved": 0, "rental_uris": {"android": "https://dc.lft.to/lastmile_qr_scan", "ios": "https://dc.lft.to/lastmile_qr_scan"}, "fusion_lon": 0.0}, {"lat": 38.970898166666665, "is_disabled": 0, "type": "electric_bike", "lon": -77.06961383333334, "bike_id": "9c549cc9b4707900bcaa3daa32d1dd5e", "fusion_lat": 0.0, "name": "9c549cc9b4707900bcaa3daa32d1dd5e", "is_reserved": 0, "rental_uris": {"android": "https://dc.lft.to/lastmile_qr_scan", "ios": "https://dc.lft.to/lastmile_qr_scan"}, "fusion_lon": 0.0}, {"lat": 38.926823166666665, "is_disabled": 0, "type": "electric_scooter", "lon": -77.02862166666667, "bike_id": "8885388ebdd15a596bc9f1860a3b5062", "fusion_lat": 0.0, "name": "8885388ebdd15a596bc9f1860a3b5062", "is_reserved": 0, "rental_uris": {"android": "https://dc.lft.to/lastmile_qr_scan", "ios": "https://dc.lft.to/lastmile_qr_scan"}, "fusion_lon": 0.0}, {"lat": 38.8520985, "is_disabled": 0, "type": "electric_bike", "lon": -77.10131583333333, "bike_id": "4b672d2930373e60e457cd53abe0906d", "fusion_lat": 0.0, "name": "4b672d2930373e60e457cd53abe0906d", "is_reserved": 0, "rental_uris": {"android": "https://dc.lft.to/lastmile_qr_scan", "ios": "https://dc.lft.to/lastmile_qr_scan"}, "fusion_lon": 0.0}, {"lat": 38.920147, "is_disabled": 0, "type": "electric_scooter", "lon": -77.02389183333334, "bike_id": "533aa435fdc8bb42fd1cc1a03882cd40", "fusion_lat": 0.0, "name": "533aa435fdc8bb42fd1cc1a03882cd40", "is_reserved": 0, "rental_uris": {"android": "https://dc.lft.to/lastmile_qr_scan", "ios": "https://dc.lft.to/lastmile_qr_scan"}, "fusion_lon": 0.0}, {"lat": 38.92331633333333, "is_disabled": 0, "type": "electric_scooter", "lon": -77.035755, "bike_id": "1b27fdcc6f1c5434a2ce20b7145c847f", "fusion_lat": 0.0, "name": "1b27fdcc6f1c5434a2ce20b7145c847f", "is_reserved": 0, "rental_uris": {"android": "https://dc.lft.to/lastmile_qr_scan", "ios": "https://dc.lft.to/lastmile_qr_scan"}, "fusion_lon": 0.0}, {"lat": 38.895134, "is_disabled": 0, "type": "electric_scooter", "lon": -76.94903, "bike_id": "dea45848fa4cde2961c99e55bd080a97", "fusion_lat": 0.0, "name": "dea45848fa4cde2961c99e55bd080a97", "is_reserved": 0, "rental_uris": {"android": "https://dc.lft.to/lastmile_qr_scan", "ios": "https://dc.lft.to/lastmile_qr_scan"}, "fusion_lon": 0.0}, {"lat": 38.91008033333333, "is_disabled": 0, "type": "electric_scooter", "lon": -77.02692616666667, "bike_id": "42d6297eca3468abe06276d1be9115cf", "fusion_lat": 0.0, "name": "42d6297eca3468abe06276d1be9115cf", "is_reserved": 0, "rental_uris": {"android": "https://dc.lft.to/lastmile_qr_scan", "ios": "https://dc.lft.to/lastmile_qr_scan"}, "fusion_lon": 0.0}, {"lat": 38.912956666666666, "is_disabled": 0, "type": "electric_scooter", "lon": -77.04019616666666, "bike_id": "1cbefa879d4b63387f041f340d4d6157", "fusion_lat": 0.0, "name": "1cbefa879d4b63387f041f340d4d6157", "is_reserved": 0, "rental_uris": {"android": "https://dc.lft.to/lastmile_qr_scan", "ios": "https://dc.lft.to/lastmile_qr_scan"}, "fusion_lon": 0.0}, {"lat": 38.917074166666666, "is_disabled": 0, "type": "electric_scooter", "lon": -77.0346805, "bike_id": "3be3fc95e50aea15637b54353598e5ca", "fusion_lat": 0.0, "name": "3be3fc95e50aea15637b54353598e5ca", "is_reserved": 0, "rental_uris": {"android": "https://dc.lft.to/lastmile_qr_scan", "ios": "https://dc.lft.to/lastmile_qr_scan"}, "fusion_lon": 0.0}, {"lat": 38.873409, "is_disabled": 0, "type": "electric_bike", "lon": -77.018587, "bike_id": "e4c9eff5e6a3722aa2de7f69f0f8d442", "fusion_lat": 0.0, "name": "e4c9eff5e6a3722aa2de7f69f0f8d442", "is_reserved": 0, "rental_uris": {"android": "https://dc.lft.to/lastmile_qr_scan", "ios": "https://dc.lft.to/lastmile_qr_scan"}, "fusion_lon": 0.0}, {"lat": 38.88769516666667, "is_disabled": 0, "type": "electric_scooter", "lon": -77.04356883333334, "bike_id": "88001aa297af9fd5b099d58dc96831bf", "fusion_lat": 0.0, "name": "88001aa297af9fd5b099d58dc96831bf", "is_reserved": 0, "rental_uris": {"android": "https://dc.lft.to/lastmile_qr_scan", "ios": "https://dc.lft.to/lastmile_qr_scan"}, "fusion_lon": 0.0}, {"lat": 38.90263266666667, "is_disabled": 0, "type": "electric_scooter", "lon": -76.98696833333334, "bike_id": "a05c991d180643d4359c3c4b5feafe7d", "fusion_lat": 0.0, "name": "a05c991d180643d4359c3c4b5feafe7d", "is_reserved": 0, "rental_uris": {"android": "https://dc.lft.to/lastmile_qr_scan", "ios": "https://dc.lft.to/lastmile_qr_scan"}, "fusion_lon": 0.0}, {"lat": 38.89993616666667, "is_disabled": 0, "type": "electric_scooter", "lon": -77.02118933333334, "bike_id": "5301960f20e5516c0bcae3f753c144a0", "fusion_lat": 0.0, "name": "5301960f20e5516c0bcae3f753c144a0", "is_reserved": 0, "rental_uris": {"android": "https://dc.lft.to/lastmile_qr_scan", "ios": "https://dc.lft.to/lastmile_qr_scan"}, "fusion_lon": 0.0}, {"lat": 38.8999535, "is_disabled": 0, "type": "electric_scooter", "lon": -77.052644, "bike_id": "8e92e35122c84d108bfa175e52ff16d7", "fusion_lat": 0.0, "name": "8e92e35122c84d108bfa175e52ff16d7", "is_reserved": 0, "rental_uris": {"android": "https://dc.lft.to/lastmile_qr_scan", "ios": "https://dc.lft.to/lastmile_qr_scan"}, "fusion_lon": 0.0}, {"lat": 38.832138, "is_disabled": 0, "type": "electric_bike", "lon": -76.94628833333333, "bike_id": "d7696061c7b983f06a7218e7b7716a39", "fusion_lat": 0.0, "name": "d7696061c7b983f06a7218e7b7716a39", "is_reserved": 0, "rental_uris": {"android": "https://dc.lft.to/lastmile_qr_scan", "ios": "https://dc.lft.to/lastmile_qr_scan"}, "fusion_lon": 0.0}, {"lat": 38.99331083333333, "is_disabled": 0, "type": "electric_bike", "lon": -77.032929, "bike_id": "1d39bff936fd0e6ed98be734f9f1ec5f", "fusion_lat": 0.0, "name": "1d39bff936fd0e6ed98be734f9f1ec5f", "is_reserved": 0, "rental_uris": {"android": "https://dc.lft.to/lastmile_qr_scan", "ios": "https://dc.lft.to/lastmile_qr_scan"}, "fusion_lon": 0.0}, {"lat": 38.90985766666667, "is_disabled": 0, "type": "electric_scooter", "lon": -77.0271955, "bike_id": "b63ca5a703f5bdb3922f04372fba0eef", "fusion_lat": 0.0, "name": "b63ca5a703f5bdb3922f04372fba0eef", "is_reserved": 0, "rental_uris": {"android": "https://dc.lft.to/lastmile_qr_scan", "ios": "https://dc.lft.to/lastmile_qr_scan"}, "fusion_lon": 0.0}, {"lat": 38.904128166666666, "is_disabled": 0, "type": "electric_scooter", "lon": -76.99282566666666, "bike_id": "704099632b1ef1d1180083f680f243d2", "fusion_lat": 0.0, "name": "704099632b1ef1d1180083f680f243d2", "is_reserved": 0, "rental_uris": {"android": "https://dc.lft.to/lastmile_qr_scan", "ios": "https://dc.lft.to/lastmile_qr_scan"}, "fusion_lon": 0.0}, {"lat": 38.90076416666667, "is_disabled": 0, "type": "electric_scooter", "lon": -77.05070516666666, "bike_id": "f6a05b9e8ab0f8527c675ead91eeda91", "fusion_lat": 0.0, "name": "f6a05b9e8ab0f8527c675ead91eeda91", "is_reserved": 0, "rental_uris": {"android": "https://dc.lft.to/lastmile_qr_scan", "ios": "https://dc.lft.to/lastmile_qr_scan"}, "fusion_lon": 0.0}, {"lat": 38.903560666666664, "is_disabled": 0, "type": "electric_scooter", "lon": -77.016357, "bike_id": "1c3248776f5c9b407ed6b017ceaea427", "fusion_lat": 0.0, "name": "1c3248776f5c9b407ed6b017ceaea427", "is_reserved": 0, "rental_uris": {"android": "https://dc.lft.to/lastmile_qr_scan", "ios": "https://dc.lft.to/lastmile_qr_scan"}, "fusion_lon": 0.0}, {"lat": 38.836925, "is_disabled": 0, "type": "electric_scooter", "lon": -77.10299333333333, "bike_id": "5b6c37cbb9c72d8b48bf6266f1a7503c", "fusion_lat": 0.0, "name": "5b6c37cbb9c72d8b48bf6266f1a7503c", "is_reserved": 0, "rental_uris": {"android": "https://dc.lft.to/lastmile_qr_scan", "ios": "https://dc.lft.to/lastmile_qr_scan"}, "fusion_lon": 0.0}, {"lat": 38.9162195, "is_disabled": 0, "type": "electric_scooter", "lon": -77.032647, "bike_id": "6cc5dd4adc3ad6565b05c266a58926c9", "fusion_lat": 0.0, "name": "6cc5dd4adc3ad6565b05c266a58926c9", "is_reserved": 0, "rental_uris": {"android": "https://dc.lft.to/lastmile_qr_scan", "ios": "https://dc.lft.to/lastmile_qr_scan"}, "fusion_lon": 0.0}, {"lat": 38.88113416666667, "is_disabled": 0, "type": "electric_scooter", "lon": -76.98334016666666, "bike_id": "c983bd686ec6b39017f3ec8f8d37ab50", "fusion_lat": 0.0, "name": "c983bd686ec6b39017f3ec8f8d37ab50", "is_reserved": 0, "rental_uris": {"android": "https://dc.lft.to/lastmile_qr_scan", "ios": "https://dc.lft.to/lastmile_qr_scan"}, "fusion_lon": 0.0}, {"lat": 38.936619, "is_disabled": 0, "type": "electric_scooter", "lon": -77.0593145, "bike_id": "a47b0f678766ae06a0433e954547479f", "fusion_lat": 0.0, "name": "a47b0f678766ae06a0433e954547479f", "is_reserved": 0, "rental_uris": {"android": "https://dc.lft.to/lastmile_qr_scan", "ios": "https://dc.lft.to/lastmile_qr_scan"}, "fusion_lon": 0.0}, {"lat": 38.867095666666664, "is_disabled": 0, "type": "electric_scooter", "lon": -76.98725883333333, "bike_id": "eee4ad9f26ba22f1e5dc132fd4b1ead4", "fusion_lat": 0.0, "name": "eee4ad9f26ba22f1e5dc132fd4b1ead4", "is_reserved": 0, "rental_uris": {"android": "https://dc.lft.to/lastmile_qr_scan", "ios": "https://dc.lft.to/lastmile_qr_scan"}, "fusion_lon": 0.0}, {"lat": 38.871444833333335, "is_disabled": 0, "type": "electric_bike", "lon": -76.93712666666667, "bike_id": "d2d8021f24642ed70867ad23bd8b4282", "fusion_lat": 0.0, "name": "d2d8021f24642ed70867ad23bd8b4282", "is_reserved": 0, "rental_uris": {"android": "https://dc.lft.to/lastmile_qr_scan", "ios": "https://dc.lft.to/lastmile_qr_scan"}, "fusion_lon": 0.0}, {"lat": 38.92713333333333, "is_disabled": 0, "type": "electric_scooter", "lon": -77.0208445, "bike_id": "1469da36b279bb11818de3506353dbc3", "fusion_lat": 0.0, "name": "1469da36b279bb11818de3506353dbc3", "is_reserved": 0, "rental_uris": {"android": "https://dc.lft.to/lastmile_qr_scan", "ios": "https://dc.lft.to/lastmile_qr_scan"}, "fusion_lon": 0.0}, {"lat": 38.845678166666666, "is_disabled": 0, "type": "electric_bike", "lon": -77.09624283333333, "bike_id": "f136458065fbccf0d1287227f47d11ba", "fusion_lat": 0.0, "name": "f136458065fbccf0d1287227f47d11ba", "is_reserved": 0, "rental_uris": {"android": "https://dc.lft.to/lastmile_qr_scan", "ios": "https://dc.lft.to/lastmile_qr_scan"}, "fusion_lon": 0.0}, {"lat": 38.92236333333334, "is_disabled": 0, "type": "electric_scooter", "lon": -77.04573466666666, "bike_id": "2612e32e4bd6c90d7e07ed1641e3e477", "fusion_lat": 0.0, "name": "2612e32e4bd6c90d7e07ed1641e3e477", "is_reserved": 0, "rental_uris": {"android": "https://dc.lft.to/lastmile_qr_scan", "ios": "https://dc.lft.to/lastmile_qr_scan"}, "fusion_lon": 0.0}, {"lat": 38.900289, "is_disabled": 0, "type": "electric_scooter", "lon": -77.02586916666667, "bike_id": "5a55ebc28badc363299cebf8af9c8644", "fusion_lat": 0.0, "name": "5a55ebc28badc363299cebf8af9c8644", "is_reserved": 0, "rental_uris": {"android": "https://dc.lft.to/lastmile_qr_scan", "ios": "https://dc.lft.to/lastmile_qr_scan"}, "fusion_lon": 0.0}, {"lat": 38.9138525, "is_disabled": 0, "type": "electric_scooter", "lon": -77.04160483333334, "bike_id": "17cbbf6724964e679ea68db7f12ad65d", "fusion_lat": 0.0, "name": "17cbbf6724964e679ea68db7f12ad65d", "is_reserved": 0, "rental_uris": {"android": "https://dc.lft.to/lastmile_qr_scan", "ios": "https://dc.lft.to/lastmile_qr_scan"}, "fusion_lon": 0.0}, {"lat": 38.932323833333335, "is_disabled": 0, "type": "electric_scooter", "lon": -76.9960395, "bike_id": "e122658bc0694ff83e197216ac872167", "fusion_lat": 0.0, "name": "e122658bc0694ff83e197216ac872167", "is_reserved": 0, "rental_uris": {"android": "https://dc.lft.to/lastmile_qr_scan", "ios": "https://dc.lft.to/lastmile_qr_scan"}, "fusion_lon": 0.0}, {"lat": 38.90154666666667, "is_disabled": 0, "type": "electric_scooter", "lon": -77.025087, "bike_id": "a8d5c023aa47d7a1a5afe5602ebd2d95", "fusion_lat": 0.0, "name": "a8d5c023aa47d7a1a5afe5602ebd2d95", "is_reserved": 0, "rental_uris": {"android": "https://dc.lft.to/lastmile_qr_scan", "ios": "https://dc.lft.to/lastmile_qr_scan"}, "fusion_lon": 0.0}, {"lat": 38.850492333333335, "is_disabled": 0, "type": "electric_bike", "lon": -76.973052, "bike_id": "ea6cd7684fe0b1e49af43d396c86b248", "fusion_lat": 0.0, "name": "ea6cd7684fe0b1e49af43d396c86b248", "is_reserved": 0, "rental_uris": {"android": "https://dc.lft.to/lastmile_qr_scan", "ios": "https://dc.lft.to/lastmile_qr_scan"}, "fusion_lon": 0.0}, {"lat": 38.93337016666667, "is_disabled": 0, "type": "electric_bike", "lon": -77.04205233333333, "bike_id": "fbe55f714a62e3c20a780891a01024b3", "fusion_lat": 0.0, "name": "fbe55f714a62e3c20a780891a01024b3", "is_reserved": 0, "rental_uris": {"android": "https://dc.lft.to/lastmile_qr_scan", "ios": "https://dc.lft.to/lastmile_qr_scan"}, "fusion_lon": 0.0}, {"lat": 38.89716216666667, "is_disabled": 0, "type": "electric_scooter", "lon": -77.00796666666666, "bike_id": "327ec1dd8b65dc1cb906a27dded71690", "fusion_lat": 0.0, "name": "327ec1dd8b65dc1cb906a27dded71690", "is_reserved": 0, "rental_uris": {"android": "https://dc.lft.to/lastmile_qr_scan", "ios": "https://dc.lft.to/lastmile_qr_scan"}, "fusion_lon": 0.0}, {"lat": 38.90673683333333, "is_disabled": 0, "type": "electric_scooter", "lon": -77.02714933333333, "bike_id": "d9a41255ca352475180facf065823f0c", "fusion_lat": 0.0, "name": "d9a41255ca352475180facf065823f0c", "is_reserved": 0, "rental_uris": {"android": "https://dc.lft.to/lastmile_qr_scan", "ios": "https://dc.lft.to/lastmile_qr_scan"}, "fusion_lon": 0.0}, {"lat": 38.89882566666667, "is_disabled": 0, "type": "electric_scooter", "lon": -76.93177183333333, "bike_id": "e1b48e4877c84bdc5f782d16f73d40f6", "fusion_lat": 0.0, "name": "e1b48e4877c84bdc5f782d16f73d40f6", "is_reserved": 0, "rental_uris": {"android": "https://dc.lft.to/lastmile_qr_scan", "ios": "https://dc.lft.to/lastmile_qr_scan"}, "fusion_lon": 0.0}, {"lat": 38.908340833333334, "is_disabled": 0, "type": "electric_scooter", "lon": -77.06378783333334, "bike_id": "5bc2ad1ae29baffea98ea36519f4b622", "fusion_lat": 0.0, "name": "5bc2ad1ae29baffea98ea36519f4b622", "is_reserved": 0, "rental_uris": {"android": "https://dc.lft.to/lastmile_qr_scan", "ios": "https://dc.lft.to/lastmile_qr_scan"}, "fusion_lon": 0.0}, {"lat": 38.919332833333335, "is_disabled": 0, "type": "electric_scooter", "lon": -77.02299833333333, "bike_id": "f93b8c3e780ffb6068359d66ac25ab60", "fusion_lat": 0.0, "name": "f93b8c3e780ffb6068359d66ac25ab60", "is_reserved": 0, "rental_uris": {"android": "https://dc.lft.to/lastmile_qr_scan", "ios": "https://dc.lft.to/lastmile_qr_scan"}, "fusion_lon": 0.0}, {"lat": 38.90682316666667, "is_disabled": 0, "type": "electric_scooter", "lon": -77.037613, "bike_id": "30c173537d3d5edfb8ef6f40ed9d7211", "fusion_lat": 0.0, "name": "30c173537d3d5edfb8ef6f40ed9d7211", "is_reserved": 0, "rental_uris": {"android": "https://dc.lft.to/lastmile_qr_scan", "ios": "https://dc.lft.to/lastmile_qr_scan"}, "fusion_lon": 0.0}, {"lat": 38.897422166666665, "is_disabled": 0, "type": "electric_scooter", "lon": -77.047609, "bike_id": "897a379b2e8e36eeeb82a56d5e24cdc1", "fusion_lat": 0.0, "name": "897a379b2e8e36eeeb82a56d5e24cdc1", "is_reserved": 0, "rental_uris": {"android": "https://dc.lft.to/lastmile_qr_scan", "ios": "https://dc.lft.to/lastmile_qr_scan"}, "fusion_lon": 0.0}, {"lat": 38.9065695, "is_disabled": 0, "type": "electric_scooter", "lon": -77.038626, "bike_id": "154723d7bbf2c37245d01ce9fc46b512", "fusion_lat": 0.0, "name": "154723d7bbf2c37245d01ce9fc46b512", "is_reserved": 0, "rental_uris": {"android": "https://dc.lft.to/lastmile_qr_scan", "ios": "https://dc.lft.to/lastmile_qr_scan"}, "fusion_lon": 0.0}, {"lat": 38.895791, "is_disabled": 0, "type": "electric_bike", "lon": -77.12694966666666, "bike_id": "9937ce1689be5360568f148d9433e5e3", "fusion_lat": 0.0, "name": "9937ce1689be5360568f148d9433e5e3", "is_reserved": 0, "rental_uris": {"android": "https://dc.lft.to/lastmile_qr_scan", "ios": "https://dc.lft.to/lastmile_qr_scan"}, "fusion_lon": 0.0}, {"lat": 38.93210283333333, "is_disabled": 0, "type": "electric_scooter", "lon": -76.97775966666667, "bike_id": "10066a3e24fffb23b3f6a7f29d182e4e", "fusion_lat": 0.0, "name": "10066a3e24fffb23b3f6a7f29d182e4e", "is_reserved": 0, "rental_uris": {"android": "https://dc.lft.to/lastmile_qr_scan", "ios": "https://dc.lft.to/lastmile_qr_scan"}, "fusion_lon": 0.0}, {"lat": 38.865232166666665, "is_disabled": 0, "type": "electric_scooter", "lon": -76.99029166666666, "bike_id": "b0310f1ec192b1e8655d532933c2a9e3", "fusion_lat": 0.0, "name": "b0310f1ec192b1e8655d532933c2a9e3", "is_reserved": 0, "rental_uris": {"android": "https://dc.lft.to/lastmile_qr_scan", "ios": "https://dc.lft.to/lastmile_qr_scan"}, "fusion_lon": 0.0}, {"lat": 38.927807, "is_disabled": 0, "type": "electric_scooter", "lon": -77.027913, "bike_id": "c566382b66da0eda357a014d81b69ba8", "fusion_lat": 0.0, "name": "c566382b66da0eda357a014d81b69ba8", "is_reserved": 0, "rental_uris": {"android": "https://dc.lft.to/lastmile_qr_scan", "ios": "https://dc.lft.to/lastmile_qr_scan"}, "fusion_lon": 0.0}, {"lat": 38.91413433333334, "is_disabled": 0, "type": "electric_scooter", "lon": -77.0380915, "bike_id": "b10eb0a3fef5905ce72b52c9fde8f157", "fusion_lat": 0.0, "name": "b10eb0a3fef5905ce72b52c9fde8f157", "is_reserved": 0, "rental_uris": {"android": "https://dc.lft.to/lastmile_qr_scan", "ios": "https://dc.lft.to/lastmile_qr_scan"}, "fusion_lon": 0.0}, {"lat": 38.91020066666667, "is_disabled": 0, "type": "electric_scooter", "lon": -77.04447166666667, "bike_id": "1b9968a9fae159783838b2d96d79a84b", "fusion_lat": 0.0, "name": "1b9968a9fae159783838b2d96d79a84b", "is_reserved": 0, "rental_uris": {"android": "https://dc.lft.to/lastmile_qr_scan", "ios": "https://dc.lft.to/lastmile_qr_scan"}, "fusion_lon": 0.0}, {"lat": 38.9335635, "is_disabled": 0, "type": "electric_bike", "lon": -77.099614, "bike_id": "f3865cc3ef0d3e9fd9a963d472fddfa3", "fusion_lat": 0.0, "name": "f3865cc3ef0d3e9fd9a963d472fddfa3", "is_reserved": 0, "rental_uris": {"android": "https://dc.lft.to/lastmile_qr_scan", "ios": "https://dc.lft.to/lastmile_qr_scan"}, "fusion_lon": 0.0}, {"lat": 38.907647, "is_disabled": 0, "type": "electric_scooter", "lon": -77.06066966666667, "bike_id": "c6bdd3d974af468408183a32de8dc016", "fusion_lat": 0.0, "name": "c6bdd3d974af468408183a32de8dc016", "is_reserved": 0, "rental_uris": {"android": "https://dc.lft.to/lastmile_qr_scan", "ios": "https://dc.lft.to/lastmile_qr_scan"}, "fusion_lon": 0.0}, {"lat": 38.91365833333333, "is_disabled": 0, "type": "electric_scooter", "lon": -77.068453, "bike_id": "76b799e0392b18c3e737cd4fa337c569", "fusion_lat": 0.0, "name": "76b799e0392b18c3e737cd4fa337c569", "is_reserved": 0, "rental_uris": {"android": "https://dc.lft.to/lastmile_qr_scan", "ios": "https://dc.lft.to/lastmile_qr_scan"}, "fusion_lon": 0.0}, {"lat": 38.900452, "is_disabled": 0, "type": "electric_scooter", "lon": -77.03155166666667, "bike_id": "1c2ac571e2b14b6b6f90f043aed51da5", "fusion_lat": 0.0, "name": "1c2ac571e2b14b6b6f90f043aed51da5", "is_reserved": 0, "rental_uris": {"android": "https://dc.lft.to/lastmile_qr_scan", "ios": "https://dc.lft.to/lastmile_qr_scan"}, "fusion_lon": 0.0}, {"lat": 38.917057666666665, "is_disabled": 0, "type": "electric_scooter", "lon": -77.03725583333333, "bike_id": "6cfd37708f665cf9dcc1994d6ca3f2de", "fusion_lat": 0.0, "name": "6cfd37708f665cf9dcc1994d6ca3f2de", "is_reserved": 0, "rental_uris": {"android": "https://dc.lft.to/lastmile_qr_scan", "ios": "https://dc.lft.to/lastmile_qr_scan"}, "fusion_lon": 0.0}, {"lat": 38.88512083333333, "is_disabled": 0, "type": "electric_scooter", "lon": -77.00681166666666, "bike_id": "90b9301ded2486c41b158562c44bd020", "fusion_lat": 0.0, "name": "90b9301ded2486c41b158562c44bd020", "is_reserved": 0, "rental_uris": {"android": "https://dc.lft.to/lastmile_qr_scan", "ios": "https://dc.lft.to/lastmile_qr_scan"}, "fusion_lon": 0.0}, {"lat": 38.863640833333335, "is_disabled": 0, "type": "electric_scooter", "lon": -76.99037366666667, "bike_id": "f84dd69785457babaabac599434aa473", "fusion_lat": 0.0, "name": "f84dd69785457babaabac599434aa473", "is_reserved": 0, "rental_uris": {"android": "https://dc.lft.to/lastmile_qr_scan", "ios": "https://dc.lft.to/lastmile_qr_scan"}, "fusion_lon": 0.0}, {"lat": 39.03050783333333, "is_disabled": 0, "type": "electric_bike", "lon": -77.09485316666667, "bike_id": "1d23495e83dc8d28e04b41ae0df8fade", "fusion_lat": 0.0, "name": "1d23495e83dc8d28e04b41ae0df8fade", "is_reserved": 0, "rental_uris": {"android": "https://dc.lft.to/lastmile_qr_scan", "ios": "https://dc.lft.to/lastmile_qr_scan"}, "fusion_lon": 0.0}, {"lat": 38.9153355, "is_disabled": 0, "type": "electric_scooter", "lon": -76.98217266666667, "bike_id": "2b43841d127acf18e3cddc113acc589a", "fusion_lat": 0.0, "name": "2b43841d127acf18e3cddc113acc589a", "is_reserved": 0, "rental_uris": {"android": "https://dc.lft.to/lastmile_qr_scan", "ios": "https://dc.lft.to/lastmile_qr_scan"}, "fusion_lon": 0.0}, {"lat": 38.907273, "is_disabled": 0, "type": "electric_scooter", "lon": -77.04826083333333, "bike_id": "a7feafecdc4906635f8e05403f49af8f", "fusion_lat": 0.0, "name": "a7feafecdc4906635f8e05403f49af8f", "is_reserved": 0, "rental_uris": {"android": "https://dc.lft.to/lastmile_qr_scan", "ios": "https://dc.lft.to/lastmile_qr_scan"}, "fusion_lon": 0.0}, {"lat": 38.927509, "is_disabled": 0, "type": "electric_scooter", "lon": -76.9972695, "bike_id": "46c6ab96cb5e640a8ebfbf58793640ba", "fusion_lat": 0.0, "name": "46c6ab96cb5e640a8ebfbf58793640ba", "is_reserved": 0, "rental_uris": {"android": "https://dc.lft.to/lastmile_qr_scan", "ios": "https://dc.lft.to/lastmile_qr_scan"}, "fusion_lon": 0.0}, {"lat": 38.91422633333333, "is_disabled": 0, "type": "electric_scooter", "lon": -77.02204983333333, "bike_id": "a5d7160e2d0752c88a21d1e54ac30591", "fusion_lat": 0.0, "name": "a5d7160e2d0752c88a21d1e54ac30591", "is_reserved": 0, "rental_uris": {"android": "https://dc.lft.to/lastmile_qr_scan", "ios": "https://dc.lft.to/lastmile_qr_scan"}, "fusion_lon": 0.0}, {"lat": 38.938385833333335, "is_disabled": 0, "type": "electric_bike", "lon": -76.9885975, "bike_id": "0e15146fa9479295b9ad01bba68f1a47", "fusion_lat": 0.0, "name": "0e15146fa9479295b9ad01bba68f1a47", "is_reserved": 0, "rental_uris": {"android": "https://dc.lft.to/lastmile_qr_scan", "ios": "https://dc.lft.to/lastmile_qr_scan"}, "fusion_lon": 0.0}, {"lat": 38.903933333333335, "is_disabled": 0, "type": "electric_scooter", "lon": -77.0387595, "bike_id": "c2d181f723471d66fb54e723bd6244aa", "fusion_lat": 0.0, "name": "c2d181f723471d66fb54e723bd6244aa", "is_reserved": 0, "rental_uris": {"android": "https://dc.lft.to/lastmile_qr_scan", "ios": "https://dc.lft.to/lastmile_qr_scan"}, "fusion_lon": 0.0}, {"lat": 38.87581866666667, "is_disabled": 0, "type": "electric_scooter", "lon": -77.02087733333333, "bike_id": "0805fabb7ab4f49af98a8d97297ea8b1", "fusion_lat": 0.0, "name": "0805fabb7ab4f49af98a8d97297ea8b1", "is_reserved": 0, "rental_uris": {"android": "https://dc.lft.to/lastmile_qr_scan", "ios": "https://dc.lft.to/lastmile_qr_scan"}, "fusion_lon": 0.0}, {"lat": 38.91116983333333, "is_disabled": 0, "type": "electric_scooter", "lon": -77.02770883333334, "bike_id": "e06253e50a9fc34f33088d3b6f237b24", "fusion_lat": 0.0, "name": "e06253e50a9fc34f33088d3b6f237b24", "is_reserved": 0, "rental_uris": {"android": "https://dc.lft.to/lastmile_qr_scan", "ios": "https://dc.lft.to/lastmile_qr_scan"}, "fusion_lon": 0.0}, {"lat": 38.917117833333336, "is_disabled": 0, "type": "electric_scooter", "lon": -77.03868483333333, "bike_id": "5e42dcfa118991128065c7864ce6ec9f", "fusion_lat": 0.0, "name": "5e42dcfa118991128065c7864ce6ec9f", "is_reserved": 0, "rental_uris": {"android": "https://dc.lft.to/lastmile_qr_scan", "ios": "https://dc.lft.to/lastmile_qr_scan"}, "fusion_lon": 0.0}, {"lat": 38.909771, "is_disabled": 0, "type": "electric_scooter", "lon": -77.03872183333333, "bike_id": "8ccd919e68f34b31a6606851fa5f273f", "fusion_lat": 0.0, "name": "8ccd919e68f34b31a6606851fa5f273f", "is_reserved": 0, "rental_uris": {"android": "https://dc.lft.to/lastmile_qr_scan", "ios": "https://dc.lft.to/lastmile_qr_scan"}, "fusion_lon": 0.0}, {"lat": 38.8670185, "is_disabled": 0, "type": "electric_scooter", "lon": -76.98714933333333, "bike_id": "ef0f867da3274b8c9c24fcb7ff9d39ee", "fusion_lat": 0.0, "name": "ef0f867da3274b8c9c24fcb7ff9d39ee", "is_reserved": 0, "rental_uris": {"android": "https://dc.lft.to/lastmile_qr_scan", "ios": "https://dc.lft.to/lastmile_qr_scan"}, "fusion_lon": 0.0}, {"lat": 38.90256983333333, "is_disabled": 0, "type": "electric_scooter", "lon": -77.01771266666667, "bike_id": "673c86ec900071028351bc49fe6187c2", "fusion_lat": 0.0, "name": "673c86ec900071028351bc49fe6187c2", "is_reserved": 0, "rental_uris": {"android": "https://dc.lft.to/lastmile_qr_scan", "ios": "https://dc.lft.to/lastmile_qr_scan"}, "fusion_lon": 0.0}, {"lat": 38.925140666666664, "is_disabled": 0, "type": "electric_scooter", "lon": -77.07643583333333, "bike_id": "d14cd22777ba72b73a078ac7579eeaa1", "fusion_lat": 0.0, "name": "d14cd22777ba72b73a078ac7579eeaa1", "is_reserved": 0, "rental_uris": {"android": "https://dc.lft.to/lastmile_qr_scan", "ios": "https://dc.lft.to/lastmile_qr_scan"}, "fusion_lon": 0.0}, {"lat": 38.93254433333333, "is_disabled": 0, "type": "electric_scooter", "lon": -77.06658333333333, "bike_id": "62b0c00f611ca5c1a8d2cd01b24bb9a3", "fusion_lat": 0.0, "name": "62b0c00f611ca5c1a8d2cd01b24bb9a3", "is_reserved": 0, "rental_uris": {"android": "https://dc.lft.to/lastmile_qr_scan", "ios": "https://dc.lft.to/lastmile_qr_scan"}, "fusion_lon": 0.0}, {"lat": 38.936206, "is_disabled": 0, "type": "electric_scooter", "lon": -77.0575235, "bike_id": "298e9bfffb1d9e97c1c1e98718e9bff6", "fusion_lat": 0.0, "name": "298e9bfffb1d9e97c1c1e98718e9bff6", "is_reserved": 0, "rental_uris": {"android": "https://dc.lft.to/lastmile_qr_scan", "ios": "https://dc.lft.to/lastmile_qr_scan"}, "fusion_lon": 0.0}, {"lat": 38.87990516666667, "is_disabled": 0, "type": "electric_scooter", "lon": -76.98686383333333, "bike_id": "a5f5a61faf68515babe816869cd731fe", "fusion_lat": 0.0, "name": "a5f5a61faf68515babe816869cd731fe", "is_reserved": 0, "rental_uris": {"android": "https://dc.lft.to/lastmile_qr_scan", "ios": "https://dc.lft.to/lastmile_qr_scan"}, "fusion_lon": 0.0}, {"lat": 38.8074625, "is_disabled": 0, "type": "electric_bike", "lon": -77.09434183333333, "bike_id": "6ca8619da397ea9bf901422bbeff6531", "fusion_lat": 0.0, "name": "6ca8619da397ea9bf901422bbeff6531", "is_reserved": 0, "rental_uris": {"android": "https://dc.lft.to/lastmile_qr_scan", "ios": "https://dc.lft.to/lastmile_qr_scan"}, "fusion_lon": 0.0}, {"lat": 38.947123, "is_disabled": 0, "type": "electric_scooter", "lon": -77.01937833333334, "bike_id": "ae0eec8d8eeb7c103b3801b31dd064a0", "fusion_lat": 0.0, "name": "ae0eec8d8eeb7c103b3801b31dd064a0", "is_reserved": 0, "rental_uris": {"android": "https://dc.lft.to/lastmile_qr_scan", "ios": "https://dc.lft.to/lastmile_qr_scan"}, "fusion_lon": 0.0}, {"lat": 38.93543283333333, "is_disabled": 0, "type": "electric_scooter", "lon": -77.0341675, "bike_id": "ac42b073d7a1bb85a86a599234d70600", "fusion_lat": 0.0, "name": "ac42b073d7a1bb85a86a599234d70600", "is_reserved": 0, "rental_uris": {"android": "https://dc.lft.to/lastmile_qr_scan", "ios": "https://dc.lft.to/lastmile_qr_scan"}, "fusion_lon": 0.0}, {"lat": 38.92188933333333, "is_disabled": 0, "type": "electric_scooter", "lon": -77.04128983333334, "bike_id": "62d305a18d85ee5e045b536d010b0b0d", "fusion_lat": 0.0, "name": "62d305a18d85ee5e045b536d010b0b0d", "is_reserved": 0, "rental_uris": {"android": "https://dc.lft.to/lastmile_qr_scan", "ios": "https://dc.lft.to/lastmile_qr_scan"}, "fusion_lon": 0.0}, {"lat": 38.936394, "is_disabled": 0, "type": "electric_scooter", "lon": -77.024804, "bike_id": "7c456590f10c5018fef738f77dfa8b6c", "fusion_lat": 0.0, "name": "7c456590f10c5018fef738f77dfa8b6c", "is_reserved": 0, "rental_uris": {"android": "https://dc.lft.to/lastmile_qr_scan", "ios": "https://dc.lft.to/lastmile_qr_scan"}, "fusion_lon": 0.0}, {"lat": 38.90799466666667, "is_disabled": 0, "type": "electric_scooter", "lon": -77.06340616666667, "bike_id": "27a30deb171688acde5a60b18e1247ef", "fusion_lat": 0.0, "name": "27a30deb171688acde5a60b18e1247ef", "is_reserved": 0, "rental_uris": {"android": "https://dc.lft.to/lastmile_qr_scan", "ios": "https://dc.lft.to/lastmile_qr_scan"}, "fusion_lon": 0.0}, {"lat": 38.88489516666667, "is_disabled": 0, "type": "electric_scooter", "lon": -77.03479983333334, "bike_id": "f83f1e1d9f1a6cd1c3781670192c7ff1", "fusion_lat": 0.0, "name": "f83f1e1d9f1a6cd1c3781670192c7ff1", "is_reserved": 0, "rental_uris": {"android": "https://dc.lft.to/lastmile_qr_scan", "ios": "https://dc.lft.to/lastmile_qr_scan"}, "fusion_lon": 0.0}, {"lat": 38.92535383333333, "is_disabled": 0, "type": "electric_scooter", "lon": -77.044322, "bike_id": "52fa10a548a69b1e0ee46e4ba9a924c1", "fusion_lat": 0.0, "name": "52fa10a548a69b1e0ee46e4ba9a924c1", "is_reserved": 0, "rental_uris": {"android": "https://dc.lft.to/lastmile_qr_scan", "ios": "https://dc.lft.to/lastmile_qr_scan"}, "fusion_lon": 0.0}, {"lat": 38.900442166666664, "is_disabled": 0, "type": "electric_scooter", "lon": -76.99388216666667, "bike_id": "4001040d172dc19b36e482677331391e", "fusion_lat": 0.0, "name": "4001040d172dc19b36e482677331391e", "is_reserved": 0, "rental_uris": {"android": "https://dc.lft.to/lastmile_qr_scan", "ios": "https://dc.lft.to/lastmile_qr_scan"}, "fusion_lon": 0.0}, {"lat": 38.9285475, "is_disabled": 0, "type": "electric_bike", "lon": -77.10679833333333, "bike_id": "14a4f0d5f6a5c95df897d3e58eb959dd", "fusion_lat": 0.0, "name": "14a4f0d5f6a5c95df897d3e58eb959dd", "is_reserved": 0, "rental_uris": {"android": "https://dc.lft.to/lastmile_qr_scan", "ios": "https://dc.lft.to/lastmile_qr_scan"}, "fusion_lon": 0.0}, {"lat": 38.91498833333333, "is_disabled": 0, "type": "electric_scooter", "lon": -77.032696, "bike_id": "8dc95c257fd20bbbc074ab92a54cfdb5", "fusion_lat": 0.0, "name": "8dc95c257fd20bbbc074ab92a54cfdb5", "is_reserved": 0, "rental_uris": {"android": "https://dc.lft.to/lastmile_qr_scan", "ios": "https://dc.lft.to/lastmile_qr_scan"}, "fusion_lon": 0.0}, {"lat": 38.88766583333334, "is_disabled": 0, "type": "electric_scooter", "lon": -76.9835125, "bike_id": "6cdbe229f755b93194a6fa831b929ff8", "fusion_lat": 0.0, "name": "6cdbe229f755b93194a6fa831b929ff8", "is_reserved": 0, "rental_uris": {"android": "https://dc.lft.to/lastmile_qr_scan", "ios": "https://dc.lft.to/lastmile_qr_scan"}, "fusion_lon": 0.0}, {"lat": 38.935810833333335, "is_disabled": 0, "type": "electric_scooter", "lon": -77.03756966666667, "bike_id": "cdbaebc2ae31a188b381f6e16c8fb71c", "fusion_lat": 0.0, "name": "cdbaebc2ae31a188b381f6e16c8fb71c", "is_reserved": 0, "rental_uris": {"android": "https://dc.lft.to/lastmile_qr_scan", "ios": "https://dc.lft.to/lastmile_qr_scan"}, "fusion_lon": 0.0}, {"lat": 38.8827455, "is_disabled": 0, "type": "electric_bike", "lon": -76.93239816666667, "bike_id": "45967151df0a2dabb27b4c2f52fb632c", "fusion_lat": 0.0, "name": "45967151df0a2dabb27b4c2f52fb632c", "is_reserved": 0, "rental_uris": {"android": "https://dc.lft.to/lastmile_qr_scan", "ios": "https://dc.lft.to/lastmile_qr_scan"}, "fusion_lon": 0.0}, {"lat": 38.90753766666667, "is_disabled": 0, "type": "electric_scooter", "lon": -77.04143916666666, "bike_id": "d004ef4087785d396efc478c15b517f2", "fusion_lat": 0.0, "name": "d004ef4087785d396efc478c15b517f2", "is_reserved": 0, "rental_uris": {"android": "https://dc.lft.to/lastmile_qr_scan", "ios": "https://dc.lft.to/lastmile_qr_scan"}, "fusion_lon": 0.0}, {"lat": 38.90337183333333, "is_disabled": 0, "type": "electric_scooter", "lon": -76.97056816666667, "bike_id": "bdd39cc9492c23567394bf1f594b7fb4", "fusion_lat": 0.0, "name": "bdd39cc9492c23567394bf1f594b7fb4", "is_reserved": 0, "rental_uris": {"android": "https://dc.lft.to/lastmile_qr_scan", "ios": "https://dc.lft.to/lastmile_qr_scan"}, "fusion_lon": 0.0}, {"lat": 38.911905, "is_disabled": 0, "type": "electric_scooter", "lon": -77.0446925, "bike_id": "4b9196f0fcff114d79be992357e00d07", "fusion_lat": 0.0, "name": "4b9196f0fcff114d79be992357e00d07", "is_reserved": 0, "rental_uris": {"android": "https://dc.lft.to/lastmile_qr_scan", "ios": "https://dc.lft.to/lastmile_qr_scan"}, "fusion_lon": 0.0}, {"lat": 38.900902333333335, "is_disabled": 0, "type": "electric_scooter", "lon": -77.05069833333333, "bike_id": "5bb31214b93cd4281d7ddf7d080fadef", "fusion_lat": 0.0, "name": "5bb31214b93cd4281d7ddf7d080fadef", "is_reserved": 0, "rental_uris": {"android": "https://dc.lft.to/lastmile_qr_scan", "ios": "https://dc.lft.to/lastmile_qr_scan"}, "fusion_lon": 0.0}, {"lat": 38.915671, "is_disabled": 0, "type": "electric_scooter", "lon": -77.00977533333334, "bike_id": "fdf1e931a508ec786f9aea835e09037e", "fusion_lat": 0.0, "name": "fdf1e931a508ec786f9aea835e09037e", "is_reserved": 0, "rental_uris": {"android": "https://dc.lft.to/lastmile_qr_scan", "ios": "https://dc.lft.to/lastmile_qr_scan"}, "fusion_lon": 0.0}, {"lat": 38.866187833333335, "is_disabled": 0, "type": "electric_scooter", "lon": -76.98662083333333, "bike_id": "f749768b7974781fe683eb66c4ba5eb7", "fusion_lat": 0.0, "name": "f749768b7974781fe683eb66c4ba5eb7", "is_reserved": 0, "rental_uris": {"android": "https://dc.lft.to/lastmile_qr_scan", "ios": "https://dc.lft.to/lastmile_qr_scan"}, "fusion_lon": 0.0}, {"lat": 38.950785833333335, "is_disabled": 0, "type": "electric_bike", "lon": -77.0119495, "bike_id": "4d22a4f86d773d6041f33dbb80c3c3e4", "fusion_lat": 0.0, "name": "4d22a4f86d773d6041f33dbb80c3c3e4", "is_reserved": 0, "rental_uris": {"android": "https://dc.lft.to/lastmile_qr_scan", "ios": "https://dc.lft.to/lastmile_qr_scan"}, "fusion_lon": 0.0}, {"lat": 38.90882766666667, "is_disabled": 0, "type": "electric_scooter", "lon": -77.036628, "bike_id": "d35773608a9c86c009ac61998f3aa4f7", "fusion_lat": 0.0, "name": "d35773608a9c86c009ac61998f3aa4f7", "is_reserved": 0, "rental_uris": {"android": "https://dc.lft.to/lastmile_qr_scan", "ios": "https://dc.lft.to/lastmile_qr_scan"}, "fusion_lon": 0.0}, {"lat": 38.91498766666667, "is_disabled": 0, "type": "electric_scooter", "lon": -76.98379066666666, "bike_id": "fd7df29593a984871e45325f312daaa4", "fusion_lat": 0.0, "name": "fd7df29593a984871e45325f312daaa4", "is_reserved": 0, "rental_uris": {"android": "https://dc.lft.to/lastmile_qr_scan", "ios": "https://dc.lft.to/lastmile_qr_scan"}, "fusion_lon": 0.0}, {"lat": 38.901520166666664, "is_disabled": 0, "type": "electric_scooter", "lon": -77.05102266666667, "bike_id": "164c136c6e11403f94048a5c5db83b5b", "fusion_lat": 0.0, "name": "164c136c6e11403f94048a5c5db83b5b", "is_reserved": 0, "rental_uris": {"android": "https://dc.lft.to/lastmile_qr_scan", "ios": "https://dc.lft.to/lastmile_qr_scan"}, "fusion_lon": 0.0}, {"lat": 38.89428516666667, "is_disabled": 0, "type": "electric_scooter", "lon": -77.0209485, "bike_id": "e4886d748f88931c112f31d91ed2ad0a", "fusion_lat": 0.0, "name": "e4886d748f88931c112f31d91ed2ad0a", "is_reserved": 0, "rental_uris": {"android": "https://dc.lft.to/lastmile_qr_scan", "ios": "https://dc.lft.to/lastmile_qr_scan"}, "fusion_lon": 0.0}, {"lat": 38.957377, "is_disabled": 0, "type": "electric_scooter", "lon": -77.023824, "bike_id": "781ba7c56fbc6ee1e454638ca07cafb4", "fusion_lat": 0.0, "name": "781ba7c56fbc6ee1e454638ca07cafb4", "is_reserved": 0, "rental_uris": {"android": "https://dc.lft.to/lastmile_qr_scan", "ios": "https://dc.lft.to/lastmile_qr_scan"}, "fusion_lon": 0.0}, {"lat": 38.91467683333333, "is_disabled": 0, "type": "electric_scooter", "lon": -77.02805433333333, "bike_id": "581852a41400f35aec35a9104480168d", "fusion_lat": 0.0, "name": "581852a41400f35aec35a9104480168d", "is_reserved": 0, "rental_uris": {"android": "https://dc.lft.to/lastmile_qr_scan", "ios": "https://dc.lft.to/lastmile_qr_scan"}, "fusion_lon": 0.0}, {"lat": 38.949153833333334, "is_disabled": 0, "type": "electric_scooter", "lon": -77.0086355, "bike_id": "d5f0d53387503b2401dcf501d6dee2a9", "fusion_lat": 0.0, "name": "d5f0d53387503b2401dcf501d6dee2a9", "is_reserved": 0, "rental_uris": {"android": "https://dc.lft.to/lastmile_qr_scan", "ios": "https://dc.lft.to/lastmile_qr_scan"}, "fusion_lon": 0.0}, {"lat": 38.8597355, "is_disabled": 0, "type": "electric_bike", "lon": -77.05673683333333, "bike_id": "ec8e5fa8a3586b7a06b5d5264c475144", "fusion_lat": 0.0, "name": "ec8e5fa8a3586b7a06b5d5264c475144", "is_reserved": 0, "rental_uris": {"android": "https://dc.lft.to/lastmile_qr_scan", "ios": "https://dc.lft.to/lastmile_qr_scan"}, "fusion_lon": 0.0}, {"lat": 38.9181645, "is_disabled": 0, "type": "electric_scooter", "lon": -77.013931, "bike_id": "3c611fa80a7d1eec3b70ef9882610b4f", "fusion_lat": 0.0, "name": "3c611fa80a7d1eec3b70ef9882610b4f", "is_reserved": 0, "rental_uris": {"android": "https://dc.lft.to/lastmile_qr_scan", "ios": "https://dc.lft.to/lastmile_qr_scan"}, "fusion_lon": 0.0}, {"lat": 38.90644983333333, "is_disabled": 0, "type": "electric_scooter", "lon": -77.0338005, "bike_id": "b03f45a22309720eb325d4a9b31fa939", "fusion_lat": 0.0, "name": "b03f45a22309720eb325d4a9b31fa939", "is_reserved": 0, "rental_uris": {"android": "https://dc.lft.to/lastmile_qr_scan", "ios": "https://dc.lft.to/lastmile_qr_scan"}, "fusion_lon": 0.0}, {"lat": 38.9111625, "is_disabled": 0, "type": "electric_scooter", "lon": -77.0383485, "bike_id": "501e68fe88bebd67cccadb930d41ba68", "fusion_lat": 0.0, "name": "501e68fe88bebd67cccadb930d41ba68", "is_reserved": 0, "rental_uris": {"android": "https://dc.lft.to/lastmile_qr_scan", "ios": "https://dc.lft.to/lastmile_qr_scan"}, "fusion_lon": 0.0}, {"lat": 38.91520216666667, "is_disabled": 0, "type": "electric_scooter", "lon": -77.0384565, "bike_id": "9312e52d40e36ca411745c8df3e08c21", "fusion_lat": 0.0, "name": "9312e52d40e36ca411745c8df3e08c21", "is_reserved": 0, "rental_uris": {"android": "https://dc.lft.to/lastmile_qr_scan", "ios": "https://dc.lft.to/lastmile_qr_scan"}, "fusion_lon": 0.0}, {"lat": 38.933840000000004, "is_disabled": 0, "type": "electric_scooter", "lon": -76.995148, "bike_id": "072cdc422e9369df1d495b163aa060fc", "fusion_lat": 0.0, "name": "072cdc422e9369df1d495b163aa060fc", "is_reserved": 0, "rental_uris": {"android": "https://dc.lft.to/lastmile_qr_scan", "ios": "https://dc.lft.to/lastmile_qr_scan"}, "fusion_lon": 0.0}, {"lat": 38.931179166666666, "is_disabled": 0, "type": "electric_scooter", "lon": -77.0301735, "bike_id": "05eb07bd6cdc870b8a45cf06a453a670", "fusion_lat": 0.0, "name": "05eb07bd6cdc870b8a45cf06a453a670", "is_reserved": 0, "rental_uris": {"android": "https://dc.lft.to/lastmile_qr_scan", "ios": "https://dc.lft.to/lastmile_qr_scan"}, "fusion_lon": 0.0}, {"lat": 38.9176335, "is_disabled": 0, "type": "electric_scooter", "lon": -77.03661666666666, "bike_id": "45478f0620f6dc18ec2ac575f7289f60", "fusion_lat": 0.0, "name": "45478f0620f6dc18ec2ac575f7289f60", "is_reserved": 0, "rental_uris": {"android": "https://dc.lft.to/lastmile_qr_scan", "ios": "https://dc.lft.to/lastmile_qr_scan"}, "fusion_lon": 0.0}, {"lat": 38.93568466666667, "is_disabled": 0, "type": "electric_scooter", "lon": -77.032601, "bike_id": "7592554864c2a1ac404f55a47861b65c", "fusion_lat": 0.0, "name": "7592554864c2a1ac404f55a47861b65c", "is_reserved": 0, "rental_uris": {"android": "https://dc.lft.to/lastmile_qr_scan", "ios": "https://dc.lft.to/lastmile_qr_scan"}, "fusion_lon": 0.0}, {"lat": 38.90563683333333, "is_disabled": 0, "type": "electric_scooter", "lon": -77.03622816666666, "bike_id": "b9b779290cdf5faf2f60ccb2632d2d48", "fusion_lat": 0.0, "name": "b9b779290cdf5faf2f60ccb2632d2d48", "is_reserved": 0, "rental_uris": {"android": "https://dc.lft.to/lastmile_qr_scan", "ios": "https://dc.lft.to/lastmile_qr_scan"}, "fusion_lon": 0.0}, {"lat": 38.915318666666664, "is_disabled": 0, "type": "electric_scooter", "lon": -77.03211133333333, "bike_id": "2457125f20039ec6d739e422cd840f76", "fusion_lat": 0.0, "name": "2457125f20039ec6d739e422cd840f76", "is_reserved": 0, "rental_uris": {"android": "https://dc.lft.to/lastmile_qr_scan", "ios": "https://dc.lft.to/lastmile_qr_scan"}, "fusion_lon": 0.0}, {"lat": 38.902763666666665, "is_disabled": 0, "type": "electric_scooter", "lon": -77.033789, "bike_id": "2c85c78414c526574f334ed20f2b2a1f", "fusion_lat": 0.0, "name": "2c85c78414c526574f334ed20f2b2a1f", "is_reserved": 0, "rental_uris": {"android": "https://dc.lft.to/lastmile_qr_scan", "ios": "https://dc.lft.to/lastmile_qr_scan"}, "fusion_lon": 0.0}, {"lat": 38.91741233333333, "is_disabled": 0, "type": "electric_scooter", "lon": -77.02521733333333, "bike_id": "d1acef6067e9c1a00566e1826e302e1e", "fusion_lat": 0.0, "name": "d1acef6067e9c1a00566e1826e302e1e", "is_reserved": 0, "rental_uris": {"android": "https://dc.lft.to/lastmile_qr_scan", "ios": "https://dc.lft.to/lastmile_qr_scan"}, "fusion_lon": 0.0}, {"lat": 38.92152983333333, "is_disabled": 0, "type": "electric_scooter", "lon": -77.038709, "bike_id": "8e3ad0454771cb88320e4c0d8a16d83d", "fusion_lat": 0.0, "name": "8e3ad0454771cb88320e4c0d8a16d83d", "is_reserved": 0, "rental_uris": {"android": "https://dc.lft.to/lastmile_qr_scan", "ios": "https://dc.lft.to/lastmile_qr_scan"}, "fusion_lon": 0.0}, {"lat": 38.927883666666666, "is_disabled": 0, "type": "electric_scooter", "lon": -77.0525005, "bike_id": "7dd0ac59d2e059ee48cd0684533507eb", "fusion_lat": 0.0, "name": "7dd0ac59d2e059ee48cd0684533507eb", "is_reserved": 0, "rental_uris": {"android": "https://dc.lft.to/lastmile_qr_scan", "ios": "https://dc.lft.to/lastmile_qr_scan"}, "fusion_lon": 0.0}, {"lat": 38.898497166666665, "is_disabled": 0, "type": "electric_bike", "lon": -76.93189883333334, "bike_id": "386ba00359c500c47dab8eec22ce1979", "fusion_lat": 0.0, "name": "386ba00359c500c47dab8eec22ce1979", "is_reserved": 0, "rental_uris": {"android": "https://dc.lft.to/lastmile_qr_scan", "ios": "https://dc.lft.to/lastmile_qr_scan"}, "fusion_lon": 0.0}, {"lat": 38.8960475, "is_disabled": 0, "type": "electric_scooter", "lon": -77.00926766666667, "bike_id": "f54f68f28c19c956deb64eb5db5191da", "fusion_lat": 0.0, "name": "f54f68f28c19c956deb64eb5db5191da", "is_reserved": 0, "rental_uris": {"android": "https://dc.lft.to/lastmile_qr_scan", "ios": "https://dc.lft.to/lastmile_qr_scan"}, "fusion_lon": 0.0}, {"lat": 38.937056166666665, "is_disabled": 0, "type": "electric_scooter", "lon": -77.06103783333333, "bike_id": "efcd30989cb41db00b471984299d3c7c", "fusion_lat": 0.0, "name": "efcd30989cb41db00b471984299d3c7c", "is_reserved": 0, "rental_uris": {"android": "https://dc.lft.to/lastmile_qr_scan", "ios": "https://dc.lft.to/lastmile_qr_scan"}, "fusion_lon": 0.0}, {"lat": 38.888004, "is_disabled": 0, "type": "electric_scooter", "lon": -76.93361733333333, "bike_id": "97fda2e7c7ef614dc5ad6108e5812d94", "fusion_lat": 0.0, "name": "97fda2e7c7ef614dc5ad6108e5812d94", "is_reserved": 0, "rental_uris": {"android": "https://dc.lft.to/lastmile_qr_scan", "ios": "https://dc.lft.to/lastmile_qr_scan"}, "fusion_lon": 0.0}, {"lat": 38.870734, "is_disabled": 0, "type": "electric_bike", "lon": -76.9784465, "bike_id": "ffa0109fd7b7c98ff5e5a1ec05747d35", "fusion_lat": 0.0, "name": "ffa0109fd7b7c98ff5e5a1ec05747d35", "is_reserved": 0, "rental_uris": {"android": "https://dc.lft.to/lastmile_qr_scan", "ios": "https://dc.lft.to/lastmile_qr_scan"}, "fusion_lon": 0.0}, {"lat": 38.923539166666664, "is_disabled": 0, "type": "electric_scooter", "lon": -77.05436133333333, "bike_id": "b15c63cfd4b0d5f13429c79768be3007", "fusion_lat": 0.0, "name": "b15c63cfd4b0d5f13429c79768be3007", "is_reserved": 0, "rental_uris": {"android": "https://dc.lft.to/lastmile_qr_scan", "ios": "https://dc.lft.to/lastmile_qr_scan"}, "fusion_lon": 0.0}, {"lat": 38.915581, "is_disabled": 0, "type": "electric_scooter", "lon": -77.010439, "bike_id": "8a9ef158751ce3f9b1a6ee619ecd7aca", "fusion_lat": 0.0, "name": "8a9ef158751ce3f9b1a6ee619ecd7aca", "is_reserved": 0, "rental_uris": {"android": "https://dc.lft.to/lastmile_qr_scan", "ios": "https://dc.lft.to/lastmile_qr_scan"}, "fusion_lon": 0.0}, {"lat": 38.827881166666664, "is_disabled": 0, "type": "electric_bike", "lon": -77.00921833333334, "bike_id": "68b8ea4699093e479ac0babb0af432ba", "fusion_lat": 0.0, "name": "68b8ea4699093e479ac0babb0af432ba", "is_reserved": 0, "rental_uris": {"android": "https://dc.lft.to/lastmile_qr_scan", "ios": "https://dc.lft.to/lastmile_qr_scan"}, "fusion_lon": 0.0}, {"lat": 38.909748666666665, "is_disabled": 0, "type": "electric_bike", "lon": -77.08818, "bike_id": "452c93d75ca8c589b95491370f21ae2d", "fusion_lat": 0.0, "name": "452c93d75ca8c589b95491370f21ae2d", "is_reserved": 0, "rental_uris": {"android": "https://dc.lft.to/lastmile_qr_scan", "ios": "https://dc.lft.to/lastmile_qr_scan"}, "fusion_lon": 0.0}, {"lat": 38.932981, "is_disabled": 0, "type": "electric_scooter", "lon": -77.0453345, "bike_id": "8d55a86dcb2804411b21889ed80a5439", "fusion_lat": 0.0, "name": "8d55a86dcb2804411b21889ed80a5439", "is_reserved": 0, "rental_uris": {"android": "https://dc.lft.to/lastmile_qr_scan", "ios": "https://dc.lft.to/lastmile_qr_scan"}, "fusion_lon": 0.0}, {"lat": 38.984259, "is_disabled": 0, "type": "electric_scooter", "lon": -77.02674416666666, "bike_id": "bca7df558002d255fea8ef3ec9eb973a", "fusion_lat": 0.0, "name": "bca7df558002d255fea8ef3ec9eb973a", "is_reserved": 0, "rental_uris": {"android": "https://dc.lft.to/lastmile_qr_scan", "ios": "https://dc.lft.to/lastmile_qr_scan"}, "fusion_lon": 0.0}, {"lat": 38.91468366666667, "is_disabled": 0, "type": "electric_scooter", "lon": -77.01434916666666, "bike_id": "7cafb2c4cd7c09a6dd7d6c99a80b024a", "fusion_lat": 0.0, "name": "7cafb2c4cd7c09a6dd7d6c99a80b024a", "is_reserved": 0, "rental_uris": {"android": "https://dc.lft.to/lastmile_qr_scan", "ios": "https://dc.lft.to/lastmile_qr_scan"}, "fusion_lon": 0.0}, {"lat": 38.87719383333334, "is_disabled": 0, "type": "electric_scooter", "lon": -77.00324683333334, "bike_id": "6865eba6f58b8a8797a405aaae071a86", "fusion_lat": 0.0, "name": "6865eba6f58b8a8797a405aaae071a86", "is_reserved": 0, "rental_uris": {"android": "https://dc.lft.to/lastmile_qr_scan", "ios": "https://dc.lft.to/lastmile_qr_scan"}, "fusion_lon": 0.0}, {"lat": 38.90140066666667, "is_disabled": 0, "type": "electric_scooter", "lon": -77.0290145, "bike_id": "400ebc6fc47509cd8379aa1eacb66a4f", "fusion_lat": 0.0, "name": "400ebc6fc47509cd8379aa1eacb66a4f", "is_reserved": 0, "rental_uris": {"android": "https://dc.lft.to/lastmile_qr_scan", "ios": "https://dc.lft.to/lastmile_qr_scan"}, "fusion_lon": 0.0}, {"lat": 39.03051266666667, "is_disabled": 0, "type": "electric_bike", "lon": -77.0948515, "bike_id": "de8bee1434b7a35e8aa7c0d1ed3d4899", "fusion_lat": 0.0, "name": "de8bee1434b7a35e8aa7c0d1ed3d4899", "is_reserved": 0, "rental_uris": {"android": "https://dc.lft.to/lastmile_qr_scan", "ios": "https://dc.lft.to/lastmile_qr_scan"}, "fusion_lon": 0.0}, {"lat": 38.90203666666667, "is_disabled": 0, "type": "electric_scooter", "lon": -77.02370116666667, "bike_id": "3230422ff3bc000e09a4bbd828b86030", "fusion_lat": 0.0, "name": "3230422ff3bc000e09a4bbd828b86030", "is_reserved": 0, "rental_uris": {"android": "https://dc.lft.to/lastmile_qr_scan", "ios": "https://dc.lft.to/lastmile_qr_scan"}, "fusion_lon": 0.0}, {"lat": 39.02438816666667, "is_disabled": 0, "type": "electric_bike", "lon": -77.13100116666666, "bike_id": "3fbb82bb160297c1d06db279b867a01b", "fusion_lat": 0.0, "name": "3fbb82bb160297c1d06db279b867a01b", "is_reserved": 0, "rental_uris": {"android": "https://dc.lft.to/lastmile_qr_scan", "ios": "https://dc.lft.to/lastmile_qr_scan"}, "fusion_lon": 0.0}, {"lat": 38.949764, "is_disabled": 0, "type": "electric_scooter", "lon": -77.0676115, "bike_id": "0f914a84fae9d8c735192842a87a7675", "fusion_lat": 0.0, "name": "0f914a84fae9d8c735192842a87a7675", "is_reserved": 0, "rental_uris": {"android": "https://dc.lft.to/lastmile_qr_scan", "ios": "https://dc.lft.to/lastmile_qr_scan"}, "fusion_lon": 0.0}, {"lat": 38.90626, "is_disabled": 0, "type": "electric_scooter", "lon": -76.987009, "bike_id": "d1f137d04a4d9090b6e6241ac0bce04d", "fusion_lat": 0.0, "name": "d1f137d04a4d9090b6e6241ac0bce04d", "is_reserved": 0, "rental_uris": {"android": "https://dc.lft.to/lastmile_qr_scan", "ios": "https://dc.lft.to/lastmile_qr_scan"}, "fusion_lon": 0.0}, {"lat": 38.903974166666664, "is_disabled": 0, "type": "electric_scooter", "lon": -77.01773266666666, "bike_id": "7f93b3550d8e602e6578a9644c7cae91", "fusion_lat": 0.0, "name": "7f93b3550d8e602e6578a9644c7cae91", "is_reserved": 0, "rental_uris": {"android": "https://dc.lft.to/lastmile_qr_scan", "ios": "https://dc.lft.to/lastmile_qr_scan"}, "fusion_lon": 0.0}, {"lat": 38.936516833333336, "is_disabled": 0, "type": "electric_scooter", "lon": -77.0366185, "bike_id": "74dfa5a5120cf7a1b0e445e3ac2827fc", "fusion_lat": 0.0, "name": "74dfa5a5120cf7a1b0e445e3ac2827fc", "is_reserved": 0, "rental_uris": {"android": "https://dc.lft.to/lastmile_qr_scan", "ios": "https://dc.lft.to/lastmile_qr_scan"}, "fusion_lon": 0.0}, {"lat": 38.99822966666667, "is_disabled": 0, "type": "electric_bike", "lon": -76.88376033333333, "bike_id": "97a7e473a277ea26174c60aa23291e6f", "fusion_lat": 0.0, "name": "97a7e473a277ea26174c60aa23291e6f", "is_reserved": 0, "rental_uris": {"android": "https://dc.lft.to/lastmile_qr_scan", "ios": "https://dc.lft.to/lastmile_qr_scan"}, "fusion_lon": 0.0}, {"lat": 38.913160833333336, "is_disabled": 0, "type": "electric_scooter", "lon": -76.98641566666667, "bike_id": "86639aff22a905ba6e9fbe118f9d1092", "fusion_lat": 0.0, "name": "86639aff22a905ba6e9fbe118f9d1092", "is_reserved": 0, "rental_uris": {"android": "https://dc.lft.to/lastmile_qr_scan", "ios": "https://dc.lft.to/lastmile_qr_scan"}, "fusion_lon": 0.0}, {"lat": 38.9516755, "is_disabled": 0, "type": "electric_scooter", "lon": -77.06768733333334, "bike_id": "bff812b98a56cf19fcef6b95e9488bf4", "fusion_lat": 0.0, "name": "bff812b98a56cf19fcef6b95e9488bf4", "is_reserved": 0, "rental_uris": {"android": "https://dc.lft.to/lastmile_qr_scan", "ios": "https://dc.lft.to/lastmile_qr_scan"}, "fusion_lon": 0.0}, {"lat": 38.844274, "is_disabled": 0, "type": "electric_scooter", "lon": -76.997792, "bike_id": "a43642a4020c6e0c9279825141a45c11", "fusion_lat": 0.0, "name": "a43642a4020c6e0c9279825141a45c11", "is_reserved": 0, "rental_uris": {"android": "https://dc.lft.to/lastmile_qr_scan", "ios": "https://dc.lft.to/lastmile_qr_scan"}, "fusion_lon": 0.0}, {"lat": 38.9241825, "is_disabled": 0, "type": "electric_scooter", "lon": -77.035403, "bike_id": "cdef52a907547c4ae4cb30c670b1abe3", "fusion_lat": 0.0, "name": "cdef52a907547c4ae4cb30c670b1abe3", "is_reserved": 0, "rental_uris": {"android": "https://dc.lft.to/lastmile_qr_scan", "ios": "https://dc.lft.to/lastmile_qr_scan"}, "fusion_lon": 0.0}, {"lat": 38.923045, "is_disabled": 0, "type": "electric_bike", "lon": -76.99390433333333, "bike_id": "fc9af0c5d6b816b0124bb3dc8290d7cd", "fusion_lat": 0.0, "name": "fc9af0c5d6b816b0124bb3dc8290d7cd", "is_reserved": 0, "rental_uris": {"android": "https://dc.lft.to/lastmile_qr_scan", "ios": "https://dc.lft.to/lastmile_qr_scan"}, "fusion_lon": 0.0}, {"lat": 38.9076925, "is_disabled": 0, "type": "electric_scooter", "lon": -77.038444, "bike_id": "ae02db8e68af44273087ba097360248e", "fusion_lat": 0.0, "name": "ae02db8e68af44273087ba097360248e", "is_reserved": 0, "rental_uris": {"android": "https://dc.lft.to/lastmile_qr_scan", "ios": "https://dc.lft.to/lastmile_qr_scan"}, "fusion_lon": 0.0}, {"lat": 38.950292833333336, "is_disabled": 0, "type": "electric_bike", "lon": -77.029605, "bike_id": "f6b06aab0f1b4a86f411867f716f2280", "fusion_lat": 0.0, "name": "f6b06aab0f1b4a86f411867f716f2280", "is_reserved": 0, "rental_uris": {"android": "https://dc.lft.to/lastmile_qr_scan", "ios": "https://dc.lft.to/lastmile_qr_scan"}, "fusion_lon": 0.0}, {"lat": 38.914738666666665, "is_disabled": 0, "type": "electric_scooter", "lon": -77.00348416666667, "bike_id": "079a505ccd55be91a91748ab60792733", "fusion_lat": 0.0, "name": "079a505ccd55be91a91748ab60792733", "is_reserved": 0, "rental_uris": {"android": "https://dc.lft.to/lastmile_qr_scan", "ios": "https://dc.lft.to/lastmile_qr_scan"}, "fusion_lon": 0.0}, {"lat": 38.90299533333334, "is_disabled": 0, "type": "electric_scooter", "lon": -77.00047316666667, "bike_id": "9a235eaac99788a62691de8c1b366729", "fusion_lat": 0.0, "name": "9a235eaac99788a62691de8c1b366729", "is_reserved": 0, "rental_uris": {"android": "https://dc.lft.to/lastmile_qr_scan", "ios": "https://dc.lft.to/lastmile_qr_scan"}, "fusion_lon": 0.0}, {"lat": 38.92486383333333, "is_disabled": 0, "type": "electric_scooter", "lon": -77.02836583333334, "bike_id": "24654f6b4ec13411a32765b55eeda3c8", "fusion_lat": 0.0, "name": "24654f6b4ec13411a32765b55eeda3c8", "is_reserved": 0, "rental_uris": {"android": "https://dc.lft.to/lastmile_qr_scan", "ios": "https://dc.lft.to/lastmile_qr_scan"}, "fusion_lon": 0.0}, {"lat": 38.92197383333333, "is_disabled": 0, "type": "electric_scooter", "lon": -77.03971416666667, "bike_id": "c0a735208c22e1eb138c0619f1403128", "fusion_lat": 0.0, "name": "c0a735208c22e1eb138c0619f1403128", "is_reserved": 0, "rental_uris": {"android": "https://dc.lft.to/lastmile_qr_scan", "ios": "https://dc.lft.to/lastmile_qr_scan"}, "fusion_lon": 0.0}, {"lat": 38.98649983333333, "is_disabled": 0, "type": "electric_bike", "lon": -77.05641266666666, "bike_id": "88df99ed15ebed298fbe269f5a035ec3", "fusion_lat": 0.0, "name": "88df99ed15ebed298fbe269f5a035ec3", "is_reserved": 0, "rental_uris": {"android": "https://dc.lft.to/lastmile_qr_scan", "ios": "https://dc.lft.to/lastmile_qr_scan"}, "fusion_lon": 0.0}, {"lat": 38.9069255, "is_disabled": 0, "type": "electric_scooter", "lon": -77.06277366666667, "bike_id": "6980f77afa8b56c0efbadf2be337b11a", "fusion_lat": 0.0, "name": "6980f77afa8b56c0efbadf2be337b11a", "is_reserved": 0, "rental_uris": {"android": "https://dc.lft.to/lastmile_qr_scan", "ios": "https://dc.lft.to/lastmile_qr_scan"}, "fusion_lon": 0.0}, {"lat": 38.91552866666667, "is_disabled": 0, "type": "electric_scooter", "lon": -77.012369, "bike_id": "e255d3362bf7bdd6da897d71b23c7867", "fusion_lat": 0.0, "name": "e255d3362bf7bdd6da897d71b23c7867", "is_reserved": 0, "rental_uris": {"android": "https://dc.lft.to/lastmile_qr_scan", "ios": "https://dc.lft.to/lastmile_qr_scan"}, "fusion_lon": 0.0}, {"lat": 38.895493, "is_disabled": 0, "type": "electric_scooter", "lon": -77.02275533333334, "bike_id": "eb48c4c1493d93b120a7969400ff9f1f", "fusion_lat": 0.0, "name": "eb48c4c1493d93b120a7969400ff9f1f", "is_reserved": 0, "rental_uris": {"android": "https://dc.lft.to/lastmile_qr_scan", "ios": "https://dc.lft.to/lastmile_qr_scan"}, "fusion_lon": 0.0}, {"lat": 38.985020666666664, "is_disabled": 0, "type": "electric_bike", "lon": -76.98202416666666, "bike_id": "aebf93cf15334fe7f79f7328d8a0ec9e", "fusion_lat": 0.0, "name": "aebf93cf15334fe7f79f7328d8a0ec9e", "is_reserved": 0, "rental_uris": {"android": "https://dc.lft.to/lastmile_qr_scan", "ios": "https://dc.lft.to/lastmile_qr_scan"}, "fusion_lon": 0.0}, {"lat": 38.80577316666667, "is_disabled": 0, "type": "electric_bike", "lon": -77.0685875, "bike_id": "b7d1c46592d44ee5f2226f4c4aee2737", "fusion_lat": 0.0, "name": "b7d1c46592d44ee5f2226f4c4aee2737", "is_reserved": 0, "rental_uris": {"android": "https://dc.lft.to/lastmile_qr_scan", "ios": "https://dc.lft.to/lastmile_qr_scan"}, "fusion_lon": 0.0}, {"lat": 38.92055966666667, "is_disabled": 0, "type": "electric_scooter", "lon": -77.02441766666666, "bike_id": "329be81bcd23b6849d48c4a6b8bc5c8d", "fusion_lat": 0.0, "name": "329be81bcd23b6849d48c4a6b8bc5c8d", "is_reserved": 0, "rental_uris": {"android": "https://dc.lft.to/lastmile_qr_scan", "ios": "https://dc.lft.to/lastmile_qr_scan"}, "fusion_lon": 0.0}, {"lat": 38.86395783333333, "is_disabled": 0, "type": "electric_bike", "lon": -76.97441916666666, "bike_id": "efe8439eb1bb9270adbb4869805b58cb", "fusion_lat": 0.0, "name": "efe8439eb1bb9270adbb4869805b58cb", "is_reserved": 0, "rental_uris": {"android": "https://dc.lft.to/lastmile_qr_scan", "ios": "https://dc.lft.to/lastmile_qr_scan"}, "fusion_lon": 0.0}, {"lat": 38.90201366666667, "is_disabled": 0, "type": "electric_scooter", "lon": -77.02377883333334, "bike_id": "8a4af88eb13770c1fbce532ff197d5c3", "fusion_lat": 0.0, "name": "8a4af88eb13770c1fbce532ff197d5c3", "is_reserved": 0, "rental_uris": {"android": "https://dc.lft.to/lastmile_qr_scan", "ios": "https://dc.lft.to/lastmile_qr_scan"}, "fusion_lon": 0.0}, {"lat": 38.90104516666667, "is_disabled": 0, "type": "electric_scooter", "lon": -77.04972966666666, "bike_id": "3d2d6778f661402cab7010640c602e72", "fusion_lat": 0.0, "name": "3d2d6778f661402cab7010640c602e72", "is_reserved": 0, "rental_uris": {"android": "https://dc.lft.to/lastmile_qr_scan", "ios": "https://dc.lft.to/lastmile_qr_scan"}, "fusion_lon": 0.0}, {"lat": 38.90016583333333, "is_disabled": 0, "type": "electric_scooter", "lon": -76.99570766666666, "bike_id": "296c72e12c7529b352a7e14c527ccf26", "fusion_lat": 0.0, "name": "296c72e12c7529b352a7e14c527ccf26", "is_reserved": 0, "rental_uris": {"android": "https://dc.lft.to/lastmile_qr_scan", "ios": "https://dc.lft.to/lastmile_qr_scan"}, "fusion_lon": 0.0}, {"lat": 38.92016266666667, "is_disabled": 0, "type": "electric_bike", "lon": -77.045381, "bike_id": "8f49f25219e4bbfd0ba8e54b207ac20f", "fusion_lat": 0.0, "name": "8f49f25219e4bbfd0ba8e54b207ac20f", "is_reserved": 0, "rental_uris": {"android": "https://dc.lft.to/lastmile_qr_scan", "ios": "https://dc.lft.to/lastmile_qr_scan"}, "fusion_lon": 0.0}, {"lat": 38.9009235, "is_disabled": 0, "type": "electric_scooter", "lon": -77.0505905, "bike_id": "97dac6be48333f95f48d79d1505b94c7", "fusion_lat": 0.0, "name": "97dac6be48333f95f48d79d1505b94c7", "is_reserved": 0, "rental_uris": {"android": "https://dc.lft.to/lastmile_qr_scan", "ios": "https://dc.lft.to/lastmile_qr_scan"}, "fusion_lon": 0.0}, {"lat": 38.923584166666664, "is_disabled": 0, "type": "electric_scooter", "lon": -77.03420066666666, "bike_id": "12c3fda1fcaa91c62b350747763f57e8", "fusion_lat": 0.0, "name": "12c3fda1fcaa91c62b350747763f57e8", "is_reserved": 0, "rental_uris": {"android": "https://dc.lft.to/lastmile_qr_scan", "ios": "https://dc.lft.to/lastmile_qr_scan"}, "fusion_lon": 0.0}, {"lat": 38.920311166666664, "is_disabled": 0, "type": "electric_scooter", "lon": -77.03046, "bike_id": "b93bb9e42d65ec66bf938978f420adbd", "fusion_lat": 0.0, "name": "b93bb9e42d65ec66bf938978f420adbd", "is_reserved": 0, "rental_uris": {"android": "https://dc.lft.to/lastmile_qr_scan", "ios": "https://dc.lft.to/lastmile_qr_scan"}, "fusion_lon": 0.0}, {"lat": 38.93074633333333, "is_disabled": 0, "type": "electric_scooter", "lon": -77.03411316666667, "bike_id": "56857c5f9341addc63a993a5b1a7651d", "fusion_lat": 0.0, "name": "56857c5f9341addc63a993a5b1a7651d", "is_reserved": 0, "rental_uris": {"android": "https://dc.lft.to/lastmile_qr_scan", "ios": "https://dc.lft.to/lastmile_qr_scan"}, "fusion_lon": 0.0}, {"lat": 38.92060133333333, "is_disabled": 0, "type": "electric_scooter", "lon": -77.04240416666667, "bike_id": "5d66e03ded2500557a6dc168c82c9cf5", "fusion_lat": 0.0, "name": "5d66e03ded2500557a6dc168c82c9cf5", "is_reserved": 0, "rental_uris": {"android": "https://dc.lft.to/lastmile_qr_scan", "ios": "https://dc.lft.to/lastmile_qr_scan"}, "fusion_lon": 0.0}, {"lat": 38.901443666666665, "is_disabled": 0, "type": "electric_scooter", "lon": -77.04147766666667, "bike_id": "54c478b45c353955fc253d2382d1f591", "fusion_lat": 0.0, "name": "54c478b45c353955fc253d2382d1f591", "is_reserved": 0, "rental_uris": {"android": "https://dc.lft.to/lastmile_qr_scan", "ios": "https://dc.lft.to/lastmile_qr_scan"}, "fusion_lon": 0.0}, {"lat": 38.90198316666667, "is_disabled": 0, "type": "electric_scooter", "lon": -77.02510483333333, "bike_id": "b31e0fa32cc4c2b80a040eb516db9a30", "fusion_lat": 0.0, "name": "b31e0fa32cc4c2b80a040eb516db9a30", "is_reserved": 0, "rental_uris": {"android": "https://dc.lft.to/lastmile_qr_scan", "ios": "https://dc.lft.to/lastmile_qr_scan"}, "fusion_lon": 0.0}, {"lat": 38.9201365, "is_disabled": 0, "type": "electric_scooter", "lon": -77.023909, "bike_id": "bade23c159ce8ddb918258cc965dd744", "fusion_lat": 0.0, "name": "bade23c159ce8ddb918258cc965dd744", "is_reserved": 0, "rental_uris": {"android": "https://dc.lft.to/lastmile_qr_scan", "ios": "https://dc.lft.to/lastmile_qr_scan"}, "fusion_lon": 0.0}, {"lat": 38.90893583333333, "is_disabled": 0, "type": "electric_bike", "lon": -77.00270666666667, "bike_id": "83842c188958ff2d1b3bccc3cc7f29b5", "fusion_lat": 0.0, "name": "83842c188958ff2d1b3bccc3cc7f29b5", "is_reserved": 0, "rental_uris": {"android": "https://dc.lft.to/lastmile_qr_scan", "ios": "https://dc.lft.to/lastmile_qr_scan"}, "fusion_lon": 0.0}, {"lat": 38.857316, "is_disabled": 0, "type": "electric_scooter", "lon": -76.99430316666667, "bike_id": "bfa57f6b7918fbde1b29c7906ba0e1d7", "fusion_lat": 0.0, "name": "bfa57f6b7918fbde1b29c7906ba0e1d7", "is_reserved": 0, "rental_uris": {"android": "https://dc.lft.to/lastmile_qr_scan", "ios": "https://dc.lft.to/lastmile_qr_scan"}, "fusion_lon": 0.0}, {"lat": 38.90969916666667, "is_disabled": 0, "type": "electric_scooter", "lon": -77.03437083333333, "bike_id": "ff3a3d471974f64102a62c01af18bcc8", "fusion_lat": 0.0, "name": "ff3a3d471974f64102a62c01af18bcc8", "is_reserved": 0, "rental_uris": {"android": "https://dc.lft.to/lastmile_qr_scan", "ios": "https://dc.lft.to/lastmile_qr_scan"}, "fusion_lon": 0.0}, {"lat": 38.91714533333333, "is_disabled": 0, "type": "electric_scooter", "lon": -77.03064483333333, "bike_id": "903d9542bc372b9793275991a673baac", "fusion_lat": 0.0, "name": "903d9542bc372b9793275991a673baac", "is_reserved": 0, "rental_uris": {"android": "https://dc.lft.to/lastmile_qr_scan", "ios": "https://dc.lft.to/lastmile_qr_scan"}, "fusion_lon": 0.0}, {"lat": 38.94440933333333, "is_disabled": 0, "type": "electric_scooter", "lon": -77.02346816666666, "bike_id": "698f2c6a744758af78e718370172e5b7", "fusion_lat": 0.0, "name": "698f2c6a744758af78e718370172e5b7", "is_reserved": 0, "rental_uris": {"android": "https://dc.lft.to/lastmile_qr_scan", "ios": "https://dc.lft.to/lastmile_qr_scan"}, "fusion_lon": 0.0}, {"lat": 38.908071166666666, "is_disabled": 0, "type": "electric_scooter", "lon": -76.98279583333333, "bike_id": "1952d1dba1cbc77e54feaa6223eaaabb", "fusion_lat": 0.0, "name": "1952d1dba1cbc77e54feaa6223eaaabb", "is_reserved": 0, "rental_uris": {"android": "https://dc.lft.to/lastmile_qr_scan", "ios": "https://dc.lft.to/lastmile_qr_scan"}, "fusion_lon": 0.0}, {"lat": 38.955641666666665, "is_disabled": 0, "type": "electric_scooter", "lon": -77.022427, "bike_id": "ae2f3145325f3d0f555a0b73001075b5", "fusion_lat": 0.0, "name": "ae2f3145325f3d0f555a0b73001075b5", "is_reserved": 0, "rental_uris": {"android": "https://dc.lft.to/lastmile_qr_scan", "ios": "https://dc.lft.to/lastmile_qr_scan"}, "fusion_lon": 0.0}, {"lat": 38.865590166666664, "is_disabled": 0, "type": "electric_scooter", "lon": -76.98950366666666, "bike_id": "a3e524a594137afc3a21823e3e36aa71", "fusion_lat": 0.0, "name": "a3e524a594137afc3a21823e3e36aa71", "is_reserved": 0, "rental_uris": {"android": "https://dc.lft.to/lastmile_qr_scan", "ios": "https://dc.lft.to/lastmile_qr_scan"}, "fusion_lon": 0.0}, {"lat": 38.90916266666667, "is_disabled": 0, "type": "electric_scooter", "lon": -77.036441, "bike_id": "186ae8e03dbb47f4d0d6537c89706e46", "fusion_lat": 0.0, "name": "186ae8e03dbb47f4d0d6537c89706e46", "is_reserved": 0, "rental_uris": {"android": "https://dc.lft.to/lastmile_qr_scan", "ios": "https://dc.lft.to/lastmile_qr_scan"}, "fusion_lon": 0.0}, {"lat": 38.901859, "is_disabled": 0, "type": "electric_scooter", "lon": -77.02502266666667, "bike_id": "42a3e415628019ffa4ada2fa2fc7d6bc", "fusion_lat": 0.0, "name": "42a3e415628019ffa4ada2fa2fc7d6bc", "is_reserved": 0, "rental_uris": {"android": "https://dc.lft.to/lastmile_qr_scan", "ios": "https://dc.lft.to/lastmile_qr_scan"}, "fusion_lon": 0.0}, {"lat": 38.92894066666667, "is_disabled": 0, "type": "electric_bike", "lon": -77.05781416666666, "bike_id": "3b42fef4036bcc4608b2b62f07300d1d", "fusion_lat": 0.0, "name": "3b42fef4036bcc4608b2b62f07300d1d", "is_reserved": 0, "rental_uris": {"android": "https://dc.lft.to/lastmile_qr_scan", "ios": "https://dc.lft.to/lastmile_qr_scan"}, "fusion_lon": 0.0}, {"lat": 38.930369, "is_disabled": 0, "type": "electric_scooter", "lon": -77.02962, "bike_id": "e139acf92dffa622975cac52d0c326cf", "fusion_lat": 0.0, "name": "e139acf92dffa622975cac52d0c326cf", "is_reserved": 0, "rental_uris": {"android": "https://dc.lft.to/lastmile_qr_scan", "ios": "https://dc.lft.to/lastmile_qr_scan"}, "fusion_lon": 0.0}, {"lat": 38.937930333333334, "is_disabled": 0, "type": "electric_scooter", "lon": -77.02434733333334, "bike_id": "6cbe4251ca397f0c07a4e942305bb759", "fusion_lat": 0.0, "name": "6cbe4251ca397f0c07a4e942305bb759", "is_reserved": 0, "rental_uris": {"android": "https://dc.lft.to/lastmile_qr_scan", "ios": "https://dc.lft.to/lastmile_qr_scan"}, "fusion_lon": 0.0}, {"lat": 38.908538166666666, "is_disabled": 0, "type": "electric_scooter", "lon": -77.00626633333333, "bike_id": "6c8b3834466d1e84202a77abf2f932af", "fusion_lat": 0.0, "name": "6c8b3834466d1e84202a77abf2f932af", "is_reserved": 0, "rental_uris": {"android": "https://dc.lft.to/lastmile_qr_scan", "ios": "https://dc.lft.to/lastmile_qr_scan"}, "fusion_lon": 0.0}, {"lat": 38.9180825, "is_disabled": 0, "type": "electric_bike", "lon": -77.22342333333333, "bike_id": "324d035cf57d77da0513e6877306b7bf", "fusion_lat": 0.0, "name": "324d035cf57d77da0513e6877306b7bf", "is_reserved": 0, "rental_uris": {"android": "https://dc.lft.to/lastmile_qr_scan", "ios": "https://dc.lft.to/lastmile_qr_scan"}, "fusion_lon": 0.0}, {"lat": 38.896788, "is_disabled": 0, "type": "electric_scooter", "lon": -77.05127533333334, "bike_id": "79d58258953529434a10609f6fef5a73", "fusion_lat": 0.0, "name": "79d58258953529434a10609f6fef5a73", "is_reserved": 0, "rental_uris": {"android": "https://dc.lft.to/lastmile_qr_scan", "ios": "https://dc.lft.to/lastmile_qr_scan"}, "fusion_lon": 0.0}, {"lat": 38.926464833333334, "is_disabled": 0, "type": "electric_scooter", "lon": -77.04318433333333, "bike_id": "9cecb8d78db6b61c7301008f00946067", "fusion_lat": 0.0, "name": "9cecb8d78db6b61c7301008f00946067", "is_reserved": 0, "rental_uris": {"android": "https://dc.lft.to/lastmile_qr_scan", "ios": "https://dc.lft.to/lastmile_qr_scan"}, "fusion_lon": 0.0}, {"lat": 38.90989, "is_disabled": 0, "type": "electric_scooter", "lon": -76.98461966666666, "bike_id": "a33c200c59ba209369939e2687fb1366", "fusion_lat": 0.0, "name": "a33c200c59ba209369939e2687fb1366", "is_reserved": 0, "rental_uris": {"android": "https://dc.lft.to/lastmile_qr_scan", "ios": "https://dc.lft.to/lastmile_qr_scan"}, "fusion_lon": 0.0}, {"lat": 38.9004325, "is_disabled": 0, "type": "electric_scooter", "lon": -76.9950605, "bike_id": "3d3225bff9990575c7c393677ba31378", "fusion_lat": 0.0, "name": "3d3225bff9990575c7c393677ba31378", "is_reserved": 0, "rental_uris": {"android": "https://dc.lft.to/lastmile_qr_scan", "ios": "https://dc.lft.to/lastmile_qr_scan"}, "fusion_lon": 0.0},