{"data": {"bikes": [{"is_disabled": 0, "is_reserved": 0, "fusion_lat": 0.0, "lat": 38.919092166666665, "fusion_lon": 0.0, "rental_uris": {"ios": "https://dc.lft.to/lastmile_qr_scan", "android": "https://dc.lft.to/lastmile_qr_scan"}, "lon": -77.03171733333333, "bike_id": "790db13acade3f01e2681d4ca33f6f4b", "type": "electric_scooter", "name": "790db13acade3f01e2681d4ca33f6f4b"}, {"is_disabled": 0, "is_reserved": 0, "fusion_lat": 0.0, "lat": 38.92511866666667, "fusion_lon": 0.0, "rental_uris": {"ios": "https://dc.lft.to/lastmile_qr_scan", "android": "https://dc.lft.to/lastmile_qr_scan"}, "lon": -77.0388085, "bike_id": "8c402f3447e84cc303770cb575aae6a9", "type": "electric_scooter", "name": "8c402f3447e84cc303770cb575aae6a9"}, {"is_disabled": 0, "is_reserved": 0, "fusion_lat": 0.0, "lat": 38.91323233333333, "fusion_lon": 0.0, "rental_uris": {"ios": "https://dc.lft.to/lastmile_qr_scan", "android": "https://dc.lft.to/lastmile_qr_scan"}, "lon": -77.02, "bike_id": "033e538430e7b8b776c1c4b2bdc2a811", "type": "electric_scooter", "name": "033e538430e7b8b776c1c4b2bdc2a811"}, {"is_disabled": 0, "is_reserved": 0, "fusion_lat": 0.0, "lat": 38.894721, "fusion_lon": 0.0, "rental_uris": {"ios": "https://dc.lft.to/lastmile_qr_scan", "android": "https://dc.lft.to/lastmile_qr_scan"}, "lon": -76.9926625, "bike_id": "951a18e0fbc6ff0ae666abd09032e0a7", "type": "electric_scooter", "name": "951a18e0fbc6ff0ae666abd09032e0a7"}, {"is_disabled": 0, "is_reserved": 0, "fusion_lat": 0.0, "lat": 38.84281, "fusion_lon": 0.0, "rental_uris": {"ios": "https://dc.lft.to/lastmile_qr_scan", "android": "https://dc.lft.to/lastmile_qr_scan"}, "lon": -76.98842633333334, "bike_id": "14910501fc923747a3629af9058ffb98", "type": "electric_bike", "name": "14910501fc923747a3629af9058ffb98"}, {"is_disabled": 0, "is_reserved": 0, "fusion_lat": 0.0, "lat": 38.89615366666666, "fusion_lon": 0.0, "rental_uris": {"ios": "https://dc.lft.to/lastmile_qr_scan", "android": "https://dc.lft.to/lastmile_qr_scan"}, "lon": -77.0405065, "bike_id": "9b91b67132a67e429be3c966c61bfe6e", "type": "electric_scooter", "name": "9b91b67132a67e429be3c966c61bfe6e"}, {"is_disabled": 0, "is_reserved": 0, "fusion_lat": 0.0, "lat": 38.895012, "fusion_lon": 0.0, "rental_uris": {"ios": "https://dc.lft.to/lastmile_qr_scan", "android": "https://dc.lft.to/lastmile_qr_scan"}, "lon": -76.97410833333333, "bike_id": "5f1c586821a120b75fabf5a3f30b4b35", "type": "electric_scooter", "name": "5f1c586821a120b75fabf5a3f30b4b35"}, {"is_disabled": 0, "is_reserved": 0, "fusion_lat": 0.0, "lat": 38.885469666666665, "fusion_lon": 0.0, "rental_uris": {"ios": "https://dc.lft.to/lastmile_qr_scan", "android": "https://dc.lft.to/lastmile_qr_scan"}, "lon": -77.11684783333334, "bike_id": "ab6b54c5722449f766f9ed140a7f4981", "type": "electric_bike", "name": "ab6b54c5722449f766f9ed140a7f4981"}, {"is_disabled": 0, "is_reserved": 0, "fusion_lat": 0.0, "lat": 38.8922455, "fusion_lon": 0.0, "rental_uris": {"ios": "https://dc.lft.to/lastmile_qr_scan", "android": "https://dc.lft.to/lastmile_qr_scan"}, "lon": -77.045062, "bike_id": "b6be536f1463f4a78eac02bb1d8a8aa4", "type": "electric_scooter", "name": "b6be536f1463f4a78eac02bb1d8a8aa4"}, {"is_disabled": 0, "is_reserved": 0, "fusion_lat": 0.0, "lat": 38.84028716666667, "fusion_lon": 0.0, "rental_uris": {"ios": "https://dc.lft.to/lastmile_qr_scan", "android": "https://dc.lft.to/lastmile_qr_scan"}, "lon": -76.988598, "bike_id": "6284609a718e83812e31d7d99437f5dc", "type": "electric_bike", "name": "6284609a718e83812e31d7d99437f5dc"}, {"is_disabled": 0, "is_reserved": 0, "fusion_lat": 0.0, "lat": 38.93875283333333, "fusion_lon": 0.0, "rental_uris": {"ios": "https://dc.lft.to/lastmile_qr_scan", "android": "https://dc.lft.to/lastmile_qr_scan"}, "lon": -77.0304505, "bike_id": "0e35fb40c00ba1ca5d2b4c494ae31be6", "type": "electric_scooter", "name": "0e35fb40c00ba1ca5d2b4c494ae31be6"}, {"is_disabled": 0, "is_reserved": 0, "fusion_lat": 0.0, "lat": 38.89301233333333, "fusion_lon": 0.0, "rental_uris": {"ios": "https://dc.lft.to/lastmile_qr_scan", "android": "https://dc.lft.to/lastmile_qr_scan"}, "lon": -76.99958733333334, "bike_id": "19513006ec20e3095ac2e7be19cd3584", "type": "electric_scooter", "name": "19513006ec20e3095ac2e7be19cd3584"}, {"is_disabled": 0, "is_reserved": 0, "fusion_lat": 0.0, "lat": 38.932852, "fusion_lon": 0.0, "rental_uris": {"ios": "https://dc.lft.to/lastmile_qr_scan", "android": "https://dc.lft.to/lastmile_qr_scan"}, "lon": -77.03548583333334, "bike_id": "b6264abcea3bd399df6442370e5ae715", "type": "electric_scooter", "name": "b6264abcea3bd399df6442370e5ae715"}, {"is_disabled": 0, "is_reserved": 0, "fusion_lat": 0.0, "lat": 38.89889133333333, "fusion_lon": 0.0, "rental_uris": {"ios": "https://dc.lft.to/lastmile_qr_scan", "android": "https://dc.lft.to/lastmile_qr_scan"}, "lon": -76.93240783333333, "bike_id": "9c787695150ed110dc562fc1f94b1b39", "type": "electric_scooter", "name": "9c787695150ed110dc562fc1f94b1b39"}, {"is_disabled": 0, "is_reserved": 0, "fusion_lat": 0.0, "lat": 38.896896166666664, "fusion_lon": 0.0, "rental_uris": {"ios": "https://dc.lft.to/lastmile_qr_scan", "android": "https://dc.lft.to/lastmile_qr_scan"}, "lon": -77.05108516666667, "bike_id": "87bea11c4043a49f0f752a783e1cd293", "type": "electric_scooter", "name": "87bea11c4043a49f0f752a783e1cd293"}, {"is_disabled": 0, "is_reserved": 0, "fusion_lat": 0.0, "lat": 38.956891, "fusion_lon": 0.0, "rental_uris": {"ios": "https://dc.lft.to/lastmile_qr_scan", "android": "https://dc.lft.to/lastmile_qr_scan"}, "lon": -77.02231233333333, "bike_id": "b751637199eedeec9322254526e68f60", "type": "electric_bike", "name": "b751637199eedeec9322254526e68f60"}, {"is_disabled": 0, "is_reserved": 0, "fusion_lat": 0.0, "lat": 38.89949683333333, "fusion_lon": 0.0, "rental_uris": {"ios": "https://dc.lft.to/lastmile_qr_scan", "android": "https://dc.lft.to/lastmile_qr_scan"}, "lon": -77.05274683333333, "bike_id": "8c30167b8d39415c4943042dd9bf3ea5", "type": "electric_scooter", "name": "8c30167b8d39415c4943042dd9bf3ea5"}, {"is_disabled": 0, "is_reserved": 0, "fusion_lat": 0.0, "lat": 38.889009333333334, "fusion_lon": 0.0, "rental_uris": {"ios": "https://dc.lft.to/lastmile_qr_scan", "android": "https://dc.lft.to/lastmile_qr_scan"}, "lon": -76.98374733333333, "bike_id": "aaf01821d6bfcb89eff44a88900befb3", "type": "electric_scooter", "name": "aaf01821d6bfcb89eff44a88900befb3"}, {"is_disabled": 0, "is_reserved": 0, "fusion_lat": 0.0, "lat": 38.90904483333333, "fusion_lon": 0.0, "rental_uris": {"ios": "https://dc.lft.to/lastmile_qr_scan", "android": "https://dc.lft.to/lastmile_qr_scan"}, "lon": -77.00462416666667, "bike_id": "971d08de4ade2adb564c1668c805cced", "type": "electric_scooter", "name": "971d08de4ade2adb564c1668c805cced"}, {"is_disabled": 0, "is_reserved": 0, "fusion_lat": 0.0, "lat": 38.89819933333333, "fusion_lon": 0.0, "rental_uris": {"ios": "https://dc.lft.to/lastmile_qr_scan", "android": "https://dc.lft.to/lastmile_qr_scan"}, "lon": -76.92604066666667, "bike_id": "e3ee527e821b78a479e6595eacc00e42", "type": "electric_scooter", "name": "e3ee527e821b78a479e6595eacc00e42"}, {"is_disabled": 0, "is_reserved": 0, "fusion_lat": 0.0, "lat": 38.9215055, "fusion_lon": 0.0, "rental_uris": {"ios": "https://dc.lft.to/lastmile_qr_scan", "android": "https://dc.lft.to/lastmile_qr_scan"}, "lon": -77.03513166666667, "bike_id": "487d4d12bbaf1f29d007c203a1ab741f", "type": "electric_scooter", "name": "487d4d12bbaf1f29d007c203a1ab741f"}, {"is_disabled": 0, "is_reserved": 0, "fusion_lat": 0.0, "lat": 38.9212765, "fusion_lon": 0.0, "rental_uris": {"ios": "https://dc.lft.to/lastmile_qr_scan", "android": "https://dc.lft.to/lastmile_qr_scan"}, "lon": -77.0121395, "bike_id": "c8714a501ef7fe9805908557766999b6", "type": "electric_scooter", "name": "c8714a501ef7fe9805908557766999b6"}, {"is_disabled": 0, "is_reserved": 0, "fusion_lat": 0.0, "lat": 38.91624616666667, "fusion_lon": 0.0, "rental_uris": {"ios": "https://dc.lft.to/lastmile_qr_scan", "android": "https://dc.lft.to/lastmile_qr_scan"}, "lon": -77.03500533333333, "bike_id": "4aac860d9482942df5f6c9c7787ead85", "type": "electric_scooter", "name": "4aac860d9482942df5f6c9c7787ead85"}, {"is_disabled": 0, "is_reserved": 0, "fusion_lat": 0.0, "lat": 38.905137333333336, "fusion_lon": 0.0, "rental_uris": {"ios": "https://dc.lft.to/lastmile_qr_scan", "android": "https://dc.lft.to/lastmile_qr_scan"}, "lon": -77.01712883333333, "bike_id": "2e15d3d46fb164ca30b61b464c3a5ba9", "type": "electric_scooter", "name": "2e15d3d46fb164ca30b61b464c3a5ba9"}, {"is_disabled": 0, "is_reserved": 0, "fusion_lat": 0.0, "lat": 38.91136133333333, "fusion_lon": 0.0, "rental_uris": {"ios": "https://dc.lft.to/lastmile_qr_scan", "android": "https://dc.lft.to/lastmile_qr_scan"}, "lon": -77.048655, "bike_id": "2675d881b2d8397df04b06318faf8f80", "type": "electric_scooter", "name": "2675d881b2d8397df04b06318faf8f80"}, {"is_disabled": 0, "is_reserved": 0, "fusion_lat": 0.0, "lat": 38.918159, "fusion_lon": 0.0, "rental_uris": {"ios": "https://dc.lft.to/lastmile_qr_scan", "android": "https://dc.lft.to/lastmile_qr_scan"}, "lon": -77.024773, "bike_id": "0f1f17a4ff319bc2e5f5ca1e62818621", "type": "electric_scooter", "name": "0f1f17a4ff319bc2e5f5ca1e62818621"}, {"is_disabled": 0, "is_reserved": 0, "fusion_lat": 0.0, "lat": 38.920791, "fusion_lon": 0.0, "rental_uris": {"ios": "https://dc.lft.to/lastmile_qr_scan", "android": "https://dc.lft.to/lastmile_qr_scan"}, "lon": -77.0231315, "bike_id": "c4fa7eb295d20fab821d630ef912a526", "type": "electric_scooter", "name": "c4fa7eb295d20fab821d630ef912a526"}, {"is_disabled": 0, "is_reserved": 0, "fusion_lat": 0.0, "lat": 38.89629383333333, "fusion_lon": 0.0, "rental_uris": {"ios": "https://dc.lft.to/lastmile_qr_scan", "android": "https://dc.lft.to/lastmile_qr_scan"}, "lon": -77.04345016666667, "bike_id": "b56656181b3f99891b6259a787cb25a6", "type": "electric_scooter", "name": "b56656181b3f99891b6259a787cb25a6"}, {"is_disabled": 0, "is_reserved": 0, "fusion_lat": 0.0, "lat": 38.8919855, "fusion_lon": 0.0, "rental_uris": {"ios": "https://dc.lft.to/lastmile_qr_scan", "android": "https://dc.lft.to/lastmile_qr_scan"}, "lon": -77.043877, "bike_id": "a9b02ce39a15b4b223822728fbec2996", "type": "electric_scooter", "name": "a9b02ce39a15b4b223822728fbec2996"}, {"is_disabled": 0, "is_reserved": 0, "fusion_lat": 0.0, "lat": 38.827608833333336, "fusion_lon": 0.0, "rental_uris": {"ios": "https://dc.lft.to/lastmile_qr_scan", "android": "https://dc.lft.to/lastmile_qr_scan"}, "lon": -77.05035483333333, "bike_id": "9c9e0abafc01163be073f853f0fef875", "type": "electric_bike", "name": "9c9e0abafc01163be073f853f0fef875"}, {"is_disabled": 0, "is_reserved": 0, "fusion_lat": 0.0, "lat": 38.9009915, "fusion_lon": 0.0, "rental_uris": {"ios": "https://dc.lft.to/lastmile_qr_scan", "android": "https://dc.lft.to/lastmile_qr_scan"}, "lon": -77.0476375, "bike_id": "b36b581597d2730b3281733aae251852", "type": "electric_scooter", "name": "b36b581597d2730b3281733aae251852"}, {"is_disabled": 0, "is_reserved": 0, "fusion_lat": 0.0, "lat": 38.884035833333336, "fusion_lon": 0.0, "rental_uris": {"ios": "https://dc.lft.to/lastmile_qr_scan", "android": "https://dc.lft.to/lastmile_qr_scan"}, "lon": -76.98586033333333, "bike_id": "648dc3e6ded8c166cbc1ca78dd1aeb62", "type": "electric_bike", "name": "648dc3e6ded8c166cbc1ca78dd1aeb62"}, {"is_disabled": 0, "is_reserved": 0, "fusion_lat": 0.0, "lat": 38.931722666666666, "fusion_lon": 0.0, "rental_uris": {"ios": "https://dc.lft.to/lastmile_qr_scan", "android": "https://dc.lft.to/lastmile_qr_scan"}, "lon": -77.02820416666667, "bike_id": "4d17901319461c6b7cb3b74cb9188af0", "type": "electric_scooter", "name": "4d17901319461c6b7cb3b74cb9188af0"}, {"is_disabled": 0, "is_reserved": 0, "fusion_lat": 0.0, "lat": 38.902959333333335, "fusion_lon": 0.0, "rental_uris": {"ios": "https://dc.lft.to/lastmile_qr_scan", "android": "https://dc.lft.to/lastmile_qr_scan"}, "lon": -77.05021883333333, "bike_id": "a92fab19fe31db269c425268fd0b6936", "type": "electric_scooter", "name": "a92fab19fe31db269c425268fd0b6936"}, {"is_disabled": 0, "is_reserved": 0, "fusion_lat": 0.0, "lat": 38.88602016666667, "fusion_lon": 0.0, "rental_uris": {"ios": "https://dc.lft.to/lastmile_qr_scan", "android": "https://dc.lft.to/lastmile_qr_scan"}, "lon": -77.0008215, "bike_id": "125089861b9258ab8b6a6a4f408812aa", "type": "electric_bike", "name": "125089861b9258ab8b6a6a4f408812aa"}, {"is_disabled": 0, "is_reserved": 0, "fusion_lat": 0.0, "lat": 38.91451083333333, "fusion_lon": 0.0, "rental_uris": {"ios": "https://dc.lft.to/lastmile_qr_scan", "android": "https://dc.lft.to/lastmile_qr_scan"}, "lon": -76.97278016666667, "bike_id": "4332a0e9923853e371a992da3d584bb3", "type": "electric_bike", "name": "4332a0e9923853e371a992da3d584bb3"}, {"is_disabled": 0, "is_reserved": 0, "fusion_lat": 0.0, "lat": 38.92430916666667, "fusion_lon": 0.0, "rental_uris": {"ios": "https://dc.lft.to/lastmile_qr_scan", "android": "https://dc.lft.to/lastmile_qr_scan"}, "lon": -77.020227, "bike_id": "6df05b77d235ec3c38173f740c4a3ba4", "type": "electric_scooter", "name": "6df05b77d235ec3c38173f740c4a3ba4"}, {"is_disabled": 0, "is_reserved": 0, "fusion_lat": 0.0, "lat": 38.89248416666667, "fusion_lon": 0.0, "rental_uris": {"ios": "https://dc.lft.to/lastmile_qr_scan", "android": "https://dc.lft.to/lastmile_qr_scan"}, "lon": -77.04652966666667, "bike_id": "71933700b23e66247b2b50d07fa5b0ef", "type": "electric_scooter", "name": "71933700b23e66247b2b50d07fa5b0ef"}, {"is_disabled": 0, "is_reserved": 0, "fusion_lat": 0.0, "lat": 38.882972, "fusion_lon": 0.0, "rental_uris": {"ios": "https://dc.lft.to/lastmile_qr_scan", "android": "https://dc.lft.to/lastmile_qr_scan"}, "lon": -76.93494783333334, "bike_id": "620fab9276a29c41cfd6caa11a50601d", "type": "electric_scooter", "name": "620fab9276a29c41cfd6caa11a50601d"}, {"is_disabled": 0, "is_reserved": 0, "fusion_lat": 0.0, "lat": 38.91351733333333, "fusion_lon": 0.0, "rental_uris": {"ios": "https://dc.lft.to/lastmile_qr_scan", "android": "https://dc.lft.to/lastmile_qr_scan"}, "lon": -77.0640055, "bike_id": "05226f186971c0a9991abda75d167830", "type": "electric_scooter", "name": "05226f186971c0a9991abda75d167830"}, {"is_disabled": 0, "is_reserved": 0, "fusion_lat": 0.0, "lat": 38.901815, "fusion_lon": 0.0, "rental_uris": {"ios": "https://dc.lft.to/lastmile_qr_scan", "android": "https://dc.lft.to/lastmile_qr_scan"}, "lon": -76.980809, "bike_id": "965cdc6bcd422ed6b1111476b098d430", "type": "electric_scooter", "name": "965cdc6bcd422ed6b1111476b098d430"}, {"is_disabled": 0, "is_reserved": 0, "fusion_lat": 0.0, "lat": 38.92358133333333, "fusion_lon": 0.0, "rental_uris": {"ios": "https://dc.lft.to/lastmile_qr_scan", "android": "https://dc.lft.to/lastmile_qr_scan"}, "lon": -77.05269233333334, "bike_id": "fdaf87b63b851d574da91f12a8f9eb14", "type": "electric_scooter", "name": "fdaf87b63b851d574da91f12a8f9eb14"}, {"is_disabled": 0, "is_reserved": 0, "fusion_lat": 0.0, "lat": 38.937506666666664, "fusion_lon": 0.0, "rental_uris": {"ios": "https://dc.lft.to/lastmile_qr_scan", "android": "https://dc.lft.to/lastmile_qr_scan"}, "lon": -77.034354, "bike_id": "39b2452548e5bc9d3614cf98a4f52302", "type": "electric_scooter", "name": "39b2452548e5bc9d3614cf98a4f52302"}, {"is_disabled": 0, "is_reserved": 0, "fusion_lat": 0.0, "lat": 38.86825966666667, "fusion_lon": 0.0, "rental_uris": {"ios": "https://dc.lft.to/lastmile_qr_scan", "android": "https://dc.lft.to/lastmile_qr_scan"}, "lon": -76.98014, "bike_id": "922d623b0340ad0f405165042ca5ceba", "type": "electric_bike", "name": "922d623b0340ad0f405165042ca5ceba"}, {"is_disabled": 0, "is_reserved": 0, "fusion_lat": 0.0, "lat": 38.92378083333333, "fusion_lon": 0.0, "rental_uris": {"ios": "https://dc.lft.to/lastmile_qr_scan", "android": "https://dc.lft.to/lastmile_qr_scan"}, "lon": -77.043099, "bike_id": "8c6577b5a904df931e2f26726f48a367", "type": "electric_scooter", "name": "8c6577b5a904df931e2f26726f48a367"}, {"is_disabled": 0, "is_reserved": 0, "fusion_lat": 0.0, "lat": 38.9391745, "fusion_lon": 0.0, "rental_uris": {"ios": "https://dc.lft.to/lastmile_qr_scan", "android": "https://dc.lft.to/lastmile_qr_scan"}, "lon": -77.03264833333333, "bike_id": "9a5fe3f038b03722de9f6f5fabc2cc81", "type": "electric_scooter", "name": "9a5fe3f038b03722de9f6f5fabc2cc81"}, {"is_disabled": 0, "is_reserved": 0, "fusion_lat": 0.0, "lat": 38.89731066666667, "fusion_lon": 0.0, "rental_uris": {"ios": "https://dc.lft.to/lastmile_qr_scan", "android": "https://dc.lft.to/lastmile_qr_scan"}, "lon": -77.04990016666666, "bike_id": "569bc624802c1db88569cbbbcda64b24", "type": "electric_scooter", "name": "569bc624802c1db88569cbbbcda64b24"}, {"is_disabled": 0, "is_reserved": 0, "fusion_lat": 0.0, "lat": 38.8787765, "fusion_lon": 0.0, "rental_uris": {"ios": "https://dc.lft.to/lastmile_qr_scan", "android": "https://dc.lft.to/lastmile_qr_scan"}, "lon": -77.01775116666667, "bike_id": "3f1192b6f05089495a68b6bf27ee944f", "type": "electric_scooter", "name": "3f1192b6f05089495a68b6bf27ee944f"}, {"is_disabled": 0, "is_reserved": 0, "fusion_lat": 0.0, "lat": 38.91804533333333, "fusion_lon": 0.0, "rental_uris": {"ios": "https://dc.lft.to/lastmile_qr_scan", "android": "https://dc.lft.to/lastmile_qr_scan"}, "lon": -77.03563016666666, "bike_id": "34000163fee8e4b0542e580309772faf", "type": "electric_scooter", "name": "34000163fee8e4b0542e580309772faf"}, {"is_disabled": 0, "is_reserved": 0, "fusion_lat": 0.0, "lat": 38.92387883333333, "fusion_lon": 0.0, "rental_uris": {"ios": "https://dc.lft.to/lastmile_qr_scan", "android": "https://dc.lft.to/lastmile_qr_scan"}, "lon": -77.03657283333334, "bike_id": "a48714044d742614f45e07ecafc74341", "type": "electric_scooter", "name": "a48714044d742614f45e07ecafc74341"}, {"is_disabled": 0, "is_reserved": 0, "fusion_lat": 0.0, "lat": 38.87070666666666, "fusion_lon": 0.0, "rental_uris": {"ios": "https://dc.lft.to/lastmile_qr_scan", "android": "https://dc.lft.to/lastmile_qr_scan"}, "lon": -77.110376, "bike_id": "da03a912dc8f2d4a9d91f956738a47f5", "type": "electric_bike", "name": "da03a912dc8f2d4a9d91f956738a47f5"}, {"is_disabled": 0, "is_reserved": 0, "fusion_lat": 0.0, "lat": 38.92097033333334, "fusion_lon": 0.0, "rental_uris": {"ios": "https://dc.lft.to/lastmile_qr_scan", "android": "https://dc.lft.to/lastmile_qr_scan"}, "lon": -77.032552, "bike_id": "780aecffd36025b1d5e7fa8cb75d5a26", "type": "electric_scooter", "name": "780aecffd36025b1d5e7fa8cb75d5a26"}, {"is_disabled": 0, "is_reserved": 0, "fusion_lat": 0.0, "lat": 38.887172, "fusion_lon": 0.0, "rental_uris": {"ios": "https://dc.lft.to/lastmile_qr_scan", "android": "https://dc.lft.to/lastmile_qr_scan"}, "lon": -76.99629666666667, "bike_id": "c46c402ec2a7063c1bcc6248243aec85", "type": "electric_scooter", "name": "c46c402ec2a7063c1bcc6248243aec85"}, {"is_disabled": 0, "is_reserved": 0, "fusion_lat": 0.0, "lat": 38.90527633333333, "fusion_lon": 0.0, "rental_uris": {"ios": "https://dc.lft.to/lastmile_qr_scan", "android": "https://dc.lft.to/lastmile_qr_scan"}, "lon": -77.02950116666666, "bike_id": "4210d7219575497ab94c4009103fd6b3", "type": "electric_scooter", "name": "4210d7219575497ab94c4009103fd6b3"}, {"is_disabled": 0, "is_reserved": 0, "fusion_lat": 0.0, "lat": 38.8905115, "fusion_lon": 0.0, "rental_uris": {"ios": "https://dc.lft.to/lastmile_qr_scan", "android": "https://dc.lft.to/lastmile_qr_scan"}, "lon": -77.0196655, "bike_id": "6d142482be2e5d06e9321d622dde830a", "type": "electric_scooter", "name": "6d142482be2e5d06e9321d622dde830a"}, {"is_disabled": 0, "is_reserved": 0, "fusion_lat": 0.0, "lat": 38.960490666666665, "fusion_lon": 0.0, "rental_uris": {"ios": "https://dc.lft.to/lastmile_qr_scan", "android": "https://dc.lft.to/lastmile_qr_scan"}, "lon": -77.00510283333334, "bike_id": "1adfe8a91d12def8ea61d2c528ed1145", "type": "electric_scooter", "name": "1adfe8a91d12def8ea61d2c528ed1145"}, {"is_disabled": 0, "is_reserved": 0, "fusion_lat": 0.0, "lat": 38.94791816666667, "fusion_lon": 0.0, "rental_uris": {"ios": "https://dc.lft.to/lastmile_qr_scan", "android": "https://dc.lft.to/lastmile_qr_scan"}, "lon": -77.07896216666667, "bike_id": "242b26eed4a89a1ac2c860b18639c7cc", "type": "electric_scooter", "name": "242b26eed4a89a1ac2c860b18639c7cc"}, {"is_disabled": 0, "is_reserved": 0, "fusion_lat": 0.0, "lat": 38.9638285, "fusion_lon": 0.0, "rental_uris": {"ios": "https://dc.lft.to/lastmile_qr_scan", "android": "https://dc.lft.to/lastmile_qr_scan"}, "lon": -77.01976533333334, "bike_id": "ac0ad56ca543739e8d59037eb91bcfb2", "type": "electric_bike", "name": "ac0ad56ca543739e8d59037eb91bcfb2"}, {"is_disabled": 0, "is_reserved": 0, "fusion_lat": 0.0, "lat": 38.926734, "fusion_lon": 0.0, "rental_uris": {"ios": "https://dc.lft.to/lastmile_qr_scan", "android": "https://dc.lft.to/lastmile_qr_scan"}, "lon": -77.01473683333333, "bike_id": "1280d1bb9a5875875c9e8a722d68205b", "type": "electric_scooter", "name": "1280d1bb9a5875875c9e8a722d68205b"}, {"is_disabled": 0, "is_reserved": 0, "fusion_lat": 0.0, "lat": 38.952912833333336, "fusion_lon": 0.0, "rental_uris": {"ios": "https://dc.lft.to/lastmile_qr_scan", "android": "https://dc.lft.to/lastmile_qr_scan"}, "lon": -77.0686415, "bike_id": "96bf9418212eeee78367ae7128f04bb1", "type": "electric_scooter", "name": "96bf9418212eeee78367ae7128f04bb1"}, {"is_disabled": 0, "is_reserved": 0, "fusion_lat": 0.0, "lat": 38.87175366666666, "fusion_lon": 0.0, "rental_uris": {"ios": "https://dc.lft.to/lastmile_qr_scan", "android": "https://dc.lft.to/lastmile_qr_scan"}, "lon": -77.00627666666666, "bike_id": "fb1eb80a7f8dae14e84921b0470e2a0e", "type": "electric_scooter", "name": "fb1eb80a7f8dae14e84921b0470e2a0e"}, {"is_disabled": 0, "is_reserved": 0, "fusion_lat": 0.0, "lat": 38.89335366666667, "fusion_lon": 0.0, "rental_uris": {"ios": "https://dc.lft.to/lastmile_qr_scan", "android": "https://dc.lft.to/lastmile_qr_scan"}, "lon": -76.92886833333333, "bike_id": "2368154473926d402153c169b636d1e4", "type": "electric_scooter", "name": "2368154473926d402153c169b636d1e4"}, {"is_disabled": 0, "is_reserved": 0, "fusion_lat": 0.0, "lat": 38.8771995, "fusion_lon": 0.0, "rental_uris": {"ios": "https://dc.lft.to/lastmile_qr_scan", "android": "https://dc.lft.to/lastmile_qr_scan"}, "lon": -77.01659933333333, "bike_id": "bc5bb7d1158e47273980e8e53f3afcf9", "type": "electric_scooter", "name": "bc5bb7d1158e47273980e8e53f3afcf9"}, {"is_disabled": 0, "is_reserved": 0, "fusion_lat": 0.0, "lat": 38.896846333333336, "fusion_lon": 0.0, "rental_uris": {"ios": "https://dc.lft.to/lastmile_qr_scan", "android": "https://dc.lft.to/lastmile_qr_scan"}, "lon": -77.02413033333333, "bike_id": "cf29d6d7ee2e0b5125b92896b8b6cf95", "type": "electric_scooter", "name": "cf29d6d7ee2e0b5125b92896b8b6cf95"}, {"is_disabled": 0, "is_reserved": 0, "fusion_lat": 0.0, "lat": 38.9618725, "fusion_lon": 0.0, "rental_uris": {"ios": "https://dc.lft.to/lastmile_qr_scan", "android": "https://dc.lft.to/lastmile_qr_scan"}, "lon": -77.0990325, "bike_id": "2614eebcfa97cbbb995c2fafd69685cf", "type": "electric_bike", "name": "2614eebcfa97cbbb995c2fafd69685cf"}, {"is_disabled": 0, "is_reserved": 0, "fusion_lat": 0.0, "lat": 38.89224433333333, "fusion_lon": 0.0, "rental_uris": {"ios": "https://dc.lft.to/lastmile_qr_scan", "android": "https://dc.lft.to/lastmile_qr_scan"}, "lon": -77.04688933333334, "bike_id": "3e4f2859e7b0aafdd9c1eaf8da00767c", "type": "electric_scooter", "name": "3e4f2859e7b0aafdd9c1eaf8da00767c"}, {"is_disabled": 0, "is_reserved": 0, "fusion_lat": 0.0, "lat": 38.915482, "fusion_lon": 0.0, "rental_uris": {"ios": "https://dc.lft.to/lastmile_qr_scan", "android": "https://dc.lft.to/lastmile_qr_scan"}, "lon": -77.0315315, "bike_id": "b4e507b40b0433c392ba3b57234dd746", "type": "electric_scooter", "name": "b4e507b40b0433c392ba3b57234dd746"}, {"is_disabled": 0, "is_reserved": 0, "fusion_lat": 0.0, "lat": 38.925232666666666, "fusion_lon": 0.0, "rental_uris": {"ios": "https://dc.lft.to/lastmile_qr_scan", "android": "https://dc.lft.to/lastmile_qr_scan"}, "lon": -77.029684, "bike_id": "325135c18eb53cf55e7dc5e0b16eddd8", "type": "electric_scooter", "name": "325135c18eb53cf55e7dc5e0b16eddd8"}, {"is_disabled": 0, "is_reserved": 0, "fusion_lat": 0.0, "lat": 38.941021, "fusion_lon": 0.0, "rental_uris": {"ios": "https://dc.lft.to/lastmile_qr_scan", "android": "https://dc.lft.to/lastmile_qr_scan"}, "lon": -77.03280133333334, "bike_id": "fcd256135cd8d78d4146df5125a51f35", "type": "electric_scooter", "name": "fcd256135cd8d78d4146df5125a51f35"}, {"is_disabled": 0, "is_reserved": 0, "fusion_lat": 0.0, "lat": 38.911958166666665, "fusion_lon": 0.0, "rental_uris": {"ios": "https://dc.lft.to/lastmile_qr_scan", "android": "https://dc.lft.to/lastmile_qr_scan"}, "lon": -77.0027715, "bike_id": "8834c018075b985e1d117e541f24bd8b", "type": "electric_bike", "name": "8834c018075b985e1d117e541f24bd8b"}, {"is_disabled": 0, "is_reserved": 0, "fusion_lat": 0.0, "lat": 38.879958, "fusion_lon": 0.0, "rental_uris": {"ios": "https://dc.lft.to/lastmile_qr_scan", "android": "https://dc.lft.to/lastmile_qr_scan"}, "lon": -77.03738933333334, "bike_id": "93ea4c7592b8277a72774329b71ced32", "type": "electric_scooter", "name": "93ea4c7592b8277a72774329b71ced32"}, {"is_disabled": 0, "is_reserved": 0, "fusion_lat": 0.0, "lat": 38.91826183333333, "fusion_lon": 0.0, "rental_uris": {"ios": "https://dc.lft.to/lastmile_qr_scan", "android": "https://dc.lft.to/lastmile_qr_scan"}, "lon": -77.0400175, "bike_id": "eaf68432b829a0611e84f51dce64a62b", "type": "electric_scooter", "name": "eaf68432b829a0611e84f51dce64a62b"}, {"is_disabled": 0, "is_reserved": 0, "fusion_lat": 0.0, "lat": 38.90220583333333, "fusion_lon": 0.0, "rental_uris": {"ios": "https://dc.lft.to/lastmile_qr_scan", "android": "https://dc.lft.to/lastmile_qr_scan"}, "lon": -76.93175216666667, "bike_id": "e55ea1dec606047071f25b18b5d7323a", "type": "electric_bike", "name": "e55ea1dec606047071f25b18b5d7323a"}, {"is_disabled": 0, "is_reserved": 0, "fusion_lat": 0.0, "lat": 38.91801816666667, "fusion_lon": 0.0, "rental_uris": {"ios": "https://dc.lft.to/lastmile_qr_scan", "android": "https://dc.lft.to/lastmile_qr_scan"}, "lon": -77.031824, "bike_id": "cf600f851b92f0c155faa8618fe560bd", "type": "electric_scooter", "name": "cf600f851b92f0c155faa8618fe560bd"}, {"is_disabled": 0, "is_reserved": 0, "fusion_lat": 0.0, "lat": 38.92318516666667, "fusion_lon": 0.0, "rental_uris": {"ios": "https://dc.lft.to/lastmile_qr_scan", "android": "https://dc.lft.to/lastmile_qr_scan"}, "lon": -77.03921, "bike_id": "20532a8cd5f878073c478a48d5414b91", "type": "electric_scooter", "name": "20532a8cd5f878073c478a48d5414b91"}, {"is_disabled": 0, "is_reserved": 0, "fusion_lat": 0.0, "lat": 38.9067645, "fusion_lon": 0.0, "rental_uris": {"ios": "https://dc.lft.to/lastmile_qr_scan", "android": "https://dc.lft.to/lastmile_qr_scan"}, "lon": -76.97938016666667, "bike_id": "3e8f741b72546ac557c8132bd9b444fc", "type": "electric_scooter", "name": "3e8f741b72546ac557c8132bd9b444fc"}, {"is_disabled": 0, "is_reserved": 0, "fusion_lat": 0.0, "lat": 38.838654, "fusion_lon": 0.0, "rental_uris": {"ios": "https://dc.lft.to/lastmile_qr_scan", "android": "https://dc.lft.to/lastmile_qr_scan"}, "lon": -76.9969135, "bike_id": "27e4b1437a5d1cba17485b22afe7fe04", "type": "electric_bike", "name": "27e4b1437a5d1cba17485b22afe7fe04"}, {"is_disabled": 0, "is_reserved": 0, "fusion_lat": 0.0, "lat": 38.90785483333333, "fusion_lon": 0.0, "rental_uris": {"ios": "https://dc.lft.to/lastmile_qr_scan", "android": "https://dc.lft.to/lastmile_qr_scan"}, "lon": -77.00243833333333, "bike_id": "f0d54ccb3aa0c0d5caec531de54f9f74", "type": "electric_scooter", "name": "f0d54ccb3aa0c0d5caec531de54f9f74"}, {"is_disabled": 0, "is_reserved": 0, "fusion_lat": 0.0, "lat": 38.918174, "fusion_lon": 0.0, "rental_uris": {"ios": "https://dc.lft.to/lastmile_qr_scan", "android": "https://dc.lft.to/lastmile_qr_scan"}, "lon": -77.039984, "bike_id": "1c22e94c2b9cced27ce603f42d2c16f8", "type": "electric_scooter", "name": "1c22e94c2b9cced27ce603f42d2c16f8"}, {"is_disabled": 0, "is_reserved": 0, "fusion_lat": 0.0, "lat": 38.920622, "fusion_lon": 0.0, "rental_uris": {"ios": "https://dc.lft.to/lastmile_qr_scan", "android": "https://dc.lft.to/lastmile_qr_scan"}, "lon": -77.0436185, "bike_id": "ed783f929336148454136a8154806fa6", "type": "electric_scooter", "name": "ed783f929336148454136a8154806fa6"}, {"is_disabled": 0, "is_reserved": 0, "fusion_lat": 0.0, "lat": 38.915673166666664, "fusion_lon": 0.0, "rental_uris": {"ios": "https://dc.lft.to/lastmile_qr_scan", "android": "https://dc.lft.to/lastmile_qr_scan"}, "lon": -77.03935433333334, "bike_id": "131d6e28019d0b1a20cc171844a738d5", "type": "electric_scooter", "name": "131d6e28019d0b1a20cc171844a738d5"}, {"is_disabled": 0, "is_reserved": 0, "fusion_lat": 0.0, "lat": 38.917123333333336, "fusion_lon": 0.0, "rental_uris": {"ios": "https://dc.lft.to/lastmile_qr_scan", "android": "https://dc.lft.to/lastmile_qr_scan"}, "lon": -77.04124333333333, "bike_id": "d9539fd6c84da3cd15621cc4468f13cf", "type": "electric_scooter", "name": "d9539fd6c84da3cd15621cc4468f13cf"}, {"is_disabled": 0, "is_reserved": 0, "fusion_lat": 0.0, "lat": 38.87709666666667, "fusion_lon": 0.0, "rental_uris": {"ios": "https://dc.lft.to/lastmile_qr_scan", "android": "https://dc.lft.to/lastmile_qr_scan"}, "lon": -77.0070135, "bike_id": "f7b37eca58c6aa0d7ac6ed8f39315323", "type": "electric_scooter", "name": "f7b37eca58c6aa0d7ac6ed8f39315323"}, {"is_disabled": 0, "is_reserved": 0, "fusion_lat": 0.0, "lat": 38.93146, "fusion_lon": 0.0, "rental_uris": {"ios": "https://dc.lft.to/lastmile_qr_scan", "android": "https://dc.lft.to/lastmile_qr_scan"}, "lon": -77.023735, "bike_id": "ce30fca0635a2a42586922f1d53d5d77", "type": "electric_scooter", "name": "ce30fca0635a2a42586922f1d53d5d77"}, {"is_disabled": 0, "is_reserved": 0, "fusion_lat": 0.0, "lat": 38.934463, "fusion_lon": 0.0, "rental_uris": {"ios": "https://dc.lft.to/lastmile_qr_scan", "android": "https://dc.lft.to/lastmile_qr_scan"}, "lon": -77.02982466666667, "bike_id": "b0def28fe5370d8b0a8961988d93eda4", "type": "electric_scooter", "name": "b0def28fe5370d8b0a8961988d93eda4"}, {"is_disabled": 0, "is_reserved": 0, "fusion_lat": 0.0, "lat": 38.9279285, "fusion_lon": 0.0, "rental_uris": {"ios": "https://dc.lft.to/lastmile_qr_scan", "android": "https://dc.lft.to/lastmile_qr_scan"}, "lon": -77.05590633333334, "bike_id": "936c19a06b4aeac1dbc60a1aa2f6fbf6", "type": "electric_scooter", "name": "936c19a06b4aeac1dbc60a1aa2f6fbf6"}, {"is_disabled": 0, "is_reserved": 0, "fusion_lat": 0.0, "lat": 38.898425333333336, "fusion_lon": 0.0, "rental_uris": {"ios": "https://dc.lft.to/lastmile_qr_scan", "android": "https://dc.lft.to/lastmile_qr_scan"}, "lon": -77.029328, "bike_id": "ddfffa2312d20aaf4481dcef3287e6be", "type": "electric_scooter", "name": "ddfffa2312d20aaf4481dcef3287e6be"}, {"is_disabled": 0, "is_reserved": 0, "fusion_lat": 0.0, "lat": 38.931214, "fusion_lon": 0.0, "rental_uris": {"ios": "https://dc.lft.to/lastmile_qr_scan", "android": "https://dc.lft.to/lastmile_qr_scan"}, "lon": -77.020708, "bike_id": "0be224d4a7749ca94a53b995461e4bfa", "type": "electric_scooter", "name": "0be224d4a7749ca94a53b995461e4bfa"}, {"is_disabled": 0, "is_reserved": 0, "fusion_lat": 0.0, "lat": 38.921464, "fusion_lon": 0.0, "rental_uris": {"ios": "https://dc.lft.to/lastmile_qr_scan", "android": "https://dc.lft.to/lastmile_qr_scan"}, "lon": -77.034448, "bike_id": "4b68fdcd1e685a0b7d81322853bf42ac", "type": "electric_scooter", "name": "4b68fdcd1e685a0b7d81322853bf42ac"}, {"is_disabled": 0, "is_reserved": 0, "fusion_lat": 0.0, "lat": 38.92152166666666, "fusion_lon": 0.0, "rental_uris": {"ios": "https://dc.lft.to/lastmile_qr_scan", "android": "https://dc.lft.to/lastmile_qr_scan"}, "lon": -77.03878516666667, "bike_id": "279424a57d1cc0d0feb3d97978ea71f1", "type": "electric_scooter", "name": "279424a57d1cc0d0feb3d97978ea71f1"}, {"is_disabled": 0, "is_reserved": 0, "fusion_lat": 0.0, "lat": 38.930610333333334, "fusion_lon": 0.0, "rental_uris": {"ios": "https://dc.lft.to/lastmile_qr_scan", "android": "https://dc.lft.to/lastmile_qr_scan"}, "lon": -77.04037533333333, "bike_id": "b871e243891d320f1147ae9062b7a57d", "type": "electric_scooter", "name": "b871e243891d320f1147ae9062b7a57d"}, {"is_disabled": 0, "is_reserved": 0, "fusion_lat": 0.0, "lat": 38.874773833333336, "fusion_lon": 0.0, "rental_uris": {"ios": "https://dc.lft.to/lastmile_qr_scan", "android": "https://dc.lft.to/lastmile_qr_scan"}, "lon": -77.01069916666667, "bike_id": "60687fd9f1d7058c77092c41b9beb198", "type": "electric_scooter", "name": "60687fd9f1d7058c77092c41b9beb198"}, {"is_disabled": 0, "is_reserved": 0, "fusion_lat": 0.0, "lat": 38.883811333333334, "fusion_lon": 0.0, "rental_uris": {"ios": "https://dc.lft.to/lastmile_qr_scan", "android": "https://dc.lft.to/lastmile_qr_scan"}, "lon": -77.0199525, "bike_id": "6b4a2d605e8669aab4e8ea744a61acde", "type": "electric_scooter", "name": "6b4a2d605e8669aab4e8ea744a61acde"}, {"is_disabled": 0, "is_reserved": 0, "fusion_lat": 0.0, "lat": 38.936598000000004, "fusion_lon": 0.0, "rental_uris": {"ios": "https://dc.lft.to/lastmile_qr_scan", "android": "https://dc.lft.to/lastmile_qr_scan"}, "lon": -77.06606716666667, "bike_id": "04ebea1d70c4d27297cf5e968eeae046", "type": "electric_scooter", "name": "04ebea1d70c4d27297cf5e968eeae046"}, {"is_disabled": 0, "is_reserved": 0, "fusion_lat": 0.0, "lat": 38.92247733333333, "fusion_lon": 0.0, "rental_uris": {"ios": "https://dc.lft.to/lastmile_qr_scan", "android": "https://dc.lft.to/lastmile_qr_scan"}, "lon": -77.03472316666667, "bike_id": "a9ecd921ef540fd8a2d6c82cb984005b", "type": "electric_scooter", "name": "a9ecd921ef540fd8a2d6c82cb984005b"}, {"is_disabled": 0, "is_reserved": 0, "fusion_lat": 0.0, "lat": 38.88259866666667, "fusion_lon": 0.0, "rental_uris": {"ios": "https://dc.lft.to/lastmile_qr_scan", "android": "https://dc.lft.to/lastmile_qr_scan"}, "lon": -77.00072316666666, "bike_id": "d46e53ccd6757bc6ee110822a46b5da5", "type": "electric_scooter", "name": "d46e53ccd6757bc6ee110822a46b5da5"}, {"is_disabled": 0, "is_reserved": 0, "fusion_lat": 0.0, "lat": 38.93419683333333, "fusion_lon": 0.0, "rental_uris": {"ios": "https://dc.lft.to/lastmile_qr_scan", "android": "https://dc.lft.to/lastmile_qr_scan"}, "lon": -77.07234883333334, "bike_id": "baa0553928b5f4c5d02da920173cc4b2", "type": "electric_scooter", "name": "baa0553928b5f4c5d02da920173cc4b2"}, {"is_disabled": 0, "is_reserved": 0, "fusion_lat": 0.0, "lat": 38.97443033333333, "fusion_lon": 0.0, "rental_uris": {"ios": "https://dc.lft.to/lastmile_qr_scan", "android": "https://dc.lft.to/lastmile_qr_scan"}, "lon": -77.09589183333334, "bike_id": "43502715c17b964cb15bc37ef5b549e7", "type": "electric_bike", "name": "43502715c17b964cb15bc37ef5b549e7"}, {"is_disabled": 0, "is_reserved": 0, "fusion_lat": 0.0, "lat": 38.91766, "fusion_lon": 0.0, "rental_uris": {"ios": "https://dc.lft.to/lastmile_qr_scan", "android": "https://dc.lft.to/lastmile_qr_scan"}, "lon": -77.029569, "bike_id": "d5821ce50a736c6fbe53aff48c4b4e1b", "type": "electric_scooter", "name": "d5821ce50a736c6fbe53aff48c4b4e1b"}, {"is_disabled": 0, "is_reserved": 0, "fusion_lat": 0.0, "lat": 38.923095833333335, "fusion_lon": 0.0, "rental_uris": {"ios": "https://dc.lft.to/lastmile_qr_scan", "android": "https://dc.lft.to/lastmile_qr_scan"}, "lon": -77.03417966666666, "bike_id": "f5d93497fabc00d9f2383ef5311c124c", "type": "electric_scooter", "name": "f5d93497fabc00d9f2383ef5311c124c"}, {"is_disabled": 0, "is_reserved": 0, "fusion_lat": 0.0, "lat": 38.876599, "fusion_lon": 0.0, "rental_uris": {"ios": "https://dc.lft.to/lastmile_qr_scan", "android": "https://dc.lft.to/lastmile_qr_scan"}, "lon": -77.00879666666667, "bike_id": "c2cd7ca5c3df6491bc0ee1df201805e0", "type": "electric_scooter", "name": "c2cd7ca5c3df6491bc0ee1df201805e0"}, {"is_disabled": 0, "is_reserved": 0, "fusion_lat": 0.0, "lat": 38.9096175, "fusion_lon": 0.0, "rental_uris": {"ios": "https://dc.lft.to/lastmile_qr_scan", "android": "https://dc.lft.to/lastmile_qr_scan"}, "lon": -77.033479, "bike_id": "f2caeaae1e6f62cdf7e6702169e100e0", "type": "electric_scooter", "name": "f2caeaae1e6f62cdf7e6702169e100e0"}, {"is_disabled": 0, "is_reserved": 0, "fusion_lat": 0.0, "lat": 38.922238666666665, "fusion_lon": 0.0, "rental_uris": {"ios": "https://dc.lft.to/lastmile_qr_scan", "android": "https://dc.lft.to/lastmile_qr_scan"}, "lon": -77.04249816666666, "bike_id": "bc6de67c085fd19d9ec289d1eb13cb81", "type": "electric_scooter", "name": "bc6de67c085fd19d9ec289d1eb13cb81"}, {"is_disabled": 0, "is_reserved": 0, "fusion_lat": 0.0, "lat": 38.9284765, "fusion_lon": 0.0, "rental_uris": {"ios": "https://dc.lft.to/lastmile_qr_scan", "android": "https://dc.lft.to/lastmile_qr_scan"}, "lon": -77.02969166666666, "bike_id": "b717787821d4f0f681d462680c18514f", "type": "electric_scooter", "name": "b717787821d4f0f681d462680c18514f"}, {"is_disabled": 0, "is_reserved": 0, "fusion_lat": 0.0, "lat": 38.917821833333335, "fusion_lon": 0.0, "rental_uris": {"ios": "https://dc.lft.to/lastmile_qr_scan", "android": "https://dc.lft.to/lastmile_qr_scan"}, "lon": -77.045499, "bike_id": "cffe2f9f379d383db5c5b138efad7394", "type": "electric_scooter", "name": "cffe2f9f379d383db5c5b138efad7394"}, {"is_disabled": 0, "is_reserved": 0, "fusion_lat": 0.0, "lat": 38.89669716666667, "fusion_lon": 0.0, "rental_uris": {"ios": "https://dc.lft.to/lastmile_qr_scan", "android": "https://dc.lft.to/lastmile_qr_scan"}, "lon": -76.93210716666667, "bike_id": "bb4b93af8fcaddf144af923c6ffe977c", "type": "electric_bike", "name": "bb4b93af8fcaddf144af923c6ffe977c"}, {"is_disabled": 0, "is_reserved": 0, "fusion_lat": 0.0, "lat": 38.912549166666665, "fusion_lon": 0.0, "rental_uris": {"ios": "https://dc.lft.to/lastmile_qr_scan", "android": "https://dc.lft.to/lastmile_qr_scan"}, "lon": -77.01948416666667, "bike_id": "f66158ecf4cbadcd16d746d27aada32f", "type": "electric_scooter", "name": "f66158ecf4cbadcd16d746d27aada32f"}, {"is_disabled": 0, "is_reserved": 0, "fusion_lat": 0.0, "lat": 38.925491666666666, "fusion_lon": 0.0, "rental_uris": {"ios": "https://dc.lft.to/lastmile_qr_scan", "android": "https://dc.lft.to/lastmile_qr_scan"}, "lon": -77.02269766666667, "bike_id": "195eb1b0f325f952db9fd7dc3ecb99c6", "type": "electric_scooter", "name": "195eb1b0f325f952db9fd7dc3ecb99c6"}, {"is_disabled": 0, "is_reserved": 0, "fusion_lat": 0.0, "lat": 38.90844533333333, "fusion_lon": 0.0, "rental_uris": {"ios": "https://dc.lft.to/lastmile_qr_scan", "android": "https://dc.lft.to/lastmile_qr_scan"}, "lon": -76.93445683333333, "bike_id": "a27462efe9203ae42e56347b39dde8d0", "type": "electric_scooter", "name": "a27462efe9203ae42e56347b39dde8d0"}, {"is_disabled": 0, "is_reserved": 0, "fusion_lat": 0.0, "lat": 38.8862115, "fusion_lon": 0.0, "rental_uris": {"ios": "https://dc.lft.to/lastmile_qr_scan", "android": "https://dc.lft.to/lastmile_qr_scan"}, "lon": -77.02837016666666, "bike_id": "e4af40b3ce285b646e79fb4fb9611523", "type": "electric_scooter", "name": "e4af40b3ce285b646e79fb4fb9611523"}, {"is_disabled": 0, "is_reserved": 0, "fusion_lat": 0.0, "lat": 38.92514833333333, "fusion_lon": 0.0, "rental_uris": {"ios": "https://dc.lft.to/lastmile_qr_scan", "android": "https://dc.lft.to/lastmile_qr_scan"}, "lon": -77.02362316666667, "bike_id": "fc45aa21a8cc3ad1f711c2490c092783", "type": "electric_scooter", "name": "fc45aa21a8cc3ad1f711c2490c092783"}, {"is_disabled": 0, "is_reserved": 0, "fusion_lat": 0.0, "lat": 38.923867666666666, "fusion_lon": 0.0, "rental_uris": {"ios": "https://dc.lft.to/lastmile_qr_scan", "android": "https://dc.lft.to/lastmile_qr_scan"}, "lon": -77.0310195, "bike_id": "5e255da7e5505907cf45ea721d3af711", "type": "electric_scooter", "name": "5e255da7e5505907cf45ea721d3af711"}, {"is_disabled": 0, "is_reserved": 0, "fusion_lat": 0.0, "lat": 38.914204166666664, "fusion_lon": 0.0, "rental_uris": {"ios": "https://dc.lft.to/lastmile_qr_scan", "android": "https://dc.lft.to/lastmile_qr_scan"}, "lon": -77.03172066666667, "bike_id": "a509c1ba719601fa8387ed11cda23f2d", "type": "electric_scooter", "name": "a509c1ba719601fa8387ed11cda23f2d"}, {"is_disabled": 0, "is_reserved": 0, "fusion_lat": 0.0, "lat": 38.92746616666667, "fusion_lon": 0.0, "rental_uris": {"ios": "https://dc.lft.to/lastmile_qr_scan", "android": "https://dc.lft.to/lastmile_qr_scan"}, "lon": -77.03295583333333, "bike_id": "abff8967e7e6cb544025f308a3c064d8", "type": "electric_scooter", "name": "abff8967e7e6cb544025f308a3c064d8"}, {"is_disabled": 0, "is_reserved": 0, "fusion_lat": 0.0, "lat": 38.96792516666667, "fusion_lon": 0.0, "rental_uris": {"ios": "https://dc.lft.to/lastmile_qr_scan", "android": "https://dc.lft.to/lastmile_qr_scan"}, "lon": -77.02432466666667, "bike_id": "8aceffdb676c2bf412ffcaaa3480a90e", "type": "electric_scooter", "name": "8aceffdb676c2bf412ffcaaa3480a90e"}, {"is_disabled": 0, "is_reserved": 0, "fusion_lat": 0.0, "lat": 38.904907333333334, "fusion_lon": 0.0, "rental_uris": {"ios": "https://dc.lft.to/lastmile_qr_scan", "android": "https://dc.lft.to/lastmile_qr_scan"}, "lon": -76.94963916666667, "bike_id": "8d651f7c52d564ae71607bb17da0332d", "type": "electric_scooter", "name": "8d651f7c52d564ae71607bb17da0332d"}, {"is_disabled": 0, "is_reserved": 0, "fusion_lat": 0.0, "lat": 38.939112333333334, "fusion_lon": 0.0, "rental_uris": {"ios": "https://dc.lft.to/lastmile_qr_scan", "android": "https://dc.lft.to/lastmile_qr_scan"}, "lon": -77.077653, "bike_id": "7bdeffc34f41731f61bb184676ee8be8", "type": "electric_scooter", "name": "7bdeffc34f41731f61bb184676ee8be8"}, {"is_disabled": 0, "is_reserved": 0, "fusion_lat": 0.0, "lat": 38.897398833333334, "fusion_lon": 0.0, "rental_uris": {"ios": "https://dc.lft.to/lastmile_qr_scan", "android": "https://dc.lft.to/lastmile_qr_scan"}, "lon": -77.0213275, "bike_id": "b2207165bec7c9714ad7e3eab506c63e", "type": "electric_scooter", "name": "b2207165bec7c9714ad7e3eab506c63e"}, {"is_disabled": 0, "is_reserved": 0, "fusion_lat": 0.0, "lat": 38.949239166666665, "fusion_lon": 0.0, "rental_uris": {"ios": "https://dc.lft.to/lastmile_qr_scan", "android": "https://dc.lft.to/lastmile_qr_scan"}, "lon": -77.02319133333333, "bike_id": "9c5ac2d79f3339e33cf6a17bde6cd6e6", "type": "electric_scooter", "name": "9c5ac2d79f3339e33cf6a17bde6cd6e6"}, {"is_disabled": 0, "is_reserved": 0, "fusion_lat": 0.0, "lat": 38.896074666666664, "fusion_lon": 0.0, "rental_uris": {"ios": "https://dc.lft.to/lastmile_qr_scan", "android": "https://dc.lft.to/lastmile_qr_scan"}, "lon": -77.045447, "bike_id": "662a757906db14b2cdf906b61a469cdc", "type": "electric_scooter", "name": "662a757906db14b2cdf906b61a469cdc"}, {"is_disabled": 0, "is_reserved": 0, "fusion_lat": 0.0, "lat": 38.86682316666667, "fusion_lon": 0.0, "rental_uris": {"ios": "https://dc.lft.to/lastmile_qr_scan", "android": "https://dc.lft.to/lastmile_qr_scan"}, "lon": -76.9485595, "bike_id": "5ffb17e0ec49d0cf82d26aad628d2d82", "type": "electric_scooter", "name": "5ffb17e0ec49d0cf82d26aad628d2d82"}, {"is_disabled": 0, "is_reserved": 0, "fusion_lat": 0.0, "lat": 38.807721, "fusion_lon": 0.0, "rental_uris": {"ios": "https://dc.lft.to/lastmile_qr_scan", "android": "https://dc.lft.to/lastmile_qr_scan"}, "lon": -77.0574175, "bike_id": "b9c26f6a04801c41e166490b935663bf", "type": "electric_bike", "name": "b9c26f6a04801c41e166490b935663bf"}, {"is_disabled": 0, "is_reserved": 0, "fusion_lat": 0.0, "lat": 38.924396, "fusion_lon": 0.0, "rental_uris": {"ios": "https://dc.lft.to/lastmile_qr_scan", "android": "https://dc.lft.to/lastmile_qr_scan"}, "lon": -77.034008, "bike_id": "1d4422027422631a62d28c8332895641", "type": "electric_scooter", "name": "1d4422027422631a62d28c8332895641"}, {"is_disabled": 0, "is_reserved": 0, "fusion_lat": 0.0, "lat": 38.8571455, "fusion_lon": 0.0, "rental_uris": {"ios": "https://dc.lft.to/lastmile_qr_scan", "android": "https://dc.lft.to/lastmile_qr_scan"}, "lon": -76.98097883333334, "bike_id": "b1243f2c92b8abcdf2e7e72d258ef611", "type": "electric_scooter", "name": "b1243f2c92b8abcdf2e7e72d258ef611"}, {"is_disabled": 0, "is_reserved": 0, "fusion_lat": 0.0, "lat": 38.907695333333336, "fusion_lon": 0.0, "rental_uris": {"ios": "https://dc.lft.to/lastmile_qr_scan", "android": "https://dc.lft.to/lastmile_qr_scan"}, "lon": -77.0424675, "bike_id": "f993c4f38a8fa5bf2ac8105ba8c1f4ca", "type": "electric_scooter", "name": "f993c4f38a8fa5bf2ac8105ba8c1f4ca"}, {"is_disabled": 0, "is_reserved": 0, "fusion_lat": 0.0, "lat": 38.871697833333336, "fusion_lon": 0.0, "rental_uris": {"ios": "https://dc.lft.to/lastmile_qr_scan", "android": "https://dc.lft.to/lastmile_qr_scan"}, "lon": -77.00622983333334, "bike_id": "fd954168911082bcec58c30af312563e", "type": "electric_scooter", "name": "fd954168911082bcec58c30af312563e"}, {"is_disabled": 0, "is_reserved": 0, "fusion_lat": 0.0, "lat": 38.884718, "fusion_lon": 0.0, "rental_uris": {"ios": "https://dc.lft.to/lastmile_qr_scan", "android": "https://dc.lft.to/lastmile_qr_scan"}, "lon": -77.02667883333334, "bike_id": "a188a2c0d337aa6e250c3d594930c4c9", "type": "electric_scooter", "name": "a188a2c0d337aa6e250c3d594930c4c9"}, {"is_disabled": 0, "is_reserved": 0, "fusion_lat": 0.0, "lat": 38.90564716666667, "fusion_lon": 0.0, "rental_uris": {"ios": "https://dc.lft.to/lastmile_qr_scan", "android": "https://dc.lft.to/lastmile_qr_scan"}, "lon": -77.007502, "bike_id": "2974f5d926b81258318b48dcd253e408", "type": "electric_scooter", "name": "2974f5d926b81258318b48dcd253e408"}, {"is_disabled": 0, "is_reserved": 0, "fusion_lat": 0.0, "lat": 38.90254733333333, "fusion_lon": 0.0, "rental_uris": {"ios": "https://dc.lft.to/lastmile_qr_scan", "android": "https://dc.lft.to/lastmile_qr_scan"}, "lon": -77.01759216666666, "bike_id": "ecd3554ef9c7f5bf2a09e84550c41311", "type": "electric_scooter", "name": "ecd3554ef9c7f5bf2a09e84550c41311"}, {"is_disabled": 0, "is_reserved": 0, "fusion_lat": 0.0, "lat": 38.88420416666666, "fusion_lon": 0.0, "rental_uris": {"ios": "https://dc.lft.to/lastmile_qr_scan", "android": "https://dc.lft.to/lastmile_qr_scan"}, "lon": -77.02912466666666, "bike_id": "6762a6b2daaaad09540bb8dbb4b3a13b", "type": "electric_scooter", "name": "6762a6b2daaaad09540bb8dbb4b3a13b"}, {"is_disabled": 0, "is_reserved": 0, "fusion_lat": 0.0, "lat": 38.923641333333336, "fusion_lon": 0.0, "rental_uris": {"ios": "https://dc.lft.to/lastmile_qr_scan", "android": "https://dc.lft.to/lastmile_qr_scan"}, "lon": -77.03372266666666, "bike_id": "db3a05a1554ffd574b606a69f5b9a2fc", "type": "electric_scooter", "name": "db3a05a1554ffd574b606a69f5b9a2fc"}, {"is_disabled": 0, "is_reserved": 0, "fusion_lat": 0.0, "lat": 38.91413566666667, "fusion_lon": 0.0, "rental_uris": {"ios": "https://dc.lft.to/lastmile_qr_scan", "android": "https://dc.lft.to/lastmile_qr_scan"}, "lon": -77.02218016666667, "bike_id": "6edb8d8aaeac1056dedc39bcc847ae40", "type": "electric_scooter", "name": "6edb8d8aaeac1056dedc39bcc847ae40"}, {"is_disabled": 0, "is_reserved": 0, "fusion_lat": 0.0, "lat": 38.90626683333333, "fusion_lon": 0.0, "rental_uris": {"ios": "https://dc.lft.to/lastmile_qr_scan", "android": "https://dc.lft.to/lastmile_qr_scan"}, "lon": -76.986641, "bike_id": "a4ba729387eae5143b6c590825d23e0f", "type": "electric_scooter", "name": "a4ba729387eae5143b6c590825d23e0f"}, {"is_disabled": 0, "is_reserved": 0, "fusion_lat": 0.0, "lat": 38.89922683333333, "fusion_lon": 0.0, "rental_uris": {"ios": "https://dc.lft.to/lastmile_qr_scan", "android": "https://dc.lft.to/lastmile_qr_scan"}, "lon": -77.03227416666667, "bike_id": "40510dc82ddf2cb5ac220be520c12a14", "type": "electric_scooter", "name": "40510dc82ddf2cb5ac220be520c12a14"}, {"is_disabled": 0, "is_reserved": 0, "fusion_lat": 0.0, "lat": 38.871648, "fusion_lon": 0.0, "rental_uris": {"ios": "https://dc.lft.to/lastmile_qr_scan", "android": "https://dc.lft.to/lastmile_qr_scan"}, "lon": -77.0135965, "bike_id": "43b6fbfb5368c36ac25e92eae00ec870", "type": "electric_scooter", "name": "43b6fbfb5368c36ac25e92eae00ec870"}, {"is_disabled": 0, "is_reserved": 0, "fusion_lat": 0.0, "lat": 38.94586316666667, "fusion_lon": 0.0, "rental_uris": {"ios": "https://dc.lft.to/lastmile_qr_scan", "android": "https://dc.lft.to/lastmile_qr_scan"}, "lon": -77.0203765, "bike_id": "769c98eb3c452357d56e4f02aa04c411", "type": "electric_scooter", "name": "769c98eb3c452357d56e4f02aa04c411"}, {"is_disabled": 0, "is_reserved": 0, "fusion_lat": 0.0, "lat": 38.909817833333335, "fusion_lon": 0.0, "rental_uris": {"ios": "https://dc.lft.to/lastmile_qr_scan", "android": "https://dc.lft.to/lastmile_qr_scan"}, "lon": -77.0482005, "bike_id": "4939dd7b552cbba0b01e4d134824e8fc", "type": "electric_scooter", "name": "4939dd7b552cbba0b01e4d134824e8fc"}, {"is_disabled": 0, "is_reserved": 0, "fusion_lat": 0.0, "lat": 38.89900383333333, "fusion_lon": 0.0, "rental_uris": {"ios": "https://dc.lft.to/lastmile_qr_scan", "android": "https://dc.lft.to/lastmile_qr_scan"}, "lon": -76.98960766666667, "bike_id": "cc198811c7e1d5e31fcb3a003d701357", "type": "electric_bike", "name": "cc198811c7e1d5e31fcb3a003d701357"}, {"is_disabled": 0, "is_reserved": 0, "fusion_lat": 0.0, "lat": 38.8926275, "fusion_lon": 0.0, "rental_uris": {"ios": "https://dc.lft.to/lastmile_qr_scan", "android": "https://dc.lft.to/lastmile_qr_scan"}, "lon": -77.04202216666667, "bike_id": "bcf938ec74df8680ccd7880278eb9d9f", "type": "electric_scooter", "name": "bcf938ec74df8680ccd7880278eb9d9f"}, {"is_disabled": 0, "is_reserved": 0, "fusion_lat": 0.0, "lat": 38.906769, "fusion_lon": 0.0, "rental_uris": {"ios": "https://dc.lft.to/lastmile_qr_scan", "android": "https://dc.lft.to/lastmile_qr_scan"}, "lon": -77.03554533333333, "bike_id": "c6667d014ee6037bde331283e855f69f", "type": "electric_scooter", "name": "c6667d014ee6037bde331283e855f69f"}, {"is_disabled": 0, "is_reserved": 0, "fusion_lat": 0.0, "lat": 38.92384333333333, "fusion_lon": 0.0, "rental_uris": {"ios": "https://dc.lft.to/lastmile_qr_scan", "android": "https://dc.lft.to/lastmile_qr_scan"}, "lon": -77.04030866666666, "bike_id": "1395b1d1f79c456503f9bafb21bbf9af", "type": "electric_scooter", "name": "1395b1d1f79c456503f9bafb21bbf9af"}, {"is_disabled": 0, "is_reserved": 0, "fusion_lat": 0.0, "lat": 38.91270316666667, "fusion_lon": 0.0, "rental_uris": {"ios": "https://dc.lft.to/lastmile_qr_scan", "android": "https://dc.lft.to/lastmile_qr_scan"}, "lon": -77.02230333333333, "bike_id": "87f0fb9a3635a73c06de4b99191df436", "type": "electric_scooter", "name": "87f0fb9a3635a73c06de4b99191df436"}, {"is_disabled": 0, "is_reserved": 0, "fusion_lat": 0.0, "lat": 38.90723283333333, "fusion_lon": 0.0, "rental_uris": {"ios": "https://dc.lft.to/lastmile_qr_scan", "android": "https://dc.lft.to/lastmile_qr_scan"}, "lon": -77.03068083333334, "bike_id": "1249d8b1ac9c2cb16a7fc421e312e2a3", "type": "electric_scooter", "name": "1249d8b1ac9c2cb16a7fc421e312e2a3"}, {"is_disabled": 0, "is_reserved": 0, "fusion_lat": 0.0, "lat": 38.9286115, "fusion_lon": 0.0, "rental_uris": {"ios": "https://dc.lft.to/lastmile_qr_scan", "android": "https://dc.lft.to/lastmile_qr_scan"}, "lon": -77.0734125, "bike_id": "993b00fe6c18c5f13089d420a5b4f576", "type": "electric_scooter", "name": "993b00fe6c18c5f13089d420a5b4f576"}, {"is_disabled": 0, "is_reserved": 0, "fusion_lat": 0.0, "lat": 38.94632816666667, "fusion_lon": 0.0, "rental_uris": {"ios": "https://dc.lft.to/lastmile_qr_scan", "android": "https://dc.lft.to/lastmile_qr_scan"}, "lon": -77.018429, "bike_id": "d70a4bf03b92a19f86dcced5b2ea372b", "type": "electric_scooter", "name": "d70a4bf03b92a19f86dcced5b2ea372b"}, {"is_disabled": 0, "is_reserved": 0, "fusion_lat": 0.0, "lat": 38.951082166666666, "fusion_lon": 0.0, "rental_uris": {"ios": "https://dc.lft.to/lastmile_qr_scan", "android": "https://dc.lft.to/lastmile_qr_scan"}, "lon": -77.01576033333333, "bike_id": "427e3c96a34848175211526890d49870", "type": "electric_scooter", "name": "427e3c96a34848175211526890d49870"}, {"is_disabled": 0, "is_reserved": 0, "fusion_lat": 0.0, "lat": 38.904734833333336, "fusion_lon": 0.0, "rental_uris": {"ios": "https://dc.lft.to/lastmile_qr_scan", "android": "https://dc.lft.to/lastmile_qr_scan"}, "lon": -77.04869933333333, "bike_id": "7800fa1dc1e8d11c44514fd0c7363b57", "type": "electric_scooter", "name": "7800fa1dc1e8d11c44514fd0c7363b57"}, {"is_disabled": 0, "is_reserved": 0, "fusion_lat": 0.0, "lat": 38.917911333333336, "fusion_lon": 0.0, "rental_uris": {"ios": "https://dc.lft.to/lastmile_qr_scan", "android": "https://dc.lft.to/lastmile_qr_scan"}, "lon": -77.0230945, "bike_id": "4908ece0e5134c05c3d4b1f96794abd8", "type": "electric_scooter", "name": "4908ece0e5134c05c3d4b1f96794abd8"}, {"is_disabled": 0, "is_reserved": 0, "fusion_lat": 0.0, "lat": 38.996687, "fusion_lon": 0.0, "rental_uris": {"ios": "https://dc.lft.to/lastmile_qr_scan", "android": "https://dc.lft.to/lastmile_qr_scan"}, "lon": -77.0379715, "bike_id": "2a95f53f807184c0c2d9bf80f0be8fe0", "type": "electric_bike", "name": "2a95f53f807184c0c2d9bf80f0be8fe0"}, {"is_disabled": 0, "is_reserved": 0, "fusion_lat": 0.0, "lat": 38.9066575, "fusion_lon": 0.0, "rental_uris": {"ios": "https://dc.lft.to/lastmile_qr_scan", "android": "https://dc.lft.to/lastmile_qr_scan"}, "lon": -77.02706583333334, "bike_id": "c3fcca1eb68f13cc92300bf75a37c424", "type": "electric_scooter", "name": "c3fcca1eb68f13cc92300bf75a37c424"}, {"is_disabled": 0, "is_reserved": 0, "fusion_lat": 0.0, "lat": 38.89582516666667, "fusion_lon": 0.0, "rental_uris": {"ios": "https://dc.lft.to/lastmile_qr_scan", "android": "https://dc.lft.to/lastmile_qr_scan"}, "lon": -77.02515716666667, "bike_id": "d3ae4b9dfe1f38862073055fe499053a", "type": "electric_scooter", "name": "d3ae4b9dfe1f38862073055fe499053a"}, {"is_disabled": 0, "is_reserved": 0, "fusion_lat": 0.0, "lat": 38.92085733333333, "fusion_lon": 0.0, "rental_uris": {"ios": "https://dc.lft.to/lastmile_qr_scan", "android": "https://dc.lft.to/lastmile_qr_scan"}, "lon": -77.0225295, "bike_id": "354bd6be4210536ebacbe9d0522f2831", "type": "electric_scooter", "name": "354bd6be4210536ebacbe9d0522f2831"}, {"is_disabled": 0, "is_reserved": 0, "fusion_lat": 0.0, "lat": 38.9085565, "fusion_lon": 0.0, "rental_uris": {"ios": "https://dc.lft.to/lastmile_qr_scan", "android": "https://dc.lft.to/lastmile_qr_scan"}, "lon": -77.048299, "bike_id": "55f11726e5d3d4b969a8a7225115f8e0", "type": "electric_scooter", "name": "55f11726e5d3d4b969a8a7225115f8e0"}, {"is_disabled": 0, "is_reserved": 0, "fusion_lat": 0.0, "lat": 38.901947166666666, "fusion_lon": 0.0, "rental_uris": {"ios": "https://dc.lft.to/lastmile_qr_scan", "android": "https://dc.lft.to/lastmile_qr_scan"}, "lon": -77.05092733333333, "bike_id": "8c1fcf94987e7e587c62398aa5121d08", "type": "electric_scooter", "name": "8c1fcf94987e7e587c62398aa5121d08"}, {"is_disabled": 0, "is_reserved": 0, "fusion_lat": 0.0, "lat": 38.9086505, "fusion_lon": 0.0, "rental_uris": {"ios": "https://dc.lft.to/lastmile_qr_scan", "android": "https://dc.lft.to/lastmile_qr_scan"}, "lon": -77.085897, "bike_id": "a5fab9961bf025adfc1b2d68fcb7338e", "type": "electric_scooter", "name": "a5fab9961bf025adfc1b2d68fcb7338e"}, {"is_disabled": 0, "is_reserved": 0, "fusion_lat": 0.0, "lat": 38.913438, "fusion_lon": 0.0, "rental_uris": {"ios": "https://dc.lft.to/lastmile_qr_scan", "android": "https://dc.lft.to/lastmile_qr_scan"}, "lon": -77.03201633333333, "bike_id": "b8bfff91af064e99fb9eef97bdd64795", "type": "electric_scooter", "name": "b8bfff91af064e99fb9eef97bdd64795"}, {"is_disabled": 0, "is_reserved": 0, "fusion_lat": 0.0, "lat": 38.94720183333333, "fusion_lon": 0.0, "rental_uris": {"ios": "https://dc.lft.to/lastmile_qr_scan", "android": "https://dc.lft.to/lastmile_qr_scan"}, "lon": -77.023551, "bike_id": "948bdaceeaf0319039d7f529e60e29d4", "type": "electric_scooter", "name": "948bdaceeaf0319039d7f529e60e29d4"}, {"is_disabled": 0, "is_reserved": 0, "fusion_lat": 0.0, "lat": 38.917883, "fusion_lon": 0.0, "rental_uris": {"ios": "https://dc.lft.to/lastmile_qr_scan", "android": "https://dc.lft.to/lastmile_qr_scan"}, "lon": -77.0247405, "bike_id": "2853c714a03e105521ef99b1e816e1af", "type": "electric_scooter", "name": "2853c714a03e105521ef99b1e816e1af"}, {"is_disabled": 0, "is_reserved": 0, "fusion_lat": 0.0, "lat": 38.92962033333333, "fusion_lon": 0.0, "rental_uris": {"ios": "https://dc.lft.to/lastmile_qr_scan", "android": "https://dc.lft.to/lastmile_qr_scan"}, "lon": -77.04208416666667, "bike_id": "ed6022a74ca34779e2a814ba478e6d0e", "type": "electric_scooter", "name": "ed6022a74ca34779e2a814ba478e6d0e"}, {"is_disabled": 0, "is_reserved": 0, "fusion_lat": 0.0, "lat": 38.91997716666667, "fusion_lon": 0.0, "rental_uris": {"ios": "https://dc.lft.to/lastmile_qr_scan", "android": "https://dc.lft.to/lastmile_qr_scan"}, "lon": -77.04179083333334, "bike_id": "9d3aa2f2eeb124ec6118b228aac26b94", "type": "electric_scooter", "name": "9d3aa2f2eeb124ec6118b228aac26b94"}, {"is_disabled": 0, "is_reserved": 0, "fusion_lat": 0.0, "lat": 38.9113145, "fusion_lon": 0.0, "rental_uris": {"ios": "https://dc.lft.to/lastmile_qr_scan", "android": "https://dc.lft.to/lastmile_qr_scan"}, "lon": -77.02089716666667, "bike_id": "ef3c0fe2b28ef6790881d4da5010fb4b", "type": "electric_scooter", "name": "ef3c0fe2b28ef6790881d4da5010fb4b"}, {"is_disabled": 0, "is_reserved": 0, "fusion_lat": 0.0, "lat": 38.904717, "fusion_lon": 0.0, "rental_uris": {"ios": "https://dc.lft.to/lastmile_qr_scan", "android": "https://dc.lft.to/lastmile_qr_scan"}, "lon": -76.95050133333334, "bike_id": "3d3e436a400b78bde940336a87a91c18", "type": "electric_scooter", "name": "3d3e436a400b78bde940336a87a91c18"}, {"is_disabled": 0, "is_reserved": 0, "fusion_lat": 0.0, "lat": 38.9047775, "fusion_lon": 0.0, "rental_uris": {"ios": "https://dc.lft.to/lastmile_qr_scan", "android": "https://dc.lft.to/lastmile_qr_scan"}, "lon": -77.04864416666666, "bike_id": "f4470d02a104c2cb6b2becf0132136df", "type": "electric_scooter", "name": "f4470d02a104c2cb6b2becf0132136df"}, {"is_disabled": 0, "is_reserved": 0, "fusion_lat": 0.0, "lat": 38.9088975, "fusion_lon": 0.0, "rental_uris": {"ios": "https://dc.lft.to/lastmile_qr_scan", "android": "https://dc.lft.to/lastmile_qr_scan"}, "lon": -77.04424983333334, "bike_id": "4f96164b06994253af029f4a84e10fa6", "type": "electric_scooter", "name": "4f96164b06994253af029f4a84e10fa6"}, {"is_disabled": 0, "is_reserved": 0, "fusion_lat": 0.0, "lat": 38.930825666666664, "fusion_lon": 0.0, "rental_uris": {"ios": "https://dc.lft.to/lastmile_qr_scan", "android": "https://dc.lft.to/lastmile_qr_scan"}, "lon": -77.028067, "bike_id": "81d26b1835176ddfee9ca29e815346d0", "type": "electric_scooter", "name": "81d26b1835176ddfee9ca29e815346d0"}, {"is_disabled": 0, "is_reserved": 0, "fusion_lat": 0.0, "lat": 38.8553095, "fusion_lon": 0.0, "rental_uris": {"ios": "https://dc.lft.to/lastmile_qr_scan", "android": "https://dc.lft.to/lastmile_qr_scan"}, "lon": -76.99175933333333, "bike_id": "b9d21e65906cfab72068ee6dbf52b9f6", "type": "electric_scooter", "name": "b9d21e65906cfab72068ee6dbf52b9f6"}, {"is_disabled": 0, "is_reserved": 0, "fusion_lat": 0.0, "lat": 38.926012, "fusion_lon": 0.0, "rental_uris": {"ios": "https://dc.lft.to/lastmile_qr_scan", "android": "https://dc.lft.to/lastmile_qr_scan"}, "lon": -77.021572, "bike_id": "ff84816540ff16de5d9fc0daa14abded", "type": "electric_scooter", "name": "ff84816540ff16de5d9fc0daa14abded"}, {"is_disabled": 0, "is_reserved": 0, "fusion_lat": 0.0, "lat": 38.8922045, "fusion_lon": 0.0, "rental_uris": {"ios": "https://dc.lft.to/lastmile_qr_scan", "android": "https://dc.lft.to/lastmile_qr_scan"}, "lon": -77.027819, "bike_id": "6c4eb81fb93b14229f429f58f2f35e3c", "type": "electric_scooter", "name": "6c4eb81fb93b14229f429f58f2f35e3c"}, {"is_disabled": 0, "is_reserved": 0, "fusion_lat": 0.0, "lat": 38.87514, "fusion_lon": 0.0, "rental_uris": {"ios": "https://dc.lft.to/lastmile_qr_scan", "android": "https://dc.lft.to/lastmile_qr_scan"}, "lon": -77.11758966666666, "bike_id": "a7265d8207577db1ec772133a8c900d4", "type": "electric_bike", "name": "a7265d8207577db1ec772133a8c900d4"}, {"is_disabled": 0, "is_reserved": 0, "fusion_lat": 0.0, "lat": 38.900291833333334, "fusion_lon": 0.0, "rental_uris": {"ios": "https://dc.lft.to/lastmile_qr_scan", "android": "https://dc.lft.to/lastmile_qr_scan"}, "lon": -77.01194383333333, "bike_id": "dfd22f268fe04cc0cd224849fe20b608", "type": "electric_scooter", "name": "dfd22f268fe04cc0cd224849fe20b608"}, {"is_disabled": 0, "is_reserved": 0, "fusion_lat": 0.0, "lat": 38.907027166666666, "fusion_lon": 0.0, "rental_uris": {"ios": "https://dc.lft.to/lastmile_qr_scan", "android": "https://dc.lft.to/lastmile_qr_scan"}, "lon": -77.03204933333333, "bike_id": "34c24893fabd5b3515958a75fe73d9fd", "type": "electric_scooter", "name": "34c24893fabd5b3515958a75fe73d9fd"}, {"is_disabled": 0, "is_reserved": 0, "fusion_lat": 0.0, "lat": 38.90242333333333, "fusion_lon": 0.0, "rental_uris": {"ios": "https://dc.lft.to/lastmile_qr_scan", "android": "https://dc.lft.to/lastmile_qr_scan"}, "lon": -77.0513635, "bike_id": "0edae0cf79cec3f1f43050a31c5001dd", "type": "electric_scooter", "name": "0edae0cf79cec3f1f43050a31c5001dd"}, {"is_disabled": 0, "is_reserved": 0, "fusion_lat": 0.0, "lat": 38.88044133333333, "fusion_lon": 0.0, "rental_uris": {"ios": "https://dc.lft.to/lastmile_qr_scan", "android": "https://dc.lft.to/lastmile_qr_scan"}, "lon": -76.92726066666667, "bike_id": "2058feeae681cb1213d1544a40b7dfcd", "type": "electric_scooter", "name": "2058feeae681cb1213d1544a40b7dfcd"}, {"is_disabled": 0, "is_reserved": 0, "fusion_lat": 0.0, "lat": 38.90036833333333, "fusion_lon": 0.0, "rental_uris": {"ios": "https://dc.lft.to/lastmile_qr_scan", "android": "https://dc.lft.to/lastmile_qr_scan"}, "lon": -77.0022245, "bike_id": "8d71e1d3cd944b058886c13174046817", "type": "electric_scooter", "name": "8d71e1d3cd944b058886c13174046817"}, {"is_disabled": 0, "is_reserved": 0, "fusion_lat": 0.0, "lat": 38.91442116666666, "fusion_lon": 0.0, "rental_uris": {"ios": "https://dc.lft.to/lastmile_qr_scan", "android": "https://dc.lft.to/lastmile_qr_scan"}, "lon": -77.02286033333333, "bike_id": "708eeb7303a940aebd3850f1b9ed3303", "type": "electric_scooter", "name": "708eeb7303a940aebd3850f1b9ed3303"}, {"is_disabled": 0, "is_reserved": 0, "fusion_lat": 0.0, "lat": 38.931708, "fusion_lon": 0.0, "rental_uris": {"ios": "https://dc.lft.to/lastmile_qr_scan", "android": "https://dc.lft.to/lastmile_qr_scan"}, "lon": -77.028186, "bike_id": "6749af945245b9a9985585590794c382", "type": "electric_scooter", "name": "6749af945245b9a9985585590794c382"}, {"is_disabled": 0, "is_reserved": 0, "fusion_lat": 0.0, "lat": 38.92036266666667, "fusion_lon": 0.0, "rental_uris": {"ios": "https://dc.lft.to/lastmile_qr_scan", "android": "https://dc.lft.to/lastmile_qr_scan"}, "lon": -77.04722733333334, "bike_id": "9580369deda6a8b28d0f0bc988cb2c13", "type": "electric_scooter", "name": "9580369deda6a8b28d0f0bc988cb2c13"}, {"is_disabled": 0, "is_reserved": 0, "fusion_lat": 0.0, "lat": 38.87070166666667, "fusion_lon": 0.0, "rental_uris": {"ios": "https://dc.lft.to/lastmile_qr_scan", "android": "https://dc.lft.to/lastmile_qr_scan"}, "lon": -76.97973066666667, "bike_id": "6054d8530c54b1d84e8ad69f0694375b", "type": "electric_scooter", "name": "6054d8530c54b1d84e8ad69f0694375b"}, {"is_disabled": 0, "is_reserved": 0, "fusion_lat": 0.0, "lat": 38.87578083333333, "fusion_lon": 0.0, "rental_uris": {"ios": "https://dc.lft.to/lastmile_qr_scan", "android": "https://dc.lft.to/lastmile_qr_scan"}, "lon": -77.2340965, "bike_id": "fd481ec03f9f4c8e23b57da16d650ef1", "type": "electric_bike", "name": "fd481ec03f9f4c8e23b57da16d650ef1"}, {"is_disabled": 0, "is_reserved": 0, "fusion_lat": 0.0, "lat": 38.905905833333335, "fusion_lon": 0.0, "rental_uris": {"ios": "https://dc.lft.to/lastmile_qr_scan", "android": "https://dc.lft.to/lastmile_qr_scan"}, "lon": -77.02185316666667, "bike_id": "2ec710a609cd8d848196294106f00c3c", "type": "electric_scooter", "name": "2ec710a609cd8d848196294106f00c3c"}, {"is_disabled": 0, "is_reserved": 0, "fusion_lat": 0.0, "lat": 38.90455716666666, "fusion_lon": 0.0, "rental_uris": {"ios": "https://dc.lft.to/lastmile_qr_scan", "android": "https://dc.lft.to/lastmile_qr_scan"}, "lon": -76.93277516666667, "bike_id": "8325ada499adbd70c96e8c26a41167aa", "type": "electric_scooter", "name": "8325ada499adbd70c96e8c26a41167aa"}, {"is_disabled": 0, "is_reserved": 0, "fusion_lat": 0.0, "lat": 38.908903333333335, "fusion_lon": 0.0, "rental_uris": {"ios": "https://dc.lft.to/lastmile_qr_scan", "android": "https://dc.lft.to/lastmile_qr_scan"}, "lon": -77.04408466666666, "bike_id": "5cade0239f53203f9e2970a33adc8935", "type": "electric_scooter", "name": "5cade0239f53203f9e2970a33adc8935"}, {"is_disabled": 0, "is_reserved": 0, "fusion_lat": 0.0, "lat": 38.916928, "fusion_lon": 0.0, "rental_uris": {"ios": "https://dc.lft.to/lastmile_qr_scan", "android": "https://dc.lft.to/lastmile_qr_scan"}, "lon": -77.03771166666667, "bike_id": "65def97de73e7d5de53f937376453c16", "type": "electric_scooter", "name": "65def97de73e7d5de53f937376453c16"}, {"is_disabled": 0, "is_reserved": 0, "fusion_lat": 0.0, "lat": 38.93994283333333, "fusion_lon": 0.0, "rental_uris": {"ios": "https://dc.lft.to/lastmile_qr_scan", "android": "https://dc.lft.to/lastmile_qr_scan"}, "lon": -77.02888783333333, "bike_id": "ed92e1dd03dbf7f247d8d1604a62faa1", "type": "electric_scooter", "name": "ed92e1dd03dbf7f247d8d1604a62faa1"}, {"is_disabled": 0, "is_reserved": 0, "fusion_lat": 0.0, "lat": 38.87317483333333, "fusion_lon": 0.0, "rental_uris": {"ios": "https://dc.lft.to/lastmile_qr_scan", "android": "https://dc.lft.to/lastmile_qr_scan"}, "lon": -77.00612766666667, "bike_id": "f9d09b5a627ed87c1657ac3f6b5d48ce", "type": "electric_scooter", "name": "f9d09b5a627ed87c1657ac3f6b5d48ce"}, {"is_disabled": 0, "is_reserved": 0, "fusion_lat": 0.0, "lat": 38.92388916666667, "fusion_lon": 0.0, "rental_uris": {"ios": "https://dc.lft.to/lastmile_qr_scan", "android": "https://dc.lft.to/lastmile_qr_scan"}, "lon": -77.040383, "bike_id": "9e75ad3c26c50a63577593869d3b1d55", "type": "electric_scooter", "name": "9e75ad3c26c50a63577593869d3b1d55"}, {"is_disabled": 0, "is_reserved": 0, "fusion_lat": 0.0, "lat": 38.9213835, "fusion_lon": 0.0, "rental_uris": {"ios": "https://dc.lft.to/lastmile_qr_scan", "android": "https://dc.lft.to/lastmile_qr_scan"}, "lon": -77.051656, "bike_id": "1fbf39525039b63df57de8cdd6e6b9c1", "type": "electric_scooter", "name": "1fbf39525039b63df57de8cdd6e6b9c1"}, {"is_disabled": 0, "is_reserved": 0, "fusion_lat": 0.0, "lat": 38.919697166666666, "fusion_lon": 0.0, "rental_uris": {"ios": "https://dc.lft.to/lastmile_qr_scan", "android": "https://dc.lft.to/lastmile_qr_scan"}, "lon": -77.04244516666667, "bike_id": "5bf752da9477e292a1666469e39e47a4", "type": "electric_scooter", "name": "5bf752da9477e292a1666469e39e47a4"}, {"is_disabled": 0, "is_reserved": 0, "fusion_lat": 0.0, "lat": 38.91115766666667, "fusion_lon": 0.0, "rental_uris": {"ios": "https://dc.lft.to/lastmile_qr_scan", "android": "https://dc.lft.to/lastmile_qr_scan"}, "lon": -77.03866116666667, "bike_id": "0fd5e4722de38d39bf9c77981d4ae117", "type": "electric_scooter", "name": "0fd5e4722de38d39bf9c77981d4ae117"}, {"is_disabled": 0, "is_reserved": 0, "fusion_lat": 0.0, "lat": 38.91447466666666, "fusion_lon": 0.0, "rental_uris": {"ios": "https://dc.lft.to/lastmile_qr_scan", "android": "https://dc.lft.to/lastmile_qr_scan"}, "lon": -77.021829, "bike_id": "24cf80041ca27d5cf4ade21db254d544", "type": "electric_scooter", "name": "24cf80041ca27d5cf4ade21db254d544"}, {"is_disabled": 0, "is_reserved": 0, "fusion_lat": 0.0, "lat": 38.900669666666666, "fusion_lon": 0.0, "rental_uris": {"ios": "https://dc.lft.to/lastmile_qr_scan", "android": "https://dc.lft.to/lastmile_qr_scan"}, "lon": -77.050274, "bike_id": "0b7e372cbd3cf0cd57721d1ec93ef659", "type": "electric_scooter", "name": "0b7e372cbd3cf0cd57721d1ec93ef659"}, {"is_disabled": 0, "is_reserved": 0, "fusion_lat": 0.0, "lat": 38.8048195, "fusion_lon": 0.0, "rental_uris": {"ios": "https://dc.lft.to/lastmile_qr_scan", "android": "https://dc.lft.to/lastmile_qr_scan"}, "lon": -76.99105233333333, "bike_id": "b67bce276095e58ab11bafcef8ff36c0", "type": "electric_bike", "name": "b67bce276095e58ab11bafcef8ff36c0"}, {"is_disabled": 0, "is_reserved": 0, "fusion_lat": 0.0, "lat": 38.913451333333335, "fusion_lon": 0.0, "rental_uris": {"ios": "https://dc.lft.to/lastmile_qr_scan", "android": "https://dc.lft.to/lastmile_qr_scan"}, "lon": -77.03195733333334, "bike_id": "b4261b629694edea044fe094398bce87", "type": "electric_scooter", "name": "b4261b629694edea044fe094398bce87"}, {"is_disabled": 0, "is_reserved": 0, "fusion_lat": 0.0, "lat": 38.95885233333333, "fusion_lon": 0.0, "rental_uris": {"ios": "https://dc.lft.to/lastmile_qr_scan", "android": "https://dc.lft.to/lastmile_qr_scan"}, "lon": -76.9809785, "bike_id": "239c943eb629c28d91b38bb4930b8d3a", "type": "electric_bike", "name": "239c943eb629c28d91b38bb4930b8d3a"}, {"is_disabled": 0, "is_reserved": 0, "fusion_lat": 0.0, "lat": 38.92357033333333, "fusion_lon": 0.0, "rental_uris": {"ios": "https://dc.lft.to/lastmile_qr_scan", "android": "https://dc.lft.to/lastmile_qr_scan"}, "lon": -77.073108, "bike_id": "e068fa7a1a7a0309a27f940029c85751", "type": "electric_scooter", "name": "e068fa7a1a7a0309a27f940029c85751"}, {"is_disabled": 0, "is_reserved": 0, "fusion_lat": 0.0, "lat": 38.89292833333333, "fusion_lon": 0.0, "rental_uris": {"ios": "https://dc.lft.to/lastmile_qr_scan", "android": "https://dc.lft.to/lastmile_qr_scan"}, "lon": -76.97617166666667, "bike_id": "f5b3ff3361377766d5e5fe9989dd86c4", "type": "electric_bike", "name": "f5b3ff3361377766d5e5fe9989dd86c4"}, {"is_disabled": 0, "is_reserved": 0, "fusion_lat": 0.0, "lat": 38.937002166666666, "fusion_lon": 0.0, "rental_uris": {"ios": "https://dc.lft.to/lastmile_qr_scan", "android": "https://dc.lft.to/lastmile_qr_scan"}, "lon": -77.05600966666667, "bike_id": "2969de59b8a12a0b15bd598524b9bf23", "type": "electric_scooter", "name": "2969de59b8a12a0b15bd598524b9bf23"}, {"is_disabled": 0, "is_reserved": 0, "fusion_lat": 0.0, "lat": 38.923970833333335, "fusion_lon": 0.0, "rental_uris": {"ios": "https://dc.lft.to/lastmile_qr_scan", "android": "https://dc.lft.to/lastmile_qr_scan"}, "lon": -76.99385783333334, "bike_id": "ae857664ddb2a0114ecca23b210fefaa", "type": "electric_scooter", "name": "ae857664ddb2a0114ecca23b210fefaa"}, {"is_disabled": 0, "is_reserved": 0, "fusion_lat": 0.0, "lat": 38.89212216666667, "fusion_lon": 0.0, "rental_uris": {"ios": "https://dc.lft.to/lastmile_qr_scan", "android": "https://dc.lft.to/lastmile_qr_scan"}, "lon": -76.99839666666666, "bike_id": "ccd6d36777bc1d9e3a9720f4d4105520", "type": "electric_scooter", "name": "ccd6d36777bc1d9e3a9720f4d4105520"}, {"is_disabled": 0, "is_reserved": 0, "fusion_lat": 0.0, "lat": 38.931200833333335, "fusion_lon": 0.0, "rental_uris": {"ios": "https://dc.lft.to/lastmile_qr_scan", "android": "https://dc.lft.to/lastmile_qr_scan"}, "lon": -77.02069933333334, "bike_id": "4c31de11ac20fbddb2408d253aed27b5", "type": "electric_scooter", "name": "4c31de11ac20fbddb2408d253aed27b5"}, {"is_disabled": 0, "is_reserved": 0, "fusion_lat": 0.0, "lat": 38.90793516666667, "fusion_lon": 0.0, "rental_uris": {"ios": "https://dc.lft.to/lastmile_qr_scan", "android": "https://dc.lft.to/lastmile_qr_scan"}, "lon": -77.04992233333333, "bike_id": "6ba0bf409aacc8134cd2001ce5dc41c3", "type": "electric_scooter", "name": "6ba0bf409aacc8134cd2001ce5dc41c3"}, {"is_disabled": 0, "is_reserved": 0, "fusion_lat": 0.0, "lat": 38.91858033333333, "fusion_lon": 0.0, "rental_uris": {"ios": "https://dc.lft.to/lastmile_qr_scan", "android": "https://dc.lft.to/lastmile_qr_scan"}, "lon": -77.04446116666666, "bike_id": "c8bb27c733b00fb672ed60e5698dcf0c", "type": "electric_scooter", "name": "c8bb27c733b00fb672ed60e5698dcf0c"}, {"is_disabled": 0, "is_reserved": 0, "fusion_lat": 0.0, "lat": 38.9073335, "fusion_lon": 0.0, "rental_uris": {"ios": "https://dc.lft.to/lastmile_qr_scan", "android": "https://dc.lft.to/lastmile_qr_scan"}, "lon": -77.028011, "bike_id": "82c07bf9b5bc2bc60ab10466f5fe05ff", "type": "electric_scooter", "name": "82c07bf9b5bc2bc60ab10466f5fe05ff"}, {"is_disabled": 0, "is_reserved": 0, "fusion_lat": 0.0, "lat": 38.932549, "fusion_lon": 0.0, "rental_uris": {"ios": "https://dc.lft.to/lastmile_qr_scan", "android": "https://dc.lft.to/lastmile_qr_scan"}, "lon": -77.0327935, "bike_id": "b8deb8cfcb7ad5fd47d469c558199cd4", "type": "electric_scooter", "name": "b8deb8cfcb7ad5fd47d469c558199cd4"}, {"is_disabled": 0, "is_reserved": 0, "fusion_lat": 0.0, "lat": 38.91991083333333, "fusion_lon": 0.0, "rental_uris": {"ios": "https://dc.lft.to/lastmile_qr_scan", "android": "https://dc.lft.to/lastmile_qr_scan"}, "lon": -77.0417835, "bike_id": "e36933134e7b8bd5acc4d053a528b41f", "type": "electric_scooter", "name": "e36933134e7b8bd5acc4d053a528b41f"}, {"is_disabled": 0, "is_reserved": 0, "fusion_lat": 0.0, "lat": 38.881393333333335, "fusion_lon": 0.0, "rental_uris": {"ios": "https://dc.lft.to/lastmile_qr_scan", "android": "https://dc.lft.to/lastmile_qr_scan"}, "lon": -77.02271033333334, "bike_id": "efb1093a85567c8095f2f7a28736f833", "type": "electric_scooter", "name": "efb1093a85567c8095f2f7a28736f833"}, {"is_disabled": 0, "is_reserved": 0, "fusion_lat": 0.0, "lat": 38.928544, "fusion_lon": 0.0, "rental_uris": {"ios": "https://dc.lft.to/lastmile_qr_scan", "android": "https://dc.lft.to/lastmile_qr_scan"}, "lon": -77.0142665, "bike_id": "6d00898c1f608d26d54a115bbbb82f2b", "type": "electric_scooter", "name": "6d00898c1f608d26d54a115bbbb82f2b"}, {"is_disabled": 0, "is_reserved": 0, "fusion_lat": 0.0, "lat": 38.899684666666666, "fusion_lon": 0.0, "rental_uris": {"ios": "https://dc.lft.to/lastmile_qr_scan", "android": "https://dc.lft.to/lastmile_qr_scan"}, "lon": -77.029564, "bike_id": "cabd5453bff7fb245cadc4c89af57e78", "type": "electric_scooter", "name": "cabd5453bff7fb245cadc4c89af57e78"}, {"is_disabled": 0, "is_reserved": 0, "fusion_lat": 0.0, "lat": 38.88298316666667, "fusion_lon": 0.0, "rental_uris": {"ios": "https://dc.lft.to/lastmile_qr_scan", "android": "https://dc.lft.to/lastmile_qr_scan"}, "lon": -76.94856300000001, "bike_id": "dedd1d24f618ee02baba6e1ce7d8cb5e", "type": "electric_scooter", "name": "dedd1d24f618ee02baba6e1ce7d8cb5e"}, {"is_disabled": 0, "is_reserved": 0, "fusion_lat": 0.0, "lat": 38.922227166666666, "fusion_lon": 0.0, "rental_uris": {"ios": "https://dc.lft.to/lastmile_qr_scan", "android": "https://dc.lft.to/lastmile_qr_scan"}, "lon": -77.04243016666666, "bike_id": "bec02b4dbf07ef23975a9355bb84cb18", "type": "electric_scooter", "name": "bec02b4dbf07ef23975a9355bb84cb18"}, {"is_disabled": 0, "is_reserved": 0, "fusion_lat": 0.0, "lat": 38.91205133333333, "fusion_lon": 0.0, "rental_uris": {"ios": "https://dc.lft.to/lastmile_qr_scan", "android": "https://dc.lft.to/lastmile_qr_scan"}, "lon": -76.9877125, "bike_id": "dd811d61c0bda94a1452c288f1bd979b", "type": "electric_scooter", "name": "dd811d61c0bda94a1452c288f1bd979b"}, {"is_disabled": 0, "is_reserved": 0, "fusion_lat": 0.0, "lat": 38.892475833333336, "fusion_lon": 0.0, "rental_uris": {"ios": "https://dc.lft.to/lastmile_qr_scan", "android": "https://dc.lft.to/lastmile_qr_scan"}, "lon": -76.98548266666667, "bike_id": "082955ef94c0a32a5d943d4ebfaa6392", "type": "electric_bike", "name": "082955ef94c0a32a5d943d4ebfaa6392"}, {"is_disabled": 0, "is_reserved": 0, "fusion_lat": 0.0, "lat": 38.970308333333335, "fusion_lon": 0.0, "rental_uris": {"ios": "https://dc.lft.to/lastmile_qr_scan", "android": "https://dc.lft.to/lastmile_qr_scan"}, "lon": -77.02236033333334, "bike_id": "01b629be67cb3407f824a543d0861760", "type": "electric_bike", "name": "01b629be67cb3407f824a543d0861760"}, {"is_disabled": 0, "is_reserved": 0, "fusion_lat": 0.0, "lat": 38.91619133333333, "fusion_lon": 0.0, "rental_uris": {"ios": "https://dc.lft.to/lastmile_qr_scan", "android": "https://dc.lft.to/lastmile_qr_scan"}, "lon": -77.00299183333334, "bike_id": "8cdc7ed21cddc87afa4ab204931cf2ef", "type": "electric_bike", "name": "8cdc7ed21cddc87afa4ab204931cf2ef"}, {"is_disabled": 0, "is_reserved": 0, "fusion_lat": 0.0, "lat": 38.9214955, "fusion_lon": 0.0, "rental_uris": {"ios": "https://dc.lft.to/lastmile_qr_scan", "android": "https://dc.lft.to/lastmile_qr_scan"}, "lon": -77.03868566666667, "bike_id": "6c01b4a39c0eae7e41e4fc8aab564acd", "type": "electric_scooter", "name": "6c01b4a39c0eae7e41e4fc8aab564acd"}, {"is_disabled": 0, "is_reserved": 0, "fusion_lat": 0.0, "lat": 38.841870166666666, "fusion_lon": 0.0, "rental_uris": {"ios": "https://dc.lft.to/lastmile_qr_scan", "android": "https://dc.lft.to/lastmile_qr_scan"}, "lon": -77.07750833333333, "bike_id": "3d745b684a575c14d7e40f662c329ec1", "type": "electric_bike", "name": "3d745b684a575c14d7e40f662c329ec1"}, {"is_disabled": 0, "is_reserved": 0, "fusion_lat": 0.0, "lat": 38.9329085, "fusion_lon": 0.0, "rental_uris": {"ios": "https://dc.lft.to/lastmile_qr_scan", "android": "https://dc.lft.to/lastmile_qr_scan"}, "lon": -77.0362035, "bike_id": "4afe91d730fa597dc9de2cf7a37e1ea8", "type": "electric_scooter", "name": "4afe91d730fa597dc9de2cf7a37e1ea8"}, {"is_disabled": 0, "is_reserved": 0, "fusion_lat": 0.0, "lat": 38.90523433333333, "fusion_lon": 0.0, "rental_uris": {"ios": "https://dc.lft.to/lastmile_qr_scan", "android": "https://dc.lft.to/lastmile_qr_scan"}, "lon": -77.06607133333333, "bike_id": "2f4f8aeb4dfffd378b888452a8bb280e", "type": "electric_scooter", "name": "2f4f8aeb4dfffd378b888452a8bb280e"}, {"is_disabled": 0, "is_reserved": 0, "fusion_lat": 0.0, "lat": 38.90957083333333, "fusion_lon": 0.0, "rental_uris": {"ios": "https://dc.lft.to/lastmile_qr_scan", "android": "https://dc.lft.to/lastmile_qr_scan"}, "lon": -77.02275316666666, "bike_id": "5aa0448b232e7575e2b18032a0b5903a", "type": "electric_scooter", "name": "5aa0448b232e7575e2b18032a0b5903a"}, {"is_disabled": 0, "is_reserved": 0, "fusion_lat": 0.0, "lat": 38.872904166666665, "fusion_lon": 0.0, "rental_uris": {"ios": "https://dc.lft.to/lastmile_qr_scan", "android": "https://dc.lft.to/lastmile_qr_scan"}, "lon": -77.00986366666666, "bike_id": "cd4aa2fe0a95894f46f095ed53416a70", "type": "electric_scooter", "name": "cd4aa2fe0a95894f46f095ed53416a70"}, {"is_disabled": 0, "is_reserved": 0, "fusion_lat": 0.0, "lat": 38.92176283333333, "fusion_lon": 0.0, "rental_uris": {"ios": "https://dc.lft.to/lastmile_qr_scan", "android": "https://dc.lft.to/lastmile_qr_scan"}, "lon": -77.04235616666666, "bike_id": "8cd8464174d11ac58c43cdcf6b308fb7", "type": "electric_scooter", "name": "8cd8464174d11ac58c43cdcf6b308fb7"}, {"is_disabled": 0, "is_reserved": 0, "fusion_lat": 0.0, "lat": 38.86566216666667, "fusion_lon": 0.0, "rental_uris": {"ios": "https://dc.lft.to/lastmile_qr_scan", "android": "https://dc.lft.to/lastmile_qr_scan"}, "lon": -76.9746985, "bike_id": "ad2df9fdb2bd7f0b2297da8e38bbaf36", "type": "electric_bike", "name": "ad2df9fdb2bd7f0b2297da8e38bbaf36"}, {"is_disabled": 0, "is_reserved": 0, "fusion_lat": 0.0, "lat": 38.900831333333336, "fusion_lon": 0.0, "rental_uris": {"ios": "https://dc.lft.to/lastmile_qr_scan", "android": "https://dc.lft.to/lastmile_qr_scan"}, "lon": -77.038151, "bike_id": "6e1643919e2232141c78a447ff241d89", "type": "electric_scooter", "name": "6e1643919e2232141c78a447ff241d89"}, {"is_disabled": 0, "is_reserved": 0, "fusion_lat": 0.0, "lat": 38.856409, "fusion_lon": 0.0, "rental_uris": {"ios": "https://dc.lft.to/lastmile_qr_scan", "android": "https://dc.lft.to/lastmile_qr_scan"}, "lon": -77.068364, "bike_id": "312074d1d458ac0f387a3fd4b25e7c0e", "type": "electric_bike", "name": "312074d1d458ac0f387a3fd4b25e7c0e"}, {"is_disabled": 0, "is_reserved": 0, "fusion_lat": 0.0, "lat": 38.8821955, "fusion_lon": 0.0, "rental_uris": {"ios": "https://dc.lft.to/lastmile_qr_scan", "android": "https://dc.lft.to/lastmile_qr_scan"}, "lon": -76.99735716666666, "bike_id": "bacdd91ba6e66c981181065e5297d5e4", "type": "electric_scooter", "name": "bacdd91ba6e66c981181065e5297d5e4"}, {"is_disabled": 0, "is_reserved": 0, "fusion_lat": 0.0, "lat": 38.9008845, "fusion_lon": 0.0, "rental_uris": {"ios": "https://dc.lft.to/lastmile_qr_scan", "android": "https://dc.lft.to/lastmile_qr_scan"}, "lon": -77.01814066666667, "bike_id": "6b3f6b67db51324bb3e08f21dbe6c6b0", "type": "electric_scooter", "name": "6b3f6b67db51324bb3e08f21dbe6c6b0"}, {"is_disabled": 0, "is_reserved": 0, "fusion_lat": 0.0, "lat": 38.92364033333333, "fusion_lon": 0.0, "rental_uris": {"ios": "https://dc.lft.to/lastmile_qr_scan", "android": "https://dc.lft.to/lastmile_qr_scan"}, "lon": -77.0206, "bike_id": "45ece6c7d7a5bfa39b806d0974667304", "type": "electric_scooter", "name": "45ece6c7d7a5bfa39b806d0974667304"}, {"is_disabled": 0, "is_reserved": 0, "fusion_lat": 0.0, "lat": 38.82428, "fusion_lon": 0.0, "rental_uris": {"ios": "https://dc.lft.to/lastmile_qr_scan", "android": "https://dc.lft.to/lastmile_qr_scan"}, "lon": -77.1204305, "bike_id": "314676a63da5ee8d3e8d120ef5953548", "type": "electric_bike", "name": "314676a63da5ee8d3e8d120ef5953548"}, {"is_disabled": 0, "is_reserved": 0, "fusion_lat": 0.0, "lat": 38.92509783333333, "fusion_lon": 0.0, "rental_uris": {"ios": "https://dc.lft.to/lastmile_qr_scan", "android": "https://dc.lft.to/lastmile_qr_scan"}, "lon": -77.02431166666666, "bike_id": "9c5c49a4f3a9ac8dd8dd4748c972d417", "type": "electric_scooter", "name": "9c5c49a4f3a9ac8dd8dd4748c972d417"}, {"is_disabled": 0, "is_reserved": 0, "fusion_lat": 0.0, "lat": 38.90657783333333, "fusion_lon": 0.0, "rental_uris": {"ios": "https://dc.lft.to/lastmile_qr_scan", "android": "https://dc.lft.to/lastmile_qr_scan"}, "lon": -77.00584666666667, "bike_id": "f0df76bbb992614cb191664428e50542", "type": "electric_scooter", "name": "f0df76bbb992614cb191664428e50542"}, {"is_disabled": 0, "is_reserved": 0, "fusion_lat": 0.0, "lat": 38.915441333333334, "fusion_lon": 0.0, "rental_uris": {"ios": "https://dc.lft.to/lastmile_qr_scan", "android": "https://dc.lft.to/lastmile_qr_scan"}, "lon": -77.04452916666666, "bike_id": "b05b48729c2ddaffad04ef808cff1ceb", "type": "electric_scooter", "name": "b05b48729c2ddaffad04ef808cff1ceb"}, {"is_disabled": 0, "is_reserved": 0, "fusion_lat": 0.0, "lat": 38.93064283333333, "fusion_lon": 0.0, "rental_uris": {"ios": "https://dc.lft.to/lastmile_qr_scan", "android": "https://dc.lft.to/lastmile_qr_scan"}, "lon": -77.03944316666667, "bike_id": "ab2838930c9291c34c932b4498af078d", "type": "electric_scooter", "name": "ab2838930c9291c34c932b4498af078d"}, {"is_disabled": 0, "is_reserved": 0, "fusion_lat": 0.0, "lat": 38.952463, "fusion_lon": 0.0, "rental_uris": {"ios": "https://dc.lft.to/lastmile_qr_scan", "android": "https://dc.lft.to/lastmile_qr_scan"}, "lon": -76.98244633333333, "bike_id": "15a0a3a8b0c1b797e80d2e980aaacd95", "type": "electric_bike", "name": "15a0a3a8b0c1b797e80d2e980aaacd95"}, {"is_disabled": 0, "is_reserved": 0, "fusion_lat": 0.0, "lat": 38.915861166666666, "fusion_lon": 0.0, "rental_uris": {"ios": "https://dc.lft.to/lastmile_qr_scan", "android": "https://dc.lft.to/lastmile_qr_scan"}, "lon": -77.0199745, "bike_id": "31b47f1a6fb73f88a27cbdfd8fba52d4", "type": "electric_scooter", "name": "31b47f1a6fb73f88a27cbdfd8fba52d4"}, {"is_disabled": 0, "is_reserved": 0, "fusion_lat": 0.0, "lat": 38.920690666666665, "fusion_lon": 0.0, "rental_uris": {"ios": "https://dc.lft.to/lastmile_qr_scan", "android": "https://dc.lft.to/lastmile_qr_scan"}, "lon": -77.02362566666666, "bike_id": "a62994832c3e870e9b0fae887fe04eda", "type": "electric_scooter", "name": "a62994832c3e870e9b0fae887fe04eda"}, {"is_disabled": 0, "is_reserved": 0, "fusion_lat": 0.0, "lat": 38.90064483333333, "fusion_lon": 0.0, "rental_uris": {"ios": "https://dc.lft.to/lastmile_qr_scan", "android": "https://dc.lft.to/lastmile_qr_scan"}, "lon": -76.94980483333333, "bike_id": "578552b8461ceb7145edfcd274494507", "type": "electric_scooter", "name": "578552b8461ceb7145edfcd274494507"}, {"is_disabled": 0, "is_reserved": 0, "fusion_lat": 0.0, "lat": 38.91889616666667, "fusion_lon": 0.0, "rental_uris": {"ios": "https://dc.lft.to/lastmile_qr_scan", "android": "https://dc.lft.to/lastmile_qr_scan"}, "lon": -77.034989, "bike_id": "9b38e679408fdb1b825d2d6e0cbc011c", "type": "electric_scooter", "name": "9b38e679408fdb1b825d2d6e0cbc011c"}, {"is_disabled": 0, "is_reserved": 0, "fusion_lat": 0.0, "lat": 38.92697416666667, "fusion_lon": 0.0, "rental_uris": {"ios": "https://dc.lft.to/lastmile_qr_scan", "android": "https://dc.lft.to/lastmile_qr_scan"}, "lon": -76.997886, "bike_id": "9c6b9329366a4a93bc0a62fe277c01bd", "type": "electric_scooter", "name": "9c6b9329366a4a93bc0a62fe277c01bd"}, {"is_disabled": 0, "is_reserved": 0, "fusion_lat": 0.0, "lat": 38.8755635, "fusion_lon": 0.0, "rental_uris": {"ios": "https://dc.lft.to/lastmile_qr_scan", "android": "https://dc.lft.to/lastmile_qr_scan"}, "lon": -77.00603066666666, "bike_id": "a85cec2d6f3b964cf65e951abe132463", "type": "electric_scooter", "name": "a85cec2d6f3b964cf65e951abe132463"}, {"is_disabled": 0, "is_reserved": 0, "fusion_lat": 0.0, "lat": 38.93716466666667, "fusion_lon": 0.0, "rental_uris": {"ios": "https://dc.lft.to/lastmile_qr_scan", "android": "https://dc.lft.to/lastmile_qr_scan"}, "lon": -77.02385983333333, "bike_id": "3116ad2925c942c0d9898ca209c153b2", "type": "electric_scooter", "name": "3116ad2925c942c0d9898ca209c153b2"}, {"is_disabled": 0, "is_reserved": 0, "fusion_lat": 0.0, "lat": 38.91828066666667, "fusion_lon": 0.0, "rental_uris": {"ios": "https://dc.lft.to/lastmile_qr_scan", "android": "https://dc.lft.to/lastmile_qr_scan"}, "lon": -77.04523133333333, "bike_id": "66faa0e0de0f7a73404dd5d0a08d34cb", "type": "electric_scooter", "name": "66faa0e0de0f7a73404dd5d0a08d34cb"}, {"is_disabled": 0, "is_reserved": 0, "fusion_lat": 0.0, "lat": 38.89248083333333, "fusion_lon": 0.0, "rental_uris": {"ios": "https://dc.lft.to/lastmile_qr_scan", "android": "https://dc.lft.to/lastmile_qr_scan"}, "lon": -77.04660516666667, "bike_id": "e52adf55d569f5770d22cb3244c0d2b9", "type": "electric_scooter", "name": "e52adf55d569f5770d22cb3244c0d2b9"}, {"is_disabled": 0, "is_reserved": 0, "fusion_lat": 0.0, "lat": 38.9298295, "fusion_lon": 0.0, "rental_uris": {"ios": "https://dc.lft.to/lastmile_qr_scan", "android": "https://dc.lft.to/lastmile_qr_scan"}, "lon": -77.01462216666667, "bike_id": "4aa7c1b8db233aab6bee1404838cb051", "type": "electric_scooter", "name": "4aa7c1b8db233aab6bee1404838cb051"}, {"is_disabled": 0, "is_reserved": 0, "fusion_lat": 0.0, "lat": 38.905354833333334, "fusion_lon": 0.0, "rental_uris": {"ios": "https://dc.lft.to/lastmile_qr_scan", "android": "https://dc.lft.to/lastmile_qr_scan"}, "lon": -77.06270916666666, "bike_id": "631c6d507db15e90dd96e21c1b9332c4", "type": "electric_bike", "name": "631c6d507db15e90dd96e21c1b9332c4"}, {"is_disabled": 0, "is_reserved": 0, "fusion_lat": 0.0, "lat": 38.93601, "fusion_lon": 0.0, "rental_uris": {"ios": "https://dc.lft.to/lastmile_qr_scan", "android": "https://dc.lft.to/lastmile_qr_scan"}, "lon": -77.03801716666666, "bike_id": "5b2efdb3fef9b79d6bf60ed9f0d67caf", "type": "electric_scooter", "name": "5b2efdb3fef9b79d6bf60ed9f0d67caf"}, {"is_disabled": 0, "is_reserved": 0, "fusion_lat": 0.0, "lat": 38.90525433333333, "fusion_lon": 0.0, "rental_uris": {"ios": "https://dc.lft.to/lastmile_qr_scan", "android": "https://dc.lft.to/lastmile_qr_scan"}, "lon": -77.02946366666667, "bike_id": "8bc44f803db73e2cec6c4b89ecd83e2a", "type": "electric_scooter", "name": "8bc44f803db73e2cec6c4b89ecd83e2a"}, {"is_disabled": 0, "is_reserved": 0, "fusion_lat": 0.0, "lat": 38.902635, "fusion_lon": 0.0, "rental_uris": {"ios": "https://dc.lft.to/lastmile_qr_scan", "android": "https://dc.lft.to/lastmile_qr_scan"}, "lon": -77.02649833333334, "bike_id": "e6d2dfab192306c03e90cd046f974ffa", "type": "electric_scooter", "name": "e6d2dfab192306c03e90cd046f974ffa"}, {"is_disabled": 0, "is_reserved": 0, "fusion_lat": 0.0, "lat": 38.915897, "fusion_lon": 0.0, "rental_uris": {"ios": "https://dc.lft.to/lastmile_qr_scan", "android": "https://dc.lft.to/lastmile_qr_scan"}, "lon": -77.0200415, "bike_id": "03c3a9b1b554cba386b36e1391952094", "type": "electric_scooter", "name": "03c3a9b1b554cba386b36e1391952094"}, {"is_disabled": 0, "is_reserved": 0, "fusion_lat": 0.0, "lat": 38.9181775, "fusion_lon": 0.0, "rental_uris": {"ios": "https://dc.lft.to/lastmile_qr_scan", "android": "https://dc.lft.to/lastmile_qr_scan"}, "lon": -77.024776, "bike_id": "cf435647e390582a90d96d4879feaaad", "type": "electric_scooter", "name": "cf435647e390582a90d96d4879feaaad"}, {"is_disabled": 0, "is_reserved": 0, "fusion_lat": 0.0, "lat": 38.9112305, "fusion_lon": 0.0, "rental_uris": {"ios": "https://dc.lft.to/lastmile_qr_scan", "android": "https://dc.lft.to/lastmile_qr_scan"}, "lon": -77.03831316666667, "bike_id": "412fb41ce28ffbed0b72ffa617bc4e18", "type": "electric_scooter", "name": "412fb41ce28ffbed0b72ffa617bc4e18"}, {"is_disabled": 0, "is_reserved": 0, "fusion_lat": 0.0, "lat": 38.89896566666667, "fusion_lon": 0.0, "rental_uris": {"ios": "https://dc.lft.to/lastmile_qr_scan", "android": "https://dc.lft.to/lastmile_qr_scan"}, "lon": -77.0019415, "bike_id": "34d41ed9279bf61f18816b8ec4d68b75", "type": "electric_bike", "name": "34d41ed9279bf61f18816b8ec4d68b75"}, {"is_disabled": 0, "is_reserved": 0, "fusion_lat": 0.0, "lat": 38.922478, "fusion_lon": 0.0, "rental_uris": {"ios": "https://dc.lft.to/lastmile_qr_scan", "android": "https://dc.lft.to/lastmile_qr_scan"}, "lon": -77.03061016666666, "bike_id": "b6cb87e036d7e94f6260bb5d45a179a8", "type": "electric_scooter", "name": "b6cb87e036d7e94f6260bb5d45a179a8"}, {"is_disabled": 0, "is_reserved": 0, "fusion_lat": 0.0, "lat": 39.0106655, "fusion_lon": 0.0, "rental_uris": {"ios": "https://dc.lft.to/lastmile_qr_scan", "android": "https://dc.lft.to/lastmile_qr_scan"}, "lon": -76.92246616666667, "bike_id": "a2dafe7a2177aba8d4bc37a7c582e6c2", "type": "electric_bike", "name": "a2dafe7a2177aba8d4bc37a7c582e6c2"}, {"is_disabled": 0, "is_reserved": 0, "fusion_lat": 0.0, "lat": 38.92033816666667, "fusion_lon": 0.0, "rental_uris": {"ios": "https://dc.lft.to/lastmile_qr_scan", "android": "https://dc.lft.to/lastmile_qr_scan"}, "lon": -77.025875, "bike_id": "1e38bb4c00d316bd0a5c41c512a4170f", "type": "electric_scooter", "name": "1e38bb4c00d316bd0a5c41c512a4170f"}, {"is_disabled": 0, "is_reserved": 0, "fusion_lat": 0.0, "lat": 38.93280416666666, "fusion_lon": 0.0, "rental_uris": {"ios": "https://dc.lft.to/lastmile_qr_scan", "android": "https://dc.lft.to/lastmile_qr_scan"}, "lon": -77.0348945, "bike_id": "25e8da97a732259b02612fde15dc16f4", "type": "electric_scooter", "name": "25e8da97a732259b02612fde15dc16f4"}, {"is_disabled": 0, "is_reserved": 0, "fusion_lat": 0.0, "lat": 38.91690366666667, "fusion_lon": 0.0, "rental_uris": {"ios": "https://dc.lft.to/lastmile_qr_scan", "android": "https://dc.lft.to/lastmile_qr_scan"}, "lon": -77.0251985, "bike_id": "41ea3767fc6d3e8bdc7a0130bb809553", "type": "electric_scooter", "name": "41ea3767fc6d3e8bdc7a0130bb809553"}, {"is_disabled": 0, "is_reserved": 0, "fusion_lat": 0.0, "lat": 38.872203166666665, "fusion_lon": 0.0, "rental_uris": {"ios": "https://dc.lft.to/lastmile_qr_scan", "android": "https://dc.lft.to/lastmile_qr_scan"}, "lon": -77.2284125, "bike_id": "14f69f602bd4a6d4db9143803c9aff36", "type": "electric_bike", "name": "14f69f602bd4a6d4db9143803c9aff36"}, {"is_disabled": 0, "is_reserved": 0, "fusion_lat": 0.0, "lat": 38.88732133333333, "fusion_lon": 0.0, "rental_uris": {"ios": "https://dc.lft.to/lastmile_qr_scan", "android": "https://dc.lft.to/lastmile_qr_scan"}, "lon": -77.02210533333333, "bike_id": "f30052dc5bdf67c5ccfc2b2d300094eb", "type": "electric_scooter", "name": "f30052dc5bdf67c5ccfc2b2d300094eb"}, {"is_disabled": 0, "is_reserved": 0, "fusion_lat": 0.0, "lat": 38.921702833333335, "fusion_lon": 0.0, "rental_uris": {"ios": "https://dc.lft.to/lastmile_qr_scan", "android": "https://dc.lft.to/lastmile_qr_scan"}, "lon": -77.0379125, "bike_id": "582eb6100da99be1dd66c5f529fccc28", "type": "electric_scooter", "name": "582eb6100da99be1dd66c5f529fccc28"}, {"is_disabled": 0, "is_reserved": 0, "fusion_lat": 0.0, "lat": 38.923201666666664, "fusion_lon": 0.0, "rental_uris": {"ios": "https://dc.lft.to/lastmile_qr_scan", "android": "https://dc.lft.to/lastmile_qr_scan"}, "lon": -77.02806866666667, "bike_id": "6d89d0ab505e97c499e76c04e7a3ec11", "type": "electric_scooter", "name": "6d89d0ab505e97c499e76c04e7a3ec11"}, {"is_disabled": 0, "is_reserved": 0, "fusion_lat": 0.0, "lat": 38.857879833333335, "fusion_lon": 0.0, "rental_uris": {"ios": "https://dc.lft.to/lastmile_qr_scan", "android": "https://dc.lft.to/lastmile_qr_scan"}, "lon": -76.98758916666667, "bike_id": "bb190dfd749690c24a454d4ae2c12d67", "type": "electric_bike", "name": "bb190dfd749690c24a454d4ae2c12d67"}, {"is_disabled": 0, "is_reserved": 0, "fusion_lat": 0.0, "lat": 38.919155, "fusion_lon": 0.0, "rental_uris": {"ios": "https://dc.lft.to/lastmile_qr_scan", "android": "https://dc.lft.to/lastmile_qr_scan"}, "lon": -77.030969, "bike_id": "9b83544943b9ab57aaa7915baaab9f3c", "type": "electric_scooter", "name": "9b83544943b9ab57aaa7915baaab9f3c"}, {"is_disabled": 0, "is_reserved": 0, "fusion_lat": 0.0, "lat": 38.923318333333334, "fusion_lon": 0.0, "rental_uris": {"ios": "https://dc.lft.to/lastmile_qr_scan", "android": "https://dc.lft.to/lastmile_qr_scan"}, "lon": -77.02973816666666, "bike_id": "0e616575a05d9307523b5472b1d99002", "type": "electric_scooter", "name": "0e616575a05d9307523b5472b1d99002"}, {"is_disabled": 0, "is_reserved": 0, "fusion_lat": 0.0, "lat": 38.90000633333333, "fusion_lon": 0.0, "rental_uris": {"ios": "https://dc.lft.to/lastmile_qr_scan", "android": "https://dc.lft.to/lastmile_qr_scan"}, "lon": -77.0525335, "bike_id": "a686d334db37d8bb48e65705fe77869d", "type": "electric_scooter", "name": "a686d334db37d8bb48e65705fe77869d"}, {"is_disabled": 0, "is_reserved": 0, "fusion_lat": 0.0, "lat": 38.924136833333336, "fusion_lon": 0.0, "rental_uris": {"ios": "https://dc.lft.to/lastmile_qr_scan", "android": "https://dc.lft.to/lastmile_qr_scan"}, "lon": -77.0271785, "bike_id": "a64c4fb79d47f4561258fd3948cc2cea", "type": "electric_scooter", "name": "a64c4fb79d47f4561258fd3948cc2cea"}, {"is_disabled": 0, "is_reserved": 0, "fusion_lat": 0.0, "lat": 38.917828666666665, "fusion_lon": 0.0, "rental_uris": {"ios": "https://dc.lft.to/lastmile_qr_scan", "android": "https://dc.lft.to/lastmile_qr_scan"}, "lon": -77.02308916666667, "bike_id": "7ae937963c08495fcc667db2c419ef9c", "type": "electric_scooter", "name": "7ae937963c08495fcc667db2c419ef9c"}, {"is_disabled": 0, "is_reserved": 0, "fusion_lat": 0.0, "lat": 38.91709816666667, "fusion_lon": 0.0, "rental_uris": {"ios": "https://dc.lft.to/lastmile_qr_scan", "android": "https://dc.lft.to/lastmile_qr_scan"}, "lon": -77.03866316666667, "bike_id": "e8b19d64cecb071572c4c549be7ace48", "type": "electric_scooter", "name": "e8b19d64cecb071572c4c549be7ace48"}, {"is_disabled": 0, "is_reserved": 0, "fusion_lat": 0.0, "lat": 38.8040325, "fusion_lon": 0.0, "rental_uris": {"ios": "https://dc.lft.to/lastmile_qr_scan", "android": "https://dc.lft.to/lastmile_qr_scan"}, "lon": -77.11329466666666, "bike_id": "b6c90a32ce8506a499f1d8140ed58c15", "type": "electric_bike", "name": "b6c90a32ce8506a499f1d8140ed58c15"}, {"is_disabled": 0, "is_reserved": 0, "fusion_lat": 0.0, "lat": 38.91120183333334, "fusion_lon": 0.0, "rental_uris": {"ios": "https://dc.lft.to/lastmile_qr_scan", "android": "https://dc.lft.to/lastmile_qr_scan"}, "lon": -77.03826433333333, "bike_id": "404044e4843a67407af15e1759f15b2e", "type": "electric_scooter", "name": "404044e4843a67407af15e1759f15b2e"}, {"is_disabled": 0, "is_reserved": 0, "fusion_lat": 0.0, "lat": 38.9363205, "fusion_lon": 0.0, "rental_uris": {"ios": "https://dc.lft.to/lastmile_qr_scan", "android": "https://dc.lft.to/lastmile_qr_scan"}, "lon": -77.03656416666666, "bike_id": "faeb21ef909160b68ec8e079d2f608b4", "type": "electric_scooter", "name": "faeb21ef909160b68ec8e079d2f608b4"}, {"is_disabled": 0, "is_reserved": 0, "fusion_lat": 0.0, "lat": 38.9298845, "fusion_lon": 0.0, "rental_uris": {"ios": "https://dc.lft.to/lastmile_qr_scan", "android": "https://dc.lft.to/lastmile_qr_scan"}, "lon": -77.02207216666666, "bike_id": "74833422f08768ee483d45cd72ab0ec9", "type": "electric_scooter", "name": "74833422f08768ee483d45cd72ab0ec9"}, {"is_disabled": 0, "is_reserved": 0, "fusion_lat": 0.0, "lat": 38.892531166666664, "fusion_lon": 0.0, "rental_uris": {"ios": "https://dc.lft.to/lastmile_qr_scan", "android": "https://dc.lft.to/lastmile_qr_scan"}, "lon": -77.04658966666666, "bike_id": "044b8f897e2ea87474eabe6e243a0a29", "type": "electric_scooter", "name": "044b8f897e2ea87474eabe6e243a0a29"}, {"is_disabled": 0, "is_reserved": 0, "fusion_lat": 0.0, "lat": 39.0747165, "fusion_lon": 0.0, "rental_uris": {"ios": "https://dc.lft.to/lastmile_qr_scan", "android": "https://dc.lft.to/lastmile_qr_scan"}, "lon": -77.11525883333333, "bike_id": "7ecda18e89f2007db1d0fc272caef8c6", "type": "electric_bike", "name": "7ecda18e89f2007db1d0fc272caef8c6"}, {"is_disabled": 0, "is_reserved": 0, "fusion_lat": 0.0, "lat": 38.93589333333333, "fusion_lon": 0.0, "rental_uris": {"ios": "https://dc.lft.to/lastmile_qr_scan", "android": "https://dc.lft.to/lastmile_qr_scan"}, "lon": -77.02413633333333, "bike_id": "1a6309c0d29dd6450d3e60e9b86b8779", "type": "electric_scooter", "name": "1a6309c0d29dd6450d3e60e9b86b8779"}, {"is_disabled": 0, "is_reserved": 0, "fusion_lat": 0.0, "lat": 38.9209915, "fusion_lon": 0.0, "rental_uris": {"ios": "https://dc.lft.to/lastmile_qr_scan", "android": "https://dc.lft.to/lastmile_qr_scan"}, "lon": -77.046928, "bike_id": "f5331ba3d3dc66f2838b715616e1155a", "type": "electric_scooter", "name": "f5331ba3d3dc66f2838b715616e1155a"}, {"is_disabled": 0, "is_reserved": 0, "fusion_lat": 0.0, "lat": 38.8558895, "fusion_lon": 0.0, "rental_uris": {"ios": "https://dc.lft.to/lastmile_qr_scan", "android": "https://dc.lft.to/lastmile_qr_scan"}, "lon": -76.97278016666667, "bike_id": "3af4ff10688194eaed7ad6300e7b902e", "type": "electric_bike", "name": "3af4ff10688194eaed7ad6300e7b902e"}, {"is_disabled": 0, "is_reserved": 0, "fusion_lat": 0.0, "lat": 38.901991, "fusion_lon": 0.0, "rental_uris": {"ios": "https://dc.lft.to/lastmile_qr_scan", "android": "https://dc.lft.to/lastmile_qr_scan"}, "lon": -77.02180166666666, "bike_id": "2b91b30d97ff02701d631bb64e49fca6", "type": "electric_scooter", "name": "2b91b30d97ff02701d631bb64e49fca6"}, {"is_disabled": 0, "is_reserved": 0, "fusion_lat": 0.0, "lat": 38.94747533333334, "fusion_lon": 0.0, "rental_uris": {"ios": "https://dc.lft.to/lastmile_qr_scan", "android": "https://dc.lft.to/lastmile_qr_scan"}, "lon": -77.02356233333333, "bike_id": "b0dc7b3dc3eb541684f138f4c9dcf370", "type": "electric_scooter", "name": "b0dc7b3dc3eb541684f138f4c9dcf370"}, {"is_disabled": 0, "is_reserved": 0, "fusion_lat": 0.0, "lat": 38.937020833333335, "fusion_lon": 0.0, "rental_uris": {"ios": "https://dc.lft.to/lastmile_qr_scan", "android": "https://dc.lft.to/lastmile_qr_scan"}, "lon": -77.0559985, "bike_id": "4dad011f72e1af77738de9e9d915d858", "type": "electric_scooter", "name": "4dad011f72e1af77738de9e9d915d858"}, {"is_disabled": 0, "is_reserved": 0, "fusion_lat": 0.0, "lat": 38.92741, "fusion_lon": 0.0, "rental_uris": {"ios": "https://dc.lft.to/lastmile_qr_scan", "android": "https://dc.lft.to/lastmile_qr_scan"}, "lon": -77.0329975, "bike_id": "17d9acc129f2fde090dd563376317ef9", "type": "electric_scooter", "name": "17d9acc129f2fde090dd563376317ef9"}, {"is_disabled": 0, "is_reserved": 0, "fusion_lat": 0.0, "lat": 38.941787833333336, "fusion_lon": 0.0, "rental_uris": {"ios": "https://dc.lft.to/lastmile_qr_scan", "android": "https://dc.lft.to/lastmile_qr_scan"}, "lon": -77.03396383333333, "bike_id": "7ba7ede509559611d4ea60b490a0cb07", "type": "electric_scooter", "name": "7ba7ede509559611d4ea60b490a0cb07"}, {"is_disabled": 0, "is_reserved": 0, "fusion_lat": 0.0, "lat": 38.919158333333336, "fusion_lon": 0.0, "rental_uris": {"ios": "https://dc.lft.to/lastmile_qr_scan", "android": "https://dc.lft.to/lastmile_qr_scan"}, "lon": -77.00992566666666, "bike_id": "27046392fc43a52d5ef172d1ae2824b5", "type": "electric_scooter", "name": "27046392fc43a52d5ef172d1ae2824b5"}, {"is_disabled": 0, "is_reserved": 0, "fusion_lat": 0.0, "lat": 38.87174533333334, "fusion_lon": 0.0, "rental_uris": {"ios": "https://dc.lft.to/lastmile_qr_scan", "android": "https://dc.lft.to/lastmile_qr_scan"},