{"data": {"bikes": [{"lat": 38.906831833333335, "is_disabled": 0, "type": "electric_scooter", "lon": -77.0382965, "bike_id": "b311d202fe3a447203b4ddd5ca469656", "fusion_lat": 0.0, "name": "b311d202fe3a447203b4ddd5ca469656", "is_reserved": 0, "rental_uris": {"android": "https://dc.lft.to/lastmile_qr_scan", "ios": "https://dc.lft.to/lastmile_qr_scan"}, "fusion_lon": 0.0}, {"lat": 38.9156915, "is_disabled": 0, "type": "electric_scooter", "lon": -77.020109, "bike_id": "f53e552576391f38234d01e4b3ead6ec", "fusion_lat": 0.0, "name": "f53e552576391f38234d01e4b3ead6ec", "is_reserved": 0, "rental_uris": {"android": "https://dc.lft.to/lastmile_qr_scan", "ios": "https://dc.lft.to/lastmile_qr_scan"}, "fusion_lon": 0.0}, {"lat": 38.907421, "is_disabled": 0, "type": "electric_scooter", "lon": -77.02718416666667, "bike_id": "342b28dd74e22647b040019810aa6115", "fusion_lat": 0.0, "name": "342b28dd74e22647b040019810aa6115", "is_reserved": 0, "rental_uris": {"android": "https://dc.lft.to/lastmile_qr_scan", "ios": "https://dc.lft.to/lastmile_qr_scan"}, "fusion_lon": 0.0}, {"lat": 38.88431, "is_disabled": 0, "type": "electric_scooter", "lon": -76.957556, "bike_id": "d90b7ce65aab51c201b31a9b03ed5b7b", "fusion_lat": 0.0, "name": "d90b7ce65aab51c201b31a9b03ed5b7b", "is_reserved": 0, "rental_uris": {"android": "https://dc.lft.to/lastmile_qr_scan", "ios": "https://dc.lft.to/lastmile_qr_scan"}, "fusion_lon": 0.0}, {"lat": 38.92446316666667, "is_disabled": 0, "type": "electric_scooter", "lon": -77.04031383333333, "bike_id": "65e43f502adf9aa358ebbc04d4597b65", "fusion_lat": 0.0, "name": "65e43f502adf9aa358ebbc04d4597b65", "is_reserved": 0, "rental_uris": {"android": "https://dc.lft.to/lastmile_qr_scan", "ios": "https://dc.lft.to/lastmile_qr_scan"}, "fusion_lon": 0.0}, {"lat": 38.899981333333336, "is_disabled": 0, "type": "electric_scooter", "lon": -77.031836, "bike_id": "eda1789190838d21198ff16ecf0c30fd", "fusion_lat": 0.0, "name": "eda1789190838d21198ff16ecf0c30fd", "is_reserved": 0, "rental_uris": {"android": "https://dc.lft.to/lastmile_qr_scan", "ios": "https://dc.lft.to/lastmile_qr_scan"}, "fusion_lon": 0.0}, {"lat": 38.90278133333333, "is_disabled": 0, "type": "electric_scooter", "lon": -77.0383885, "bike_id": "d5237640ec6e31c9a7dd6d238aaa43b8", "fusion_lat": 0.0, "name": "d5237640ec6e31c9a7dd6d238aaa43b8", "is_reserved": 0, "rental_uris": {"android": "https://dc.lft.to/lastmile_qr_scan", "ios": "https://dc.lft.to/lastmile_qr_scan"}, "fusion_lon": 0.0}, {"lat": 38.8960935, "is_disabled": 0, "type": "electric_scooter", "lon": -77.04541766666667, "bike_id": "157d7cba4fe164f87badba96bca3d9f1", "fusion_lat": 0.0, "name": "157d7cba4fe164f87badba96bca3d9f1", "is_reserved": 0, "rental_uris": {"android": "https://dc.lft.to/lastmile_qr_scan", "ios": "https://dc.lft.to/lastmile_qr_scan"}, "fusion_lon": 0.0}, {"lat": 38.936801333333335, "is_disabled": 0, "type": "electric_bike", "lon": -77.02414083333333, "bike_id": "bf54712f237c5b86ab522b4f2fbf1f0e", "fusion_lat": 0.0, "name": "bf54712f237c5b86ab522b4f2fbf1f0e", "is_reserved": 0, "rental_uris": {"android": "https://dc.lft.to/lastmile_qr_scan", "ios": "https://dc.lft.to/lastmile_qr_scan"}, "fusion_lon": 0.0}, {"lat": 38.91676016666667, "is_disabled": 0, "type": "electric_scooter", "lon": -77.02722183333333, "bike_id": "e79bb176a674f4275bb24d67d0ad0f93", "fusion_lat": 0.0, "name": "e79bb176a674f4275bb24d67d0ad0f93", "is_reserved": 0, "rental_uris": {"android": "https://dc.lft.to/lastmile_qr_scan", "ios": "https://dc.lft.to/lastmile_qr_scan"}, "fusion_lon": 0.0}, {"lat": 38.923378, "is_disabled": 0, "type": "electric_scooter", "lon": -77.035387, "bike_id": "fbcc28329dceed6bfa9dd4907d69e825", "fusion_lat": 0.0, "name": "fbcc28329dceed6bfa9dd4907d69e825", "is_reserved": 0, "rental_uris": {"android": "https://dc.lft.to/lastmile_qr_scan", "ios": "https://dc.lft.to/lastmile_qr_scan"}, "fusion_lon": 0.0}, {"lat": 38.896058833333335, "is_disabled": 0, "type": "electric_scooter", "lon": -77.04410133333333, "bike_id": "fe842694dc209d71b731875568fec03a", "fusion_lat": 0.0, "name": "fe842694dc209d71b731875568fec03a", "is_reserved": 0, "rental_uris": {"android": "https://dc.lft.to/lastmile_qr_scan", "ios": "https://dc.lft.to/lastmile_qr_scan"}, "fusion_lon": 0.0}, {"lat": 38.89966916666667, "is_disabled": 0, "type": "electric_scooter", "lon": -76.92730283333333, "bike_id": "005ebc304fbabcc3722810b2ecbc2d67", "fusion_lat": 0.0, "name": "005ebc304fbabcc3722810b2ecbc2d67", "is_reserved": 0, "rental_uris": {"android": "https://dc.lft.to/lastmile_qr_scan", "ios": "https://dc.lft.to/lastmile_qr_scan"}, "fusion_lon": 0.0}, {"lat": 38.90182466666667, "is_disabled": 0, "type": "electric_scooter", "lon": -77.024965, "bike_id": "92ab64ae6bd98fcf98d3dde9520b6b55", "fusion_lat": 0.0, "name": "92ab64ae6bd98fcf98d3dde9520b6b55", "is_reserved": 0, "rental_uris": {"android": "https://dc.lft.to/lastmile_qr_scan", "ios": "https://dc.lft.to/lastmile_qr_scan"}, "fusion_lon": 0.0}, {"lat": 38.918804, "is_disabled": 0, "type": "electric_scooter", "lon": -77.044558, "bike_id": "383c206d68b6bece19a8805689bb7d19", "fusion_lat": 0.0, "name": "383c206d68b6bece19a8805689bb7d19", "is_reserved": 0, "rental_uris": {"android": "https://dc.lft.to/lastmile_qr_scan", "ios": "https://dc.lft.to/lastmile_qr_scan"}, "fusion_lon": 0.0}, {"lat": 38.90304783333333, "is_disabled": 0, "type": "electric_scooter", "lon": -77.0119045, "bike_id": "f1395d7bcbfb5fb83c9c2557b41b9200", "fusion_lat": 0.0, "name": "f1395d7bcbfb5fb83c9c2557b41b9200", "is_reserved": 0, "rental_uris": {"android": "https://dc.lft.to/lastmile_qr_scan", "ios": "https://dc.lft.to/lastmile_qr_scan"}, "fusion_lon": 0.0}, {"lat": 38.936134, "is_disabled": 0, "type": "electric_scooter", "lon": -77.03286833333334, "bike_id": "f5a0f457406222f9d0aee1b9f360a89c", "fusion_lat": 0.0, "name": "f5a0f457406222f9d0aee1b9f360a89c", "is_reserved": 0, "rental_uris": {"android": "https://dc.lft.to/lastmile_qr_scan", "ios": "https://dc.lft.to/lastmile_qr_scan"}, "fusion_lon": 0.0}, {"lat": 38.922345, "is_disabled": 0, "type": "electric_scooter", "lon": -77.04366166666667, "bike_id": "1a503922258be1263dc401111e4b7d97", "fusion_lat": 0.0, "name": "1a503922258be1263dc401111e4b7d97", "is_reserved": 0, "rental_uris": {"android": "https://dc.lft.to/lastmile_qr_scan", "ios": "https://dc.lft.to/lastmile_qr_scan"}, "fusion_lon": 0.0}, {"lat": 38.91938966666667, "is_disabled": 0, "type": "electric_scooter", "lon": -77.02605083333333, "bike_id": "290df9d9ffe451a626f38d728ac36677", "fusion_lat": 0.0, "name": "290df9d9ffe451a626f38d728ac36677", "is_reserved": 0, "rental_uris": {"android": "https://dc.lft.to/lastmile_qr_scan", "ios": "https://dc.lft.to/lastmile_qr_scan"}, "fusion_lon": 0.0}, {"lat": 38.88489633333333, "is_disabled": 0, "type": "electric_scooter", "lon": -77.0347745, "bike_id": "07fb3cea1b3894d1044d3d09faf39ec8", "fusion_lat": 0.0, "name": "07fb3cea1b3894d1044d3d09faf39ec8", "is_reserved": 0, "rental_uris": {"android": "https://dc.lft.to/lastmile_qr_scan", "ios": "https://dc.lft.to/lastmile_qr_scan"}, "fusion_lon": 0.0}, {"lat": 38.863707166666664, "is_disabled": 0, "type": "electric_scooter", "lon": -76.99034416666667, "bike_id": "7fadf7410f3345066724b1ed353b253d", "fusion_lat": 0.0, "name": "7fadf7410f3345066724b1ed353b253d", "is_reserved": 0, "rental_uris": {"android": "https://dc.lft.to/lastmile_qr_scan", "ios": "https://dc.lft.to/lastmile_qr_scan"}, "fusion_lon": 0.0}, {"lat": 38.9023565, "is_disabled": 0, "type": "electric_scooter", "lon": -77.04360983333333, "bike_id": "ef45fb3999abb7607ed945a98735531b", "fusion_lat": 0.0, "name": "ef45fb3999abb7607ed945a98735531b", "is_reserved": 0, "rental_uris": {"android": "https://dc.lft.to/lastmile_qr_scan", "ios": "https://dc.lft.to/lastmile_qr_scan"}, "fusion_lon": 0.0}, {"lat": 38.802314, "is_disabled": 0, "type": "electric_bike", "lon": -77.07918983333333, "bike_id": "a6b9259fce61a566b8a058e3e35e736b", "fusion_lat": 0.0, "name": "a6b9259fce61a566b8a058e3e35e736b", "is_reserved": 0, "rental_uris": {"android": "https://dc.lft.to/lastmile_qr_scan", "ios": "https://dc.lft.to/lastmile_qr_scan"}, "fusion_lon": 0.0}, {"lat": 38.9193975, "is_disabled": 0, "type": "electric_scooter", "lon": -76.97022566666666, "bike_id": "92104f66d0c9f229fe7c99f7246d1e2e", "fusion_lat": 0.0, "name": "92104f66d0c9f229fe7c99f7246d1e2e", "is_reserved": 0, "rental_uris": {"android": "https://dc.lft.to/lastmile_qr_scan", "ios": "https://dc.lft.to/lastmile_qr_scan"}, "fusion_lon": 0.0}, {"lat": 38.92715533333333, "is_disabled": 0, "type": "electric_scooter", "lon": -77.02291133333334, "bike_id": "b551e62a3df3a58eeec6b6168960c6ec", "fusion_lat": 0.0, "name": "b551e62a3df3a58eeec6b6168960c6ec", "is_reserved": 0, "rental_uris": {"android": "https://dc.lft.to/lastmile_qr_scan", "ios": "https://dc.lft.to/lastmile_qr_scan"}, "fusion_lon": 0.0}, {"lat": 38.90473133333333, "is_disabled": 0, "type": "electric_scooter", "lon": -77.039154, "bike_id": "060e52c5bb6fb6cd3a0cbdbbd185e8ef", "fusion_lat": 0.0, "name": "060e52c5bb6fb6cd3a0cbdbbd185e8ef", "is_reserved": 0, "rental_uris": {"android": "https://dc.lft.to/lastmile_qr_scan", "ios": "https://dc.lft.to/lastmile_qr_scan"}, "fusion_lon": 0.0}, {"lat": 38.87157033333333, "is_disabled": 0, "type": "electric_scooter", "lon": -77.01195, "bike_id": "474167d13fca06c00591a03302ada4b3", "fusion_lat": 0.0, "name": "474167d13fca06c00591a03302ada4b3", "is_reserved": 0, "rental_uris": {"android": "https://dc.lft.to/lastmile_qr_scan", "ios": "https://dc.lft.to/lastmile_qr_scan"}, "fusion_lon": 0.0}, {"lat": 38.91480216666667, "is_disabled": 0, "type": "electric_bike", "lon": -77.04622683333334, "bike_id": "3abd629b4d5d5470352dd00d371f747f", "fusion_lat": 0.0, "name": "3abd629b4d5d5470352dd00d371f747f", "is_reserved": 0, "rental_uris": {"android": "https://dc.lft.to/lastmile_qr_scan", "ios": "https://dc.lft.to/lastmile_qr_scan"}, "fusion_lon": 0.0}, {"lat": 38.91327166666667, "is_disabled": 0, "type": "electric_scooter", "lon": -77.0317985, "bike_id": "e03c91c416679c48a17f556404b28a86", "fusion_lat": 0.0, "name": "e03c91c416679c48a17f556404b28a86", "is_reserved": 0, "rental_uris": {"android": "https://dc.lft.to/lastmile_qr_scan", "ios": "https://dc.lft.to/lastmile_qr_scan"}, "fusion_lon": 0.0}, {"lat": 38.9284095, "is_disabled": 0, "type": "electric_scooter", "lon": -77.01411783333333, "bike_id": "5a20e55522ca483796369b3e3e06dd36", "fusion_lat": 0.0, "name": "5a20e55522ca483796369b3e3e06dd36", "is_reserved": 0, "rental_uris": {"android": "https://dc.lft.to/lastmile_qr_scan", "ios": "https://dc.lft.to/lastmile_qr_scan"}, "fusion_lon": 0.0}, {"lat": 38.90306866666667, "is_disabled": 0, "type": "electric_scooter", "lon": -77.0089145, "bike_id": "484754a590df66abf8066a73303f8a6b", "fusion_lat": 0.0, "name": "484754a590df66abf8066a73303f8a6b", "is_reserved": 0, "rental_uris": {"android": "https://dc.lft.to/lastmile_qr_scan", "ios": "https://dc.lft.to/lastmile_qr_scan"}, "fusion_lon": 0.0}, {"lat": 38.876342666666666, "is_disabled": 0, "type": "electric_scooter", "lon": -76.96529566666666, "bike_id": "b19b033cbf58a183bc80c58c7129b040", "fusion_lat": 0.0, "name": "b19b033cbf58a183bc80c58c7129b040", "is_reserved": 0, "rental_uris": {"android": "https://dc.lft.to/lastmile_qr_scan", "ios": "https://dc.lft.to/lastmile_qr_scan"}, "fusion_lon": 0.0}, {"lat": 38.91594116666667, "is_disabled": 0, "type": "electric_scooter", "lon": -77.04471166666667, "bike_id": "8c41c533df0974232ca7e0f6e840cac6", "fusion_lat": 0.0, "name": "8c41c533df0974232ca7e0f6e840cac6", "is_reserved": 0, "rental_uris": {"android": "https://dc.lft.to/lastmile_qr_scan", "ios": "https://dc.lft.to/lastmile_qr_scan"}, "fusion_lon": 0.0}, {"lat": 38.910939, "is_disabled": 0, "type": "electric_scooter", "lon": -77.02194333333334, "bike_id": "447c9c1f6289900ff7c66d02c91d9f92", "fusion_lat": 0.0, "name": "447c9c1f6289900ff7c66d02c91d9f92", "is_reserved": 0, "rental_uris": {"android": "https://dc.lft.to/lastmile_qr_scan", "ios": "https://dc.lft.to/lastmile_qr_scan"}, "fusion_lon": 0.0}, {"lat": 38.9057185, "is_disabled": 0, "type": "electric_scooter", "lon": -77.0249205, "bike_id": "59085832dac03bc2cfb0c61c7c13e3a7", "fusion_lat": 0.0, "name": "59085832dac03bc2cfb0c61c7c13e3a7", "is_reserved": 0, "rental_uris": {"android": "https://dc.lft.to/lastmile_qr_scan", "ios": "https://dc.lft.to/lastmile_qr_scan"}, "fusion_lon": 0.0}, {"lat": 38.89833516666667, "is_disabled": 0, "type": "electric_scooter", "lon": -76.93103516666666, "bike_id": "f5d544b00cf9cfd9f88727b8882713d4", "fusion_lat": 0.0, "name": "f5d544b00cf9cfd9f88727b8882713d4", "is_reserved": 0, "rental_uris": {"android": "https://dc.lft.to/lastmile_qr_scan", "ios": "https://dc.lft.to/lastmile_qr_scan"}, "fusion_lon": 0.0}, {"lat": 38.96932866666667, "is_disabled": 0, "type": "electric_bike", "lon": -77.026252, "bike_id": "73d0ff089042bfa52d4d0743fbb75595", "fusion_lat": 0.0, "name": "73d0ff089042bfa52d4d0743fbb75595", "is_reserved": 0, "rental_uris": {"android": "https://dc.lft.to/lastmile_qr_scan", "ios": "https://dc.lft.to/lastmile_qr_scan"}, "fusion_lon": 0.0}, {"lat": 38.8737625, "is_disabled": 0, "type": "electric_bike", "lon": -77.11801733333333, "bike_id": "247230518f6a99be0e15a4edc9d4cd87", "fusion_lat": 0.0, "name": "247230518f6a99be0e15a4edc9d4cd87", "is_reserved": 0, "rental_uris": {"android": "https://dc.lft.to/lastmile_qr_scan", "ios": "https://dc.lft.to/lastmile_qr_scan"}, "fusion_lon": 0.0}, {"lat": 38.89632733333333, "is_disabled": 0, "type": "electric_scooter", "lon": -77.03164183333334, "bike_id": "1aa8042489c6ec36b3572590b3d5299d", "fusion_lat": 0.0, "name": "1aa8042489c6ec36b3572590b3d5299d", "is_reserved": 0, "rental_uris": {"android": "https://dc.lft.to/lastmile_qr_scan", "ios": "https://dc.lft.to/lastmile_qr_scan"}, "fusion_lon": 0.0}, {"lat": 38.906795333333335, "is_disabled": 0, "type": "electric_scooter", "lon": -77.03772433333333, "bike_id": "c8a58b96c37e9ee0983ed237cdeca236", "fusion_lat": 0.0, "name": "c8a58b96c37e9ee0983ed237cdeca236", "is_reserved": 0, "rental_uris": {"android": "https://dc.lft.to/lastmile_qr_scan", "ios": "https://dc.lft.to/lastmile_qr_scan"}, "fusion_lon": 0.0}, {"lat": 38.921055333333335, "is_disabled": 0, "type": "electric_scooter", "lon": -77.04368866666667, "bike_id": "869fec5d8c306b44c97e711d14be4c91", "fusion_lat": 0.0, "name": "869fec5d8c306b44c97e711d14be4c91", "is_reserved": 0, "rental_uris": {"android": "https://dc.lft.to/lastmile_qr_scan", "ios": "https://dc.lft.to/lastmile_qr_scan"}, "fusion_lon": 0.0}, {"lat": 38.90032583333333, "is_disabled": 0, "type": "electric_scooter", "lon": -76.99825833333334, "bike_id": "184fd280b458e0142d2022d257965ee0", "fusion_lat": 0.0, "name": "184fd280b458e0142d2022d257965ee0", "is_reserved": 0, "rental_uris": {"android": "https://dc.lft.to/lastmile_qr_scan", "ios": "https://dc.lft.to/lastmile_qr_scan"}, "fusion_lon": 0.0}, {"lat": 38.9114735, "is_disabled": 0, "type": "electric_scooter", "lon": -77.01900083333334, "bike_id": "6e38673755d079436a7da8c4ec55c097", "fusion_lat": 0.0, "name": "6e38673755d079436a7da8c4ec55c097", "is_reserved": 0, "rental_uris": {"android": "https://dc.lft.to/lastmile_qr_scan", "ios": "https://dc.lft.to/lastmile_qr_scan"}, "fusion_lon": 0.0}, {"lat": 38.949907833333334, "is_disabled": 0, "type": "electric_bike", "lon": -77.02959716666666, "bike_id": "22f2b45f44cfd314172d4381b1a93a62", "fusion_lat": 0.0, "name": "22f2b45f44cfd314172d4381b1a93a62", "is_reserved": 0, "rental_uris": {"android": "https://dc.lft.to/lastmile_qr_scan", "ios": "https://dc.lft.to/lastmile_qr_scan"}, "fusion_lon": 0.0}, {"lat": 38.9155695, "is_disabled": 0, "type": "electric_scooter", "lon": -77.04181433333333, "bike_id": "520d283738bc103624769f90348d81d7", "fusion_lat": 0.0, "name": "520d283738bc103624769f90348d81d7", "is_reserved": 0, "rental_uris": {"android": "https://dc.lft.to/lastmile_qr_scan", "ios": "https://dc.lft.to/lastmile_qr_scan"}, "fusion_lon": 0.0}, {"lat": 38.90282533333333, "is_disabled": 0, "type": "electric_scooter", "lon": -77.04036366666666, "bike_id": "80a737385d55cb100cb5953eb909571d", "fusion_lat": 0.0, "name": "80a737385d55cb100cb5953eb909571d", "is_reserved": 0, "rental_uris": {"android": "https://dc.lft.to/lastmile_qr_scan", "ios": "https://dc.lft.to/lastmile_qr_scan"}, "fusion_lon": 0.0}, {"lat": 38.89821633333333, "is_disabled": 0, "type": "electric_scooter", "lon": -77.0295335, "bike_id": "2ab371111feff2e8a448edd90675bc8c", "fusion_lat": 0.0, "name": "2ab371111feff2e8a448edd90675bc8c", "is_reserved": 0, "rental_uris": {"android": "https://dc.lft.to/lastmile_qr_scan", "ios": "https://dc.lft.to/lastmile_qr_scan"}, "fusion_lon": 0.0}, {"lat": 38.911208, "is_disabled": 0, "type": "electric_scooter", "lon": -77.03867416666667, "bike_id": "70c1cf1332ab0380d325e4aaab3763ff", "fusion_lat": 0.0, "name": "70c1cf1332ab0380d325e4aaab3763ff", "is_reserved": 0, "rental_uris": {"android": "https://dc.lft.to/lastmile_qr_scan", "ios": "https://dc.lft.to/lastmile_qr_scan"}, "fusion_lon": 0.0}, {"lat": 38.86619733333333, "is_disabled": 0, "type": "electric_scooter", "lon": -76.9866465, "bike_id": "5148e60d5ff898bfdb6347aa08ecd6cd", "fusion_lat": 0.0, "name": "5148e60d5ff898bfdb6347aa08ecd6cd", "is_reserved": 0, "rental_uris": {"android": "https://dc.lft.to/lastmile_qr_scan", "ios": "https://dc.lft.to/lastmile_qr_scan"}, "fusion_lon": 0.0}, {"lat": 38.92357616666666, "is_disabled": 0, "type": "electric_scooter", "lon": -77.050215, "bike_id": "95f1ce5ad66b5ee26a2d8c7ad6b23698", "fusion_lat": 0.0, "name": "95f1ce5ad66b5ee26a2d8c7ad6b23698", "is_reserved": 0, "rental_uris": {"android": "https://dc.lft.to/lastmile_qr_scan", "ios": "https://dc.lft.to/lastmile_qr_scan"}, "fusion_lon": 0.0}, {"lat": 38.91822916666667, "is_disabled": 0, "type": "electric_scooter", "lon": -77.03665933333333, "bike_id": "0552a8e6a349ebc54b2dea523559f8bc", "fusion_lat": 0.0, "name": "0552a8e6a349ebc54b2dea523559f8bc", "is_reserved": 0, "rental_uris": {"android": "https://dc.lft.to/lastmile_qr_scan", "ios": "https://dc.lft.to/lastmile_qr_scan"}, "fusion_lon": 0.0}, {"lat": 38.90242583333333, "is_disabled": 0, "type": "electric_scooter", "lon": -77.06264183333333, "bike_id": "13def9563688a5703475a34ec53bd371", "fusion_lat": 0.0, "name": "13def9563688a5703475a34ec53bd371", "is_reserved": 0, "rental_uris": {"android": "https://dc.lft.to/lastmile_qr_scan", "ios": "https://dc.lft.to/lastmile_qr_scan"}, "fusion_lon": 0.0}, {"lat": 38.923721666666665, "is_disabled": 0, "type": "electric_scooter", "lon": -77.05061116666667, "bike_id": "5ad3a8acad9bc906823e0d06b0511cea", "fusion_lat": 0.0, "name": "5ad3a8acad9bc906823e0d06b0511cea", "is_reserved": 0, "rental_uris": {"android": "https://dc.lft.to/lastmile_qr_scan", "ios": "https://dc.lft.to/lastmile_qr_scan"}, "fusion_lon": 0.0}, {"lat": 38.93611, "is_disabled": 0, "type": "electric_scooter", "lon": -77.05859833333334, "bike_id": "b6bced369cf7d194de1e76e022728fd1", "fusion_lat": 0.0, "name": "b6bced369cf7d194de1e76e022728fd1", "is_reserved": 0, "rental_uris": {"android": "https://dc.lft.to/lastmile_qr_scan", "ios": "https://dc.lft.to/lastmile_qr_scan"}, "fusion_lon": 0.0}, {"lat": 38.906207, "is_disabled": 0, "type": "electric_scooter", "lon": -77.02184466666667, "bike_id": "947ee3c39c892b3bb0901378eca78bfb", "fusion_lat": 0.0, "name": "947ee3c39c892b3bb0901378eca78bfb", "is_reserved": 0, "rental_uris": {"android": "https://dc.lft.to/lastmile_qr_scan", "ios": "https://dc.lft.to/lastmile_qr_scan"}, "fusion_lon": 0.0}, {"lat": 38.88270133333333, "is_disabled": 0, "type": "electric_bike", "lon": -76.93248616666666, "bike_id": "4ddc322badb3468228bd9061daf02f5f", "fusion_lat": 0.0, "name": "4ddc322badb3468228bd9061daf02f5f", "is_reserved": 0, "rental_uris": {"android": "https://dc.lft.to/lastmile_qr_scan", "ios": "https://dc.lft.to/lastmile_qr_scan"}, "fusion_lon": 0.0}, {"lat": 38.93582983333334, "is_disabled": 0, "type": "electric_scooter", "lon": -77.037593, "bike_id": "27eaf7195fa0fcc24c39860192daf1e5", "fusion_lat": 0.0, "name": "27eaf7195fa0fcc24c39860192daf1e5", "is_reserved": 0, "rental_uris": {"android": "https://dc.lft.to/lastmile_qr_scan", "ios": "https://dc.lft.to/lastmile_qr_scan"}, "fusion_lon": 0.0}, {"lat": 38.9161085, "is_disabled": 0, "type": "electric_scooter", "lon": -77.01743183333333, "bike_id": "7a4fa569996ba04a464894024c01b960", "fusion_lat": 0.0, "name": "7a4fa569996ba04a464894024c01b960", "is_reserved": 0, "rental_uris": {"android": "https://dc.lft.to/lastmile_qr_scan", "ios": "https://dc.lft.to/lastmile_qr_scan"}, "fusion_lon": 0.0}, {"lat": 38.928330833333334, "is_disabled": 0, "type": "electric_scooter", "lon": -77.05442433333333, "bike_id": "942aa7dfb80ef1cc26175d79f5970612", "fusion_lat": 0.0, "name": "942aa7dfb80ef1cc26175d79f5970612", "is_reserved": 0, "rental_uris": {"android": "https://dc.lft.to/lastmile_qr_scan", "ios": "https://dc.lft.to/lastmile_qr_scan"}, "fusion_lon": 0.0}, {"lat": 38.9508445, "is_disabled": 0, "type": "electric_bike", "lon": -77.0120475, "bike_id": "dc7ab8374c9ffda449910ab350ff3d3b", "fusion_lat": 0.0, "name": "dc7ab8374c9ffda449910ab350ff3d3b", "is_reserved": 0, "rental_uris": {"android": "https://dc.lft.to/lastmile_qr_scan", "ios": "https://dc.lft.to/lastmile_qr_scan"}, "fusion_lon": 0.0}, {"lat": 38.90138066666667, "is_disabled": 0, "type": "electric_scooter", "lon": -77.00305666666667, "bike_id": "8b00ea493250985fd4c85d1104e7a1df", "fusion_lat": 0.0, "name": "8b00ea493250985fd4c85d1104e7a1df", "is_reserved": 0, "rental_uris": {"android": "https://dc.lft.to/lastmile_qr_scan", "ios": "https://dc.lft.to/lastmile_qr_scan"}, "fusion_lon": 0.0}, {"lat": 38.8905325, "is_disabled": 0, "type": "electric_scooter", "lon": -76.93750783333333, "bike_id": "9a58fb817384826ddafdf253c9ee8213", "fusion_lat": 0.0, "name": "9a58fb817384826ddafdf253c9ee8213", "is_reserved": 0, "rental_uris": {"android": "https://dc.lft.to/lastmile_qr_scan", "ios": "https://dc.lft.to/lastmile_qr_scan"}, "fusion_lon": 0.0}, {"lat": 38.90564366666667, "is_disabled": 0, "type": "electric_scooter", "lon": -77.016808, "bike_id": "e9b61ec2b471ae64c4d0b4239d61e648", "fusion_lat": 0.0, "name": "e9b61ec2b471ae64c4d0b4239d61e648", "is_reserved": 0, "rental_uris": {"android": "https://dc.lft.to/lastmile_qr_scan", "ios": "https://dc.lft.to/lastmile_qr_scan"}, "fusion_lon": 0.0}, {"lat": 38.90283016666667, "is_disabled": 0, "type": "electric_scooter", "lon": -77.05806533333333, "bike_id": "9ba98a7e0d7defdb61d793b37029fc60", "fusion_lat": 0.0, "name": "9ba98a7e0d7defdb61d793b37029fc60", "is_reserved": 0, "rental_uris": {"android": "https://dc.lft.to/lastmile_qr_scan", "ios": "https://dc.lft.to/lastmile_qr_scan"}, "fusion_lon": 0.0}, {"lat": 38.90947416666667, "is_disabled": 0, "type": "electric_scooter", "lon": -76.989663, "bike_id": "2ee665f5ed504c829bc9e2c3fff76d29", "fusion_lat": 0.0, "name": "2ee665f5ed504c829bc9e2c3fff76d29", "is_reserved": 0, "rental_uris": {"android": "https://dc.lft.to/lastmile_qr_scan", "ios": "https://dc.lft.to/lastmile_qr_scan"}, "fusion_lon": 0.0}, {"lat": 38.90361816666667, "is_disabled": 0, "type": "electric_scooter", "lon": -77.01113616666666, "bike_id": "9a763902335a9418ea6373aabaf2fd98", "fusion_lat": 0.0, "name": "9a763902335a9418ea6373aabaf2fd98", "is_reserved": 0, "rental_uris": {"android": "https://dc.lft.to/lastmile_qr_scan", "ios": "https://dc.lft.to/lastmile_qr_scan"}, "fusion_lon": 0.0}, {"lat": 38.84035816666667, "is_disabled": 0, "type": "electric_bike", "lon": -76.975925, "bike_id": "2a5450ab8937b93e3873eebaccca0635", "fusion_lat": 0.0, "name": "2a5450ab8937b93e3873eebaccca0635", "is_reserved": 0, "rental_uris": {"android": "https://dc.lft.to/lastmile_qr_scan", "ios": "https://dc.lft.to/lastmile_qr_scan"}, "fusion_lon": 0.0}, {"lat": 38.90075316666667, "is_disabled": 0, "type": "electric_scooter", "lon": -77.027098, "bike_id": "21847f0c99ebeee36388f6e4d2b920a1", "fusion_lat": 0.0, "name": "21847f0c99ebeee36388f6e4d2b920a1", "is_reserved": 0, "rental_uris": {"android": "https://dc.lft.to/lastmile_qr_scan", "ios": "https://dc.lft.to/lastmile_qr_scan"}, "fusion_lon": 0.0}, {"lat": 38.887430333333334, "is_disabled": 0, "type": "electric_scooter", "lon": -76.98357983333334, "bike_id": "aa308f5c1ba5cdc1537a0210b80c02c3", "fusion_lat": 0.0, "name": "aa308f5c1ba5cdc1537a0210b80c02c3", "is_reserved": 0, "rental_uris": {"android": "https://dc.lft.to/lastmile_qr_scan", "ios": "https://dc.lft.to/lastmile_qr_scan"}, "fusion_lon": 0.0}, {"lat": 38.8741305, "is_disabled": 0, "type": "electric_bike", "lon": -76.96570733333333, "bike_id": "e04987e01fc65012ab58cedebe7d4c3a", "fusion_lat": 0.0, "name": "e04987e01fc65012ab58cedebe7d4c3a", "is_reserved": 0, "rental_uris": {"android": "https://dc.lft.to/lastmile_qr_scan", "ios": "https://dc.lft.to/lastmile_qr_scan"}, "fusion_lon": 0.0}, {"lat": 38.86704833333334, "is_disabled": 0, "type": "electric_scooter", "lon": -76.98715516666667, "bike_id": "a2a461cff193b159212187f39d4c8a1f", "fusion_lat": 0.0, "name": "a2a461cff193b159212187f39d4c8a1f", "is_reserved": 0, "rental_uris": {"android": "https://dc.lft.to/lastmile_qr_scan", "ios": "https://dc.lft.to/lastmile_qr_scan"}, "fusion_lon": 0.0}, {"lat": 38.93535516666667, "is_disabled": 0, "type": "electric_scooter", "lon": -77.0730195, "bike_id": "0d4eed93d83da40f2b2da4ee2e4cd0be", "fusion_lat": 0.0, "name": "0d4eed93d83da40f2b2da4ee2e4cd0be", "is_reserved": 0, "rental_uris": {"android": "https://dc.lft.to/lastmile_qr_scan", "ios": "https://dc.lft.to/lastmile_qr_scan"}, "fusion_lon": 0.0}, {"lat": 38.895290333333335, "is_disabled": 0, "type": "electric_scooter", "lon": -76.94890083333334, "bike_id": "15ed99a86a10b69e4c9325783de5010a", "fusion_lat": 0.0, "name": "15ed99a86a10b69e4c9325783de5010a", "is_reserved": 0, "rental_uris": {"android": "https://dc.lft.to/lastmile_qr_scan", "ios": "https://dc.lft.to/lastmile_qr_scan"}, "fusion_lon": 0.0}, {"lat": 38.91380483333333, "is_disabled": 0, "type": "electric_scooter", "lon": -77.020057, "bike_id": "053ab5e849609a493bc56eda41f2905e", "fusion_lat": 0.0, "name": "053ab5e849609a493bc56eda41f2905e", "is_reserved": 0, "rental_uris": {"android": "https://dc.lft.to/lastmile_qr_scan", "ios": "https://dc.lft.to/lastmile_qr_scan"}, "fusion_lon": 0.0}, {"lat": 38.9482475, "is_disabled": 0, "type": "electric_scooter", "lon": -76.9990845, "bike_id": "7b14772e4ac2c385b5abcd0daabcbfdc", "fusion_lat": 0.0, "name": "7b14772e4ac2c385b5abcd0daabcbfdc", "is_reserved": 0, "rental_uris": {"android": "https://dc.lft.to/lastmile_qr_scan", "ios": "https://dc.lft.to/lastmile_qr_scan"}, "fusion_lon": 0.0}, {"lat": 38.91690333333333, "is_disabled": 0, "type": "electric_scooter", "lon": -77.032325, "bike_id": "b479bdb53e530311cfd4137bba4e5947", "fusion_lat": 0.0, "name": "b479bdb53e530311cfd4137bba4e5947", "is_reserved": 0, "rental_uris": {"android": "https://dc.lft.to/lastmile_qr_scan", "ios": "https://dc.lft.to/lastmile_qr_scan"}, "fusion_lon": 0.0}, {"lat": 38.897301166666665, "is_disabled": 0, "type": "electric_scooter", "lon": -77.0216435, "bike_id": "0c184219e4b741e75a673550c95d2874", "fusion_lat": 0.0, "name": "0c184219e4b741e75a673550c95d2874", "is_reserved": 0, "rental_uris": {"android": "https://dc.lft.to/lastmile_qr_scan", "ios": "https://dc.lft.to/lastmile_qr_scan"}, "fusion_lon": 0.0}, {"lat": 38.9013215, "is_disabled": 0, "type": "electric_bike", "lon": -77.03446233333334, "bike_id": "b7108d894cb93328bbc0f9cbc1ae8509", "fusion_lat": 0.0, "name": "b7108d894cb93328bbc0f9cbc1ae8509", "is_reserved": 0, "rental_uris": {"android": "https://dc.lft.to/lastmile_qr_scan", "ios": "https://dc.lft.to/lastmile_qr_scan"}, "fusion_lon": 0.0}, {"lat": 38.9203695, "is_disabled": 0, "type": "electric_scooter", "lon": -77.04183033333334, "bike_id": "f269c8949063fd633c5d7dbf2a1cd9ba", "fusion_lat": 0.0, "name": "f269c8949063fd633c5d7dbf2a1cd9ba", "is_reserved": 0, "rental_uris": {"android": "https://dc.lft.to/lastmile_qr_scan", "ios": "https://dc.lft.to/lastmile_qr_scan"}, "fusion_lon": 0.0}, {"lat": 38.915690166666664, "is_disabled": 0, "type": "electric_scooter", "lon": -77.03153116666667, "bike_id": "65cdd07c885e2548d2468a4b93d44b8e", "fusion_lat": 0.0, "name": "65cdd07c885e2548d2468a4b93d44b8e", "is_reserved": 0, "rental_uris": {"android": "https://dc.lft.to/lastmile_qr_scan", "ios": "https://dc.lft.to/lastmile_qr_scan"}, "fusion_lon": 0.0}, {"lat": 38.91415966666667, "is_disabled": 0, "type": "electric_scooter", "lon": -77.02212533333334, "bike_id": "7d53768fffc5de957e7d1bad1795659c", "fusion_lat": 0.0, "name": "7d53768fffc5de957e7d1bad1795659c", "is_reserved": 0, "rental_uris": {"android": "https://dc.lft.to/lastmile_qr_scan", "ios": "https://dc.lft.to/lastmile_qr_scan"}, "fusion_lon": 0.0}, {"lat": 38.91583516666667, "is_disabled": 0, "type": "electric_scooter", "lon": -77.03190166666667, "bike_id": "25094775a6ac768a415478984635dda0", "fusion_lat": 0.0, "name": "25094775a6ac768a415478984635dda0", "is_reserved": 0, "rental_uris": {"android": "https://dc.lft.to/lastmile_qr_scan", "ios": "https://dc.lft.to/lastmile_qr_scan"}, "fusion_lon": 0.0}, {"lat": 38.87663966666667, "is_disabled": 0, "type": "electric_scooter", "lon": -77.0040795, "bike_id": "9678b61d9b7bfc0e4f70536d7afb1d4d", "fusion_lat": 0.0, "name": "9678b61d9b7bfc0e4f70536d7afb1d4d", "is_reserved": 0, "rental_uris": {"android": "https://dc.lft.to/lastmile_qr_scan", "ios": "https://dc.lft.to/lastmile_qr_scan"}, "fusion_lon": 0.0}, {"lat": 38.898482333333334, "is_disabled": 0, "type": "electric_scooter", "lon": -77.02793116666666, "bike_id": "203b64974c0745909eaa8908ea4e3622", "fusion_lat": 0.0, "name": "203b64974c0745909eaa8908ea4e3622", "is_reserved": 0, "rental_uris": {"android": "https://dc.lft.to/lastmile_qr_scan", "ios": "https://dc.lft.to/lastmile_qr_scan"}, "fusion_lon": 0.0}, {"lat": 38.905694833333335, "is_disabled": 0, "type": "electric_scooter", "lon": -77.0465905, "bike_id": "36e53f9e940168f513a01d440131255c", "fusion_lat": 0.0, "name": "36e53f9e940168f513a01d440131255c", "is_reserved": 0, "rental_uris": {"android": "https://dc.lft.to/lastmile_qr_scan", "ios": "https://dc.lft.to/lastmile_qr_scan"}, "fusion_lon": 0.0}, {"lat": 38.96228333333333, "is_disabled": 0, "type": "electric_bike", "lon": -77.02627433333333, "bike_id": "95b53bb4190784f531b089db2c46a8ae", "fusion_lat": 0.0, "name": "95b53bb4190784f531b089db2c46a8ae", "is_reserved": 0, "rental_uris": {"android": "https://dc.lft.to/lastmile_qr_scan", "ios": "https://dc.lft.to/lastmile_qr_scan"}, "fusion_lon": 0.0}, {"lat": 38.94496766666666, "is_disabled": 0, "type": "electric_bike", "lon": -77.02177916666666, "bike_id": "69216e6fb29905d503ad1b7ddf6fe0b8", "fusion_lat": 0.0, "name": "69216e6fb29905d503ad1b7ddf6fe0b8", "is_reserved": 0, "rental_uris": {"android": "https://dc.lft.to/lastmile_qr_scan", "ios": "https://dc.lft.to/lastmile_qr_scan"}, "fusion_lon": 0.0}, {"lat": 38.906798, "is_disabled": 0, "type": "electric_scooter", "lon": -77.02712283333334, "bike_id": "994bb3b9c7c68dbe6858571c3d0afc9d", "fusion_lat": 0.0, "name": "994bb3b9c7c68dbe6858571c3d0afc9d", "is_reserved": 0, "rental_uris": {"android": "https://dc.lft.to/lastmile_qr_scan", "ios": "https://dc.lft.to/lastmile_qr_scan"}, "fusion_lon": 0.0}, {"lat": 38.899199333333335, "is_disabled": 0, "type": "electric_scooter", "lon": -76.933764, "bike_id": "794e2e33fe7f96c08c36c11abe83f1c8", "fusion_lat": 0.0, "name": "794e2e33fe7f96c08c36c11abe83f1c8", "is_reserved": 0, "rental_uris": {"android": "https://dc.lft.to/lastmile_qr_scan", "ios": "https://dc.lft.to/lastmile_qr_scan"}, "fusion_lon": 0.0}, {"lat": 38.92282066666667, "is_disabled": 0, "type": "electric_scooter", "lon": -77.0297925, "bike_id": "2b64dc932c84e1728ee70c0bd858874a", "fusion_lat": 0.0, "name": "2b64dc932c84e1728ee70c0bd858874a", "is_reserved": 0, "rental_uris": {"android": "https://dc.lft.to/lastmile_qr_scan", "ios": "https://dc.lft.to/lastmile_qr_scan"}, "fusion_lon": 0.0}, {"lat": 38.86347266666667, "is_disabled": 0, "type": "electric_scooter", "lon": -76.99002416666667, "bike_id": "e05ceb01883a6c6a0a9c6db7b99e3a89", "fusion_lat": 0.0, "name": "e05ceb01883a6c6a0a9c6db7b99e3a89", "is_reserved": 0, "rental_uris": {"android": "https://dc.lft.to/lastmile_qr_scan", "ios": "https://dc.lft.to/lastmile_qr_scan"}, "fusion_lon": 0.0}, {"lat": 38.89880466666666, "is_disabled": 0, "type": "electric_scooter", "lon": -77.0534065, "bike_id": "ebbc77e35b9270c2dba6d711886be08b", "fusion_lat": 0.0, "name": "ebbc77e35b9270c2dba6d711886be08b", "is_reserved": 0, "rental_uris": {"android": "https://dc.lft.to/lastmile_qr_scan", "ios": "https://dc.lft.to/lastmile_qr_scan"}, "fusion_lon": 0.0}, {"lat": 38.9483995, "is_disabled": 0, "type": "electric_bike", "lon": -77.03889816666667, "bike_id": "695bb661b2cf505f18d0fdeeca954d90", "fusion_lat": 0.0, "name": "695bb661b2cf505f18d0fdeeca954d90", "is_reserved": 0, "rental_uris": {"android": "https://dc.lft.to/lastmile_qr_scan", "ios": "https://dc.lft.to/lastmile_qr_scan"}, "fusion_lon": 0.0}, {"lat": 38.955584, "is_disabled": 0, "type": "electric_bike", "lon": -76.93552783333334, "bike_id": "73fd432dea0cfa3fab90007e650abbe9", "fusion_lat": 0.0, "name": "73fd432dea0cfa3fab90007e650abbe9", "is_reserved": 0, "rental_uris": {"android": "https://dc.lft.to/lastmile_qr_scan", "ios": "https://dc.lft.to/lastmile_qr_scan"}, "fusion_lon": 0.0}, {"lat": 38.91337433333333, "is_disabled": 0, "type": "electric_scooter", "lon": -77.03178733333333, "bike_id": "03a33c87b3f4278695919cf8fa9611f8", "fusion_lat": 0.0, "name": "03a33c87b3f4278695919cf8fa9611f8", "is_reserved": 0, "rental_uris": {"android": "https://dc.lft.to/lastmile_qr_scan", "ios": "https://dc.lft.to/lastmile_qr_scan"}, "fusion_lon": 0.0}, {"lat": 38.90380116666667, "is_disabled": 0, "type": "electric_scooter", "lon": -77.02014883333334, "bike_id": "2f8cc224660a8857abb3a62fa637d4b4", "fusion_lat": 0.0, "name": "2f8cc224660a8857abb3a62fa637d4b4", "is_reserved": 0, "rental_uris": {"android": "https://dc.lft.to/lastmile_qr_scan", "ios": "https://dc.lft.to/lastmile_qr_scan"}, "fusion_lon": 0.0}, {"lat": 38.9661175, "is_disabled": 0, "type": "electric_scooter", "lon": -77.02053483333333, "bike_id": "9a1c7187882940640bd4ab3a174d27e1", "fusion_lat": 0.0, "name": "9a1c7187882940640bd4ab3a174d27e1", "is_reserved": 0, "rental_uris": {"android": "https://dc.lft.to/lastmile_qr_scan", "ios": "https://dc.lft.to/lastmile_qr_scan"}, "fusion_lon": 0.0}, {"lat": 38.90494783333333, "is_disabled": 0, "type": "electric_scooter", "lon": -77.02948433333333, "bike_id": "807d600fb72480ade0f14adf78c60e8b", "fusion_lat": 0.0, "name": "807d600fb72480ade0f14adf78c60e8b", "is_reserved": 0, "rental_uris": {"android": "https://dc.lft.to/lastmile_qr_scan", "ios": "https://dc.lft.to/lastmile_qr_scan"}, "fusion_lon": 0.0}, {"lat": 38.901475166666664, "is_disabled": 0, "type": "electric_scooter", "lon": -77.03270033333334, "bike_id": "7bdd4d547a21dafcfefdd417d14d1742", "fusion_lat": 0.0, "name": "7bdd4d547a21dafcfefdd417d14d1742", "is_reserved": 0, "rental_uris": {"android": "https://dc.lft.to/lastmile_qr_scan", "ios": "https://dc.lft.to/lastmile_qr_scan"}, "fusion_lon": 0.0}, {"lat": 38.920700833333335, "is_disabled": 0, "type": "electric_scooter", "lon": -77.02516316666667, "bike_id": "6d5d769273872631b51364294f34fa03", "fusion_lat": 0.0, "name": "6d5d769273872631b51364294f34fa03", "is_reserved": 0, "rental_uris": {"android": "https://dc.lft.to/lastmile_qr_scan", "ios": "https://dc.lft.to/lastmile_qr_scan"}, "fusion_lon": 0.0}, {"lat": 38.915642, "is_disabled": 0, "type": "electric_scooter", "lon": -77.03150266666667, "bike_id": "691f4a049fb014f0ccca1054dace3152", "fusion_lat": 0.0, "name": "691f4a049fb014f0ccca1054dace3152", "is_reserved": 0, "rental_uris": {"android": "https://dc.lft.to/lastmile_qr_scan", "ios": "https://dc.lft.to/lastmile_qr_scan"}, "fusion_lon": 0.0}, {"lat": 38.861039166666664, "is_disabled": 0, "type": "electric_scooter", "lon": -76.98888066666666, "bike_id": "989802e1d9092d6b861b3600a7403250", "fusion_lat": 0.0, "name": "989802e1d9092d6b861b3600a7403250", "is_reserved": 0, "rental_uris": {"android": "https://dc.lft.to/lastmile_qr_scan", "ios": "https://dc.lft.to/lastmile_qr_scan"}, "fusion_lon": 0.0}, {"lat": 38.9315155, "is_disabled": 0, "type": "electric_scooter", "lon": -77.03833183333333, "bike_id": "428f51ee3c32de8f6200f2b6b6ec40f2", "fusion_lat": 0.0, "name": "428f51ee3c32de8f6200f2b6b6ec40f2", "is_reserved": 0, "rental_uris": {"android": "https://dc.lft.to/lastmile_qr_scan", "ios": "https://dc.lft.to/lastmile_qr_scan"}, "fusion_lon": 0.0}, {"lat": 38.89976983333333, "is_disabled": 0, "type": "electric_scooter", "lon": -77.03078933333333, "bike_id": "04701343f077dbf907e5e353f59574d9", "fusion_lat": 0.0, "name": "04701343f077dbf907e5e353f59574d9", "is_reserved": 0, "rental_uris": {"android": "https://dc.lft.to/lastmile_qr_scan", "ios": "https://dc.lft.to/lastmile_qr_scan"}, "fusion_lon": 0.0}, {"lat": 38.8961455, "is_disabled": 0, "type": "electric_scooter", "lon": -77.03167916666666, "bike_id": "787eb6ad9d2f2462f891ca0f05b2c00f", "fusion_lat": 0.0, "name": "787eb6ad9d2f2462f891ca0f05b2c00f", "is_reserved": 0, "rental_uris": {"android": "https://dc.lft.to/lastmile_qr_scan", "ios": "https://dc.lft.to/lastmile_qr_scan"}, "fusion_lon": 0.0}, {"lat": 38.922033, "is_disabled": 0, "type": "electric_scooter", "lon": -77.04259983333333, "bike_id": "9ac5cec26e2c99eb02d5feab1e4c831f", "fusion_lat": 0.0, "name": "9ac5cec26e2c99eb02d5feab1e4c831f", "is_reserved": 0, "rental_uris": {"android": "https://dc.lft.to/lastmile_qr_scan", "ios": "https://dc.lft.to/lastmile_qr_scan"}, "fusion_lon": 0.0}, {"lat": 38.9098835, "is_disabled": 0, "type": "electric_scooter", "lon": -77.03200383333333, "bike_id": "9645f66e5db08d71a94b0199f9185878", "fusion_lat": 0.0, "name": "9645f66e5db08d71a94b0199f9185878", "is_reserved": 0, "rental_uris": {"android": "https://dc.lft.to/lastmile_qr_scan", "ios": "https://dc.lft.to/lastmile_qr_scan"}, "fusion_lon": 0.0}, {"lat": 38.923713, "is_disabled": 0, "type": "electric_scooter", "lon": -77.02533433333333, "bike_id": "a9a7c68b3faecd1a68be755ccee20a04", "fusion_lat": 0.0, "name": "a9a7c68b3faecd1a68be755ccee20a04", "is_reserved": 0, "rental_uris": {"android": "https://dc.lft.to/lastmile_qr_scan", "ios": "https://dc.lft.to/lastmile_qr_scan"}, "fusion_lon": 0.0}, {"lat": 38.93983383333333, "is_disabled": 0, "type": "electric_scooter", "lon": -77.0263335, "bike_id": "53f4645d52f7338966788b651eab2923", "fusion_lat": 0.0, "name": "53f4645d52f7338966788b651eab2923", "is_reserved": 0, "rental_uris": {"android": "https://dc.lft.to/lastmile_qr_scan", "ios": "https://dc.lft.to/lastmile_qr_scan"}, "fusion_lon": 0.0}, {"lat": 38.908079666666666, "is_disabled": 0, "type": "electric_scooter", "lon": -77.034379, "bike_id": "8f7b8e7dd7b914b648d3a4c8d34e4d02", "fusion_lat": 0.0, "name": "8f7b8e7dd7b914b648d3a4c8d34e4d02", "is_reserved": 0, "rental_uris": {"android": "https://dc.lft.to/lastmile_qr_scan", "ios": "https://dc.lft.to/lastmile_qr_scan"}, "fusion_lon": 0.0}, {"lat": 38.91684983333333, "is_disabled": 0, "type": "electric_scooter", "lon": -77.02979283333333, "bike_id": "cd42e23dba31ecaeea6b47d8724eb2d9", "fusion_lat": 0.0, "name": "cd42e23dba31ecaeea6b47d8724eb2d9", "is_reserved": 0, "rental_uris": {"android": "https://dc.lft.to/lastmile_qr_scan", "ios": "https://dc.lft.to/lastmile_qr_scan"}, "fusion_lon": 0.0}, {"lat": 38.923025333333335, "is_disabled": 0, "type": "electric_scooter", "lon": -77.0232855, "bike_id": "7ff3ea7de215a957a349ba41d01d52a2", "fusion_lat": 0.0, "name": "7ff3ea7de215a957a349ba41d01d52a2", "is_reserved": 0, "rental_uris": {"android": "https://dc.lft.to/lastmile_qr_scan", "ios": "https://dc.lft.to/lastmile_qr_scan"}, "fusion_lon": 0.0}, {"lat": 38.8991965, "is_disabled": 0, "type": "electric_scooter", "lon": -77.07235233333333, "bike_id": "2b9677f2ecafacf2c689a5e5225b5e43", "fusion_lat": 0.0, "name": "2b9677f2ecafacf2c689a5e5225b5e43", "is_reserved": 0, "rental_uris": {"android": "https://dc.lft.to/lastmile_qr_scan", "ios": "https://dc.lft.to/lastmile_qr_scan"}, "fusion_lon": 0.0}, {"lat": 38.90594016666667, "is_disabled": 0, "type": "electric_scooter", "lon": -77.023954, "bike_id": "9e2a547dd5d40bdd174e22db9cdcee96", "fusion_lat": 0.0, "name": "9e2a547dd5d40bdd174e22db9cdcee96", "is_reserved": 0, "rental_uris": {"android": "https://dc.lft.to/lastmile_qr_scan", "ios": "https://dc.lft.to/lastmile_qr_scan"}, "fusion_lon": 0.0}, {"lat": 38.89520516666666, "is_disabled": 0, "type": "electric_scooter", "lon": -77.019757, "bike_id": "cddf1d87482d170b58d45d7c3a876d19", "fusion_lat": 0.0, "name": "cddf1d87482d170b58d45d7c3a876d19", "is_reserved": 0, "rental_uris": {"android": "https://dc.lft.to/lastmile_qr_scan", "ios": "https://dc.lft.to/lastmile_qr_scan"}, "fusion_lon": 0.0}, {"lat": 38.9119195, "is_disabled": 0, "type": "electric_scooter", "lon": -77.03638266666667, "bike_id": "f7a7b26712adb89fdf903a2f05145211", "fusion_lat": 0.0, "name": "f7a7b26712adb89fdf903a2f05145211", "is_reserved": 0, "rental_uris": {"android": "https://dc.lft.to/lastmile_qr_scan", "ios": "https://dc.lft.to/lastmile_qr_scan"}, "fusion_lon": 0.0}, {"lat": 38.951947833333335, "is_disabled": 0, "type": "electric_bike", "lon": -77.02396533333334, "bike_id": "0571ba58ac536fda01d72b5d0091a1d4", "fusion_lat": 0.0, "name": "0571ba58ac536fda01d72b5d0091a1d4", "is_reserved": 0, "rental_uris": {"android": "https://dc.lft.to/lastmile_qr_scan", "ios": "https://dc.lft.to/lastmile_qr_scan"}, "fusion_lon": 0.0}, {"lat": 38.932985, "is_disabled": 0, "type": "electric_scooter", "lon": -77.02196966666666, "bike_id": "9f30003b6f5bdfd41097238015d8da2c", "fusion_lat": 0.0, "name": "9f30003b6f5bdfd41097238015d8da2c", "is_reserved": 0, "rental_uris": {"android": "https://dc.lft.to/lastmile_qr_scan", "ios": "https://dc.lft.to/lastmile_qr_scan"}, "fusion_lon": 0.0}, {"lat": 38.931275666666664, "is_disabled": 0, "type": "electric_scooter", "lon": -77.03404816666666, "bike_id": "9b44ec3637ee1a1e84e5d2a05477c930", "fusion_lat": 0.0, "name": "9b44ec3637ee1a1e84e5d2a05477c930", "is_reserved": 0, "rental_uris": {"android": "https://dc.lft.to/lastmile_qr_scan", "ios": "https://dc.lft.to/lastmile_qr_scan"}, "fusion_lon": 0.0}, {"lat": 38.85307983333333, "is_disabled": 0, "type": "electric_bike", "lon": -77.13142383333333, "bike_id": "3f5638e580e1dcfb9e1cacb3094b9bb7", "fusion_lat": 0.0, "name": "3f5638e580e1dcfb9e1cacb3094b9bb7", "is_reserved": 0, "rental_uris": {"android": "https://dc.lft.to/lastmile_qr_scan", "ios": "https://dc.lft.to/lastmile_qr_scan"}, "fusion_lon": 0.0}, {"lat": 38.928987166666666, "is_disabled": 0, "type": "electric_scooter", "lon": -77.016391, "bike_id": "ae753814ed8971b01b1357ef3b54041e", "fusion_lat": 0.0, "name": "ae753814ed8971b01b1357ef3b54041e", "is_reserved": 0, "rental_uris": {"android": "https://dc.lft.to/lastmile_qr_scan", "ios": "https://dc.lft.to/lastmile_qr_scan"}, "fusion_lon": 0.0}, {"lat": 38.95887833333333, "is_disabled": 0, "type": "electric_bike", "lon": -76.92480633333334, "bike_id": "a9747177a847996bdd5513c81945cf08", "fusion_lat": 0.0, "name": "a9747177a847996bdd5513c81945cf08", "is_reserved": 0, "rental_uris": {"android": "https://dc.lft.to/lastmile_qr_scan", "ios": "https://dc.lft.to/lastmile_qr_scan"}, "fusion_lon": 0.0}, {"lat": 38.92295166666667, "is_disabled": 0, "type": "electric_scooter", "lon": -77.03667483333334, "bike_id": "bbdfe36dc87034e4501f1bcd29d7a121", "fusion_lat": 0.0, "name": "bbdfe36dc87034e4501f1bcd29d7a121", "is_reserved": 0, "rental_uris": {"android": "https://dc.lft.to/lastmile_qr_scan", "ios": "https://dc.lft.to/lastmile_qr_scan"}, "fusion_lon": 0.0}, {"lat": 38.892524, "is_disabled": 0, "type": "electric_scooter", "lon": -77.03961916666667, "bike_id": "0b332ed2a47ecb969daec42c3b2db14c", "fusion_lat": 0.0, "name": "0b332ed2a47ecb969daec42c3b2db14c", "is_reserved": 0, "rental_uris": {"android": "https://dc.lft.to/lastmile_qr_scan", "ios": "https://dc.lft.to/lastmile_qr_scan"}, "fusion_lon": 0.0}, {"lat": 38.89890966666667, "is_disabled": 0, "type": "electric_scooter", "lon": -77.04047516666667, "bike_id": "915efdf5249537d2998de6cd1dfc7c2c", "fusion_lat": 0.0, "name": "915efdf5249537d2998de6cd1dfc7c2c", "is_reserved": 0, "rental_uris": {"android": "https://dc.lft.to/lastmile_qr_scan", "ios": "https://dc.lft.to/lastmile_qr_scan"}, "fusion_lon": 0.0}, {"lat": 38.898522666666665, "is_disabled": 0, "type": "electric_scooter", "lon": -77.0199645, "bike_id": "f5e48f22d1e22a8e8ef8540f48eaaced", "fusion_lat": 0.0, "name": "f5e48f22d1e22a8e8ef8540f48eaaced", "is_reserved": 0, "rental_uris": {"android": "https://dc.lft.to/lastmile_qr_scan", "ios": "https://dc.lft.to/lastmile_qr_scan"}, "fusion_lon": 0.0}, {"lat": 38.91662, "is_disabled": 0, "type": "electric_scooter", "lon": -77.02275866666666, "bike_id": "81f89bc2c795dc9b7bf201924efdc858", "fusion_lat": 0.0, "name": "81f89bc2c795dc9b7bf201924efdc858", "is_reserved": 0, "rental_uris": {"android": "https://dc.lft.to/lastmile_qr_scan", "ios": "https://dc.lft.to/lastmile_qr_scan"}, "fusion_lon": 0.0}, {"lat": 38.94084483333334, "is_disabled": 0, "type": "electric_scooter", "lon": -77.02391466666667, "bike_id": "113dbaafdf7e1e0badb8bc5a7f377dee", "fusion_lat": 0.0, "name": "113dbaafdf7e1e0badb8bc5a7f377dee", "is_reserved": 0, "rental_uris": {"android": "https://dc.lft.to/lastmile_qr_scan", "ios": "https://dc.lft.to/lastmile_qr_scan"}, "fusion_lon": 0.0}, {"lat": 38.89229683333333, "is_disabled": 0, "type": "electric_scooter", "lon": -77.04861416666667, "bike_id": "b7c65341498a28aa071f2d9ca90c69dd", "fusion_lat": 0.0, "name": "b7c65341498a28aa071f2d9ca90c69dd", "is_reserved": 0, "rental_uris": {"android": "https://dc.lft.to/lastmile_qr_scan", "ios": "https://dc.lft.to/lastmile_qr_scan"}, "fusion_lon": 0.0}, {"lat": 38.9079335, "is_disabled": 0, "type": "electric_scooter", "lon": -77.04011566666667, "bike_id": "98dcb24cca0482613b7ce87d569acde3", "fusion_lat": 0.0, "name": "98dcb24cca0482613b7ce87d569acde3", "is_reserved": 0, "rental_uris": {"android": "https://dc.lft.to/lastmile_qr_scan", "ios": "https://dc.lft.to/lastmile_qr_scan"}, "fusion_lon": 0.0}, {"lat": 38.89907633333333, "is_disabled": 0, "type": "electric_scooter", "lon": -76.93358266666667, "bike_id": "82f1b58781638a66d5c4dd4d9ce8ea03", "fusion_lat": 0.0, "name": "82f1b58781638a66d5c4dd4d9ce8ea03", "is_reserved": 0, "rental_uris": {"android": "https://dc.lft.to/lastmile_qr_scan", "ios": "https://dc.lft.to/lastmile_qr_scan"}, "fusion_lon": 0.0}, {"lat": 38.950686833333336, "is_disabled": 0, "type": "electric_bike", "lon": -77.00730516666667, "bike_id": "1ee103cb9a1730d8c634c717fa9bec2b", "fusion_lat": 0.0, "name": "1ee103cb9a1730d8c634c717fa9bec2b", "is_reserved": 0, "rental_uris": {"android": "https://dc.lft.to/lastmile_qr_scan", "ios": "https://dc.lft.to/lastmile_qr_scan"}, "fusion_lon": 0.0}, {"lat": 38.9119165, "is_disabled": 0, "type": "electric_scooter", "lon": -77.043329, "bike_id": "9d77417b4528cf4a2e588391359802be", "fusion_lat": 0.0, "name": "9d77417b4528cf4a2e588391359802be", "is_reserved": 0, "rental_uris": {"android": "https://dc.lft.to/lastmile_qr_scan", "ios": "https://dc.lft.to/lastmile_qr_scan"}, "fusion_lon": 0.0}, {"lat": 38.91004733333333, "is_disabled": 0, "type": "electric_scooter", "lon": -77.04012583333333, "bike_id": "1f0201cd1788b5d4d1c856bfa0c361e4", "fusion_lat": 0.0, "name": "1f0201cd1788b5d4d1c856bfa0c361e4", "is_reserved": 0, "rental_uris": {"android": "https://dc.lft.to/lastmile_qr_scan", "ios": "https://dc.lft.to/lastmile_qr_scan"}, "fusion_lon": 0.0}, {"lat": 38.91719716666667, "is_disabled": 0, "type": "electric_scooter", "lon": -77.0356305, "bike_id": "5e2b4769cf10ba0bdc315d53fc156699", "fusion_lat": 0.0, "name": "5e2b4769cf10ba0bdc315d53fc156699", "is_reserved": 0, "rental_uris": {"android": "https://dc.lft.to/lastmile_qr_scan", "ios": "https://dc.lft.to/lastmile_qr_scan"}, "fusion_lon": 0.0}, {"lat": 38.907993833333336, "is_disabled": 0, "type": "electric_scooter", "lon": -77.0435015, "bike_id": "dc3a0b922d02cee8fe801ae4761faf21", "fusion_lat": 0.0, "name": "dc3a0b922d02cee8fe801ae4761faf21", "is_reserved": 0, "rental_uris": {"android": "https://dc.lft.to/lastmile_qr_scan", "ios": "https://dc.lft.to/lastmile_qr_scan"}, "fusion_lon": 0.0}, {"lat": 38.900715, "is_disabled": 0, "type": "electric_scooter", "lon": -77.0020845, "bike_id": "f62cb0fb522e5cec253013772b19e742", "fusion_lat": 0.0, "name": "f62cb0fb522e5cec253013772b19e742", "is_reserved": 0, "rental_uris": {"android": "https://dc.lft.to/lastmile_qr_scan", "ios": "https://dc.lft.to/lastmile_qr_scan"}, "fusion_lon": 0.0}, {"lat": 38.90224716666667, "is_disabled": 0, "type": "electric_scooter", "lon": -77.02370433333333, "bike_id": "f58726c578296f531868be2b7dcfcaf0", "fusion_lat": 0.0, "name": "f58726c578296f531868be2b7dcfcaf0", "is_reserved": 0, "rental_uris": {"android": "https://dc.lft.to/lastmile_qr_scan", "ios": "https://dc.lft.to/lastmile_qr_scan"}, "fusion_lon": 0.0}, {"lat": 38.91292883333333, "is_disabled": 0, "type": "electric_bike", "lon": -77.044839, "bike_id": "20954a738119e3d72207fceaec0b0220", "fusion_lat": 0.0, "name": "20954a738119e3d72207fceaec0b0220", "is_reserved": 0, "rental_uris": {"android": "https://dc.lft.to/lastmile_qr_scan", "ios": "https://dc.lft.to/lastmile_qr_scan"}, "fusion_lon": 0.0}, {"lat": 38.872468166666664, "is_disabled": 0, "type": "electric_scooter", "lon": -76.97723916666666, "bike_id": "dba879e3ad6113b5282232b81302c5ac", "fusion_lat": 0.0, "name": "dba879e3ad6113b5282232b81302c5ac", "is_reserved": 0, "rental_uris": {"android": "https://dc.lft.to/lastmile_qr_scan", "ios": "https://dc.lft.to/lastmile_qr_scan"}, "fusion_lon": 0.0}, {"lat": 38.920387166666664, "is_disabled": 0, "type": "electric_bike", "lon": -77.03706633333333, "bike_id": "683095e7dd8408ce24027d2ac789554d", "fusion_lat": 0.0, "name": "683095e7dd8408ce24027d2ac789554d", "is_reserved": 0, "rental_uris": {"android": "https://dc.lft.to/lastmile_qr_scan", "ios": "https://dc.lft.to/lastmile_qr_scan"}, "fusion_lon": 0.0}, {"lat": 38.87076883333334, "is_disabled": 0, "type": "electric_scooter", "lon": -76.96871266666666, "bike_id": "c36d8745fdf9b876bcf58877515587f9", "fusion_lat": 0.0, "name": "c36d8745fdf9b876bcf58877515587f9", "is_reserved": 0, "rental_uris": {"android": "https://dc.lft.to/lastmile_qr_scan", "ios": "https://dc.lft.to/lastmile_qr_scan"}, "fusion_lon": 0.0}, {"lat": 38.9392665, "is_disabled": 0, "type": "electric_scooter", "lon": -77.02803533333334, "bike_id": "6e8de7ffe283cc09ff1f8724a19d3e6b", "fusion_lat": 0.0, "name": "6e8de7ffe283cc09ff1f8724a19d3e6b", "is_reserved": 0, "rental_uris": {"android": "https://dc.lft.to/lastmile_qr_scan", "ios": "https://dc.lft.to/lastmile_qr_scan"}, "fusion_lon": 0.0}, {"lat": 38.90125166666667, "is_disabled": 0, "type": "electric_scooter", "lon": -77.03181916666666, "bike_id": "66d86900d64e91dd0255738636a4657c", "fusion_lat": 0.0, "name": "66d86900d64e91dd0255738636a4657c", "is_reserved": 0, "rental_uris": {"android": "https://dc.lft.to/lastmile_qr_scan", "ios": "https://dc.lft.to/lastmile_qr_scan"}, "fusion_lon": 0.0}, {"lat": 38.889261833333336, "is_disabled": 0, "type": "electric_scooter", "lon": -76.97373766666666, "bike_id": "e402be3ab9e4ebe24ae095f99b4a198f", "fusion_lat": 0.0, "name": "e402be3ab9e4ebe24ae095f99b4a198f", "is_reserved": 0, "rental_uris": {"android": "https://dc.lft.to/lastmile_qr_scan", "ios": "https://dc.lft.to/lastmile_qr_scan"}, "fusion_lon": 0.0}, {"lat": 38.9025405, "is_disabled": 0, "type": "electric_scooter", "lon": -77.03075083333333, "bike_id": "e84f3aa894df225ca0386f6a083d73a6", "fusion_lat": 0.0, "name": "e84f3aa894df225ca0386f6a083d73a6", "is_reserved": 0, "rental_uris": {"android": "https://dc.lft.to/lastmile_qr_scan", "ios": "https://dc.lft.to/lastmile_qr_scan"}, "fusion_lon": 0.0}, {"lat": 38.94409233333333, "is_disabled": 0, "type": "electric_scooter", "lon": -77.02645666666666, "bike_id": "a4e2fcad4f6378a8f385b6f2977694a3", "fusion_lat": 0.0, "name": "a4e2fcad4f6378a8f385b6f2977694a3", "is_reserved": 0, "rental_uris": {"android": "https://dc.lft.to/lastmile_qr_scan", "ios": "https://dc.lft.to/lastmile_qr_scan"}, "fusion_lon": 0.0}, {"lat": 38.9170695, "is_disabled": 0, "type": "electric_scooter", "lon": -77.03355333333333, "bike_id": "cff5cb3f797caf78c9788479a7aab772", "fusion_lat": 0.0, "name": "cff5cb3f797caf78c9788479a7aab772", "is_reserved": 0, "rental_uris": {"android": "https://dc.lft.to/lastmile_qr_scan", "ios": "https://dc.lft.to/lastmile_qr_scan"}, "fusion_lon": 0.0}, {"lat": 38.85512933333333, "is_disabled": 0, "type": "electric_bike", "lon": -76.98432383333333, "bike_id": "eb99d9b13fcd49300c8c0c7f3524e584", "fusion_lat": 0.0, "name": "eb99d9b13fcd49300c8c0c7f3524e584", "is_reserved": 0, "rental_uris": {"android": "https://dc.lft.to/lastmile_qr_scan", "ios": "https://dc.lft.to/lastmile_qr_scan"}, "fusion_lon": 0.0}, {"lat": 38.90863566666667, "is_disabled": 0, "type": "electric_scooter", "lon": -77.0476995, "bike_id": "a66db03284886816ccc5925134137f3f", "fusion_lat": 0.0, "name": "a66db03284886816ccc5925134137f3f", "is_reserved": 0, "rental_uris": {"android": "https://dc.lft.to/lastmile_qr_scan", "ios": "https://dc.lft.to/lastmile_qr_scan"}, "fusion_lon": 0.0}, {"lat": 38.90395266666667, "is_disabled": 0, "type": "electric_scooter", "lon": -77.005594, "bike_id": "548a00086e51cd8af7406d0b43563dac", "fusion_lat": 0.0, "name": "548a00086e51cd8af7406d0b43563dac", "is_reserved": 0, "rental_uris": {"android": "https://dc.lft.to/lastmile_qr_scan", "ios": "https://dc.lft.to/lastmile_qr_scan"}, "fusion_lon": 0.0}, {"lat": 38.923202, "is_disabled": 0, "type": "electric_scooter", "lon": -77.03661066666666, "bike_id": "f855a4042f59eeed9507b759f09d0574", "fusion_lat": 0.0, "name": "f855a4042f59eeed9507b759f09d0574", "is_reserved": 0, "rental_uris": {"android": "https://dc.lft.to/lastmile_qr_scan", "ios": "https://dc.lft.to/lastmile_qr_scan"}, "fusion_lon": 0.0}, {"lat": 38.896818833333334, "is_disabled": 0, "type": "electric_scooter", "lon": -77.05126883333334, "bike_id": "d147987160446aad35e261de0e6ccc0a", "fusion_lat": 0.0, "name": "d147987160446aad35e261de0e6ccc0a", "is_reserved": 0, "rental_uris": {"android": "https://dc.lft.to/lastmile_qr_scan", "ios": "https://dc.lft.to/lastmile_qr_scan"}, "fusion_lon": 0.0}, {"lat": 38.912792, "is_disabled": 0, "type": "electric_scooter", "lon": -77.02254716666667, "bike_id": "4fbd0b60bfc95069e234d26a436c928f", "fusion_lat": 0.0, "name": "4fbd0b60bfc95069e234d26a436c928f", "is_reserved": 0, "rental_uris": {"android": "https://dc.lft.to/lastmile_qr_scan", "ios": "https://dc.lft.to/lastmile_qr_scan"}, "fusion_lon": 0.0}, {"lat": 38.93191783333333, "is_disabled": 0, "type": "electric_scooter", "lon": -77.028409, "bike_id": "80125bbe1fbaff06177085526472003b", "fusion_lat": 0.0, "name": "80125bbe1fbaff06177085526472003b", "is_reserved": 0, "rental_uris": {"android": "https://dc.lft.to/lastmile_qr_scan", "ios": "https://dc.lft.to/lastmile_qr_scan"}, "fusion_lon": 0.0}, {"lat": 38.89011466666667, "is_disabled": 0, "type": "electric_scooter", "lon": -76.93740716666667, "bike_id": "0ae2f05ee0d550f5aea4652734bb1ae0", "fusion_lat": 0.0, "name": "0ae2f05ee0d550f5aea4652734bb1ae0", "is_reserved": 0, "rental_uris": {"android": "https://dc.lft.to/lastmile_qr_scan", "ios": "https://dc.lft.to/lastmile_qr_scan"}, "fusion_lon": 0.0}, {"lat": 38.91791966666667, "is_disabled": 0, "type": "electric_scooter", "lon": -77.04043766666666, "bike_id": "b24449512fa514962ed060aaf6cfc608", "fusion_lat": 0.0, "name": "b24449512fa514962ed060aaf6cfc608", "is_reserved": 0, "rental_uris": {"android": "https://dc.lft.to/lastmile_qr_scan", "ios": "https://dc.lft.to/lastmile_qr_scan"}, "fusion_lon": 0.0}, {"lat": 38.922937, "is_disabled": 0, "type": "electric_scooter", "lon": -77.0366985, "bike_id": "2cb789c3ada8ed0717fa399ab0331e95", "fusion_lat": 0.0, "name": "2cb789c3ada8ed0717fa399ab0331e95", "is_reserved": 0, "rental_uris": {"android": "https://dc.lft.to/lastmile_qr_scan", "ios": "https://dc.lft.to/lastmile_qr_scan"}, "fusion_lon": 0.0}, {"lat": 38.898207666666664, "is_disabled": 0, "type": "electric_scooter", "lon": -77.02948733333334, "bike_id": "809447383c4926595ef13844de716950", "fusion_lat": 0.0, "name": "809447383c4926595ef13844de716950", "is_reserved": 0, "rental_uris": {"android": "https://dc.lft.to/lastmile_qr_scan", "ios": "https://dc.lft.to/lastmile_qr_scan"}, "fusion_lon": 0.0}, {"lat": 38.8765945, "is_disabled": 0, "type": "electric_scooter", "lon": -77.00411683333333, "bike_id": "3377e8707fa8e805cc97755b5d3208f4", "fusion_lat": 0.0, "name": "3377e8707fa8e805cc97755b5d3208f4", "is_reserved": 0, "rental_uris": {"android": "https://dc.lft.to/lastmile_qr_scan", "ios": "https://dc.lft.to/lastmile_qr_scan"}, "fusion_lon": 0.0}, {"lat": 38.917946, "is_disabled": 0, "type": "electric_bike", "lon": -77.22355766666666, "bike_id": "2e86a873ca8d62079c57b5341506b47b", "fusion_lat": 0.0, "name": "2e86a873ca8d62079c57b5341506b47b", "is_reserved": 0, "rental_uris": {"android": "https://dc.lft.to/lastmile_qr_scan", "ios": "https://dc.lft.to/lastmile_qr_scan"}, "fusion_lon": 0.0}, {"lat": 38.92022766666667, "is_disabled": 0, "type": "electric_scooter", "lon": -77.014363, "bike_id": "75dd90e1e54b8c1045d1a58ec43ea0af", "fusion_lat": 0.0, "name": "75dd90e1e54b8c1045d1a58ec43ea0af", "is_reserved": 0, "rental_uris": {"android": "https://dc.lft.to/lastmile_qr_scan", "ios": "https://dc.lft.to/lastmile_qr_scan"}, "fusion_lon": 0.0}, {"lat": 38.930606166666664, "is_disabled": 0, "type": "electric_scooter", "lon": -77.0363725, "bike_id": "0f63e65706679cf66888bace8c1156e2", "fusion_lat": 0.0, "name": "0f63e65706679cf66888bace8c1156e2", "is_reserved": 0, "rental_uris": {"android": "https://dc.lft.to/lastmile_qr_scan", "ios": "https://dc.lft.to/lastmile_qr_scan"}, "fusion_lon": 0.0}, {"lat": 38.93068783333333, "is_disabled": 0, "type": "electric_scooter", "lon": -77.037373, "bike_id": "6f935d5f54c7d8a82f8d41e1b87097db", "fusion_lat": 0.0, "name": "6f935d5f54c7d8a82f8d41e1b87097db", "is_reserved": 0, "rental_uris": {"android": "https://dc.lft.to/lastmile_qr_scan", "ios": "https://dc.lft.to/lastmile_qr_scan"}, "fusion_lon": 0.0}, {"lat": 38.923336666666664, "is_disabled": 0, "type": "electric_scooter", "lon": -77.03626816666667, "bike_id": "af2a5763d63a2768ca29662bc76a14a9", "fusion_lat": 0.0, "name": "af2a5763d63a2768ca29662bc76a14a9", "is_reserved": 0, "rental_uris": {"android": "https://dc.lft.to/lastmile_qr_scan", "ios": "https://dc.lft.to/lastmile_qr_scan"}, "fusion_lon": 0.0}, {"lat": 38.88671133333333, "is_disabled": 0, "type": "electric_scooter", "lon": -76.99036616666666, "bike_id": "dfcf7cae3bf72f41d66a20deecc6aa89", "fusion_lat": 0.0, "name": "dfcf7cae3bf72f41d66a20deecc6aa89", "is_reserved": 0, "rental_uris": {"android": "https://dc.lft.to/lastmile_qr_scan", "ios": "https://dc.lft.to/lastmile_qr_scan"}, "fusion_lon": 0.0}, {"lat": 38.890203, "is_disabled": 0, "type": "electric_scooter", "lon": -76.93741183333333, "bike_id": "c72e830b3a60a1e9471d52fe9a639847", "fusion_lat": 0.0, "name": "c72e830b3a60a1e9471d52fe9a639847", "is_reserved": 0, "rental_uris": {"android": "https://dc.lft.to/lastmile_qr_scan", "ios": "https://dc.lft.to/lastmile_qr_scan"}, "fusion_lon": 0.0}, {"lat": 38.91275483333333, "is_disabled": 0, "type": "electric_scooter", "lon": -77.02255016666666, "bike_id": "0444fe1514a902e2e53652d16ab58663", "fusion_lat": 0.0, "name": "0444fe1514a902e2e53652d16ab58663", "is_reserved": 0, "rental_uris": {"android": "https://dc.lft.to/lastmile_qr_scan", "ios": "https://dc.lft.to/lastmile_qr_scan"}, "fusion_lon": 0.0}, {"lat": 38.902153, "is_disabled": 0, "type": "electric_scooter", "lon": -77.02181566666667, "bike_id": "01005e15f57dbdf20349b49cfc9e7363", "fusion_lat": 0.0, "name": "01005e15f57dbdf20349b49cfc9e7363", "is_reserved": 0, "rental_uris": {"android": "https://dc.lft.to/lastmile_qr_scan", "ios": "https://dc.lft.to/lastmile_qr_scan"}, "fusion_lon": 0.0}, {"lat": 39.07502733333333, "is_disabled": 0, "type": "electric_bike", "lon": -77.11899916666667, "bike_id": "4282a29cdb22de74f9c9c703f44ae4b4", "fusion_lat": 0.0, "name": "4282a29cdb22de74f9c9c703f44ae4b4", "is_reserved": 0, "rental_uris": {"android": "https://dc.lft.to/lastmile_qr_scan", "ios": "https://dc.lft.to/lastmile_qr_scan"}, "fusion_lon": 0.0}, {"lat": 38.928619, "is_disabled": 0, "type": "electric_bike", "lon": -77.22228466666667, "bike_id": "4dac05692de116bfb53aedfa4a06cbba", "fusion_lat": 0.0, "name": "4dac05692de116bfb53aedfa4a06cbba", "is_reserved": 0, "rental_uris": {"android": "https://dc.lft.to/lastmile_qr_scan", "ios": "https://dc.lft.to/lastmile_qr_scan"}, "fusion_lon": 0.0}, {"lat": 39.088585, "is_disabled": 0, "type": "electric_bike", "lon": -77.1784085, "bike_id": "cbea6e995ea15dd0c9263c54c83724d8", "fusion_lat": 0.0, "name": "cbea6e995ea15dd0c9263c54c83724d8", "is_reserved": 0, "rental_uris": {"android": "https://dc.lft.to/lastmile_qr_scan", "ios": "https://dc.lft.to/lastmile_qr_scan"}, "fusion_lon": 0.0}, {"lat": 38.892830333333336, "is_disabled": 0, "type": "electric_scooter", "lon": -77.05048916666667, "bike_id": "392bf20816a78db5d5f9f53392816886", "fusion_lat": 0.0, "name": "392bf20816a78db5d5f9f53392816886", "is_reserved": 0, "rental_uris": {"android": "https://dc.lft.to/lastmile_qr_scan", "ios": "https://dc.lft.to/lastmile_qr_scan"}, "fusion_lon": 0.0}, {"lat": 38.89886383333333, "is_disabled": 0, "type": "electric_scooter", "lon": -76.93177816666666, "bike_id": "ad615189753760ee9ba18836b8e1688e", "fusion_lat": 0.0, "name": "ad615189753760ee9ba18836b8e1688e", "is_reserved": 0, "rental_uris": {"android": "https://dc.lft.to/lastmile_qr_scan", "ios": "https://dc.lft.to/lastmile_qr_scan"}, "fusion_lon": 0.0}, {"lat": 38.9037635, "is_disabled": 0, "type": "electric_scooter", "lon": -77.03584066666667, "bike_id": "99f0886a8e35e4115d9a71e5fb336ddb", "fusion_lat": 0.0, "name": "99f0886a8e35e4115d9a71e5fb336ddb", "is_reserved": 0, "rental_uris": {"android": "https://dc.lft.to/lastmile_qr_scan", "ios": "https://dc.lft.to/lastmile_qr_scan"}, "fusion_lon": 0.0}, {"lat": 38.9248725, "is_disabled": 0, "type": "electric_bike", "lon": -76.99036283333334, "bike_id": "3f4fd952e52a0c127d29f58d9251b8b7", "fusion_lat": 0.0, "name": "3f4fd952e52a0c127d29f58d9251b8b7", "is_reserved": 0, "rental_uris": {"android": "https://dc.lft.to/lastmile_qr_scan", "ios": "https://dc.lft.to/lastmile_qr_scan"}, "fusion_lon": 0.0}, {"lat": 38.872359833333334, "is_disabled": 0, "type": "electric_bike", "lon": -77.012145, "bike_id": "a7c70e67269c42af1bc1f5643e0e718a", "fusion_lat": 0.0, "name": "a7c70e67269c42af1bc1f5643e0e718a", "is_reserved": 0, "rental_uris": {"android": "https://dc.lft.to/lastmile_qr_scan", "ios": "https://dc.lft.to/lastmile_qr_scan"}, "fusion_lon": 0.0}, {"lat": 38.91822916666667, "is_disabled": 0, "type": "electric_scooter", "lon": -77.04183166666667, "bike_id": "41a15f9bc2785735da3bc8d5b2063443", "fusion_lat": 0.0, "name": "41a15f9bc2785735da3bc8d5b2063443", "is_reserved": 0, "rental_uris": {"android": "https://dc.lft.to/lastmile_qr_scan", "ios": "https://dc.lft.to/lastmile_qr_scan"}, "fusion_lon": 0.0}, {"lat": 38.910089, "is_disabled": 0, "type": "electric_scooter", "lon": -77.04422183333334, "bike_id": "f322b323a1524584fd8c79fa1efe9362", "fusion_lat": 0.0, "name": "f322b323a1524584fd8c79fa1efe9362", "is_reserved": 0, "rental_uris": {"android": "https://dc.lft.to/lastmile_qr_scan", "ios": "https://dc.lft.to/lastmile_qr_scan"}, "fusion_lon": 0.0}, {"lat": 38.949235, "is_disabled": 0, "type": "electric_scooter", "lon": -77.0193345, "bike_id": "b771a8ee417bc27f777578ed57689d1a", "fusion_lat": 0.0, "name": "b771a8ee417bc27f777578ed57689d1a", "is_reserved": 0, "rental_uris": {"android": "https://dc.lft.to/lastmile_qr_scan", "ios": "https://dc.lft.to/lastmile_qr_scan"}, "fusion_lon": 0.0}, {"lat": 38.9052805, "is_disabled": 0, "type": "electric_scooter", "lon": -77.0418435, "bike_id": "4facad8e9059452210c93192d29e34d7", "fusion_lat": 0.0, "name": "4facad8e9059452210c93192d29e34d7", "is_reserved": 0, "rental_uris": {"android": "https://dc.lft.to/lastmile_qr_scan", "ios": "https://dc.lft.to/lastmile_qr_scan"}, "fusion_lon": 0.0}, {"lat": 38.91360816666667, "is_disabled": 0, "type": "electric_scooter", "lon": -77.03956883333333, "bike_id": "4db1c6878e45d77c97f0662e6b887c96", "fusion_lat": 0.0, "name": "4db1c6878e45d77c97f0662e6b887c96", "is_reserved": 0, "rental_uris": {"android": "https://dc.lft.to/lastmile_qr_scan", "ios": "https://dc.lft.to/lastmile_qr_scan"}, "fusion_lon": 0.0}, {"lat": 38.90527566666667, "is_disabled": 0, "type": "electric_scooter", "lon": -77.04181716666666, "bike_id": "799ae88d69644edd513178277ea56ca1", "fusion_lat": 0.0, "name": "799ae88d69644edd513178277ea56ca1", "is_reserved": 0, "rental_uris": {"android": "https://dc.lft.to/lastmile_qr_scan", "ios": "https://dc.lft.to/lastmile_qr_scan"}, "fusion_lon": 0.0}, {"lat": 38.92616066666667, "is_disabled": 0, "type": "electric_scooter", "lon": -76.99606883333334, "bike_id": "be39953bfc4988b0e2570b53293344b8", "fusion_lat": 0.0, "name": "be39953bfc4988b0e2570b53293344b8", "is_reserved": 0, "rental_uris": {"android": "https://dc.lft.to/lastmile_qr_scan", "ios": "https://dc.lft.to/lastmile_qr_scan"}, "fusion_lon": 0.0}, {"lat": 38.91561183333334, "is_disabled": 0, "type": "electric_scooter", "lon": -77.04006566666666, "bike_id": "8b96ccdf2e27d8dc9d82c8950bcfd4f9", "fusion_lat": 0.0, "name": "8b96ccdf2e27d8dc9d82c8950bcfd4f9", "is_reserved": 0, "rental_uris": {"android": "https://dc.lft.to/lastmile_qr_scan", "ios": "https://dc.lft.to/lastmile_qr_scan"}, "fusion_lon": 0.0}, {"lat": 38.8898625, "is_disabled": 0, "type": "electric_scooter", "lon": -76.9541795, "bike_id": "051e3bf8ea9e24ed7377ad99c42fe840", "fusion_lat": 0.0, "name": "051e3bf8ea9e24ed7377ad99c42fe840", "is_reserved": 0, "rental_uris": {"android": "https://dc.lft.to/lastmile_qr_scan", "ios": "https://dc.lft.to/lastmile_qr_scan"}, "fusion_lon": 0.0}, {"lat": 38.9126885, "is_disabled": 0, "type": "electric_scooter", "lon": -77.02251433333333, "bike_id": "308efa272f09a32daa60eefaa6fd73de", "fusion_lat": 0.0, "name": "308efa272f09a32daa60eefaa6fd73de", "is_reserved": 0, "rental_uris": {"android": "https://dc.lft.to/lastmile_qr_scan", "ios": "https://dc.lft.to/lastmile_qr_scan"}, "fusion_lon": 0.0}, {"lat": 38.88266083333333, "is_disabled": 0, "type": "electric_scooter", "lon": -77.00372033333333, "bike_id": "4c99209a7fd7fd894db5facdd7c22b27", "fusion_lat": 0.0, "name": "4c99209a7fd7fd894db5facdd7c22b27", "is_reserved": 0, "rental_uris": {"android": "https://dc.lft.to/lastmile_qr_scan", "ios": "https://dc.lft.to/lastmile_qr_scan"}, "fusion_lon": 0.0}, {"lat": 38.899367166666664, "is_disabled": 0, "type": "electric_scooter", "lon": -77.027984, "bike_id": "6d293ceddf0933ab79d132b863d26692", "fusion_lat": 0.0, "name": "6d293ceddf0933ab79d132b863d26692", "is_reserved": 0, "rental_uris": {"android": "https://dc.lft.to/lastmile_qr_scan", "ios": "https://dc.lft.to/lastmile_qr_scan"}, "fusion_lon": 0.0}, {"lat": 38.8427195, "is_disabled": 0, "type": "electric_bike", "lon": -76.98843516666666, "bike_id": "934da09db850c018627e18e692fbfe45", "fusion_lat": 0.0, "name": "934da09db850c018627e18e692fbfe45", "is_reserved": 0, "rental_uris": {"android": "https://dc.lft.to/lastmile_qr_scan", "ios": "https://dc.lft.to/lastmile_qr_scan"}, "fusion_lon": 0.0}, {"lat": 38.88488316666667, "is_disabled": 0, "type": "electric_scooter", "lon": -77.00713983333333, "bike_id": "b3f8cbdf87f07c001e2ea5d74f08c701", "fusion_lat": 0.0, "name": "b3f8cbdf87f07c001e2ea5d74f08c701", "is_reserved": 0, "rental_uris": {"android": "https://dc.lft.to/lastmile_qr_scan", "ios": "https://dc.lft.to/lastmile_qr_scan"}, "fusion_lon": 0.0}, {"lat": 38.92005916666667, "is_disabled": 0, "type": "electric_scooter", "lon": -77.032218, "bike_id": "3eb6079c9631d3327c5c2cc648845ba5", "fusion_lat": 0.0, "name": "3eb6079c9631d3327c5c2cc648845ba5", "is_reserved": 0, "rental_uris": {"android": "https://dc.lft.to/lastmile_qr_scan", "ios": "https://dc.lft.to/lastmile_qr_scan"}, "fusion_lon": 0.0}, {"lat": 38.8662545, "is_disabled": 0, "type": "electric_scooter", "lon": -76.98705233333334, "bike_id": "a7de8f751114161f64a9afbd75caf129", "fusion_lat": 0.0, "name": "a7de8f751114161f64a9afbd75caf129", "is_reserved": 0, "rental_uris": {"android": "https://dc.lft.to/lastmile_qr_scan", "ios": "https://dc.lft.to/lastmile_qr_scan"}, "fusion_lon": 0.0}, {"lat": 38.89222866666667, "is_disabled": 0, "type": "electric_scooter", "lon": -77.02781766666666, "bike_id": "a69b27d389b76a529adf52f464f70489", "fusion_lat": 0.0, "name": "a69b27d389b76a529adf52f464f70489", "is_reserved": 0, "rental_uris": {"android": "https://dc.lft.to/lastmile_qr_scan", "ios": "https://dc.lft.to/lastmile_qr_scan"}, "fusion_lon": 0.0}, {"lat": 38.9052755, "is_disabled": 0, "type": "electric_scooter", "lon": -77.04345116666667, "bike_id": "f7eaf52a5541a8f396508b0a5379c7bc", "fusion_lat": 0.0, "name": "f7eaf52a5541a8f396508b0a5379c7bc", "is_reserved": 0, "rental_uris": {"android": "https://dc.lft.to/lastmile_qr_scan", "ios": "https://dc.lft.to/lastmile_qr_scan"}, "fusion_lon": 0.0}, {"lat": 38.900106, "is_disabled": 0, "type": "electric_scooter", "lon": -76.99744483333333, "bike_id": "53596ad972f72f5059959e94281a9cd5", "fusion_lat": 0.0, "name": "53596ad972f72f5059959e94281a9cd5", "is_reserved": 0, "rental_uris": {"android": "https://dc.lft.to/lastmile_qr_scan", "ios": "https://dc.lft.to/lastmile_qr_scan"}, "fusion_lon": 0.0}, {"lat": 38.89222916666667, "is_disabled": 0, "type": "electric_scooter", "lon": -77.04513716666666, "bike_id": "01ec1bbc6bedc6049d7f8bc499792db3", "fusion_lat": 0.0, "name": "01ec1bbc6bedc6049d7f8bc499792db3", "is_reserved": 0, "rental_uris": {"android": "https://dc.lft.to/lastmile_qr_scan", "ios": "https://dc.lft.to/lastmile_qr_scan"}, "fusion_lon": 0.0}, {"lat": 38.933832833333334, "is_disabled": 0, "type": "electric_scooter", "lon": -77.03256383333333, "bike_id": "b547910246fa5c716c84688e8c5bed69", "fusion_lat": 0.0, "name": "b547910246fa5c716c84688e8c5bed69", "is_reserved": 0, "rental_uris": {"android": "https://dc.lft.to/lastmile_qr_scan", "ios": "https://dc.lft.to/lastmile_qr_scan"}, "fusion_lon": 0.0}, {"lat": 38.90061716666666, "is_disabled": 0, "type": "electric_scooter", "lon": -77.01226433333333, "bike_id": "1d6d95c431d15d502eb839a857f8d301", "fusion_lat": 0.0, "name": "1d6d95c431d15d502eb839a857f8d301", "is_reserved": 0, "rental_uris": {"android": "https://dc.lft.to/lastmile_qr_scan", "ios": "https://dc.lft.to/lastmile_qr_scan"}, "fusion_lon": 0.0}, {"lat": 38.927686666666666, "is_disabled": 0, "type": "electric_scooter", "lon": -77.027337, "bike_id": "19306b0d304017173390b04a73389968", "fusion_lat": 0.0, "name": "19306b0d304017173390b04a73389968", "is_reserved": 0, "rental_uris": {"android": "https://dc.lft.to/lastmile_qr_scan", "ios": "https://dc.lft.to/lastmile_qr_scan"}, "fusion_lon": 0.0}, {"lat": 38.9000605, "is_disabled": 0, "type": "electric_scooter", "lon": -77.03324916666666, "bike_id": "72c571484928036c587379c6bd21fa81", "fusion_lat": 0.0, "name": "72c571484928036c587379c6bd21fa81", "is_reserved": 0, "rental_uris": {"android": "https://dc.lft.to/lastmile_qr_scan", "ios": "https://dc.lft.to/lastmile_qr_scan"}, "fusion_lon": 0.0}, {"lat": 38.90281733333333, "is_disabled": 0, "type": "electric_scooter", "lon": -77.03850866666667, "bike_id": "d42675644f394ba0e1e57cf511ed9aff", "fusion_lat": 0.0, "name": "d42675644f394ba0e1e57cf511ed9aff", "is_reserved": 0, "rental_uris": {"android": "https://dc.lft.to/lastmile_qr_scan", "ios": "https://dc.lft.to/lastmile_qr_scan"}, "fusion_lon": 0.0}, {"lat": 38.9175995, "is_disabled": 0, "type": "electric_scooter", "lon": -77.03203233333333, "bike_id": "9f6b8fe8853557417335c67461fa1ef9", "fusion_lat": 0.0, "name": "9f6b8fe8853557417335c67461fa1ef9", "is_reserved": 0, "rental_uris": {"android": "https://dc.lft.to/lastmile_qr_scan", "ios": "https://dc.lft.to/lastmile_qr_scan"}, "fusion_lon": 0.0}, {"lat": 38.9028665, "is_disabled": 0, "type": "electric_scooter", "lon": -77.04392316666667, "bike_id": "8aca8a420a088cf80aa0eac9544e2c9f", "fusion_lat": 0.0, "name": "8aca8a420a088cf80aa0eac9544e2c9f", "is_reserved": 0, "rental_uris": {"android": "https://dc.lft.to/lastmile_qr_scan", "ios": "https://dc.lft.to/lastmile_qr_scan"}, "fusion_lon": 0.0}, {"lat": 38.909934666666665, "is_disabled": 0, "type": "electric_scooter", "lon": -77.0384405, "bike_id": "23f7baec6df9a0fcfaba6713144c1255", "fusion_lat": 0.0, "name": "23f7baec6df9a0fcfaba6713144c1255", "is_reserved": 0, "rental_uris": {"android": "https://dc.lft.to/lastmile_qr_scan", "ios": "https://dc.lft.to/lastmile_qr_scan"}, "fusion_lon": 0.0}, {"lat": 38.9038375, "is_disabled": 0, "type": "electric_scooter", "lon": -77.03637983333333, "bike_id": "028df76eedff51aa7501ac822005895e", "fusion_lat": 0.0, "name": "028df76eedff51aa7501ac822005895e", "is_reserved": 0, "rental_uris": {"android": "https://dc.lft.to/lastmile_qr_scan", "ios": "https://dc.lft.to/lastmile_qr_scan"}, "fusion_lon": 0.0}, {"lat": 38.91632, "is_disabled": 0, "type": "electric_scooter", "lon": -77.03155233333334, "bike_id": "04ca9e809cd216aaba241650b1e3e42f", "fusion_lat": 0.0, "name": "04ca9e809cd216aaba241650b1e3e42f", "is_reserved": 0, "rental_uris": {"android": "https://dc.lft.to/lastmile_qr_scan", "ios": "https://dc.lft.to/lastmile_qr_scan"}, "fusion_lon": 0.0}, {"lat": 38.90738283333334, "is_disabled": 0, "type": "electric_scooter", "lon": -77.02717816666667, "bike_id": "fb4c41ce09547d0d29b10d0c9c1c613b", "fusion_lat": 0.0, "name": "fb4c41ce09547d0d29b10d0c9c1c613b", "is_reserved": 0, "rental_uris": {"android": "https://dc.lft.to/lastmile_qr_scan", "ios": "https://dc.lft.to/lastmile_qr_scan"}, "fusion_lon": 0.0}, {"lat": 38.937159666666666, "is_disabled": 0, "type": "electric_scooter", "lon": -77.0363815, "bike_id": "662fd51f502263302d79b77901fedd6e", "fusion_lat": 0.0, "name": "662fd51f502263302d79b77901fedd6e", "is_reserved": 0, "rental_uris": {"android": "https://dc.lft.to/lastmile_qr_scan", "ios": "https://dc.lft.to/lastmile_qr_scan"}, "fusion_lon": 0.0}, {"lat": 38.996362833333336, "is_disabled": 0, "type": "electric_bike", "lon": -77.0297265, "bike_id": "b6148ed74a9e3ea31527aca1341403e8", "fusion_lat": 0.0, "name": "b6148ed74a9e3ea31527aca1341403e8", "is_reserved": 0, "rental_uris": {"android": "https://dc.lft.to/lastmile_qr_scan", "ios": "https://dc.lft.to/lastmile_qr_scan"}, "fusion_lon": 0.0}, {"lat": 38.90803916666667, "is_disabled": 0, "type": "electric_scooter", "lon": -77.04339916666666, "bike_id": "afdb23079ba2cce783ab6fd0d7996836", "fusion_lat": 0.0, "name": "afdb23079ba2cce783ab6fd0d7996836", "is_reserved": 0, "rental_uris": {"android": "https://dc.lft.to/lastmile_qr_scan", "ios": "https://dc.lft.to/lastmile_qr_scan"}, "fusion_lon": 0.0}, {"lat": 38.907412, "is_disabled": 0, "type": "electric_scooter", "lon": -77.02713116666666, "bike_id": "0be7b2daf5941c670939f227ee443628", "fusion_lat": 0.0, "name": "0be7b2daf5941c670939f227ee443628", "is_reserved": 0, "rental_uris": {"android": "https://dc.lft.to/lastmile_qr_scan", "ios": "https://dc.lft.to/lastmile_qr_scan"}, "fusion_lon": 0.0}, {"lat": 38.9156695, "is_disabled": 0, "type": "electric_scooter", "lon": -77.0298565, "bike_id": "7eb1fdbad8d52db9f7eb84e53f493c4a", "fusion_lat": 0.0, "name": "7eb1fdbad8d52db9f7eb84e53f493c4a", "is_reserved": 0, "rental_uris": {"android": "https://dc.lft.to/lastmile_qr_scan", "ios": "https://dc.lft.to/lastmile_qr_scan"}, "fusion_lon": 0.0}, {"lat": 38.92616433333333, "is_disabled": 0, "type": "electric_scooter", "lon": -77.021668, "bike_id": "3b304af06ec0b949d3cc0cd2b59d721c", "fusion_lat": 0.0, "name": "3b304af06ec0b949d3cc0cd2b59d721c", "is_reserved": 0, "rental_uris": {"android": "https://dc.lft.to/lastmile_qr_scan", "ios": "https://dc.lft.to/lastmile_qr_scan"}, "fusion_lon": 0.0}, {"lat": 38.90781, "is_disabled": 0, "type": "electric_bike", "lon": -77.07164466666667, "bike_id": "80bafadfebf92d9598bd089f00522189", "fusion_lat": 0.0, "name": "80bafadfebf92d9598bd089f00522189", "is_reserved": 0, "rental_uris": {"android": "https://dc.lft.to/lastmile_qr_scan", "ios": "https://dc.lft.to/lastmile_qr_scan"}, "fusion_lon": 0.0}, {"lat": 38.907345166666666, "is_disabled": 0, "type": "electric_scooter", "lon": -77.02803033333333, "bike_id": "15f22e79a18ddfede46223f988b45911", "fusion_lat": 0.0, "name": "15f22e79a18ddfede46223f988b45911", "is_reserved": 0, "rental_uris": {"android": "https://dc.lft.to/lastmile_qr_scan", "ios": "https://dc.lft.to/lastmile_qr_scan"}, "fusion_lon": 0.0}, {"lat": 38.883781166666665, "is_disabled": 0, "type": "electric_scooter", "lon": -76.99520283333334, "bike_id": "c78e2af310fae9193fe32702effd2881", "fusion_lat": 0.0, "name": "c78e2af310fae9193fe32702effd2881", "is_reserved": 0, "rental_uris": {"android": "https://dc.lft.to/lastmile_qr_scan", "ios": "https://dc.lft.to/lastmile_qr_scan"}, "fusion_lon": 0.0}, {"lat": 38.90222416666667, "is_disabled": 0, "type": "electric_scooter", "lon": -77.02934533333334, "bike_id": "53e105ecec8bf575e5b91edbe3f204ff", "fusion_lat": 0.0, "name": "53e105ecec8bf575e5b91edbe3f204ff", "is_reserved": 0, "rental_uris": {"android": "https://dc.lft.to/lastmile_qr_scan", "ios": "https://dc.lft.to/lastmile_qr_scan"}, "fusion_lon": 0.0}, {"lat": 38.903587, "is_disabled": 0, "type": "electric_scooter", "lon": -77.0330225, "bike_id": "6dd7a2c7e8f1dbd7ba8de764ef3b2475", "fusion_lat": 0.0, "name": "6dd7a2c7e8f1dbd7ba8de764ef3b2475", "is_reserved": 0, "rental_uris": {"android": "https://dc.lft.to/lastmile_qr_scan", "ios": "https://dc.lft.to/lastmile_qr_scan"}, "fusion_lon": 0.0}, {"lat": 38.919880166666665, "is_disabled": 0, "type": "electric_scooter", "lon": -77.032648, "bike_id": "73adf81cc6e7924da2fbb96c9148e69f", "fusion_lat": 0.0, "name": "73adf81cc6e7924da2fbb96c9148e69f", "is_reserved": 0, "rental_uris": {"android": "https://dc.lft.to/lastmile_qr_scan", "ios": "https://dc.lft.to/lastmile_qr_scan"}, "fusion_lon": 0.0}, {"lat": 38.91818166666667, "is_disabled": 0, "type": "electric_scooter", "lon": -77.03915266666667, "bike_id": "14f145613d75e9776a3d5517d30da691", "fusion_lat": 0.0, "name": "14f145613d75e9776a3d5517d30da691", "is_reserved": 0, "rental_uris": {"android": "https://dc.lft.to/lastmile_qr_scan", "ios": "https://dc.lft.to/lastmile_qr_scan"}, "fusion_lon": 0.0}, {"lat": 38.917390166666664, "is_disabled": 0, "type": "electric_scooter", "lon": -77.03662216666666, "bike_id": "5726e182477c1a93dad0394850032e5a", "fusion_lat": 0.0, "name": "5726e182477c1a93dad0394850032e5a", "is_reserved": 0, "rental_uris": {"android": "https://dc.lft.to/lastmile_qr_scan", "ios": "https://dc.lft.to/lastmile_qr_scan"}, "fusion_lon": 0.0}, {"lat": 38.914233, "is_disabled": 0, "type": "electric_scooter", "lon": -77.022049, "bike_id": "94a015b8e8a8e58cc8e74bdb2ce1fc15", "fusion_lat": 0.0, "name": "94a015b8e8a8e58cc8e74bdb2ce1fc15", "is_reserved": 0, "rental_uris": {"android": "https://dc.lft.to/lastmile_qr_scan", "ios": "https://dc.lft.to/lastmile_qr_scan"}, "fusion_lon": 0.0}, {"lat": 38.91110483333333, "is_disabled": 0, "type": "electric_scooter", "lon": -77.04838416666666, "bike_id": "d35e357810ee7839341319be36a95aea", "fusion_lat": 0.0, "name": "d35e357810ee7839341319be36a95aea", "is_reserved": 0, "rental_uris": {"android": "https://dc.lft.to/lastmile_qr_scan", "ios": "https://dc.lft.to/lastmile_qr_scan"}, "fusion_lon": 0.0}, {"lat": 38.89963516666667, "is_disabled": 0, "type": "electric_scooter", "lon": -77.025771, "bike_id": "7ee1780ec00703f0fc4b2ef4c3bfd69c", "fusion_lat": 0.0, "name": "7ee1780ec00703f0fc4b2ef4c3bfd69c", "is_reserved": 0, "rental_uris": {"android": "https://dc.lft.to/lastmile_qr_scan", "ios": "https://dc.lft.to/lastmile_qr_scan"}, "fusion_lon": 0.0}, {"lat": 38.907425833333335, "is_disabled": 0, "type": "electric_scooter", "lon": -77.03450466666666, "bike_id": "179c946ca64c067df9f4aa920d563a06", "fusion_lat": 0.0, "name": "179c946ca64c067df9f4aa920d563a06", "is_reserved": 0, "rental_uris": {"android": "https://dc.lft.to/lastmile_qr_scan", "ios": "https://dc.lft.to/lastmile_qr_scan"}, "fusion_lon": 0.0}, {"lat": 38.94430116666667, "is_disabled": 0, "type": "electric_scooter", "lon": -77.06334983333333, "bike_id": "5b7c9b1d01c700af4e216186455f9a93", "fusion_lat": 0.0, "name": "5b7c9b1d01c700af4e216186455f9a93", "is_reserved": 0, "rental_uris": {"android": "https://dc.lft.to/lastmile_qr_scan", "ios": "https://dc.lft.to/lastmile_qr_scan"}, "fusion_lon": 0.0}, {"lat": 38.8960915, "is_disabled": 0, "type": "electric_scooter", "lon": -77.054727, "bike_id": "b1bba77725e3397061e870563f4354a8", "fusion_lat": 0.0, "name": "b1bba77725e3397061e870563f4354a8", "is_reserved": 0, "rental_uris": {"android": "https://dc.lft.to/lastmile_qr_scan", "ios": "https://dc.lft.to/lastmile_qr_scan"}, "fusion_lon": 0.0}, {"lat": 38.91709633333333, "is_disabled": 0, "type": "electric_scooter", "lon": -77.040461, "bike_id": "36ec6db77265495b66b7d47be47803fa", "fusion_lat": 0.0, "name": "36ec6db77265495b66b7d47be47803fa", "is_reserved": 0, "rental_uris": {"android": "https://dc.lft.to/lastmile_qr_scan", "ios": "https://dc.lft.to/lastmile_qr_scan"}, "fusion_lon": 0.0}, {"lat": 38.902715666666666, "is_disabled": 0, "type": "electric_scooter", "lon": -77.06234033333334, "bike_id": "2973b5531557b3b5f683037d5dc710e3", "fusion_lat": 0.0, "name": "2973b5531557b3b5f683037d5dc710e3", "is_reserved": 0, "rental_uris": {"android": "https://dc.lft.to/lastmile_qr_scan", "ios": "https://dc.lft.to/lastmile_qr_scan"}, "fusion_lon": 0.0}, {"lat": 38.917807333333336, "is_disabled": 0, "type": "electric_scooter", "lon": -77.02311766666666, "bike_id": "36352aa53aa3979f3c9d0e87c3b3a225", "fusion_lat": 0.0, "name": "36352aa53aa3979f3c9d0e87c3b3a225", "is_reserved": 0, "rental_uris": {"android": "https://dc.lft.to/lastmile_qr_scan", "ios": "https://dc.lft.to/lastmile_qr_scan"}, "fusion_lon": 0.0}, {"lat": 38.9143475, "is_disabled": 0, "type": "electric_scooter", "lon": -77.02344433333333, "bike_id": "67be2c733dea7eab51ae57e96195d264", "fusion_lat": 0.0, "name": "67be2c733dea7eab51ae57e96195d264", "is_reserved": 0, "rental_uris": {"android": "https://dc.lft.to/lastmile_qr_scan", "ios": "https://dc.lft.to/lastmile_qr_scan"}, "fusion_lon": 0.0}, {"lat": 38.88749, "is_disabled": 0, "type": "electric_scooter", "lon": -77.03227533333333, "bike_id": "92813fc001446c63a7eb403924867012", "fusion_lat": 0.0, "name": "92813fc001446c63a7eb403924867012", "is_reserved": 0, "rental_uris": {"android": "https://dc.lft.to/lastmile_qr_scan", "ios": "https://dc.lft.to/lastmile_qr_scan"}, "fusion_lon": 0.0}, {"lat": 38.910411333333336, "is_disabled": 0, "type": "electric_scooter", "lon": -77.03864083333333, "bike_id": "9bb6926abd01af38364c366d4f92f147", "fusion_lat": 0.0, "name": "9bb6926abd01af38364c366d4f92f147", "is_reserved": 0, "rental_uris": {"android": "https://dc.lft.to/lastmile_qr_scan", "ios": "https://dc.lft.to/lastmile_qr_scan"}, "fusion_lon": 0.0}, {"lat": 38.92467516666667, "is_disabled": 0, "type": "electric_scooter", "lon": -77.0523635, "bike_id": "71cb10508f8cafcd80a208a34d1a822f", "fusion_lat": 0.0, "name": "71cb10508f8cafcd80a208a34d1a822f", "is_reserved": 0, "rental_uris": {"android": "https://dc.lft.to/lastmile_qr_scan", "ios": "https://dc.lft.to/lastmile_qr_scan"}, "fusion_lon": 0.0}, {"lat": 38.957834, "is_disabled": 0, "type": "electric_scooter", "lon": -77.0276575, "bike_id": "c947518f8b89a6e733a21c1283d7fd76", "fusion_lat": 0.0, "name": "c947518f8b89a6e733a21c1283d7fd76", "is_reserved": 0, "rental_uris": {"android": "https://dc.lft.to/lastmile_qr_scan", "ios": "https://dc.lft.to/lastmile_qr_scan"}, "fusion_lon": 0.0}, {"lat": 38.89221116666667, "is_disabled": 0, "type": "electric_scooter", "lon": -77.03222383333333, "bike_id": "05cd0abd4ed673ae7db8778eddf9587e", "fusion_lat": 0.0, "name": "05cd0abd4ed673ae7db8778eddf9587e", "is_reserved": 0, "rental_uris": {"android": "https://dc.lft.to/lastmile_qr_scan", "ios": "https://dc.lft.to/lastmile_qr_scan"}, "fusion_lon": 0.0}, {"lat": 38.92754216666667, "is_disabled": 0, "type": "electric_scooter", "lon": -77.024325, "bike_id": "72fdfd752a8295fb3a4e0cf130d7a29c", "fusion_lat": 0.0, "name": "72fdfd752a8295fb3a4e0cf130d7a29c", "is_reserved": 0, "rental_uris": {"android": "https://dc.lft.to/lastmile_qr_scan", "ios": "https://dc.lft.to/lastmile_qr_scan"}, "fusion_lon": 0.0}, {"lat": 38.9236575, "is_disabled": 0, "type": "electric_scooter", "lon": -77.05129066666667, "bike_id": "cdd3816698cfd2126030154bd484a804", "fusion_lat": 0.0, "name": "cdd3816698cfd2126030154bd484a804", "is_reserved": 0, "rental_uris": {"android": "https://dc.lft.to/lastmile_qr_scan", "ios": "https://dc.lft.to/lastmile_qr_scan"}, "fusion_lon": 0.0}, {"lat": 38.884315666666666, "is_disabled": 0, "type": "electric_scooter", "lon": -76.95756416666667, "bike_id": "8394b4aac0a53aa5756080ba6d3ddc4a", "fusion_lat": 0.0, "name": "8394b4aac0a53aa5756080ba6d3ddc4a", "is_reserved": 0, "rental_uris": {"android": "https://dc.lft.to/lastmile_qr_scan", "ios": "https://dc.lft.to/lastmile_qr_scan"}, "fusion_lon": 0.0}, {"lat": 38.99790266666667, "is_disabled": 0, "type": "electric_bike", "lon": -77.007653, "bike_id": "e355201c1b4b3eb7aad54579b2fdcfed", "fusion_lat": 0.0, "name": "e355201c1b4b3eb7aad54579b2fdcfed", "is_reserved": 0, "rental_uris": {"android": "https://dc.lft.to/lastmile_qr_scan", "ios": "https://dc.lft.to/lastmile_qr_scan"}, "fusion_lon": 0.0}, {"lat": 38.907392, "is_disabled": 0, "type": "electric_scooter", "lon": -77.03452766666666, "bike_id": "f4daddcefbd5142e624c6804f8eac27b", "fusion_lat": 0.0, "name": "f4daddcefbd5142e624c6804f8eac27b", "is_reserved": 0, "rental_uris": {"android": "https://dc.lft.to/lastmile_qr_scan", "ios": "https://dc.lft.to/lastmile_qr_scan"}, "fusion_lon": 0.0}, {"lat": 38.91994733333333, "is_disabled": 0, "type": "electric_scooter", "lon": -77.032673, "bike_id": "ab18c7c3b312aa125cd4ee1887741226", "fusion_lat": 0.0, "name": "ab18c7c3b312aa125cd4ee1887741226", "is_reserved": 0, "rental_uris": {"android": "https://dc.lft.to/lastmile_qr_scan", "ios": "https://dc.lft.to/lastmile_qr_scan"}, "fusion_lon": 0.0}, {"lat": 38.92288716666667, "is_disabled": 0, "type": "electric_scooter", "lon": -77.03663416666667, "bike_id": "2225c59ecfc37a307152c44db82be6a2", "fusion_lat": 0.0, "name": "2225c59ecfc37a307152c44db82be6a2", "is_reserved": 0, "rental_uris": {"android": "https://dc.lft.to/lastmile_qr_scan", "ios": "https://dc.lft.to/lastmile_qr_scan"}, "fusion_lon": 0.0}, {"lat": 38.91978683333333, "is_disabled": 0, "type": "electric_scooter", "lon": -77.02401666666667, "bike_id": "02bdc61c4598b3514d5239bf1de98c1d", "fusion_lat": 0.0, "name": "02bdc61c4598b3514d5239bf1de98c1d", "is_reserved": 0, "rental_uris": {"android": "https://dc.lft.to/lastmile_qr_scan", "ios": "https://dc.lft.to/lastmile_qr_scan"}, "fusion_lon": 0.0}, {"lat": 38.900827, "is_disabled": 0, "type": "electric_scooter", "lon": -77.04918966666666, "bike_id": "621ab6274277d8d46bbed3f8fccf1e62", "fusion_lat": 0.0, "name": "621ab6274277d8d46bbed3f8fccf1e62", "is_reserved": 0, "rental_uris": {"android": "https://dc.lft.to/lastmile_qr_scan", "ios": "https://dc.lft.to/lastmile_qr_scan"}, "fusion_lon": 0.0}, {"lat": 38.917986166666665, "is_disabled": 0, "type": "electric_bike", "lon": -76.9718715, "bike_id": "b9b5ad5835d1f5ae55d4d88fb0033157", "fusion_lat": 0.0, "name": "b9b5ad5835d1f5ae55d4d88fb0033157", "is_reserved": 0, "rental_uris": {"android": "https://dc.lft.to/lastmile_qr_scan", "ios": "https://dc.lft.to/lastmile_qr_scan"}, "fusion_lon": 0.0}, {"lat": 38.903751166666666, "is_disabled": 0, "type": "electric_scooter", "lon": -77.046595, "bike_id": "3bdb7d5d3f410747f11fed8fd043da7c", "fusion_lat": 0.0, "name": "3bdb7d5d3f410747f11fed8fd043da7c", "is_reserved": 0, "rental_uris": {"android": "https://dc.lft.to/lastmile_qr_scan", "ios": "https://dc.lft.to/lastmile_qr_scan"}, "fusion_lon": 0.0}, {"lat": 38.867057333333335, "is_disabled": 0, "type": "electric_scooter", "lon": -76.98716516666667, "bike_id": "87448bc9bc77a30d5b19d550533e925c", "fusion_lat": 0.0, "name": "87448bc9bc77a30d5b19d550533e925c", "is_reserved": 0, "rental_uris": {"android": "https://dc.lft.to/lastmile_qr_scan", "ios": "https://dc.lft.to/lastmile_qr_scan"}, "fusion_lon": 0.0}, {"lat": 38.917426166666665, "is_disabled": 0, "type": "electric_scooter", "lon": -77.03181566666666, "bike_id": "e2a7801e2ccc3430d49b6089b7265228", "fusion_lat": 0.0, "name": "e2a7801e2ccc3430d49b6089b7265228", "is_reserved": 0, "rental_uris": {"android": "https://dc.lft.to/lastmile_qr_scan", "ios": "https://dc.lft.to/lastmile_qr_scan"}, "fusion_lon": 0.0}, {"lat": 38.9056705, "is_disabled": 0, "type": "electric_scooter", "lon": -77.01773516666667, "bike_id": "de25cda2e6bf881930334193e05aa536", "fusion_lat": 0.0, "name": "de25cda2e6bf881930334193e05aa536", "is_reserved": 0, "rental_uris": {"android": "https://dc.lft.to/lastmile_qr_scan", "ios": "https://dc.lft.to/lastmile_qr_scan"}, "fusion_lon": 0.0}, {"lat": 38.964487166666665, "is_disabled": 0, "type": "electric_bike", "lon": -77.02072383333334, "bike_id": "8c7cad79818852fd3c0a71ce533aad4f", "fusion_lat": 0.0, "name": "8c7cad79818852fd3c0a71ce533aad4f", "is_reserved": 0, "rental_uris": {"android": "https://dc.lft.to/lastmile_qr_scan", "ios": "https://dc.lft.to/lastmile_qr_scan"}, "fusion_lon": 0.0}, {"lat": 38.885271333333336, "is_disabled": 0, "type": "electric_scooter", "lon": -77.01134333333333, "bike_id": "b1e49397705fc934f8da9bba7318d6cd", "fusion_lat": 0.0, "name": "b1e49397705fc934f8da9bba7318d6cd", "is_reserved": 0, "rental_uris": {"android": "https://dc.lft.to/lastmile_qr_scan", "ios": "https://dc.lft.to/lastmile_qr_scan"}, "fusion_lon": 0.0}, {"lat": 38.903886, "is_disabled": 0, "type": "electric_scooter", "lon": -77.04500666666667, "bike_id": "0117f53c45d60c39d0ace440c81c48c6", "fusion_lat": 0.0, "name": "0117f53c45d60c39d0ace440c81c48c6", "is_reserved": 0, "rental_uris": {"android": "https://dc.lft.to/lastmile_qr_scan", "ios": "https://dc.lft.to/lastmile_qr_scan"}, "fusion_lon": 0.0}, {"lat": 38.861698833333335, "is_disabled": 0, "type": "electric_bike", "lon": -77.13146066666667, "bike_id": "9883ad908cd67e36c00cb954c33ea92b", "fusion_lat": 0.0, "name": "9883ad908cd67e36c00cb954c33ea92b", "is_reserved": 0, "rental_uris": {"android": "https://dc.lft.to/lastmile_qr_scan", "ios": "https://dc.lft.to/lastmile_qr_scan"}, "fusion_lon": 0.0}, {"lat": 38.93121466666667, "is_disabled": 0, "type": "electric_scooter", "lon": -77.021028, "bike_id": "a22e288276ff8bb5969dd926b0cf88d2", "fusion_lat": 0.0, "name": "a22e288276ff8bb5969dd926b0cf88d2", "is_reserved": 0, "rental_uris": {"android": "https://dc.lft.to/lastmile_qr_scan", "ios": "https://dc.lft.to/lastmile_qr_scan"}, "fusion_lon": 0.0}, {"lat": 39.015773833333334, "is_disabled": 0, "type": "electric_bike", "lon": -77.04237216666667, "bike_id": "17be3e280e34bdc57941817ad2ecc6f3", "fusion_lat": 0.0, "name": "17be3e280e34bdc57941817ad2ecc6f3", "is_reserved": 0, "rental_uris": {"android": "https://dc.lft.to/lastmile_qr_scan", "ios": "https://dc.lft.to/lastmile_qr_scan"}, "fusion_lon": 0.0}, {"lat": 38.8690935, "is_disabled": 0, "type": "electric_bike", "lon": -77.13181383333334, "bike_id": "8620afd2965c223b064063253f52d88e", "fusion_lat": 0.0, "name": "8620afd2965c223b064063253f52d88e", "is_reserved": 0, "rental_uris": {"android": "https://dc.lft.to/lastmile_qr_scan", "ios": "https://dc.lft.to/lastmile_qr_scan"}, "fusion_lon": 0.0}, {"lat": 38.9588095, "is_disabled": 0, "type": "electric_bike", "lon": -77.01037716666667, "bike_id": "d3c7213247cd12dae6d226cd3d9a9486", "fusion_lat": 0.0, "name": "d3c7213247cd12dae6d226cd3d9a9486", "is_reserved": 0, "rental_uris": {"android": "https://dc.lft.to/lastmile_qr_scan", "ios": "https://dc.lft.to/lastmile_qr_scan"}, "fusion_lon": 0.0}, {"lat": 38.9050755, "is_disabled": 0, "type": "electric_scooter", "lon": -77.0283225, "bike_id": "bbd816d1c35ad7bc36d3881c56b7d149", "fusion_lat": 0.0, "name": "bbd816d1c35ad7bc36d3881c56b7d149", "is_reserved": 0, "rental_uris": {"android": "https://dc.lft.to/lastmile_qr_scan", "ios": "https://dc.lft.to/lastmile_qr_scan"}, "fusion_lon": 0.0}, {"lat": 38.89924166666667, "is_disabled": 0, "type": "electric_scooter", "lon": -77.03287733333333, "bike_id": "c99468a13d1ceb6676d81e51ea55e28a", "fusion_lat": 0.0, "name": "c99468a13d1ceb6676d81e51ea55e28a", "is_reserved": 0, "rental_uris": {"android": "https://dc.lft.to/lastmile_qr_scan", "ios": "https://dc.lft.to/lastmile_qr_scan"}, "fusion_lon": 0.0}, {"lat": 38.92203466666667, "is_disabled": 0, "type": "electric_scooter", "lon": -77.04011366666667, "bike_id": "fc7d43536f025d4b5dce7c0b0f2c4323", "fusion_lat": 0.0, "name": "fc7d43536f025d4b5dce7c0b0f2c4323", "is_reserved": 0, "rental_uris": {"android": "https://dc.lft.to/lastmile_qr_scan", "ios": "https://dc.lft.to/lastmile_qr_scan"}, "fusion_lon": 0.0}, {"lat": 38.91207266666667, "is_disabled": 0, "type": "electric_scooter", "lon": -77.0449465, "bike_id": "65133fcff4da79c84656fea47caa73a4", "fusion_lat": 0.0, "name": "65133fcff4da79c84656fea47caa73a4", "is_reserved": 0, "rental_uris": {"android": "https://dc.lft.to/lastmile_qr_scan", "ios": "https://dc.lft.to/lastmile_qr_scan"}, "fusion_lon": 0.0}, {"lat": 38.955727333333336, "is_disabled": 0, "type": "electric_scooter", "lon": -77.07008466666667, "bike_id": "ca76ccf19111d94756ed14ea2fe2e6d3", "fusion_lat": 0.0, "name": "ca76ccf19111d94756ed14ea2fe2e6d3", "is_reserved": 0, "rental_uris": {"android": "https://dc.lft.to/lastmile_qr_scan", "ios": "https://dc.lft.to/lastmile_qr_scan"}, "fusion_lon": 0.0}, {"lat": 38.91045666666667, "is_disabled": 0, "type": "electric_scooter", "lon": -77.01509783333333, "bike_id": "e2a4d1dfa2121e3027ec840ed650fdd2", "fusion_lat": 0.0, "name": "e2a4d1dfa2121e3027ec840ed650fdd2", "is_reserved": 0, "rental_uris": {"android": "https://dc.lft.to/lastmile_qr_scan", "ios": "https://dc.lft.to/lastmile_qr_scan"}, "fusion_lon": 0.0}, {"lat": 38.8812765, "is_disabled": 0, "type": "electric_scooter", "lon": -77.01407466666667, "bike_id": "fd5386c169fd8b1182128af92b91cce6", "fusion_lat": 0.0, "name": "fd5386c169fd8b1182128af92b91cce6", "is_reserved": 0, "rental_uris": {"android": "https://dc.lft.to/lastmile_qr_scan", "ios": "https://dc.lft.to/lastmile_qr_scan"}, "fusion_lon": 0.0}, {"lat": 38.90778866666667, "is_disabled": 0, "type": "electric_scooter", "lon": -77.04257, "bike_id": "fc23d73e837e9beca44bd3dcbe72f444", "fusion_lat": 0.0, "name": "fc23d73e837e9beca44bd3dcbe72f444", "is_reserved": 0, "rental_uris": {"android": "https://dc.lft.to/lastmile_qr_scan", "ios": "https://dc.lft.to/lastmile_qr_scan"}, "fusion_lon": 0.0}, {"lat": 38.90551, "is_disabled": 0, "type": "electric_scooter", "lon": -77.05708666666666, "bike_id": "22c617afb74a82d7b6bcc8e9a44b75aa", "fusion_lat": 0.0, "name": "22c617afb74a82d7b6bcc8e9a44b75aa", "is_reserved": 0, "rental_uris": {"android": "https://dc.lft.to/lastmile_qr_scan", "ios": "https://dc.lft.to/lastmile_qr_scan"}, "fusion_lon": 0.0}, {"lat": 38.9007575, "is_disabled": 0, "type": "electric_scooter", "lon": -77.02716316666667, "bike_id": "d3da811ebe16427d0773f84eb49b8b33", "fusion_lat": 0.0, "name": "d3da811ebe16427d0773f84eb49b8b33", "is_reserved": 0, "rental_uris": {"android": "https://dc.lft.to/lastmile_qr_scan", "ios": "https://dc.lft.to/lastmile_qr_scan"}, "fusion_lon": 0.0}, {"lat": 38.89721566666667, "is_disabled": 0, "type": "electric_scooter", "lon": -77.0214675, "bike_id": "f96df06a44ff240cd8c5a28c8a8ea24d", "fusion_lat": 0.0, "name": "f96df06a44ff240cd8c5a28c8a8ea24d", "is_reserved": 0, "rental_uris": {"android": "https://dc.lft.to/lastmile_qr_scan", "ios": "https://dc.lft.to/lastmile_qr_scan"}, "fusion_lon": 0.0}, {"lat": 38.804492333333336, "is_disabled": 0, "type": "electric_bike", "lon": -77.06092016666666, "bike_id": "f1dfcd645d56287ef890d9b21eed1e15", "fusion_lat": 0.0, "name": "f1dfcd645d56287ef890d9b21eed1e15", "is_reserved": 0, "rental_uris": {"android": "https://dc.lft.to/lastmile_qr_scan", "ios": "https://dc.lft.to/lastmile_qr_scan"}, "fusion_lon": 0.0}, {"lat": 38.91807, "is_disabled": 0, "type": "electric_scooter", "lon": -77.040288, "bike_id": "00867d35023cd38698fed86a1d22f76e", "fusion_lat": 0.0, "name": "00867d35023cd38698fed86a1d22f76e", "is_reserved": 0, "rental_uris": {"android": "https://dc.lft.to/lastmile_qr_scan", "ios": "https://dc.lft.to/lastmile_qr_scan"}, "fusion_lon": 0.0}, {"lat": 38.9540185, "is_disabled": 0, "type": "electric_scooter", "lon": -77.03630466666667, "bike_id": "edf6c9fceac950cb232eb9930caaa33d", "fusion_lat": 0.0, "name": "edf6c9fceac950cb232eb9930caaa33d", "is_reserved": 0, "rental_uris": {"android": "https://dc.lft.to/lastmile_qr_scan", "ios": "https://dc.lft.to/lastmile_qr_scan"}, "fusion_lon": 0.0}, {"lat": 38.91413583333333, "is_disabled": 0, "type": "electric_scooter", "lon": -77.02565933333334, "bike_id": "2be77170955ba7bc7e97cdee4b2ad4e5", "fusion_lat": 0.0, "name": "2be77170955ba7bc7e97cdee4b2ad4e5", "is_reserved": 0, "rental_uris": {"android": "https://dc.lft.to/lastmile_qr_scan", "ios": "https://dc.lft.to/lastmile_qr_scan"}, "fusion_lon": 0.0}, {"lat": 38.89846883333333, "is_disabled": 0, "type": "electric_scooter", "lon": -76.94636966666667, "bike_id": "2a744ef10d0464553dc2784926acdf64", "fusion_lat": 0.0, "name": "2a744ef10d0464553dc2784926acdf64", "is_reserved": 0, "rental_uris": {"android": "https://dc.lft.to/lastmile_qr_scan", "ios": "https://dc.lft.to/lastmile_qr_scan"}, "fusion_lon": 0.0}, {"lat": 38.917410833333335, "is_disabled": 0, "type": "electric_scooter", "lon": -77.031984, "bike_id": "eadaef1afa3d30e4a21632e18029e7eb", "fusion_lat": 0.0, "name": "eadaef1afa3d30e4a21632e18029e7eb", "is_reserved": 0, "rental_uris": {"android": "https://dc.lft.to/lastmile_qr_scan", "ios": "https://dc.lft.to/lastmile_qr_scan"}, "fusion_lon": 0.0}, {"lat": 38.8968555, "is_disabled": 0, "type": "electric_scooter", "lon": -76.9361155, "bike_id": "b21624acba0799a86069675bbe90b455", "fusion_lat": 0.0, "name": "b21624acba0799a86069675bbe90b455", "is_reserved": 0, "rental_uris": {"android": "https://dc.lft.to/lastmile_qr_scan", "ios": "https://dc.lft.to/lastmile_qr_scan"}, "fusion_lon": 0.0}, {"lat": 38.944634, "is_disabled": 0, "type": "electric_scooter", "lon": -77.06028816666667, "bike_id": "b195368b8abb0d59f26aa319a4c74c48", "fusion_lat": 0.0, "name": "b195368b8abb0d59f26aa319a4c74c48", "is_reserved": 0, "rental_uris": {"android": "https://dc.lft.to/lastmile_qr_scan", "ios": "https://dc.lft.to/lastmile_qr_scan"}, "fusion_lon": 0.0}, {"lat": 38.88452316666667, "is_disabled": 0, "type": "electric_scooter", "lon": -76.9509655, "bike_id": "5c05b6f23f2c345a262b21c71d542c37", "fusion_lat": 0.0, "name": "5c05b6f23f2c345a262b21c71d542c37", "is_reserved": 0, "rental_uris": {"android": "https://dc.lft.to/lastmile_qr_scan", "ios": "https://dc.lft.to/lastmile_qr_scan"}, "fusion_lon": 0.0}, {"lat": 38.9482395, "is_disabled": 0, "type": "electric_scooter", "lon": -76.99904566666666, "bike_id": "668b236bab6cd6304cae0280514d9c15", "fusion_lat": 0.0, "name": "668b236bab6cd6304cae0280514d9c15", "is_reserved": 0, "rental_uris": {"android": "https://dc.lft.to/lastmile_qr_scan", "ios": "https://dc.lft.to/lastmile_qr_scan"}, "fusion_lon": 0.0}, {"lat": 38.92499816666667, "is_disabled": 0, "type": "electric_scooter", "lon": -77.05231116666667, "bike_id": "d15f41168ae9f0bb14332574d37a026b", "fusion_lat": 0.0, "name": "d15f41168ae9f0bb14332574d37a026b", "is_reserved": 0, "rental_uris": {"android": "https://dc.lft.to/lastmile_qr_scan", "ios": "https://dc.lft.to/lastmile_qr_scan"}, "fusion_lon": 0.0}, {"lat": 38.93079383333333, "is_disabled": 0, "type": "electric_scooter", "lon": -77.033935, "bike_id": "54217f0e40b8433147e71025b3b60fea", "fusion_lat": 0.0, "name": "54217f0e40b8433147e71025b3b60fea", "is_reserved": 0, "rental_uris": {"android": "https://dc.lft.to/lastmile_qr_scan", "ios": "https://dc.lft.to/lastmile_qr_scan"}, "fusion_lon": 0.0},