{"data": {"bikes": [{"name": "1240e4553b353f495b1ab691f2d21e36", "fusion_lat": 0.0, "type": "electric_scooter", "lat": 38.926420666666665, "is_reserved": 0, "is_disabled": 0, "fusion_lon": 0.0, "bike_id": "1240e4553b353f495b1ab691f2d21e36", "lon": -77.036953, "rental_uris": {"ios": "https://dc.lft.to/lastmile_qr_scan", "android": "https://dc.lft.to/lastmile_qr_scan"}}, {"name": "1f8176a740be96989534227cbbc8d0f4", "fusion_lat": 0.0, "type": "electric_scooter", "lat": 38.92891783333334, "is_reserved": 0, "is_disabled": 0, "fusion_lon": 0.0, "bike_id": "1f8176a740be96989534227cbbc8d0f4", "lon": -77.0230895, "rental_uris": {"ios": "https://dc.lft.to/lastmile_qr_scan", "android": "https://dc.lft.to/lastmile_qr_scan"}}, {"name": "e09b5558ffd4f84328de41d54163e935", "fusion_lat": 0.0, "type": "electric_scooter", "lat": 38.9376735, "is_reserved": 0, "is_disabled": 0, "fusion_lon": 0.0, "bike_id": "e09b5558ffd4f84328de41d54163e935", "lon": -77.03282683333333, "rental_uris": {"ios": "https://dc.lft.to/lastmile_qr_scan", "android": "https://dc.lft.to/lastmile_qr_scan"}}, {"name": "606104002c9fe003e01fd86045d85700", "fusion_lat": 0.0, "type": "electric_scooter", "lat": 38.8919915, "is_reserved": 0, "is_disabled": 0, "fusion_lon": 0.0, "bike_id": "606104002c9fe003e01fd86045d85700", "lon": -77.002385, "rental_uris": {"ios": "https://dc.lft.to/lastmile_qr_scan", "android": "https://dc.lft.to/lastmile_qr_scan"}}, {"name": "e7a53c1956415e2c4a4bde60b7ab4fea", "fusion_lat": 0.0, "type": "electric_scooter", "lat": 38.90295033333334, "is_reserved": 0, "is_disabled": 0, "fusion_lon": 0.0, "bike_id": "e7a53c1956415e2c4a4bde60b7ab4fea", "lon": -77.03868266666667, "rental_uris": {"ios": "https://dc.lft.to/lastmile_qr_scan", "android": "https://dc.lft.to/lastmile_qr_scan"}}, {"name": "d27ce6a475993e95db9cf375829d9da5", "fusion_lat": 0.0, "type": "electric_scooter", "lat": 38.90261566666667, "is_reserved": 0, "is_disabled": 0, "fusion_lon": 0.0, "bike_id": "d27ce6a475993e95db9cf375829d9da5", "lon": -76.99603116666667, "rental_uris": {"ios": "https://dc.lft.to/lastmile_qr_scan", "android": "https://dc.lft.to/lastmile_qr_scan"}}, {"name": "b607d92216754f67385ef250dd79f34b", "fusion_lat": 0.0, "type": "electric_scooter", "lat": 38.891761833333334, "is_reserved": 0, "is_disabled": 0, "fusion_lon": 0.0, "bike_id": "b607d92216754f67385ef250dd79f34b", "lon": -77.01566816666667, "rental_uris": {"ios": "https://dc.lft.to/lastmile_qr_scan", "android": "https://dc.lft.to/lastmile_qr_scan"}}, {"name": "fcd2f1fdd8de4254fca80b0a67e16919", "fusion_lat": 0.0, "type": "electric_scooter", "lat": 38.93359266666667, "is_reserved": 0, "is_disabled": 0, "fusion_lon": 0.0, "bike_id": "fcd2f1fdd8de4254fca80b0a67e16919", "lon": -77.06735016666667, "rental_uris": {"ios": "https://dc.lft.to/lastmile_qr_scan", "android": "https://dc.lft.to/lastmile_qr_scan"}}, {"name": "ad5719e17aad191b1ef11fe17a8f4bb1", "fusion_lat": 0.0, "type": "electric_scooter", "lat": 38.88917416666666, "is_reserved": 0, "is_disabled": 0, "fusion_lon": 0.0, "bike_id": "ad5719e17aad191b1ef11fe17a8f4bb1", "lon": -76.95371333333334, "rental_uris": {"ios": "https://dc.lft.to/lastmile_qr_scan", "android": "https://dc.lft.to/lastmile_qr_scan"}}, {"name": "076a5bf8c25b381dff442fdb338d4abe", "fusion_lat": 0.0, "type": "electric_scooter", "lat": 38.93476616666667, "is_reserved": 0, "is_disabled": 0, "fusion_lon": 0.0, "bike_id": "076a5bf8c25b381dff442fdb338d4abe", "lon": -77.02831166666667, "rental_uris": {"ios": "https://dc.lft.to/lastmile_qr_scan", "android": "https://dc.lft.to/lastmile_qr_scan"}}, {"name": "eee57eb2f8443f98c34975be1a8b32e7", "fusion_lat": 0.0, "type": "electric_scooter", "lat": 38.91193166666667, "is_reserved": 0, "is_disabled": 0, "fusion_lon": 0.0, "bike_id": "eee57eb2f8443f98c34975be1a8b32e7", "lon": -77.04535166666666, "rental_uris": {"ios": "https://dc.lft.to/lastmile_qr_scan", "android": "https://dc.lft.to/lastmile_qr_scan"}}, {"name": "739d3abcb318f07b18f1ffbd760d1a4d", "fusion_lat": 0.0, "type": "electric_scooter", "lat": 38.93716883333333, "is_reserved": 0, "is_disabled": 0, "fusion_lon": 0.0, "bike_id": "739d3abcb318f07b18f1ffbd760d1a4d", "lon": -77.03644983333334, "rental_uris": {"ios": "https://dc.lft.to/lastmile_qr_scan", "android": "https://dc.lft.to/lastmile_qr_scan"}}, {"name": "7e0dd497d62aa4ce68a8e821bca8cc37", "fusion_lat": 0.0, "type": "electric_scooter", "lat": 38.9014195, "is_reserved": 0, "is_disabled": 0, "fusion_lon": 0.0, "bike_id": "7e0dd497d62aa4ce68a8e821bca8cc37", "lon": -77.04029416666667, "rental_uris": {"ios": "https://dc.lft.to/lastmile_qr_scan", "android": "https://dc.lft.to/lastmile_qr_scan"}}, {"name": "2837323a46844db8ff7cff4953614a43", "fusion_lat": 0.0, "type": "electric_scooter", "lat": 38.9148775, "is_reserved": 0, "is_disabled": 0, "fusion_lon": 0.0, "bike_id": "2837323a46844db8ff7cff4953614a43", "lon": -77.03239966666666, "rental_uris": {"ios": "https://dc.lft.to/lastmile_qr_scan", "android": "https://dc.lft.to/lastmile_qr_scan"}}, {"name": "bfefa74db650f50e543b6734ab5417ff", "fusion_lat": 0.0, "type": "electric_scooter", "lat": 38.895890333333334, "is_reserved": 0, "is_disabled": 0, "fusion_lon": 0.0, "bike_id": "bfefa74db650f50e543b6734ab5417ff", "lon": -76.94887833333334, "rental_uris": {"ios": "https://dc.lft.to/lastmile_qr_scan", "android": "https://dc.lft.to/lastmile_qr_scan"}}, {"name": "f577b6ac921de8386e04e49054ea06f7", "fusion_lat": 0.0, "type": "electric_scooter", "lat": 38.89961316666667, "is_reserved": 0, "is_disabled": 0, "fusion_lon": 0.0, "bike_id": "f577b6ac921de8386e04e49054ea06f7", "lon": -77.03116016666667, "rental_uris": {"ios": "https://dc.lft.to/lastmile_qr_scan", "android": "https://dc.lft.to/lastmile_qr_scan"}}, {"name": "7f5aca28ff4429e7e419fea323e44195", "fusion_lat": 0.0, "type": "electric_scooter", "lat": 38.900766, "is_reserved": 0, "is_disabled": 0, "fusion_lon": 0.0, "bike_id": "7f5aca28ff4429e7e419fea323e44195", "lon": -77.05005133333333, "rental_uris": {"ios": "https://dc.lft.to/lastmile_qr_scan", "android": "https://dc.lft.to/lastmile_qr_scan"}}, {"name": "439d396c72357a507069117b7e141908", "fusion_lat": 0.0, "type": "electric_scooter", "lat": 38.918132, "is_reserved": 0, "is_disabled": 0, "fusion_lon": 0.0, "bike_id": "439d396c72357a507069117b7e141908", "lon": -77.03208416666666, "rental_uris": {"ios": "https://dc.lft.to/lastmile_qr_scan", "android": "https://dc.lft.to/lastmile_qr_scan"}}, {"name": "a26f23ac9bc6636675c3be37e6f41fb9", "fusion_lat": 0.0, "type": "electric_scooter", "lat": 38.88599933333333, "is_reserved": 0, "is_disabled": 0, "fusion_lon": 0.0, "bike_id": "a26f23ac9bc6636675c3be37e6f41fb9", "lon": -77.0176525, "rental_uris": {"ios": "https://dc.lft.to/lastmile_qr_scan", "android": "https://dc.lft.to/lastmile_qr_scan"}}, {"name": "6bceb5c3911b8d29bc8a379f3fa97d3f", "fusion_lat": 0.0, "type": "electric_bike", "lat": 38.96871083333333, "is_reserved": 0, "is_disabled": 0, "fusion_lon": 0.0, "bike_id": "6bceb5c3911b8d29bc8a379f3fa97d3f", "lon": -77.03345616666667, "rental_uris": {"ios": "https://dc.lft.to/lastmile_qr_scan", "android": "https://dc.lft.to/lastmile_qr_scan"}}, {"name": "c802e1c3f4b1e8c374c01908f44118ff", "fusion_lat": 0.0, "type": "electric_scooter", "lat": 38.9002055, "is_reserved": 0, "is_disabled": 0, "fusion_lon": 0.0, "bike_id": "c802e1c3f4b1e8c374c01908f44118ff", "lon": -77.01202866666667, "rental_uris": {"ios": "https://dc.lft.to/lastmile_qr_scan", "android": "https://dc.lft.to/lastmile_qr_scan"}}, {"name": "f25cb4d088952f40f57ec1f7eea1e154", "fusion_lat": 0.0, "type": "electric_scooter", "lat": 38.90274866666667, "is_reserved": 0, "is_disabled": 0, "fusion_lon": 0.0, "bike_id": "f25cb4d088952f40f57ec1f7eea1e154", "lon": -77.03145816666667, "rental_uris": {"ios": "https://dc.lft.to/lastmile_qr_scan", "android": "https://dc.lft.to/lastmile_qr_scan"}}, {"name": "8ca6bd044c03db29348e7384aa7bf3ba", "fusion_lat": 0.0, "type": "electric_bike", "lat": 38.9591235, "is_reserved": 0, "is_disabled": 0, "fusion_lon": 0.0, "bike_id": "8ca6bd044c03db29348e7384aa7bf3ba", "lon": -77.00156483333333, "rental_uris": {"ios": "https://dc.lft.to/lastmile_qr_scan", "android": "https://dc.lft.to/lastmile_qr_scan"}}, {"name": "9209a4c7f0e35c1fbb33e785aec12799", "fusion_lat": 0.0, "type": "electric_scooter", "lat": 38.927347, "is_reserved": 0, "is_disabled": 0, "fusion_lon": 0.0, "bike_id": "9209a4c7f0e35c1fbb33e785aec12799", "lon": -77.03425266666666, "rental_uris": {"ios": "https://dc.lft.to/lastmile_qr_scan", "android": "https://dc.lft.to/lastmile_qr_scan"}}, {"name": "93e76a516a11eab2f48d3d9f1406e510", "fusion_lat": 0.0, "type": "electric_scooter", "lat": 38.897342, "is_reserved": 0, "is_disabled": 0, "fusion_lon": 0.0, "bike_id": "93e76a516a11eab2f48d3d9f1406e510", "lon": -77.03283416666666, "rental_uris": {"ios": "https://dc.lft.to/lastmile_qr_scan", "android": "https://dc.lft.to/lastmile_qr_scan"}}, {"name": "59b9ab0b42aa87077c12e4c50971189b", "fusion_lat": 0.0, "type": "electric_scooter", "lat": 38.922245833333335, "is_reserved": 0, "is_disabled": 0, "fusion_lon": 0.0, "bike_id": "59b9ab0b42aa87077c12e4c50971189b", "lon": -77.03781383333333, "rental_uris": {"ios": "https://dc.lft.to/lastmile_qr_scan", "android": "https://dc.lft.to/lastmile_qr_scan"}}, {"name": "459a659e248a242dcee7f803ff81e570", "fusion_lat": 0.0, "type": "electric_scooter", "lat": 38.92314666666667, "is_reserved": 0, "is_disabled": 0, "fusion_lon": 0.0, "bike_id": "459a659e248a242dcee7f803ff81e570", "lon": -77.0297645, "rental_uris": {"ios": "https://dc.lft.to/lastmile_qr_scan", "android": "https://dc.lft.to/lastmile_qr_scan"}}, {"name": "19710df523b53b912adb271e66f6c6fe", "fusion_lat": 0.0, "type": "electric_scooter", "lat": 38.92271933333333, "is_reserved": 0, "is_disabled": 0, "fusion_lon": 0.0, "bike_id": "19710df523b53b912adb271e66f6c6fe", "lon": -77.0340545, "rental_uris": {"ios": "https://dc.lft.to/lastmile_qr_scan", "android": "https://dc.lft.to/lastmile_qr_scan"}}, {"name": "84afce21bafc39c6764ebf66737fb829", "fusion_lat": 0.0, "type": "electric_scooter", "lat": 38.9372105, "is_reserved": 0, "is_disabled": 0, "fusion_lon": 0.0, "bike_id": "84afce21bafc39c6764ebf66737fb829", "lon": -77.03652966666667, "rental_uris": {"ios": "https://dc.lft.to/lastmile_qr_scan", "android": "https://dc.lft.to/lastmile_qr_scan"}}, {"name": "6853ea1b20528ded19fb72d8eade7d19", "fusion_lat": 0.0, "type": "electric_scooter", "lat": 38.954053, "is_reserved": 0, "is_disabled": 0, "fusion_lon": 0.0, "bike_id": "6853ea1b20528ded19fb72d8eade7d19", "lon": -77.0274845, "rental_uris": {"ios": "https://dc.lft.to/lastmile_qr_scan", "android": "https://dc.lft.to/lastmile_qr_scan"}}, {"name": "ede293cf6bfb521a1e9db29e37f7c668", "fusion_lat": 0.0, "type": "electric_bike", "lat": 39.030522833333336, "is_reserved": 0, "is_disabled": 0, "fusion_lon": 0.0, "bike_id": "ede293cf6bfb521a1e9db29e37f7c668", "lon": -77.09476916666667, "rental_uris": {"ios": "https://dc.lft.to/lastmile_qr_scan", "android": "https://dc.lft.to/lastmile_qr_scan"}}, {"name": "0e64962e9cc5917a8dd24599860f954c", "fusion_lat": 0.0, "type": "electric_scooter", "lat": 38.90582416666667, "is_reserved": 0, "is_disabled": 0, "fusion_lon": 0.0, "bike_id": "0e64962e9cc5917a8dd24599860f954c", "lon": -77.0408535, "rental_uris": {"ios": "https://dc.lft.to/lastmile_qr_scan", "android": "https://dc.lft.to/lastmile_qr_scan"}}, {"name": "e6c4070be61dd3e64ec13abddde3b7f7", "fusion_lat": 0.0, "type": "electric_scooter", "lat": 38.91848383333333, "is_reserved": 0, "is_disabled": 0, "fusion_lon": 0.0, "bike_id": "e6c4070be61dd3e64ec13abddde3b7f7", "lon": -77.06150266666667, "rental_uris": {"ios": "https://dc.lft.to/lastmile_qr_scan", "android": "https://dc.lft.to/lastmile_qr_scan"}}, {"name": "fa1255c5b244488b7ba31acd0deef8af", "fusion_lat": 0.0, "type": "electric_bike", "lat": 38.97071033333334, "is_reserved": 0, "is_disabled": 0, "fusion_lon": 0.0, "bike_id": "fa1255c5b244488b7ba31acd0deef8af", "lon": -76.93606583333333, "rental_uris": {"ios": "https://dc.lft.to/lastmile_qr_scan", "android": "https://dc.lft.to/lastmile_qr_scan"}}, {"name": "04920c4524f26f5f3ffdf060aae4c30e", "fusion_lat": 0.0, "type": "electric_bike", "lat": 38.89671466666667, "is_reserved": 0, "is_disabled": 0, "fusion_lon": 0.0, "bike_id": "04920c4524f26f5f3ffdf060aae4c30e", "lon": -77.02609066666666, "rental_uris": {"ios": "https://dc.lft.to/lastmile_qr_scan", "android": "https://dc.lft.to/lastmile_qr_scan"}}, {"name": "47ac11318db660143eb2c378ac1bf215", "fusion_lat": 0.0, "type": "electric_scooter", "lat": 38.904899666666665, "is_reserved": 0, "is_disabled": 0, "fusion_lon": 0.0, "bike_id": "47ac11318db660143eb2c378ac1bf215", "lon": -77.02941683333333, "rental_uris": {"ios": "https://dc.lft.to/lastmile_qr_scan", "android": "https://dc.lft.to/lastmile_qr_scan"}}, {"name": "d6ee41a94db4036a055175347eabad5a", "fusion_lat": 0.0, "type": "electric_scooter", "lat": 38.90379883333333, "is_reserved": 0, "is_disabled": 0, "fusion_lon": 0.0, "bike_id": "d6ee41a94db4036a055175347eabad5a", "lon": -77.04370966666667, "rental_uris": {"ios": "https://dc.lft.to/lastmile_qr_scan", "android": "https://dc.lft.to/lastmile_qr_scan"}}, {"name": "6decdc14ae74026f18a0ce43140b3f28", "fusion_lat": 0.0, "type": "electric_scooter", "lat": 38.90096883333333, "is_reserved": 0, "is_disabled": 0, "fusion_lon": 0.0, "bike_id": "6decdc14ae74026f18a0ce43140b3f28", "lon": -77.03182283333334, "rental_uris": {"ios": "https://dc.lft.to/lastmile_qr_scan", "android": "https://dc.lft.to/lastmile_qr_scan"}}, {"name": "06e96a63efcb21f2900c2755b2b531cb", "fusion_lat": 0.0, "type": "electric_scooter", "lat": 38.93387766666667, "is_reserved": 0, "is_disabled": 0, "fusion_lon": 0.0, "bike_id": "06e96a63efcb21f2900c2755b2b531cb", "lon": -77.05764683333334, "rental_uris": {"ios": "https://dc.lft.to/lastmile_qr_scan", "android": "https://dc.lft.to/lastmile_qr_scan"}}, {"name": "e3c663f734df88dc397887bf0127966d", "fusion_lat": 0.0, "type": "electric_scooter", "lat": 38.904288666666666, "is_reserved": 0, "is_disabled": 0, "fusion_lon": 0.0, "bike_id": "e3c663f734df88dc397887bf0127966d", "lon": -77.04665966666667, "rental_uris": {"ios": "https://dc.lft.to/lastmile_qr_scan", "android": "https://dc.lft.to/lastmile_qr_scan"}}, {"name": "772bc8d8ae0e58f15e81060d69cb51de", "fusion_lat": 0.0, "type": "electric_bike", "lat": 38.965055, "is_reserved": 0, "is_disabled": 0, "fusion_lon": 0.0, "bike_id": "772bc8d8ae0e58f15e81060d69cb51de", "lon": -77.10333616666667, "rental_uris": {"ios": "https://dc.lft.to/lastmile_qr_scan", "android": "https://dc.lft.to/lastmile_qr_scan"}}, {"name": "7ec08e9c7c9380d681f2222dc6a2590b", "fusion_lat": 0.0, "type": "electric_scooter", "lat": 38.9014325, "is_reserved": 0, "is_disabled": 0, "fusion_lon": 0.0, "bike_id": "7ec08e9c7c9380d681f2222dc6a2590b", "lon": -77.02548583333333, "rental_uris": {"ios": "https://dc.lft.to/lastmile_qr_scan", "android": "https://dc.lft.to/lastmile_qr_scan"}}, {"name": "a65ec0e5165629c97bf68fbed0df7b98", "fusion_lat": 0.0, "type": "electric_scooter", "lat": 38.9001065, "is_reserved": 0, "is_disabled": 0, "fusion_lon": 0.0, "bike_id": "a65ec0e5165629c97bf68fbed0df7b98", "lon": -77.033375, "rental_uris": {"ios": "https://dc.lft.to/lastmile_qr_scan", "android": "https://dc.lft.to/lastmile_qr_scan"}}, {"name": "9aa7a8a784e70bb10857bd516d4111e9", "fusion_lat": 0.0, "type": "electric_scooter", "lat": 38.897424, "is_reserved": 0, "is_disabled": 0, "fusion_lon": 0.0, "bike_id": "9aa7a8a784e70bb10857bd516d4111e9", "lon": -76.942556, "rental_uris": {"ios": "https://dc.lft.to/lastmile_qr_scan", "android": "https://dc.lft.to/lastmile_qr_scan"}}, {"name": "6f1e0abcab017b3b16a631da04dcbcce", "fusion_lat": 0.0, "type": "electric_scooter", "lat": 38.907970666666664, "is_reserved": 0, "is_disabled": 0, "fusion_lon": 0.0, "bike_id": "6f1e0abcab017b3b16a631da04dcbcce", "lon": -77.04821516666667, "rental_uris": {"ios": "https://dc.lft.to/lastmile_qr_scan", "android": "https://dc.lft.to/lastmile_qr_scan"}}, {"name": "38456d1306b2b7924b39b250d44364c9", "fusion_lat": 0.0, "type": "electric_scooter", "lat": 38.921599, "is_reserved": 0, "is_disabled": 0, "fusion_lon": 0.0, "bike_id": "38456d1306b2b7924b39b250d44364c9", "lon": -77.04226066666666, "rental_uris": {"ios": "https://dc.lft.to/lastmile_qr_scan", "android": "https://dc.lft.to/lastmile_qr_scan"}}, {"name": "23005066039d406814efc4e3ed8d7090", "fusion_lat": 0.0, "type": "electric_scooter", "lat": 38.924893, "is_reserved": 0, "is_disabled": 0, "fusion_lon": 0.0, "bike_id": "23005066039d406814efc4e3ed8d7090", "lon": -77.05213266666667, "rental_uris": {"ios": "https://dc.lft.to/lastmile_qr_scan", "android": "https://dc.lft.to/lastmile_qr_scan"}}, {"name": "f9a2f16ab0f903f4d6b55668942c44dd", "fusion_lat": 0.0, "type": "electric_scooter", "lat": 38.9052325, "is_reserved": 0, "is_disabled": 0, "fusion_lon": 0.0, "bike_id": "f9a2f16ab0f903f4d6b55668942c44dd", "lon": -77.05227166666667, "rental_uris": {"ios": "https://dc.lft.to/lastmile_qr_scan", "android": "https://dc.lft.to/lastmile_qr_scan"}}, {"name": "1c50d027b4727b04bca2c6030739b6e0", "fusion_lat": 0.0, "type": "electric_scooter", "lat": 38.898272666666664, "is_reserved": 0, "is_disabled": 0, "fusion_lon": 0.0, "bike_id": "1c50d027b4727b04bca2c6030739b6e0", "lon": -77.03347683333334, "rental_uris": {"ios": "https://dc.lft.to/lastmile_qr_scan", "android": "https://dc.lft.to/lastmile_qr_scan"}}, {"name": "282a05bd46bf5bfb7d56f9b22c501f01", "fusion_lat": 0.0, "type": "electric_scooter", "lat": 38.91752266666667, "is_reserved": 0, "is_disabled": 0, "fusion_lon": 0.0, "bike_id": "282a05bd46bf5bfb7d56f9b22c501f01", "lon": -77.03642583333334, "rental_uris": {"ios": "https://dc.lft.to/lastmile_qr_scan", "android": "https://dc.lft.to/lastmile_qr_scan"}}, {"name": "6399bcbebf64506e18da4877a698c01b", "fusion_lat": 0.0, "type": "electric_scooter", "lat": 38.919137166666665, "is_reserved": 0, "is_disabled": 0, "fusion_lon": 0.0, "bike_id": "6399bcbebf64506e18da4877a698c01b", "lon": -77.02137133333333, "rental_uris": {"ios": "https://dc.lft.to/lastmile_qr_scan", "android": "https://dc.lft.to/lastmile_qr_scan"}}, {"name": "797291fc3d9d8d26cac4fbc220e802da", "fusion_lat": 0.0, "type": "electric_scooter", "lat": 38.90345283333333, "is_reserved": 0, "is_disabled": 0, "fusion_lon": 0.0, "bike_id": "797291fc3d9d8d26cac4fbc220e802da", "lon": -76.97564383333334, "rental_uris": {"ios": "https://dc.lft.to/lastmile_qr_scan", "android": "https://dc.lft.to/lastmile_qr_scan"}}, {"name": "1fcac0f82d828bd178057cef8e43b81f", "fusion_lat": 0.0, "type": "electric_scooter", "lat": 38.91113416666666, "is_reserved": 0, "is_disabled": 0, "fusion_lon": 0.0, "bike_id": "1fcac0f82d828bd178057cef8e43b81f", "lon": -77.03148866666666, "rental_uris": {"ios": "https://dc.lft.to/lastmile_qr_scan", "android": "https://dc.lft.to/lastmile_qr_scan"}}, {"name": "d1d7f621d6a1eccb4d92429aa10dbb1e", "fusion_lat": 0.0, "type": "electric_scooter", "lat": 38.91129216666667, "is_reserved": 0, "is_disabled": 0, "fusion_lon": 0.0, "bike_id": "d1d7f621d6a1eccb4d92429aa10dbb1e", "lon": -77.032082, "rental_uris": {"ios": "https://dc.lft.to/lastmile_qr_scan", "android": "https://dc.lft.to/lastmile_qr_scan"}}, {"name": "b349c4f99c4d193d744bd33529d6f00e", "fusion_lat": 0.0, "type": "electric_scooter", "lat": 38.87999416666667, "is_reserved": 0, "is_disabled": 0, "fusion_lon": 0.0, "bike_id": "b349c4f99c4d193d744bd33529d6f00e", "lon": -76.98537066666667, "rental_uris": {"ios": "https://dc.lft.to/lastmile_qr_scan", "android": "https://dc.lft.to/lastmile_qr_scan"}}, {"name": "dd1873be942688dba1408f07d07b477b", "fusion_lat": 0.0, "type": "electric_scooter", "lat": 38.88519066666667, "is_reserved": 0, "is_disabled": 0, "fusion_lon": 0.0, "bike_id": "dd1873be942688dba1408f07d07b477b", "lon": -77.03355783333333, "rental_uris": {"ios": "https://dc.lft.to/lastmile_qr_scan", "android": "https://dc.lft.to/lastmile_qr_scan"}}, {"name": "c60c52a96546f279add6c9eec323a76b", "fusion_lat": 0.0, "type": "electric_scooter", "lat": 38.9064895, "is_reserved": 0, "is_disabled": 0, "fusion_lon": 0.0, "bike_id": "c60c52a96546f279add6c9eec323a76b", "lon": -77.02505883333333, "rental_uris": {"ios": "https://dc.lft.to/lastmile_qr_scan", "android": "https://dc.lft.to/lastmile_qr_scan"}}, {"name": "b1e13dc383dc57143a584bb0d70396e2", "fusion_lat": 0.0, "type": "electric_scooter", "lat": 38.90340916666667, "is_reserved": 0, "is_disabled": 0, "fusion_lon": 0.0, "bike_id": "b1e13dc383dc57143a584bb0d70396e2", "lon": -76.99850666666667, "rental_uris": {"ios": "https://dc.lft.to/lastmile_qr_scan", "android": "https://dc.lft.to/lastmile_qr_scan"}}, {"name": "78a0976478975f398430754e57be75bb", "fusion_lat": 0.0, "type": "electric_bike", "lat": 38.802308, "is_reserved": 0, "is_disabled": 0, "fusion_lon": 0.0, "bike_id": "78a0976478975f398430754e57be75bb", "lon": -77.079164, "rental_uris": {"ios": "https://dc.lft.to/lastmile_qr_scan", "android": "https://dc.lft.to/lastmile_qr_scan"}}, {"name": "01844503907cc5a373b5cc641cfa6f57", "fusion_lat": 0.0, "type": "electric_scooter", "lat": 38.899311166666664, "is_reserved": 0, "is_disabled": 0, "fusion_lon": 0.0, "bike_id": "01844503907cc5a373b5cc641cfa6f57", "lon": -77.02805183333334, "rental_uris": {"ios": "https://dc.lft.to/lastmile_qr_scan", "android": "https://dc.lft.to/lastmile_qr_scan"}}, {"name": "55c3a544bc141b9011db1ae3ee9c7628", "fusion_lat": 0.0, "type": "electric_scooter", "lat": 38.93889216666667, "is_reserved": 0, "is_disabled": 0, "fusion_lon": 0.0, "bike_id": "55c3a544bc141b9011db1ae3ee9c7628", "lon": -77.02463916666666, "rental_uris": {"ios": "https://dc.lft.to/lastmile_qr_scan", "android": "https://dc.lft.to/lastmile_qr_scan"}}, {"name": "b862cf2d693ebfc71ed88b4cf080f6df", "fusion_lat": 0.0, "type": "electric_scooter", "lat": 38.879256166666664, "is_reserved": 0, "is_disabled": 0, "fusion_lon": 0.0, "bike_id": "b862cf2d693ebfc71ed88b4cf080f6df", "lon": -77.0170135, "rental_uris": {"ios": "https://dc.lft.to/lastmile_qr_scan", "android": "https://dc.lft.to/lastmile_qr_scan"}}, {"name": "aec605727d45cd7db1935e621d1ceb6c", "fusion_lat": 0.0, "type": "electric_scooter", "lat": 38.8952905, "is_reserved": 0, "is_disabled": 0, "fusion_lon": 0.0, "bike_id": "aec605727d45cd7db1935e621d1ceb6c", "lon": -77.04288466666667, "rental_uris": {"ios": "https://dc.lft.to/lastmile_qr_scan", "android": "https://dc.lft.to/lastmile_qr_scan"}}, {"name": "29bf98fcc7244b57b3a5387978b05d67", "fusion_lat": 0.0, "type": "electric_bike", "lat": 38.90688816666667, "is_reserved": 0, "is_disabled": 0, "fusion_lon": 0.0, "bike_id": "29bf98fcc7244b57b3a5387978b05d67", "lon": -76.95187983333334, "rental_uris": {"ios": "https://dc.lft.to/lastmile_qr_scan", "android": "https://dc.lft.to/lastmile_qr_scan"}}, {"name": "b1b8c428d1108bc7aedb022ccc2ac702", "fusion_lat": 0.0, "type": "electric_scooter", "lat": 38.902324166666666, "is_reserved": 0, "is_disabled": 0, "fusion_lon": 0.0, "bike_id": "b1b8c428d1108bc7aedb022ccc2ac702", "lon": -77.04439866666667, "rental_uris": {"ios": "https://dc.lft.to/lastmile_qr_scan", "android": "https://dc.lft.to/lastmile_qr_scan"}}, {"name": "8e78173b19add6a3b2f94502204ec051", "fusion_lat": 0.0, "type": "electric_scooter", "lat": 38.9341875, "is_reserved": 0, "is_disabled": 0, "fusion_lon": 0.0, "bike_id": "8e78173b19add6a3b2f94502204ec051", "lon": -77.07243983333333, "rental_uris": {"ios": "https://dc.lft.to/lastmile_qr_scan", "android": "https://dc.lft.to/lastmile_qr_scan"}}, {"name": "c426c2eb9a7d03f892a5479f84b3f62b", "fusion_lat": 0.0, "type": "electric_scooter", "lat": 38.8922815, "is_reserved": 0, "is_disabled": 0, "fusion_lon": 0.0, "bike_id": "c426c2eb9a7d03f892a5479f84b3f62b", "lon": -77.03092316666667, "rental_uris": {"ios": "https://dc.lft.to/lastmile_qr_scan", "android": "https://dc.lft.to/lastmile_qr_scan"}}, {"name": "d4c2ea875cd98c990e143cbe02840689", "fusion_lat": 0.0, "type": "electric_scooter", "lat": 38.89940266666667, "is_reserved": 0, "is_disabled": 0, "fusion_lon": 0.0, "bike_id": "d4c2ea875cd98c990e143cbe02840689", "lon": -77.03156083333333, "rental_uris": {"ios": "https://dc.lft.to/lastmile_qr_scan", "android": "https://dc.lft.to/lastmile_qr_scan"}}, {"name": "4c1955879ab823f31d62eb8b2e7140a2", "fusion_lat": 0.0, "type": "electric_scooter", "lat": 38.897318166666665, "is_reserved": 0, "is_disabled": 0, "fusion_lon": 0.0, "bike_id": "4c1955879ab823f31d62eb8b2e7140a2", "lon": -77.0311365, "rental_uris": {"ios": "https://dc.lft.to/lastmile_qr_scan", "android": "https://dc.lft.to/lastmile_qr_scan"}}, {"name": "09f4cd062dfd054261817988df999c03", "fusion_lat": 0.0, "type": "electric_scooter", "lat": 38.944546333333335, "is_reserved": 0, "is_disabled": 0, "fusion_lon": 0.0, "bike_id": "09f4cd062dfd054261817988df999c03", "lon": -77.06332783333333, "rental_uris": {"ios": "https://dc.lft.to/lastmile_qr_scan", "android": "https://dc.lft.to/lastmile_qr_scan"}}, {"name": "f61502976a4e559dd7d8d545a6430303", "fusion_lat": 0.0, "type": "electric_scooter", "lat": 38.9125055, "is_reserved": 0, "is_disabled": 0, "fusion_lon": 0.0, "bike_id": "f61502976a4e559dd7d8d545a6430303", "lon": -77.03845666666666, "rental_uris": {"ios": "https://dc.lft.to/lastmile_qr_scan", "android": "https://dc.lft.to/lastmile_qr_scan"}}, {"name": "56089ee8ec03aa449216ed5407877047", "fusion_lat": 0.0, "type": "electric_scooter", "lat": 38.90392633333333, "is_reserved": 0, "is_disabled": 0, "fusion_lon": 0.0, "bike_id": "56089ee8ec03aa449216ed5407877047", "lon": -77.01073183333334, "rental_uris": {"ios": "https://dc.lft.to/lastmile_qr_scan", "android": "https://dc.lft.to/lastmile_qr_scan"}}, {"name": "c7594111277a0d07a66b355ac940528e", "fusion_lat": 0.0, "type": "electric_scooter", "lat": 38.907520833333336, "is_reserved": 0, "is_disabled": 0, "fusion_lon": 0.0, "bike_id": "c7594111277a0d07a66b355ac940528e", "lon": -77.0322135, "rental_uris": {"ios": "https://dc.lft.to/lastmile_qr_scan", "android": "https://dc.lft.to/lastmile_qr_scan"}}, {"name": "a8078031fd709bf1d4c413615cdc4ff2", "fusion_lat": 0.0, "type": "electric_scooter", "lat": 38.928, "is_reserved": 0, "is_disabled": 0, "fusion_lon": 0.0, "bike_id": "a8078031fd709bf1d4c413615cdc4ff2", "lon": -77.04356283333334, "rental_uris": {"ios": "https://dc.lft.to/lastmile_qr_scan", "android": "https://dc.lft.to/lastmile_qr_scan"}}, {"name": "ddac0d23bc406ab9d642d7f5cb681300", "fusion_lat": 0.0, "type": "electric_scooter", "lat": 38.93079133333333, "is_reserved": 0, "is_disabled": 0, "fusion_lon": 0.0, "bike_id": "ddac0d23bc406ab9d642d7f5cb681300", "lon": -77.028101, "rental_uris": {"ios": "https://dc.lft.to/lastmile_qr_scan", "android": "https://dc.lft.to/lastmile_qr_scan"}}, {"name": "867c5516bab3f191df840c2eae9557de", "fusion_lat": 0.0, "type": "electric_bike", "lat": 38.8910635, "is_reserved": 0, "is_disabled": 0, "fusion_lon": 0.0, "bike_id": "867c5516bab3f191df840c2eae9557de", "lon": -77.00317416666667, "rental_uris": {"ios": "https://dc.lft.to/lastmile_qr_scan", "android": "https://dc.lft.to/lastmile_qr_scan"}}, {"name": "95ac9c26bf6e021fff8081213631107e", "fusion_lat": 0.0, "type": "electric_scooter", "lat": 38.912355, "is_reserved": 0, "is_disabled": 0, "fusion_lon": 0.0, "bike_id": "95ac9c26bf6e021fff8081213631107e", "lon": -77.03840216666667, "rental_uris": {"ios": "https://dc.lft.to/lastmile_qr_scan", "android": "https://dc.lft.to/lastmile_qr_scan"}}, {"name": "88970f6e2689da7ca1488e7ea73ae525", "fusion_lat": 0.0, "type": "electric_scooter", "lat": 38.90671966666667, "is_reserved": 0, "is_disabled": 0, "fusion_lon": 0.0, "bike_id": "88970f6e2689da7ca1488e7ea73ae525", "lon": -77.03764583333333, "rental_uris": {"ios": "https://dc.lft.to/lastmile_qr_scan", "android": "https://dc.lft.to/lastmile_qr_scan"}}, {"name": "53e2598494f15c45b4568a898997c206", "fusion_lat": 0.0, "type": "electric_scooter", "lat": 38.923619, "is_reserved": 0, "is_disabled": 0, "fusion_lon": 0.0, "bike_id": "53e2598494f15c45b4568a898997c206", "lon": -77.050809, "rental_uris": {"ios": "https://dc.lft.to/lastmile_qr_scan", "android": "https://dc.lft.to/lastmile_qr_scan"}}, {"name": "d8eb4af3f92120cbf1a6f4bd1aaed98b", "fusion_lat": 0.0, "type": "electric_scooter", "lat": 38.93416633333333, "is_reserved": 0, "is_disabled": 0, "fusion_lon": 0.0, "bike_id": "d8eb4af3f92120cbf1a6f4bd1aaed98b", "lon": -77.02613516666666, "rental_uris": {"ios": "https://dc.lft.to/lastmile_qr_scan", "android": "https://dc.lft.to/lastmile_qr_scan"}}, {"name": "a77953bdfca631e426b7c640852b48c6", "fusion_lat": 0.0, "type": "electric_scooter", "lat": 38.9429275, "is_reserved": 0, "is_disabled": 0, "fusion_lon": 0.0, "bike_id": "a77953bdfca631e426b7c640852b48c6", "lon": -77.0278855, "rental_uris": {"ios": "https://dc.lft.to/lastmile_qr_scan", "android": "https://dc.lft.to/lastmile_qr_scan"}}, {"name": "a27cb5cecbe6f0e1c4250064ce36ff08", "fusion_lat": 0.0, "type": "electric_scooter", "lat": 38.9033115, "is_reserved": 0, "is_disabled": 0, "fusion_lon": 0.0, "bike_id": "a27cb5cecbe6f0e1c4250064ce36ff08", "lon": -77.03857983333333, "rental_uris": {"ios": "https://dc.lft.to/lastmile_qr_scan", "android": "https://dc.lft.to/lastmile_qr_scan"}}, {"name": "cc0eae8dcbbb9dcb2af54804fe8fa781", "fusion_lat": 0.0, "type": "electric_scooter", "lat": 38.905371, "is_reserved": 0, "is_disabled": 0, "fusion_lon": 0.0, "bike_id": "cc0eae8dcbbb9dcb2af54804fe8fa781", "lon": -77.0522075, "rental_uris": {"ios": "https://dc.lft.to/lastmile_qr_scan", "android": "https://dc.lft.to/lastmile_qr_scan"}}, {"name": "595592c6c77bed0cddd5419d81a85538", "fusion_lat": 0.0, "type": "electric_scooter", "lat": 38.943101666666664, "is_reserved": 0, "is_disabled": 0, "fusion_lon": 0.0, "bike_id": "595592c6c77bed0cddd5419d81a85538", "lon": -77.05926083333334, "rental_uris": {"ios": "https://dc.lft.to/lastmile_qr_scan", "android": "https://dc.lft.to/lastmile_qr_scan"}}, {"name": "1e515276c2f22775635301e0e28ae735", "fusion_lat": 0.0, "type": "electric_bike", "lat": 39.038842, "is_reserved": 0, "is_disabled": 0, "fusion_lon": 0.0, "bike_id": "1e515276c2f22775635301e0e28ae735", "lon": -76.99043233333333, "rental_uris": {"ios": "https://dc.lft.to/lastmile_qr_scan", "android": "https://dc.lft.to/lastmile_qr_scan"}}, {"name": "1d7ed8292ca3667f6b501b49b6c17d83", "fusion_lat": 0.0, "type": "electric_scooter", "lat": 38.90820866666667, "is_reserved": 0, "is_disabled": 0, "fusion_lon": 0.0, "bike_id": "1d7ed8292ca3667f6b501b49b6c17d83", "lon": -77.03944016666667, "rental_uris": {"ios": "https://dc.lft.to/lastmile_qr_scan", "android": "https://dc.lft.to/lastmile_qr_scan"}}, {"name": "5de274f07fc0220e59b67082deade81a", "fusion_lat": 0.0, "type": "electric_scooter", "lat": 38.91710633333334, "is_reserved": 0, "is_disabled": 0, "fusion_lon": 0.0, "bike_id": "5de274f07fc0220e59b67082deade81a", "lon": -77.0335145, "rental_uris": {"ios": "https://dc.lft.to/lastmile_qr_scan", "android": "https://dc.lft.to/lastmile_qr_scan"}}, {"name": "c7bcdc08dbbc585943059b770dac809c", "fusion_lat": 0.0, "type": "electric_scooter", "lat": 38.90374833333333, "is_reserved": 0, "is_disabled": 0, "fusion_lon": 0.0, "bike_id": "c7bcdc08dbbc585943059b770dac809c", "lon": -77.028792, "rental_uris": {"ios": "https://dc.lft.to/lastmile_qr_scan", "android": "https://dc.lft.to/lastmile_qr_scan"}}, {"name": "2fc6ad2f99b0343faa662ed5fa3fd549", "fusion_lat": 0.0, "type": "electric_scooter", "lat": 38.88511183333333, "is_reserved": 0, "is_disabled": 0, "fusion_lon": 0.0, "bike_id": "2fc6ad2f99b0343faa662ed5fa3fd549", "lon": -77.03070366666667, "rental_uris": {"ios": "https://dc.lft.to/lastmile_qr_scan", "android": "https://dc.lft.to/lastmile_qr_scan"}}, {"name": "0606afe6993bf46d9289bba73f529a47", "fusion_lat": 0.0, "type": "electric_scooter", "lat": 38.90070083333333, "is_reserved": 0, "is_disabled": 0, "fusion_lon": 0.0, "bike_id": "0606afe6993bf46d9289bba73f529a47", "lon": -77.04506366666666, "rental_uris": {"ios": "https://dc.lft.to/lastmile_qr_scan", "android": "https://dc.lft.to/lastmile_qr_scan"}}, {"name": "02b084281c84fa7652d2fac66679f36e", "fusion_lat": 0.0, "type": "electric_scooter", "lat": 38.90471466666666, "is_reserved": 0, "is_disabled": 0, "fusion_lon": 0.0, "bike_id": "02b084281c84fa7652d2fac66679f36e", "lon": -77.038387, "rental_uris": {"ios": "https://dc.lft.to/lastmile_qr_scan", "android": "https://dc.lft.to/lastmile_qr_scan"}}, {"name": "919d40d4bbd0b5a6a50b476e11a6e544", "fusion_lat": 0.0, "type": "electric_scooter", "lat": 38.901515, "is_reserved": 0, "is_disabled": 0, "fusion_lon": 0.0, "bike_id": "919d40d4bbd0b5a6a50b476e11a6e544", "lon": -77.04686766666667, "rental_uris": {"ios": "https://dc.lft.to/lastmile_qr_scan", "android": "https://dc.lft.to/lastmile_qr_scan"}}, {"name": "edd58f3f6fd838406b121f3052340d3d", "fusion_lat": 0.0, "type": "electric_scooter", "lat": 38.9420745, "is_reserved": 0, "is_disabled": 0, "fusion_lon": 0.0, "bike_id": "edd58f3f6fd838406b121f3052340d3d", "lon": -77.02517083333333, "rental_uris": {"ios": "https://dc.lft.to/lastmile_qr_scan", "android": "https://dc.lft.to/lastmile_qr_scan"}}, {"name": "be960931f41c4e7a11de8682b70f9920", "fusion_lat": 0.0, "type": "electric_scooter", "lat": 38.93434283333333, "is_reserved": 0, "is_disabled": 0, "fusion_lon": 0.0, "bike_id": "be960931f41c4e7a11de8682b70f9920", "lon": -77.039983, "rental_uris": {"ios": "https://dc.lft.to/lastmile_qr_scan", "android": "https://dc.lft.to/lastmile_qr_scan"}}, {"name": "750b9d182ae8aa006865be19a60b6284", "fusion_lat": 0.0, "type": "electric_bike", "lat": 38.88120683333333, "is_reserved": 0, "is_disabled": 0, "fusion_lon": 0.0, "bike_id": "750b9d182ae8aa006865be19a60b6284", "lon": -77.01346433333333, "rental_uris": {"ios": "https://dc.lft.to/lastmile_qr_scan", "android": "https://dc.lft.to/lastmile_qr_scan"}}, {"name": "c81dd107dd8318a29d391afa3818e1e1", "fusion_lat": 0.0, "type": "electric_bike", "lat": 38.84294516666667, "is_reserved": 0, "is_disabled": 0, "fusion_lon": 0.0, "bike_id": "c81dd107dd8318a29d391afa3818e1e1", "lon": -76.98841516666667, "rental_uris": {"ios": "https://dc.lft.to/lastmile_qr_scan", "android": "https://dc.lft.to/lastmile_qr_scan"}}, {"name": "535d5cf7e114c2b770c25a9613f0e01b", "fusion_lat": 0.0, "type": "electric_scooter", "lat": 38.903499833333335, "is_reserved": 0, "is_disabled": 0, "fusion_lon": 0.0, "bike_id": "535d5cf7e114c2b770c25a9613f0e01b", "lon": -77.053117, "rental_uris": {"ios": "https://dc.lft.to/lastmile_qr_scan", "android": "https://dc.lft.to/lastmile_qr_scan"}}, {"name": "c5e274613f8217efb6b554b7d1e7d0ee", "fusion_lat": 0.0, "type": "electric_scooter", "lat": 38.892263666666665, "is_reserved": 0, "is_disabled": 0, "fusion_lon": 0.0, "bike_id": "c5e274613f8217efb6b554b7d1e7d0ee", "lon": -77.03093266666667, "rental_uris": {"ios": "https://dc.lft.to/lastmile_qr_scan", "android": "https://dc.lft.to/lastmile_qr_scan"}}, {"name": "44b4e5cf7a00fcf08943456aa7f52734", "fusion_lat": 0.0, "type": "electric_bike", "lat": 38.831541, "is_reserved": 0, "is_disabled": 0, "fusion_lon": 0.0, "bike_id": "44b4e5cf7a00fcf08943456aa7f52734", "lon": -77.11315283333333, "rental_uris": {"ios": "https://dc.lft.to/lastmile_qr_scan", "android": "https://dc.lft.to/lastmile_qr_scan"}}, {"name": "e5c41fddd1355f667b1934926acf5a75", "fusion_lat": 0.0, "type": "electric_scooter", "lat": 38.9005915, "is_reserved": 0, "is_disabled": 0, "fusion_lon": 0.0, "bike_id": "e5c41fddd1355f667b1934926acf5a75", "lon": -77.00219483333333, "rental_uris": {"ios": "https://dc.lft.to/lastmile_qr_scan", "android": "https://dc.lft.to/lastmile_qr_scan"}}, {"name": "eaa057a5688b44485ad6ad1e42fa4184", "fusion_lat": 0.0, "type": "electric_bike", "lat": 38.92434733333333, "is_reserved": 0, "is_disabled": 0, "fusion_lon": 0.0, "bike_id": "eaa057a5688b44485ad6ad1e42fa4184", "lon": -76.991365, "rental_uris": {"ios": "https://dc.lft.to/lastmile_qr_scan", "android": "https://dc.lft.to/lastmile_qr_scan"}}, {"name": "1d8f73663aef55e57f759c7b45cc803f", "fusion_lat": 0.0, "type": "electric_scooter", "lat": 38.905193, "is_reserved": 0, "is_disabled": 0, "fusion_lon": 0.0, "bike_id": "1d8f73663aef55e57f759c7b45cc803f", "lon": -77.03458566666667, "rental_uris": {"ios": "https://dc.lft.to/lastmile_qr_scan", "android": "https://dc.lft.to/lastmile_qr_scan"}}, {"name": "d8fae1721e14e89473566fff7dadfa7e", "fusion_lat": 0.0, "type": "electric_scooter", "lat": 38.917873166666666, "is_reserved": 0, "is_disabled": 0, "fusion_lon": 0.0, "bike_id": "d8fae1721e14e89473566fff7dadfa7e", "lon": -77.0429775, "rental_uris": {"ios": "https://dc.lft.to/lastmile_qr_scan", "android": "https://dc.lft.to/lastmile_qr_scan"}}, {"name": "8215a1dd1afc7a245eac5d24f1aef3d2", "fusion_lat": 0.0, "type": "electric_scooter", "lat": 38.92826633333333, "is_reserved": 0, "is_disabled": 0, "fusion_lon": 0.0, "bike_id": "8215a1dd1afc7a245eac5d24f1aef3d2", "lon": -77.02263583333334, "rental_uris": {"ios": "https://dc.lft.to/lastmile_qr_scan", "android": "https://dc.lft.to/lastmile_qr_scan"}}, {"name": "11253d4ea73d04375f16fdab446534eb", "fusion_lat": 0.0, "type": "electric_bike", "lat": 38.85225233333333, "is_reserved": 0, "is_disabled": 0, "fusion_lon": 0.0, "bike_id": "11253d4ea73d04375f16fdab446534eb", "lon": -77.12963633333334, "rental_uris": {"ios": "https://dc.lft.to/lastmile_qr_scan", "android": "https://dc.lft.to/lastmile_qr_scan"}}, {"name": "282c3d5dffb93418d145a8147ae0d319", "fusion_lat": 0.0, "type": "electric_scooter", "lat": 38.91618, "is_reserved": 0, "is_disabled": 0, "fusion_lon": 0.0, "bike_id": "282c3d5dffb93418d145a8147ae0d319", "lon": -77.03168233333334, "rental_uris": {"ios": "https://dc.lft.to/lastmile_qr_scan", "android": "https://dc.lft.to/lastmile_qr_scan"}}, {"name": "26a8b125ac4b59036819bb5fbb554996", "fusion_lat": 0.0, "type": "electric_scooter", "lat": 38.911163, "is_reserved": 0, "is_disabled": 0, "fusion_lon": 0.0, "bike_id": "26a8b125ac4b59036819bb5fbb554996", "lon": -77.04240966666667, "rental_uris": {"ios": "https://dc.lft.to/lastmile_qr_scan", "android": "https://dc.lft.to/lastmile_qr_scan"}}, {"name": "9cc397d1d1e55f6f8353803f505b30c1", "fusion_lat": 0.0, "type": "electric_scooter", "lat": 38.93949216666667, "is_reserved": 0, "is_disabled": 0, "fusion_lon": 0.0, "bike_id": "9cc397d1d1e55f6f8353803f505b30c1", "lon": -77.0327135, "rental_uris": {"ios": "https://dc.lft.to/lastmile_qr_scan", "android": "https://dc.lft.to/lastmile_qr_scan"}}, {"name": "cdc9b1b4315514ac8adddac26abf924d", "fusion_lat": 0.0, "type": "electric_scooter", "lat": 38.93956333333333, "is_reserved": 0, "is_disabled": 0, "fusion_lon": 0.0, "bike_id": "cdc9b1b4315514ac8adddac26abf924d", "lon": -77.03272583333333, "rental_uris": {"ios": "https://dc.lft.to/lastmile_qr_scan", "android": "https://dc.lft.to/lastmile_qr_scan"}}, {"name": "752cdbde5a08ad297d3d71a2b3b33643", "fusion_lat": 0.0, "type": "electric_bike", "lat": 38.98452866666667, "is_reserved": 0, "is_disabled": 0, "fusion_lon": 0.0, "bike_id": "752cdbde5a08ad297d3d71a2b3b33643", "lon": -76.95526033333333, "rental_uris": {"ios": "https://dc.lft.to/lastmile_qr_scan", "android": "https://dc.lft.to/lastmile_qr_scan"}}, {"name": "a1a98ee625bc1d58c0d2e3c95d9b1dfc", "fusion_lat": 0.0, "type": "electric_scooter", "lat": 38.880495, "is_reserved": 0, "is_disabled": 0, "fusion_lon": 0.0, "bike_id": "a1a98ee625bc1d58c0d2e3c95d9b1dfc", "lon": -76.9598785, "rental_uris": {"ios": "https://dc.lft.to/lastmile_qr_scan", "android": "https://dc.lft.to/lastmile_qr_scan"}}, {"name": "ac622883006e28f58b1bc2db42f39f65", "fusion_lat": 0.0, "type": "electric_bike", "lat": 38.8660075, "is_reserved": 0, "is_disabled": 0, "fusion_lon": 0.0, "bike_id": "ac622883006e28f58b1bc2db42f39f65", "lon": -76.93228366666666, "rental_uris": {"ios": "https://dc.lft.to/lastmile_qr_scan", "android": "https://dc.lft.to/lastmile_qr_scan"}}, {"name": "bddb567bba444fdc8df4a5b643cf872e", "fusion_lat": 0.0, "type": "electric_scooter", "lat": 38.902787833333335, "is_reserved": 0, "is_disabled": 0, "fusion_lon": 0.0, "bike_id": "bddb567bba444fdc8df4a5b643cf872e", "lon": -77.04064383333333, "rental_uris": {"ios": "https://dc.lft.to/lastmile_qr_scan", "android": "https://dc.lft.to/lastmile_qr_scan"}}, {"name": "01115c65319a96e06b6a492fa536ace8", "fusion_lat": 0.0, "type": "electric_scooter", "lat": 38.9157505, "is_reserved": 0, "is_disabled": 0, "fusion_lon": 0.0, "bike_id": "01115c65319a96e06b6a492fa536ace8", "lon": -77.03200816666667, "rental_uris": {"ios": "https://dc.lft.to/lastmile_qr_scan", "android": "https://dc.lft.to/lastmile_qr_scan"}}, {"name": "abc033ce459a237a6c3c92322f80725a", "fusion_lat": 0.0, "type": "electric_scooter", "lat": 38.87788066666667, "is_reserved": 0, "is_disabled": 0, "fusion_lon": 0.0, "bike_id": "abc033ce459a237a6c3c92322f80725a", "lon": -76.99409966666667, "rental_uris": {"ios": "https://dc.lft.to/lastmile_qr_scan", "android": "https://dc.lft.to/lastmile_qr_scan"}}, {"name": "aa0bb109b743de57ce4d434e9a17e150", "fusion_lat": 0.0, "type": "electric_bike", "lat": 38.87893733333333, "is_reserved": 0, "is_disabled": 0, "fusion_lon": 0.0, "bike_id": "aa0bb109b743de57ce4d434e9a17e150", "lon": -77.0231105, "rental_uris": {"ios": "https://dc.lft.to/lastmile_qr_scan", "android": "https://dc.lft.to/lastmile_qr_scan"}}, {"name": "3b549d3e12428dd230d80bd2353ebb1d", "fusion_lat": 0.0, "type": "electric_bike", "lat": 38.8323495, "is_reserved": 0, "is_disabled": 0, "fusion_lon": 0.0, "bike_id": "3b549d3e12428dd230d80bd2353ebb1d", "lon": -77.007256, "rental_uris": {"ios": "https://dc.lft.to/lastmile_qr_scan", "android": "https://dc.lft.to/lastmile_qr_scan"}}, {"name": "ceed77d56bd9ad759a76debba4967d2e", "fusion_lat": 0.0, "type": "electric_scooter", "lat": 38.917269833333336, "is_reserved": 0, "is_disabled": 0, "fusion_lon": 0.0, "bike_id": "ceed77d56bd9ad759a76debba4967d2e", "lon": -77.03839516666666, "rental_uris": {"ios": "https://dc.lft.to/lastmile_qr_scan", "android": "https://dc.lft.to/lastmile_qr_scan"}}, {"name": "aa26ce3d5a81786301944c38ac39e858", "fusion_lat": 0.0, "type": "electric_scooter", "lat": 38.919523, "is_reserved": 0, "is_disabled": 0, "fusion_lon": 0.0, "bike_id": "aa26ce3d5a81786301944c38ac39e858", "lon": -77.01388966666667, "rental_uris": {"ios": "https://dc.lft.to/lastmile_qr_scan", "android": "https://dc.lft.to/lastmile_qr_scan"}}, {"name": "957b55f7c729e7238b690a6a22b55d03", "fusion_lat": 0.0, "type": "electric_scooter", "lat": 38.92900216666666, "is_reserved": 0, "is_disabled": 0, "fusion_lon": 0.0, "bike_id": "957b55f7c729e7238b690a6a22b55d03", "lon": -77.054692, "rental_uris": {"ios": "https://dc.lft.to/lastmile_qr_scan", "android": "https://dc.lft.to/lastmile_qr_scan"}}, {"name": "95549a698ce5610323a8e02cd6b4b6be", "fusion_lat": 0.0, "type": "electric_scooter", "lat": 38.90491333333333, "is_reserved": 0, "is_disabled": 0, "fusion_lon": 0.0, "bike_id": "95549a698ce5610323a8e02cd6b4b6be", "lon": -77.04169033333334, "rental_uris": {"ios": "https://dc.lft.to/lastmile_qr_scan", "android": "https://dc.lft.to/lastmile_qr_scan"}}, {"name": "b57d31d72b8f65cd3013a9cda8742963", "fusion_lat": 0.0, "type": "electric_scooter", "lat": 38.928825333333336, "is_reserved": 0, "is_disabled": 0, "fusion_lon": 0.0, "bike_id": "b57d31d72b8f65cd3013a9cda8742963", "lon": -77.04123266666667, "rental_uris": {"ios": "https://dc.lft.to/lastmile_qr_scan", "android": "https://dc.lft.to/lastmile_qr_scan"}}, {"name": "5a88e3984f6b1d7b766922e03a429e59", "fusion_lat": 0.0, "type": "electric_scooter", "lat": 38.91485616666667, "is_reserved": 0, "is_disabled": 0, "fusion_lon": 0.0, "bike_id": "5a88e3984f6b1d7b766922e03a429e59", "lon": -77.00981616666667, "rental_uris": {"ios": "https://dc.lft.to/lastmile_qr_scan", "android": "https://dc.lft.to/lastmile_qr_scan"}}, {"name": "b0fd068cb6bff487a1fdb03b2f81f8b3", "fusion_lat": 0.0, "type": "electric_scooter", "lat": 38.933699, "is_reserved": 0, "is_disabled": 0, "fusion_lon": 0.0, "bike_id": "b0fd068cb6bff487a1fdb03b2f81f8b3", "lon": -77.05731333333334, "rental_uris": {"ios": "https://dc.lft.to/lastmile_qr_scan", "android": "https://dc.lft.to/lastmile_qr_scan"}}, {"name": "cd95da81267e5a07eac8b683c574ca92", "fusion_lat": 0.0, "type": "electric_bike", "lat": 38.954822666666665, "is_reserved": 0, "is_disabled": 0, "fusion_lon": 0.0, "bike_id": "cd95da81267e5a07eac8b683c574ca92", "lon": -77.0823975, "rental_uris": {"ios": "https://dc.lft.to/lastmile_qr_scan", "android": "https://dc.lft.to/lastmile_qr_scan"}}, {"name": "522a2ccf4126ebb39189867b2fc8decc", "fusion_lat": 0.0, "type": "electric_scooter", "lat": 38.933059, "is_reserved": 0, "is_disabled": 0, "fusion_lon": 0.0, "bike_id": "522a2ccf4126ebb39189867b2fc8decc", "lon": -77.02467633333333, "rental_uris": {"ios": "https://dc.lft.to/lastmile_qr_scan", "android": "https://dc.lft.to/lastmile_qr_scan"}}, {"name": "353c89aba92efc3398e4b8fb07153d08", "fusion_lat": 0.0, "type": "electric_scooter", "lat": 38.89557683333334, "is_reserved": 0, "is_disabled": 0, "fusion_lon": 0.0, "bike_id": "353c89aba92efc3398e4b8fb07153d08", "lon": -77.046856, "rental_uris": {"ios": "https://dc.lft.to/lastmile_qr_scan", "android": "https://dc.lft.to/lastmile_qr_scan"}}, {"name": "a09937b8e78ea7287834b8fd5ca3e4d7", "fusion_lat": 0.0, "type": "electric_scooter", "lat": 38.8967095, "is_reserved": 0, "is_disabled": 0, "fusion_lon": 0.0, "bike_id": "a09937b8e78ea7287834b8fd5ca3e4d7", "lon": -77.04891866666667, "rental_uris": {"ios": "https://dc.lft.to/lastmile_qr_scan", "android": "https://dc.lft.to/lastmile_qr_scan"}}, {"name": "f0a6285580e833d1aa6224c91a808258", "fusion_lat": 0.0, "type": "electric_scooter", "lat": 38.924231, "is_reserved": 0, "is_disabled": 0, "fusion_lon": 0.0, "bike_id": "f0a6285580e833d1aa6224c91a808258", "lon": -77.01949516666667, "rental_uris": {"ios": "https://dc.lft.to/lastmile_qr_scan", "android": "https://dc.lft.to/lastmile_qr_scan"}}, {"name": "fc5bf4bd1408da49810c5634eeda071a", "fusion_lat": 0.0, "type": "electric_scooter", "lat": 38.911170166666665, "is_reserved": 0, "is_disabled": 0, "fusion_lon": 0.0, "bike_id": "fc5bf4bd1408da49810c5634eeda071a", "lon": -77.0348215, "rental_uris": {"ios": "https://dc.lft.to/lastmile_qr_scan", "android": "https://dc.lft.to/lastmile_qr_scan"}}, {"name": "58f5e541d851220d2571f86fe3734f26", "fusion_lat": 0.0, "type": "electric_scooter", "lat": 38.92366216666667, "is_reserved": 0, "is_disabled": 0, "fusion_lon": 0.0, "bike_id": "58f5e541d851220d2571f86fe3734f26", "lon": -77.05035266666667, "rental_uris": {"ios": "https://dc.lft.to/lastmile_qr_scan", "android": "https://dc.lft.to/lastmile_qr_scan"}}, {"name": "96322e5d3922f682ea9007a8cf79c2c0", "fusion_lat": 0.0, "type": "electric_scooter", "lat": 38.88530166666666, "is_reserved": 0, "is_disabled": 0, "fusion_lon": 0.0, "bike_id": "96322e5d3922f682ea9007a8cf79c2c0", "lon": -77.00580483333333, "rental_uris": {"ios": "https://dc.lft.to/lastmile_qr_scan", "android": "https://dc.lft.to/lastmile_qr_scan"}}, {"name": "8afb1956b9a9798cd57103080a5880bb", "fusion_lat": 0.0, "type": "electric_scooter", "lat": 38.90572916666667, "is_reserved": 0, "is_disabled": 0, "fusion_lon": 0.0, "bike_id": "8afb1956b9a9798cd57103080a5880bb", "lon": -77.02218016666667, "rental_uris": {"ios": "https://dc.lft.to/lastmile_qr_scan", "android": "https://dc.lft.to/lastmile_qr_scan"}}, {"name": "84468cb42f42ffe929b9ed9606a8e6c1", "fusion_lat": 0.0, "type": "electric_scooter", "lat": 38.942817833333336, "is_reserved": 0, "is_disabled": 0, "fusion_lon": 0.0, "bike_id": "84468cb42f42ffe929b9ed9606a8e6c1", "lon": -77.02503683333333, "rental_uris": {"ios": "https://dc.lft.to/lastmile_qr_scan", "android": "https://dc.lft.to/lastmile_qr_scan"}}, {"name": "073a8cb89401798b96aec642ebb4eac8", "fusion_lat": 0.0, "type": "electric_scooter", "lat": 38.90506366666666, "is_reserved": 0, "is_disabled": 0, "fusion_lon": 0.0, "bike_id": "073a8cb89401798b96aec642ebb4eac8", "lon": -76.9945065, "rental_uris": {"ios": "https://dc.lft.to/lastmile_qr_scan", "android": "https://dc.lft.to/lastmile_qr_scan"}}, {"name": "69b2997e6cffc5f2bbf65271f8a1a294", "fusion_lat": 0.0, "type": "electric_scooter", "lat": 38.86663766666667, "is_reserved": 0, "is_disabled": 0, "fusion_lon": 0.0, "bike_id": "69b2997e6cffc5f2bbf65271f8a1a294", "lon": -76.98882383333333, "rental_uris": {"ios": "https://dc.lft.to/lastmile_qr_scan", "android": "https://dc.lft.to/lastmile_qr_scan"}}, {"name": "b930bdfdc2dafd2e8de4188395ea635f", "fusion_lat": 0.0, "type": "electric_scooter", "lat": 38.9263075, "is_reserved": 0, "is_disabled": 0, "fusion_lon": 0.0, "bike_id": "b930bdfdc2dafd2e8de4188395ea635f", "lon": -77.03709866666667, "rental_uris": {"ios": "https://dc.lft.to/lastmile_qr_scan", "android": "https://dc.lft.to/lastmile_qr_scan"}}, {"name": "f22169d765aaff0a020175db29861761", "fusion_lat": 0.0, "type": "electric_scooter", "lat": 38.896167166666665, "is_reserved": 0, "is_disabled": 0, "fusion_lon": 0.0, "bike_id": "f22169d765aaff0a020175db29861761", "lon": -77.0220685, "rental_uris": {"ios": "https://dc.lft.to/lastmile_qr_scan", "android": "https://dc.lft.to/lastmile_qr_scan"}}, {"name": "d979615003df7fabd7d0815bc86dadf7", "fusion_lat": 0.0, "type": "electric_scooter", "lat": 38.906379333333334, "is_reserved": 0, "is_disabled": 0, "fusion_lon": 0.0, "bike_id": "d979615003df7fabd7d0815bc86dadf7", "lon": -77.038716, "rental_uris": {"ios": "https://dc.lft.to/lastmile_qr_scan", "android": "https://dc.lft.to/lastmile_qr_scan"}}, {"name": "b3683c816c1e1e5efd2a4e49b9c5d64d", "fusion_lat": 0.0, "type": "electric_scooter", "lat": 38.90257366666667, "is_reserved": 0, "is_disabled": 0, "fusion_lon": 0.0, "bike_id": "b3683c816c1e1e5efd2a4e49b9c5d64d", "lon": -77.046189, "rental_uris": {"ios": "https://dc.lft.to/lastmile_qr_scan", "android": "https://dc.lft.to/lastmile_qr_scan"}}, {"name": "29b5e6df35d771e596e10c45e1d1e634", "fusion_lat": 0.0, "type": "electric_scooter", "lat": 38.925181, "is_reserved": 0, "is_disabled": 0, "fusion_lon": 0.0, "bike_id": "29b5e6df35d771e596e10c45e1d1e634", "lon": -77.00214166666666, "rental_uris": {"ios": "https://dc.lft.to/lastmile_qr_scan", "android": "https://dc.lft.to/lastmile_qr_scan"}}, {"name": "cedbb4f087bd056ceca2ecb473389d61", "fusion_lat": 0.0, "type": "electric_bike", "lat": 38.8755665, "is_reserved": 0, "is_disabled": 0, "fusion_lon": 0.0, "bike_id": "cedbb4f087bd056ceca2ecb473389d61", "lon": -76.96755516666667, "rental_uris": {"ios": "https://dc.lft.to/lastmile_qr_scan", "android": "https://dc.lft.to/lastmile_qr_scan"}}, {"name": "27e0ac3681f7f177f14ee3d48a95d2c0", "fusion_lat": 0.0, "type": "electric_scooter", "lat": 38.90039433333333, "is_reserved": 0, "is_disabled": 0, "fusion_lon": 0.0, "bike_id": "27e0ac3681f7f177f14ee3d48a95d2c0", "lon": -77.0063465, "rental_uris": {"ios": "https://dc.lft.to/lastmile_qr_scan", "android": "https://dc.lft.to/lastmile_qr_scan"}}, {"name": "d09aed921ee2e6fd826a892a0590aa76", "fusion_lat": 0.0, "type": "electric_scooter", "lat": 38.89682533333333, "is_reserved": 0, "is_disabled": 0, "fusion_lon": 0.0, "bike_id": "d09aed921ee2e6fd826a892a0590aa76", "lon": -76.99626266666667, "rental_uris": {"ios": "https://dc.lft.to/lastmile_qr_scan", "android": "https://dc.lft.to/lastmile_qr_scan"}}, {"name": "aa5ad02006be4f2dcb300cc25b6211b0", "fusion_lat": 0.0, "type": "electric_scooter", "lat": 38.90743633333334, "is_reserved": 0, "is_disabled": 0, "fusion_lon": 0.0, "bike_id": "aa5ad02006be4f2dcb300cc25b6211b0", "lon": -77.046748, "rental_uris": {"ios": "https://dc.lft.to/lastmile_qr_scan", "android": "https://dc.lft.to/lastmile_qr_scan"}}, {"name": "f4d53644770ad843fc49e8a40ed8ae2f", "fusion_lat": 0.0, "type": "electric_bike", "lat": 38.8587905, "is_reserved": 0, "is_disabled": 0, "fusion_lon": 0.0, "bike_id": "f4d53644770ad843fc49e8a40ed8ae2f", "lon": -77.0955895, "rental_uris": {"ios": "https://dc.lft.to/lastmile_qr_scan", "android": "https://dc.lft.to/lastmile_qr_scan"}}, {"name": "a393ae11b57630251eb6308c9c1da4b6", "fusion_lat": 0.0, "type": "electric_scooter", "lat": 38.9072065, "is_reserved": 0, "is_disabled": 0, "fusion_lon": 0.0, "bike_id": "a393ae11b57630251eb6308c9c1da4b6", "lon": -77.025083, "rental_uris": {"ios": "https://dc.lft.to/lastmile_qr_scan", "android": "https://dc.lft.to/lastmile_qr_scan"}}, {"name": "59a6ba0c399c48eff31841ca96a5c340", "fusion_lat": 0.0, "type": "electric_scooter", "lat": 38.8953005, "is_reserved": 0, "is_disabled": 0, "fusion_lon": 0.0, "bike_id": "59a6ba0c399c48eff31841ca96a5c340", "lon": -77.01607, "rental_uris": {"ios": "https://dc.lft.to/lastmile_qr_scan", "android": "https://dc.lft.to/lastmile_qr_scan"}}, {"name": "fc700fc289a5d1816019a8cec2214876", "fusion_lat": 0.0, "type": "electric_scooter", "lat": 38.932431666666666, "is_reserved": 0, "is_disabled": 0, "fusion_lon": 0.0, "bike_id": "fc700fc289a5d1816019a8cec2214876", "lon": -77.032447, "rental_uris": {"ios": "https://dc.lft.to/lastmile_qr_scan", "android": "https://dc.lft.to/lastmile_qr_scan"}}, {"name": "292ad2f26784e1e2e52eca57bfdf7f6d", "fusion_lat": 0.0, "type": "electric_scooter", "lat": 38.92917683333334, "is_reserved": 0, "is_disabled": 0, "fusion_lon": 0.0, "bike_id": "292ad2f26784e1e2e52eca57bfdf7f6d", "lon": -77.01952416666667, "rental_uris": {"ios": "https://dc.lft.to/lastmile_qr_scan", "android": "https://dc.lft.to/lastmile_qr_scan"}}, {"name": "57df09f407d9a3c7d294d2ced4e3aacb", "fusion_lat": 0.0, "type": "electric_scooter", "lat": 38.92346116666667, "is_reserved": 0, "is_disabled": 0, "fusion_lon": 0.0, "bike_id": "57df09f407d9a3c7d294d2ced4e3aacb", "lon": -77.0509825, "rental_uris": {"ios": "https://dc.lft.to/lastmile_qr_scan", "android": "https://dc.lft.to/lastmile_qr_scan"}}, {"name": "2c37257ab2a90dc79f822df1760bd18d", "fusion_lat": 0.0, "type": "electric_bike", "lat": 38.854398833333335, "is_reserved": 0, "is_disabled": 0, "fusion_lon": 0.0, "bike_id": "2c37257ab2a90dc79f822df1760bd18d", "lon": -77.117078, "rental_uris": {"ios": "https://dc.lft.to/lastmile_qr_scan", "android": "https://dc.lft.to/lastmile_qr_scan"}}, {"name": "5aaaac6bd031529839d7d62ff751ba94", "fusion_lat": 0.0, "type": "electric_scooter", "lat": 38.8921695, "is_reserved": 0, "is_disabled": 0, "fusion_lon": 0.0, "bike_id": "5aaaac6bd031529839d7d62ff751ba94", "lon": -76.99569566666666, "rental_uris": {"ios": "https://dc.lft.to/lastmile_qr_scan", "android": "https://dc.lft.to/lastmile_qr_scan"}}, {"name": "e96c13dfe5897f31c05c33151c67698e", "fusion_lat": 0.0, "type": "electric_scooter", "lat": 38.90245133333333, "is_reserved": 0, "is_disabled": 0, "fusion_lon": 0.0, "bike_id": "e96c13dfe5897f31c05c33151c67698e", "lon": -77.03337916666666, "rental_uris": {"ios": "https://dc.lft.to/lastmile_qr_scan", "android": "https://dc.lft.to/lastmile_qr_scan"}}, {"name": "e6cfd2afcfd74c24fadc1825c6052205", "fusion_lat": 0.0, "type": "electric_scooter", "lat": 38.906466333333334, "is_reserved": 0, "is_disabled": 0, "fusion_lon": 0.0, "bike_id": "e6cfd2afcfd74c24fadc1825c6052205", "lon": -77.00612433333333, "rental_uris": {"ios": "https://dc.lft.to/lastmile_qr_scan", "android": "https://dc.lft.to/lastmile_qr_scan"}}, {"name": "df739583f55a50a2abf48589137a0819", "fusion_lat": 0.0, "type": "electric_scooter", "lat": 38.906704500000004, "is_reserved": 0, "is_disabled": 0, "fusion_lon": 0.0, "bike_id": "df739583f55a50a2abf48589137a0819", "lon": -77.03860083333333, "rental_uris": {"ios": "https://dc.lft.to/lastmile_qr_scan", "android": "https://dc.lft.to/lastmile_qr_scan"}}, {"name": "dbc031affcda9a40fb6f98e799b229f9", "fusion_lat": 0.0, "type": "electric_scooter", "lat": 38.90847616666667, "is_reserved": 0, "is_disabled": 0, "fusion_lon": 0.0, "bike_id": "dbc031affcda9a40fb6f98e799b229f9", "lon": -77.03273516666667, "rental_uris": {"ios": "https://dc.lft.to/lastmile_qr_scan", "android": "https://dc.lft.to/lastmile_qr_scan"}}, {"name": "6676cc3e35cb37e647710f96ea1ff4da", "fusion_lat": 0.0, "type": "electric_scooter", "lat": 38.932080666666664, "is_reserved": 0, "is_disabled": 0, "fusion_lon": 0.0, "bike_id": "6676cc3e35cb37e647710f96ea1ff4da", "lon": -77.03653016666667, "rental_uris": {"ios": "https://dc.lft.to/lastmile_qr_scan", "android": "https://dc.lft.to/lastmile_qr_scan"}}, {"name": "a3b7af864bacf6364335b4af1077edf2", "fusion_lat": 0.0, "type": "electric_bike", "lat": 38.900844166666666, "is_reserved": 0, "is_disabled": 0, "fusion_lon": 0.0, "bike_id": "a3b7af864bacf6364335b4af1077edf2", "lon": -77.05902216666667, "rental_uris": {"ios": "https://dc.lft.to/lastmile_qr_scan", "android": "https://dc.lft.to/lastmile_qr_scan"}}, {"name": "1a9b21c4f7ce9b5a764cb43f660fd1f5", "fusion_lat": 0.0, "type": "electric_scooter", "lat": 38.9171625, "is_reserved": 0, "is_disabled": 0, "fusion_lon": 0.0, "bike_id": "1a9b21c4f7ce9b5a764cb43f660fd1f5", "lon": -77.03553366666667, "rental_uris": {"ios": "https://dc.lft.to/lastmile_qr_scan", "android": "https://dc.lft.to/lastmile_qr_scan"}}, {"name": "467979f517dd219d84992138b8acc871", "fusion_lat": 0.0, "type": "electric_scooter", "lat": 38.91081966666667, "is_reserved": 0, "is_disabled": 0, "fusion_lon": 0.0, "bike_id": "467979f517dd219d84992138b8acc871", "lon": -77.03013966666667, "rental_uris": {"ios": "https://dc.lft.to/lastmile_qr_scan", "android": "https://dc.lft.to/lastmile_qr_scan"}}, {"name": "7370382cdf4f36d683b6a04586fa09e4", "fusion_lat": 0.0, "type": "electric_scooter", "lat": 38.898643, "is_reserved": 0, "is_disabled": 0, "fusion_lon": 0.0, "bike_id": "7370382cdf4f36d683b6a04586fa09e4", "lon": -77.0407645, "rental_uris": {"ios": "https://dc.lft.to/lastmile_qr_scan", "android": "https://dc.lft.to/lastmile_qr_scan"}}, {"name": "e2f411e6388e3630f3b828937d1f7be3", "fusion_lat": 0.0, "type": "electric_scooter", "lat": 38.912312666666665, "is_reserved": 0, "is_disabled": 0, "fusion_lon": 0.0, "bike_id": "e2f411e6388e3630f3b828937d1f7be3", "lon": -77.02955366666667, "rental_uris": {"ios": "https://dc.lft.to/lastmile_qr_scan", "android": "https://dc.lft.to/lastmile_qr_scan"}}, {"name": "7f5152c8e9eca0d0b25824c0831ce82c", "fusion_lat": 0.0, "type": "electric_scooter", "lat": 38.872725333333335, "is_reserved": 0, "is_disabled": 0, "fusion_lon": 0.0, "bike_id": "7f5152c8e9eca0d0b25824c0831ce82c", "lon": -77.01529666666667, "rental_uris": {"ios": "https://dc.lft.to/lastmile_qr_scan", "android": "https://dc.lft.to/lastmile_qr_scan"}}, {"name": "a58cf2b2bab002de076b3c90bad92c20", "fusion_lat": 0.0, "type": "electric_bike", "lat": 38.95187116666666, "is_reserved": 0, "is_disabled": 0, "fusion_lon": 0.0, "bike_id": "a58cf2b2bab002de076b3c90bad92c20", "lon": -76.93547533333333, "rental_uris": {"ios": "https://dc.lft.to/lastmile_qr_scan", "android": "https://dc.lft.to/lastmile_qr_scan"}}, {"name": "80552d06dc85c9e562cd1593d3a8fd67", "fusion_lat": 0.0, "type": "electric_scooter", "lat": 38.8976715, "is_reserved": 0, "is_disabled": 0, "fusion_lon": 0.0, "bike_id": "80552d06dc85c9e562cd1593d3a8fd67", "lon": -77.0270195, "rental_uris": {"ios": "https://dc.lft.to/lastmile_qr_scan", "android": "https://dc.lft.to/lastmile_qr_scan"}}, {"name": "315073da2a6e0cde29ee8e83655a1202", "fusion_lat": 0.0, "type": "electric_scooter", "lat": 38.938296, "is_reserved": 0, "is_disabled": 0, "fusion_lon": 0.0, "bike_id": "315073da2a6e0cde29ee8e83655a1202", "lon": -77.02651366666667, "rental_uris": {"ios": "https://dc.lft.to/lastmile_qr_scan", "android": "https://dc.lft.to/lastmile_qr_scan"}}, {"name": "d20142002c9e5a3ce1df7913ccac1047", "fusion_lat": 0.0, "type": "electric_scooter", "lat": 38.941823166666666, "is_reserved": 0, "is_disabled": 0, "fusion_lon": 0.0, "bike_id": "d20142002c9e5a3ce1df7913ccac1047", "lon": -77.02488566666666, "rental_uris": {"ios": "https://dc.lft.to/lastmile_qr_scan", "android": "https://dc.lft.to/lastmile_qr_scan"}}, {"name": "ed0a044493b6f2801c5cf46f22dca373", "fusion_lat": 0.0, "type": "electric_scooter", "lat": 38.89851016666667, "is_reserved": 0, "is_disabled": 0, "fusion_lon": 0.0, "bike_id": "ed0a044493b6f2801c5cf46f22dca373", "lon": -77.02914433333333, "rental_uris": {"ios": "https://dc.lft.to/lastmile_qr_scan", "android": "https://dc.lft.to/lastmile_qr_scan"}}, {"name": "30e5a03ab74429d3e40f2a4fdbfb825f", "fusion_lat": 0.0, "type": "electric_bike", "lat": 38.905772166666665, "is_reserved": 0, "is_disabled": 0, "fusion_lon": 0.0, "bike_id": "30e5a03ab74429d3e40f2a4fdbfb825f", "lon": -77.03810433333334, "rental_uris": {"ios": "https://dc.lft.to/lastmile_qr_scan", "android": "https://dc.lft.to/lastmile_qr_scan"}}, {"name": "1564572df479acf64dde19287bc7cf43", "fusion_lat": 0.0, "type": "electric_scooter", "lat": 38.89824683333333, "is_reserved": 0, "is_disabled": 0, "fusion_lon": 0.0, "bike_id": "1564572df479acf64dde19287bc7cf43", "lon": -77.003603, "rental_uris": {"ios": "https://dc.lft.to/lastmile_qr_scan", "android": "https://dc.lft.to/lastmile_qr_scan"}}, {"name": "7c61eea3bbcc451656d9f2a71b1b2be2", "fusion_lat": 0.0, "type": "electric_scooter", "lat": 38.8802825, "is_reserved": 0, "is_disabled": 0, "fusion_lon": 0.0, "bike_id": "7c61eea3bbcc451656d9f2a71b1b2be2", "lon": -76.93130566666666, "rental_uris": {"ios": "https://dc.lft.to/lastmile_qr_scan", "android": "https://dc.lft.to/lastmile_qr_scan"}}, {"name": "9af5b8c224390ce06b74d37cc9a9c5c5", "fusion_lat": 0.0, "type": "electric_scooter", "lat": 38.898362166666665, "is_reserved": 0, "is_disabled": 0, "fusion_lon": 0.0, "bike_id": "9af5b8c224390ce06b74d37cc9a9c5c5", "lon": -76.94640516666666, "rental_uris": {"ios": "https://dc.lft.to/lastmile_qr_scan", "android": "https://dc.lft.to/lastmile_qr_scan"}}, {"name": "394c2a21e7a5f3c57b58c06854f08635", "fusion_lat": 0.0, "type": "electric_scooter", "lat": 38.916963333333335, "is_reserved": 0, "is_disabled": 0, "fusion_lon": 0.0, "bike_id": "394c2a21e7a5f3c57b58c06854f08635", "lon": -77.02595983333333, "rental_uris": {"ios": "https://dc.lft.to/lastmile_qr_scan", "android": "https://dc.lft.to/lastmile_qr_scan"}}, {"name": "c33c6f453ec2f78267981a80056078c5", "fusion_lat": 0.0, "type": "electric_scooter", "lat": 38.9106, "is_reserved": 0, "is_disabled": 0, "fusion_lon": 0.0, "bike_id": "c33c6f453ec2f78267981a80056078c5", "lon": -77.0457905, "rental_uris": {"ios": "https://dc.lft.to/lastmile_qr_scan", "android": "https://dc.lft.to/lastmile_qr_scan"}}, {"name": "91d94291d8e2593ee606a2ef0386b07b", "fusion_lat": 0.0, "type": "electric_scooter", "lat": 38.929779, "is_reserved": 0, "is_disabled": 0, "fusion_lon": 0.0, "bike_id": "91d94291d8e2593ee606a2ef0386b07b", "lon": -77.02620233333333, "rental_uris": {"ios": "https://dc.lft.to/lastmile_qr_scan", "android": "https://dc.lft.to/lastmile_qr_scan"}}, {"name": "0d3e2310ab89c46d73186aafd36a14aa", "fusion_lat": 0.0, "type": "electric_bike", "lat": 38.89515683333333, "is_reserved": 0, "is_disabled": 0, "fusion_lon": 0.0, "bike_id": "0d3e2310ab89c46d73186aafd36a14aa", "lon": -77.04360083333333, "rental_uris": {"ios": "https://dc.lft.to/lastmile_qr_scan", "android": "https://dc.lft.to/lastmile_qr_scan"}}, {"name": "577fc59def1185dd4aa0ab550a1750da", "fusion_lat": 0.0, "type": "electric_scooter", "lat": 38.941999333333335, "is_reserved": 0, "is_disabled": 0, "fusion_lon": 0.0, "bike_id": "577fc59def1185dd4aa0ab550a1750da", "lon": -77.02517116666667, "rental_uris": {"ios": "https://dc.lft.to/lastmile_qr_scan", "android": "https://dc.lft.to/lastmile_qr_scan"}}, {"name": "7e94b2874fb8ba87f09598153edd1bbe", "fusion_lat": 0.0, "type": "electric_scooter", "lat": 38.90115516666667, "is_reserved": 0, "is_disabled": 0, "fusion_lon": 0.0, "bike_id": "7e94b2874fb8ba87f09598153edd1bbe", "lon": -77.03206716666666, "rental_uris": {"ios": "https://dc.lft.to/lastmile_qr_scan", "android": "https://dc.lft.to/lastmile_qr_scan"}}, {"name": "3132802e3852c68342399db9c8dc6267", "fusion_lat": 0.0, "type": "electric_scooter", "lat": 38.8918575, "is_reserved": 0, "is_disabled": 0, "fusion_lon": 0.0, "bike_id": "3132802e3852c68342399db9c8dc6267", "lon": -77.0033175, "rental_uris": {"ios": "https://dc.lft.to/lastmile_qr_scan", "android": "https://dc.lft.to/lastmile_qr_scan"}}, {"name": "611140823582f15244babbe3a36a7f31", "fusion_lat": 0.0, "type": "electric_scooter", "lat": 38.908398166666665, "is_reserved": 0, "is_disabled": 0, "fusion_lon": 0.0, "bike_id": "611140823582f15244babbe3a36a7f31", "lon": -77.03674766666667, "rental_uris": {"ios": "https://dc.lft.to/lastmile_qr_scan", "android": "https://dc.lft.to/lastmile_qr_scan"}}, {"name": "9bfd7d80df866e7c2a53a69000b77220", "fusion_lat": 0.0, "type": "electric_scooter", "lat": 38.89912533333333, "is_reserved": 0, "is_disabled": 0, "fusion_lon": 0.0, "bike_id": "9bfd7d80df866e7c2a53a69000b77220", "lon": -77.032899, "rental_uris": {"ios": "https://dc.lft.to/lastmile_qr_scan", "android": "https://dc.lft.to/lastmile_qr_scan"}}, {"name": "a3dbf5dbd8e7ed7467b7cf91bc155092", "fusion_lat": 0.0, "type": "electric_scooter", "lat": 38.92839266666667, "is_reserved": 0, "is_disabled": 0, "fusion_lon": 0.0, "bike_id": "a3dbf5dbd8e7ed7467b7cf91bc155092", "lon": -77.05420516666666, "rental_uris": {"ios": "https://dc.lft.to/lastmile_qr_scan", "android": "https://dc.lft.to/lastmile_qr_scan"}}, {"name": "376d7de48a7c9c170c3a83f1cc3378e9", "fusion_lat": 0.0, "type": "electric_scooter", "lat": 38.919026333333335, "is_reserved": 0, "is_disabled": 0, "fusion_lon": 0.0, "bike_id": "376d7de48a7c9c170c3a83f1cc3378e9", "lon": -77.05296833333334, "rental_uris": {"ios": "https://dc.lft.to/lastmile_qr_scan", "android": "https://dc.lft.to/lastmile_qr_scan"}}, {"name": "1a1fd333295de5ed73d7ee0447dd82ae", "fusion_lat": 0.0, "type": "electric_scooter", "lat": 38.926143, "is_reserved": 0, "is_disabled": 0, "fusion_lon": 0.0, "bike_id": "1a1fd333295de5ed73d7ee0447dd82ae", "lon": -77.02162983333334, "rental_uris": {"ios": "https://dc.lft.to/lastmile_qr_scan", "android": "https://dc.lft.to/lastmile_qr_scan"}}, {"name": "c12775b80ce6117388d88269ec82d89e", "fusion_lat": 0.0, "type": "electric_scooter", "lat": 38.89491016666667, "is_reserved": 0, "is_disabled": 0, "fusion_lon": 0.0, "bike_id": "c12775b80ce6117388d88269ec82d89e", "lon": -77.02379066666667, "rental_uris": {"ios": "https://dc.lft.to/lastmile_qr_scan", "android": "https://dc.lft.to/lastmile_qr_scan"}}, {"name": "60529d39e3590d30c4035a8a3a5fca02", "fusion_lat": 0.0, "type": "electric_bike", "lat": 38.827336333333335, "is_reserved": 0, "is_disabled": 0, "fusion_lon": 0.0, "bike_id": "60529d39e3590d30c4035a8a3a5fca02", "lon": -77.0086335, "rental_uris": {"ios": "https://dc.lft.to/lastmile_qr_scan", "android": "https://dc.lft.to/lastmile_qr_scan"}}, {"name": "3c37adedfade795b01027f54b59f09ba", "fusion_lat": 0.0, "type": "electric_scooter", "lat": 38.89622383333333, "is_reserved": 0, "is_disabled": 0, "fusion_lon": 0.0, "bike_id": "3c37adedfade795b01027f54b59f09ba", "lon": -77.0280305, "rental_uris": {"ios": "https://dc.lft.to/lastmile_qr_scan", "android": "https://dc.lft.to/lastmile_qr_scan"}}, {"name": "09aeba8326f37edae698bb7d384d3770", "fusion_lat": 0.0, "type": "electric_scooter", "lat": 38.89513916666667, "is_reserved": 0, "is_disabled": 0, "fusion_lon": 0.0, "bike_id": "09aeba8326f37edae698bb7d384d3770", "lon": -76.94892066666667, "rental_uris": {"ios": "https://dc.lft.to/lastmile_qr_scan", "android": "https://dc.lft.to/lastmile_qr_scan"}}, {"name": "c04bb11aab4b220d45cac95bfaca075c", "fusion_lat": 0.0, "type": "electric_scooter", "lat": 38.896904166666666, "is_reserved": 0, "is_disabled": 0, "fusion_lon": 0.0, "bike_id": "c04bb11aab4b220d45cac95bfaca075c", "lon": -77.01209483333334, "rental_uris": {"ios": "https://dc.lft.to/lastmile_qr_scan", "android": "https://dc.lft.to/lastmile_qr_scan"}}, {"name": "f4a6937f6351ce45aada7c1d9d5bf60b", "fusion_lat": 0.0, "type": "electric_scooter", "lat": 38.923661833333334, "is_reserved": 0, "is_disabled": 0, "fusion_lon": 0.0, "bike_id": "f4a6937f6351ce45aada7c1d9d5bf60b", "lon": -77.0503105, "rental_uris": {"ios": "https://dc.lft.to/lastmile_qr_scan", "android": "https://dc.lft.to/lastmile_qr_scan"}}, {"name": "50a51492003c9069a450535c6d12bc6f", "fusion_lat": 0.0, "type": "electric_bike", "lat": 38.959361666666666, "is_reserved": 0, "is_disabled": 0, "fusion_lon": 0.0, "bike_id": "50a51492003c9069a450535c6d12bc6f", "lon": -76.925287, "rental_uris": {"ios": "https://dc.lft.to/lastmile_qr_scan", "android": "https://dc.lft.to/lastmile_qr_scan"}}, {"name": "a171cb6e7f7591076245425104efeb31", "fusion_lat": 0.0, "type": "electric_scooter", "lat": 38.90971733333333, "is_reserved": 0, "is_disabled": 0, "fusion_lon": 0.0, "bike_id": "a171cb6e7f7591076245425104efeb31", "lon": -77.011236, "rental_uris": {"ios": "https://dc.lft.to/lastmile_qr_scan", "android": "https://dc.lft.to/lastmile_qr_scan"}}, {"name": "0873fcb22bfed01fd426b9fd55fcb8ad", "fusion_lat": 0.0, "type": "electric_scooter", "lat": 38.908225333333334, "is_reserved": 0, "is_disabled": 0, "fusion_lon": 0.0, "bike_id": "0873fcb22bfed01fd426b9fd55fcb8ad", "lon": -77.039453, "rental_uris": {"ios": "https://dc.lft.to/lastmile_qr_scan", "android": "https://dc.lft.to/lastmile_qr_scan"}}, {"name": "40869c3981ed32c20dc8884229468e04", "fusion_lat": 0.0, "type": "electric_scooter", "lat": 38.90015483333333, "is_reserved": 0, "is_disabled": 0, "fusion_lon": 0.0, "bike_id": "40869c3981ed32c20dc8884229468e04", "lon": -77.03377816666666, "rental_uris": {"ios": "https://dc.lft.to/lastmile_qr_scan", "android": "https://dc.lft.to/lastmile_qr_scan"}}, {"name": "34629d28e029da4de3777c6306e3e82b", "fusion_lat": 0.0, "type": "electric_scooter", "lat": 38.9170625, "is_reserved": 0, "is_disabled": 0, "fusion_lon": 0.0, "bike_id": "34629d28e029da4de3777c6306e3e82b", "lon": -77.04176183333334, "rental_uris": {"ios": "https://dc.lft.to/lastmile_qr_scan", "android": "https://dc.lft.to/lastmile_qr_scan"}}, {"name": "a2e08e218d3b938e31a1ddd3960d0200", "fusion_lat": 0.0, "type": "electric_scooter", "lat": 38.895634333333334, "is_reserved": 0, "is_disabled": 0, "fusion_lon": 0.0, "bike_id": "a2e08e218d3b938e31a1ddd3960d0200", "lon": -77.0467255, "rental_uris": {"ios": "https://dc.lft.to/lastmile_qr_scan", "android": "https://dc.lft.to/lastmile_qr_scan"}}, {"name": "f4a9deeac8c42dccca3c961eb2479db2", "fusion_lat": 0.0, "type": "electric_scooter", "lat": 38.900102333333336, "is_reserved": 0, "is_disabled": 0, "fusion_lon": 0.0, "bike_id": "f4a9deeac8c42dccca3c961eb2479db2", "lon": -77.053314, "rental_uris": {"ios": "https://dc.lft.to/lastmile_qr_scan", "android": "https://dc.lft.to/lastmile_qr_scan"}}, {"name": "b7a4ea21c1daef1624c670b9cd356ef0", "fusion_lat": 0.0, "type": "electric_bike", "lat": 38.87755083333333, "is_reserved": 0, "is_disabled": 0, "fusion_lon": 0.0, "bike_id": "b7a4ea21c1daef1624c670b9cd356ef0", "lon": -76.97981116666666, "rental_uris": {"ios": "https://dc.lft.to/lastmile_qr_scan", "android": "https://dc.lft.to/lastmile_qr_scan"}}, {"name": "f0c395fcccc1c04fa78b43679ca436d0", "fusion_lat": 0.0, "type": "electric_bike", "lat": 38.953588333333336, "is_reserved": 0, "is_disabled": 0, "fusion_lon": 0.0, "bike_id": "f0c395fcccc1c04fa78b43679ca436d0", "lon": -76.98093316666667, "rental_uris": {"ios": "https://dc.lft.to/lastmile_qr_scan", "android": "https://dc.lft.to/lastmile_qr_scan"}}, {"name": "1502ead0643e61da03a66002b19e70b0", "fusion_lat": 0.0, "type": "electric_scooter", "lat": 38.90372133333334, "is_reserved": 0, "is_disabled": 0, "fusion_lon": 0.0, "bike_id": "1502ead0643e61da03a66002b19e70b0", "lon": -77.02197616666666, "rental_uris": {"ios": "https://dc.lft.to/lastmile_qr_scan", "android": "https://dc.lft.to/lastmile_qr_scan"}}, {"name": "cf17aed23406b47649db943053e8a2e0", "fusion_lat": 0.0, "type": "electric_scooter", "lat": 38.86964833333333, "is_reserved": 0, "is_disabled": 0, "fusion_lon": 0.0, "bike_id": "cf17aed23406b47649db943053e8a2e0", "lon": -77.0137775, "rental_uris": {"ios": "https://dc.lft.to/lastmile_qr_scan", "android": "https://dc.lft.to/lastmile_qr_scan"}}, {"name": "084ae65c2ba9b453780fbfc032d41a32", "fusion_lat": 0.0, "type": "electric_scooter", "lat": 38.92827, "is_reserved": 0, "is_disabled": 0, "fusion_lon": 0.0, "bike_id": "084ae65c2ba9b453780fbfc032d41a32", "lon": -77.02257833333333, "rental_uris": {"ios": "https://dc.lft.to/lastmile_qr_scan", "android": "https://dc.lft.to/lastmile_qr_scan"}}, {"name": "646de28fdfe73734eb2516636b7279d3", "fusion_lat": 0.0, "type": "electric_scooter", "lat": 38.90585033333333, "is_reserved": 0, "is_disabled": 0, "fusion_lon": 0.0, "bike_id": "646de28fdfe73734eb2516636b7279d3", "lon": -77.00281516666666, "rental_uris": {"ios": "https://dc.lft.to/lastmile_qr_scan", "android": "https://dc.lft.to/lastmile_qr_scan"}}, {"name": "fe287bbf750614211cea78613a5b9b8e", "fusion_lat": 0.0, "type": "electric_scooter", "lat": 38.896469333333336, "is_reserved": 0, "is_disabled": 0, "fusion_lon": 0.0, "bike_id": "fe287bbf750614211cea78613a5b9b8e", "lon": -77.00919616666667, "rental_uris": {"ios": "https://dc.lft.to/lastmile_qr_scan", "android": "https://dc.lft.to/lastmile_qr_scan"}}, {"name": "6d971a7044932f67153b056425d44442", "fusion_lat": 0.0, "type": "electric_scooter", "lat": 38.912418, "is_reserved": 0, "is_disabled": 0, "fusion_lon": 0.0, "bike_id": "6d971a7044932f67153b056425d44442", "lon": -77.04876133333333, "rental_uris": {"ios": "https://dc.lft.to/lastmile_qr_scan", "android": "https://dc.lft.to/lastmile_qr_scan"}}, {"name": "53576d4d336b2a06ab65b9c02495c440", "fusion_lat": 0.0, "type": "electric_scooter", "lat": 38.9749945, "is_reserved": 0, "is_disabled": 0, "fusion_lon": 0.0, "bike_id": "53576d4d336b2a06ab65b9c02495c440", "lon": -77.0169105, "rental_uris": {"ios": "https://dc.lft.to/lastmile_qr_scan", "android": "https://dc.lft.to/lastmile_qr_scan"}}, {"name": "2314c9c60b5954afa8da529f49c46a2c", "fusion_lat": 0.0, "type": "electric_scooter", "lat": 38.92661483333333, "is_reserved": 0, "is_disabled": 0, "fusion_lon": 0.0, "bike_id": "2314c9c60b5954afa8da529f49c46a2c", "lon": -77.03718133333334, "rental_uris": {"ios": "https://dc.lft.to/lastmile_qr_scan", "android": "https://dc.lft.to/lastmile_qr_scan"}}, {"name": "99230286428e6db7fc4b9215c189f0e2", "fusion_lat": 0.0, "type": "electric_scooter", "lat": 38.922142, "is_reserved": 0, "is_disabled": 0, "fusion_lon": 0.0, "bike_id": "99230286428e6db7fc4b9215c189f0e2", "lon": -77.04235116666666, "rental_uris": {"ios": "https://dc.lft.to/lastmile_qr_scan", "android": "https://dc.lft.to/lastmile_qr_scan"}}, {"name": "06e7cf869b81c02293188787de69a71a", "fusion_lat": 0.0, "type": "electric_scooter", "lat": 38.895518, "is_reserved": 0, "is_disabled": 0, "fusion_lon": 0.0, "bike_id": "06e7cf869b81c02293188787de69a71a", "lon": -76.94883583333333, "rental_uris": {"ios": "https://dc.lft.to/lastmile_qr_scan", "android": "https://dc.lft.to/lastmile_qr_scan"}}, {"name": "010e3f576f7d1ccd0ab1ee22e056e05c", "fusion_lat": 0.0, "type": "electric_bike", "lat": 38.9395735, "is_reserved": 0, "is_disabled": 0, "fusion_lon": 0.0, "bike_id": "010e3f576f7d1ccd0ab1ee22e056e05c", "lon": -77.36096866666666, "rental_uris": {"ios": "https://dc.lft.to/lastmile_qr_scan", "android": "https://dc.lft.to/lastmile_qr_scan"}}, {"name": "38be29c140421a2fe85185d176232a38", "fusion_lat": 0.0, "type": "electric_scooter", "lat": 38.90257533333333, "is_reserved": 0, "is_disabled": 0, "fusion_lon": 0.0, "bike_id": "38be29c140421a2fe85185d176232a38", "lon": -77.03455433333333, "rental_uris": {"ios": "https://dc.lft.to/lastmile_qr_scan", "android": "https://dc.lft.to/lastmile_qr_scan"}}, {"name": "a3ad394276e16aa03cb79fa603748c2b", "fusion_lat": 0.0, "type": "electric_scooter", "lat": 38.902702, "is_reserved": 0, "is_disabled": 0, "fusion_lon": 0.0, "bike_id": "a3ad394276e16aa03cb79fa603748c2b", "lon": -77.04514583333334, "rental_uris": {"ios": "https://dc.lft.to/lastmile_qr_scan", "android": "https://dc.lft.to/lastmile_qr_scan"}}, {"name": "b427ebb109e7ea92b57b9477f7d8df98", "fusion_lat": 0.0, "type": "electric_scooter", "lat": 38.89976583333333, "is_reserved": 0, "is_disabled": 0, "fusion_lon": 0.0, "bike_id": "b427ebb109e7ea92b57b9477f7d8df98", "lon": -77.02943983333333, "rental_uris": {"ios": "https://dc.lft.to/lastmile_qr_scan", "android": "https://dc.lft.to/lastmile_qr_scan"}}, {"name": "f19a976e489adb51a01d4b39c8800b82", "fusion_lat": 0.0, "type": "electric_scooter", "lat": 38.86077216666666, "is_reserved": 0, "is_disabled": 0, "fusion_lon": 0.0, "bike_id": "f19a976e489adb51a01d4b39c8800b82", "lon": -76.9673655, "rental_uris": {"ios": "https://dc.lft.to/lastmile_qr_scan", "android": "https://dc.lft.to/lastmile_qr_scan"}}, {"name": "0e3a27612250db61b4cd5f974e557d0a", "fusion_lat": 0.0, "type": "electric_scooter", "lat": 38.9480515, "is_reserved": 0, "is_disabled": 0, "fusion_lon": 0.0, "bike_id": "0e3a27612250db61b4cd5f974e557d0a", "lon": -77.07909116666667, "rental_uris": {"ios": "https://dc.lft.to/lastmile_qr_scan", "android": "https://dc.lft.to/lastmile_qr_scan"}}, {"name": "ed0b28b17019ae17f5418e066e1420f3", "fusion_lat": 0.0, "type": "electric_bike", "lat": 38.90909533333333, "is_reserved": 0, "is_disabled": 0, "fusion_lon": 0.0, "bike_id": "ed0b28b17019ae17f5418e066e1420f3", "lon": -77.07277816666667, "rental_uris": {"ios": "https://dc.lft.to/lastmile_qr_scan", "android": "https://dc.lft.to/lastmile_qr_scan"}}, {"name": "aca29e6a0056a87fa55221b327ce498e", "fusion_lat": 0.0, "type": "electric_scooter", "lat": 38.921349166666666, "is_reserved": 0, "is_disabled": 0, "fusion_lon": 0.0, "bike_id": "aca29e6a0056a87fa55221b327ce498e", "lon": -77.03902783333334, "rental_uris": {"ios": "https://dc.lft.to/lastmile_qr_scan", "android": "https://dc.lft.to/lastmile_qr_scan"}}, {"name": "edd8b48753a66dfb239d5c1b2426a37a", "fusion_lat": 0.0, "type": "electric_bike", "lat": 38.899686, "is_reserved": 0, "is_disabled": 0, "fusion_lon": 0.0, "bike_id": "edd8b48753a66dfb239d5c1b2426a37a", "lon": -77.04722033333333, "rental_uris": {"ios": "https://dc.lft.to/lastmile_qr_scan", "android": "https://dc.lft.to/lastmile_qr_scan"}}, {"name": "83465828fffdf2a24ae869aef96c7164", "fusion_lat": 0.0, "type": "electric_scooter", "lat": 38.9194535, "is_reserved": 0, "is_disabled": 0, "fusion_lon": 0.0, "bike_id": "83465828fffdf2a24ae869aef96c7164", "lon": -77.04548266666667, "rental_uris": {"ios": "https://dc.lft.to/lastmile_qr_scan", "android": "https://dc.lft.to/lastmile_qr_scan"}}, {"name": "6ca7e4198af9cb233c7f3d51568dc7a9", "fusion_lat": 0.0, "type": "electric_scooter", "lat": 38.9337705, "is_reserved": 0, "is_disabled": 0, "fusion_lon": 0.0, "bike_id": "6ca7e4198af9cb233c7f3d51568dc7a9", "lon": -77.03436166666667, "rental_uris": {"ios": "https://dc.lft.to/lastmile_qr_scan", "android": "https://dc.lft.to/lastmile_qr_scan"}}, {"name": "0c7c1bf213757b88ead414f810806efb", "fusion_lat": 0.0, "type": "electric_scooter", "lat": 38.90495816666667, "is_reserved": 0, "is_disabled": 0, "fusion_lon": 0.0, "bike_id": "0c7c1bf213757b88ead414f810806efb", "lon": -77.04644366666666, "rental_uris": {"ios": "https://dc.lft.to/lastmile_qr_scan", "android": "https://dc.lft.to/lastmile_qr_scan"}}, {"name": "b1ee8ab5605123f49981652385fb1530", "fusion_lat": 0.0, "type": "electric_scooter", "lat": 38.892273333333335, "is_reserved": 0, "is_disabled": 0, "fusion_lon": 0.0, "bike_id": "b1ee8ab5605123f49981652385fb1530", "lon": -77.03098216666666, "rental_uris": {"ios": "https://dc.lft.to/lastmile_qr_scan", "android": "https://dc.lft.to/lastmile_qr_scan"}}, {"name": "d7cd0a44e5396d3dbf01a290b4d3942a", "fusion_lat": 0.0, "type": "electric_scooter", "lat": 38.922155000000004, "is_reserved": 0, "is_disabled": 0, "fusion_lon": 0.0, "bike_id": "d7cd0a44e5396d3dbf01a290b4d3942a", "lon": -77.04237566666667, "rental_uris": {"ios": "https://dc.lft.to/lastmile_qr_scan", "android": "https://dc.lft.to/lastmile_qr_scan"}}, {"name": "5ed6b0366c32dd298e5c249926e9e0e0", "fusion_lat": 0.0, "type": "electric_scooter", "lat": 38.93790516666667, "is_reserved": 0, "is_disabled": 0, "fusion_lon": 0.0, "bike_id": "5ed6b0366c32dd298e5c249926e9e0e0", "lon": -77.05992, "rental_uris": {"ios": "https://dc.lft.to/lastmile_qr_scan", "android": "https://dc.lft.to/lastmile_qr_scan"}}, {"name": "89797854b9fa48012c979f60d05282ef", "fusion_lat": 0.0, "type": "electric_scooter", "lat": 38.938412666666665, "is_reserved": 0, "is_disabled": 0, "fusion_lon": 0.0, "bike_id": "89797854b9fa48012c979f60d05282ef", "lon": -77.02486933333333, "rental_uris": {"ios": "https://dc.lft.to/lastmile_qr_scan", "android": "https://dc.lft.to/lastmile_qr_scan"}}, {"name": "cdc4d29c26e509e2f061d5ae2edc003e", "fusion_lat": 0.0, "type": "electric_scooter", "lat": 38.8765115, "is_reserved": 0, "is_disabled": 0, "fusion_lon": 0.0, "bike_id": "cdc4d29c26e509e2f061d5ae2edc003e", "lon": -76.96505566666667, "rental_uris": {"ios": "https://dc.lft.to/lastmile_qr_scan", "android": "https://dc.lft.to/lastmile_qr_scan"}}, {"name": "dba69aacf843fe1e107422d0f06fd753", "fusion_lat": 0.0, "type": "electric_scooter", "lat": 38.88532083333333, "is_reserved": 0, "is_disabled": 0, "fusion_lon": 0.0, "bike_id": "dba69aacf843fe1e107422d0f06fd753", "lon": -77.005792, "rental_uris": {"ios": "https://dc.lft.to/lastmile_qr_scan", "android": "https://dc.lft.to/lastmile_qr_scan"}}, {"name": "a1cfb118cc86d9c1ef0e964760c86a05", "fusion_lat": 0.0, "type": "electric_scooter", "lat": 38.93953666666667, "is_reserved": 0, "is_disabled": 0, "fusion_lon": 0.0, "bike_id": "a1cfb118cc86d9c1ef0e964760c86a05", "lon": -77.0326685, "rental_uris": {"ios": "https://dc.lft.to/lastmile_qr_scan", "android": "https://dc.lft.to/lastmile_qr_scan"}}, {"name": "be81fe330007b7929d47b5e4ed276936", "fusion_lat": 0.0, "type": "electric_scooter", "lat": 38.904703166666664, "is_reserved": 0, "is_disabled": 0, "fusion_lon": 0.0, "bike_id": "be81fe330007b7929d47b5e4ed276936", "lon": -77.0435, "rental_uris": {"ios": "https://dc.lft.to/lastmile_qr_scan", "android": "https://dc.lft.to/lastmile_qr_scan"}}, {"name": "ec0f8d129a237ea14b1ad0f5a4b3e353", "fusion_lat": 0.0, "type": "electric_scooter", "lat": 38.900041333333334, "is_reserved": 0, "is_disabled": 0, "fusion_lon": 0.0, "bike_id": "ec0f8d129a237ea14b1ad0f5a4b3e353", "lon": -77.02719983333333, "rental_uris": {"ios": "https://dc.lft.to/lastmile_qr_scan", "android": "https://dc.lft.to/lastmile_qr_scan"}}, {"name": "f1f9fe04fee8c136e39ca572b95ab5f7", "fusion_lat": 0.0, "type": "electric_scooter", "lat": 38.9036475, "is_reserved": 0, "is_disabled": 0, "fusion_lon": 0.0, "bike_id": "f1f9fe04fee8c136e39ca572b95ab5f7", "lon": -77.03996016666666, "rental_uris": {"ios": "https://dc.lft.to/lastmile_qr_scan", "android": "https://dc.lft.to/lastmile_qr_scan"}}, {"name": "cfd7d9fad7b0db23555407a2ad03ffa1", "fusion_lat": 0.0, "type": "electric_scooter", "lat": 38.906845, "is_reserved": 0, "is_disabled": 0, "fusion_lon": 0.0, "bike_id": "cfd7d9fad7b0db23555407a2ad03ffa1", "lon": -77.03852433333333, "rental_uris": {"ios": "https://dc.lft.to/lastmile_qr_scan", "android": "https://dc.lft.to/lastmile_qr_scan"}}, {"name": "087d008906cb2053eb96b9dc5ac1f215", "fusion_lat": 0.0, "type": "electric_bike", "lat": 38.99066466666667, "is_reserved": 0, "is_disabled": 0, "fusion_lon": 0.0, "bike_id": "087d008906cb2053eb96b9dc5ac1f215", "lon": -77.10030983333333, "rental_uris": {"ios": "https://dc.lft.to/lastmile_qr_scan", "android": "https://dc.lft.to/lastmile_qr_scan"}}, {"name": "5647e6305fa3fc24d2b52ccea4f7c005", "fusion_lat": 0.0, "type": "electric_scooter", "lat": 38.92953383333333, "is_reserved": 0, "is_disabled": 0, "fusion_lon": 0.0, "bike_id": "5647e6305fa3fc24d2b52ccea4f7c005", "lon": -77.03475733333333, "rental_uris": {"ios": "https://dc.lft.to/lastmile_qr_scan", "android": "https://dc.lft.to/lastmile_qr_scan"}}, {"name": "0355bcfbc44c39eb2ac8b44878c1cde8", "fusion_lat": 0.0, "type": "electric_scooter", "lat": 38.91110883333333, "is_reserved": 0, "is_disabled": 0, "fusion_lon": 0.0, "bike_id": "0355bcfbc44c39eb2ac8b44878c1cde8", "lon": -77.0370895, "rental_uris": {"ios": "https://dc.lft.to/lastmile_qr_scan", "android": "https://dc.lft.to/lastmile_qr_scan"}}, {"name": "5bab66066cb3fc2c18ccf77334da8fc2", "fusion_lat": 0.0, "type": "electric_scooter", "lat": 38.9024565, "is_reserved": 0, "is_disabled": 0, "fusion_lon": 0.0, "bike_id": "5bab66066cb3fc2c18ccf77334da8fc2", "lon": -77.04375916666666, "rental_uris": {"ios": "https://dc.lft.to/lastmile_qr_scan", "android": "https://dc.lft.to/lastmile_qr_scan"}}, {"name": "607555c627c79cee1244ec870ffa2af6", "fusion_lat": 0.0, "type": "electric_scooter", "lat": 38.898210666666664, "is_reserved": 0, "is_disabled": 0, "fusion_lon": 0.0, "bike_id": "607555c627c79cee1244ec870ffa2af6", "lon": -77.03136383333333, "rental_uris": {"ios": "https://dc.lft.to/lastmile_qr_scan", "android": "https://dc.lft.to/lastmile_qr_scan"}}, {"name": "fee2d22de18dd87184e4f2a2bc18aeb7", "fusion_lat": 0.0, "type": "electric_scooter", "lat": 38.89882633333333, "is_reserved": 0, "is_disabled": 0, "fusion_lon": 0.0, "bike_id": "fee2d22de18dd87184e4f2a2bc18aeb7", "lon": -77.03332216666666, "rental_uris": {"ios": "https://dc.lft.to/lastmile_qr_scan", "android": "https://dc.lft.to/lastmile_qr_scan"}}, {"name": "00fd3e44e5cd93d8205b2a540c30da29", "fusion_lat": 0.0, "type": "electric_scooter", "lat": 38.90782566666667, "is_reserved": 0, "is_disabled": 0, "fusion_lon": 0.0, "bike_id": "00fd3e44e5cd93d8205b2a540c30da29", "lon": -77.03578366666666, "rental_uris": {"ios": "https://dc.lft.to/lastmile_qr_scan", "android": "https://dc.lft.to/lastmile_qr_scan"}}, {"name": "864ebc592bbd6b7012f649b26697bf95", "fusion_lat": 0.0, "type": "electric_scooter", "lat": 38.896230333333335, "is_reserved": 0, "is_disabled": 0, "fusion_lon": 0.0, "bike_id": "864ebc592bbd6b7012f649b26697bf95", "lon": -77.02839533333334, "rental_uris": {"ios": "https://dc.lft.to/lastmile_qr_scan", "android": "https://dc.lft.to/lastmile_qr_scan"}}, {"name": "361e96efd9dbed80831ec63206feeb72", "fusion_lat": 0.0, "type": "electric_scooter", "lat": 38.911199, "is_reserved": 0, "is_disabled": 0, "fusion_lon": 0.0, "bike_id": "361e96efd9dbed80831ec63206feeb72", "lon": -77.03825116666667, "rental_uris": {"ios": "https://dc.lft.to/lastmile_qr_scan", "android": "https://dc.lft.to/lastmile_qr_scan"}}, {"name": "e5b901d760b1f2b79d1d6168ccf7e415", "fusion_lat": 0.0, "type": "electric_scooter", "lat": 38.902688833333336, "is_reserved": 0, "is_disabled": 0, "fusion_lon": 0.0, "bike_id": "e5b901d760b1f2b79d1d6168ccf7e415", "lon": -77.04250116666667, "rental_uris": {"ios": "https://dc.lft.to/lastmile_qr_scan", "android": "https://dc.lft.to/lastmile_qr_scan"}}, {"name": "03e3ef516c865d063a2ca09285b94380", "fusion_lat": 0.0, "type": "electric_scooter", "lat": 38.91502233333333, "is_reserved": 0, "is_disabled": 0, "fusion_lon": 0.0, "bike_id": "03e3ef516c865d063a2ca09285b94380", "lon": -77.018651, "rental_uris": {"ios": "https://dc.lft.to/lastmile_qr_scan", "android": "https://dc.lft.to/lastmile_qr_scan"}}, {"name": "5ce3b4bf2f54efda7210ff9a8e3e4136", "fusion_lat": 0.0, "type": "electric_scooter", "lat": 38.894741, "is_reserved": 0, "is_disabled": 0, "fusion_lon": 0.0, "bike_id": "5ce3b4bf2f54efda7210ff9a8e3e4136", "lon": -77.00329933333333, "rental_uris": {"ios": "https://dc.lft.to/lastmile_qr_scan", "android": "https://dc.lft.to/lastmile_qr_scan"}}, {"name": "e07a96bfbe8d58e2fbcf57c58c7e947a", "fusion_lat": 0.0, "type": "electric_scooter", "lat": 38.901644166666664, "is_reserved": 0, "is_disabled": 0, "fusion_lon": 0.0, "bike_id": "e07a96bfbe8d58e2fbcf57c58c7e947a", "lon": -77.04683433333334, "rental_uris": {"ios": "https://dc.lft.to/lastmile_qr_scan", "android": "https://dc.lft.to/lastmile_qr_scan"}}, {"name": "ef245f409dc16ea364cdcf7b69df5a70", "fusion_lat": 0.0, "type": "electric_bike", "lat": 38.867587666666665, "is_reserved": 0, "is_disabled": 0, "fusion_lon": 0.0, "bike_id": "ef245f409dc16ea364cdcf7b69df5a70", "lon": -76.94534183333333, "rental_uris": {"ios": "https://dc.lft.to/lastmile_qr_scan", "android": "https://dc.lft.to/lastmile_qr_scan"}}, {"name": "1b6374510c00bc26c1a9d14737aff620", "fusion_lat": 0.0, "type": "electric_bike", "lat": 38.899793333333335, "is_reserved": 0, "is_disabled": 0, "fusion_lon": 0.0, "bike_id": "1b6374510c00bc26c1a9d14737aff620", "lon": -77.021258, "rental_uris": {"ios": "https://dc.lft.to/lastmile_qr_scan", "android": "https://dc.lft.to/lastmile_qr_scan"}}, {"name": "2966860dc7c3b192621d0f3b03b261e3", "fusion_lat": 0.0, "type": "electric_scooter", "lat": 38.91403566666666, "is_reserved": 0, "is_disabled": 0, "fusion_lon": 0.0, "bike_id": "2966860dc7c3b192621d0f3b03b261e3", "lon": -77.00838233333333, "rental_uris": {"ios": "https://dc.lft.to/lastmile_qr_scan", "android": "https://dc.lft.to/lastmile_qr_scan"}}, {"name": "3e008040cda07eb80b901d0697f6114c", "fusion_lat": 0.0, "type": "electric_scooter", "lat": 38.91557683333333, "is_reserved": 0, "is_disabled": 0, "fusion_lon": 0.0, "bike_id": "3e008040cda07eb80b901d0697f6114c", "lon": -77.052102, "rental_uris": {"ios": "https://dc.lft.to/lastmile_qr_scan", "android": "https://dc.lft.to/lastmile_qr_scan"}}, {"name": "fdeff9e70825a437d6095a7bee7ec038", "fusion_lat": 0.0, "type": "electric_scooter", "lat": 38.927465166666664, "is_reserved": 0, "is_disabled": 0, "fusion_lon": 0.0, "bike_id": "fdeff9e70825a437d6095a7bee7ec038", "lon": -77.03412283333333, "rental_uris": {"ios": "https://dc.lft.to/lastmile_qr_scan", "android": "https://dc.lft.to/lastmile_qr_scan"}}, {"name": "256e2b2fc7135f992786e1b0c1ffd8d1", "fusion_lat": 0.0, "type": "electric_scooter", "lat": 38.8952015, "is_reserved": 0, "is_disabled": 0, "fusion_lon": 0.0, "bike_id": "256e2b2fc7135f992786e1b0c1ffd8d1", "lon": -76.99215933333333, "rental_uris": {"ios": "https://dc.lft.to/lastmile_qr_scan", "android": "https://dc.lft.to/lastmile_qr_scan"}}, {"name": "0a41536c1ceabea6a66527ae9d0d71d2", "fusion_lat": 0.0, "type": "electric_scooter", "lat": 38.9001915, "is_reserved": 0, "is_disabled": 0, "fusion_lon": 0.0, "bike_id": "0a41536c1ceabea6a66527ae9d0d71d2", "lon": -77.04052466666667, "rental_uris": {"ios": "https://dc.lft.to/lastmile_qr_scan", "android": "https://dc.lft.to/lastmile_qr_scan"}}, {"name": "d58eb5ffe0194e852d5172df00efe8b1", "fusion_lat": 0.0, "type": "electric_scooter", "lat": 38.9036825, "is_reserved": 0, "is_disabled": 0, "fusion_lon": 0.0, "bike_id": "d58eb5ffe0194e852d5172df00efe8b1", "lon": -77.03851983333334, "rental_uris": {"ios": "https://dc.lft.to/lastmile_qr_scan", "android": "https://dc.lft.to/lastmile_qr_scan"}}, {"name": "6bee933f608cc5f1d8cdaee01ca0aaa6", "fusion_lat": 0.0, "type": "electric_scooter", "lat": 38.9044045, "is_reserved": 0, "is_disabled": 0, "fusion_lon": 0.0, "bike_id": "6bee933f608cc5f1d8cdaee01ca0aaa6", "lon": -77.03475383333334, "rental_uris": {"ios": "https://dc.lft.to/lastmile_qr_scan", "android": "https://dc.lft.to/lastmile_qr_scan"}}, {"name": "cea4851f50a20db3031e5c57bdd87800", "fusion_lat": 0.0, "type": "electric_scooter", "lat": 38.91253116666667, "is_reserved": 0, "is_disabled": 0, "fusion_lon": 0.0, "bike_id": "cea4851f50a20db3031e5c57bdd87800", "lon": -77.03647566666666, "rental_uris": {"ios": "https://dc.lft.to/lastmile_qr_scan", "android": "https://dc.lft.to/lastmile_qr_scan"}}, {"name": "d750b3aebfa1b890856ae7458a9f9f5e", "fusion_lat": 0.0, "type": "electric_scooter", "lat": 38.90695566666667, "is_reserved": 0, "is_disabled": 0, "fusion_lon": 0.0, "bike_id": "d750b3aebfa1b890856ae7458a9f9f5e", "lon": -77.0618695, "rental_uris": {"ios": "https://dc.lft.to/lastmile_qr_scan", "android": "https://dc.lft.to/lastmile_qr_scan"}}, {"name": "363c177114530a9670c48d2e093f90ae", "fusion_lat": 0.0, "type": "electric_scooter", "lat": 38.878685833333336, "is_reserved": 0, "is_disabled": 0, "fusion_lon": 0.0, "bike_id": "363c177114530a9670c48d2e093f90ae", "lon": -76.9652645, "rental_uris": {"ios": "https://dc.lft.to/lastmile_qr_scan", "android": "https://dc.lft.to/lastmile_qr_scan"}}, {"name": "71b4d813fe0ecf1fa3b7fbef520e7bd0", "fusion_lat": 0.0, "type": "electric_scooter", "lat": 38.91218716666667, "is_reserved": 0, "is_disabled": 0, "fusion_lon": 0.0, "bike_id": "71b4d813fe0ecf1fa3b7fbef520e7bd0", "lon": -77.03643, "rental_uris": {"ios": "https://dc.lft.to/lastmile_qr_scan", "android": "https://dc.lft.to/lastmile_qr_scan"}}, {"name": "c8fed3479b4a922f27f7a4066e6cf872", "fusion_lat": 0.0, "type": "electric_scooter", "lat": 38.91885583333333, "is_reserved": 0, "is_disabled": 0, "fusion_lon": 0.0, "bike_id": "c8fed3479b4a922f27f7a4066e6cf872", "lon": -77.03462116666667, "rental_uris": {"ios": "https://dc.lft.to/lastmile_qr_scan", "android": "https://dc.lft.to/lastmile_qr_scan"}}, {"name": "15462f2a21e7d167fba5a335fe467c10", "fusion_lat": 0.0, "type": "electric_scooter", "lat": 38.9088625, "is_reserved": 0, "is_disabled": 0, "fusion_lon": 0.0, "bike_id": "15462f2a21e7d167fba5a335fe467c10", "lon": -77.0434315, "rental_uris": {"ios": "https://dc.lft.to/lastmile_qr_scan", "android": "https://dc.lft.to/lastmile_qr_scan"}}, {"name": "869e41c112479f0e5d19f9f8ce0bfca1", "fusion_lat": 0.0, "type": "electric_bike", "lat": 38.946295666666664, "is_reserved": 0, "is_disabled": 0, "fusion_lon": 0.0, "bike_id": "869e41c112479f0e5d19f9f8ce0bfca1", "lon": -76.9462985, "rental_uris": {"ios": "https://dc.lft.to/lastmile_qr_scan", "android": "https://dc.lft.to/lastmile_qr_scan"}}, {"name": "5a180eedfa244730f4fbf454526a0f83", "fusion_lat": 0.0, "type": "electric_scooter", "lat": 38.931268, "is_reserved": 0, "is_disabled": 0, "fusion_lon": 0.0, "bike_id": "5a180eedfa244730f4fbf454526a0f83", "lon": -77.03602966666666, "rental_uris": {"ios": "https://dc.lft.to/lastmile_qr_scan", "android": "https://dc.lft.to/lastmile_qr_scan"}}, {"name": "9b57d2661420d943b3cc3b99aa85a11f", "fusion_lat": 0.0, "type": "electric_bike", "lat": 38.89777333333333, "is_reserved": 0, "is_disabled": 0, "fusion_lon": 0.0, "bike_id": "9b57d2661420d943b3cc3b99aa85a11f", "lon": -76.9043495, "rental_uris": {"ios": "https://dc.lft.to/lastmile_qr_scan", "android": "https://dc.lft.to/lastmile_qr_scan"}}, {"name": "9ca59ec0fbeaccb00b7beaa273f39e7d", "fusion_lat": 0.0, "type": "electric_scooter", "lat": 38.9051305, "is_reserved": 0, "is_disabled": 0, "fusion_lon": 0.0, "bike_id": "9ca59ec0fbeaccb00b7beaa273f39e7d", "lon": -77.06472816666667, "rental_uris": {"ios": "https://dc.lft.to/lastmile_qr_scan", "android": "https://dc.lft.to/lastmile_qr_scan"}}, {"name": "be0dd4cc3781ee116cb65a7ecac577f4", "fusion_lat": 0.0, "type": "electric_scooter", "lat": 38.89877083333333, "is_reserved": 0, "is_disabled": 0, "fusion_lon": 0.0, "bike_id": "be0dd4cc3781ee116cb65a7ecac577f4", "lon": -77.03333866666667, "rental_uris": {"ios": "https://dc.lft.to/lastmile_qr_scan", "android": "https://dc.lft.to/lastmile_qr_scan"}}, {"name": "c2aee74647a5de9d11ead0a7749de37a", "fusion_lat": 0.0, "type": "electric_scooter", "lat": 38.87291733333333, "is_reserved": 0, "is_disabled": 0, "fusion_lon": 0.0, "bike_id": "c2aee74647a5de9d11ead0a7749de37a", "lon": -77.009819, "rental_uris": {"ios": "https://dc.lft.to/lastmile_qr_scan", "android": "https://dc.lft.to/lastmile_qr_scan"}}, {"name": "34344740c5b3ffe3238c2a32f70e1837", "fusion_lat": 0.0, "type": "electric_bike", "lat": 38.99358133333333, "is_reserved": 0, "is_disabled": 0, "fusion_lon": 0.0, "bike_id": "34344740c5b3ffe3238c2a32f70e1837", "lon": -77.0265485, "rental_uris": {"ios": "https://dc.lft.to/lastmile_qr_scan", "android": "https://dc.lft.to/lastmile_qr_scan"}}, {"name": "1663b4c035a03410103c141a779b3cb6", "fusion_lat": 0.0, "type": "electric_scooter", "lat": 38.926738, "is_reserved": 0, "is_disabled": 0, "fusion_lon": 0.0, "bike_id": "1663b4c035a03410103c141a779b3cb6", "lon": -77.01498966666666, "rental_uris": {"ios": "https://dc.lft.to/lastmile_qr_scan", "android": "https://dc.lft.to/lastmile_qr_scan"}}, {"name": "8131fc051b7080b80287eaf6e5dffaf9", "fusion_lat": 0.0, "type": "electric_scooter", "lat": 38.899485, "is_reserved": 0, "is_disabled": 0, "fusion_lon": 0.0, "bike_id": "8131fc051b7080b80287eaf6e5dffaf9", "lon": -77.0320655, "rental_uris": {"ios": "https://dc.lft.to/lastmile_qr_scan", "android": "https://dc.lft.to/lastmile_qr_scan"}}, {"name": "ef70a715d558ac66506dbe2cef45cb82", "fusion_lat": 0.0, "type": "electric_scooter", "lat": 38.9324225, "is_reserved": 0, "is_disabled": 0, "fusion_lon": 0.0, "bike_id": "ef70a715d558ac66506dbe2cef45cb82", "lon": -77.0324725, "rental_uris": {"ios": "https://dc.lft.to/lastmile_qr_scan", "android": "https://dc.lft.to/lastmile_qr_scan"}}, {"name": "19d909a908ee0be1882408e63b3f9511", "fusion_lat": 0.0, "type": "electric_scooter", "lat": 38.90291583333333, "is_reserved": 0, "is_disabled": 0, "fusion_lon": 0.0, "bike_id": "19d909a908ee0be1882408e63b3f9511", "lon": -77.03868316666667, "rental_uris": {"ios": "https://dc.lft.to/lastmile_qr_scan", "android": "https://dc.lft.to/lastmile_qr_scan"}}, {"name": "303927eea56cb35c8d956675160b010f", "fusion_lat": 0.0, "type": "electric_scooter", "lat": 38.9000775, "is_reserved": 0, "is_disabled": 0, "fusion_lon": 0.0, "bike_id": "303927eea56cb35c8d956675160b010f", "lon": -77.053357, "rental_uris": {"ios": "https://dc.lft.to/lastmile_qr_scan", "android": "https://dc.lft.to/lastmile_qr_scan"}}, {"name": "99c902ee1eccf2b49372d665251c36b7", "fusion_lat": 0.0, "type": "electric_scooter", "lat": 38.89761716666667, "is_reserved": 0, "is_disabled": 0, "fusion_lon": 0.0, "bike_id": "99c902ee1eccf2b49372d665251c36b7", "lon": -77.00756833333334, "rental_uris": {"ios": "https://dc.lft.to/lastmile_qr_scan", "android": "https://dc.lft.to/lastmile_qr_scan"}}, {"name": "b58712ce9165313699c6b02ec9f4f5d0", "fusion_lat": 0.0, "type": "electric_scooter", "lat": 38.93707333333333, "is_reserved": 0, "is_disabled": 0, "fusion_lon": 0.0, "bike_id": "b58712ce9165313699c6b02ec9f4f5d0", "lon": -77.02410266666666, "rental_uris": {"ios": "https://dc.lft.to/lastmile_qr_scan", "android": "https://dc.lft.to/lastmile_qr_scan"}}, {"name": "d7290dd708fb4832fc86efba3596e50b", "fusion_lat": 0.0, "type": "electric_scooter", "lat": 38.90588066666667, "is_reserved": 0, "is_disabled": 0, "fusion_lon": 0.0, "bike_id": "d7290dd708fb4832fc86efba3596e50b", "lon": -77.04376033333334, "rental_uris": {"ios": "https://dc.lft.to/lastmile_qr_scan", "android": "https://dc.lft.to/lastmile_qr_scan"}}, {"name": "ae4abdf6875abb95fbe748a53ae88f12", "fusion_lat": 0.0, "type": "electric_scooter", "lat": 38.931179, "is_reserved": 0, "is_disabled": 0, "fusion_lon": 0.0, "bike_id": "ae4abdf6875abb95fbe748a53ae88f12", "lon": -77.02089433333333, "rental_uris": {"ios": "https://dc.lft.to/lastmile_qr_scan", "android": "https://dc.lft.to/lastmile_qr_scan"}}, {"name": "07b1834048e4523678e37a762e49af7c", "fusion_lat": 0.0, "type": "electric_scooter", "lat": 38.896088666666664, "is_reserved": 0, "is_disabled": 0, "fusion_lon": 0.0, "bike_id": "07b1834048e4523678e37a762e49af7c", "lon": -77.0507665, "rental_uris": {"ios": "https://dc.lft.to/lastmile_qr_scan", "android": "https://dc.lft.to/lastmile_qr_scan"}}, {"name": "21faf06c8b26e377619813ccfc786056", "fusion_lat": 0.0, "type": "electric_scooter", "lat": 38.94297, "is_reserved": 0, "is_disabled": 0, "fusion_lon": 0.0, "bike_id": "21faf06c8b26e377619813ccfc786056", "lon": -77.021708, "rental_uris": {"ios": "https://dc.lft.to/lastmile_qr_scan", "android": "https://dc.lft.to/lastmile_qr_scan"}}, {"name": "00d20e37d70eca0d9eafbc1218b72e44", "fusion_lat": 0.0, "type": "electric_scooter", "lat": 38.903677, "is_reserved": 0, "is_disabled": 0, "fusion_lon": 0.0, "bike_id": "00d20e37d70eca0d9eafbc1218b72e44", "lon": -77.03204616666666, "rental_uris": {"ios": "https://dc.lft.to/lastmile_qr_scan", "android": "https://dc.lft.to/lastmile_qr_scan"}}, {"name": "fbb82815b8658571aaa3201541310fb5", "fusion_lat": 0.0, "type": "electric_scooter", "lat": 38.888990666666665, "is_reserved": 0, "is_disabled": 0, "fusion_lon": 0.0, "bike_id": "fbb82815b8658571aaa3201541310fb5", "lon": -77.03283483333334, "rental_uris": {"ios": "https://dc.lft.to/lastmile_qr_scan", "android": "https://dc.lft.to/lastmile_qr_scan"}}, {"name": "80ff409b57efc88c8598837ca3be70b1", "fusion_lat": 0.0, "type": "electric_scooter", "lat": 38.909795333333335, "is_reserved": 0, "is_disabled": 0, "fusion_lon": 0.0, "bike_id": "80ff409b57efc88c8598837ca3be70b1", "lon": -77.067143, "rental_uris": {"ios": "https://dc.lft.to/lastmile_qr_scan", "android": "https://dc.lft.to/lastmile_qr_scan"}},