{"data": {"bikes": [{"fusion_lat": 0.0, "name": "c1c7b415c5565a282e5814f601486bbe", "is_disabled": 0, "rental_uris": {"android": "https://dc.lft.to/lastmile_qr_scan", "ios": "https://dc.lft.to/lastmile_qr_scan"}, "fusion_lon": 0.0, "lat": 38.9012395, "bike_id": "c1c7b415c5565a282e5814f601486bbe", "type": "electric_scooter", "is_reserved": 0, "lon": -77.00217083333334}, {"fusion_lat": 0.0, "name": "4271ce728154629749eff12c46134a88", "is_disabled": 0, "rental_uris": {"android": "https://dc.lft.to/lastmile_qr_scan", "ios": "https://dc.lft.to/lastmile_qr_scan"}, "fusion_lon": 0.0, "lat": 38.89550466666667, "bike_id": "4271ce728154629749eff12c46134a88", "type": "electric_scooter", "is_reserved": 0, "lon": -76.94942133333333}, {"fusion_lat": 0.0, "name": "7f1b82ce2d021062ac9bd07f1534dfe2", "is_disabled": 0, "rental_uris": {"android": "https://dc.lft.to/lastmile_qr_scan", "ios": "https://dc.lft.to/lastmile_qr_scan"}, "fusion_lon": 0.0, "lat": 38.9180315, "bike_id": "7f1b82ce2d021062ac9bd07f1534dfe2", "type": "electric_scooter", "is_reserved": 0, "lon": -77.02879883333334}, {"fusion_lat": 0.0, "name": "69a63a561ffb4d20a3d1ee1e3350455c", "is_disabled": 0, "rental_uris": {"android": "https://dc.lft.to/lastmile_qr_scan", "ios": "https://dc.lft.to/lastmile_qr_scan"}, "fusion_lon": 0.0, "lat": 38.875289, "bike_id": "69a63a561ffb4d20a3d1ee1e3350455c", "type": "electric_scooter", "is_reserved": 0, "lon": -77.00505866666667}, {"fusion_lat": 0.0, "name": "da4dcbb373d345905f8be373bca5d902", "is_disabled": 0, "rental_uris": {"android": "https://dc.lft.to/lastmile_qr_scan", "ios": "https://dc.lft.to/lastmile_qr_scan"}, "fusion_lon": 0.0, "lat": 38.90597483333333, "bike_id": "da4dcbb373d345905f8be373bca5d902", "type": "electric_scooter", "is_reserved": 0, "lon": -77.06304783333333}, {"fusion_lat": 0.0, "name": "3aa693a409bf556796cd9212e99261b5", "is_disabled": 0, "rental_uris": {"android": "https://dc.lft.to/lastmile_qr_scan", "ios": "https://dc.lft.to/lastmile_qr_scan"}, "fusion_lon": 0.0, "lat": 38.92753716666667, "bike_id": "3aa693a409bf556796cd9212e99261b5", "type": "electric_scooter", "is_reserved": 0, "lon": -77.024346}, {"fusion_lat": 0.0, "name": "16eb9f60a802355a995e461ef9ca8035", "is_disabled": 0, "rental_uris": {"android": "https://dc.lft.to/lastmile_qr_scan", "ios": "https://dc.lft.to/lastmile_qr_scan"}, "fusion_lon": 0.0, "lat": 38.91180683333333, "bike_id": "16eb9f60a802355a995e461ef9ca8035", "type": "electric_bike", "is_reserved": 0, "lon": -77.03846766666666}, {"fusion_lat": 0.0, "name": "d591afac986e4880eb9eea7e0bf8d537", "is_disabled": 0, "rental_uris": {"android": "https://dc.lft.to/lastmile_qr_scan", "ios": "https://dc.lft.to/lastmile_qr_scan"}, "fusion_lon": 0.0, "lat": 38.923092, "bike_id": "d591afac986e4880eb9eea7e0bf8d537", "type": "electric_scooter", "is_reserved": 0, "lon": -77.04232283333333}, {"fusion_lat": 0.0, "name": "ba0f597bc86cd41a89e2c7894bd13053", "is_disabled": 0, "rental_uris": {"android": "https://dc.lft.to/lastmile_qr_scan", "ios": "https://dc.lft.to/lastmile_qr_scan"}, "fusion_lon": 0.0, "lat": 38.957542, "bike_id": "ba0f597bc86cd41a89e2c7894bd13053", "type": "electric_scooter", "is_reserved": 0, "lon": -77.02058016666666}, {"fusion_lat": 0.0, "name": "c700386de230d73f9c56ca2ae10f662b", "is_disabled": 0, "rental_uris": {"android": "https://dc.lft.to/lastmile_qr_scan", "ios": "https://dc.lft.to/lastmile_qr_scan"}, "fusion_lon": 0.0, "lat": 38.898304, "bike_id": "c700386de230d73f9c56ca2ae10f662b", "type": "electric_scooter", "is_reserved": 0, "lon": -77.033301}, {"fusion_lat": 0.0, "name": "33a3e4920a060bfaa15e066efa623584", "is_disabled": 0, "rental_uris": {"android": "https://dc.lft.to/lastmile_qr_scan", "ios": "https://dc.lft.to/lastmile_qr_scan"}, "fusion_lon": 0.0, "lat": 38.885012333333336, "bike_id": "33a3e4920a060bfaa15e066efa623584", "type": "electric_scooter", "is_reserved": 0, "lon": -76.9806225}, {"fusion_lat": 0.0, "name": "21f22cd56ee836bd50e94015389554f0", "is_disabled": 0, "rental_uris": {"android": "https://dc.lft.to/lastmile_qr_scan", "ios": "https://dc.lft.to/lastmile_qr_scan"}, "fusion_lon": 0.0, "lat": 38.9203315, "bike_id": "21f22cd56ee836bd50e94015389554f0", "type": "electric_bike", "is_reserved": 0, "lon": -76.9796285}, {"fusion_lat": 0.0, "name": "a72e30fb931ed6ebac2671be93895364", "is_disabled": 0, "rental_uris": {"android": "https://dc.lft.to/lastmile_qr_scan", "ios": "https://dc.lft.to/lastmile_qr_scan"}, "fusion_lon": 0.0, "lat": 38.91910633333333, "bike_id": "a72e30fb931ed6ebac2671be93895364", "type": "electric_scooter", "is_reserved": 0, "lon": -77.02820716666666}, {"fusion_lat": 0.0, "name": "26ab9a4e2ec83945c2b967870bd8b21e", "is_disabled": 0, "rental_uris": {"android": "https://dc.lft.to/lastmile_qr_scan", "ios": "https://dc.lft.to/lastmile_qr_scan"}, "fusion_lon": 0.0, "lat": 38.8872795, "bike_id": "26ab9a4e2ec83945c2b967870bd8b21e", "type": "electric_scooter", "is_reserved": 0, "lon": -77.03214733333333}, {"fusion_lat": 0.0, "name": "5aebf8ee446d3b7bed0fa658aafbc0f5", "is_disabled": 0, "rental_uris": {"android": "https://dc.lft.to/lastmile_qr_scan", "ios": "https://dc.lft.to/lastmile_qr_scan"}, "fusion_lon": 0.0, "lat": 38.90064666666667, "bike_id": "5aebf8ee446d3b7bed0fa658aafbc0f5", "type": "electric_scooter", "is_reserved": 0, "lon": -76.92749433333333}, {"fusion_lat": 0.0, "name": "6a9515099a3d08cf8ca6645fc3bad92b", "is_disabled": 0, "rental_uris": {"android": "https://dc.lft.to/lastmile_qr_scan", "ios": "https://dc.lft.to/lastmile_qr_scan"}, "fusion_lon": 0.0, "lat": 38.923589666666665, "bike_id": "6a9515099a3d08cf8ca6645fc3bad92b", "type": "electric_scooter", "is_reserved": 0, "lon": -77.051259}, {"fusion_lat": 0.0, "name": "e3bed10d970da6ca8a8eaf26daa7852c", "is_disabled": 0, "rental_uris": {"android": "https://dc.lft.to/lastmile_qr_scan", "ios": "https://dc.lft.to/lastmile_qr_scan"}, "fusion_lon": 0.0, "lat": 38.896539833333335, "bike_id": "e3bed10d970da6ca8a8eaf26daa7852c", "type": "electric_scooter", "is_reserved": 0, "lon": -77.0512265}, {"fusion_lat": 0.0, "name": "d939acb4ac92023aa8b4e047080c8617", "is_disabled": 0, "rental_uris": {"android": "https://dc.lft.to/lastmile_qr_scan", "ios": "https://dc.lft.to/lastmile_qr_scan"}, "fusion_lon": 0.0, "lat": 38.92073466666667, "bike_id": "d939acb4ac92023aa8b4e047080c8617", "type": "electric_scooter", "is_reserved": 0, "lon": -77.02317083333334}, {"fusion_lat": 0.0, "name": "558672c4b64d1e7065fbfddbacb637be", "is_disabled": 0, "rental_uris": {"android": "https://dc.lft.to/lastmile_qr_scan", "ios": "https://dc.lft.to/lastmile_qr_scan"}, "fusion_lon": 0.0, "lat": 38.913394, "bike_id": "558672c4b64d1e7065fbfddbacb637be", "type": "electric_bike", "is_reserved": 0, "lon": -76.98893383333333}, {"fusion_lat": 0.0, "name": "aeb2deb587ef85a6ff9835cbca164ea4", "is_disabled": 0, "rental_uris": {"android": "https://dc.lft.to/lastmile_qr_scan", "ios": "https://dc.lft.to/lastmile_qr_scan"}, "fusion_lon": 0.0, "lat": 38.919802833333335, "bike_id": "aeb2deb587ef85a6ff9835cbca164ea4", "type": "electric_scooter", "is_reserved": 0, "lon": -77.04092116666666}, {"fusion_lat": 0.0, "name": "af712ded1340c70aa2c66c8e2aed7358", "is_disabled": 0, "rental_uris": {"android": "https://dc.lft.to/lastmile_qr_scan", "ios": "https://dc.lft.to/lastmile_qr_scan"}, "fusion_lon": 0.0, "lat": 38.91193483333333, "bike_id": "af712ded1340c70aa2c66c8e2aed7358", "type": "electric_scooter", "is_reserved": 0, "lon": -77.03205033333333}, {"fusion_lat": 0.0, "name": "d3c2ae748d35d8facb93b423b3b5f3a1", "is_disabled": 0, "rental_uris": {"android": "https://dc.lft.to/lastmile_qr_scan", "ios": "https://dc.lft.to/lastmile_qr_scan"}, "fusion_lon": 0.0, "lat": 38.91671133333333, "bike_id": "d3c2ae748d35d8facb93b423b3b5f3a1", "type": "electric_scooter", "is_reserved": 0, "lon": -77.02723816666666}, {"fusion_lat": 0.0, "name": "72871f6fde53804ed5174ec0fa9950d6", "is_disabled": 0, "rental_uris": {"android": "https://dc.lft.to/lastmile_qr_scan", "ios": "https://dc.lft.to/lastmile_qr_scan"}, "fusion_lon": 0.0, "lat": 38.89218833333334, "bike_id": "72871f6fde53804ed5174ec0fa9950d6", "type": "electric_scooter", "is_reserved": 0, "lon": -77.022225}, {"fusion_lat": 0.0, "name": "5b095217f27aa86c4e5f9b01a69e8ed7", "is_disabled": 0, "rental_uris": {"android": "https://dc.lft.to/lastmile_qr_scan", "ios": "https://dc.lft.to/lastmile_qr_scan"}, "fusion_lon": 0.0, "lat": 38.94246866666667, "bike_id": "5b095217f27aa86c4e5f9b01a69e8ed7", "type": "electric_scooter", "is_reserved": 0, "lon": -77.036333}, {"fusion_lat": 0.0, "name": "1f182fb3042addf0e72f408f348e2a4c", "is_disabled": 0, "rental_uris": {"android": "https://dc.lft.to/lastmile_qr_scan", "ios": "https://dc.lft.to/lastmile_qr_scan"}, "fusion_lon": 0.0, "lat": 38.8864385, "bike_id": "1f182fb3042addf0e72f408f348e2a4c", "type": "electric_scooter", "is_reserved": 0, "lon": -77.002008}, {"fusion_lat": 0.0, "name": "759b015ad858c30983d74583a8fff719", "is_disabled": 0, "rental_uris": {"android": "https://dc.lft.to/lastmile_qr_scan", "ios": "https://dc.lft.to/lastmile_qr_scan"}, "fusion_lon": 0.0, "lat": 38.87389533333333, "bike_id": "759b015ad858c30983d74583a8fff719", "type": "electric_scooter", "is_reserved": 0, "lon": -77.00058066666666}, {"fusion_lat": 0.0, "name": "9fd682b1a2f7e100bd3488f58d6fa64c", "is_disabled": 0, "rental_uris": {"android": "https://dc.lft.to/lastmile_qr_scan", "ios": "https://dc.lft.to/lastmile_qr_scan"}, "fusion_lon": 0.0, "lat": 38.9013835, "bike_id": "9fd682b1a2f7e100bd3488f58d6fa64c", "type": "electric_scooter", "is_reserved": 0, "lon": -76.99122}, {"fusion_lat": 0.0, "name": "78df4751af4d1ced18e805fa1a0d1007", "is_disabled": 0, "rental_uris": {"android": "https://dc.lft.to/lastmile_qr_scan", "ios": "https://dc.lft.to/lastmile_qr_scan"}, "fusion_lon": 0.0, "lat": 38.921847, "bike_id": "78df4751af4d1ced18e805fa1a0d1007", "type": "electric_scooter", "is_reserved": 0, "lon": -77.03212683333334}, {"fusion_lat": 0.0, "name": "fab7e02f034a193d31ac8b61a9a29b5f", "is_disabled": 0, "rental_uris": {"android": "https://dc.lft.to/lastmile_qr_scan", "ios": "https://dc.lft.to/lastmile_qr_scan"}, "fusion_lon": 0.0, "lat": 38.92076333333333, "bike_id": "fab7e02f034a193d31ac8b61a9a29b5f", "type": "electric_scooter", "is_reserved": 0, "lon": -77.02377033333333}, {"fusion_lat": 0.0, "name": "673e0feac6ac2418e3fb769bbd112884", "is_disabled": 0, "rental_uris": {"android": "https://dc.lft.to/lastmile_qr_scan", "ios": "https://dc.lft.to/lastmile_qr_scan"}, "fusion_lon": 0.0, "lat": 38.90053133333333, "bike_id": "673e0feac6ac2418e3fb769bbd112884", "type": "electric_scooter", "is_reserved": 0, "lon": -77.0566935}, {"fusion_lat": 0.0, "name": "9bf7d5a3972cf71130203c577364718d", "is_disabled": 0, "rental_uris": {"android": "https://dc.lft.to/lastmile_qr_scan", "ios": "https://dc.lft.to/lastmile_qr_scan"}, "fusion_lon": 0.0, "lat": 38.905747166666664, "bike_id": "9bf7d5a3972cf71130203c577364718d", "type": "electric_scooter", "is_reserved": 0, "lon": -77.007584}, {"fusion_lat": 0.0, "name": "ba72ac34ef8789c85a28ec3391412628", "is_disabled": 0, "rental_uris": {"android": "https://dc.lft.to/lastmile_qr_scan", "ios": "https://dc.lft.to/lastmile_qr_scan"}, "fusion_lon": 0.0, "lat": 38.91051566666667, "bike_id": "ba72ac34ef8789c85a28ec3391412628", "type": "electric_scooter", "is_reserved": 0, "lon": -77.03844233333334}, {"fusion_lat": 0.0, "name": "b92d8a01bc54c1e886d7595ea416b009", "is_disabled": 0, "rental_uris": {"android": "https://dc.lft.to/lastmile_qr_scan", "ios": "https://dc.lft.to/lastmile_qr_scan"}, "fusion_lon": 0.0, "lat": 38.9119715, "bike_id": "b92d8a01bc54c1e886d7595ea416b009", "type": "electric_scooter", "is_reserved": 0, "lon": -77.04339066666667}, {"fusion_lat": 0.0, "name": "9d5666b280b7a720090cd4a944151013", "is_disabled": 0, "rental_uris": {"android": "https://dc.lft.to/lastmile_qr_scan", "ios": "https://dc.lft.to/lastmile_qr_scan"}, "fusion_lon": 0.0, "lat": 38.923210166666664, "bike_id": "9d5666b280b7a720090cd4a944151013", "type": "electric_scooter", "is_reserved": 0, "lon": -77.0397635}, {"fusion_lat": 0.0, "name": "e1059438de7f38bece3f024be69c92cd", "is_disabled": 0, "rental_uris": {"android": "https://dc.lft.to/lastmile_qr_scan", "ios": "https://dc.lft.to/lastmile_qr_scan"}, "fusion_lon": 0.0, "lat": 38.905531333333336, "bike_id": "e1059438de7f38bece3f024be69c92cd", "type": "electric_scooter", "is_reserved": 0, "lon": -77.04657833333333}, {"fusion_lat": 0.0, "name": "469b13d6e702a458c3bc614c4ca8e736", "is_disabled": 0, "rental_uris": {"android": "https://dc.lft.to/lastmile_qr_scan", "ios": "https://dc.lft.to/lastmile_qr_scan"}, "fusion_lon": 0.0, "lat": 38.90437166666667, "bike_id": "469b13d6e702a458c3bc614c4ca8e736", "type": "electric_scooter", "is_reserved": 0, "lon": -77.05812933333333}, {"fusion_lat": 0.0, "name": "d71cf5edb38e0d1c6fe655119cd437c5", "is_disabled": 0, "rental_uris": {"android": "https://dc.lft.to/lastmile_qr_scan", "ios": "https://dc.lft.to/lastmile_qr_scan"}, "fusion_lon": 0.0, "lat": 38.88343, "bike_id": "d71cf5edb38e0d1c6fe655119cd437c5", "type": "electric_scooter", "is_reserved": 0, "lon": -77.03173233333334}, {"fusion_lat": 0.0, "name": "60c00391822c8c376593fda2d0e743f3", "is_disabled": 0, "rental_uris": {"android": "https://dc.lft.to/lastmile_qr_scan", "ios": "https://dc.lft.to/lastmile_qr_scan"}, "fusion_lon": 0.0, "lat": 38.84758016666667, "bike_id": "60c00391822c8c376593fda2d0e743f3", "type": "electric_scooter", "is_reserved": 0, "lon": -76.99502233333334}, {"fusion_lat": 0.0, "name": "ecae7e5d45155393a869aa1d574cbed7", "is_disabled": 0, "rental_uris": {"android": "https://dc.lft.to/lastmile_qr_scan", "ios": "https://dc.lft.to/lastmile_qr_scan"}, "fusion_lon": 0.0, "lat": 38.92351633333333, "bike_id": "ecae7e5d45155393a869aa1d574cbed7", "type": "electric_scooter", "is_reserved": 0, "lon": -77.03544166666667}, {"fusion_lat": 0.0, "name": "355091e99e8dd0a53eb9ba0e174a9fcf", "is_disabled": 0, "rental_uris": {"android": "https://dc.lft.to/lastmile_qr_scan", "ios": "https://dc.lft.to/lastmile_qr_scan"}, "fusion_lon": 0.0, "lat": 38.9068385, "bike_id": "355091e99e8dd0a53eb9ba0e174a9fcf", "type": "electric_scooter", "is_reserved": 0, "lon": -77.02694733333334}, {"fusion_lat": 0.0, "name": "1238874d29464a443c18d38f611c810e", "is_disabled": 0, "rental_uris": {"android": "https://dc.lft.to/lastmile_qr_scan", "ios": "https://dc.lft.to/lastmile_qr_scan"}, "fusion_lon": 0.0, "lat": 38.90171466666666, "bike_id": "1238874d29464a443c18d38f611c810e", "type": "electric_scooter", "is_reserved": 0, "lon": -76.992594}, {"fusion_lat": 0.0, "name": "d6ff3208360005717f7c38cf4e9c2928", "is_disabled": 0, "rental_uris": {"android": "https://dc.lft.to/lastmile_qr_scan", "ios": "https://dc.lft.to/lastmile_qr_scan"}, "fusion_lon": 0.0, "lat": 38.93045983333333, "bike_id": "d6ff3208360005717f7c38cf4e9c2928", "type": "electric_scooter", "is_reserved": 0, "lon": -77.03180233333333}, {"fusion_lat": 0.0, "name": "225600002675bcbaacb67139db15172d", "is_disabled": 0, "rental_uris": {"android": "https://dc.lft.to/lastmile_qr_scan", "ios": "https://dc.lft.to/lastmile_qr_scan"}, "fusion_lon": 0.0, "lat": 38.91637933333333, "bike_id": "225600002675bcbaacb67139db15172d", "type": "electric_scooter", "is_reserved": 0, "lon": -77.05073816666666}, {"fusion_lat": 0.0, "name": "68f0dfafb57723efbf751385d2eeb331", "is_disabled": 0, "rental_uris": {"android": "https://dc.lft.to/lastmile_qr_scan", "ios": "https://dc.lft.to/lastmile_qr_scan"}, "fusion_lon": 0.0, "lat": 38.91554716666667, "bike_id": "68f0dfafb57723efbf751385d2eeb331", "type": "electric_scooter", "is_reserved": 0, "lon": -77.019947}, {"fusion_lat": 0.0, "name": "bb4ab2530633cac719598b859cfd92c4", "is_disabled": 0, "rental_uris": {"android": "https://dc.lft.to/lastmile_qr_scan", "ios": "https://dc.lft.to/lastmile_qr_scan"}, "fusion_lon": 0.0, "lat": 38.89886533333333, "bike_id": "bb4ab2530633cac719598b859cfd92c4", "type": "electric_scooter", "is_reserved": 0, "lon": -77.0014905}, {"fusion_lat": 0.0, "name": "ce0bbd6238b977276fcc97eff1053ec4", "is_disabled": 0, "rental_uris": {"android": "https://dc.lft.to/lastmile_qr_scan", "ios": "https://dc.lft.to/lastmile_qr_scan"}, "fusion_lon": 0.0, "lat": 38.930138666666664, "bike_id": "ce0bbd6238b977276fcc97eff1053ec4", "type": "electric_scooter", "is_reserved": 0, "lon": -77.03259916666667}, {"fusion_lat": 0.0, "name": "edda71f3e7e9401e78aaaa6abf715084", "is_disabled": 0, "rental_uris": {"android": "https://dc.lft.to/lastmile_qr_scan", "ios": "https://dc.lft.to/lastmile_qr_scan"}, "fusion_lon": 0.0, "lat": 38.904409333333334, "bike_id": "edda71f3e7e9401e78aaaa6abf715084", "type": "electric_scooter", "is_reserved": 0, "lon": -77.04361866666666}, {"fusion_lat": 0.0, "name": "6364a7b1e21e73fa033bc4e2f6025463", "is_disabled": 0, "rental_uris": {"android": "https://dc.lft.to/lastmile_qr_scan", "ios": "https://dc.lft.to/lastmile_qr_scan"}, "fusion_lon": 0.0, "lat": 38.904850833333334, "bike_id": "6364a7b1e21e73fa033bc4e2f6025463", "type": "electric_scooter", "is_reserved": 0, "lon": -76.94975266666667}, {"fusion_lat": 0.0, "name": "3f17be9fe75ddb4fd12790ddf39b47bf", "is_disabled": 0, "rental_uris": {"android": "https://dc.lft.to/lastmile_qr_scan", "ios": "https://dc.lft.to/lastmile_qr_scan"}, "fusion_lon": 0.0, "lat": 38.90028183333333, "bike_id": "3f17be9fe75ddb4fd12790ddf39b47bf", "type": "electric_scooter", "is_reserved": 0, "lon": -76.99638133333333}, {"fusion_lat": 0.0, "name": "97152aad70773de88dfa835a6386dc4e", "is_disabled": 0, "rental_uris": {"android": "https://dc.lft.to/lastmile_qr_scan", "ios": "https://dc.lft.to/lastmile_qr_scan"}, "fusion_lon": 0.0, "lat": 38.899896, "bike_id": "97152aad70773de88dfa835a6386dc4e", "type": "electric_scooter", "is_reserved": 0, "lon": -77.006677}, {"fusion_lat": 0.0, "name": "f911b5e1a93caa2221aee23af8f503ef", "is_disabled": 0, "rental_uris": {"android": "https://dc.lft.to/lastmile_qr_scan", "ios": "https://dc.lft.to/lastmile_qr_scan"}, "fusion_lon": 0.0, "lat": 38.90193983333333, "bike_id": "f911b5e1a93caa2221aee23af8f503ef", "type": "electric_scooter", "is_reserved": 0, "lon": -77.02600783333334}, {"fusion_lat": 0.0, "name": "c10f529de8dbea2d4826d305e225293a", "is_disabled": 0, "rental_uris": {"android": "https://dc.lft.to/lastmile_qr_scan", "ios": "https://dc.lft.to/lastmile_qr_scan"}, "fusion_lon": 0.0, "lat": 38.93406816666667, "bike_id": "c10f529de8dbea2d4826d305e225293a", "type": "electric_scooter", "is_reserved": 0, "lon": -77.02200733333333}, {"fusion_lat": 0.0, "name": "becde01fa0f263bff78f5d020a034517", "is_disabled": 0, "rental_uris": {"android": "https://dc.lft.to/lastmile_qr_scan", "ios": "https://dc.lft.to/lastmile_qr_scan"}, "fusion_lon": 0.0, "lat": 38.905512, "bike_id": "becde01fa0f263bff78f5d020a034517", "type": "electric_scooter", "is_reserved": 0, "lon": -77.046601}, {"fusion_lat": 0.0, "name": "6c236eb000d62bf12b835cf30ecd47e0", "is_disabled": 0, "rental_uris": {"android": "https://dc.lft.to/lastmile_qr_scan", "ios": "https://dc.lft.to/lastmile_qr_scan"}, "fusion_lon": 0.0, "lat": 38.931696333333335, "bike_id": "6c236eb000d62bf12b835cf30ecd47e0", "type": "electric_scooter", "is_reserved": 0, "lon": -77.0330205}, {"fusion_lat": 0.0, "name": "8111da3968e2f30a4fa6d4971a77aa15", "is_disabled": 0, "rental_uris": {"android": "https://dc.lft.to/lastmile_qr_scan", "ios": "https://dc.lft.to/lastmile_qr_scan"}, "fusion_lon": 0.0, "lat": 38.9306005, "bike_id": "8111da3968e2f30a4fa6d4971a77aa15", "type": "electric_scooter", "is_reserved": 0, "lon": -77.03951666666667}, {"fusion_lat": 0.0, "name": "d1c8783b6467cbda05bbdce9bb1c80dc", "is_disabled": 0, "rental_uris": {"android": "https://dc.lft.to/lastmile_qr_scan", "ios": "https://dc.lft.to/lastmile_qr_scan"}, "fusion_lon": 0.0, "lat": 38.93336766666667, "bike_id": "d1c8783b6467cbda05bbdce9bb1c80dc", "type": "electric_bike", "is_reserved": 0, "lon": -77.042077}, {"fusion_lat": 0.0, "name": "cdcf2af53b0414b78b5b025c46eb383b", "is_disabled": 0, "rental_uris": {"android": "https://dc.lft.to/lastmile_qr_scan", "ios": "https://dc.lft.to/lastmile_qr_scan"}, "fusion_lon": 0.0, "lat": 38.8935115, "bike_id": "cdcf2af53b0414b78b5b025c46eb383b", "type": "electric_scooter", "is_reserved": 0, "lon": -76.98662566666667}, {"fusion_lat": 0.0, "name": "08b130def9dfef8295873412ec12bcaf", "is_disabled": 0, "rental_uris": {"android": "https://dc.lft.to/lastmile_qr_scan", "ios": "https://dc.lft.to/lastmile_qr_scan"}, "fusion_lon": 0.0, "lat": 38.908863333333336, "bike_id": "08b130def9dfef8295873412ec12bcaf", "type": "electric_scooter", "is_reserved": 0, "lon": -77.04392383333334}, {"fusion_lat": 0.0, "name": "ee9fb81a4000cd74237af1d398587016", "is_disabled": 0, "rental_uris": {"android": "https://dc.lft.to/lastmile_qr_scan", "ios": "https://dc.lft.to/lastmile_qr_scan"}, "fusion_lon": 0.0, "lat": 38.91837666666667, "bike_id": "ee9fb81a4000cd74237af1d398587016", "type": "electric_scooter", "is_reserved": 0, "lon": -77.02451383333333}, {"fusion_lat": 0.0, "name": "5d633d59c234b8ef4d99e6482d662eab", "is_disabled": 0, "rental_uris": {"android": "https://dc.lft.to/lastmile_qr_scan", "ios": "https://dc.lft.to/lastmile_qr_scan"}, "fusion_lon": 0.0, "lat": 38.9181115, "bike_id": "5d633d59c234b8ef4d99e6482d662eab", "type": "electric_scooter", "is_reserved": 0, "lon": -77.03675466666667}, {"fusion_lat": 0.0, "name": "1ff2129e8de41c25fd04a0ab40dda0e8", "is_disabled": 0, "rental_uris": {"android": "https://dc.lft.to/lastmile_qr_scan", "ios": "https://dc.lft.to/lastmile_qr_scan"}, "fusion_lon": 0.0, "lat": 38.916772, "bike_id": "1ff2129e8de41c25fd04a0ab40dda0e8", "type": "electric_scooter", "is_reserved": 0, "lon": -77.02304066666666}, {"fusion_lat": 0.0, "name": "0bbc7db2fe1b5faf84c6346a636cbe7f", "is_disabled": 0, "rental_uris": {"android": "https://dc.lft.to/lastmile_qr_scan", "ios": "https://dc.lft.to/lastmile_qr_scan"}, "fusion_lon": 0.0, "lat": 38.925795, "bike_id": "0bbc7db2fe1b5faf84c6346a636cbe7f", "type": "electric_scooter", "is_reserved": 0, "lon": -77.043817}, {"fusion_lat": 0.0, "name": "6dfb25b1dd6a71bd9f36b43732036aaa", "is_disabled": 0, "rental_uris": {"android": "https://dc.lft.to/lastmile_qr_scan", "ios": "https://dc.lft.to/lastmile_qr_scan"}, "fusion_lon": 0.0, "lat": 38.8049285, "bike_id": "6dfb25b1dd6a71bd9f36b43732036aaa", "type": "electric_bike", "is_reserved": 0, "lon": -77.1016605}, {"fusion_lat": 0.0, "name": "96f180e47421a1bb6e9b9dae99797708", "is_disabled": 0, "rental_uris": {"android": "https://dc.lft.to/lastmile_qr_scan", "ios": "https://dc.lft.to/lastmile_qr_scan"}, "fusion_lon": 0.0, "lat": 38.90388516666667, "bike_id": "96f180e47421a1bb6e9b9dae99797708", "type": "electric_scooter", "is_reserved": 0, "lon": -77.02495266666666}, {"fusion_lat": 0.0, "name": "2b9719e4dd89cb2a523951cb577bbb14", "is_disabled": 0, "rental_uris": {"android": "https://dc.lft.to/lastmile_qr_scan", "ios": "https://dc.lft.to/lastmile_qr_scan"}, "fusion_lon": 0.0, "lat": 38.892382, "bike_id": "2b9719e4dd89cb2a523951cb577bbb14", "type": "electric_scooter", "is_reserved": 0, "lon": -77.0467755}, {"fusion_lat": 0.0, "name": "1a143ee326fc3a7de1be593e6e3d04f7", "is_disabled": 0, "rental_uris": {"android": "https://dc.lft.to/lastmile_qr_scan", "ios": "https://dc.lft.to/lastmile_qr_scan"}, "fusion_lon": 0.0, "lat": 38.90723666666667, "bike_id": "1a143ee326fc3a7de1be593e6e3d04f7", "type": "electric_scooter", "is_reserved": 0, "lon": -77.04997583333333}, {"fusion_lat": 0.0, "name": "6e7f4076670c7ddb9e331da339bc27c9", "is_disabled": 0, "rental_uris": {"android": "https://dc.lft.to/lastmile_qr_scan", "ios": "https://dc.lft.to/lastmile_qr_scan"}, "fusion_lon": 0.0, "lat": 38.924698666666664, "bike_id": "6e7f4076670c7ddb9e331da339bc27c9", "type": "electric_scooter", "is_reserved": 0, "lon": -77.0207885}, {"fusion_lat": 0.0, "name": "35943f764aa44270ba7b04e091282ebc", "is_disabled": 0, "rental_uris": {"android": "https://dc.lft.to/lastmile_qr_scan", "ios": "https://dc.lft.to/lastmile_qr_scan"}, "fusion_lon": 0.0, "lat": 38.9232365, "bike_id": "35943f764aa44270ba7b04e091282ebc", "type": "electric_scooter", "is_reserved": 0, "lon": -77.03551933333334}, {"fusion_lat": 0.0, "name": "5c6a136a133d8475a7f9d7bea06919ee", "is_disabled": 0, "rental_uris": {"android": "https://dc.lft.to/lastmile_qr_scan", "ios": "https://dc.lft.to/lastmile_qr_scan"}, "fusion_lon": 0.0, "lat": 38.87982916666667, "bike_id": "5c6a136a133d8475a7f9d7bea06919ee", "type": "electric_scooter", "is_reserved": 0, "lon": -76.9838685}, {"fusion_lat": 0.0, "name": "5238217f2528cb0ad405aeeb31d65f68", "is_disabled": 0, "rental_uris": {"android": "https://dc.lft.to/lastmile_qr_scan", "ios": "https://dc.lft.to/lastmile_qr_scan"}, "fusion_lon": 0.0, "lat": 38.903955, "bike_id": "5238217f2528cb0ad405aeeb31d65f68", "type": "electric_scooter", "is_reserved": 0, "lon": -77.017988}, {"fusion_lat": 0.0, "name": "76706a13f47df1c6f2ed302bba253b70", "is_disabled": 0, "rental_uris": {"android": "https://dc.lft.to/lastmile_qr_scan", "ios": "https://dc.lft.to/lastmile_qr_scan"}, "fusion_lon": 0.0, "lat": 38.897232, "bike_id": "76706a13f47df1c6f2ed302bba253b70", "type": "electric_scooter", "is_reserved": 0, "lon": -77.02469233333333}, {"fusion_lat": 0.0, "name": "5f906e7d138cd59c19f9564600f52463", "is_disabled": 0, "rental_uris": {"android": "https://dc.lft.to/lastmile_qr_scan", "ios": "https://dc.lft.to/lastmile_qr_scan"}, "fusion_lon": 0.0, "lat": 38.89970783333333, "bike_id": "5f906e7d138cd59c19f9564600f52463", "type": "electric_scooter", "is_reserved": 0, "lon": -77.052688}, {"fusion_lat": 0.0, "name": "16583a01a7a9a56159bba7498592b72f", "is_disabled": 0, "rental_uris": {"android": "https://dc.lft.to/lastmile_qr_scan", "ios": "https://dc.lft.to/lastmile_qr_scan"}, "fusion_lon": 0.0, "lat": 38.930836, "bike_id": "16583a01a7a9a56159bba7498592b72f", "type": "electric_scooter", "is_reserved": 0, "lon": -77.02000566666666}, {"fusion_lat": 0.0, "name": "4b387fb448b256750d5e9ed0402cc3a8", "is_disabled": 0, "rental_uris": {"android": "https://dc.lft.to/lastmile_qr_scan", "ios": "https://dc.lft.to/lastmile_qr_scan"}, "fusion_lon": 0.0, "lat": 38.934694666666665, "bike_id": "4b387fb448b256750d5e9ed0402cc3a8", "type": "electric_scooter", "is_reserved": 0, "lon": -77.04118483333333}, {"fusion_lat": 0.0, "name": "7ca89d7066194725d527058d5508d90c", "is_disabled": 0, "rental_uris": {"android": "https://dc.lft.to/lastmile_qr_scan", "ios": "https://dc.lft.to/lastmile_qr_scan"}, "fusion_lon": 0.0, "lat": 38.90101383333333, "bike_id": "7ca89d7066194725d527058d5508d90c", "type": "electric_scooter", "is_reserved": 0, "lon": -76.930518}, {"fusion_lat": 0.0, "name": "c9494c97575649c3e5a47cf3c2580324", "is_disabled": 0, "rental_uris": {"android": "https://dc.lft.to/lastmile_qr_scan", "ios": "https://dc.lft.to/lastmile_qr_scan"}, "fusion_lon": 0.0, "lat": 38.87668166666667, "bike_id": "c9494c97575649c3e5a47cf3c2580324", "type": "electric_scooter", "is_reserved": 0, "lon": -77.00341016666667}, {"fusion_lat": 0.0, "name": "649f4118d5b3af97c4bbcfcfeee8a0c8", "is_disabled": 0, "rental_uris": {"android": "https://dc.lft.to/lastmile_qr_scan", "ios": "https://dc.lft.to/lastmile_qr_scan"}, "fusion_lon": 0.0, "lat": 38.9110795, "bike_id": "649f4118d5b3af97c4bbcfcfeee8a0c8", "type": "electric_scooter", "is_reserved": 0, "lon": -77.03163216666667}, {"fusion_lat": 0.0, "name": "47bb59a5290007fbe55928a2dd0d5256", "is_disabled": 0, "rental_uris": {"android": "https://dc.lft.to/lastmile_qr_scan", "ios": "https://dc.lft.to/lastmile_qr_scan"}, "fusion_lon": 0.0, "lat": 38.92313866666667, "bike_id": "47bb59a5290007fbe55928a2dd0d5256", "type": "electric_scooter", "is_reserved": 0, "lon": -77.04035066666667}, {"fusion_lat": 0.0, "name": "480d51c94ecf4d6d3b97d34f5a8486cd", "is_disabled": 0, "rental_uris": {"android": "https://dc.lft.to/lastmile_qr_scan", "ios": "https://dc.lft.to/lastmile_qr_scan"}, "fusion_lon": 0.0, "lat": 38.92338016666667, "bike_id": "480d51c94ecf4d6d3b97d34f5a8486cd", "type": "electric_scooter", "is_reserved": 0, "lon": -77.05223916666667}, {"fusion_lat": 0.0, "name": "3d913f87f2e7440f235e8a0f592674d5", "is_disabled": 0, "rental_uris": {"android": "https://dc.lft.to/lastmile_qr_scan", "ios": "https://dc.lft.to/lastmile_qr_scan"}, "fusion_lon": 0.0, "lat": 38.90351966666667, "bike_id": "3d913f87f2e7440f235e8a0f592674d5", "type": "electric_scooter", "is_reserved": 0, "lon": -76.97480333333333}, {"fusion_lat": 0.0, "name": "142aafb35db4ff46affd8cdfe17479f2", "is_disabled": 0, "rental_uris": {"android": "https://dc.lft.to/lastmile_qr_scan", "ios": "https://dc.lft.to/lastmile_qr_scan"}, "fusion_lon": 0.0, "lat": 38.931757166666664, "bike_id": "142aafb35db4ff46affd8cdfe17479f2", "type": "electric_scooter", "is_reserved": 0, "lon": -77.0200305}, {"fusion_lat": 0.0, "name": "55bf5413d8f37ea3dc816eaaa60ef291", "is_disabled": 0, "rental_uris": {"android": "https://dc.lft.to/lastmile_qr_scan", "ios": "https://dc.lft.to/lastmile_qr_scan"}, "fusion_lon": 0.0, "lat": 38.922429, "bike_id": "55bf5413d8f37ea3dc816eaaa60ef291", "type": "electric_scooter", "is_reserved": 0, "lon": -77.03906666666667}, {"fusion_lat": 0.0, "name": "23922272a51ff4d5dd2f4371a522fc80", "is_disabled": 0, "rental_uris": {"android": "https://dc.lft.to/lastmile_qr_scan", "ios": "https://dc.lft.to/lastmile_qr_scan"}, "fusion_lon": 0.0, "lat": 38.90787983333333, "bike_id": "23922272a51ff4d5dd2f4371a522fc80", "type": "electric_scooter", "is_reserved": 0, "lon": -77.04264833333333}, {"fusion_lat": 0.0, "name": "536f9fbef486158c37d651fd0f7f3b82", "is_disabled": 0, "rental_uris": {"android": "https://dc.lft.to/lastmile_qr_scan", "ios": "https://dc.lft.to/lastmile_qr_scan"}, "fusion_lon": 0.0, "lat": 38.9938045, "bike_id": "536f9fbef486158c37d651fd0f7f3b82", "type": "electric_bike", "is_reserved": 0, "lon": -76.928861}, {"fusion_lat": 0.0, "name": "a91c4d9dce347bb45454a971e2e30b1b", "is_disabled": 0, "rental_uris": {"android": "https://dc.lft.to/lastmile_qr_scan", "ios": "https://dc.lft.to/lastmile_qr_scan"}, "fusion_lon": 0.0, "lat": 38.90797533333333, "bike_id": "a91c4d9dce347bb45454a971e2e30b1b", "type": "electric_scooter", "is_reserved": 0, "lon": -77.03486783333334}, {"fusion_lat": 0.0, "name": "1ede9de96515fba257c4c33779ed08b4", "is_disabled": 0, "rental_uris": {"android": "https://dc.lft.to/lastmile_qr_scan", "ios": "https://dc.lft.to/lastmile_qr_scan"}, "fusion_lon": 0.0, "lat": 38.91753533333333, "bike_id": "1ede9de96515fba257c4c33779ed08b4", "type": "electric_scooter", "is_reserved": 0, "lon": -77.01605683333334}, {"fusion_lat": 0.0, "name": "4cba08475923d8b0ffe6473273901e47", "is_disabled": 0, "rental_uris": {"android": "https://dc.lft.to/lastmile_qr_scan", "ios": "https://dc.lft.to/lastmile_qr_scan"}, "fusion_lon": 0.0, "lat": 38.91275566666667, "bike_id": "4cba08475923d8b0ffe6473273901e47", "type": "electric_scooter", "is_reserved": 0, "lon": -77.02253433333334}, {"fusion_lat": 0.0, "name": "1122fb76a4660ac685331874ce9459db", "is_disabled": 0, "rental_uris": {"android": "https://dc.lft.to/lastmile_qr_scan", "ios": "https://dc.lft.to/lastmile_qr_scan"}, "fusion_lon": 0.0, "lat": 38.9167495, "bike_id": "1122fb76a4660ac685331874ce9459db", "type": "electric_scooter", "is_reserved": 0, "lon": -77.02723866666666}, {"fusion_lat": 0.0, "name": "aee46bd5e3de62b7fa4ba8d900ace726", "is_disabled": 0, "rental_uris": {"android": "https://dc.lft.to/lastmile_qr_scan", "ios": "https://dc.lft.to/lastmile_qr_scan"}, "fusion_lon": 0.0, "lat": 38.901413166666664, "bike_id": "aee46bd5e3de62b7fa4ba8d900ace726", "type": "electric_scooter", "is_reserved": 0, "lon": -77.044918}, {"fusion_lat": 0.0, "name": "db18d949a871bf2123f0209f78afe8c7", "is_disabled": 0, "rental_uris": {"android": "https://dc.lft.to/lastmile_qr_scan", "ios": "https://dc.lft.to/lastmile_qr_scan"}, "fusion_lon": 0.0, "lat": 38.920398166666665, "bike_id": "db18d949a871bf2123f0209f78afe8c7", "type": "electric_scooter", "is_reserved": 0, "lon": -77.03411883333334}, {"fusion_lat": 0.0, "name": "1e74a900287a46647a2eb17b619e0085", "is_disabled": 0, "rental_uris": {"android": "https://dc.lft.to/lastmile_qr_scan", "ios": "https://dc.lft.to/lastmile_qr_scan"}, "fusion_lon": 0.0, "lat": 38.930775833333335, "bike_id": "1e74a900287a46647a2eb17b619e0085", "type": "electric_scooter", "is_reserved": 0, "lon": -77.0200675}, {"fusion_lat": 0.0, "name": "309f2a0c463968607a3df04c485767a4", "is_disabled": 0, "rental_uris": {"android": "https://dc.lft.to/lastmile_qr_scan", "ios": "https://dc.lft.to/lastmile_qr_scan"}, "fusion_lon": 0.0, "lat": 38.8967085, "bike_id": "309f2a0c463968607a3df04c485767a4", "type": "electric_scooter", "is_reserved": 0, "lon": -77.02475166666666}, {"fusion_lat": 0.0, "name": "328f67c28c1b286584f446b99581bd02", "is_disabled": 0, "rental_uris": {"android": "https://dc.lft.to/lastmile_qr_scan", "ios": "https://dc.lft.to/lastmile_qr_scan"}, "fusion_lon": 0.0, "lat": 38.92281216666667, "bike_id": "328f67c28c1b286584f446b99581bd02", "type": "electric_scooter", "is_reserved": 0, "lon": -77.0366055}, {"fusion_lat": 0.0, "name": "040ce4e5adca56082b06b652d8bb18cb", "is_disabled": 0, "rental_uris": {"android": "https://dc.lft.to/lastmile_qr_scan", "ios": "https://dc.lft.to/lastmile_qr_scan"}, "fusion_lon": 0.0, "lat": 38.91764583333333, "bike_id": "040ce4e5adca56082b06b652d8bb18cb", "type": "electric_scooter", "is_reserved": 0, "lon": -77.03583583333334}, {"fusion_lat": 0.0, "name": "1f1ed7de2e8fec095b8fc0c48df7deab", "is_disabled": 0, "rental_uris": {"android": "https://dc.lft.to/lastmile_qr_scan", "ios": "https://dc.lft.to/lastmile_qr_scan"}, "fusion_lon": 0.0, "lat": 38.8994875, "bike_id": "1f1ed7de2e8fec095b8fc0c48df7deab", "type": "electric_scooter", "is_reserved": 0, "lon": -77.05711983333333}, {"fusion_lat": 0.0, "name": "fc9546f996399d7a72cdd6fa1cbdefa2", "is_disabled": 0, "rental_uris": {"android": "https://dc.lft.to/lastmile_qr_scan", "ios": "https://dc.lft.to/lastmile_qr_scan"}, "fusion_lon": 0.0, "lat": 38.917462666666665, "bike_id": "fc9546f996399d7a72cdd6fa1cbdefa2", "type": "electric_scooter", "is_reserved": 0, "lon": -77.0693205}, {"fusion_lat": 0.0, "name": "7d78c2ad3f12d071ff02a6a7567674da", "is_disabled": 0, "rental_uris": {"android": "https://dc.lft.to/lastmile_qr_scan", "ios": "https://dc.lft.to/lastmile_qr_scan"}, "fusion_lon": 0.0, "lat": 38.88737533333333, "bike_id": "7d78c2ad3f12d071ff02a6a7567674da", "type": "electric_scooter", "is_reserved": 0, "lon": -77.02135883333334}, {"fusion_lat": 0.0, "name": "9e6b62c8b9a5b8ae04ea597cb9f9d5dd", "is_disabled": 0, "rental_uris": {"android": "https://dc.lft.to/lastmile_qr_scan", "ios": "https://dc.lft.to/lastmile_qr_scan"}, "fusion_lon": 0.0, "lat": 38.90279816666666, "bike_id": "9e6b62c8b9a5b8ae04ea597cb9f9d5dd", "type": "electric_scooter", "is_reserved": 0, "lon": -77.03675866666667}, {"fusion_lat": 0.0, "name": "d83528d037c2a7182e0e3d77a781f784", "is_disabled": 0, "rental_uris": {"android": "https://dc.lft.to/lastmile_qr_scan", "ios": "https://dc.lft.to/lastmile_qr_scan"}, "fusion_lon": 0.0, "lat": 38.92866883333333, "bike_id": "d83528d037c2a7182e0e3d77a781f784", "type": "electric_scooter", "is_reserved": 0, "lon": -77.03524083333333}, {"fusion_lat": 0.0, "name": "d5776b3793c5f06ae292e4d4e730505f", "is_disabled": 0, "rental_uris": {"android": "https://dc.lft.to/lastmile_qr_scan", "ios": "https://dc.lft.to/lastmile_qr_scan"}, "fusion_lon": 0.0, "lat": 38.89815766666667, "bike_id": "d5776b3793c5f06ae292e4d4e730505f", "type": "electric_bike", "is_reserved": 0, "lon": -77.02833616666666}, {"fusion_lat": 0.0, "name": "c1f5a81bda57d8352b9c28b61e42a8b2", "is_disabled": 0, "rental_uris": {"android": "https://dc.lft.to/lastmile_qr_scan", "ios": "https://dc.lft.to/lastmile_qr_scan"}, "fusion_lon": 0.0, "lat": 38.89305483333333, "bike_id": "c1f5a81bda57d8352b9c28b61e42a8b2", "type": "electric_scooter", "is_reserved": 0, "lon": -77.0559095}, {"fusion_lat": 0.0, "name": "4863a6d6069bf34c5de8e35c579a9a01", "is_disabled": 0, "rental_uris": {"android": "https://dc.lft.to/lastmile_qr_scan", "ios": "https://dc.lft.to/lastmile_qr_scan"}, "fusion_lon": 0.0, "lat": 38.878448666666664, "bike_id": "4863a6d6069bf34c5de8e35c579a9a01", "type": "electric_scooter", "is_reserved": 0, "lon": -77.00556166666667}, {"fusion_lat": 0.0, "name": "404bb331f163e7372ba9036668a2f89c", "is_disabled": 0, "rental_uris": {"android": "https://dc.lft.to/lastmile_qr_scan", "ios": "https://dc.lft.to/lastmile_qr_scan"}, "fusion_lon": 0.0, "lat": 38.908168833333335, "bike_id": "404bb331f163e7372ba9036668a2f89c", "type": "electric_scooter", "is_reserved": 0, "lon": -77.04355766666667}, {"fusion_lat": 0.0, "name": "fe453e154be8cbd2f0f3d57263e2d26c", "is_disabled": 0, "rental_uris": {"android": "https://dc.lft.to/lastmile_qr_scan", "ios": "https://dc.lft.to/lastmile_qr_scan"}, "fusion_lon": 0.0, "lat": 38.89631083333333, "bike_id": "fe453e154be8cbd2f0f3d57263e2d26c", "type": "electric_scooter", "is_reserved": 0, "lon": -77.02407416666667}, {"fusion_lat": 0.0, "name": "4ea0f3e413b1303ce4d8290e939ccde9", "is_disabled": 0, "rental_uris": {"android": "https://dc.lft.to/lastmile_qr_scan", "ios": "https://dc.lft.to/lastmile_qr_scan"}, "fusion_lon": 0.0, "lat": 38.90247433333333, "bike_id": "4ea0f3e413b1303ce4d8290e939ccde9", "type": "electric_scooter", "is_reserved": 0, "lon": -77.01096716666666}, {"fusion_lat": 0.0, "name": "e0386c1e3df11880f2cefbaa976ee641", "is_disabled": 0, "rental_uris": {"android": "https://dc.lft.to/lastmile_qr_scan", "ios": "https://dc.lft.to/lastmile_qr_scan"}, "fusion_lon": 0.0, "lat": 38.920269833333336, "bike_id": "e0386c1e3df11880f2cefbaa976ee641", "type": "electric_scooter", "is_reserved": 0, "lon": -77.08200166666667}, {"fusion_lat": 0.0, "name": "655c2851b5a03de88c05fd9a47a591dd", "is_disabled": 0, "rental_uris": {"android": "https://dc.lft.to/lastmile_qr_scan", "ios": "https://dc.lft.to/lastmile_qr_scan"}, "fusion_lon": 0.0, "lat": 38.86135566666667, "bike_id": "655c2851b5a03de88c05fd9a47a591dd", "type": "electric_bike", "is_reserved": 0, "lon": -76.97174216666667}, {"fusion_lat": 0.0, "name": "f3e8553dff6ea0a480c01faeb78b4fb5", "is_disabled": 0, "rental_uris": {"android": "https://dc.lft.to/lastmile_qr_scan", "ios": "https://dc.lft.to/lastmile_qr_scan"}, "fusion_lon": 0.0, "lat": 38.91220666666667, "bike_id": "f3e8553dff6ea0a480c01faeb78b4fb5", "type": "electric_scooter", "is_reserved": 0, "lon": -77.03182816666667}, {"fusion_lat": 0.0, "name": "c4170160035bd5fc57ebf39d8f8fcd12", "is_disabled": 0, "rental_uris": {"android": "https://dc.lft.to/lastmile_qr_scan", "ios": "https://dc.lft.to/lastmile_qr_scan"}, "fusion_lon": 0.0, "lat": 38.9052345, "bike_id": "c4170160035bd5fc57ebf39d8f8fcd12", "type": "electric_scooter", "is_reserved": 0, "lon": -77.06617466666667}, {"fusion_lat": 0.0, "name": "f321d81041fb348e5b82cd0d8a9f7413", "is_disabled": 0, "rental_uris": {"android": "https://dc.lft.to/lastmile_qr_scan", "ios": "https://dc.lft.to/lastmile_qr_scan"}, "fusion_lon": 0.0, "lat": 38.903636166666665, "bike_id": "f321d81041fb348e5b82cd0d8a9f7413", "type": "electric_scooter", "is_reserved": 0, "lon": -77.05021283333333}, {"fusion_lat": 0.0, "name": "49f0c0f2ae481eccf47e65b3981fccc9", "is_disabled": 0, "rental_uris": {"android": "https://dc.lft.to/lastmile_qr_scan", "ios": "https://dc.lft.to/lastmile_qr_scan"}, "fusion_lon": 0.0, "lat": 38.915483333333334, "bike_id": "49f0c0f2ae481eccf47e65b3981fccc9", "type": "electric_scooter", "is_reserved": 0, "lon": -77.0209}, {"fusion_lat": 0.0, "name": "b1f55f882ef434ff096eea442c31a06a", "is_disabled": 0, "rental_uris": {"android": "https://dc.lft.to/lastmile_qr_scan", "ios": "https://dc.lft.to/lastmile_qr_scan"}, "fusion_lon": 0.0, "lat": 38.93419683333333, "bike_id": "b1f55f882ef434ff096eea442c31a06a", "type": "electric_scooter", "is_reserved": 0, "lon": -77.04281966666667}, {"fusion_lat": 0.0, "name": "694784cbd6d338f9193b1b7d7bcda57a", "is_disabled": 0, "rental_uris": {"android": "https://dc.lft.to/lastmile_qr_scan", "ios": "https://dc.lft.to/lastmile_qr_scan"}, "fusion_lon": 0.0, "lat": 38.91177483333333, "bike_id": "694784cbd6d338f9193b1b7d7bcda57a", "type": "electric_scooter", "is_reserved": 0, "lon": -77.03215716666666}, {"fusion_lat": 0.0, "name": "def6fa56cb02e5808c41c5895d1c5ec9", "is_disabled": 0, "rental_uris": {"android": "https://dc.lft.to/lastmile_qr_scan", "ios": "https://dc.lft.to/lastmile_qr_scan"}, "fusion_lon": 0.0, "lat": 38.91629416666667, "bike_id": "def6fa56cb02e5808c41c5895d1c5ec9", "type": "electric_scooter", "is_reserved": 0, "lon": -77.05076583333333}, {"fusion_lat": 0.0, "name": "ac76ee45350eb4b8eb227801942fbbb7", "is_disabled": 0, "rental_uris": {"android": "https://dc.lft.to/lastmile_qr_scan", "ios": "https://dc.lft.to/lastmile_qr_scan"}, "fusion_lon": 0.0, "lat": 38.900857333333335, "bike_id": "ac76ee45350eb4b8eb227801942fbbb7", "type": "electric_scooter", "is_reserved": 0, "lon": -77.02538566666666}, {"fusion_lat": 0.0, "name": "3dfadcb1d338a1941eb0aec6dd1dd1bf", "is_disabled": 0, "rental_uris": {"android": "https://dc.lft.to/lastmile_qr_scan", "ios": "https://dc.lft.to/lastmile_qr_scan"}, "fusion_lon": 0.0, "lat": 38.878310666666664, "bike_id": "3dfadcb1d338a1941eb0aec6dd1dd1bf", "type": "electric_scooter", "is_reserved": 0, "lon": -76.963226}, {"fusion_lat": 0.0, "name": "d8aebdf41c57748d8b14df82349b3816", "is_disabled": 0, "rental_uris": {"android": "https://dc.lft.to/lastmile_qr_scan", "ios": "https://dc.lft.to/lastmile_qr_scan"}, "fusion_lon": 0.0, "lat": 38.9408445, "bike_id": "d8aebdf41c57748d8b14df82349b3816", "type": "electric_scooter", "is_reserved": 0, "lon": -77.02648866666667}, {"fusion_lat": 0.0, "name": "4d87c3b51bbcae02aadf4ffe8e8d24fc", "is_disabled": 0, "rental_uris": {"android": "https://dc.lft.to/lastmile_qr_scan", "ios": "https://dc.lft.to/lastmile_qr_scan"}, "fusion_lon": 0.0, "lat": 38.907081833333336, "bike_id": "4d87c3b51bbcae02aadf4ffe8e8d24fc", "type": "electric_scooter", "is_reserved": 0, "lon": -77.04165716666667}, {"fusion_lat": 0.0, "name": "c9e2b384807240d0c433534fb36a11aa", "is_disabled": 0, "rental_uris": {"android": "https://dc.lft.to/lastmile_qr_scan", "ios": "https://dc.lft.to/lastmile_qr_scan"}, "fusion_lon": 0.0, "lat": 38.91772683333333, "bike_id": "c9e2b384807240d0c433534fb36a11aa", "type": "electric_scooter", "is_reserved": 0, "lon": -77.03580666666667}, {"fusion_lat": 0.0, "name": "ce23f39e8a3ff74babf5cb55cabe7d44", "is_disabled": 0, "rental_uris": {"android": "https://dc.lft.to/lastmile_qr_scan", "ios": "https://dc.lft.to/lastmile_qr_scan"}, "fusion_lon": 0.0, "lat": 38.92103483333333, "bike_id": "ce23f39e8a3ff74babf5cb55cabe7d44", "type": "electric_scooter", "is_reserved": 0, "lon": -77.04695983333333}, {"fusion_lat": 0.0, "name": "a07ea565ef969248fcdaa06ecd7f74e7", "is_disabled": 0, "rental_uris": {"android": "https://dc.lft.to/lastmile_qr_scan", "ios": "https://dc.lft.to/lastmile_qr_scan"}, "fusion_lon": 0.0, "lat": 38.8959105, "bike_id": "a07ea565ef969248fcdaa06ecd7f74e7", "type": "electric_scooter", "is_reserved": 0, "lon": -77.02195216666667}, {"fusion_lat": 0.0, "name": "aa3796e6eb080cd4025243a470a8401d", "is_disabled": 0, "rental_uris": {"android": "https://dc.lft.to/lastmile_qr_scan", "ios": "https://dc.lft.to/lastmile_qr_scan"}, "fusion_lon": 0.0, "lat": 38.9125515, "bike_id": "aa3796e6eb080cd4025243a470a8401d", "type": "electric_scooter", "is_reserved": 0, "lon": -77.010342}, {"fusion_lat": 0.0, "name": "e68006cdc6fa1fc43b0ef4bbfc3f6a30", "is_disabled": 0, "rental_uris": {"android": "https://dc.lft.to/lastmile_qr_scan", "ios": "https://dc.lft.to/lastmile_qr_scan"}, "fusion_lon": 0.0, "lat": 38.915699333333336, "bike_id": "e68006cdc6fa1fc43b0ef4bbfc3f6a30", "type": "electric_scooter", "is_reserved": 0, "lon": -77.03206266666666}, {"fusion_lat": 0.0, "name": "f60e6254b21f40538bc8d48b601fe57b", "is_disabled": 0, "rental_uris": {"android": "https://dc.lft.to/lastmile_qr_scan", "ios": "https://dc.lft.to/lastmile_qr_scan"}, "fusion_lon": 0.0, "lat": 38.92035466666667, "bike_id": "f60e6254b21f40538bc8d48b601fe57b", "type": "electric_scooter", "is_reserved": 0, "lon": -77.03396016666666}, {"fusion_lat": 0.0, "name": "05d947942c557ace41350aa8786fd93d", "is_disabled": 0, "rental_uris": {"android": "https://dc.lft.to/lastmile_qr_scan", "ios": "https://dc.lft.to/lastmile_qr_scan"}, "fusion_lon": 0.0, "lat": 38.804920333333335, "bike_id": "05d947942c557ace41350aa8786fd93d", "type": "electric_bike", "is_reserved": 0, "lon": -77.10164183333333}, {"fusion_lat": 0.0, "name": "becf4706b6a9b7f896dba8e667281200", "is_disabled": 0, "rental_uris": {"android": "https://dc.lft.to/lastmile_qr_scan", "ios": "https://dc.lft.to/lastmile_qr_scan"}, "fusion_lon": 0.0, "lat": 38.8738265, "bike_id": "becf4706b6a9b7f896dba8e667281200", "type": "electric_scooter", "is_reserved": 0, "lon": -77.0004845}, {"fusion_lat": 0.0, "name": "b20b10e8c30356149b752e8b7189dd5a", "is_disabled": 0, "rental_uris": {"android": "https://dc.lft.to/lastmile_qr_scan", "ios": "https://dc.lft.to/lastmile_qr_scan"}, "fusion_lon": 0.0, "lat": 38.912549166666665, "bike_id": "b20b10e8c30356149b752e8b7189dd5a", "type": "electric_scooter", "is_reserved": 0, "lon": -77.03634033333333}, {"fusion_lat": 0.0, "name": "315ac4e4048b9d662f648aa12a3ad65d", "is_disabled": 0, "rental_uris": {"android": "https://dc.lft.to/lastmile_qr_scan", "ios": "https://dc.lft.to/lastmile_qr_scan"}, "fusion_lon": 0.0, "lat": 38.934731166666666, "bike_id": "315ac4e4048b9d662f648aa12a3ad65d", "type": "electric_scooter", "is_reserved": 0, "lon": -77.0865905}, {"fusion_lat": 0.0, "name": "8d5f0cbb5b93ab54c713e54bde03f3da", "is_disabled": 0, "rental_uris": {"android": "https://dc.lft.to/lastmile_qr_scan", "ios": "https://dc.lft.to/lastmile_qr_scan"}, "fusion_lon": 0.0, "lat": 38.903609333333335, "bike_id": "8d5f0cbb5b93ab54c713e54bde03f3da", "type": "electric_scooter", "is_reserved": 0, "lon": -77.04504266666666}, {"fusion_lat": 0.0, "name": "346f5d1e485a86786c31501cb307e791", "is_disabled": 0, "rental_uris": {"android": "https://dc.lft.to/lastmile_qr_scan", "ios": "https://dc.lft.to/lastmile_qr_scan"}, "fusion_lon": 0.0, "lat": 38.92499133333333, "bike_id": "346f5d1e485a86786c31501cb307e791", "type": "electric_scooter", "is_reserved": 0, "lon": -76.98548766666667}, {"fusion_lat": 0.0, "name": "a0fe38fe75d7d54fc2d1e71904c61abe", "is_disabled": 0, "rental_uris": {"android": "https://dc.lft.to/lastmile_qr_scan", "ios": "https://dc.lft.to/lastmile_qr_scan"}, "fusion_lon": 0.0, "lat": 38.90079183333334, "bike_id": "a0fe38fe75d7d54fc2d1e71904c61abe", "type": "electric_scooter", "is_reserved": 0, "lon": -77.0500725}, {"fusion_lat": 0.0, "name": "62781f6f5a68ed601d00c2ed3cc1b6ac", "is_disabled": 0, "rental_uris": {"android": "https://dc.lft.to/lastmile_qr_scan", "ios": "https://dc.lft.to/lastmile_qr_scan"}, "fusion_lon": 0.0, "lat": 38.92812083333333, "bike_id": "62781f6f5a68ed601d00c2ed3cc1b6ac", "type": "electric_scooter", "is_reserved": 0, "lon": -77.0233315}, {"fusion_lat": 0.0, "name": "af31161778101c7e6a940c8db9390f4a", "is_disabled": 0, "rental_uris": {"android": "https://dc.lft.to/lastmile_qr_scan", "ios": "https://dc.lft.to/lastmile_qr_scan"}, "fusion_lon": 0.0, "lat": 38.892807833333336, "bike_id": "af31161778101c7e6a940c8db9390f4a", "type": "electric_scooter", "is_reserved": 0, "lon": -77.03205516666667}, {"fusion_lat": 0.0, "name": "6b68312e53e29259a528385ae8570236", "is_disabled": 0, "rental_uris": {"android": "https://dc.lft.to/lastmile_qr_scan", "ios": "https://dc.lft.to/lastmile_qr_scan"}, "fusion_lon": 0.0, "lat": 38.89796183333333, "bike_id": "6b68312e53e29259a528385ae8570236", "type": "electric_scooter", "is_reserved": 0, "lon": -76.984614}, {"fusion_lat": 0.0, "name": "3038d576fdc48da8e4d048782a67b0d0", "is_disabled": 0, "rental_uris": {"android": "https://dc.lft.to/lastmile_qr_scan", "ios": "https://dc.lft.to/lastmile_qr_scan"}, "fusion_lon": 0.0, "lat": 38.895335833333334, "bike_id": "3038d576fdc48da8e4d048782a67b0d0", "type": "electric_scooter", "is_reserved": 0, "lon": -77.02692766666667}, {"fusion_lat": 0.0, "name": "ca5c117573aed0104f56c2fee664e058", "is_disabled": 0, "rental_uris": {"android": "https://dc.lft.to/lastmile_qr_scan", "ios": "https://dc.lft.to/lastmile_qr_scan"}, "fusion_lon": 0.0, "lat": 38.916628333333335, "bike_id": "ca5c117573aed0104f56c2fee664e058", "type": "electric_scooter", "is_reserved": 0, "lon": -77.038582}, {"fusion_lat": 0.0, "name": "9df8132f21894802c722bf922b787c47", "is_disabled": 0, "rental_uris": {"android": "https://dc.lft.to/lastmile_qr_scan", "ios": "https://dc.lft.to/lastmile_qr_scan"}, "fusion_lon": 0.0, "lat": 38.89228833333333, "bike_id": "9df8132f21894802c722bf922b787c47", "type": "electric_scooter", "is_reserved": 0, "lon": -77.02384383333333}, {"fusion_lat": 0.0, "name": "bb6aa6a629d17da2d01b67590a054596", "is_disabled": 0, "rental_uris": {"android": "https://dc.lft.to/lastmile_qr_scan", "ios": "https://dc.lft.to/lastmile_qr_scan"}, "fusion_lon": 0.0, "lat": 38.8716145, "bike_id": "bb6aa6a629d17da2d01b67590a054596", "type": "electric_scooter", "is_reserved": 0, "lon": -77.00577816666667}, {"fusion_lat": 0.0, "name": "39801fbb8df4932da38d1b349883f37e", "is_disabled": 0, "rental_uris": {"android": "https://dc.lft.to/lastmile_qr_scan", "ios": "https://dc.lft.to/lastmile_qr_scan"}, "fusion_lon": 0.0, "lat": 38.9281045, "bike_id": "39801fbb8df4932da38d1b349883f37e", "type": "electric_scooter", "is_reserved": 0, "lon": -77.04340466666666}, {"fusion_lat": 0.0, "name": "76a8029c584ce2172926abcbdd0889e0", "is_disabled": 0, "rental_uris": {"android": "https://dc.lft.to/lastmile_qr_scan", "ios": "https://dc.lft.to/lastmile_qr_scan"}, "fusion_lon": 0.0, "lat": 38.902980666666664, "bike_id": "76a8029c584ce2172926abcbdd0889e0", "type": "electric_scooter", "is_reserved": 0, "lon": -77.04960383333334}, {"fusion_lat": 0.0, "name": "ee453ff2d083dcaddffd4f7b25efe63c", "is_disabled": 0, "rental_uris": {"android": "https://dc.lft.to/lastmile_qr_scan", "ios": "https://dc.lft.to/lastmile_qr_scan"}, "fusion_lon": 0.0, "lat": 38.85867966666667, "bike_id": "ee453ff2d083dcaddffd4f7b25efe63c", "type": "electric_bike", "is_reserved": 0, "lon": -77.09557216666667}, {"fusion_lat": 0.0, "name": "8b417220d0128ae79608204bfa32a1e3", "is_disabled": 0, "rental_uris": {"android": "https://dc.lft.to/lastmile_qr_scan", "ios": "https://dc.lft.to/lastmile_qr_scan"}, "fusion_lon": 0.0, "lat": 38.91962766666666, "bike_id": "8b417220d0128ae79608204bfa32a1e3", "type": "electric_scooter", "is_reserved": 0, "lon": -77.04157833333333}, {"fusion_lat": 0.0, "name": "d9931e2760b86bd90290ab9388225c94", "is_disabled": 0, "rental_uris": {"android": "https://dc.lft.to/lastmile_qr_scan", "ios": "https://dc.lft.to/lastmile_qr_scan"}, "fusion_lon": 0.0, "lat": 38.931839833333335, "bike_id": "d9931e2760b86bd90290ab9388225c94", "type": "electric_scooter", "is_reserved": 0, "lon": -77.03702616666666}, {"fusion_lat": 0.0, "name": "b4b69b015f94d545c108169b94c9397a", "is_disabled": 0, "rental_uris": {"android": "https://dc.lft.to/lastmile_qr_scan", "ios": "https://dc.lft.to/lastmile_qr_scan"}, "fusion_lon": 0.0, "lat": 38.905693666666664, "bike_id": "b4b69b015f94d545c108169b94c9397a", "type": "electric_scooter", "is_reserved": 0, "lon": -77.040747}, {"fusion_lat": 0.0, "name": "572cb06d240504881a9a22a02238ccf3", "is_disabled": 0, "rental_uris": {"android": "https://dc.lft.to/lastmile_qr_scan", "ios": "https://dc.lft.to/lastmile_qr_scan"}, "fusion_lon": 0.0, "lat": 38.934479333333336, "bike_id": "572cb06d240504881a9a22a02238ccf3", "type": "electric_scooter", "is_reserved": 0, "lon": -77.03869583333334}, {"fusion_lat": 0.0, "name": "14c882e7eb6b06aacbea5c41ad7ae9b2", "is_disabled": 0, "rental_uris": {"android": "https://dc.lft.to/lastmile_qr_scan", "ios": "https://dc.lft.to/lastmile_qr_scan"}, "fusion_lon": 0.0, "lat": 38.9065365, "bike_id": "14c882e7eb6b06aacbea5c41ad7ae9b2", "type": "electric_scooter", "is_reserved": 0, "lon": -77.02197416666667}, {"fusion_lat": 0.0, "name": "fa1276187f8fd21dc349014755113c4a", "is_disabled": 0, "rental_uris": {"android": "https://dc.lft.to/lastmile_qr_scan", "ios": "https://dc.lft.to/lastmile_qr_scan"}, "fusion_lon": 0.0, "lat": 38.906288333333336, "bike_id": "fa1276187f8fd21dc349014755113c4a", "type": "electric_scooter", "is_reserved": 0, "lon": -77.0260815}, {"fusion_lat": 0.0, "name": "3abb8e09db413908c5a6607c07e9811a", "is_disabled": 0, "rental_uris": {"android": "https://dc.lft.to/lastmile_qr_scan", "ios": "https://dc.lft.to/lastmile_qr_scan"}, "fusion_lon": 0.0, "lat": 38.916328, "bike_id": "3abb8e09db413908c5a6607c07e9811a", "type": "electric_scooter", "is_reserved": 0, "lon": -77.02966716666667}, {"fusion_lat": 0.0, "name": "3efa5d53f5022a3ecd1d841c68db0ecc", "is_disabled": 0, "rental_uris": {"android": "https://dc.lft.to/lastmile_qr_scan", "ios": "https://dc.lft.to/lastmile_qr_scan"}, "fusion_lon": 0.0, "lat": 38.928794333333336, "bike_id": "3efa5d53f5022a3ecd1d841c68db0ecc", "type": "electric_scooter", "is_reserved": 0, "lon": -76.99564583333333}, {"fusion_lat": 0.0, "name": "b1875f5e09d159a351b2093b04095a63", "is_disabled": 0, "rental_uris": {"android": "https://dc.lft.to/lastmile_qr_scan", "ios": "https://dc.lft.to/lastmile_qr_scan"}, "fusion_lon": 0.0, "lat": 38.880174333333336, "bike_id": "b1875f5e09d159a351b2093b04095a63", "type": "electric_scooter", "is_reserved": 0, "lon": -76.98074966666667}, {"fusion_lat": 0.0, "name": "67592df46d91265d94fc626608c2389b", "is_disabled": 0, "rental_uris": {"android": "https://dc.lft.to/lastmile_qr_scan", "ios": "https://dc.lft.to/lastmile_qr_scan"}, "fusion_lon": 0.0, "lat": 38.9077875, "bike_id": "67592df46d91265d94fc626608c2389b", "type": "electric_scooter", "is_reserved": 0, "lon": -77.07255383333333}, {"fusion_lat": 0.0, "name": "4d194b8e6549fb7c8a96290fa6984361", "is_disabled": 0, "rental_uris": {"android": "https://dc.lft.to/lastmile_qr_scan", "ios": "https://dc.lft.to/lastmile_qr_scan"}, "fusion_lon": 0.0, "lat": 38.9023425, "bike_id": "4d194b8e6549fb7c8a96290fa6984361", "type": "electric_scooter", "is_reserved": 0, "lon": -77.00205466666667}, {"fusion_lat": 0.0, "name": "53bd64f4002b9e3f7607818986c04f50", "is_disabled": 0, "rental_uris": {"android": "https://dc.lft.to/lastmile_qr_scan", "ios": "https://dc.lft.to/lastmile_qr_scan"}, "fusion_lon": 0.0, "lat": 38.913021666666666, "bike_id": "53bd64f4002b9e3f7607818986c04f50", "type": "electric_scooter", "is_reserved": 0, "lon": -77.03638433333333}, {"fusion_lat": 0.0, "name": "94439e67f9c698d6423455c17d7380f7", "is_disabled": 0, "rental_uris": {"android": "https://dc.lft.to/lastmile_qr_scan", "ios": "https://dc.lft.to/lastmile_qr_scan"}, "fusion_lon": 0.0, "lat": 38.91120866666667, "bike_id": "94439e67f9c698d6423455c17d7380f7", "type": "electric_scooter", "is_reserved": 0, "lon": -77.0188245}, {"fusion_lat": 0.0, "name": "db50a650ba15ace43fc42b541aec2a4f", "is_disabled": 0, "rental_uris": {"android": "https://dc.lft.to/lastmile_qr_scan", "ios": "https://dc.lft.to/lastmile_qr_scan"}, "fusion_lon": 0.0, "lat": 38.899978, "bike_id": "db50a650ba15ace43fc42b541aec2a4f", "type": "electric_scooter", "is_reserved": 0, "lon": -77.01026883333333}, {"fusion_lat": 0.0, "name": "6e5b3abd7b3c79c5b3139e34fea1fca0", "is_disabled": 0, "rental_uris": {"android": "https://dc.lft.to/lastmile_qr_scan", "ios": "https://dc.lft.to/lastmile_qr_scan"}, "fusion_lon": 0.0, "lat": 38.900140666666665, "bike_id": "6e5b3abd7b3c79c5b3139e34fea1fca0", "type": "electric_scooter", "is_reserved": 0, "lon": -77.02210283333334}, {"fusion_lat": 0.0, "name": "5ebc4f58379c3068c1e94b67a7eebc9b", "is_disabled": 0, "rental_uris": {"android": "https://dc.lft.to/lastmile_qr_scan", "ios": "https://dc.lft.to/lastmile_qr_scan"}, "fusion_lon": 0.0, "lat": 38.91709916666667, "bike_id": "5ebc4f58379c3068c1e94b67a7eebc9b", "type": "electric_scooter", "is_reserved": 0, "lon": -77.04125066666667}, {"fusion_lat": 0.0, "name": "651757fea4ad34460641b5eba01bd1ea", "is_disabled": 0, "rental_uris": {"android": "https://dc.lft.to/lastmile_qr_scan", "ios": "https://dc.lft.to/lastmile_qr_scan"}, "fusion_lon": 0.0, "lat": 38.99772883333333, "bike_id": "651757fea4ad34460641b5eba01bd1ea", "type": "electric_bike", "is_reserved": 0, "lon": -77.04714666666666}, {"fusion_lat": 0.0, "name": "211326e5a5b16d8662594baf7529eaa5", "is_disabled": 0, "rental_uris": {"android": "https://dc.lft.to/lastmile_qr_scan", "ios": "https://dc.lft.to/lastmile_qr_scan"}, "fusion_lon": 0.0, "lat": 38.923608, "bike_id": "211326e5a5b16d8662594baf7529eaa5", "type": "electric_scooter", "is_reserved": 0, "lon": -77.0337435}, {"fusion_lat": 0.0, "name": "0834c3fcded819d18b688b6a54feabfd", "is_disabled": 0, "rental_uris": {"android": "https://dc.lft.to/lastmile_qr_scan", "ios": "https://dc.lft.to/lastmile_qr_scan"}, "fusion_lon": 0.0, "lat": 38.88889666666667, "bike_id": "0834c3fcded819d18b688b6a54feabfd", "type": "electric_scooter", "is_reserved": 0, "lon": -77.01507833333334}, {"fusion_lat": 0.0, "name": "ed5061bdcc3ce963af63d94ad584b25c", "is_disabled": 0, "rental_uris": {"android": "https://dc.lft.to/lastmile_qr_scan", "ios": "https://dc.lft.to/lastmile_qr_scan"}, "fusion_lon": 0.0, "lat": 38.90362833333333, "bike_id": "ed5061bdcc3ce963af63d94ad584b25c", "type": "electric_scooter", "is_reserved": 0, "lon": -77.04836683333333}, {"fusion_lat": 0.0, "name": "f9d24e81c16b245033de74e7e08e71e2", "is_disabled": 0, "rental_uris": {"android": "https://dc.lft.to/lastmile_qr_scan", "ios": "https://dc.lft.to/lastmile_qr_scan"}, "fusion_lon": 0.0, "lat": 38.90582933333334, "bike_id": "f9d24e81c16b245033de74e7e08e71e2", "type": "electric_scooter", "is_reserved": 0, "lon": -77.0064865}, {"fusion_lat": 0.0, "name": "4f49bac6634473c5fc05e2c69df1fe6d", "is_disabled": 0, "rental_uris": {"android": "https://dc.lft.to/lastmile_qr_scan", "ios": "https://dc.lft.to/lastmile_qr_scan"}, "fusion_lon": 0.0, "lat": 38.90569133333333, "bike_id": "4f49bac6634473c5fc05e2c69df1fe6d", "type": "electric_scooter", "is_reserved": 0, "lon": -77.04563733333333}, {"fusion_lat": 0.0, "name": "4a1d78a92bbca401d0d0380d07ff1ad7", "is_disabled": 0, "rental_uris": {"android": "https://dc.lft.to/lastmile_qr_scan", "ios": "https://dc.lft.to/lastmile_qr_scan"}, "fusion_lon": 0.0, "lat": 38.9052415, "bike_id": "4a1d78a92bbca401d0d0380d07ff1ad7", "type": "electric_scooter", "is_reserved": 0, "lon": -77.061379}, {"fusion_lat": 0.0, "name": "0a05295393750413b8f255ddbf62f9c6", "is_disabled": 0, "rental_uris": {"android": "https://dc.lft.to/lastmile_qr_scan", "ios": "https://dc.lft.to/lastmile_qr_scan"}, "fusion_lon": 0.0, "lat": 38.90952883333333, "bike_id": "0a05295393750413b8f255ddbf62f9c6", "type": "electric_scooter", "is_reserved": 0, "lon": -76.98543666666667}, {"fusion_lat": 0.0, "name": "de70d031d65fea011a74d33999110847", "is_disabled": 0, "rental_uris": {"android": "https://dc.lft.to/lastmile_qr_scan", "ios": "https://dc.lft.to/lastmile_qr_scan"}, "fusion_lon": 0.0, "lat": 38.920709333333335, "bike_id": "de70d031d65fea011a74d33999110847", "type": "electric_scooter", "is_reserved": 0, "lon": -77.02437883333333}, {"fusion_lat": 0.0, "name": "19125c2f2b61609ba04d0e922c553ee0", "is_disabled": 0, "rental_uris": {"android": "https://dc.lft.to/lastmile_qr_scan", "ios": "https://dc.lft.to/lastmile_qr_scan"}, "fusion_lon": 0.0, "lat": 38.909654833333335, "bike_id": "19125c2f2b61609ba04d0e922c553ee0", "type": "electric_scooter", "is_reserved": 0, "lon": -77.04843033333333}, {"fusion_lat": 0.0, "name": "ad948a09e7283e94ca893967cb48ab01", "is_disabled": 0, "rental_uris": {"android": "https://dc.lft.to/lastmile_qr_scan", "ios": "https://dc.lft.to/lastmile_qr_scan"}, "fusion_lon": 0.0, "lat": 38.93957016666667, "bike_id": "ad948a09e7283e94ca893967cb48ab01", "type": "electric_scooter", "is_reserved": 0, "lon": -77.0328465}, {"fusion_lat": 0.0, "name": "4abb63d81184cd618ef6c8a16d47821b", "is_disabled": 0, "rental_uris": {"android": "https://dc.lft.to/lastmile_qr_scan", "ios": "https://dc.lft.to/lastmile_qr_scan"}, "fusion_lon": 0.0, "lat": 38.8278445, "bike_id": "4abb63d81184cd618ef6c8a16d47821b", "type": "electric_bike", "is_reserved": 0, "lon": -77.12494966666667}, {"fusion_lat": 0.0, "name": "e95d4d7d8c7c80afca48ec2a65d4b6d9", "is_disabled": 0, "rental_uris": {"android": "https://dc.lft.to/lastmile_qr_scan", "ios": "https://dc.lft.to/lastmile_qr_scan"}, "fusion_lon": 0.0, "lat": 38.931121, "bike_id": "e95d4d7d8c7c80afca48ec2a65d4b6d9", "type": "electric_scooter", "is_reserved": 0, "lon": -77.02086683333333}, {"fusion_lat": 0.0, "name": "c05df31cddaf0c701fa26059b072b3be", "is_disabled": 0, "rental_uris": {"android": "https://dc.lft.to/lastmile_qr_scan", "ios": "https://dc.lft.to/lastmile_qr_scan"}, "fusion_lon": 0.0, "lat": 38.89224566666667, "bike_id": "c05df31cddaf0c701fa26059b072b3be", "type": "electric_scooter", "is_reserved": 0, "lon": -77.02663733333333}, {"fusion_lat": 0.0, "name": "81e4527f3ac6aef02f80e47dea7f0f3a", "is_disabled": 0, "rental_uris": {"android": "https://dc.lft.to/lastmile_qr_scan", "ios": "https://dc.lft.to/lastmile_qr_scan"}, "fusion_lon": 0.0, "lat": 38.88518333333333, "bike_id": "81e4527f3ac6aef02f80e47dea7f0f3a", "type": "electric_scooter", "is_reserved": 0, "lon": -76.97713366666666}, {"fusion_lat": 0.0, "name": "0a0fbabd98fd845ef5f10263fa588035", "is_disabled": 0, "rental_uris": {"android": "https://dc.lft.to/lastmile_qr_scan", "ios": "https://dc.lft.to/lastmile_qr_scan"}, "fusion_lon": 0.0, "lat": 38.90622466666667, "bike_id": "0a0fbabd98fd845ef5f10263fa588035", "type": "electric_scooter", "is_reserved": 0, "lon": -77.02613033333333}, {"fusion_lat": 0.0, "name": "35f11dd94fb2445553a0f2fd773c5752", "is_disabled": 0, "rental_uris": {"android": "https://dc.lft.to/lastmile_qr_scan", "ios": "https://dc.lft.to/lastmile_qr_scan"}, "fusion_lon": 0.0, "lat": 38.84423683333333, "bike_id": "35f11dd94fb2445553a0f2fd773c5752", "type": "electric_scooter", "is_reserved": 0, "lon": -76.99782866666666}, {"fusion_lat": 0.0, "name": "e1b1b64bda6a8b94d166eb7ccc2e3d1a", "is_disabled": 0, "rental_uris": {"android": "https://dc.lft.to/lastmile_qr_scan", "ios": "https://dc.lft.to/lastmile_qr_scan"}, "fusion_lon": 0.0, "lat": 38.8974285, "bike_id": "e1b1b64bda6a8b94d166eb7ccc2e3d1a", "type": "electric_scooter", "is_reserved": 0, "lon": -77.003671}, {"fusion_lat": 0.0, "name": "bd2e6cd0624b742e9ae1ccd7bf55b79b", "is_disabled": 0, "rental_uris": {"android": "https://dc.lft.to/lastmile_qr_scan", "ios": "https://dc.lft.to/lastmile_qr_scan"}, "fusion_lon": 0.0, "lat": 38.9077585, "bike_id": "bd2e6cd0624b742e9ae1ccd7bf55b79b", "type": "electric_scooter", "is_reserved": 0, "lon": -77.03844766666667}, {"fusion_lat": 0.0, "name": "1c408636f1fd725f6cf7091e1be011ed", "is_disabled": 0, "rental_uris": {"android": "https://dc.lft.to/lastmile_qr_scan", "ios": "https://dc.lft.to/lastmile_qr_scan"}, "fusion_lon": 0.0, "lat": 38.91112733333333, "bike_id": "1c408636f1fd725f6cf7091e1be011ed", "type": "electric_scooter", "is_reserved": 0, "lon": -77.08136333333333}, {"fusion_lat": 0.0, "name": "56831c2e138c66c38aa3f0a8ae1d151e", "is_disabled": 0, "rental_uris": {"android": "https://dc.lft.to/lastmile_qr_scan", "ios": "https://dc.lft.to/lastmile_qr_scan"}, "fusion_lon": 0.0, "lat": 38.91844183333333, "bike_id": "56831c2e138c66c38aa3f0a8ae1d151e", "type": "electric_scooter", "is_reserved": 0, "lon": -76.9655515}, {"fusion_lat": 0.0, "name": "95071f0b11ca70ace1252a72175abce7", "is_disabled": 0, "rental_uris": {"android": "https://dc.lft.to/lastmile_qr_scan", "ios": "https://dc.lft.to/lastmile_qr_scan"}, "fusion_lon": 0.0, "lat": 38.913258666666664, "bike_id": "95071f0b11ca70ace1252a72175abce7", "type": "electric_scooter", "is_reserved": 0, "lon": -77.01969966666667}, {"fusion_lat": 0.0, "name": "f6daa1f232618b9cb9e0bab5796bc0b8", "is_disabled": 0, "rental_uris": {"android": "https://dc.lft.to/lastmile_qr_scan", "ios": "https://dc.lft.to/lastmile_qr_scan"}, "fusion_lon": 0.0, "lat": 38.893223666666664, "bike_id": "f6daa1f232618b9cb9e0bab5796bc0b8", "type": "electric_bike", "is_reserved": 0, "lon": -76.95124283333334}, {"fusion_lat": 0.0, "name": "44dcc6f349960c52ef8bce592d3ff761", "is_disabled": 0, "rental_uris": {"android": "https://dc.lft.to/lastmile_qr_scan", "ios": "https://dc.lft.to/lastmile_qr_scan"}, "fusion_lon": 0.0, "lat": 38.909595333333336, "bike_id": "44dcc6f349960c52ef8bce592d3ff761", "type": "electric_scooter", "is_reserved": 0, "lon": -77.03245916666667}, {"fusion_lat": 0.0, "name": "7bd6cde495211fa8ec233fb38f1e32e4", "is_disabled": 0, "rental_uris": {"android": "https://dc.lft.to/lastmile_qr_scan", "ios": "https://dc.lft.to/lastmile_qr_scan"}, "fusion_lon": 0.0, "lat": 38.883951, "bike_id": "7bd6cde495211fa8ec233fb38f1e32e4", "type": "electric_scooter", "is_reserved": 0, "lon": -77.02983933333333}, {"fusion_lat": 0.0, "name": "6f3d3bde2c5c68e0a2491965ceed889f", "is_disabled": 0, "rental_uris": {"android": "https://dc.lft.to/lastmile_qr_scan", "ios": "https://dc.lft.to/lastmile_qr_scan"}, "fusion_lon": 0.0, "lat": 38.873922, "bike_id": "6f3d3bde2c5c68e0a2491965ceed889f", "type": "electric_scooter", "is_reserved": 0, "lon": -77.0145235}, {"fusion_lat": 0.0, "name": "588e51fd89414ded67c6e2eb642050cf", "is_disabled": 0, "rental_uris": {"android": "https://dc.lft.to/lastmile_qr_scan", "ios": "https://dc.lft.to/lastmile_qr_scan"}, "fusion_lon": 0.0, "lat": 38.91746366666667, "bike_id": "588e51fd89414ded67c6e2eb642050cf", "type": "electric_scooter", "is_reserved": 0, "lon": -77.01218566666667}, {"fusion_lat": 0.0, "name": "33173e12a4ad8aed32e8771c4c279cea", "is_disabled": 0, "rental_uris": {"android": "https://dc.lft.to/lastmile_qr_scan", "ios": "https://dc.lft.to/lastmile_qr_scan"}, "fusion_lon": 0.0, "lat": 38.865126333333336, "bike_id": "33173e12a4ad8aed32e8771c4c279cea", "type": "electric_bike", "is_reserved": 0, "lon": -76.97333383333333}, {"fusion_lat": 0.0, "name": "96dc46b5f9cb5b2f2666bf955f48de77", "is_disabled": 0, "rental_uris": {"android": "https://dc.lft.to/lastmile_qr_scan", "ios": "https://dc.lft.to/lastmile_qr_scan"}, "fusion_lon": 0.0, "lat": 38.919123, "bike_id": "96dc46b5f9cb5b2f2666bf955f48de77", "type": "electric_scooter", "is_reserved": 0, "lon": -77.031889}, {"fusion_lat": 0.0, "name": "1abdb98948f481f7ce3468c6721cc894", "is_disabled": 0, "rental_uris": {"android": "https://dc.lft.to/lastmile_qr_scan", "ios": "https://dc.lft.to/lastmile_qr_scan"}, "fusion_lon": 0.0, "lat": 38.91847766666667, "bike_id": "1abdb98948f481f7ce3468c6721cc894", "type": "electric_scooter", "is_reserved": 0, "lon": -77.02394933333333}, {"fusion_lat": 0.0, "name": "c74720e38a4d40a52905e0c2c2be6644", "is_disabled": 0, "rental_uris": {"android": "https://dc.lft.to/lastmile_qr_scan", "ios": "https://dc.lft.to/lastmile_qr_scan"}, "fusion_lon": 0.0, "lat": 38.88743, "bike_id": "c74720e38a4d40a52905e0c2c2be6644", "type": "electric_scooter", "is_reserved": 0, "lon": -77.022668}, {"fusion_lat": 0.0, "name": "42736d9ef21240cfe005ed7e5d2d5f9d", "is_disabled": 0, "rental_uris": {"android": "https://dc.lft.to/lastmile_qr_scan", "ios": "https://dc.lft.to/lastmile_qr_scan"}, "fusion_lon": 0.0, "lat": 38.84911066666667, "bike_id": "42736d9ef21240cfe005ed7e5d2d5f9d", "type": "electric_bike", "is_reserved": 0, "lon": -77.09983166666666}, {"fusion_lat": 0.0, "name": "fd4bc4e5068d334934ba32d93a2445e9", "is_disabled": 0, "rental_uris": {"android": "https://dc.lft.to/lastmile_qr_scan", "ios": "https://dc.lft.to/lastmile_qr_scan"}, "fusion_lon": 0.0, "lat": 38.91659033333333, "bike_id": "fd4bc4e5068d334934ba32d93a2445e9", "type": "electric_scooter", "is_reserved": 0, "lon": -77.0385515}, {"fusion_lat": 0.0, "name": "5391f7a27984bd45ea109bf21f859476", "is_disabled": 0, "rental_uris": {"android": "https://dc.lft.to/lastmile_qr_scan", "ios": "https://dc.lft.to/lastmile_qr_scan"}, "fusion_lon": 0.0, "lat": 38.901039, "bike_id": "5391f7a27984bd45ea109bf21f859476", "type": "electric_scooter", "is_reserved": 0, "lon": -77.03176333333333}, {"fusion_lat": 0.0, "name": "304df43e6cd08ded81f2e3488f8d6a37", "is_disabled": 0, "rental_uris": {"android": "https://dc.lft.to/lastmile_qr_scan", "ios": "https://dc.lft.to/lastmile_qr_scan"}, "fusion_lon": 0.0, "lat": 38.91988516666667, "bike_id": "304df43e6cd08ded81f2e3488f8d6a37", "type": "electric_scooter", "is_reserved": 0, "lon": -77.0419205}, {"fusion_lat": 0.0, "name": "0077631ee6c2027445dd1ac67f7866bd", "is_disabled": 0, "rental_uris": {"android": "https://dc.lft.to/lastmile_qr_scan", "ios": "https://dc.lft.to/lastmile_qr_scan"}, "fusion_lon": 0.0, "lat": 38.91580116666667, "bike_id": "0077631ee6c2027445dd1ac67f7866bd", "type": "electric_scooter", "is_reserved": 0, "lon": -77.044983}, {"fusion_lat": 0.0, "name": "2d01f7b4369ab0be241e5fab0c0559cb", "is_disabled": 0, "rental_uris": {"android": "https://dc.lft.to/lastmile_qr_scan", "ios": "https://dc.lft.to/lastmile_qr_scan"}, "fusion_lon": 0.0, "lat": 38.888994333333336, "bike_id": "2d01f7b4369ab0be241e5fab0c0559cb", "type": "electric_scooter", "is_reserved": 0, "lon": -76.99206683333334}, {"fusion_lat": 0.0, "name": "a706bba8c620da64f6a91ef83732be6d", "is_disabled": 0, "rental_uris": {"android": "https://dc.lft.to/lastmile_qr_scan", "ios": "https://dc.lft.to/lastmile_qr_scan"}, "fusion_lon": 0.0, "lat": 38.917191333333335, "bike_id": "a706bba8c620da64f6a91ef83732be6d", "type": "electric_scooter", "is_reserved": 0, "lon": -77.03217466666666}, {"fusion_lat": 0.0, "name": "d88929c7c4ec1c7753d3952f64e8a827", "is_disabled": 0, "rental_uris": {"android": "https://dc.lft.to/lastmile_qr_scan", "ios": "https://dc.lft.to/lastmile_qr_scan"}, "fusion_lon": 0.0, "lat": 38.898459833333334, "bike_id": "d88929c7c4ec1c7753d3952f64e8a827", "type": "electric_scooter", "is_reserved": 0, "lon": -76.9903705}, {"fusion_lat": 0.0, "name": "36b05e347e903434624f91fc90b1c12b", "is_disabled": 0, "rental_uris": {"android": "https://dc.lft.to/lastmile_qr_scan", "ios": "https://dc.lft.to/lastmile_qr_scan"}, "fusion_lon": 0.0, "lat": 38.87818466666667, "bike_id": "36b05e347e903434624f91fc90b1c12b", "type": "electric_scooter", "is_reserved": 0, "lon": -77.00135}, {"fusion_lat": 0.0, "name": "bd528cf7df979169182f4e0bf88cac75", "is_disabled": 0, "rental_uris": {"android": "https://dc.lft.to/lastmile_qr_scan", "ios": "https://dc.lft.to/lastmile_qr_scan"}, "fusion_lon": 0.0, "lat": 38.93114716666667, "bike_id": "bd528cf7df979169182f4e0bf88cac75", "type": "electric_scooter", "is_reserved": 0, "lon": -77.03030333333334}, {"fusion_lat": 0.0, "name": "86117bef2292dfacf098344a40fb8a63", "is_disabled": 0, "rental_uris": {"android": "https://dc.lft.to/lastmile_qr_scan", "ios": "https://dc.lft.to/lastmile_qr_scan"}, "fusion_lon": 0.0, "lat": 38.9416105, "bike_id": "86117bef2292dfacf098344a40fb8a63", "type": "electric_bike", "is_reserved": 0, "lon": -76.96658566666666}, {"fusion_lat": 0.0, "name": "de4360cc675301c6023b97bfa4835c91", "is_disabled": 0, "rental_uris": {"android": "https://dc.lft.to/lastmile_qr_scan", "ios": "https://dc.lft.to/lastmile_qr_scan"}, "fusion_lon": 0.0, "lat": 38.9841785, "bike_id": "de4360cc675301c6023b97bfa4835c91", "type": "electric_scooter", "is_reserved": 0, "lon": -77.035445}, {"fusion_lat": 0.0, "name": "cfc611dfb12ba574c0e1e5ef663c9045", "is_disabled": 0, "rental_uris": {"android": "https://dc.lft.to/lastmile_qr_scan", "ios": "https://dc.lft.to/lastmile_qr_scan"}, "fusion_lon": 0.0, "lat": 38.895489, "bike_id": "cfc611dfb12ba574c0e1e5ef663c9045", "type": "electric_scooter", "is_reserved": 0, "lon": -77.02402183333334}, {"fusion_lat": 0.0, "name": "1a122bd7f6ef0b7932fd48a21bc764b7", "is_disabled": 0, "rental_uris": {"android": "https://dc.lft.to/lastmile_qr_scan", "ios": "https://dc.lft.to/lastmile_qr_scan"}, "fusion_lon": 0.0, "lat": 38.87361583333333, "bike_id": "1a122bd7f6ef0b7932fd48a21bc764b7", "type": "electric_scooter", "is_reserved": 0, "lon": -77.00131866666666}, {"fusion_lat": 0.0, "name": "a8b7753560113b4a8cf31c14fd442628", "is_disabled": 0, "rental_uris": {"android": "https://dc.lft.to/lastmile_qr_scan", "ios": "https://dc.lft.to/lastmile_qr_scan"}, "fusion_lon": 0.0, "lat": 38.900255, "bike_id": "a8b7753560113b4a8cf31c14fd442628", "type": "electric_scooter", "is_reserved": 0, "lon": -77.024035}, {"fusion_lat": 0.0, "name": "4127d678dc841a8b2ab5e43915b66d19", "is_disabled": 0, "rental_uris": {"android": "https://dc.lft.to/lastmile_qr_scan", "ios": "https://dc.lft.to/lastmile_qr_scan"}, "fusion_lon": 0.0, "lat": 38.9878375, "bike_id": "4127d678dc841a8b2ab5e43915b66d19", "type": "electric_bike", "is_reserved": 0, "lon": -77.1410225}, {"fusion_lat": 0.0, "name": "ef5910ba8e93fa4538eb6a6805f1c0e5", "is_disabled": 0, "rental_uris": {"android": "https://dc.lft.to/lastmile_qr_scan", "ios": "https://dc.lft.to/lastmile_qr_scan"}, "fusion_lon": 0.0, "lat": 38.95278583333333, "bike_id": "ef5910ba8e93fa4538eb6a6805f1c0e5", "type": "electric_scooter", "is_reserved": 0, "lon": -77.00206816666666}, {"fusion_lat": 0.0, "name": "abae3c31f8f7faa4e34ecf7e638edce8", "is_disabled": 0, "rental_uris": {"android": "https://dc.lft.to/lastmile_qr_scan", "ios": "https://dc.lft.to/lastmile_qr_scan"}, "fusion_lon": 0.0, "lat": 38.9084945, "bike_id": "abae3c31f8f7faa4e34ecf7e638edce8", "type": "electric_scooter", "is_reserved": 0, "lon": -77.024024}, {"fusion_lat": 0.0, "name": "0f9d833428d0c3d58aabc3b02edad5e1", "is_disabled": 0, "rental_uris": {"android": "https://dc.lft.to/lastmile_qr_scan", "ios": "https://dc.lft.to/lastmile_qr_scan"}, "fusion_lon": 0.0, "lat": 38.9171215, "bike_id": "0f9d833428d0c3d58aabc3b02edad5e1", "type": "electric_scooter", "is_reserved": 0, "lon": -77.0297685}, {"fusion_lat": 0.0, "name": "fc7ca80bd031fba8933b943fc1f0436d", "is_disabled": 0, "rental_uris": {"android": "https://dc.lft.to/lastmile_qr_scan", "ios": "https://dc.lft.to/lastmile_qr_scan"}, "fusion_lon": 0.0, "lat": 38.940767666666666, "bike_id": "fc7ca80bd031fba8933b943fc1f0436d", "type": "electric_bike", "is_reserved": 0, "lon": -77.00022216666666}, {"fusion_lat": 0.0, "name": "b7c082ea362e7c7096b7489c731a0ad8", "is_disabled": 0, "rental_uris": {"android": "https://dc.lft.to/lastmile_qr_scan", "ios": "https://dc.lft.to/lastmile_qr_scan"}, "fusion_lon": 0.0, "lat": 38.887194666666666, "bike_id": "b7c082ea362e7c7096b7489c731a0ad8", "type": "electric_scooter", "is_reserved": 0, "lon": -77.02580766666667}, {"fusion_lat": 0.0, "name": "9eb5253203d5953f3571a88afae6fe3c", "is_disabled": 0, "rental_uris": {"android": "https://dc.lft.to/lastmile_qr_scan", "ios": "https://dc.lft.to/lastmile_qr_scan"}, "fusion_lon": 0.0, "lat": 38.90447733333333, "bike_id": "9eb5253203d5953f3571a88afae6fe3c", "type": "electric_scooter", "is_reserved": 0, "lon": -77.05877133333334}, {"fusion_lat": 0.0, "name": "b1104573802611ba499ae4cbdc66abd1", "is_disabled": 0, "rental_uris": {"android": "https://dc.lft.to/lastmile_qr_scan", "ios": "https://dc.lft.to/lastmile_qr_scan"}, "fusion_lon": 0.0, "lat": 38.93855283333333, "bike_id": "b1104573802611ba499ae4cbdc66abd1", "type": "electric_scooter", "is_reserved": 0, "lon": -77.03435416666666}, {"fusion_lat": 0.0, "name": "5e3b97b6806549464925ab6ecae3b3e6", "is_disabled": 0, "rental_uris": {"android": "https://dc.lft.to/lastmile_qr_scan", "ios": "https://dc.lft.to/lastmile_qr_scan"}, "fusion_lon": 0.0, "lat": 38.9169285, "bike_id": "5e3b97b6806549464925ab6ecae3b3e6", "type": "electric_scooter", "is_reserved": 0, "lon": -77.03380283333334}, {"fusion_lat": 0.0, "name": "cf4e054385f6fcf17916390b3812266f", "is_disabled": 0, "rental_uris": {"android": "https://dc.lft.to/lastmile_qr_scan", "ios": "https://dc.lft.to/lastmile_qr_scan"}, "fusion_lon": 0.0, "lat": 38.89909316666667, "bike_id": "cf4e054385f6fcf17916390b3812266f", "type": "electric_scooter", "is_reserved": 0, "lon": -76.9335535}, {"fusion_lat": 0.0, "name": "cae551a6cee20c5a678502a6989c0c80", "is_disabled": 0, "rental_uris": {"android": "https://dc.lft.to/lastmile_qr_scan", "ios": "https://dc.lft.to/lastmile_qr_scan"}, "fusion_lon": 0.0, "lat": 38.93011033333333, "bike_id": "cae551a6cee20c5a678502a6989c0c80", "type": "electric_scooter", "is_reserved": 0, "lon": -77.05530416666667}, {"fusion_lat": 0.0, "name": "28b6860dc89c9e835d396dc15778fa50", "is_disabled": 0, "rental_uris": {"android": "https://dc.lft.to/lastmile_qr_scan", "ios": "https://dc.lft.to/lastmile_qr_scan"}, "fusion_lon": 0.0, "lat": 38.934115166666665, "bike_id": "28b6860dc89c9e835d396dc15778fa50", "type": "electric_scooter", "is_reserved": 0, "lon": -77.04160966666667}, {"fusion_lat": 0.0, "name": "c3237854e98a4ddd2dd9b43272808847", "is_disabled": 0, "rental_uris": {"android": "https://dc.lft.to/lastmile_qr_scan", "ios": "https://dc.lft.to/lastmile_qr_scan"}, "fusion_lon": 0.0, "lat": 38.897114333333334, "bike_id": "c3237854e98a4ddd2dd9b43272808847", "type": "electric_scooter", "is_reserved": 0, "lon": -77.02758433333334}, {"fusion_lat": 0.0, "name": "2a7e399ec72c843744c1fe70da971abd", "is_disabled": 0, "rental_uris": {"android": "https://dc.lft.to/lastmile_qr_scan", "ios": "https://dc.lft.to/lastmile_qr_scan"}, "fusion_lon": 0.0, "lat": 38.930097833333335, "bike_id": "2a7e399ec72c843744c1fe70da971abd", "type": "electric_scooter", "is_reserved": 0, "lon": -77.055303}, {"fusion_lat": 0.0, "name": "4bdc76f9af4d439abf293ff111a929bb", "is_disabled": 0, "rental_uris": {"android": "https://dc.lft.to/lastmile_qr_scan", "ios": "https://dc.lft.to/lastmile_qr_scan"}, "fusion_lon": 0.0, "lat": 38.9011815, "bike_id": "4bdc76f9af4d439abf293ff111a929bb", "type": "electric_scooter", "is_reserved": 0, "lon": -77.00213266666667}, {"fusion_lat": 0.0, "name": "533712e79e13459daccc7c548b5731bd", "is_disabled": 0, "rental_uris": {"android": "https://dc.lft.to/lastmile_qr_scan", "ios": "https://dc.lft.to/lastmile_qr_scan"}, "fusion_lon": 0.0, "lat": 38.909915166666664, "bike_id": "533712e79e13459daccc7c548b5731bd", "type": "electric_scooter", "is_reserved": 0, "lon": -77.0466935}, {"fusion_lat": 0.0, "name": "3e4ac34221deec3245924763b51fd11c", "is_disabled": 0, "rental_uris": {"android": "https://dc.lft.to/lastmile_qr_scan", "ios": "https://dc.lft.to/lastmile_qr_scan"}, "fusion_lon": 0.0, "lat": 38.911352666666666, "bike_id": "3e4ac34221deec3245924763b51fd11c", "type": "electric_scooter", "is_reserved": 0, "lon": -77.03175533333334}, {"fusion_lat": 0.0, "name": "f164935cc6d01f0d98ae568b4bb14d43", "is_disabled": 0, "rental_uris": {"android": "https://dc.lft.to/lastmile_qr_scan", "ios": "https://dc.lft.to/lastmile_qr_scan"}, "fusion_lon": 0.0, "lat": 38.9055335, "bike_id": "f164935cc6d01f0d98ae568b4bb14d43", "type": "electric_scooter", "is_reserved": 0, "lon": -77.046585}, {"fusion_lat": 0.0, "name": "02c6ab72509c1ff2882e5b1f1814e1ba", "is_disabled": 0, "rental_uris": {"android": "https://dc.lft.to/lastmile_qr_scan", "ios": "https://dc.lft.to/lastmile_qr_scan"}, "fusion_lon": 0.0, "lat": 38.90473383333333, "bike_id": "02c6ab72509c1ff2882e5b1f1814e1ba", "type": "electric_scooter", "is_reserved": 0, "lon": -77.04856416666667}, {"fusion_lat": 0.0, "name": "ecf6aaa55d2489eabbd27305bcc2cef0", "is_disabled": 0, "rental_uris": {"android": "https://dc.lft.to/lastmile_qr_scan", "ios": "https://dc.lft.to/lastmile_qr_scan"}, "fusion_lon": 0.0, "lat": 38.917060666666664, "bike_id": "ecf6aaa55d2489eabbd27305bcc2cef0", "type": "electric_scooter", "is_reserved": 0, "lon": -77.02415983333333}, {"fusion_lat": 0.0, "name": "533d3b0e252c5c2b41e01e012c0a93d3", "is_disabled": 0, "rental_uris": {"android": "https://dc.lft.to/lastmile_qr_scan", "ios": "https://dc.lft.to/lastmile_qr_scan"}, "fusion_lon": 0.0, "lat": 38.90497416666667, "bike_id": "533d3b0e252c5c2b41e01e012c0a93d3", "type": "electric_scooter", "is_reserved": 0, "lon": -77.0602975}, {"fusion_lat": 0.0, "name": "e6d37c68c3b2943ab607a330b5c77a98", "is_disabled": 0, "rental_uris": {"android": "https://dc.lft.to/lastmile_qr_scan", "ios": "https://dc.lft.to/lastmile_qr_scan"}, "fusion_lon": 0.0, "lat": 38.915593333333334, "bike_id": "e6d37c68c3b2943ab607a330b5c77a98", "type": "electric_scooter", "is_reserved": 0, "lon": -77.03143}, {"fusion_lat": 0.0, "name": "eb558a35867436704e4679cdbbca68a8", "is_disabled": 0, "rental_uris": {"android": "https://dc.lft.to/lastmile_qr_scan", "ios": "https://dc.lft.to/lastmile_qr_scan"}, "fusion_lon": 0.0, "lat": 38.915638, "bike_id": "eb558a35867436704e4679cdbbca68a8", "type": "electric_scooter", "is_reserved": 0, "lon": -77.01061566666667}, {"fusion_lat": 0.0, "name": "a8992ebe18819cb3c1ce779a6493334c", "is_disabled": 0, "rental_uris": {"android": "https://dc.lft.to/lastmile_qr_scan", "ios": "https://dc.lft.to/lastmile_qr_scan"}, "fusion_lon": 0.0, "lat": 38.89216316666667, "bike_id": "a8992ebe18819cb3c1ce779a6493334c", "type": "electric_scooter", "is_reserved": 0, "lon": -77.02046283333334}, {"fusion_lat": 0.0, "name": "f8e6614e1abb8692a3e82714e0665762", "is_disabled": 0, "rental_uris": {"android": "https://dc.lft.to/lastmile_qr_scan", "ios": "https://dc.lft.to/lastmile_qr_scan"}, "fusion_lon": 0.0, "lat": 38.886199500000004, "bike_id": "f8e6614e1abb8692a3e82714e0665762", "type": "electric_scooter", "is_reserved": 0, "lon": -77.028328}, {"fusion_lat": 0.0, "name": "556e72af2fa35ff9460c446498f85655", "is_disabled": 0, "rental_uris": {"android": "https://dc.lft.to/lastmile_qr_scan", "ios": "https://dc.lft.to/lastmile_qr_scan"}, "fusion_lon": 0.0, "lat": 38.92230516666667, "bike_id": "556e72af2fa35ff9460c446498f85655", "type": "electric_scooter", "is_reserved": 0, "lon": -77.042387}, {"fusion_lat": 0.0, "name": "7f47655b1448cdbaa8ab8d1f71b9d72b", "is_disabled": 0, "rental_uris": {"android": "https://dc.lft.to/lastmile_qr_scan", "ios": "https://dc.lft.to/lastmile_qr_scan"}, "fusion_lon": 0.0, "lat": 38.911220166666666, "bike_id": "7f47655b1448cdbaa8ab8d1f71b9d72b", "type": "electric_scooter", "is_reserved": 0, "lon": -77.03259966666667}, {"fusion_lat": 0.0, "name": "a94aa154290fd187ac1f9e58c33fb42e", "is_disabled": 0, "rental_uris": {"android": "https://dc.lft.to/lastmile_qr_scan", "ios": "https://dc.lft.to/lastmile_qr_scan"}, "fusion_lon": 0.0, "lat": 38.885126, "bike_id": "a94aa154290fd187ac1f9e58c33fb42e", "type": "electric_scooter", "is_reserved": 0, "lon": -77.01117883333333}, {"fusion_lat": 0.0, "name": "20ddf54537e54f3313b51cf685c760b5", "is_disabled": 0, "rental_uris": {"android": "https://dc.lft.to/lastmile_qr_scan", "ios": "https://dc.lft.to/lastmile_qr_scan"}, "fusion_lon": 0.0, "lat": 38.908789666666664, "bike_id": "20ddf54537e54f3313b51cf685c760b5", "type": "electric_scooter", "is_reserved": 0, "lon": -77.043874}, {"fusion_lat": 0.0, "name": "4bd77b58502c4809214bdce9b65d860c", "is_disabled": 0, "rental_uris": {"android": "https://dc.lft.to/lastmile_qr_scan", "ios": "https://dc.lft.to/lastmile_qr_scan"}, "fusion_lon": 0.0, "lat": 38.90035183333333, "bike_id": "4bd77b58502c4809214bdce9b65d860c", "type": "electric_scooter", "is_reserved": 0, "lon": -76.992587}, {"fusion_lat": 0.0, "name": "9994aad576209cd53c87d4ee82cfb684", "is_disabled": 0, "rental_uris": {"android": "https://dc.lft.to/lastmile_qr_scan", "ios": "https://dc.lft.to/lastmile_qr_scan"}, "fusion_lon": 0.0, "lat": 38.941797, "bike_id": "9994aad576209cd53c87d4ee82cfb684", "type": "electric_scooter", "is_reserved": 0, "lon": -77.0249505}, {"fusion_lat": 0.0, "name": "20411b1167ec96ef4fa37cc41f4a3fa0", "is_disabled": 0, "rental_uris": {"android": "https://dc.lft.to/lastmile_qr_scan", "ios": "https://dc.lft.to/lastmile_qr_scan"}, "fusion_lon": 0.0, "lat": 38.914418, "bike_id": "20411b1167ec96ef4fa37cc41f4a3fa0", "type": "electric_scooter", "is_reserved": 0, "lon": -77.02289366666666}, {"fusion_lat": 0.0, "name": "88b95390d428f49768ea3369e2f5ed3c", "is_disabled": 0, "rental_uris": {"android": "https://dc.lft.to/lastmile_qr_scan", "ios": "https://dc.lft.to/lastmile_qr_scan"}, "fusion_lon": 0.0, "lat": 38.90837466666667, "bike_id": "88b95390d428f49768ea3369e2f5ed3c", "type": "electric_scooter", "is_reserved": 0, "lon": -77.00219566666667}, {"fusion_lat": 0.0, "name": "36c55d02e87dd7532f162e815604a527", "is_disabled": 0, "rental_uris": {"android": "https://dc.lft.to/lastmile_qr_scan", "ios": "https://dc.lft.to/lastmile_qr_scan"}, "fusion_lon": 0.0, "lat": 38.923147166666666, "bike_id": "36c55d02e87dd7532f162e815604a527", "type": "electric_scooter", "is_reserved": 0, "lon": -77.038101}, {"fusion_lat": 0.0, "name": "1cf4e90c49a0499a4eb5efea74ddf03a", "is_disabled": 0, "rental_uris": {"android": "https://dc.lft.to/lastmile_qr_scan", "ios": "https://dc.lft.to/lastmile_qr_scan"}, "fusion_lon": 0.0, "lat": 38.92848816666667, "bike_id": "1cf4e90c49a0499a4eb5efea74ddf03a", "type": "electric_scooter", "is_reserved": 0, "lon": -77.0353415}, {"fusion_lat": 0.0, "name": "159995fbd012c9e1d0c704d0268f4e99", "is_disabled": 0, "rental_uris": {"android": "https://dc.lft.to/lastmile_qr_scan", "ios": "https://dc.lft.to/lastmile_qr_scan"}, "fusion_lon": 0.0, "lat": 38.93960833333333, "bike_id": "159995fbd012c9e1d0c704d0268f4e99", "type": "electric_scooter", "is_reserved": 0, "lon": -77.03288733333333}, {"fusion_lat": 0.0, "name": "557b9085889c7b5642b98538cabe7eeb", "is_disabled": 0, "rental_uris": {"android": "https://dc.lft.to/lastmile_qr_scan", "ios": "https://dc.lft.to/lastmile_qr_scan"}, "fusion_lon": 0.0, "lat": 38.902123333333336, "bike_id": "557b9085889c7b5642b98538cabe7eeb", "type": "electric_scooter", "is_reserved": 0, "lon": -76.9861495}, {"fusion_lat": 0.0, "name": "a5986d21caf40e3526f5e237e18828f8", "is_disabled": 0, "rental_uris": {"android": "https://dc.lft.to/lastmile_qr_scan", "ios": "https://dc.lft.to/lastmile_qr_scan"}, "fusion_lon": 0.0, "lat": 38.87897, "bike_id": "a5986d21caf40e3526f5e237e18828f8", "type": "electric_scooter", "is_reserved": 0, "lon": -77.005753}, {"fusion_lat": 0.0, "name": "e87c7c82bfd4902e7827e85108b5c15a", "is_disabled": 0, "rental_uris": {"android": "https://dc.lft.to/lastmile_qr_scan", "ios": "https://dc.lft.to/lastmile_qr_scan"}, "fusion_lon": 0.0, "lat": 38.917011333333335, "bike_id": "e87c7c82bfd4902e7827e85108b5c15a", "type": "electric_scooter", "is_reserved": 0, "lon": -77.03467466666666}, {"fusion_lat": 0.0, "name": "e3c021fe3e238e95c6188ca045135ffe", "is_disabled": 0, "rental_uris": {"android": "https://dc.lft.to/lastmile_qr_scan", "ios": "https://dc.lft.to/lastmile_qr_scan"}, "fusion_lon": 0.0, "lat": 38.9234025, "bike_id": "e3c021fe3e238e95c6188ca045135ffe", "type": "electric_scooter", "is_reserved": 0, "lon": -77.05185166666666}, {"fusion_lat": 0.0, "name": "3ce25fa13380aae6031381c157a283f9", "is_disabled": 0, "rental_uris": {"android": "https://dc.lft.to/lastmile_qr_scan", "ios": "https://dc.lft.to/lastmile_qr_scan"}, "fusion_lon": 0.0, "lat": 38.899702, "bike_id": "3ce25fa13380aae6031381c157a283f9", "type": "electric_scooter", "is_reserved": 0, "lon": -77.0528665}, {"fusion_lat": 0.0, "name": "2d56ffdd601609a1059912190bb116e7", "is_disabled": 0, "rental_uris": {"android": "https://dc.lft.to/lastmile_qr_scan", "ios": "https://dc.lft.to/lastmile_qr_scan"}, "fusion_lon": 0.0, "lat": 38.9053635, "bike_id": "2d56ffdd601609a1059912190bb116e7", "type": "electric_scooter", "is_reserved": 0, "lon": -77.05916516666667}, {"fusion_lat": 0.0, "name": "e31881eb2d7bf180de933e58feb99b84", "is_disabled": 0, "rental_uris": {"android": "https://dc.lft.to/lastmile_qr_scan", "ios": "https://dc.lft.to/lastmile_qr_scan"}, "fusion_lon": 0.0, "lat": 38.9433205, "bike_id": "e31881eb2d7bf180de933e58feb99b84", "type": "electric_scooter", "is_reserved": 0, "lon": -77.01553033333333}, {"fusion_lat": 0.0, "name": "aa2077f073fff527358009df7a93e69e", "is_disabled": 0, "rental_uris": {"android": "https://dc.lft.to/lastmile_qr_scan", "ios": "https://dc.lft.to/lastmile_qr_scan"}, "fusion_lon": 0.0, "lat": 38.89011883333333, "bike_id": "aa2077f073fff527358009df7a93e69e", "type": "electric_scooter", "is_reserved": 0, "lon": -76.93736433333333}, {"fusion_lat": 0.0, "name": "86d35cda6a84d426f076d0896e0b45ab", "is_disabled": 0, "rental_uris": {"android": "https://dc.lft.to/lastmile_qr_scan", "ios": "https://dc.lft.to/lastmile_qr_scan"}, "fusion_lon": 0.0, "lat": 38.902645666666665, "bike_id": "86d35cda6a84d426f076d0896e0b45ab", "type": "electric_scooter", "is_reserved": 0, "lon": -77.0346125}, {"fusion_lat": 0.0, "name": "cc008dff6c46a3daca17a9d37ddeda46", "is_disabled": 0, "rental_uris": {"android": "https://dc.lft.to/lastmile_qr_scan", "ios": "https://dc.lft.to/lastmile_qr_scan"}, "fusion_lon": 0.0, "lat": 38.897851333333335, "bike_id": "cc008dff6c46a3daca17a9d37ddeda46", "type": "electric_scooter", "is_reserved": 0, "lon": -77.023993}, {"fusion_lat": 0.0, "name": "2f2480c442d2afbed9a2ebb9ca29794c", "is_disabled": 0, "rental_uris": {"android": "https://dc.lft.to/lastmile_qr_scan", "ios": "https://dc.lft.to/lastmile_qr_scan"}, "fusion_lon": 0.0, "lat": 38.896053, "bike_id": "2f2480c442d2afbed9a2ebb9ca29794c", "type": "electric_scooter", "is_reserved": 0, "lon": -76.98110366666667}, {"fusion_lat": 0.0, "name": "58c9cb1589609bb87c2a14549b4286fa", "is_disabled": 0, "rental_uris": {"android": "https://dc.lft.to/lastmile_qr_scan", "ios": "https://dc.lft.to/lastmile_qr_scan"}, "fusion_lon": 0.0, "lat": 38.91106583333333, "bike_id": "58c9cb1589609bb87c2a14549b4286fa", "type": "electric_scooter", "is_reserved": 0, "lon": -77.01001216666667}, {"fusion_lat": 0.0, "name": "faf9c027ff28987e50f78811f241ea1e", "is_disabled": 0, "rental_uris": {"android": "https://dc.lft.to/lastmile_qr_scan", "ios": "https://dc.lft.to/lastmile_qr_scan"}, "fusion_lon": 0.0, "lat": 38.913314, "bike_id": "faf9c027ff28987e50f78811f241ea1e", "type": "electric_scooter", "is_reserved": 0, "lon": -77.01981766666667}, {"fusion_lat": 0.0, "name": "db4acaae559efa224ca7f19bc5c4ee16", "is_disabled": 0, "rental_uris": {"android": "https://dc.lft.to/lastmile_qr_scan", "ios": "https://dc.lft.to/lastmile_qr_scan"}, "fusion_lon": 0.0, "lat": 38.912006, "bike_id": "db4acaae559efa224ca7f19bc5c4ee16", "type": "electric_scooter", "is_reserved": 0, "lon": -77.031966}, {"fusion_lat": 0.0, "name": "a491ef56bf42b8e52cde10a26414b5ae", "is_disabled": 0, "rental_uris": {"android": "https://dc.lft.to/lastmile_qr_scan", "ios": "https://dc.lft.to/lastmile_qr_scan"}, "fusion_lon": 0.0, "lat": 38.8972315, "bike_id": "a491ef56bf42b8e52cde10a26414b5ae", "type": "electric_scooter", "is_reserved": 0, "lon": -77.01918866666666}, {"fusion_lat": 0.0, "name": "39b3f16b1aa9c23b09f25e46f6d4dc36", "is_disabled": 0, "rental_uris": {"android": "https://dc.lft.to/lastmile_qr_scan", "ios": "https://dc.lft.to/lastmile_qr_scan"}, "fusion_lon": 0.0, "lat": 38.89308783333333, "bike_id": "39b3f16b1aa9c23b09f25e46f6d4dc36", "type": "electric_scooter", "is_reserved": 0, "lon": -77.04875666666666}, {"fusion_lat": 0.0, "name": "5c569e1265f02955de6798e41fbb3f64", "is_disabled": 0, "rental_uris": {"android": "https://dc.lft.to/lastmile_qr_scan", "ios": "https://dc.lft.to/lastmile_qr_scan"}, "fusion_lon": 0.0, "lat": 38.934385666666664, "bike_id": "5c569e1265f02955de6798e41fbb3f64", "type": "electric_scooter", "is_reserved": 0, "lon": -77.03878466666667}, {"fusion_lat": 0.0, "name": "ec0a59b35f601543ff7cf4613e0ca049", "is_disabled": 0, "rental_uris": {"android": "https://dc.lft.to/lastmile_qr_scan", "ios": "https://dc.lft.to/lastmile_qr_scan"}, "fusion_lon": 0.0, "lat": 38.891973, "bike_id": "ec0a59b35f601543ff7cf4613e0ca049", "type": "electric_scooter", "is_reserved": 0, "lon": -77.04338833333334}, {"fusion_lat": 0.0, "name": "9df0bc4dfdfdfc264403fba4a0d0edf2", "is_disabled": 0, "rental_uris": {"android": "https://dc.lft.to/lastmile_qr_scan", "ios": "https://dc.lft.to/lastmile_qr_scan"}, "fusion_lon": 0.0, "lat": 38.90715616666667, "bike_id": "9df0bc4dfdfdfc264403fba4a0d0edf2", "type": "electric_scooter", "is_reserved": 0, "lon": -77.000818}, {"fusion_lat": 0.0, "name": "f225dff0fc5f7cd4cf1ddc2cdd918d65", "is_disabled": 0, "rental_uris": {"android": "https://dc.lft.to/lastmile_qr_scan", "ios": "https://dc.lft.to/lastmile_qr_scan"}, "fusion_lon": 0.0, "lat": 38.9167095, "bike_id": "f225dff0fc5f7cd4cf1ddc2cdd918d65", "type": "electric_scooter", "is_reserved": 0, "lon": -77.02414633333333}, {"fusion_lat": 0.0, "name": "34145539a92295d1dab896066a569f35", "is_disabled": 0, "rental_uris": {"android": "https://dc.lft.to/lastmile_qr_scan", "ios": "https://dc.lft.to/lastmile_qr_scan"}, "fusion_lon": 0.0, "lat": 38.90555233333333, "bike_id": "34145539a92295d1dab896066a569f35", "type": "electric_scooter", "is_reserved": 0, "lon": -77.03275366666666}, {"fusion_lat": 0.0, "name": "67b1ce093bb6d922ff8ab88d134b4057", "is_disabled": 0, "rental_uris": {"android": "https://dc.lft.to/lastmile_qr_scan", "ios": "https://dc.lft.to/lastmile_qr_scan"}, "fusion_lon": 0.0, "lat": 38.90576633333333, "bike_id": "67b1ce093bb6d922ff8ab88d134b4057", "type": "electric_scooter", "is_reserved": 0, "lon": -77.0072055}, {"fusion_lat": 0.0, "name": "1e40605bf663d39467127c13f87c3a90", "is_disabled": 0, "rental_uris": {"android": "https://dc.lft.to/lastmile_qr_scan", "ios": "https://dc.lft.to/lastmile_qr_scan"}, "fusion_lon": 0.0, "lat": 38.89582, "bike_id": "1e40605bf663d39467127c13f87c3a90", "type": "electric_scooter", "is_reserved": 0, "lon": -76.983189}, {"fusion_lat": 0.0, "name": "cc49261ec6f9898b9c9f4d79bb5e0aaa", "is_disabled": 0, "rental_uris": {"android": "https://dc.lft.to/lastmile_qr_scan", "ios": "https://dc.lft.to/lastmile_qr_scan"}, "fusion_lon": 0.0, "lat": 38.925346166666664, "bike_id": "cc49261ec6f9898b9c9f4d79bb5e0aaa", "type": "electric_scooter", "is_reserved": 0, "lon": -77.03497433333334}, {"fusion_lat": 0.0, "name": "4dd1c648576d3ea8fb871439d24510b5", "is_disabled": 0, "rental_uris": {"android": "https://dc.lft.to/lastmile_qr_scan", "ios": "https://dc.lft.to/lastmile_qr_scan"}, "fusion_lon": 0.0, "lat": 38.92434566666667, "bike_id": "4dd1c648576d3ea8fb871439d24510b5", "type": "electric_scooter", "is_reserved": 0, "lon": -77.05209916666666}, {"fusion_lat": 0.0, "name": "d312c9a85a0ad3b84299c5ecf2310fe2", "is_disabled": 0, "rental_uris": {"android": "https://dc.lft.to/lastmile_qr_scan", "ios": "https://dc.lft.to/lastmile_qr_scan"}, "fusion_lon": 0.0, "lat": 38.955057, "bike_id": "d312c9a85a0ad3b84299c5ecf2310fe2", "type": "electric_scooter", "is_reserved": 0, "lon": -77.028425}, {"fusion_lat": 0.0, "name": "62794a2626644bb3b273650df8d4d781", "is_disabled": 0, "rental_uris": {"android": "https://dc.lft.to/lastmile_qr_scan", "ios": "https://dc.lft.to/lastmile_qr_scan"}, "fusion_lon": 0.0, "lat": 38.937520666666664, "bike_id": "62794a2626644bb3b273650df8d4d781", "type": "electric_bike", "is_reserved": 0, "lon": -76.95825783333333}, {"fusion_lat": 0.0, "name": "3fd43b20c1c89aa7d3cdfcbefc5bb471", "is_disabled": 0, "rental_uris": {"android": "https://dc.lft.to/lastmile_qr_scan", "ios": "https://dc.lft.to/lastmile_qr_scan"}, "fusion_lon": 0.0, "lat": 38.90774283333333, "bike_id": "3fd43b20c1c89aa7d3cdfcbefc5bb471", "type": "electric_scooter", "is_reserved": 0, "lon": -76.99727166666666}, {"fusion_lat": 0.0, "name": "ccb0e9a7219b2c722aee93b29daf9bd2", "is_disabled": 0, "rental_uris": {"android": "https://dc.lft.to/lastmile_qr_scan", "ios": "https://dc.lft.to/lastmile_qr_scan"}, "fusion_lon": 0.0, "lat": 38.94897666666667, "bike_id": "ccb0e9a7219b2c722aee93b29daf9bd2", "type": "electric_bike", "is_reserved": 0, "lon": -76.96369266666666}, {"fusion_lat": 0.0, "name": "7ab1b6fc648ce53f8818b930c14eb01f", "is_disabled": 0, "rental_uris": {"android": "https://dc.lft.to/lastmile_qr_scan", "ios": "https://dc.lft.to/lastmile_qr_scan"}, "fusion_lon": 0.0, "lat": 38.9526415, "bike_id": "7ab1b6fc648ce53f8818b930c14eb01f", "type": "electric_bike", "is_reserved": 0, "lon": -76.998824}, {"fusion_lat": 0.0, "name": "7ac5256d6f4a4430e2c21f723b3c19da", "is_disabled": 0, "rental_uris": {"android": "https://dc.lft.to/lastmile_qr_scan", "ios": "https://dc.lft.to/lastmile_qr_scan"}, "fusion_lon": 0.0, "lat": 38.925113, "bike_id": "7ac5256d6f4a4430e2c21f723b3c19da", "type": "electric_scooter", "is_reserved": 0, "lon": -77.05235566666667}, {"fusion_lat": 0.0, "name": "c9e8516261cab30559d60c09e036c042", "is_disabled": 0, "rental_uris": {"android": "https://dc.lft.to/lastmile_qr_scan", "ios": "https://dc.lft.to/lastmile_qr_scan"}, "fusion_lon": 0.0, "lat": 38.9155485, "bike_id": "c9e8516261cab30559d60c09e036c042", "type": "electric_scooter", "is_reserved": 0, "lon": -77.0438975}, {"fusion_lat": 0.0, "name": "867c0eeea150858436c799ed896e8106", "is_disabled": 0, "rental_uris": {"android": "https://dc.lft.to/lastmile_qr_scan", "ios": "https://dc.lft.to/lastmile_qr_scan"}, "fusion_lon": 0.0, "lat": 38.9039865, "bike_id": "867c0eeea150858436c799ed896e8106", "type": "electric_scooter", "is_reserved": 0, "lon": -77.00200566666666}, {"fusion_lat": 0.0, "name": "af5b274652930f8ed64ea8382a87ec8a", "is_disabled": 0, "rental_uris": {"android": "https://dc.lft.to/lastmile_qr_scan", "ios": "https://dc.lft.to/lastmile_qr_scan"}, "fusion_lon": 0.0, "lat": 38.884265666666664, "bike_id": "af5b274652930f8ed64ea8382a87ec8a", "type": "electric_scooter", "is_reserved": 0, "lon": -76.99613366666667}, {"fusion_lat": 0.0, "name": "52d9369d729c8a41689e78f530f74ee2", "is_disabled": 0, "rental_uris": {"android": "https://dc.lft.to/lastmile_qr_scan", "ios": "https://dc.lft.to/lastmile_qr_scan"}, "fusion_lon": 0.0, "lat": 38.9102105, "bike_id": "52d9369d729c8a41689e78f530f74ee2", "type": "electric_scooter", "is_reserved": 0, "lon": -77.069201}, {"fusion_lat": 0.0, "name": "d9324b4e9847d873b5021b3bd4eb19fe", "is_disabled": 0, "rental_uris": {"android": "https://dc.lft.to/lastmile_qr_scan", "ios": "https://dc.lft.to/lastmile_qr_scan"}, "fusion_lon": 0.0, "lat": 38.94107, "bike_id": "d9324b4e9847d873b5021b3bd4eb19fe", "type": "electric_scooter", "is_reserved": 0, "lon": -77.00042433333333}, {"fusion_lat": 0.0, "name": "503fa5821c9601a691a66195c35c723f", "is_disabled": 0, "rental_uris": {"android": "https://dc.lft.to/lastmile_qr_scan", "ios": "https://dc.lft.to/lastmile_qr_scan"}, "fusion_lon": 0.0, "lat": 38.893826, "bike_id": "503fa5821c9601a691a66195c35c723f", "type": "electric_scooter", "is_reserved": 0, "lon": -76.92308333333334}, {"fusion_lat": 0.0, "name": "ac88bcdb94c557bb3c9f253997a308cf", "is_disabled": 0, "rental_uris": {"android": "https://dc.lft.to/lastmile_qr_scan", "ios": "https://dc.lft.to/lastmile_qr_scan"}, "fusion_lon": 0.0, "lat": 38.91210016666667, "bike_id": "ac88bcdb94c557bb3c9f253997a308cf", "type": "electric_scooter", "is_reserved": 0, "lon": -77.038641}, {"fusion_lat": 0.0, "name": "6ecf7eda901bccc7cace3641868e54e0", "is_disabled": 0, "rental_uris": {"android": "https://dc.lft.to/lastmile_qr_scan", "ios": "https://dc.lft.to/lastmile_qr_scan"}, "fusion_lon": 0.0, "lat": 38.90724683333333, "bike_id": "6ecf7eda901bccc7cace3641868e54e0", "type": "electric_scooter", "is_reserved": 0, "lon": -77.043475}, {"fusion_lat": 0.0, "name": "11b18948e8635dd7fbcfa3ff5904f952", "is_disabled": 0, "rental_uris": {"android": "https://dc.lft.to/lastmile_qr_scan", "ios": "https://dc.lft.to/lastmile_qr_scan"}, "fusion_lon": 0.0, "lat": 38.89351633333333, "bike_id": "11b18948e8635dd7fbcfa3ff5904f952", "type": "electric_scooter", "is_reserved": 0, "lon": -77.039621}, {"fusion_lat": 0.0, "name": "3ac390790030dc83d1509874569530b1", "is_disabled": 0, "rental_uris": {"android": "https://dc.lft.to/lastmile_qr_scan", "ios": "https://dc.lft.to/lastmile_qr_scan"}, "fusion_lon": 0.0, "lat": 38.90720316666667, "bike_id": "3ac390790030dc83d1509874569530b1", "type": "electric_scooter", "is_reserved": 0, "lon": -77.04345083333334}, {"fusion_lat": 0.0, "name": "4077b9ca39b56e90d49e5fb4fa5ac604", "is_disabled": 0, "rental_uris": {"android": "https://dc.lft.to/lastmile_qr_scan", "ios": "https://dc.lft.to/lastmile_qr_scan"}, "fusion_lon": 0.0, "lat": 38.93032383333333, "bike_id": "4077b9ca39b56e90d49e5fb4fa5ac604", "type": "electric_scooter", "is_reserved": 0, "lon": -77.0380565}, {"fusion_lat": 0.0, "name": "7eb8502548467496130e347403b65c9a", "is_disabled": 0, "rental_uris": {"android": "https://dc.lft.to/lastmile_qr_scan", "ios": "https://dc.lft.to/lastmile_qr_scan"}, "fusion_lon": 0.0, "lat": 38.92087766666667, "bike_id": "7eb8502548467496130e347403b65c9a", "type": "electric_scooter", "is_reserved": 0, "lon": -77.0239825},