{"data": {"bikes": [{"fusion_lat": 0.0, "name": "6c46733b1e25e52a340dd31ddd48305b", "is_disabled": 0, "rental_uris": {"android": "https://dc.lft.to/lastmile_qr_scan", "ios": "https://dc.lft.to/lastmile_qr_scan"}, "fusion_lon": 0.0, "lat": 38.915548, "bike_id": "6c46733b1e25e52a340dd31ddd48305b", "type": "electric_scooter", "is_reserved": 0, "lon": -77.0317595}, {"fusion_lat": 0.0, "name": "d462100c72825af47a35616254aa18a7", "is_disabled": 0, "rental_uris": {"android": "https://dc.lft.to/lastmile_qr_scan", "ios": "https://dc.lft.to/lastmile_qr_scan"}, "fusion_lon": 0.0, "lat": 38.920465666666665, "bike_id": "d462100c72825af47a35616254aa18a7", "type": "electric_scooter", "is_reserved": 0, "lon": -77.03464683333333}, {"fusion_lat": 0.0, "name": "8e342ae56e08344c3fa100e89dff9f9b", "is_disabled": 0, "rental_uris": {"android": "https://dc.lft.to/lastmile_qr_scan", "ios": "https://dc.lft.to/lastmile_qr_scan"}, "fusion_lon": 0.0, "lat": 38.8796775, "bike_id": "8e342ae56e08344c3fa100e89dff9f9b", "type": "electric_bike", "is_reserved": 0, "lon": -76.91613583333333}, {"fusion_lat": 0.0, "name": "00a8b45a8b1d07a91d6415b81c08726e", "is_disabled": 0, "rental_uris": {"android": "https://dc.lft.to/lastmile_qr_scan", "ios": "https://dc.lft.to/lastmile_qr_scan"}, "fusion_lon": 0.0, "lat": 38.9180445, "bike_id": "00a8b45a8b1d07a91d6415b81c08726e", "type": "electric_scooter", "is_reserved": 0, "lon": -77.03304133333333}, {"fusion_lat": 0.0, "name": "228fa485d157dd4e02c63e1f129555b4", "is_disabled": 0, "rental_uris": {"android": "https://dc.lft.to/lastmile_qr_scan", "ios": "https://dc.lft.to/lastmile_qr_scan"}, "fusion_lon": 0.0, "lat": 38.93879366666667, "bike_id": "228fa485d157dd4e02c63e1f129555b4", "type": "electric_scooter", "is_reserved": 0, "lon": -77.02466166666666}, {"fusion_lat": 0.0, "name": "5226ae38f01c96eec744d2d1cb8b0d20", "is_disabled": 0, "rental_uris": {"android": "https://dc.lft.to/lastmile_qr_scan", "ios": "https://dc.lft.to/lastmile_qr_scan"}, "fusion_lon": 0.0, "lat": 38.924238, "bike_id": "5226ae38f01c96eec744d2d1cb8b0d20", "type": "electric_scooter", "is_reserved": 0, "lon": -77.01952916666667}, {"fusion_lat": 0.0, "name": "68c78a4d4fea2444a8b6427153432a19", "is_disabled": 0, "rental_uris": {"android": "https://dc.lft.to/lastmile_qr_scan", "ios": "https://dc.lft.to/lastmile_qr_scan"}, "fusion_lon": 0.0, "lat": 38.91501983333333, "bike_id": "68c78a4d4fea2444a8b6427153432a19", "type": "electric_scooter", "is_reserved": 0, "lon": -77.03209516666666}, {"fusion_lat": 0.0, "name": "a2dd35fb4d4ae25ec0976abd3ab4a0c2", "is_disabled": 0, "rental_uris": {"android": "https://dc.lft.to/lastmile_qr_scan", "ios": "https://dc.lft.to/lastmile_qr_scan"}, "fusion_lon": 0.0, "lat": 38.8970435, "bike_id": "a2dd35fb4d4ae25ec0976abd3ab4a0c2", "type": "electric_scooter", "is_reserved": 0, "lon": -77.0214465}, {"fusion_lat": 0.0, "name": "95a73f2cb63fb485a5a528bed8df9b34", "is_disabled": 0, "rental_uris": {"android": "https://dc.lft.to/lastmile_qr_scan", "ios": "https://dc.lft.to/lastmile_qr_scan"}, "fusion_lon": 0.0, "lat": 38.917852, "bike_id": "95a73f2cb63fb485a5a528bed8df9b34", "type": "electric_scooter", "is_reserved": 0, "lon": -77.040315}, {"fusion_lat": 0.0, "name": "2f9227e0bcb225ddd030bead731f7ace", "is_disabled": 0, "rental_uris": {"android": "https://dc.lft.to/lastmile_qr_scan", "ios": "https://dc.lft.to/lastmile_qr_scan"}, "fusion_lon": 0.0, "lat": 38.90020466666667, "bike_id": "2f9227e0bcb225ddd030bead731f7ace", "type": "electric_scooter", "is_reserved": 0, "lon": -76.99453933333334}, {"fusion_lat": 0.0, "name": "dd951391a6546b8251709d576c086425", "is_disabled": 0, "rental_uris": {"android": "https://dc.lft.to/lastmile_qr_scan", "ios": "https://dc.lft.to/lastmile_qr_scan"}, "fusion_lon": 0.0, "lat": 38.9133005, "bike_id": "dd951391a6546b8251709d576c086425", "type": "electric_scooter", "is_reserved": 0, "lon": -77.021493}, {"fusion_lat": 0.0, "name": "48b47166fc78b4dd7c29aedc3ac6b857", "is_disabled": 0, "rental_uris": {"android": "https://dc.lft.to/lastmile_qr_scan", "ios": "https://dc.lft.to/lastmile_qr_scan"}, "fusion_lon": 0.0, "lat": 38.903777833333336, "bike_id": "48b47166fc78b4dd7c29aedc3ac6b857", "type": "electric_scooter", "is_reserved": 0, "lon": -77.0332125}, {"fusion_lat": 0.0, "name": "623e8249abd06c26a65ba2173c35b0bb", "is_disabled": 0, "rental_uris": {"android": "https://dc.lft.to/lastmile_qr_scan", "ios": "https://dc.lft.to/lastmile_qr_scan"}, "fusion_lon": 0.0, "lat": 38.87677166666667, "bike_id": "623e8249abd06c26a65ba2173c35b0bb", "type": "electric_scooter", "is_reserved": 0, "lon": -77.0075275}, {"fusion_lat": 0.0, "name": "c51ba6878b8808060bfd6f4432475877", "is_disabled": 0, "rental_uris": {"android": "https://dc.lft.to/lastmile_qr_scan", "ios": "https://dc.lft.to/lastmile_qr_scan"}, "fusion_lon": 0.0, "lat": 38.876385666666664, "bike_id": "c51ba6878b8808060bfd6f4432475877", "type": "electric_scooter", "is_reserved": 0, "lon": -77.00739016666667}, {"fusion_lat": 0.0, "name": "18adde74b1d8546567b9e4a448e9df72", "is_disabled": 0, "rental_uris": {"android": "https://dc.lft.to/lastmile_qr_scan", "ios": "https://dc.lft.to/lastmile_qr_scan"}, "fusion_lon": 0.0, "lat": 38.8651375, "bike_id": "18adde74b1d8546567b9e4a448e9df72", "type": "electric_bike", "is_reserved": 0, "lon": -76.9732935}, {"fusion_lat": 0.0, "name": "9c6ddc7fa3950cfe9ba6faa43b217360", "is_disabled": 0, "rental_uris": {"android": "https://dc.lft.to/lastmile_qr_scan", "ios": "https://dc.lft.to/lastmile_qr_scan"}, "fusion_lon": 0.0, "lat": 38.928122333333334, "bike_id": "9c6ddc7fa3950cfe9ba6faa43b217360", "type": "electric_scooter", "is_reserved": 0, "lon": -77.04357683333333}, {"fusion_lat": 0.0, "name": "dc2c8d122d62f23dbf33935de21f73f3", "is_disabled": 0, "rental_uris": {"android": "https://dc.lft.to/lastmile_qr_scan", "ios": "https://dc.lft.to/lastmile_qr_scan"}, "fusion_lon": 0.0, "lat": 38.84912516666667, "bike_id": "dc2c8d122d62f23dbf33935de21f73f3", "type": "electric_bike", "is_reserved": 0, "lon": -77.09980033333333}, {"fusion_lat": 0.0, "name": "5c5f3baa9b8d3f79ea52061009a2bf55", "is_disabled": 0, "rental_uris": {"android": "https://dc.lft.to/lastmile_qr_scan", "ios": "https://dc.lft.to/lastmile_qr_scan"}, "fusion_lon": 0.0, "lat": 38.903581333333335, "bike_id": "5c5f3baa9b8d3f79ea52061009a2bf55", "type": "electric_scooter", "is_reserved": 0, "lon": -77.06269916666666}, {"fusion_lat": 0.0, "name": "0d741a80c145dab689c425ad2c6f0afa", "is_disabled": 0, "rental_uris": {"android": "https://dc.lft.to/lastmile_qr_scan", "ios": "https://dc.lft.to/lastmile_qr_scan"}, "fusion_lon": 0.0, "lat": 38.9692995, "bike_id": "0d741a80c145dab689c425ad2c6f0afa", "type": "electric_bike", "is_reserved": 0, "lon": -77.02616466666667}, {"fusion_lat": 0.0, "name": "c86acbfdbba3882896d19945e3b7ce59", "is_disabled": 0, "rental_uris": {"android": "https://dc.lft.to/lastmile_qr_scan", "ios": "https://dc.lft.to/lastmile_qr_scan"}, "fusion_lon": 0.0, "lat": 38.927910833333335, "bike_id": "c86acbfdbba3882896d19945e3b7ce59", "type": "electric_scooter", "is_reserved": 0, "lon": -77.031524}, {"fusion_lat": 0.0, "name": "fef9e80b3212b4a211090a9b5bc8b2ea", "is_disabled": 0, "rental_uris": {"android": "https://dc.lft.to/lastmile_qr_scan", "ios": "https://dc.lft.to/lastmile_qr_scan"}, "fusion_lon": 0.0, "lat": 38.9411885, "bike_id": "fef9e80b3212b4a211090a9b5bc8b2ea", "type": "electric_bike", "is_reserved": 0, "lon": -76.99032933333334}, {"fusion_lat": 0.0, "name": "ea3c59e2baf739a98cd18c92f60050b3", "is_disabled": 0, "rental_uris": {"android": "https://dc.lft.to/lastmile_qr_scan", "ios": "https://dc.lft.to/lastmile_qr_scan"}, "fusion_lon": 0.0, "lat": 38.9026305, "bike_id": "ea3c59e2baf739a98cd18c92f60050b3", "type": "electric_scooter", "is_reserved": 0, "lon": -77.00203316666666}, {"fusion_lat": 0.0, "name": "11eb41f6d97ea5d4d5d917027413477a", "is_disabled": 0, "rental_uris": {"android": "https://dc.lft.to/lastmile_qr_scan", "ios": "https://dc.lft.to/lastmile_qr_scan"}, "fusion_lon": 0.0, "lat": 38.933855333333334, "bike_id": "11eb41f6d97ea5d4d5d917027413477a", "type": "electric_scooter", "is_reserved": 0, "lon": -77.02414766666666}, {"fusion_lat": 0.0, "name": "dff8e45e4f8745016b3c0370a730570e", "is_disabled": 0, "rental_uris": {"android": "https://dc.lft.to/lastmile_qr_scan", "ios": "https://dc.lft.to/lastmile_qr_scan"}, "fusion_lon": 0.0, "lat": 38.900585, "bike_id": "dff8e45e4f8745016b3c0370a730570e", "type": "electric_scooter", "is_reserved": 0, "lon": -77.01351816666667}, {"fusion_lat": 0.0, "name": "c07b679eb82581a3784aa97ba7500d48", "is_disabled": 0, "rental_uris": {"android": "https://dc.lft.to/lastmile_qr_scan", "ios": "https://dc.lft.to/lastmile_qr_scan"}, "fusion_lon": 0.0, "lat": 38.9110535, "bike_id": "c07b679eb82581a3784aa97ba7500d48", "type": "electric_scooter", "is_reserved": 0, "lon": -77.0447775}, {"fusion_lat": 0.0, "name": "cf92404af3f99dc231ae86620bc1359a", "is_disabled": 0, "rental_uris": {"android": "https://dc.lft.to/lastmile_qr_scan", "ios": "https://dc.lft.to/lastmile_qr_scan"}, "fusion_lon": 0.0, "lat": 38.919605833333335, "bike_id": "cf92404af3f99dc231ae86620bc1359a", "type": "electric_scooter", "is_reserved": 0, "lon": -77.01849483333334}, {"fusion_lat": 0.0, "name": "050a56e760f9eca144beb263f7edd8dc", "is_disabled": 0, "rental_uris": {"android": "https://dc.lft.to/lastmile_qr_scan", "ios": "https://dc.lft.to/lastmile_qr_scan"}, "fusion_lon": 0.0, "lat": 38.973759, "bike_id": "050a56e760f9eca144beb263f7edd8dc", "type": "electric_scooter", "is_reserved": 0, "lon": -77.01283383333333}, {"fusion_lat": 0.0, "name": "05e75eb11df52fbce4758c5c19437cda", "is_disabled": 0, "rental_uris": {"android": "https://dc.lft.to/lastmile_qr_scan", "ios": "https://dc.lft.to/lastmile_qr_scan"}, "fusion_lon": 0.0, "lat": 38.9085335, "bike_id": "05e75eb11df52fbce4758c5c19437cda", "type": "electric_scooter", "is_reserved": 0, "lon": -77.00367133333333}, {"fusion_lat": 0.0, "name": "b38611dd67ef7f56312e9e9a493c4770", "is_disabled": 0, "rental_uris": {"android": "https://dc.lft.to/lastmile_qr_scan", "ios": "https://dc.lft.to/lastmile_qr_scan"}, "fusion_lon": 0.0, "lat": 38.9244075, "bike_id": "b38611dd67ef7f56312e9e9a493c4770", "type": "electric_scooter", "is_reserved": 0, "lon": -77.04465833333333}, {"fusion_lat": 0.0, "name": "38fb1c65137b7e5874af42390047382f", "is_disabled": 0, "rental_uris": {"android": "https://dc.lft.to/lastmile_qr_scan", "ios": "https://dc.lft.to/lastmile_qr_scan"}, "fusion_lon": 0.0, "lat": 38.96183383333333, "bike_id": "38fb1c65137b7e5874af42390047382f", "type": "electric_bike", "is_reserved": 0, "lon": -77.05267183333333}, {"fusion_lat": 0.0, "name": "801088af661b1e4ce75674e9ab6c34ca", "is_disabled": 0, "rental_uris": {"android": "https://dc.lft.to/lastmile_qr_scan", "ios": "https://dc.lft.to/lastmile_qr_scan"}, "fusion_lon": 0.0, "lat": 38.9125525, "bike_id": "801088af661b1e4ce75674e9ab6c34ca", "type": "electric_scooter", "is_reserved": 0, "lon": -77.0295665}, {"fusion_lat": 0.0, "name": "67165681ce848b9d15891b6987ec456f", "is_disabled": 0, "rental_uris": {"android": "https://dc.lft.to/lastmile_qr_scan", "ios": "https://dc.lft.to/lastmile_qr_scan"}, "fusion_lon": 0.0, "lat": 38.8970085, "bike_id": "67165681ce848b9d15891b6987ec456f", "type": "electric_scooter", "is_reserved": 0, "lon": -77.0130895}, {"fusion_lat": 0.0, "name": "5115c6013eaf4ea2d485ea26e73e39f2", "is_disabled": 0, "rental_uris": {"android": "https://dc.lft.to/lastmile_qr_scan", "ios": "https://dc.lft.to/lastmile_qr_scan"}, "fusion_lon": 0.0, "lat": 38.90422183333333, "bike_id": "5115c6013eaf4ea2d485ea26e73e39f2", "type": "electric_scooter", "is_reserved": 0, "lon": -77.01880716666666}, {"fusion_lat": 0.0, "name": "559c9ef3afc2afe067d72f3bf3c216ec", "is_disabled": 0, "rental_uris": {"android": "https://dc.lft.to/lastmile_qr_scan", "ios": "https://dc.lft.to/lastmile_qr_scan"}, "fusion_lon": 0.0, "lat": 38.89110633333333, "bike_id": "559c9ef3afc2afe067d72f3bf3c216ec", "type": "electric_scooter", "is_reserved": 0, "lon": -76.9438315}, {"fusion_lat": 0.0, "name": "c3136fb6ad9a0a6dd8c352eeba60d7e9", "is_disabled": 0, "rental_uris": {"android": "https://dc.lft.to/lastmile_qr_scan", "ios": "https://dc.lft.to/lastmile_qr_scan"}, "fusion_lon": 0.0, "lat": 38.935427, "bike_id": "c3136fb6ad9a0a6dd8c352eeba60d7e9", "type": "electric_scooter", "is_reserved": 0, "lon": -77.03096483333333}, {"fusion_lat": 0.0, "name": "fcb938b9f249773e7c217d121905288d", "is_disabled": 0, "rental_uris": {"android": "https://dc.lft.to/lastmile_qr_scan", "ios": "https://dc.lft.to/lastmile_qr_scan"}, "fusion_lon": 0.0, "lat": 38.895351833333336, "bike_id": "fcb938b9f249773e7c217d121905288d", "type": "electric_scooter", "is_reserved": 0, "lon": -77.03059533333334}, {"fusion_lat": 0.0, "name": "5a8559f497ad33555eaa83819c089603", "is_disabled": 0, "rental_uris": {"android": "https://dc.lft.to/lastmile_qr_scan", "ios": "https://dc.lft.to/lastmile_qr_scan"}, "fusion_lon": 0.0, "lat": 38.8889055, "bike_id": "5a8559f497ad33555eaa83819c089603", "type": "electric_bike", "is_reserved": 0, "lon": -77.11528383333334}, {"fusion_lat": 0.0, "name": "531598f9257256d986d33a599d7b34fd", "is_disabled": 0, "rental_uris": {"android": "https://dc.lft.to/lastmile_qr_scan", "ios": "https://dc.lft.to/lastmile_qr_scan"}, "fusion_lon": 0.0, "lat": 38.901923833333335, "bike_id": "531598f9257256d986d33a599d7b34fd", "type": "electric_scooter", "is_reserved": 0, "lon": -77.06120066666666}, {"fusion_lat": 0.0, "name": "aebf9023d667b17eb10e2bc8e012f74b", "is_disabled": 0, "rental_uris": {"android": "https://dc.lft.to/lastmile_qr_scan", "ios": "https://dc.lft.to/lastmile_qr_scan"}, "fusion_lon": 0.0, "lat": 38.907426, "bike_id": "aebf9023d667b17eb10e2bc8e012f74b", "type": "electric_scooter", "is_reserved": 0, "lon": -77.06345266666666}, {"fusion_lat": 0.0, "name": "8c5a541df858fc231fa3752ad926a8ad", "is_disabled": 0, "rental_uris": {"android": "https://dc.lft.to/lastmile_qr_scan", "ios": "https://dc.lft.to/lastmile_qr_scan"}, "fusion_lon": 0.0, "lat": 38.93419733333333, "bike_id": "8c5a541df858fc231fa3752ad926a8ad", "type": "electric_scooter", "is_reserved": 0, "lon": -76.9796495}, {"fusion_lat": 0.0, "name": "e230294e829c9927cb6790bf05982fd6", "is_disabled": 0, "rental_uris": {"android": "https://dc.lft.to/lastmile_qr_scan", "ios": "https://dc.lft.to/lastmile_qr_scan"}, "fusion_lon": 0.0, "lat": 38.91818983333334, "bike_id": "e230294e829c9927cb6790bf05982fd6", "type": "electric_scooter", "is_reserved": 0, "lon": -77.02533383333333}, {"fusion_lat": 0.0, "name": "d9dfd89242226cab28624f671a4ac2bf", "is_disabled": 0, "rental_uris": {"android": "https://dc.lft.to/lastmile_qr_scan", "ios": "https://dc.lft.to/lastmile_qr_scan"}, "fusion_lon": 0.0, "lat": 38.918187333333336, "bike_id": "d9dfd89242226cab28624f671a4ac2bf", "type": "electric_scooter", "is_reserved": 0, "lon": -77.02824716666667}, {"fusion_lat": 0.0, "name": "935ca686e5888803afc45fd6588c3f91", "is_disabled": 0, "rental_uris": {"android": "https://dc.lft.to/lastmile_qr_scan", "ios": "https://dc.lft.to/lastmile_qr_scan"}, "fusion_lon": 0.0, "lat": 38.9308765, "bike_id": "935ca686e5888803afc45fd6588c3f91", "type": "electric_scooter", "is_reserved": 0, "lon": -77.03752633333333}, {"fusion_lat": 0.0, "name": "398d9e898f48b03866b49b83ff7b5522", "is_disabled": 0, "rental_uris": {"android": "https://dc.lft.to/lastmile_qr_scan", "ios": "https://dc.lft.to/lastmile_qr_scan"}, "fusion_lon": 0.0, "lat": 38.930833666666665, "bike_id": "398d9e898f48b03866b49b83ff7b5522", "type": "electric_bike", "is_reserved": 0, "lon": -76.98502183333333}, {"fusion_lat": 0.0, "name": "3e6e990bba14c1cd6b77eb80518576de", "is_disabled": 0, "rental_uris": {"android": "https://dc.lft.to/lastmile_qr_scan", "ios": "https://dc.lft.to/lastmile_qr_scan"}, "fusion_lon": 0.0, "lat": 38.892247166666664, "bike_id": "3e6e990bba14c1cd6b77eb80518576de", "type": "electric_scooter", "is_reserved": 0, "lon": -77.03139866666666}, {"fusion_lat": 0.0, "name": "827699569c40da21579b09ebd4fcbb03", "is_disabled": 0, "rental_uris": {"android": "https://dc.lft.to/lastmile_qr_scan", "ios": "https://dc.lft.to/lastmile_qr_scan"}, "fusion_lon": 0.0, "lat": 38.88218716666667, "bike_id": "827699569c40da21579b09ebd4fcbb03", "type": "electric_scooter", "is_reserved": 0, "lon": -77.02939116666667}, {"fusion_lat": 0.0, "name": "030b8a956af885b982e2c85915a501cc", "is_disabled": 0, "rental_uris": {"android": "https://dc.lft.to/lastmile_qr_scan", "ios": "https://dc.lft.to/lastmile_qr_scan"}, "fusion_lon": 0.0, "lat": 38.89230233333333, "bike_id": "030b8a956af885b982e2c85915a501cc", "type": "electric_scooter", "is_reserved": 0, "lon": -77.028385}, {"fusion_lat": 0.0, "name": "a763aef777c3e7fc6b3dc2c90921b9f2", "is_disabled": 0, "rental_uris": {"android": "https://dc.lft.to/lastmile_qr_scan", "ios": "https://dc.lft.to/lastmile_qr_scan"}, "fusion_lon": 0.0, "lat": 38.91847716666667, "bike_id": "a763aef777c3e7fc6b3dc2c90921b9f2", "type": "electric_scooter", "is_reserved": 0, "lon": -76.9654785}, {"fusion_lat": 0.0, "name": "a153d50ab551addad241a00bc8bcc8c3", "is_disabled": 0, "rental_uris": {"android": "https://dc.lft.to/lastmile_qr_scan", "ios": "https://dc.lft.to/lastmile_qr_scan"}, "fusion_lon": 0.0, "lat": 38.9134615, "bike_id": "a153d50ab551addad241a00bc8bcc8c3", "type": "electric_scooter", "is_reserved": 0, "lon": -77.033292}, {"fusion_lat": 0.0, "name": "37333199c76e4164c722fd58b2cd8d9d", "is_disabled": 0, "rental_uris": {"android": "https://dc.lft.to/lastmile_qr_scan", "ios": "https://dc.lft.to/lastmile_qr_scan"}, "fusion_lon": 0.0, "lat": 38.9147825, "bike_id": "37333199c76e4164c722fd58b2cd8d9d", "type": "electric_scooter", "is_reserved": 0, "lon": -76.98389316666666}, {"fusion_lat": 0.0, "name": "07a5bfe5495cd0983dd1aac367e9ec6f", "is_disabled": 0, "rental_uris": {"android": "https://dc.lft.to/lastmile_qr_scan", "ios": "https://dc.lft.to/lastmile_qr_scan"}, "fusion_lon": 0.0, "lat": 38.984761666666664, "bike_id": "07a5bfe5495cd0983dd1aac367e9ec6f", "type": "electric_scooter", "is_reserved": 0, "lon": -77.0264185}, {"fusion_lat": 0.0, "name": "bdd78c2584ce58666418f6980d383353", "is_disabled": 0, "rental_uris": {"android": "https://dc.lft.to/lastmile_qr_scan", "ios": "https://dc.lft.to/lastmile_qr_scan"}, "fusion_lon": 0.0, "lat": 38.90157083333333, "bike_id": "bdd78c2584ce58666418f6980d383353", "type": "electric_scooter", "is_reserved": 0, "lon": -77.01996833333334}, {"fusion_lat": 0.0, "name": "ec4c3e7d0c21f74ed914153629b74a80", "is_disabled": 0, "rental_uris": {"android": "https://dc.lft.to/lastmile_qr_scan", "ios": "https://dc.lft.to/lastmile_qr_scan"}, "fusion_lon": 0.0, "lat": 38.93702666666667, "bike_id": "ec4c3e7d0c21f74ed914153629b74a80", "type": "electric_scooter", "is_reserved": 0, "lon": -77.02403033333333}, {"fusion_lat": 0.0, "name": "8c1e9d7a4f8938f8204ab4924c981d73", "is_disabled": 0, "rental_uris": {"android": "https://dc.lft.to/lastmile_qr_scan", "ios": "https://dc.lft.to/lastmile_qr_scan"}, "fusion_lon": 0.0, "lat": 38.916522, "bike_id": "8c1e9d7a4f8938f8204ab4924c981d73", "type": "electric_scooter", "is_reserved": 0, "lon": -77.02799216666666}, {"fusion_lat": 0.0, "name": "8c45659bc64e2e52701a7bd34395fd7a", "is_disabled": 0, "rental_uris": {"android": "https://dc.lft.to/lastmile_qr_scan", "ios": "https://dc.lft.to/lastmile_qr_scan"}, "fusion_lon": 0.0, "lat": 38.927076, "bike_id": "8c45659bc64e2e52701a7bd34395fd7a", "type": "electric_scooter", "is_reserved": 0, "lon": -77.02099333333334}, {"fusion_lat": 0.0, "name": "77c1a92cf4a8fcbf1d5bf4ff9e351ece", "is_disabled": 0, "rental_uris": {"android": "https://dc.lft.to/lastmile_qr_scan", "ios": "https://dc.lft.to/lastmile_qr_scan"}, "fusion_lon": 0.0, "lat": 38.90877, "bike_id": "77c1a92cf4a8fcbf1d5bf4ff9e351ece", "type": "electric_scooter", "is_reserved": 0, "lon": -77.00262966666666}, {"fusion_lat": 0.0, "name": "82065a82b25bb6262cfa45faf6a58b86", "is_disabled": 0, "rental_uris": {"android": "https://dc.lft.to/lastmile_qr_scan", "ios": "https://dc.lft.to/lastmile_qr_scan"}, "fusion_lon": 0.0, "lat": 38.926542166666664, "bike_id": "82065a82b25bb6262cfa45faf6a58b86", "type": "electric_scooter", "is_reserved": 0, "lon": -77.03714683333334}, {"fusion_lat": 0.0, "name": "ccd66d5a445004d32837ea2680a81c95", "is_disabled": 0, "rental_uris": {"android": "https://dc.lft.to/lastmile_qr_scan", "ios": "https://dc.lft.to/lastmile_qr_scan"}, "fusion_lon": 0.0, "lat": 38.894910333333335, "bike_id": "ccd66d5a445004d32837ea2680a81c95", "type": "electric_scooter", "is_reserved": 0, "lon": -77.01948866666666}, {"fusion_lat": 0.0, "name": "9d8b5accc9b291d80b8251485df17d90", "is_disabled": 0, "rental_uris": {"android": "https://dc.lft.to/lastmile_qr_scan", "ios": "https://dc.lft.to/lastmile_qr_scan"}, "fusion_lon": 0.0, "lat": 38.924816666666665, "bike_id": "9d8b5accc9b291d80b8251485df17d90", "type": "electric_scooter", "is_reserved": 0, "lon": -77.0283595}, {"fusion_lat": 0.0, "name": "549ba2797a0d5c022324e6818f3aab1e", "is_disabled": 0, "rental_uris": {"android": "https://dc.lft.to/lastmile_qr_scan", "ios": "https://dc.lft.to/lastmile_qr_scan"}, "fusion_lon": 0.0, "lat": 38.91953866666667, "bike_id": "549ba2797a0d5c022324e6818f3aab1e", "type": "electric_bike", "is_reserved": 0, "lon": -77.1010875}, {"fusion_lat": 0.0, "name": "8bef54066192d91efcdbdeeb88f69bc8", "is_disabled": 0, "rental_uris": {"android": "https://dc.lft.to/lastmile_qr_scan", "ios": "https://dc.lft.to/lastmile_qr_scan"}, "fusion_lon": 0.0, "lat": 38.927436, "bike_id": "8bef54066192d91efcdbdeeb88f69bc8", "type": "electric_scooter", "is_reserved": 0, "lon": -77.02147783333334}, {"fusion_lat": 0.0, "name": "d81c54e480de4aabfb1e8a15c3957f41", "is_disabled": 0, "rental_uris": {"android": "https://dc.lft.to/lastmile_qr_scan", "ios": "https://dc.lft.to/lastmile_qr_scan"}, "fusion_lon": 0.0, "lat": 38.90786, "bike_id": "d81c54e480de4aabfb1e8a15c3957f41", "type": "electric_scooter", "is_reserved": 0, "lon": -77.04337166666667}, {"fusion_lat": 0.0, "name": "c20caff2d1b9d3e4f1d589bc6ed0dc8c", "is_disabled": 0, "rental_uris": {"android": "https://dc.lft.to/lastmile_qr_scan", "ios": "https://dc.lft.to/lastmile_qr_scan"}, "fusion_lon": 0.0, "lat": 38.93584333333333, "bike_id": "c20caff2d1b9d3e4f1d589bc6ed0dc8c", "type": "electric_scooter", "is_reserved": 0, "lon": -77.02845283333333}, {"fusion_lat": 0.0, "name": "20c92c8a067f2c93cae536a8d37adf6e", "is_disabled": 0, "rental_uris": {"android": "https://dc.lft.to/lastmile_qr_scan", "ios": "https://dc.lft.to/lastmile_qr_scan"}, "fusion_lon": 0.0, "lat": 38.88739733333333, "bike_id": "20c92c8a067f2c93cae536a8d37adf6e", "type": "electric_scooter", "is_reserved": 0, "lon": -77.02213733333333}, {"fusion_lat": 0.0, "name": "429d6c2368c0fe7c65c454b98fa3e261", "is_disabled": 0, "rental_uris": {"android": "https://dc.lft.to/lastmile_qr_scan", "ios": "https://dc.lft.to/lastmile_qr_scan"}, "fusion_lon": 0.0, "lat": 38.885847, "bike_id": "429d6c2368c0fe7c65c454b98fa3e261", "type": "electric_scooter", "is_reserved": 0, "lon": -77.0198505}, {"fusion_lat": 0.0, "name": "c74c668c01ed693a9a84b5453636ffe3", "is_disabled": 0, "rental_uris": {"android": "https://dc.lft.to/lastmile_qr_scan", "ios": "https://dc.lft.to/lastmile_qr_scan"}, "fusion_lon": 0.0, "lat": 38.86825616666667, "bike_id": "c74c668c01ed693a9a84b5453636ffe3", "type": "electric_scooter", "is_reserved": 0, "lon": -77.0112485}, {"fusion_lat": 0.0, "name": "2c225156ed045359e46a3ef5c7519b1d", "is_disabled": 0, "rental_uris": {"android": "https://dc.lft.to/lastmile_qr_scan", "ios": "https://dc.lft.to/lastmile_qr_scan"}, "fusion_lon": 0.0, "lat": 38.9168835, "bike_id": "2c225156ed045359e46a3ef5c7519b1d", "type": "electric_scooter", "is_reserved": 0, "lon": -77.03105466666666}, {"fusion_lat": 0.0, "name": "b832500918d9ac8d6c324f9b7fc96ea1", "is_disabled": 0, "rental_uris": {"android": "https://dc.lft.to/lastmile_qr_scan", "ios": "https://dc.lft.to/lastmile_qr_scan"}, "fusion_lon": 0.0, "lat": 38.907338833333334, "bike_id": "b832500918d9ac8d6c324f9b7fc96ea1", "type": "electric_scooter", "is_reserved": 0, "lon": -77.02203816666666}, {"fusion_lat": 0.0, "name": "ba3bdbe983ddfc0fef9eab27912d21f2", "is_disabled": 0, "rental_uris": {"android": "https://dc.lft.to/lastmile_qr_scan", "ios": "https://dc.lft.to/lastmile_qr_scan"}, "fusion_lon": 0.0, "lat": 38.910570166666666, "bike_id": "ba3bdbe983ddfc0fef9eab27912d21f2", "type": "electric_scooter", "is_reserved": 0, "lon": -77.043423}, {"fusion_lat": 0.0, "name": "f3d9776e7d5ef37674b87ad936c585d5", "is_disabled": 0, "rental_uris": {"android": "https://dc.lft.to/lastmile_qr_scan", "ios": "https://dc.lft.to/lastmile_qr_scan"}, "fusion_lon": 0.0, "lat": 38.876326166666665, "bike_id": "f3d9776e7d5ef37674b87ad936c585d5", "type": "electric_scooter", "is_reserved": 0, "lon": -77.01476366666667}, {"fusion_lat": 0.0, "name": "2ff890e30fe59e7025cb952018edb5a8", "is_disabled": 0, "rental_uris": {"android": "https://dc.lft.to/lastmile_qr_scan", "ios": "https://dc.lft.to/lastmile_qr_scan"}, "fusion_lon": 0.0, "lat": 38.905766166666666, "bike_id": "2ff890e30fe59e7025cb952018edb5a8", "type": "electric_scooter", "is_reserved": 0, "lon": -77.00811616666667}, {"fusion_lat": 0.0, "name": "e3ebc658efc499e8d894071d2e341500", "is_disabled": 0, "rental_uris": {"android": "https://dc.lft.to/lastmile_qr_scan", "ios": "https://dc.lft.to/lastmile_qr_scan"}, "fusion_lon": 0.0, "lat": 38.915071833333336, "bike_id": "e3ebc658efc499e8d894071d2e341500", "type": "electric_scooter", "is_reserved": 0, "lon": -77.031908}, {"fusion_lat": 0.0, "name": "f1c8bb96551488929093a9811035351d", "is_disabled": 0, "rental_uris": {"android": "https://dc.lft.to/lastmile_qr_scan", "ios": "https://dc.lft.to/lastmile_qr_scan"}, "fusion_lon": 0.0, "lat": 38.905093666666666, "bike_id": "f1c8bb96551488929093a9811035351d", "type": "electric_scooter", "is_reserved": 0, "lon": -77.06152133333333}, {"fusion_lat": 0.0, "name": "b4f47f0e6583ea807f4bcae86fa9f8da", "is_disabled": 0, "rental_uris": {"android": "https://dc.lft.to/lastmile_qr_scan", "ios": "https://dc.lft.to/lastmile_qr_scan"}, "fusion_lon": 0.0, "lat": 38.91118066666667, "bike_id": "b4f47f0e6583ea807f4bcae86fa9f8da", "type": "electric_scooter", "is_reserved": 0, "lon": -77.0384595}, {"fusion_lat": 0.0, "name": "e0fd6e20d09f0504ea40c056240da6c7", "is_disabled": 0, "rental_uris": {"android": "https://dc.lft.to/lastmile_qr_scan", "ios": "https://dc.lft.to/lastmile_qr_scan"}, "fusion_lon": 0.0, "lat": 38.90365833333333, "bike_id": "e0fd6e20d09f0504ea40c056240da6c7", "type": "electric_scooter", "is_reserved": 0, "lon": -77.0386885}, {"fusion_lat": 0.0, "name": "cb2dab40d1af335a40e9efeaeb97f6a5", "is_disabled": 0, "rental_uris": {"android": "https://dc.lft.to/lastmile_qr_scan", "ios": "https://dc.lft.to/lastmile_qr_scan"}, "fusion_lon": 0.0, "lat": 38.872315666666665, "bike_id": "cb2dab40d1af335a40e9efeaeb97f6a5", "type": "electric_scooter", "is_reserved": 0, "lon": -77.01766}, {"fusion_lat": 0.0, "name": "362394632d482da2435f8785fdc43e09", "is_disabled": 0, "rental_uris": {"android": "https://dc.lft.to/lastmile_qr_scan", "ios": "https://dc.lft.to/lastmile_qr_scan"}, "fusion_lon": 0.0, "lat": 38.907615166666666, "bike_id": "362394632d482da2435f8785fdc43e09", "type": "electric_scooter", "is_reserved": 0, "lon": -77.00036683333333}, {"fusion_lat": 0.0, "name": "29231e7101f7810d408495fd212f7ec1", "is_disabled": 0, "rental_uris": {"android": "https://dc.lft.to/lastmile_qr_scan", "ios": "https://dc.lft.to/lastmile_qr_scan"}, "fusion_lon": 0.0, "lat": 38.93877066666667, "bike_id": "29231e7101f7810d408495fd212f7ec1", "type": "electric_bike", "is_reserved": 0, "lon": -77.029206}, {"fusion_lat": 0.0, "name": "fcb319f08d7c66e955bbc3e3ca60fac4", "is_disabled": 0, "rental_uris": {"android": "https://dc.lft.to/lastmile_qr_scan", "ios": "https://dc.lft.to/lastmile_qr_scan"}, "fusion_lon": 0.0, "lat": 38.89734833333333, "bike_id": "fcb319f08d7c66e955bbc3e3ca60fac4", "type": "electric_scooter", "is_reserved": 0, "lon": -77.00752266666667}, {"fusion_lat": 0.0, "name": "45d9dc1f523e4dfb35a6e8e314a18802", "is_disabled": 0, "rental_uris": {"android": "https://dc.lft.to/lastmile_qr_scan", "ios": "https://dc.lft.to/lastmile_qr_scan"}, "fusion_lon": 0.0, "lat": 38.902987, "bike_id": "45d9dc1f523e4dfb35a6e8e314a18802", "type": "electric_scooter", "is_reserved": 0, "lon": -77.02901466666667}, {"fusion_lat": 0.0, "name": "b9309f2d7f7046f024af6b859604f469", "is_disabled": 0, "rental_uris": {"android": "https://dc.lft.to/lastmile_qr_scan", "ios": "https://dc.lft.to/lastmile_qr_scan"}, "fusion_lon": 0.0, "lat": 38.89448466666666, "bike_id": "b9309f2d7f7046f024af6b859604f469", "type": "electric_scooter", "is_reserved": 0, "lon": -77.0211755}, {"fusion_lat": 0.0, "name": "d6d207e035da4c334a769638e85fd2f6", "is_disabled": 0, "rental_uris": {"android": "https://dc.lft.to/lastmile_qr_scan", "ios": "https://dc.lft.to/lastmile_qr_scan"}, "fusion_lon": 0.0, "lat": 38.884927, "bike_id": "d6d207e035da4c334a769638e85fd2f6", "type": "electric_scooter", "is_reserved": 0, "lon": -77.01084633333333}, {"fusion_lat": 0.0, "name": "ea1b137292fd5a7e22c4756ea13d96a8", "is_disabled": 0, "rental_uris": {"android": "https://dc.lft.to/lastmile_qr_scan", "ios": "https://dc.lft.to/lastmile_qr_scan"}, "fusion_lon": 0.0, "lat": 38.90881016666667, "bike_id": "ea1b137292fd5a7e22c4756ea13d96a8", "type": "electric_scooter", "is_reserved": 0, "lon": -77.03653083333333}, {"fusion_lat": 0.0, "name": "c09ce499fb7a0fe62b44311b33e17a98", "is_disabled": 0, "rental_uris": {"android": "https://dc.lft.to/lastmile_qr_scan", "ios": "https://dc.lft.to/lastmile_qr_scan"}, "fusion_lon": 0.0, "lat": 38.888503166666666, "bike_id": "c09ce499fb7a0fe62b44311b33e17a98", "type": "electric_scooter", "is_reserved": 0, "lon": -76.926829}, {"fusion_lat": 0.0, "name": "25db2a302a0e5f66c55fcf17f72e757f", "is_disabled": 0, "rental_uris": {"android": "https://dc.lft.to/lastmile_qr_scan", "ios": "https://dc.lft.to/lastmile_qr_scan"}, "fusion_lon": 0.0, "lat": 38.91407016666667, "bike_id": "25db2a302a0e5f66c55fcf17f72e757f", "type": "electric_scooter", "is_reserved": 0, "lon": -77.03230033333334}, {"fusion_lat": 0.0, "name": "53c779a71bf2bf538f7b11fd581fa615", "is_disabled": 0, "rental_uris": {"android": "https://dc.lft.to/lastmile_qr_scan", "ios": "https://dc.lft.to/lastmile_qr_scan"}, "fusion_lon": 0.0, "lat": 38.910759666666664, "bike_id": "53c779a71bf2bf538f7b11fd581fa615", "type": "electric_scooter", "is_reserved": 0, "lon": -77.067246}, {"fusion_lat": 0.0, "name": "5dfc477ce1ab0a438fee968e57fcade6", "is_disabled": 0, "rental_uris": {"android": "https://dc.lft.to/lastmile_qr_scan", "ios": "https://dc.lft.to/lastmile_qr_scan"}, "fusion_lon": 0.0, "lat": 38.9076635, "bike_id": "5dfc477ce1ab0a438fee968e57fcade6", "type": "electric_scooter", "is_reserved": 0, "lon": -77.0565325}, {"fusion_lat": 0.0, "name": "a465df832eaeb0d8053406ec13589180", "is_disabled": 0, "rental_uris": {"android": "https://dc.lft.to/lastmile_qr_scan", "ios": "https://dc.lft.to/lastmile_qr_scan"}, "fusion_lon": 0.0, "lat": 38.79762383333333, "bike_id": "a465df832eaeb0d8053406ec13589180", "type": "electric_bike", "is_reserved": 0, "lon": -77.04752816666667}, {"fusion_lat": 0.0, "name": "582b786657c4c5a32c73d69e75b82f4e", "is_disabled": 0, "rental_uris": {"android": "https://dc.lft.to/lastmile_qr_scan", "ios": "https://dc.lft.to/lastmile_qr_scan"}, "fusion_lon": 0.0, "lat": 38.93771916666667, "bike_id": "582b786657c4c5a32c73d69e75b82f4e", "type": "electric_scooter", "is_reserved": 0, "lon": -77.032636}, {"fusion_lat": 0.0, "name": "a40de89f5cf71780d76a68b95b5bef1b", "is_disabled": 0, "rental_uris": {"android": "https://dc.lft.to/lastmile_qr_scan", "ios": "https://dc.lft.to/lastmile_qr_scan"}, "fusion_lon": 0.0, "lat": 38.88142716666667, "bike_id": "a40de89f5cf71780d76a68b95b5bef1b", "type": "electric_scooter", "is_reserved": 0, "lon": -76.9950515}, {"fusion_lat": 0.0, "name": "0ee69f652372691846a5ed31d606fbe3", "is_disabled": 0, "rental_uris": {"android": "https://dc.lft.to/lastmile_qr_scan", "ios": "https://dc.lft.to/lastmile_qr_scan"}, "fusion_lon": 0.0, "lat": 38.91564433333333, "bike_id": "0ee69f652372691846a5ed31d606fbe3", "type": "electric_scooter", "is_reserved": 0, "lon": -77.03183833333334}, {"fusion_lat": 0.0, "name": "011f33cdbf544dd8c75572da669c793b", "is_disabled": 0, "rental_uris": {"android": "https://dc.lft.to/lastmile_qr_scan", "ios": "https://dc.lft.to/lastmile_qr_scan"}, "fusion_lon": 0.0, "lat": 38.885052, "bike_id": "011f33cdbf544dd8c75572da669c793b", "type": "electric_scooter", "is_reserved": 0, "lon": -77.017317}, {"fusion_lat": 0.0, "name": "918fdbb403632f98f8a90eb99d711738", "is_disabled": 0, "rental_uris": {"android": "https://dc.lft.to/lastmile_qr_scan", "ios": "https://dc.lft.to/lastmile_qr_scan"}, "fusion_lon": 0.0, "lat": 38.82787666666667, "bike_id": "918fdbb403632f98f8a90eb99d711738", "type": "electric_bike", "is_reserved": 0, "lon": -77.12485466666666}, {"fusion_lat": 0.0, "name": "bbb7ccbfd0b6fe6ffa43d8149ec3862a", "is_disabled": 0, "rental_uris": {"android": "https://dc.lft.to/lastmile_qr_scan", "ios": "https://dc.lft.to/lastmile_qr_scan"}, "fusion_lon": 0.0, "lat": 38.8832185, "bike_id": "bbb7ccbfd0b6fe6ffa43d8149ec3862a", "type": "electric_bike", "is_reserved": 0, "lon": -76.9605645}, {"fusion_lat": 0.0, "name": "67506fbe0487b185ab3b86424314e3ab", "is_disabled": 0, "rental_uris": {"android": "https://dc.lft.to/lastmile_qr_scan", "ios": "https://dc.lft.to/lastmile_qr_scan"}, "fusion_lon": 0.0, "lat": 38.922255666666665, "bike_id": "67506fbe0487b185ab3b86424314e3ab", "type": "electric_scooter", "is_reserved": 0, "lon": -77.023705}, {"fusion_lat": 0.0, "name": "120d432ae746422dbebc90402cfe8b62", "is_disabled": 0, "rental_uris": {"android": "https://dc.lft.to/lastmile_qr_scan", "ios": "https://dc.lft.to/lastmile_qr_scan"}, "fusion_lon": 0.0, "lat": 38.93964916666667, "bike_id": "120d432ae746422dbebc90402cfe8b62", "type": "electric_scooter", "is_reserved": 0, "lon": -77.03283733333333}, {"fusion_lat": 0.0, "name": "a0452531f8344b75a54c27216d445fb5", "is_disabled": 0, "rental_uris": {"android": "https://dc.lft.to/lastmile_qr_scan", "ios": "https://dc.lft.to/lastmile_qr_scan"}, "fusion_lon": 0.0, "lat": 38.898014333333336, "bike_id": "a0452531f8344b75a54c27216d445fb5", "type": "electric_scooter", "is_reserved": 0, "lon": -77.02939933333333}, {"fusion_lat": 0.0, "name": "148290dca22b29ff75657c65869fb4a0", "is_disabled": 0, "rental_uris": {"android": "https://dc.lft.to/lastmile_qr_scan", "ios": "https://dc.lft.to/lastmile_qr_scan"}, "fusion_lon": 0.0, "lat": 38.92820416666667, "bike_id": "148290dca22b29ff75657c65869fb4a0", "type": "electric_scooter", "is_reserved": 0, "lon": -77.022609}, {"fusion_lat": 0.0, "name": "7e49d66f0c8280a954118a129f1ec5bf", "is_disabled": 0, "rental_uris": {"android": "https://dc.lft.to/lastmile_qr_scan", "ios": "https://dc.lft.to/lastmile_qr_scan"}, "fusion_lon": 0.0, "lat": 38.897070666666664, "bike_id": "7e49d66f0c8280a954118a129f1ec5bf", "type": "electric_scooter", "is_reserved": 0, "lon": -77.022869}, {"fusion_lat": 0.0, "name": "d4c79907accbac1516f8f2eee7b81af3", "is_disabled": 0, "rental_uris": {"android": "https://dc.lft.to/lastmile_qr_scan", "ios": "https://dc.lft.to/lastmile_qr_scan"}, "fusion_lon": 0.0, "lat": 38.906166, "bike_id": "d4c79907accbac1516f8f2eee7b81af3", "type": "electric_scooter", "is_reserved": 0, "lon": -77.04161466666666}, {"fusion_lat": 0.0, "name": "8afd68f6cef762cccd4391d2e2b05e62", "is_disabled": 0, "rental_uris": {"android": "https://dc.lft.to/lastmile_qr_scan", "ios": "https://dc.lft.to/lastmile_qr_scan"}, "fusion_lon": 0.0, "lat": 38.89990266666667, "bike_id": "8afd68f6cef762cccd4391d2e2b05e62", "type": "electric_scooter", "is_reserved": 0, "lon": -77.05501716666667}, {"fusion_lat": 0.0, "name": "80f13c47a5b31131278ebe0b05bdd832", "is_disabled": 0, "rental_uris": {"android": "https://dc.lft.to/lastmile_qr_scan", "ios": "https://dc.lft.to/lastmile_qr_scan"}, "fusion_lon": 0.0, "lat": 39.03609733333333, "bike_id": "80f13c47a5b31131278ebe0b05bdd832", "type": "electric_bike", "is_reserved": 0, "lon": -77.0554045}, {"fusion_lat": 0.0, "name": "0807e04601fbe8e550452a062b197bdb", "is_disabled": 0, "rental_uris": {"android": "https://dc.lft.to/lastmile_qr_scan", "ios": "https://dc.lft.to/lastmile_qr_scan"}, "fusion_lon": 0.0, "lat": 38.93539583333333, "bike_id": "0807e04601fbe8e550452a062b197bdb", "type": "electric_scooter", "is_reserved": 0, "lon": -77.02354416666667}, {"fusion_lat": 0.0, "name": "4530d67166ffd29926d26ad6360f20f2", "is_disabled": 0, "rental_uris": {"android": "https://dc.lft.to/lastmile_qr_scan", "ios": "https://dc.lft.to/lastmile_qr_scan"}, "fusion_lon": 0.0, "lat": 38.9208375, "bike_id": "4530d67166ffd29926d26ad6360f20f2", "type": "electric_bike", "is_reserved": 0, "lon": -77.0718095}, {"fusion_lat": 0.0, "name": "edb52f584c4e1d4f510396ae182eb439", "is_disabled": 0, "rental_uris": {"android": "https://dc.lft.to/lastmile_qr_scan", "ios": "https://dc.lft.to/lastmile_qr_scan"}, "fusion_lon": 0.0, "lat": 38.92647866666667, "bike_id": "edb52f584c4e1d4f510396ae182eb439", "type": "electric_scooter", "is_reserved": 0, "lon": -77.0385675}, {"fusion_lat": 0.0, "name": "093520a80abb2256f7686b0d2fc95490", "is_disabled": 0, "rental_uris": {"android": "https://dc.lft.to/lastmile_qr_scan", "ios": "https://dc.lft.to/lastmile_qr_scan"}, "fusion_lon": 0.0, "lat": 38.8873545, "bike_id": "093520a80abb2256f7686b0d2fc95490", "type": "electric_scooter", "is_reserved": 0, "lon": -77.03179283333333}, {"fusion_lat": 0.0, "name": "32d9df2775a81921ccdc9411b61f4cae", "is_disabled": 0, "rental_uris": {"android": "https://dc.lft.to/lastmile_qr_scan", "ios": "https://dc.lft.to/lastmile_qr_scan"}, "fusion_lon": 0.0, "lat": 38.91630133333334, "bike_id": "32d9df2775a81921ccdc9411b61f4cae", "type": "electric_scooter", "is_reserved": 0, "lon": -77.04795483333334}, {"fusion_lat": 0.0, "name": "1390943f30731c1ef77e8e4a56060984", "is_disabled": 0, "rental_uris": {"android": "https://dc.lft.to/lastmile_qr_scan", "ios": "https://dc.lft.to/lastmile_qr_scan"}, "fusion_lon": 0.0, "lat": 38.9103575, "bike_id": "1390943f30731c1ef77e8e4a56060984", "type": "electric_scooter", "is_reserved": 0, "lon": -77.03334933333333}, {"fusion_lat": 0.0, "name": "e3dec51a43ba5feace1ee19a442be276", "is_disabled": 0, "rental_uris": {"android": "https://dc.lft.to/lastmile_qr_scan", "ios": "https://dc.lft.to/lastmile_qr_scan"}, "fusion_lon": 0.0, "lat": 38.925147833333334, "bike_id": "e3dec51a43ba5feace1ee19a442be276", "type": "electric_scooter", "is_reserved": 0, "lon": -77.0225445}, {"fusion_lat": 0.0, "name": "dcd29b7e1a618de1d3efa51e2605af85", "is_disabled": 0, "rental_uris": {"android": "https://dc.lft.to/lastmile_qr_scan", "ios": "https://dc.lft.to/lastmile_qr_scan"}, "fusion_lon": 0.0, "lat": 38.915765666666665, "bike_id": "dcd29b7e1a618de1d3efa51e2605af85", "type": "electric_scooter", "is_reserved": 0, "lon": -77.032107}, {"fusion_lat": 0.0, "name": "685020d4350871ef2134505b0912d6dc", "is_disabled": 0, "rental_uris": {"android": "https://dc.lft.to/lastmile_qr_scan", "ios": "https://dc.lft.to/lastmile_qr_scan"}, "fusion_lon": 0.0, "lat": 38.93357783333333, "bike_id": "685020d4350871ef2134505b0912d6dc", "type": "electric_scooter", "is_reserved": 0, "lon": -77.038755}, {"fusion_lat": 0.0, "name": "4fc928766bf40cc7730e097dc8d91bda", "is_disabled": 0, "rental_uris": {"android": "https://dc.lft.to/lastmile_qr_scan", "ios": "https://dc.lft.to/lastmile_qr_scan"}, "fusion_lon": 0.0, "lat": 38.918177166666666, "bike_id": "4fc928766bf40cc7730e097dc8d91bda", "type": "electric_scooter", "is_reserved": 0, "lon": -77.03845833333334}, {"fusion_lat": 0.0, "name": "c16cc83232bedd1798d8d365d1e0928d", "is_disabled": 0, "rental_uris": {"android": "https://dc.lft.to/lastmile_qr_scan", "ios": "https://dc.lft.to/lastmile_qr_scan"}, "fusion_lon": 0.0, "lat": 38.941355, "bike_id": "c16cc83232bedd1798d8d365d1e0928d", "type": "electric_scooter", "is_reserved": 0, "lon": -77.00611033333334}, {"fusion_lat": 0.0, "name": "98e5b367c71f3c4d7a07dac22dcc8cda", "is_disabled": 0, "rental_uris": {"android": "https://dc.lft.to/lastmile_qr_scan", "ios": "https://dc.lft.to/lastmile_qr_scan"}, "fusion_lon": 0.0, "lat": 38.903355166666664, "bike_id": "98e5b367c71f3c4d7a07dac22dcc8cda", "type": "electric_scooter", "is_reserved": 0, "lon": -76.972518}, {"fusion_lat": 0.0, "name": "59b1c96f1f857869ecad22a14bfbed51", "is_disabled": 0, "rental_uris": {"android": "https://dc.lft.to/lastmile_qr_scan", "ios": "https://dc.lft.to/lastmile_qr_scan"}, "fusion_lon": 0.0, "lat": 38.897035, "bike_id": "59b1c96f1f857869ecad22a14bfbed51", "type": "electric_scooter", "is_reserved": 0, "lon": -77.03217016666666}, {"fusion_lat": 0.0, "name": "62a3e2c443c8973edafba777be9490f6", "is_disabled": 0, "rental_uris": {"android": "https://dc.lft.to/lastmile_qr_scan", "ios": "https://dc.lft.to/lastmile_qr_scan"}, "fusion_lon": 0.0, "lat": 38.909725, "bike_id": "62a3e2c443c8973edafba777be9490f6", "type": "electric_scooter", "is_reserved": 0, "lon": -77.00905533333334}, {"fusion_lat": 0.0, "name": "db052dbafed0bfe69ca69980a94fb3d5", "is_disabled": 0, "rental_uris": {"android": "https://dc.lft.to/lastmile_qr_scan", "ios": "https://dc.lft.to/lastmile_qr_scan"}, "fusion_lon": 0.0, "lat": 38.8393095, "bike_id": "db052dbafed0bfe69ca69980a94fb3d5", "type": "electric_bike", "is_reserved": 0, "lon": -77.079021}, {"fusion_lat": 0.0, "name": "c0707c9e48708c9926218bfa45000243", "is_disabled": 0, "rental_uris": {"android": "https://dc.lft.to/lastmile_qr_scan", "ios": "https://dc.lft.to/lastmile_qr_scan"}, "fusion_lon": 0.0, "lat": 38.896922, "bike_id": "c0707c9e48708c9926218bfa45000243", "type": "electric_scooter", "is_reserved": 0, "lon": -77.0246145}, {"fusion_lat": 0.0, "name": "7b136d736ee4a1222eb2d226148be273", "is_disabled": 0, "rental_uris": {"android": "https://dc.lft.to/lastmile_qr_scan", "ios": "https://dc.lft.to/lastmile_qr_scan"}, "fusion_lon": 0.0, "lat": 38.91752266666667, "bike_id": "7b136d736ee4a1222eb2d226148be273", "type": "electric_scooter", "is_reserved": 0, "lon": -77.06934733333334}, {"fusion_lat": 0.0, "name": "8033dbbb3b4397d0679105ad20a774cc", "is_disabled": 0, "rental_uris": {"android": "https://dc.lft.to/lastmile_qr_scan", "ios": "https://dc.lft.to/lastmile_qr_scan"}, "fusion_lon": 0.0, "lat": 38.958836833333336, "bike_id": "8033dbbb3b4397d0679105ad20a774cc", "type": "electric_scooter", "is_reserved": 0, "lon": -77.011685}, {"fusion_lat": 0.0, "name": "a73a3cdcc53c8d45bd498312a6ec631e", "is_disabled": 0, "rental_uris": {"android": "https://dc.lft.to/lastmile_qr_scan", "ios": "https://dc.lft.to/lastmile_qr_scan"}, "fusion_lon": 0.0, "lat": 38.86409716666667, "bike_id": "a73a3cdcc53c8d45bd498312a6ec631e", "type": "electric_scooter", "is_reserved": 0, "lon": -77.0122445}, {"fusion_lat": 0.0, "name": "307f793e6991e4571a36c0e39e448317", "is_disabled": 0, "rental_uris": {"android": "https://dc.lft.to/lastmile_qr_scan", "ios": "https://dc.lft.to/lastmile_qr_scan"}, "fusion_lon": 0.0, "lat": 38.88392733333333, "bike_id": "307f793e6991e4571a36c0e39e448317", "type": "electric_scooter", "is_reserved": 0, "lon": -77.025865}, {"fusion_lat": 0.0, "name": "bacfa0e0e161ae4eeb63e7b86177625a", "is_disabled": 0, "rental_uris": {"android": "https://dc.lft.to/lastmile_qr_scan", "ios": "https://dc.lft.to/lastmile_qr_scan"}, "fusion_lon": 0.0, "lat": 38.924816166666666, "bike_id": "bacfa0e0e161ae4eeb63e7b86177625a", "type": "electric_scooter", "is_reserved": 0, "lon": -77.04339083333333}, {"fusion_lat": 0.0, "name": "d7d07c80f88c87d830d2d6a6cabba7c8", "is_disabled": 0, "rental_uris": {"android": "https://dc.lft.to/lastmile_qr_scan", "ios": "https://dc.lft.to/lastmile_qr_scan"}, "fusion_lon": 0.0, "lat": 38.9508475, "bike_id": "d7d07c80f88c87d830d2d6a6cabba7c8", "type": "electric_scooter", "is_reserved": 0, "lon": -77.02717616666666}, {"fusion_lat": 0.0, "name": "03f8238d318140a0b9b4764a901684a2", "is_disabled": 0, "rental_uris": {"android": "https://dc.lft.to/lastmile_qr_scan", "ios": "https://dc.lft.to/lastmile_qr_scan"}, "fusion_lon": 0.0, "lat": 38.8753975, "bike_id": "03f8238d318140a0b9b4764a901684a2", "type": "electric_scooter", "is_reserved": 0, "lon": -77.00745333333333}, {"fusion_lat": 0.0, "name": "0ead0c35a88f533ade1ceed05c3dbdf1", "is_disabled": 0, "rental_uris": {"android": "https://dc.lft.to/lastmile_qr_scan", "ios": "https://dc.lft.to/lastmile_qr_scan"}, "fusion_lon": 0.0, "lat": 38.94979383333333, "bike_id": "0ead0c35a88f533ade1ceed05c3dbdf1", "type": "electric_scooter", "is_reserved": 0, "lon": -77.02698716666667}, {"fusion_lat": 0.0, "name": "5ecd83c2333cbb04922577e3a4bd958b", "is_disabled": 0, "rental_uris": {"android": "https://dc.lft.to/lastmile_qr_scan", "ios": "https://dc.lft.to/lastmile_qr_scan"}, "fusion_lon": 0.0, "lat": 38.8685185, "bike_id": "5ecd83c2333cbb04922577e3a4bd958b", "type": "electric_scooter", "is_reserved": 0, "lon": -76.98830433333333}, {"fusion_lat": 0.0, "name": "50964bfcdab79fffd0f05ea3e626117d", "is_disabled": 0, "rental_uris": {"android": "https://dc.lft.to/lastmile_qr_scan", "ios": "https://dc.lft.to/lastmile_qr_scan"}, "fusion_lon": 0.0, "lat": 38.9492315, "bike_id": "50964bfcdab79fffd0f05ea3e626117d", "type": "electric_bike", "is_reserved": 0, "lon": -77.00833983333334}, {"fusion_lat": 0.0, "name": "674b514ad88ea15aaf7d20b2828c7e4b", "is_disabled": 0, "rental_uris": {"android": "https://dc.lft.to/lastmile_qr_scan", "ios": "https://dc.lft.to/lastmile_qr_scan"}, "fusion_lon": 0.0, "lat": 38.88497266666667, "bike_id": "674b514ad88ea15aaf7d20b2828c7e4b", "type": "electric_scooter", "is_reserved": 0, "lon": -77.01732766666667}, {"fusion_lat": 0.0, "name": "b80ab4dfc6cc01744f1e9670c5422e69", "is_disabled": 0, "rental_uris": {"android": "https://dc.lft.to/lastmile_qr_scan", "ios": "https://dc.lft.to/lastmile_qr_scan"}, "fusion_lon": 0.0, "lat": 38.953473333333335, "bike_id": "b80ab4dfc6cc01744f1e9670c5422e69", "type": "electric_scooter", "is_reserved": 0, "lon": -77.07946666666666}, {"fusion_lat": 0.0, "name": "2a12fe718084cd89d5b35ac7cae4f757", "is_disabled": 0, "rental_uris": {"android": "https://dc.lft.to/lastmile_qr_scan", "ios": "https://dc.lft.to/lastmile_qr_scan"}, "fusion_lon": 0.0, "lat": 38.895199, "bike_id": "2a12fe718084cd89d5b35ac7cae4f757", "type": "electric_scooter", "is_reserved": 0, "lon": -76.98088683333333}, {"fusion_lat": 0.0, "name": "8afcb03697779630bf2d5cd7455670e1", "is_disabled": 0, "rental_uris": {"android": "https://dc.lft.to/lastmile_qr_scan", "ios": "https://dc.lft.to/lastmile_qr_scan"}, "fusion_lon": 0.0, "lat": 38.943882333333335, "bike_id": "8afcb03697779630bf2d5cd7455670e1", "type": "electric_scooter", "is_reserved": 0, "lon": -77.0321345}, {"fusion_lat": 0.0, "name": "87875652d3472d4354789607d9252673", "is_disabled": 0, "rental_uris": {"android": "https://dc.lft.to/lastmile_qr_scan", "ios": "https://dc.lft.to/lastmile_qr_scan"}, "fusion_lon": 0.0, "lat": 38.916454, "bike_id": "87875652d3472d4354789607d9252673", "type": "electric_bike", "is_reserved": 0, "lon": -76.98218866666667}, {"fusion_lat": 0.0, "name": "3c6b9edb0846261fc568f1c64939dff9", "is_disabled": 0, "rental_uris": {"android": "https://dc.lft.to/lastmile_qr_scan", "ios": "https://dc.lft.to/lastmile_qr_scan"}, "fusion_lon": 0.0, "lat": 38.88343016666666, "bike_id": "3c6b9edb0846261fc568f1c64939dff9", "type": "electric_scooter", "is_reserved": 0, "lon": -76.99484733333334}, {"fusion_lat": 0.0, "name": "00ce41de7c6600e30b54fe256895b1ab", "is_disabled": 0, "rental_uris": {"android": "https://dc.lft.to/lastmile_qr_scan", "ios": "https://dc.lft.to/lastmile_qr_scan"}, "fusion_lon": 0.0, "lat": 38.959194333333336, "bike_id": "00ce41de7c6600e30b54fe256895b1ab", "type": "electric_scooter", "is_reserved": 0, "lon": -77.084762}, {"fusion_lat": 0.0, "name": "3c071edc464e6f56eb9381234dcd4cfe", "is_disabled": 0, "rental_uris": {"android": "https://dc.lft.to/lastmile_qr_scan", "ios": "https://dc.lft.to/lastmile_qr_scan"}, "fusion_lon": 0.0, "lat": 38.924876833333336, "bike_id": "3c071edc464e6f56eb9381234dcd4cfe", "type": "electric_scooter", "is_reserved": 0, "lon": -77.025864}, {"fusion_lat": 0.0, "name": "86c761233c4a349dd65c282b3d2710a9", "is_disabled": 0, "rental_uris": {"android": "https://dc.lft.to/lastmile_qr_scan", "ios": "https://dc.lft.to/lastmile_qr_scan"}, "fusion_lon": 0.0, "lat": 38.91299866666667, "bike_id": "86c761233c4a349dd65c282b3d2710a9", "type": "electric_scooter", "is_reserved": 0, "lon": -77.03654466666667}, {"fusion_lat": 0.0, "name": "73fdd4dc141dfb06b064c91c27da866a", "is_disabled": 0, "rental_uris": {"android": "https://dc.lft.to/lastmile_qr_scan", "ios": "https://dc.lft.to/lastmile_qr_scan"}, "fusion_lon": 0.0, "lat": 38.905278, "bike_id": "73fdd4dc141dfb06b064c91c27da866a", "type": "electric_scooter", "is_reserved": 0, "lon": -77.0587425}, {"fusion_lat": 0.0, "name": "08ebf85e67379e732b16c1be9d96633f", "is_disabled": 0, "rental_uris": {"android": "https://dc.lft.to/lastmile_qr_scan", "ios": "https://dc.lft.to/lastmile_qr_scan"}, "fusion_lon": 0.0, "lat": 38.881418, "bike_id": "08ebf85e67379e732b16c1be9d96633f", "type": "electric_scooter", "is_reserved": 0, "lon": -76.99504733333333}, {"fusion_lat": 0.0, "name": "f436bb10176707e741bbe811a2e832b0", "is_disabled": 0, "rental_uris": {"android": "https://dc.lft.to/lastmile_qr_scan", "ios": "https://dc.lft.to/lastmile_qr_scan"}, "fusion_lon": 0.0, "lat": 38.896757666666666, "bike_id": "f436bb10176707e741bbe811a2e832b0", "type": "electric_scooter", "is_reserved": 0, "lon": -77.00555483333333}, {"fusion_lat": 0.0, "name": "27b6b18b2b5231d144d10531be998ef4", "is_disabled": 0, "rental_uris": {"android": "https://dc.lft.to/lastmile_qr_scan", "ios": "https://dc.lft.to/lastmile_qr_scan"}, "fusion_lon": 0.0, "lat": 38.88605966666667, "bike_id": "27b6b18b2b5231d144d10531be998ef4", "type": "electric_scooter", "is_reserved": 0, "lon": -77.00341733333333}, {"fusion_lat": 0.0, "name": "55a0852cc359f76160862379f32616d1", "is_disabled": 0, "rental_uris": {"android": "https://dc.lft.to/lastmile_qr_scan", "ios": "https://dc.lft.to/lastmile_qr_scan"}, "fusion_lon": 0.0, "lat": 38.91408233333333, "bike_id": "55a0852cc359f76160862379f32616d1", "type": "electric_scooter", "is_reserved": 0, "lon": -77.04098}, {"fusion_lat": 0.0, "name": "6b193dffaeb1485fc9b256401c892a0c", "is_disabled": 0, "rental_uris": {"android": "https://dc.lft.to/lastmile_qr_scan", "ios": "https://dc.lft.to/lastmile_qr_scan"}, "fusion_lon": 0.0, "lat": 38.9063575, "bike_id": "6b193dffaeb1485fc9b256401c892a0c", "type": "electric_scooter", "is_reserved": 0, "lon": -77.00664283333333}, {"fusion_lat": 0.0, "name": "2eac8546c3725ed9c667b1323ee7ecce", "is_disabled": 0, "rental_uris": {"android": "https://dc.lft.to/lastmile_qr_scan", "ios": "https://dc.lft.to/lastmile_qr_scan"}, "fusion_lon": 0.0, "lat": 38.966717833333334, "bike_id": "2eac8546c3725ed9c667b1323ee7ecce", "type": "electric_scooter", "is_reserved": 0, "lon": -77.0255035}, {"fusion_lat": 0.0, "name": "46e8a3e6211856dac3fe1438cc39df70", "is_disabled": 0, "rental_uris": {"android": "https://dc.lft.to/lastmile_qr_scan", "ios": "https://dc.lft.to/lastmile_qr_scan"}, "fusion_lon": 0.0, "lat": 38.8789655, "bike_id": "46e8a3e6211856dac3fe1438cc39df70", "type": "electric_scooter", "is_reserved": 0, "lon": -77.01364216666667}, {"fusion_lat": 0.0, "name": "1be9649b50645441f42dfdbf2dea0ee1", "is_disabled": 0, "rental_uris": {"android": "https://dc.lft.to/lastmile_qr_scan", "ios": "https://dc.lft.to/lastmile_qr_scan"}, "fusion_lon": 0.0, "lat": 38.92431416666667, "bike_id": "1be9649b50645441f42dfdbf2dea0ee1", "type": "electric_scooter", "is_reserved": 0, "lon": -77.02539933333334}, {"fusion_lat": 0.0, "name": "5201ddc904ccfb44b1fea015c6893866", "is_disabled": 0, "rental_uris": {"android": "https://dc.lft.to/lastmile_qr_scan", "ios": "https://dc.lft.to/lastmile_qr_scan"}, "fusion_lon": 0.0, "lat": 38.901545666666664, "bike_id": "5201ddc904ccfb44b1fea015c6893866", "type": "electric_scooter", "is_reserved": 0, "lon": -77.06108883333333}, {"fusion_lat": 0.0, "name": "f3a7fd42f27f64ee55dd4cd463a9b848", "is_disabled": 0, "rental_uris": {"android": "https://dc.lft.to/lastmile_qr_scan", "ios": "https://dc.lft.to/lastmile_qr_scan"}, "fusion_lon": 0.0, "lat": 38.895253333333336, "bike_id": "f3a7fd42f27f64ee55dd4cd463a9b848", "type": "electric_scooter", "is_reserved": 0, "lon": -76.93411116666667}, {"fusion_lat": 0.0, "name": "24a1ce78b1f7a70a8a14321bc9f0a9d1", "is_disabled": 0, "rental_uris": {"android": "https://dc.lft.to/lastmile_qr_scan", "ios": "https://dc.lft.to/lastmile_qr_scan"}, "fusion_lon": 0.0, "lat": 38.924760166666665, "bike_id": "24a1ce78b1f7a70a8a14321bc9f0a9d1", "type": "electric_scooter", "is_reserved": 0, "lon": -77.02679516666667}, {"fusion_lat": 0.0, "name": "6bf6af743eb0a52edaf3d8b840c46f44", "is_disabled": 0, "rental_uris": {"android": "https://dc.lft.to/lastmile_qr_scan", "ios": "https://dc.lft.to/lastmile_qr_scan"}, "fusion_lon": 0.0, "lat": 38.898352833333334, "bike_id": "6bf6af743eb0a52edaf3d8b840c46f44", "type": "electric_scooter", "is_reserved": 0, "lon": -77.0407605}, {"fusion_lat": 0.0, "name": "e2f3cac016cdcd229e2954b3c284051b", "is_disabled": 0, "rental_uris": {"android": "https://dc.lft.to/lastmile_qr_scan", "ios": "https://dc.lft.to/lastmile_qr_scan"}, "fusion_lon": 0.0, "lat": 38.902362333333336, "bike_id": "e2f3cac016cdcd229e2954b3c284051b", "type": "electric_scooter", "is_reserved": 0, "lon": -77.05636166666666}, {"fusion_lat": 0.0, "name": "b736c361b62a15a46bb5f288facefbad", "is_disabled": 0, "rental_uris": {"android": "https://dc.lft.to/lastmile_qr_scan", "ios": "https://dc.lft.to/lastmile_qr_scan"}, "fusion_lon": 0.0, "lat": 38.9140345, "bike_id": "b736c361b62a15a46bb5f288facefbad", "type": "electric_scooter", "is_reserved": 0, "lon": -77.03173966666667}, {"fusion_lat": 0.0, "name": "489644c7dd49ebaf61640fc9c1dcb467", "is_disabled": 0, "rental_uris": {"android": "https://dc.lft.to/lastmile_qr_scan", "ios": "https://dc.lft.to/lastmile_qr_scan"}, "fusion_lon": 0.0, "lat": 38.93412766666667, "bike_id": "489644c7dd49ebaf61640fc9c1dcb467", "type": "electric_scooter", "is_reserved": 0, "lon": -77.0415965}, {"fusion_lat": 0.0, "name": "a836e1a736338c2aed2a5be3cc670d42", "is_disabled": 0, "rental_uris": {"android": "https://dc.lft.to/lastmile_qr_scan", "ios": "https://dc.lft.to/lastmile_qr_scan"}, "fusion_lon": 0.0, "lat": 38.90353283333334, "bike_id": "a836e1a736338c2aed2a5be3cc670d42", "type": "electric_scooter", "is_reserved": 0, "lon": -77.0599445}, {"fusion_lat": 0.0, "name": "d0f739f7efffdf18556b2eed3828f173", "is_disabled": 0, "rental_uris": {"android": "https://dc.lft.to/lastmile_qr_scan", "ios": "https://dc.lft.to/lastmile_qr_scan"}, "fusion_lon": 0.0, "lat": 38.89904416666667, "bike_id": "d0f739f7efffdf18556b2eed3828f173", "type": "electric_scooter", "is_reserved": 0, "lon": -76.93355533333333}, {"fusion_lat": 0.0, "name": "1c7f5772d7a9250e1d3a9820af15eaae", "is_disabled": 0, "rental_uris": {"android": "https://dc.lft.to/lastmile_qr_scan", "ios": "https://dc.lft.to/lastmile_qr_scan"}, "fusion_lon": 0.0, "lat": 38.925799, "bike_id": "1c7f5772d7a9250e1d3a9820af15eaae", "type": "electric_scooter", "is_reserved": 0, "lon": -77.03728883333333}, {"fusion_lat": 0.0, "name": "56936dc353d2a94e200b9782abdda58c", "is_disabled": 0, "rental_uris": {"android": "https://dc.lft.to/lastmile_qr_scan", "ios": "https://dc.lft.to/lastmile_qr_scan"}, "fusion_lon": 0.0, "lat": 38.89709883333333, "bike_id": "56936dc353d2a94e200b9782abdda58c", "type": "electric_scooter", "is_reserved": 0, "lon": -77.02153316666667}, {"fusion_lat": 0.0, "name": "3e1e29b0827511338478490f17c9e662", "is_disabled": 0, "rental_uris": {"android": "https://dc.lft.to/lastmile_qr_scan", "ios": "https://dc.lft.to/lastmile_qr_scan"}, "fusion_lon": 0.0, "lat": 38.897885, "bike_id": "3e1e29b0827511338478490f17c9e662", "type": "electric_scooter", "is_reserved": 0, "lon": -77.03373233333333}, {"fusion_lat": 0.0, "name": "d02f91c884db3744b2442327526aacc7", "is_disabled": 0, "rental_uris": {"android": "https://dc.lft.to/lastmile_qr_scan", "ios": "https://dc.lft.to/lastmile_qr_scan"}, "fusion_lon": 0.0, "lat": 38.8585145, "bike_id": "d02f91c884db3744b2442327526aacc7", "type": "electric_bike", "is_reserved": 0, "lon": -77.095376}, {"fusion_lat": 0.0, "name": "fd9cbd1004378a1273f2ba6c03ccc1a8", "is_disabled": 0, "rental_uris": {"android": "https://dc.lft.to/lastmile_qr_scan", "ios": "https://dc.lft.to/lastmile_qr_scan"}, "fusion_lon": 0.0, "lat": 38.92063616666667, "bike_id": "fd9cbd1004378a1273f2ba6c03ccc1a8", "type": "electric_scooter", "is_reserved": 0, "lon": -77.03393933333334}, {"fusion_lat": 0.0, "name": "c101335df7c8fe6bc8de248dabe9916c", "is_disabled": 0, "rental_uris": {"android": "https://dc.lft.to/lastmile_qr_scan", "ios": "https://dc.lft.to/lastmile_qr_scan"}, "fusion_lon": 0.0, "lat": 38.88984333333333, "bike_id": "c101335df7c8fe6bc8de248dabe9916c", "type": "electric_scooter", "is_reserved": 0, "lon": -76.99636183333334}, {"fusion_lat": 0.0, "name": "5f44a5a2b679893ac27b1c424866a1d5", "is_disabled": 0, "rental_uris": {"android": "https://dc.lft.to/lastmile_qr_scan", "ios": "https://dc.lft.to/lastmile_qr_scan"}, "fusion_lon": 0.0, "lat": 38.90041083333333, "bike_id": "5f44a5a2b679893ac27b1c424866a1d5", "type": "electric_scooter", "is_reserved": 0, "lon": -77.00198866666666}, {"fusion_lat": 0.0, "name": "93d2f6ab9e83fe3837e52c1e00a84b63", "is_disabled": 0, "rental_uris": {"android": "https://dc.lft.to/lastmile_qr_scan", "ios": "https://dc.lft.to/lastmile_qr_scan"}, "fusion_lon": 0.0, "lat": 38.9343875, "bike_id": "93d2f6ab9e83fe3837e52c1e00a84b63", "type": "electric_scooter", "is_reserved": 0, "lon": -77.03862633333334}, {"fusion_lat": 0.0, "name": "c30aac7346211ff9cbcae590c85cd525", "is_disabled": 0, "rental_uris": {"android": "https://dc.lft.to/lastmile_qr_scan", "ios": "https://dc.lft.to/lastmile_qr_scan"}, "fusion_lon": 0.0, "lat": 38.899796333333335, "bike_id": "c30aac7346211ff9cbcae590c85cd525", "type": "electric_scooter", "is_reserved": 0, "lon": -77.02218166666667}, {"fusion_lat": 0.0, "name": "0bddc8db9c1c19393485154b661adcca", "is_disabled": 0, "rental_uris": {"android": "https://dc.lft.to/lastmile_qr_scan", "ios": "https://dc.lft.to/lastmile_qr_scan"}, "fusion_lon": 0.0, "lat": 38.899427333333335, "bike_id": "0bddc8db9c1c19393485154b661adcca", "type": "electric_scooter", "is_reserved": 0, "lon": -77.05482766666667}, {"fusion_lat": 0.0, "name": "d7bc2d70ff491ce9607bfdc9351177d6", "is_disabled": 0, "rental_uris": {"android": "https://dc.lft.to/lastmile_qr_scan", "ios": "https://dc.lft.to/lastmile_qr_scan"}, "fusion_lon": 0.0, "lat": 38.88980866666667, "bike_id": "d7bc2d70ff491ce9607bfdc9351177d6", "type": "electric_scooter", "is_reserved": 0, "lon": -76.98739883333333}, {"fusion_lat": 0.0, "name": "c863790af453a6f0827d3536cfaad7ca", "is_disabled": 0, "rental_uris": {"android": "https://dc.lft.to/lastmile_qr_scan", "ios": "https://dc.lft.to/lastmile_qr_scan"}, "fusion_lon": 0.0, "lat": 38.90940616666666, "bike_id": "c863790af453a6f0827d3536cfaad7ca", "type": "electric_scooter", "is_reserved": 0, "lon": -77.0212625}, {"fusion_lat": 0.0, "name": "07897f8123349c36dddbfcaa5fa43ac4", "is_disabled": 0, "rental_uris": {"android": "https://dc.lft.to/lastmile_qr_scan", "ios": "https://dc.lft.to/lastmile_qr_scan"}, "fusion_lon": 0.0, "lat": 38.939369, "bike_id": "07897f8123349c36dddbfcaa5fa43ac4", "type": "electric_scooter", "is_reserved": 0, "lon": -77.03326}, {"fusion_lat": 0.0, "name": "6a16b794b43db277b07255b4378d5357", "is_disabled": 0, "rental_uris": {"android": "https://dc.lft.to/lastmile_qr_scan", "ios": "https://dc.lft.to/lastmile_qr_scan"}, "fusion_lon": 0.0, "lat": 38.90163066666667, "bike_id": "6a16b794b43db277b07255b4378d5357", "type": "electric_scooter", "is_reserved": 0, "lon": -77.0465575}, {"fusion_lat": 0.0, "name": "578464d679d7b607b664b4eb814d763f", "is_disabled": 0, "rental_uris": {"android": "https://dc.lft.to/lastmile_qr_scan", "ios": "https://dc.lft.to/lastmile_qr_scan"}, "fusion_lon": 0.0, "lat": 38.8988565, "bike_id": "578464d679d7b607b664b4eb814d763f", "type": "electric_scooter", "is_reserved": 0, "lon": -77.015084}, {"fusion_lat": 0.0, "name": "14149ff9cf23be219d6e77e6864920af", "is_disabled": 0, "rental_uris": {"android": "https://dc.lft.to/lastmile_qr_scan", "ios": "https://dc.lft.to/lastmile_qr_scan"}, "fusion_lon": 0.0, "lat": 38.905260166666665, "bike_id": "14149ff9cf23be219d6e77e6864920af", "type": "electric_scooter", "is_reserved": 0, "lon": -77.05621116666667}, {"fusion_lat": 0.0, "name": "a8509148610769004efe702f69ebd7a0", "is_disabled": 0, "rental_uris": {"android": "https://dc.lft.to/lastmile_qr_scan", "ios": "https://dc.lft.to/lastmile_qr_scan"}, "fusion_lon": 0.0, "lat": 38.92725166666666, "bike_id": "a8509148610769004efe702f69ebd7a0", "type": "electric_bike", "is_reserved": 0, "lon": -77.07332183333334}, {"fusion_lat": 0.0, "name": "1f8e377377b14093ae83398adaf27d2c", "is_disabled": 0, "rental_uris": {"android": "https://dc.lft.to/lastmile_qr_scan", "ios": "https://dc.lft.to/lastmile_qr_scan"}, "fusion_lon": 0.0, "lat": 38.91180766666667, "bike_id": "1f8e377377b14093ae83398adaf27d2c", "type": "electric_scooter", "is_reserved": 0, "lon": -77.04533466666666}, {"fusion_lat": 0.0, "name": "eaf26bceee31d4a10333ae5b12388171", "is_disabled": 0, "rental_uris": {"android": "https://dc.lft.to/lastmile_qr_scan", "ios": "https://dc.lft.to/lastmile_qr_scan"}, "fusion_lon": 0.0, "lat": 38.879422166666664, "bike_id": "eaf26bceee31d4a10333ae5b12388171", "type": "electric_bike", "is_reserved": 0, "lon": -77.01011266666667}, {"fusion_lat": 0.0, "name": "f29c1a57188499f7ceac458a1ec22d64", "is_disabled": 0, "rental_uris": {"android": "https://dc.lft.to/lastmile_qr_scan", "ios": "https://dc.lft.to/lastmile_qr_scan"}, "fusion_lon": 0.0, "lat": 38.92260816666667, "bike_id": "f29c1a57188499f7ceac458a1ec22d64", "type": "electric_scooter", "is_reserved": 0, "lon": -77.0748495}, {"fusion_lat": 0.0, "name": "6f53d282fa4535a9fa32f7b7ee656287", "is_disabled": 0, "rental_uris": {"android": "https://dc.lft.to/lastmile_qr_scan", "ios": "https://dc.lft.to/lastmile_qr_scan"}, "fusion_lon": 0.0, "lat": 38.916876333333335, "bike_id": "6f53d282fa4535a9fa32f7b7ee656287", "type": "electric_scooter", "is_reserved": 0, "lon": -77.03208716666667}, {"fusion_lat": 0.0, "name": "494a6122e98c2854aa9b082474e10d60", "is_disabled": 0, "rental_uris": {"android": "https://dc.lft.to/lastmile_qr_scan", "ios": "https://dc.lft.to/lastmile_qr_scan"}, "fusion_lon": 0.0, "lat": 38.932557833333334, "bike_id": "494a6122e98c2854aa9b082474e10d60", "type": "electric_scooter", "is_reserved": 0, "lon": -77.04010233333334}, {"fusion_lat": 0.0, "name": "9ad78f15341137ec7c46cdc808a09314", "is_disabled": 0, "rental_uris": {"android": "https://dc.lft.to/lastmile_qr_scan", "ios": "https://dc.lft.to/lastmile_qr_scan"}, "fusion_lon": 0.0, "lat": 38.8662335, "bike_id": "9ad78f15341137ec7c46cdc808a09314", "type": "electric_bike", "is_reserved": 0, "lon": -76.94572583333333}, {"fusion_lat": 0.0, "name": "37e41050093a8860053a77260fe8580c", "is_disabled": 0, "rental_uris": {"android": "https://dc.lft.to/lastmile_qr_scan", "ios": "https://dc.lft.to/lastmile_qr_scan"}, "fusion_lon": 0.0, "lat": 38.93056083333333, "bike_id": "37e41050093a8860053a77260fe8580c", "type": "electric_scooter", "is_reserved": 0, "lon": -77.03357966666667}, {"fusion_lat": 0.0, "name": "ffeef3b5fcf42cc61760b58ad32580c9", "is_disabled": 0, "rental_uris": {"android": "https://dc.lft.to/lastmile_qr_scan", "ios": "https://dc.lft.to/lastmile_qr_scan"}, "fusion_lon": 0.0, "lat": 38.93557166666667, "bike_id": "ffeef3b5fcf42cc61760b58ad32580c9", "type": "electric_scooter", "is_reserved": 0, "lon": -77.034893}, {"fusion_lat": 0.0, "name": "290c274acaeadae4a78a884523138376", "is_disabled": 0, "rental_uris": {"android": "https://dc.lft.to/lastmile_qr_scan", "ios": "https://dc.lft.to/lastmile_qr_scan"}, "fusion_lon": 0.0, "lat": 38.94928733333333, "bike_id": "290c274acaeadae4a78a884523138376", "type": "electric_scooter", "is_reserved": 0, "lon": -77.01857716666666}, {"fusion_lat": 0.0, "name": "b2dfe9ab6d9ea5361291e576b9993a3c", "is_disabled": 0, "rental_uris": {"android": "https://dc.lft.to/lastmile_qr_scan", "ios": "https://dc.lft.to/lastmile_qr_scan"}, "fusion_lon": 0.0, "lat": 38.902406666666664, "bike_id": "b2dfe9ab6d9ea5361291e576b9993a3c", "type": "electric_scooter", "is_reserved": 0, "lon": -77.01931266666666}, {"fusion_lat": 0.0, "name": "8f7321055b6e12689d4d24021613e951", "is_disabled": 0, "rental_uris": {"android": "https://dc.lft.to/lastmile_qr_scan", "ios": "https://dc.lft.to/lastmile_qr_scan"}, "fusion_lon": 0.0, "lat": 38.89365466666667, "bike_id": "8f7321055b6e12689d4d24021613e951", "type": "electric_scooter", "is_reserved": 0, "lon": -77.0008145}, {"fusion_lat": 0.0, "name": "f127739ff3fe2956c9c5af5076b5045d", "is_disabled": 0, "rental_uris": {"android": "https://dc.lft.to/lastmile_qr_scan", "ios": "https://dc.lft.to/lastmile_qr_scan"}, "fusion_lon": 0.0, "lat": 38.8987325, "bike_id": "f127739ff3fe2956c9c5af5076b5045d", "type": "electric_scooter", "is_reserved": 0, "lon": -76.9318535}, {"fusion_lat": 0.0, "name": "79fad40b8b4ea8cb36fb5ed81b46976e", "is_disabled": 0, "rental_uris": {"android": "https://dc.lft.to/lastmile_qr_scan", "ios": "https://dc.lft.to/lastmile_qr_scan"}, "fusion_lon": 0.0, "lat": 38.90739516666667, "bike_id": "79fad40b8b4ea8cb36fb5ed81b46976e", "type": "electric_scooter", "is_reserved": 0, "lon": -77.04559566666667}, {"fusion_lat": 0.0, "name": "483ad6fd23e753616ceb011ffbe3f196", "is_disabled": 0, "rental_uris": {"android": "https://dc.lft.to/lastmile_qr_scan", "ios": "https://dc.lft.to/lastmile_qr_scan"}, "fusion_lon": 0.0, "lat": 38.90527383333333, "bike_id": "483ad6fd23e753616ceb011ffbe3f196", "type": "electric_scooter", "is_reserved": 0, "lon": -77.05937016666667}, {"fusion_lat": 0.0, "name": "309bc2f2de83f1076e129a0d4382ff5f", "is_disabled": 0, "rental_uris": {"android": "https://dc.lft.to/lastmile_qr_scan", "ios": "https://dc.lft.to/lastmile_qr_scan"}, "fusion_lon": 0.0, "lat": 39.05252316666667, "bike_id": "309bc2f2de83f1076e129a0d4382ff5f", "type": "electric_bike", "is_reserved": 0, "lon": -77.08065966666666}, {"fusion_lat": 0.0, "name": "008c059664c657b62a45e708f9b9d8ba", "is_disabled": 0, "rental_uris": {"android": "https://dc.lft.to/lastmile_qr_scan", "ios": "https://dc.lft.to/lastmile_qr_scan"}, "fusion_lon": 0.0, "lat": 38.935254, "bike_id": "008c059664c657b62a45e708f9b9d8ba", "type": "electric_scooter", "is_reserved": 0, "lon": -77.07261583333333}, {"fusion_lat": 0.0, "name": "90ed681590b62130d6ca3168ecf7c3e0", "is_disabled": 0, "rental_uris": {"android": "https://dc.lft.to/lastmile_qr_scan", "ios": "https://dc.lft.to/lastmile_qr_scan"}, "fusion_lon": 0.0, "lat": 38.914130666666665, "bike_id": "90ed681590b62130d6ca3168ecf7c3e0", "type": "electric_scooter", "is_reserved": 0, "lon": -77.0283145}, {"fusion_lat": 0.0, "name": "e70a0555f301d1cd0c8abbb6ad9949bf", "is_disabled": 0, "rental_uris": {"android": "https://dc.lft.to/lastmile_qr_scan", "ios": "https://dc.lft.to/lastmile_qr_scan"}, "fusion_lon": 0.0, "lat": 38.93550883333333, "bike_id": "e70a0555f301d1cd0c8abbb6ad9949bf", "type": "electric_bike", "is_reserved": 0, "lon": -77.03706666666666}, {"fusion_lat": 0.0, "name": "66d0374ae09d4a278d411ec92072c6df", "is_disabled": 0, "rental_uris": {"android": "https://dc.lft.to/lastmile_qr_scan", "ios": "https://dc.lft.to/lastmile_qr_scan"}, "fusion_lon": 0.0, "lat": 38.847551833333334, "bike_id": "66d0374ae09d4a278d411ec92072c6df", "type": "electric_scooter", "is_reserved": 0, "lon": -76.99500516666667}, {"fusion_lat": 0.0, "name": "da8bd35df4aff61fb6b1bb9cd1e03b7c", "is_disabled": 0, "rental_uris": {"android": "https://dc.lft.to/lastmile_qr_scan", "ios": "https://dc.lft.to/lastmile_qr_scan"}, "fusion_lon": 0.0, "lat": 38.89440033333333, "bike_id": "da8bd35df4aff61fb6b1bb9cd1e03b7c", "type": "electric_scooter", "is_reserved": 0, "lon": -76.936783}, {"fusion_lat": 0.0, "name": "d9e747dd2822350fb08c9913a9d074bf", "is_disabled": 0, "rental_uris": {"android": "https://dc.lft.to/lastmile_qr_scan", "ios": "https://dc.lft.to/lastmile_qr_scan"}, "fusion_lon": 0.0, "lat": 38.89845916666667, "bike_id": "d9e747dd2822350fb08c9913a9d074bf", "type": "electric_scooter", "is_reserved": 0, "lon": -76.99033483333334}, {"fusion_lat": 0.0, "name": "2f8569431a3b2d2aeb1e77b165d6ca6e", "is_disabled": 0, "rental_uris": {"android": "https://dc.lft.to/lastmile_qr_scan", "ios": "https://dc.lft.to/lastmile_qr_scan"}, "fusion_lon": 0.0, "lat": 38.89036083333333, "bike_id": "2f8569431a3b2d2aeb1e77b165d6ca6e", "type": "electric_scooter", "is_reserved": 0, "lon": -77.02974183333333}, {"fusion_lat": 0.0, "name": "79390d5bcc01ffbf093b2bf929b74e0f", "is_disabled": 0, "rental_uris": {"android": "https://dc.lft.to/lastmile_qr_scan", "ios": "https://dc.lft.to/lastmile_qr_scan"}, "fusion_lon": 0.0, "lat": 38.907605, "bike_id": "79390d5bcc01ffbf093b2bf929b74e0f", "type": "electric_scooter", "is_reserved": 0, "lon": -77.05014566666667}, {"fusion_lat": 0.0, "name": "fd6b4bbd87025fe26fd90f54b3d0067c", "is_disabled": 0, "rental_uris": {"android": "https://dc.lft.to/lastmile_qr_scan", "ios": "https://dc.lft.to/lastmile_qr_scan"}, "fusion_lon": 0.0, "lat": 38.89826016666667, "bike_id": "fd6b4bbd87025fe26fd90f54b3d0067c", "type": "electric_scooter", "is_reserved": 0, "lon": -77.04071016666667}, {"fusion_lat": 0.0, "name": "2caa1f0c2b8a2f41b8f3515ddeba4c5e", "is_disabled": 0, "rental_uris": {"android": "https://dc.lft.to/lastmile_qr_scan", "ios": "https://dc.lft.to/lastmile_qr_scan"}, "fusion_lon": 0.0, "lat": 38.933727166666664, "bike_id": "2caa1f0c2b8a2f41b8f3515ddeba4c5e", "type": "electric_scooter", "is_reserved": 0, "lon": -77.03893916666667}, {"fusion_lat": 0.0, "name": "5ff4dc279d32e3ad99badc178dbb9200", "is_disabled": 0, "rental_uris": {"android": "https://dc.lft.to/lastmile_qr_scan", "ios": "https://dc.lft.to/lastmile_qr_scan"}, "fusion_lon": 0.0, "lat": 38.89230033333333, "bike_id": "5ff4dc279d32e3ad99badc178dbb9200", "type": "electric_scooter", "is_reserved": 0, "lon": -77.049953}, {"fusion_lat": 0.0, "name": "ae7487d7f37ce75fba24063dade1bf21", "is_disabled": 0, "rental_uris": {"android": "https://dc.lft.to/lastmile_qr_scan", "ios": "https://dc.lft.to/lastmile_qr_scan"}, "fusion_lon": 0.0, "lat": 38.919500666666664, "bike_id": "ae7487d7f37ce75fba24063dade1bf21", "type": "electric_scooter", "is_reserved": 0, "lon": -77.03203266666667}, {"fusion_lat": 0.0, "name": "1f4676726d4f9fb49ce642546a6150b3", "is_disabled": 0, "rental_uris": {"android": "https://dc.lft.to/lastmile_qr_scan", "ios": "https://dc.lft.to/lastmile_qr_scan"}, "fusion_lon": 0.0, "lat": 38.9207605, "bike_id": "1f4676726d4f9fb49ce642546a6150b3", "type": "electric_scooter", "is_reserved": 0, "lon": -77.00446216666667}, {"fusion_lat": 0.0, "name": "e11373b44ab4079ca6d3a28cbe393c0c", "is_disabled": 0, "rental_uris": {"android": "https://dc.lft.to/lastmile_qr_scan", "ios": "https://dc.lft.to/lastmile_qr_scan"}, "fusion_lon": 0.0, "lat": 38.88130983333333, "bike_id": "e11373b44ab4079ca6d3a28cbe393c0c", "type": "electric_scooter", "is_reserved": 0, "lon": -77.01656033333333}, {"fusion_lat": 0.0, "name": "aa3dadc16a7c7b03aba2dd81872892f4", "is_disabled": 0, "rental_uris": {"android": "https://dc.lft.to/lastmile_qr_scan", "ios": "https://dc.lft.to/lastmile_qr_scan"}, "fusion_lon": 0.0, "lat": 38.88190933333333, "bike_id": "aa3dadc16a7c7b03aba2dd81872892f4", "type": "electric_scooter", "is_reserved": 0, "lon": -77.000657}, {"fusion_lat": 0.0, "name": "8d6bddc5cda68a88d23a5817d8d8471b", "is_disabled": 0, "rental_uris": {"android": "https://dc.lft.to/lastmile_qr_scan", "ios": "https://dc.lft.to/lastmile_qr_scan"}, "fusion_lon": 0.0, "lat": 38.9736985, "bike_id": "8d6bddc5cda68a88d23a5817d8d8471b", "type": "electric_scooter", "is_reserved": 0, "lon": -77.018524}, {"fusion_lat": 0.0, "name": "bebc4f45cf89e950090b2d00f3443b12", "is_disabled": 0, "rental_uris": {"android": "https://dc.lft.to/lastmile_qr_scan", "ios": "https://dc.lft.to/lastmile_qr_scan"}, "fusion_lon": 0.0, "lat": 38.91480816666667, "bike_id": "bebc4f45cf89e950090b2d00f3443b12", "type": "electric_scooter", "is_reserved": 0, "lon": -76.984394}, {"fusion_lat": 0.0, "name": "b57ca687725fdda8189947993af62e43", "is_disabled": 0, "rental_uris": {"android": "https://dc.lft.to/lastmile_qr_scan", "ios": "https://dc.lft.to/lastmile_qr_scan"}, "fusion_lon": 0.0, "lat": 38.8830755, "bike_id": "b57ca687725fdda8189947993af62e43", "type": "electric_scooter", "is_reserved": 0, "lon": -76.9948725}, {"fusion_lat": 0.0, "name": "056c2d4aadf241d8ae4338334e7b5ec0", "is_disabled": 0, "rental_uris": {"android": "https://dc.lft.to/lastmile_qr_scan", "ios": "https://dc.lft.to/lastmile_qr_scan"}, "fusion_lon": 0.0, "lat": 38.88415916666667, "bike_id": "056c2d4aadf241d8ae4338334e7b5ec0", "type": "electric_scooter", "is_reserved": 0, "lon": -77.01975716666666}, {"fusion_lat": 0.0, "name": "c29ae9e29c5c78f4c3e1296948227aa9", "is_disabled": 0, "rental_uris": {"android": "https://dc.lft.to/lastmile_qr_scan", "ios": "https://dc.lft.to/lastmile_qr_scan"}, "fusion_lon": 0.0, "lat": 38.90723116666667, "bike_id": "c29ae9e29c5c78f4c3e1296948227aa9", "type": "electric_scooter", "is_reserved": 0, "lon": -77.02325283333333}, {"fusion_lat": 0.0, "name": "9805393f6a87fbef2295dfe71b2ae35f", "is_disabled": 0, "rental_uris": {"android": "https://dc.lft.to/lastmile_qr_scan", "ios": "https://dc.lft.to/lastmile_qr_scan"}, "fusion_lon": 0.0, "lat": 38.91027066666667, "bike_id": "9805393f6a87fbef2295dfe71b2ae35f", "type": "electric_scooter", "is_reserved": 0, "lon": -77.00749566666667}, {"fusion_lat": 0.0, "name": "a9c14064a74805114341cf7a324b239b", "is_disabled": 0, "rental_uris": {"android": "https://dc.lft.to/lastmile_qr_scan", "ios": "https://dc.lft.to/lastmile_qr_scan"}, "fusion_lon": 0.0, "lat": 38.92879816666667, "bike_id": "a9c14064a74805114341cf7a324b239b", "type": "electric_scooter", "is_reserved": 0, "lon": -76.99562016666667}, {"fusion_lat": 0.0, "name": "7b34b9bc557e7f173caef831409a433e", "is_disabled": 0, "rental_uris": {"android": "https://dc.lft.to/lastmile_qr_scan", "ios": "https://dc.lft.to/lastmile_qr_scan"}, "fusion_lon": 0.0, "lat": 38.9002965, "bike_id": "7b34b9bc557e7f173caef831409a433e", "type": "electric_scooter", "is_reserved": 0, "lon": -76.991373}, {"fusion_lat": 0.0, "name": "e17ee5a9ff817994ce478c70a5fe6df5", "is_disabled": 0, "rental_uris": {"android": "https://dc.lft.to/lastmile_qr_scan", "ios": "https://dc.lft.to/lastmile_qr_scan"}, "fusion_lon": 0.0, "lat": 38.9036585, "bike_id": "e17ee5a9ff817994ce478c70a5fe6df5", "type": "electric_scooter", "is_reserved": 0, "lon": -77.01868133333333}, {"fusion_lat": 0.0, "name": "11c439f8a9ac62bb471d22a09fdac534", "is_disabled": 0, "rental_uris": {"android": "https://dc.lft.to/lastmile_qr_scan", "ios": "https://dc.lft.to/lastmile_qr_scan"}, "fusion_lon": 0.0, "lat": 38.88517616666667, "bike_id": "11c439f8a9ac62bb471d22a09fdac534", "type": "electric_scooter", "is_reserved": 0, "lon": -77.002746}, {"fusion_lat": 0.0, "name": "b4d1b24fd80cb90737d807cc56fab415", "is_disabled": 0, "rental_uris": {"android": "https://dc.lft.to/lastmile_qr_scan", "ios": "https://dc.lft.to/lastmile_qr_scan"}, "fusion_lon": 0.0, "lat": 38.880419333333336, "bike_id": "b4d1b24fd80cb90737d807cc56fab415", "type": "electric_scooter", "is_reserved": 0, "lon": -77.00528833333334}, {"fusion_lat": 0.0, "name": "86d1b50f18d3e5a6f5d81dfa2337d6df", "is_disabled": 0, "rental_uris": {"android": "https://dc.lft.to/lastmile_qr_scan", "ios": "https://dc.lft.to/lastmile_qr_scan"}, "fusion_lon": 0.0, "lat": 38.918863, "bike_id": "86d1b50f18d3e5a6f5d81dfa2337d6df", "type": "electric_scooter", "is_reserved": 0, "lon": -77.02302833333333}, {"fusion_lat": 0.0, "name": "ce6e08c954757916f95bc250307bff02", "is_disabled": 0, "rental_uris": {"android": "https://dc.lft.to/lastmile_qr_scan", "ios": "https://dc.lft.to/lastmile_qr_scan"}, "fusion_lon": 0.0, "lat": 38.88227633333333, "bike_id": "ce6e08c954757916f95bc250307bff02", "type": "electric_scooter", "is_reserved": 0, "lon": -77.026178}, {"fusion_lat": 0.0, "name": "7747391a509c1ba128a2814a361251b9", "is_disabled": 0, "rental_uris": {"android": "https://dc.lft.to/lastmile_qr_scan", "ios": "https://dc.lft.to/lastmile_qr_scan"}, "fusion_lon": 0.0, "lat": 38.89994, "bike_id": "7747391a509c1ba128a2814a361251b9", "type": "electric_scooter", "is_reserved": 0, "lon": -76.9901095}, {"fusion_lat": 0.0, "name": "32807ac29d11b67e91dbbd1533596c10", "is_disabled": 0, "rental_uris": {"android": "https://dc.lft.to/lastmile_qr_scan", "ios": "https://dc.lft.to/lastmile_qr_scan"}, "fusion_lon": 0.0, "lat": 38.9287055, "bike_id": "32807ac29d11b67e91dbbd1533596c10", "type": "electric_scooter", "is_reserved": 0, "lon": -77.03225566666667}, {"fusion_lat": 0.0, "name": "a98ffd7240b4c79e598e227db6c88eab", "is_disabled": 0, "rental_uris": {"android": "https://dc.lft.to/lastmile_qr_scan", "ios": "https://dc.lft.to/lastmile_qr_scan"}, "fusion_lon": 0.0, "lat": 38.93281366666667, "bike_id": "a98ffd7240b4c79e598e227db6c88eab", "type": "electric_scooter", "is_reserved": 0, "lon": -77.02825866666667}, {"fusion_lat": 0.0, "name": "b5e5dc368c2c957bfb7201a89abf042a", "is_disabled": 0, "rental_uris": {"android": "https://dc.lft.to/lastmile_qr_scan", "ios": "https://dc.lft.to/lastmile_qr_scan"}, "fusion_lon": 0.0, "lat": 38.964923166666665, "bike_id": "b5e5dc368c2c957bfb7201a89abf042a", "type": "electric_bike", "is_reserved": 0, "lon": -77.02212316666666}, {"fusion_lat": 0.0, "name": "194b064057266cd6968f77f3b135f7a0", "is_disabled": 0, "rental_uris": {"android": "https://dc.lft.to/lastmile_qr_scan", "ios": "https://dc.lft.to/lastmile_qr_scan"}, "fusion_lon": 0.0, "lat": 38.91786666666667, "bike_id": "194b064057266cd6968f77f3b135f7a0", "type": "electric_scooter", "is_reserved": 0, "lon": -77.02301333333334}, {"fusion_lat": 0.0, "name": "fdf5c09fad3df5a5e7097f2a51dde290", "is_disabled": 0, "rental_uris": {"android": "https://dc.lft.to/lastmile_qr_scan", "ios": "https://dc.lft.to/lastmile_qr_scan"}, "fusion_lon": 0.0, "lat": 38.901369, "bike_id": "fdf5c09fad3df5a5e7097f2a51dde290", "type": "electric_scooter", "is_reserved": 0, "lon": -77.0233085}, {"fusion_lat": 0.0, "name": "f51b334ec823c4fccd3315ec915fb38b", "is_disabled": 0, "rental_uris": {"android": "https://dc.lft.to/lastmile_qr_scan", "ios": "https://dc.lft.to/lastmile_qr_scan"}, "fusion_lon": 0.0, "lat": 38.92256483333333, "bike_id": "f51b334ec823c4fccd3315ec915fb38b", "type": "electric_scooter", "is_reserved": 0, "lon": -77.03519933333334}, {"fusion_lat": 0.0, "name": "3e67bad52e9a3c381efb3f4ab52e2613", "is_disabled": 0, "rental_uris": {"android": "https://dc.lft.to/lastmile_qr_scan", "ios": "https://dc.lft.to/lastmile_qr_scan"}, "fusion_lon": 0.0, "lat": 38.898749333333335, "bike_id": "3e67bad52e9a3c381efb3f4ab52e2613", "type": "electric_scooter", "is_reserved": 0, "lon": -76.93182416666667}, {"fusion_lat": 0.0, "name": "27c5d3f0d8d59f2e265dfc465abfd25b", "is_disabled": 0, "rental_uris": {"android": "https://dc.lft.to/lastmile_qr_scan", "ios": "https://dc.lft.to/lastmile_qr_scan"}, "fusion_lon": 0.0, "lat": 38.917044833333335, "bike_id": "27c5d3f0d8d59f2e265dfc465abfd25b", "type": "electric_scooter", "is_reserved": 0, "lon": -77.02485866666666}, {"fusion_lat": 0.0, "name": "4ee4fa30155b779bb2ac6852a20b6156", "is_disabled": 0, "rental_uris": {"android": "https://dc.lft.to/lastmile_qr_scan", "ios": "https://dc.lft.to/lastmile_qr_scan"}, "fusion_lon": 0.0, "lat": 38.924419666666665, "bike_id": "4ee4fa30155b779bb2ac6852a20b6156", "type": "electric_scooter", "is_reserved": 0, "lon": -77.02017466666666}, {"fusion_lat": 0.0, "name": "77d9c544c1870dff9846b7911e9b1165", "is_disabled": 0, "rental_uris": {"android": "https://dc.lft.to/lastmile_qr_scan", "ios": "https://dc.lft.to/lastmile_qr_scan"}, "fusion_lon": 0.0, "lat": 38.87814783333334, "bike_id": "77d9c544c1870dff9846b7911e9b1165", "type": "electric_scooter", "is_reserved": 0, "lon": -77.01325716666666}, {"fusion_lat": 0.0, "name": "e7e0c794764ca00b9d92d0f903c48a3a", "is_disabled": 0, "rental_uris": {"android": "https://dc.lft.to/lastmile_qr_scan", "ios": "https://dc.lft.to/lastmile_qr_scan"}, "fusion_lon": 0.0, "lat": 38.973630166666666, "bike_id": "e7e0c794764ca00b9d92d0f903c48a3a", "type": "electric_scooter", "is_reserved": 0, "lon": -77.01295283333333}, {"fusion_lat": 0.0, "name": "d88217748dbf197af09f1c1206a3d069", "is_disabled": 0, "rental_uris": {"android": "https://dc.lft.to/lastmile_qr_scan", "ios": "https://dc.lft.to/lastmile_qr_scan"}, "fusion_lon": 0.0, "lat": 38.8981305, "bike_id": "d88217748dbf197af09f1c1206a3d069", "type": "electric_scooter", "is_reserved": 0, "lon": -77.04677983333333}, {"fusion_lat": 0.0, "name": "ca789aaa310dc73caf9c3a6bbdb8f2e3", "is_disabled": 0, "rental_uris": {"android": "https://dc.lft.to/lastmile_qr_scan", "ios": "https://dc.lft.to/lastmile_qr_scan"}, "fusion_lon": 0.0, "lat": 38.900861, "bike_id": "ca789aaa310dc73caf9c3a6bbdb8f2e3", "type": "electric_scooter", "is_reserved": 0, "lon": -77.05057}, {"fusion_lat": 0.0, "name": "483b0f1a2948ad74eb31b72e0d5cfcdd", "is_disabled": 0, "rental_uris": {"android": "https://dc.lft.to/lastmile_qr_scan", "ios": "https://dc.lft.to/lastmile_qr_scan"}, "fusion_lon": 0.0, "lat": 38.90927933333333, "bike_id": "483b0f1a2948ad74eb31b72e0d5cfcdd", "type": "electric_scooter", "is_reserved": 0, "lon": -77.062593}, {"fusion_lat": 0.0, "name": "0afaace462dbd039224b2b2e76bc5758", "is_disabled": 0, "rental_uris": {"android": "https://dc.lft.to/lastmile_qr_scan", "ios": "https://dc.lft.to/lastmile_qr_scan"}, "fusion_lon": 0.0, "lat": 38.93874016666667, "bike_id": "0afaace462dbd039224b2b2e76bc5758", "type": "electric_scooter", "is_reserved": 0, "lon": -77.024702}, {"fusion_lat": 0.0, "name": "9e3f9ae3a3f7f1aac6cac4559c48f2aa", "is_disabled": 0, "rental_uris": {"android": "https://dc.lft.to/lastmile_qr_scan", "ios": "https://dc.lft.to/lastmile_qr_scan"}, "fusion_lon": 0.0, "lat": 38.8972855, "bike_id": "9e3f9ae3a3f7f1aac6cac4559c48f2aa", "type": "electric_scooter", "is_reserved": 0, "lon": -77.00757166666666}, {"fusion_lat": 0.0, "name": "4bafa9267ab1a46dfac8d246dd8d9bd8", "is_disabled": 0, "rental_uris": {"android": "https://dc.lft.to/lastmile_qr_scan", "ios": "https://dc.lft.to/lastmile_qr_scan"}, "fusion_lon": 0.0, "lat": 38.88328533333333, "bike_id": "4bafa9267ab1a46dfac8d246dd8d9bd8", "type": "electric_scooter", "is_reserved": 0, "lon": -77.014689}, {"fusion_lat": 0.0, "name": "0bfa0b48364cfc312a70a8d016b165c1", "is_disabled": 0, "rental_uris": {"android": "https://dc.lft.to/lastmile_qr_scan", "ios": "https://dc.lft.to/lastmile_qr_scan"}, "fusion_lon": 0.0, "lat": 38.91840166666667, "bike_id": "0bfa0b48364cfc312a70a8d016b165c1", "type": "electric_scooter", "is_reserved": 0, "lon": -77.063735}, {"fusion_lat": 0.0, "name": "1d0b3c1821d3785e579f2d5b9a563e9c", "is_disabled": 0, "rental_uris": {"android": "https://dc.lft.to/lastmile_qr_scan", "ios": "https://dc.lft.to/lastmile_qr_scan"}, "fusion_lon": 0.0, "lat": 38.9382835, "bike_id": "1d0b3c1821d3785e579f2d5b9a563e9c", "type": "electric_scooter", "is_reserved": 0, "lon": -77.02642816666666}, {"fusion_lat": 0.0, "name": "b020e1658678709a40bbe085da541c82", "is_disabled": 0, "rental_uris": {"android": "https://dc.lft.to/lastmile_qr_scan", "ios": "https://dc.lft.to/lastmile_qr_scan"}, "fusion_lon": 0.0, "lat": 38.903490166666664, "bike_id": "b020e1658678709a40bbe085da541c82", "type": "electric_scooter", "is_reserved": 0, "lon": -76.97477083333334}, {"fusion_lat": 0.0, "name": "f1acdb2358f7183c843e1f7e3343d0e4", "is_disabled": 0, "rental_uris": {"android": "https://dc.lft.to/lastmile_qr_scan", "ios": "https://dc.lft.to/lastmile_qr_scan"}, "fusion_lon": 0.0, "lat": 38.87931666666667, "bike_id": "f1acdb2358f7183c843e1f7e3343d0e4", "type": "electric_scooter", "is_reserved": 0, "lon": -77.00419783333334}, {"fusion_lat": 0.0, "name": "c796c540947d75e572a065f9d8255023", "is_disabled": 0, "rental_uris": {"android": "https://dc.lft.to/lastmile_qr_scan", "ios": "https://dc.lft.to/lastmile_qr_scan"}, "fusion_lon": 0.0, "lat": 38.901192333333334, "bike_id": "c796c540947d75e572a065f9d8255023", "type": "electric_scooter", "is_reserved": 0, "lon": -77.03329066666667}, {"fusion_lat": 0.0, "name": "cac0f3b552ca831f1cbd4630d3ce2415", "is_disabled": 0, "rental_uris": {"android": "https://dc.lft.to/lastmile_qr_scan", "ios": "https://dc.lft.to/lastmile_qr_scan"}, "fusion_lon": 0.0, "lat": 38.934900166666665, "bike_id": "cac0f3b552ca831f1cbd4630d3ce2415", "type": "electric_scooter", "is_reserved": 0, "lon": -77.0734805}, {"fusion_lat": 0.0, "name": "27dd1027e162d05664b2614be52808a6", "is_disabled": 0, "rental_uris": {"android": "https://dc.lft.to/lastmile_qr_scan", "ios": "https://dc.lft.to/lastmile_qr_scan"}, "fusion_lon": 0.0, "lat": 38.929768833333334, "bike_id": "27dd1027e162d05664b2614be52808a6", "type": "electric_scooter", "is_reserved": 0, "lon": -77.04192533333334}, {"fusion_lat": 0.0, "name": "dad5ad0d43a3ec4aa4d91933486422a3", "is_disabled": 0, "rental_uris": {"android": "https://dc.lft.to/lastmile_qr_scan", "ios": "https://dc.lft.to/lastmile_qr_scan"}, "fusion_lon": 0.0, "lat": 38.95237566666667, "bike_id": "dad5ad0d43a3ec4aa4d91933486422a3", "type": "electric_scooter", "is_reserved": 0, "lon": -77.02380166666667}, {"fusion_lat": 0.0, "name": "9218402d30858091b8870f713229c64d", "is_disabled": 0, "rental_uris": {"android": "https://dc.lft.to/lastmile_qr_scan", "ios": "https://dc.lft.to/lastmile_qr_scan"}, "fusion_lon": 0.0, "lat": 38.8872815, "bike_id": "9218402d30858091b8870f713229c64d", "type": "electric_scooter", "is_reserved": 0, "lon": -77.02214066666667}, {"fusion_lat": 0.0, "name": "1f6129cfc0e4d49210e988504a3c1de8", "is_disabled": 0, "rental_uris": {"android": "https://dc.lft.to/lastmile_qr_scan", "ios": "https://dc.lft.to/lastmile_qr_scan"}, "fusion_lon": 0.0, "lat": 38.9268035, "bike_id": "1f6129cfc0e4d49210e988504a3c1de8", "type": "electric_scooter", "is_reserved": 0, "lon": -77.03099683333333}, {"fusion_lat": 0.0, "name": "067bface6db15733bf50ebef66214a70", "is_disabled": 0, "rental_uris": {"android": "https://dc.lft.to/lastmile_qr_scan", "ios": "https://dc.lft.to/lastmile_qr_scan"}, "fusion_lon": 0.0, "lat": 38.93185483333333, "bike_id": "067bface6db15733bf50ebef66214a70", "type": "electric_scooter", "is_reserved": 0, "lon": -77.01962816666666}, {"fusion_lat": 0.0, "name": "ec0bdc4763a2cfd326e10f60bfe5b454", "is_disabled": 0, "rental_uris": {"android": "https://dc.lft.to/lastmile_qr_scan", "ios": "https://dc.lft.to/lastmile_qr_scan"}, "fusion_lon": 0.0, "lat": 38.892298333333336, "bike_id": "ec0bdc4763a2cfd326e10f60bfe5b454", "type": "electric_scooter", "is_reserved": 0, "lon": -77.02724233333333}, {"fusion_lat": 0.0, "name": "b41639ef48e3402c7769e4d7772542fc", "is_disabled": 0, "rental_uris": {"android": "https://dc.lft.to/lastmile_qr_scan", "ios": "https://dc.lft.to/lastmile_qr_scan"}, "fusion_lon": 0.0, "lat": 38.89256566666667, "bike_id": "b41639ef48e3402c7769e4d7772542fc", "type": "electric_bike", "is_reserved": 0, "lon": -76.95116166666666}, {"fusion_lat": 0.0, "name": "cdc0fefaeb92923d06ffa74cdc5baeb8", "is_disabled": 0, "rental_uris": {"android": "https://dc.lft.to/lastmile_qr_scan", "ios": "https://dc.lft.to/lastmile_qr_scan"}, "fusion_lon": 0.0, "lat": 38.91384266666667, "bike_id": "cdc0fefaeb92923d06ffa74cdc5baeb8", "type": "electric_scooter", "is_reserved": 0, "lon": -77.01801966666666}, {"fusion_lat": 0.0, "name": "a2f3a41c988248337db3375392fe4cb2", "is_disabled": 0, "rental_uris": {"android": "https://dc.lft.to/lastmile_qr_scan", "ios": "https://dc.lft.to/lastmile_qr_scan"}, "fusion_lon": 0.0, "lat": 38.900886, "bike_id": "a2f3a41c988248337db3375392fe4cb2", "type": "electric_scooter", "is_reserved": 0, "lon": -77.05019}, {"fusion_lat": 0.0, "name": "1ecd643ceb448c8cd597483c90c66d58", "is_disabled": 0, "rental_uris": {"android": "https://dc.lft.to/lastmile_qr_scan", "ios": "https://dc.lft.to/lastmile_qr_scan"}, "fusion_lon": 0.0, "lat": 38.917711833333335, "bike_id": "1ecd643ceb448c8cd597483c90c66d58", "type": "electric_scooter", "is_reserved": 0, "lon": -77.0409665}, {"fusion_lat": 0.0, "name": "5d8ad5f018ae822dbba8113f85ea9d3e", "is_disabled": 0, "rental_uris": {"android": "https://dc.lft.to/lastmile_qr_scan", "ios": "https://dc.lft.to/lastmile_qr_scan"}, "fusion_lon": 0.0, "lat": 38.945220166666665, "bike_id": "5d8ad5f018ae822dbba8113f85ea9d3e", "type": "electric_scooter", "is_reserved": 0, "lon": -77.02271683333333}, {"fusion_lat": 0.0, "name": "a569ded4702a7072d792a2e233b7e305", "is_disabled": 0, "rental_uris": {"android": "https://dc.lft.to/lastmile_qr_scan", "ios": "https://dc.lft.to/lastmile_qr_scan"}, "fusion_lon": 0.0, "lat": 38.915182, "bike_id": "a569ded4702a7072d792a2e233b7e305", "type": "electric_scooter", "is_reserved": 0, "lon": -77.02691566666667}, {"fusion_lat": 0.0, "name": "7d17641819c98e564dfdd202cf8224f2", "is_disabled": 0, "rental_uris": {"android": "https://dc.lft.to/lastmile_qr_scan", "ios": "https://dc.lft.to/lastmile_qr_scan"}, "fusion_lon": 0.0, "lat": 38.877087, "bike_id": "7d17641819c98e564dfdd202cf8224f2", "type": "electric_scooter", "is_reserved": 0, "lon": -76.99389016666666}, {"fusion_lat": 0.0, "name": "416dc3626054d4fd65055700a2487180", "is_disabled": 0, "rental_uris": {"android": "https://dc.lft.to/lastmile_qr_scan", "ios": "https://dc.lft.to/lastmile_qr_scan"}, "fusion_lon": 0.0, "lat": 38.9230135, "bike_id": "416dc3626054d4fd65055700a2487180", "type": "electric_scooter", "is_reserved": 0, "lon": -77.0365915}, {"fusion_lat": 0.0, "name": "30fd9b0a74e13698aa1d2b5d55406897", "is_disabled": 0, "rental_uris": {"android": "https://dc.lft.to/lastmile_qr_scan", "ios": "https://dc.lft.to/lastmile_qr_scan"}, "fusion_lon": 0.0, "lat": 38.94494016666667, "bike_id": "30fd9b0a74e13698aa1d2b5d55406897", "type": "electric_scooter", "is_reserved": 0, "lon": -77.038761}, {"fusion_lat": 0.0, "name": "e2fa89b76d926baa859ae25c4c500195", "is_disabled": 0, "rental_uris": {"android": "https://dc.lft.to/lastmile_qr_scan", "ios": "https://dc.lft.to/lastmile_qr_scan"}, "fusion_lon": 0.0, "lat": 38.9839065, "bike_id": "e2fa89b76d926baa859ae25c4c500195", "type": "electric_scooter", "is_reserved": 0, "lon": -77.026316}, {"fusion_lat": 0.0, "name": "bd87ded8e2a06dc0b0ba9d77d0cf3954", "is_disabled": 0, "rental_uris": {"android": "https://dc.lft.to/lastmile_qr_scan", "ios": "https://dc.lft.to/lastmile_qr_scan"}, "fusion_lon": 0.0, "lat": 38.89572366666667, "bike_id": "bd87ded8e2a06dc0b0ba9d77d0cf3954", "type": "electric_scooter", "is_reserved": 0, "lon": -76.948853}, {"fusion_lat": 0.0, "name": "1f8c058a8e3387e83b920d20bc020a4e", "is_disabled": 0, "rental_uris": {"android": "https://dc.lft.to/lastmile_qr_scan", "ios": "https://dc.lft.to/lastmile_qr_scan"}, "fusion_lon": 0.0, "lat": 38.91827216666667, "bike_id": "1f8c058a8e3387e83b920d20bc020a4e", "type": "electric_scooter", "is_reserved": 0, "lon": -77.0402945}, {"fusion_lat": 0.0, "name": "7eaee7c5108f3d4ec6130ce7857e30e7", "is_disabled": 0, "rental_uris": {"android": "https://dc.lft.to/lastmile_qr_scan", "ios": "https://dc.lft.to/lastmile_qr_scan"}, "fusion_lon": 0.0, "lat": 38.90033666666667, "bike_id": "7eaee7c5108f3d4ec6130ce7857e30e7", "type": "electric_scooter", "is_reserved": 0, "lon": -76.991358}, {"fusion_lat": 0.0, "name": "f9f35d27c0170efbac83f3837488a2e8", "is_disabled": 0, "rental_uris": {"android": "https://dc.lft.to/lastmile_qr_scan", "ios": "https://dc.lft.to/lastmile_qr_scan"}, "fusion_lon": 0.0, "lat": 38.930369666666664, "bike_id": "f9f35d27c0170efbac83f3837488a2e8", "type": "electric_scooter", "is_reserved": 0, "lon": -77.0329535}, {"fusion_lat": 0.0, "name": "7609ceddfc09928c78aa75416ad707ed", "is_disabled": 0, "rental_uris": {"android": "https://dc.lft.to/lastmile_qr_scan", "ios": "https://dc.lft.to/lastmile_qr_scan"}, "fusion_lon": 0.0, "lat": 38.900198, "bike_id": "7609ceddfc09928c78aa75416ad707ed", "type": "electric_scooter", "is_reserved": 0, "lon": -76.99927633333333}, {"fusion_lat": 0.0, "name": "8e073688f14e96f3dca1586ff279375f", "is_disabled": 0, "rental_uris": {"android": "https://dc.lft.to/lastmile_qr_scan", "ios": "https://dc.lft.to/lastmile_qr_scan"}, "fusion_lon": 0.0, "lat": 38.8896425, "bike_id": "8e073688f14e96f3dca1586ff279375f", "type": "electric_scooter", "is_reserved": 0, "lon": -77.0150525}, {"fusion_lat": 0.0, "name": "efd6994945a5e475a7b1c1467cefefda", "is_disabled": 0, "rental_uris": {"android": "https://dc.lft.to/lastmile_qr_scan", "ios": "https://dc.lft.to/lastmile_qr_scan"}, "fusion_lon": 0.0, "lat": 38.90167533333333, "bike_id": "efd6994945a5e475a7b1c1467cefefda", "type": "electric_scooter", "is_reserved": 0, "lon": -77.059237}, {"fusion_lat": 0.0, "name": "570868a8c0f15337f2582e0d6a8331b8", "is_disabled": 0, "rental_uris": {"android": "https://dc.lft.to/lastmile_qr_scan", "ios": "https://dc.lft.to/lastmile_qr_scan"}, "fusion_lon": 0.0, "lat": 38.874556, "bike_id": "570868a8c0f15337f2582e0d6a8331b8", "type": "electric_scooter", "is_reserved": 0, "lon": -77.01888283333334}, {"fusion_lat": 0.0, "name": "9b83db895c163d40874d4fc085e2e535", "is_disabled": 0, "rental_uris": {"android": "https://dc.lft.to/lastmile_qr_scan", "ios": "https://dc.lft.to/lastmile_qr_scan"}, "fusion_lon": 0.0, "lat": 38.90555766666667, "bike_id": "9b83db895c163d40874d4fc085e2e535", "type": "electric_scooter", "is_reserved": 0, "lon": -77.03422433333333}, {"fusion_lat": 0.0, "name": "851dd8af3c673e91e8dbbb69ca7496b2", "is_disabled": 0, "rental_uris": {"android": "https://dc.lft.to/lastmile_qr_scan", "ios": "https://dc.lft.to/lastmile_qr_scan"}, "fusion_lon": 0.0, "lat": 38.8972805, "bike_id": "851dd8af3c673e91e8dbbb69ca7496b2", "type": "electric_scooter", "is_reserved": 0, "lon": -77.03967333333334}, {"fusion_lat": 0.0, "name": "b29b48e068eb0cb2261b15d50cb08ba1", "is_disabled": 0, "rental_uris": {"android": "https://dc.lft.to/lastmile_qr_scan", "ios": "https://dc.lft.to/lastmile_qr_scan"}, "fusion_lon": 0.0, "lat": 38.92318433333333, "bike_id": "b29b48e068eb0cb2261b15d50cb08ba1", "type": "electric_scooter", "is_reserved": 0, "lon": -77.04622183333333}, {"fusion_lat": 0.0, "name": "37cd2fd5b23e6c2301786b9d05d470f9", "is_disabled": 0, "rental_uris": {"android": "https://dc.lft.to/lastmile_qr_scan", "ios": "https://dc.lft.to/lastmile_qr_scan"}, "fusion_lon": 0.0, "lat": 38.91194133333333, "bike_id": "37cd2fd5b23e6c2301786b9d05d470f9", "type": "electric_scooter", "is_reserved": 0, "lon": -77.03208033333334}, {"fusion_lat": 0.0, "name": "079104035016f6e7e3d781b05be84f85", "is_disabled": 0, "rental_uris": {"android": "https://dc.lft.to/lastmile_qr_scan", "ios": "https://dc.lft.to/lastmile_qr_scan"}, "fusion_lon": 0.0, "lat": 38.922752333333335, "bike_id": "079104035016f6e7e3d781b05be84f85", "type": "electric_scooter", "is_reserved": 0, "lon": -76.99427933333334}, {"fusion_lat": 0.0, "name": "c730c02ac6df14f0353570848d27a565", "is_disabled": 0, "rental_uris": {"android": "https://dc.lft.to/lastmile_qr_scan", "ios": "https://dc.lft.to/lastmile_qr_scan"}, "fusion_lon": 0.0, "lat": 38.886033, "bike_id": "c730c02ac6df14f0353570848d27a565", "type": "electric_scooter", "is_reserved": 0, "lon": -77.04510033333334}, {"fusion_lat": 0.0, "name": "f1672260b24f428c4723a597b572e4dd", "is_disabled": 0, "rental_uris": {"android": "https://dc.lft.to/lastmile_qr_scan", "ios": "https://dc.lft.to/lastmile_qr_scan"}, "fusion_lon": 0.0, "lat": 38.92367, "bike_id": "f1672260b24f428c4723a597b572e4dd", "type": "electric_scooter", "is_reserved": 0, "lon": -77.081568}, {"fusion_lat": 0.0, "name": "5804a7aa95658d6b796eb3b73f0b183d", "is_disabled": 0, "rental_uris": {"android": "https://dc.lft.to/lastmile_qr_scan", "ios": "https://dc.lft.to/lastmile_qr_scan"}, "fusion_lon": 0.0, "lat": 38.902645666666665, "bike_id": "5804a7aa95658d6b796eb3b73f0b183d", "type": "electric_scooter", "is_reserved": 0, "lon": -76.99610183333333}, {"fusion_lat": 0.0, "name": "0bc03ebee7ac57fcfed7abda94a22764", "is_disabled": 0, "rental_uris": {"android": "https://dc.lft.to/lastmile_qr_scan", "ios": "https://dc.lft.to/lastmile_qr_scan"}, "fusion_lon": 0.0, "lat": 38.91583966666666, "bike_id": "0bc03ebee7ac57fcfed7abda94a22764", "type": "electric_scooter", "is_reserved": 0, "lon": -77.0464335}, {"fusion_lat": 0.0, "name": "f5a54ac493f09a5f51f6ad378d34e85d", "is_disabled": 0, "rental_uris": {"android": "https://dc.lft.to/lastmile_qr_scan", "ios": "https://dc.lft.to/lastmile_qr_scan"}, "fusion_lon": 0.0, "lat": 38.927162833333334, "bike_id": "f5a54ac493f09a5f51f6ad378d34e85d", "type": "electric_scooter", "is_reserved": 0, "lon": -77.03153666666667}, {"fusion_lat": 0.0, "name": "1a807fea9ee8f27251202058761a9f96", "is_disabled": 0, "rental_uris": {"android": "https://dc.lft.to/lastmile_qr_scan", "ios": "https://dc.lft.to/lastmile_qr_scan"}, "fusion_lon": 0.0, "lat": 38.9002115, "bike_id": "1a807fea9ee8f27251202058761a9f96", "type": "electric_scooter", "is_reserved": 0, "lon": -77.01225266666667}, {"fusion_lat": 0.0, "name": "decc4fd0c7a5bdbb97c3c359b9384b3c", "is_disabled": 0, "rental_uris": {"android": "https://dc.lft.to/lastmile_qr_scan", "ios": "https://dc.lft.to/lastmile_qr_scan"}, "fusion_lon": 0.0, "lat": 38.89742283333333, "bike_id": "decc4fd0c7a5bdbb97c3c359b9384b3c", "type": "electric_scooter", "is_reserved": 0, "lon": -76.947173}, {"fusion_lat": 0.0, "name": "5b8c87a691c32a1e9fd035df9fd234a9", "is_disabled": 0, "rental_uris": {"android": "https://dc.lft.to/lastmile_qr_scan", "ios": "https://dc.lft.to/lastmile_qr_scan"}, "fusion_lon": 0.0, "lat": 38.927034166666665, "bike_id": "5b8c87a691c32a1e9fd035df9fd234a9", "type": "electric_bike", "is_reserved": 0, "lon": -77.0228605}, {"fusion_lat": 0.0, "name": "a0d9e1255277a32c886166babfd60e01", "is_disabled": 0, "rental_uris": {"android": "https://dc.lft.to/lastmile_qr_scan", "ios": "https://dc.lft.to/lastmile_qr_scan"}, "fusion_lon": 0.0, "lat": 38.91652466666667, "bike_id": "a0d9e1255277a32c886166babfd60e01", "type": "electric_scooter", "is_reserved": 0, "lon": -77.027991}, {"fusion_lat": 0.0, "name": "0b5dff86b4c36b787dc17b6180e2596f", "is_disabled": 0, "rental_uris": {"android": "https://dc.lft.to/lastmile_qr_scan", "ios": "https://dc.lft.to/lastmile_qr_scan"}, "fusion_lon": 0.0, "lat": 38.9489735, "bike_id": "0b5dff86b4c36b787dc17b6180e2596f", "type": "electric_bike", "is_reserved": 0, "lon": -76.963773}, {"fusion_lat": 0.0, "name": "94cd5b9e63b29f920171e85ad7b7c5e5", "is_disabled": 0, "rental_uris": {"android": "https://dc.lft.to/lastmile_qr_scan", "ios": "https://dc.lft.to/lastmile_qr_scan"}, "fusion_lon": 0.0, "lat": 38.873903166666665, "bike_id": "94cd5b9e63b29f920171e85ad7b7c5e5", "type": "electric_scooter", "is_reserved": 0, "lon": -77.00066783333334}, {"fusion_lat": 0.0, "name": "5a6a2b78de7a64a987b92dd8172ca348", "is_disabled": 0, "rental_uris": {"android": "https://dc.lft.to/lastmile_qr_scan", "ios": "https://dc.lft.to/lastmile_qr_scan"}, "fusion_lon": 0.0, "lat": 38.901963, "bike_id": "5a6a2b78de7a64a987b92dd8172ca348", "type": "electric_scooter", "is_reserved": 0, "lon": -76.978584}, {"fusion_lat": 0.0, "name": "cc9480da67d1086b4383a7707a69a9a5", "is_disabled": 0, "rental_uris": {"android": "https://dc.lft.to/lastmile_qr_scan", "ios": "https://dc.lft.to/lastmile_qr_scan"}, "fusion_lon": 0.0, "lat": 38.916206, "bike_id": "cc9480da67d1086b4383a7707a69a9a5", "type": "electric_scooter", "is_reserved": 0, "lon": -77.0314855}, {"fusion_lat": 0.0, "name": "75a2c2e4ae4bfd20ce9581d4be1529f1", "is_disabled": 0, "rental_uris": {"android": "https://dc.lft.to/lastmile_qr_scan", "ios": "https://dc.lft.to/lastmile_qr_scan"}, "fusion_lon": 0.0, "lat": 38.92321116666667, "bike_id": "75a2c2e4ae4bfd20ce9581d4be1529f1", "type": "electric_scooter", "is_reserved": 0, "lon": -77.03825783333333}, {"fusion_lat": 0.0, "name": "8324e361e043138c9f558d5e4021aff3", "is_disabled": 0, "rental_uris": {"android": "https://dc.lft.to/lastmile_qr_scan", "ios": "https://dc.lft.to/lastmile_qr_scan"},