{"data": {"bikes": [{"name": "d5749c71abce0d2566bfb5106f187941", "type": "electric_scooter", "lat": 38.9032355, "is_reserved": 0, "lon": -77.03815433333334, "fusion_lon": 0.0, "is_disabled": 0, "fusion_lat": 0.0, "bike_id": "d5749c71abce0d2566bfb5106f187941", "rental_uris": {"ios": "https://dc.lft.to/lastmile_qr_scan", "android": "https://dc.lft.to/lastmile_qr_scan"}}, {"name": "248e1ee9c57bda4ae064b0410f8b32c4", "type": "electric_scooter", "lat": 38.86209433333333, "is_reserved": 0, "lon": -76.99476216666666, "fusion_lon": 0.0, "is_disabled": 0, "fusion_lat": 0.0, "bike_id": "248e1ee9c57bda4ae064b0410f8b32c4", "rental_uris": {"ios": "https://dc.lft.to/lastmile_qr_scan", "android": "https://dc.lft.to/lastmile_qr_scan"}}, {"name": "81d2a2e65a58f33930465558dd78c8ca", "type": "electric_scooter", "lat": 38.9004195, "is_reserved": 0, "lon": -76.91918116666666, "fusion_lon": 0.0, "is_disabled": 0, "fusion_lat": 0.0, "bike_id": "81d2a2e65a58f33930465558dd78c8ca", "rental_uris": {"ios": "https://dc.lft.to/lastmile_qr_scan", "android": "https://dc.lft.to/lastmile_qr_scan"}}, {"name": "172c41b7606fbe9f7285ae6190b09cfc", "type": "electric_scooter", "lat": 38.95926933333333, "is_reserved": 0, "lon": -77.033244, "fusion_lon": 0.0, "is_disabled": 0, "fusion_lat": 0.0, "bike_id": "172c41b7606fbe9f7285ae6190b09cfc", "rental_uris": {"ios": "https://dc.lft.to/lastmile_qr_scan", "android": "https://dc.lft.to/lastmile_qr_scan"}}, {"name": "07597d7f6e2a14d96ff582d87a446ae5", "type": "electric_scooter", "lat": 38.8980635, "is_reserved": 0, "lon": -76.99500683333333, "fusion_lon": 0.0, "is_disabled": 0, "fusion_lat": 0.0, "bike_id": "07597d7f6e2a14d96ff582d87a446ae5", "rental_uris": {"ios": "https://dc.lft.to/lastmile_qr_scan", "android": "https://dc.lft.to/lastmile_qr_scan"}}, {"name": "f158f2b631da95eaefd0b9b290e52508", "type": "electric_scooter", "lat": 38.923409, "is_reserved": 0, "lon": -77.0504945, "fusion_lon": 0.0, "is_disabled": 0, "fusion_lat": 0.0, "bike_id": "f158f2b631da95eaefd0b9b290e52508", "rental_uris": {"ios": "https://dc.lft.to/lastmile_qr_scan", "android": "https://dc.lft.to/lastmile_qr_scan"}}, {"name": "48eb56e38d4b656bcab4175daf67396f", "type": "electric_scooter", "lat": 38.90115816666667, "is_reserved": 0, "lon": -77.05160916666667, "fusion_lon": 0.0, "is_disabled": 0, "fusion_lat": 0.0, "bike_id": "48eb56e38d4b656bcab4175daf67396f", "rental_uris": {"ios": "https://dc.lft.to/lastmile_qr_scan", "android": "https://dc.lft.to/lastmile_qr_scan"}}, {"name": "83bebef3df9ddff439da92ff0bf618b5", "type": "electric_bike", "lat": 38.92917033333333, "is_reserved": 0, "lon": -77.02387616666667, "fusion_lon": 0.0, "is_disabled": 0, "fusion_lat": 0.0, "bike_id": "83bebef3df9ddff439da92ff0bf618b5", "rental_uris": {"ios": "https://dc.lft.to/lastmile_qr_scan", "android": "https://dc.lft.to/lastmile_qr_scan"}}, {"name": "c00ae4d82698bb7e0221beda7c66e6de", "type": "electric_scooter", "lat": 38.904272, "is_reserved": 0, "lon": -77.02113533333333, "fusion_lon": 0.0, "is_disabled": 0, "fusion_lat": 0.0, "bike_id": "c00ae4d82698bb7e0221beda7c66e6de", "rental_uris": {"ios": "https://dc.lft.to/lastmile_qr_scan", "android": "https://dc.lft.to/lastmile_qr_scan"}}, {"name": "3563a6134b55378eac0ab7faaef629e4", "type": "electric_bike", "lat": 38.87485083333333, "is_reserved": 0, "lon": -76.96531916666666, "fusion_lon": 0.0, "is_disabled": 0, "fusion_lat": 0.0, "bike_id": "3563a6134b55378eac0ab7faaef629e4", "rental_uris": {"ios": "https://dc.lft.to/lastmile_qr_scan", "android": "https://dc.lft.to/lastmile_qr_scan"}}, {"name": "c4b671e5ae4bbeced14c9cea3c858f88", "type": "electric_bike", "lat": 38.937222166666665, "is_reserved": 0, "lon": -77.0209715, "fusion_lon": 0.0, "is_disabled": 0, "fusion_lat": 0.0, "bike_id": "c4b671e5ae4bbeced14c9cea3c858f88", "rental_uris": {"ios": "https://dc.lft.to/lastmile_qr_scan", "android": "https://dc.lft.to/lastmile_qr_scan"}}, {"name": "b60de4132e2403153e53f81f146c54cb", "type": "electric_scooter", "lat": 38.9023075, "is_reserved": 0, "lon": -77.05347466666667, "fusion_lon": 0.0, "is_disabled": 0, "fusion_lat": 0.0, "bike_id": "b60de4132e2403153e53f81f146c54cb", "rental_uris": {"ios": "https://dc.lft.to/lastmile_qr_scan", "android": "https://dc.lft.to/lastmile_qr_scan"}}, {"name": "cd9671f396da030fdaa804888aed1942", "type": "electric_scooter", "lat": 38.882099833333335, "is_reserved": 0, "lon": -77.0144775, "fusion_lon": 0.0, "is_disabled": 0, "fusion_lat": 0.0, "bike_id": "cd9671f396da030fdaa804888aed1942", "rental_uris": {"ios": "https://dc.lft.to/lastmile_qr_scan", "android": "https://dc.lft.to/lastmile_qr_scan"}}, {"name": "1bb74c77fdc610913ae641eaf95332d5", "type": "electric_scooter", "lat": 38.92168216666666, "is_reserved": 0, "lon": -77.02689466666666, "fusion_lon": 0.0, "is_disabled": 0, "fusion_lat": 0.0, "bike_id": "1bb74c77fdc610913ae641eaf95332d5", "rental_uris": {"ios": "https://dc.lft.to/lastmile_qr_scan", "android": "https://dc.lft.to/lastmile_qr_scan"}}, {"name": "7a694da5113712862712962ed0f47480", "type": "electric_scooter", "lat": 38.905256, "is_reserved": 0, "lon": -77.051535, "fusion_lon": 0.0, "is_disabled": 0, "fusion_lat": 0.0, "bike_id": "7a694da5113712862712962ed0f47480", "rental_uris": {"ios": "https://dc.lft.to/lastmile_qr_scan", "android": "https://dc.lft.to/lastmile_qr_scan"}}, {"name": "8f83c6104d8787e64ce486363b56f6cf", "type": "electric_scooter", "lat": 38.92541716666667, "is_reserved": 0, "lon": -77.03534366666666, "fusion_lon": 0.0, "is_disabled": 0, "fusion_lat": 0.0, "bike_id": "8f83c6104d8787e64ce486363b56f6cf", "rental_uris": {"ios": "https://dc.lft.to/lastmile_qr_scan", "android": "https://dc.lft.to/lastmile_qr_scan"}}, {"name": "e4f1a063373995687ee3e4c374ffcffc", "type": "electric_scooter", "lat": 38.909496833333336, "is_reserved": 0, "lon": -77.04324333333334, "fusion_lon": 0.0, "is_disabled": 0, "fusion_lat": 0.0, "bike_id": "e4f1a063373995687ee3e4c374ffcffc", "rental_uris": {"ios": "https://dc.lft.to/lastmile_qr_scan", "android": "https://dc.lft.to/lastmile_qr_scan"}}, {"name": "c2bd6e555b691804b94dacabd8fdf9a6", "type": "electric_scooter", "lat": 38.919647499999996, "is_reserved": 0, "lon": -77.01440733333334, "fusion_lon": 0.0, "is_disabled": 0, "fusion_lat": 0.0, "bike_id": "c2bd6e555b691804b94dacabd8fdf9a6", "rental_uris": {"ios": "https://dc.lft.to/lastmile_qr_scan", "android": "https://dc.lft.to/lastmile_qr_scan"}}, {"name": "b3df9dc898324a8795162d948785489e", "type": "electric_scooter", "lat": 38.912092, "is_reserved": 0, "lon": -77.00659383333333, "fusion_lon": 0.0, "is_disabled": 0, "fusion_lat": 0.0, "bike_id": "b3df9dc898324a8795162d948785489e", "rental_uris": {"ios": "https://dc.lft.to/lastmile_qr_scan", "android": "https://dc.lft.to/lastmile_qr_scan"}}, {"name": "b1b270a5bc883e4ac403a14e6fd6fabb", "type": "electric_scooter", "lat": 38.91710033333333, "is_reserved": 0, "lon": -77.03122466666666, "fusion_lon": 0.0, "is_disabled": 0, "fusion_lat": 0.0, "bike_id": "b1b270a5bc883e4ac403a14e6fd6fabb", "rental_uris": {"ios": "https://dc.lft.to/lastmile_qr_scan", "android": "https://dc.lft.to/lastmile_qr_scan"}}, {"name": "e5d3c6c24ea1e890c75e7b4139a6fe84", "type": "electric_scooter", "lat": 38.922429666666666, "is_reserved": 0, "lon": -77.0309135, "fusion_lon": 0.0, "is_disabled": 0, "fusion_lat": 0.0, "bike_id": "e5d3c6c24ea1e890c75e7b4139a6fe84", "rental_uris": {"ios": "https://dc.lft.to/lastmile_qr_scan", "android": "https://dc.lft.to/lastmile_qr_scan"}}, {"name": "f9a901f0819b88d3f250eb7914fe7327", "type": "electric_scooter", "lat": 38.885147833333335, "is_reserved": 0, "lon": -77.00569866666666, "fusion_lon": 0.0, "is_disabled": 0, "fusion_lat": 0.0, "bike_id": "f9a901f0819b88d3f250eb7914fe7327", "rental_uris": {"ios": "https://dc.lft.to/lastmile_qr_scan", "android": "https://dc.lft.to/lastmile_qr_scan"}}, {"name": "a7dd9a69c32207595531977f10d9f1f3", "type": "electric_scooter", "lat": 38.90240216666667, "is_reserved": 0, "lon": -77.00199783333333, "fusion_lon": 0.0, "is_disabled": 0, "fusion_lat": 0.0, "bike_id": "a7dd9a69c32207595531977f10d9f1f3", "rental_uris": {"ios": "https://dc.lft.to/lastmile_qr_scan", "android": "https://dc.lft.to/lastmile_qr_scan"}}, {"name": "be49c446ac435a8f22bc3aad727555e1", "type": "electric_scooter", "lat": 38.89834166666667, "is_reserved": 0, "lon": -77.0316095, "fusion_lon": 0.0, "is_disabled": 0, "fusion_lat": 0.0, "bike_id": "be49c446ac435a8f22bc3aad727555e1", "rental_uris": {"ios": "https://dc.lft.to/lastmile_qr_scan", "android": "https://dc.lft.to/lastmile_qr_scan"}}, {"name": "01f0b98ab51ba1eeb1ab68a7ed252472", "type": "electric_scooter", "lat": 38.914054166666666, "is_reserved": 0, "lon": -77.008428, "fusion_lon": 0.0, "is_disabled": 0, "fusion_lat": 0.0, "bike_id": "01f0b98ab51ba1eeb1ab68a7ed252472", "rental_uris": {"ios": "https://dc.lft.to/lastmile_qr_scan", "android": "https://dc.lft.to/lastmile_qr_scan"}}, {"name": "948a175a894e61aff44dc82951e09594", "type": "electric_scooter", "lat": 38.894916333333335, "is_reserved": 0, "lon": -77.010989, "fusion_lon": 0.0, "is_disabled": 0, "fusion_lat": 0.0, "bike_id": "948a175a894e61aff44dc82951e09594", "rental_uris": {"ios": "https://dc.lft.to/lastmile_qr_scan", "android": "https://dc.lft.to/lastmile_qr_scan"}}, {"name": "8558c68a2e69075bd0e8578caff94682", "type": "electric_scooter", "lat": 38.903927833333334, "is_reserved": 0, "lon": -77.0175305, "fusion_lon": 0.0, "is_disabled": 0, "fusion_lat": 0.0, "bike_id": "8558c68a2e69075bd0e8578caff94682", "rental_uris": {"ios": "https://dc.lft.to/lastmile_qr_scan", "android": "https://dc.lft.to/lastmile_qr_scan"}}, {"name": "415e1639fcbae819440ec058fa7f5215", "type": "electric_scooter", "lat": 38.90385216666667, "is_reserved": 0, "lon": -77.04483116666667, "fusion_lon": 0.0, "is_disabled": 0, "fusion_lat": 0.0, "bike_id": "415e1639fcbae819440ec058fa7f5215", "rental_uris": {"ios": "https://dc.lft.to/lastmile_qr_scan", "android": "https://dc.lft.to/lastmile_qr_scan"}}, {"name": "07c829fbe0532f13d1aa8679d056852b", "type": "electric_scooter", "lat": 38.91768966666667, "is_reserved": 0, "lon": -77.02708816666667, "fusion_lon": 0.0, "is_disabled": 0, "fusion_lat": 0.0, "bike_id": "07c829fbe0532f13d1aa8679d056852b", "rental_uris": {"ios": "https://dc.lft.to/lastmile_qr_scan", "android": "https://dc.lft.to/lastmile_qr_scan"}}, {"name": "d203989bc9a03466b2b7e8b91432c464", "type": "electric_scooter", "lat": 38.90867383333333, "is_reserved": 0, "lon": -77.02503866666666, "fusion_lon": 0.0, "is_disabled": 0, "fusion_lat": 0.0, "bike_id": "d203989bc9a03466b2b7e8b91432c464", "rental_uris": {"ios": "https://dc.lft.to/lastmile_qr_scan", "android": "https://dc.lft.to/lastmile_qr_scan"}}, {"name": "8a15c06428aa1c9a6ec36685ad5e0ff4", "type": "electric_bike", "lat": 38.880826666666664, "is_reserved": 0, "lon": -76.98537216666666, "fusion_lon": 0.0, "is_disabled": 0, "fusion_lat": 0.0, "bike_id": "8a15c06428aa1c9a6ec36685ad5e0ff4", "rental_uris": {"ios": "https://dc.lft.to/lastmile_qr_scan", "android": "https://dc.lft.to/lastmile_qr_scan"}}, {"name": "b6f7988674b7b9c82b07f7a72f9ac928", "type": "electric_scooter", "lat": 38.91571783333333, "is_reserved": 0, "lon": -77.04623316666667, "fusion_lon": 0.0, "is_disabled": 0, "fusion_lat": 0.0, "bike_id": "b6f7988674b7b9c82b07f7a72f9ac928", "rental_uris": {"ios": "https://dc.lft.to/lastmile_qr_scan", "android": "https://dc.lft.to/lastmile_qr_scan"}}, {"name": "f124fd189f5e679db8c884331a779668", "type": "electric_scooter", "lat": 38.90008516666666, "is_reserved": 0, "lon": -76.9916175, "fusion_lon": 0.0, "is_disabled": 0, "fusion_lat": 0.0, "bike_id": "f124fd189f5e679db8c884331a779668", "rental_uris": {"ios": "https://dc.lft.to/lastmile_qr_scan", "android": "https://dc.lft.to/lastmile_qr_scan"}}, {"name": "0872dd797452f8921c8663f60ce851ec", "type": "electric_bike", "lat": 38.966257666666664, "is_reserved": 0, "lon": -76.97673, "fusion_lon": 0.0, "is_disabled": 0, "fusion_lat": 0.0, "bike_id": "0872dd797452f8921c8663f60ce851ec", "rental_uris": {"ios": "https://dc.lft.to/lastmile_qr_scan", "android": "https://dc.lft.to/lastmile_qr_scan"}}, {"name": "431652bcfef3e531e7c8cd72488932e7", "type": "electric_scooter", "lat": 38.933919833333334, "is_reserved": 0, "lon": -77.02984283333333, "fusion_lon": 0.0, "is_disabled": 0, "fusion_lat": 0.0, "bike_id": "431652bcfef3e531e7c8cd72488932e7", "rental_uris": {"ios": "https://dc.lft.to/lastmile_qr_scan", "android": "https://dc.lft.to/lastmile_qr_scan"}}, {"name": "e4b2a18171097a899445eaed331f76d0", "type": "electric_bike", "lat": 38.858509833333336, "is_reserved": 0, "lon": -77.09756633333333, "fusion_lon": 0.0, "is_disabled": 0, "fusion_lat": 0.0, "bike_id": "e4b2a18171097a899445eaed331f76d0", "rental_uris": {"ios": "https://dc.lft.to/lastmile_qr_scan", "android": "https://dc.lft.to/lastmile_qr_scan"}}, {"name": "e4a1d971067cd922fb855b1278bf2520", "type": "electric_scooter", "lat": 38.93991616666667, "is_reserved": 0, "lon": -77.02893283333333, "fusion_lon": 0.0, "is_disabled": 0, "fusion_lat": 0.0, "bike_id": "e4a1d971067cd922fb855b1278bf2520", "rental_uris": {"ios": "https://dc.lft.to/lastmile_qr_scan", "android": "https://dc.lft.to/lastmile_qr_scan"}}, {"name": "679e1b4c270f444377e734c55acf0e0a", "type": "electric_scooter", "lat": 38.920676, "is_reserved": 0, "lon": -77.03344383333334, "fusion_lon": 0.0, "is_disabled": 0, "fusion_lat": 0.0, "bike_id": "679e1b4c270f444377e734c55acf0e0a", "rental_uris": {"ios": "https://dc.lft.to/lastmile_qr_scan", "android": "https://dc.lft.to/lastmile_qr_scan"}}, {"name": "d2c1bb177f793676813332d96150e48d", "type": "electric_scooter", "lat": 38.920632499999996, "is_reserved": 0, "lon": -77.03459, "fusion_lon": 0.0, "is_disabled": 0, "fusion_lat": 0.0, "bike_id": "d2c1bb177f793676813332d96150e48d", "rental_uris": {"ios": "https://dc.lft.to/lastmile_qr_scan", "android": "https://dc.lft.to/lastmile_qr_scan"}}, {"name": "e57f1f0d293b84d160de0c85c0e40821", "type": "electric_scooter", "lat": 38.86702183333333, "is_reserved": 0, "lon": -76.987158, "fusion_lon": 0.0, "is_disabled": 0, "fusion_lat": 0.0, "bike_id": "e57f1f0d293b84d160de0c85c0e40821", "rental_uris": {"ios": "https://dc.lft.to/lastmile_qr_scan", "android": "https://dc.lft.to/lastmile_qr_scan"}}, {"name": "c7b87bd69f5a8948ca1a2213424eb135", "type": "electric_scooter", "lat": 38.91606566666667, "is_reserved": 0, "lon": -77.04906283333334, "fusion_lon": 0.0, "is_disabled": 0, "fusion_lat": 0.0, "bike_id": "c7b87bd69f5a8948ca1a2213424eb135", "rental_uris": {"ios": "https://dc.lft.to/lastmile_qr_scan", "android": "https://dc.lft.to/lastmile_qr_scan"}}, {"name": "5e09be9767a1d29c8b201d5c987a2c58", "type": "electric_bike", "lat": 38.999422333333335, "is_reserved": 0, "lon": -77.01773533333333, "fusion_lon": 0.0, "is_disabled": 0, "fusion_lat": 0.0, "bike_id": "5e09be9767a1d29c8b201d5c987a2c58", "rental_uris": {"ios": "https://dc.lft.to/lastmile_qr_scan", "android": "https://dc.lft.to/lastmile_qr_scan"}}, {"name": "0876bb05ea3c72e1ff58fd59ec3f19a3", "type": "electric_bike", "lat": 38.91178016666667, "is_reserved": 0, "lon": -77.0116005, "fusion_lon": 0.0, "is_disabled": 0, "fusion_lat": 0.0, "bike_id": "0876bb05ea3c72e1ff58fd59ec3f19a3", "rental_uris": {"ios": "https://dc.lft.to/lastmile_qr_scan", "android": "https://dc.lft.to/lastmile_qr_scan"}}, {"name": "36cd248b1a5bdece9e24ae2d4ab6df4c", "type": "electric_scooter", "lat": 38.92683666666667, "is_reserved": 0, "lon": -77.0215905, "fusion_lon": 0.0, "is_disabled": 0, "fusion_lat": 0.0, "bike_id": "36cd248b1a5bdece9e24ae2d4ab6df4c", "rental_uris": {"ios": "https://dc.lft.to/lastmile_qr_scan", "android": "https://dc.lft.to/lastmile_qr_scan"}}, {"name": "2cf8afcb1f8627e99395cacc1c6d309f", "type": "electric_scooter", "lat": 38.87897566666667, "is_reserved": 0, "lon": -77.02209583333334, "fusion_lon": 0.0, "is_disabled": 0, "fusion_lat": 0.0, "bike_id": "2cf8afcb1f8627e99395cacc1c6d309f", "rental_uris": {"ios": "https://dc.lft.to/lastmile_qr_scan", "android": "https://dc.lft.to/lastmile_qr_scan"}}, {"name": "3f87cc23d587ad03d1815fbdc58b6b93", "type": "electric_bike", "lat": 38.948962, "is_reserved": 0, "lon": -77.01928216666667, "fusion_lon": 0.0, "is_disabled": 0, "fusion_lat": 0.0, "bike_id": "3f87cc23d587ad03d1815fbdc58b6b93", "rental_uris": {"ios": "https://dc.lft.to/lastmile_qr_scan", "android": "https://dc.lft.to/lastmile_qr_scan"}}, {"name": "91ad375250f6765446386a525e7d9823", "type": "electric_scooter", "lat": 38.90726933333333, "is_reserved": 0, "lon": -77.02510433333333, "fusion_lon": 0.0, "is_disabled": 0, "fusion_lat": 0.0, "bike_id": "91ad375250f6765446386a525e7d9823", "rental_uris": {"ios": "https://dc.lft.to/lastmile_qr_scan", "android": "https://dc.lft.to/lastmile_qr_scan"}}, {"name": "e314990e9466d5e323df71fa135b0fb1", "type": "electric_scooter", "lat": 38.9353395, "is_reserved": 0, "lon": -77.02862283333333, "fusion_lon": 0.0, "is_disabled": 0, "fusion_lat": 0.0, "bike_id": "e314990e9466d5e323df71fa135b0fb1", "rental_uris": {"ios": "https://dc.lft.to/lastmile_qr_scan", "android": "https://dc.lft.to/lastmile_qr_scan"}}, {"name": "a4158d035d63141fc14d4fe3ff62f182", "type": "electric_scooter", "lat": 38.90798816666667, "is_reserved": 0, "lon": -76.9970485, "fusion_lon": 0.0, "is_disabled": 0, "fusion_lat": 0.0, "bike_id": "a4158d035d63141fc14d4fe3ff62f182", "rental_uris": {"ios": "https://dc.lft.to/lastmile_qr_scan", "android": "https://dc.lft.to/lastmile_qr_scan"}}, {"name": "f1a323671418d2170c7a470b1275d34b", "type": "electric_scooter", "lat": 38.895302, "is_reserved": 0, "lon": -77.01611066666666, "fusion_lon": 0.0, "is_disabled": 0, "fusion_lat": 0.0, "bike_id": "f1a323671418d2170c7a470b1275d34b", "rental_uris": {"ios": "https://dc.lft.to/lastmile_qr_scan", "android": "https://dc.lft.to/lastmile_qr_scan"}}, {"name": "7576bee62ced7ded865b3c2255e2d3e4", "type": "electric_scooter", "lat": 38.9106595, "is_reserved": 0, "lon": -77.03041, "fusion_lon": 0.0, "is_disabled": 0, "fusion_lat": 0.0, "bike_id": "7576bee62ced7ded865b3c2255e2d3e4", "rental_uris": {"ios": "https://dc.lft.to/lastmile_qr_scan", "android": "https://dc.lft.to/lastmile_qr_scan"}}, {"name": "d8231b693d51d0ab8826b273f5c1e596", "type": "electric_scooter", "lat": 38.920695, "is_reserved": 0, "lon": -77.03216733333333, "fusion_lon": 0.0, "is_disabled": 0, "fusion_lat": 0.0, "bike_id": "d8231b693d51d0ab8826b273f5c1e596", "rental_uris": {"ios": "https://dc.lft.to/lastmile_qr_scan", "android": "https://dc.lft.to/lastmile_qr_scan"}}, {"name": "e84fb8ec1f51ecb709af71a3a6880c48", "type": "electric_scooter", "lat": 38.93505366666667, "is_reserved": 0, "lon": -77.02851766666667, "fusion_lon": 0.0, "is_disabled": 0, "fusion_lat": 0.0, "bike_id": "e84fb8ec1f51ecb709af71a3a6880c48", "rental_uris": {"ios": "https://dc.lft.to/lastmile_qr_scan", "android": "https://dc.lft.to/lastmile_qr_scan"}}, {"name": "def7174d4d57410889962be4585da916", "type": "electric_bike", "lat": 38.8543945, "is_reserved": 0, "lon": -77.11708583333333, "fusion_lon": 0.0, "is_disabled": 0, "fusion_lat": 0.0, "bike_id": "def7174d4d57410889962be4585da916", "rental_uris": {"ios": "https://dc.lft.to/lastmile_qr_scan", "android": "https://dc.lft.to/lastmile_qr_scan"}}, {"name": "b7c5bc8072f84c894e4ee5633864d666", "type": "electric_scooter", "lat": 38.941797333333334, "is_reserved": 0, "lon": -77.03091333333333, "fusion_lon": 0.0, "is_disabled": 0, "fusion_lat": 0.0, "bike_id": "b7c5bc8072f84c894e4ee5633864d666", "rental_uris": {"ios": "https://dc.lft.to/lastmile_qr_scan", "android": "https://dc.lft.to/lastmile_qr_scan"}}, {"name": "1e2418fa36dec4e68477b37baaf71962", "type": "electric_scooter", "lat": 38.90607133333334, "is_reserved": 0, "lon": -77.013192, "fusion_lon": 0.0, "is_disabled": 0, "fusion_lat": 0.0, "bike_id": "1e2418fa36dec4e68477b37baaf71962", "rental_uris": {"ios": "https://dc.lft.to/lastmile_qr_scan", "android": "https://dc.lft.to/lastmile_qr_scan"}}, {"name": "faaa5e627bb6849b937f7c09ebeba078", "type": "electric_scooter", "lat": 38.905764833333336, "is_reserved": 0, "lon": -77.00617066666666, "fusion_lon": 0.0, "is_disabled": 0, "fusion_lat": 0.0, "bike_id": "faaa5e627bb6849b937f7c09ebeba078", "rental_uris": {"ios": "https://dc.lft.to/lastmile_qr_scan", "android": "https://dc.lft.to/lastmile_qr_scan"}}, {"name": "0a932a55b76e27d59df23fbc1810dfba", "type": "electric_scooter", "lat": 38.89927316666667, "is_reserved": 0, "lon": -77.03157766666666, "fusion_lon": 0.0, "is_disabled": 0, "fusion_lat": 0.0, "bike_id": "0a932a55b76e27d59df23fbc1810dfba", "rental_uris": {"ios": "https://dc.lft.to/lastmile_qr_scan", "android": "https://dc.lft.to/lastmile_qr_scan"}}, {"name": "8ecc01c319931bb9db4aa3d850fab8bf", "type": "electric_scooter", "lat": 38.9226915, "is_reserved": 0, "lon": -77.03405916666667, "fusion_lon": 0.0, "is_disabled": 0, "fusion_lat": 0.0, "bike_id": "8ecc01c319931bb9db4aa3d850fab8bf", "rental_uris": {"ios": "https://dc.lft.to/lastmile_qr_scan", "android": "https://dc.lft.to/lastmile_qr_scan"}}, {"name": "847ca2dfecc4da5641c183dd2b589a48", "type": "electric_scooter", "lat": 38.870895, "is_reserved": 0, "lon": -77.0121205, "fusion_lon": 0.0, "is_disabled": 0, "fusion_lat": 0.0, "bike_id": "847ca2dfecc4da5641c183dd2b589a48", "rental_uris": {"ios": "https://dc.lft.to/lastmile_qr_scan", "android": "https://dc.lft.to/lastmile_qr_scan"}}, {"name": "bf4723397e9ee5188cc9dee5013ec945", "type": "electric_scooter", "lat": 38.934491333333334, "is_reserved": 0, "lon": -77.02849, "fusion_lon": 0.0, "is_disabled": 0, "fusion_lat": 0.0, "bike_id": "bf4723397e9ee5188cc9dee5013ec945", "rental_uris": {"ios": "https://dc.lft.to/lastmile_qr_scan", "android": "https://dc.lft.to/lastmile_qr_scan"}}, {"name": "c1de1e6d7bc3ae48541a163be5359888", "type": "electric_scooter", "lat": 38.898908666666664, "is_reserved": 0, "lon": -76.99142366666666, "fusion_lon": 0.0, "is_disabled": 0, "fusion_lat": 0.0, "bike_id": "c1de1e6d7bc3ae48541a163be5359888", "rental_uris": {"ios": "https://dc.lft.to/lastmile_qr_scan", "android": "https://dc.lft.to/lastmile_qr_scan"}}, {"name": "7ae16350491242937e1e6ee4296c449a", "type": "electric_scooter", "lat": 38.92482183333333, "is_reserved": 0, "lon": -77.03776866666666, "fusion_lon": 0.0, "is_disabled": 0, "fusion_lat": 0.0, "bike_id": "7ae16350491242937e1e6ee4296c449a", "rental_uris": {"ios": "https://dc.lft.to/lastmile_qr_scan", "android": "https://dc.lft.to/lastmile_qr_scan"}}, {"name": "9b6a08e6877491dd631a0317dc591b35", "type": "electric_scooter", "lat": 38.92238866666667, "is_reserved": 0, "lon": -77.03888233333333, "fusion_lon": 0.0, "is_disabled": 0, "fusion_lat": 0.0, "bike_id": "9b6a08e6877491dd631a0317dc591b35", "rental_uris": {"ios": "https://dc.lft.to/lastmile_qr_scan", "android": "https://dc.lft.to/lastmile_qr_scan"}}, {"name": "9d6703a2ba34f2226b3914c70d28071c", "type": "electric_scooter", "lat": 38.916835666666664, "is_reserved": 0, "lon": -77.02972633333333, "fusion_lon": 0.0, "is_disabled": 0, "fusion_lat": 0.0, "bike_id": "9d6703a2ba34f2226b3914c70d28071c", "rental_uris": {"ios": "https://dc.lft.to/lastmile_qr_scan", "android": "https://dc.lft.to/lastmile_qr_scan"}}, {"name": "e53db9e2311e63a75538b7d80cd09e82", "type": "electric_bike", "lat": 38.89772116666666, "is_reserved": 0, "lon": -76.90439, "fusion_lon": 0.0, "is_disabled": 0, "fusion_lat": 0.0, "bike_id": "e53db9e2311e63a75538b7d80cd09e82", "rental_uris": {"ios": "https://dc.lft.to/lastmile_qr_scan", "android": "https://dc.lft.to/lastmile_qr_scan"}}, {"name": "610a0ad19feab687b06386f259dcd3e3", "type": "electric_scooter", "lat": 38.89761983333333, "is_reserved": 0, "lon": -77.0268315, "fusion_lon": 0.0, "is_disabled": 0, "fusion_lat": 0.0, "bike_id": "610a0ad19feab687b06386f259dcd3e3", "rental_uris": {"ios": "https://dc.lft.to/lastmile_qr_scan", "android": "https://dc.lft.to/lastmile_qr_scan"}}, {"name": "73bc498c14d55ff07c82ad8ebebb5d00", "type": "electric_scooter", "lat": 38.86700533333333, "is_reserved": 0, "lon": -76.987167, "fusion_lon": 0.0, "is_disabled": 0, "fusion_lat": 0.0, "bike_id": "73bc498c14d55ff07c82ad8ebebb5d00", "rental_uris": {"ios": "https://dc.lft.to/lastmile_qr_scan", "android": "https://dc.lft.to/lastmile_qr_scan"}}, {"name": "6826aab6cdd6aaf89374de2a316739b3", "type": "electric_scooter", "lat": 38.932604833333336, "is_reserved": 0, "lon": -77.02958533333333, "fusion_lon": 0.0, "is_disabled": 0, "fusion_lat": 0.0, "bike_id": "6826aab6cdd6aaf89374de2a316739b3", "rental_uris": {"ios": "https://dc.lft.to/lastmile_qr_scan", "android": "https://dc.lft.to/lastmile_qr_scan"}}, {"name": "65d0db2edcfab812c19d18d0b288fc0d", "type": "electric_scooter", "lat": 38.90238, "is_reserved": 0, "lon": -77.02200466666666, "fusion_lon": 0.0, "is_disabled": 0, "fusion_lat": 0.0, "bike_id": "65d0db2edcfab812c19d18d0b288fc0d", "rental_uris": {"ios": "https://dc.lft.to/lastmile_qr_scan", "android": "https://dc.lft.to/lastmile_qr_scan"}}, {"name": "ede8d86ddd279dd63734b0aee79d959c", "type": "electric_scooter", "lat": 38.9065245, "is_reserved": 0, "lon": -77.02968633333333, "fusion_lon": 0.0, "is_disabled": 0, "fusion_lat": 0.0, "bike_id": "ede8d86ddd279dd63734b0aee79d959c", "rental_uris": {"ios": "https://dc.lft.to/lastmile_qr_scan", "android": "https://dc.lft.to/lastmile_qr_scan"}}, {"name": "a3335d95004ce90ddbe2e8f8426cd34a", "type": "electric_scooter", "lat": 38.93130433333333, "is_reserved": 0, "lon": -77.03608516666667, "fusion_lon": 0.0, "is_disabled": 0, "fusion_lat": 0.0, "bike_id": "a3335d95004ce90ddbe2e8f8426cd34a", "rental_uris": {"ios": "https://dc.lft.to/lastmile_qr_scan", "android": "https://dc.lft.to/lastmile_qr_scan"}}, {"name": "fb415654aea47fa8feeff3e2c1cbbb48", "type": "electric_bike", "lat": 38.946265833333335, "is_reserved": 0, "lon": -76.94630716666667, "fusion_lon": 0.0, "is_disabled": 0, "fusion_lat": 0.0, "bike_id": "fb415654aea47fa8feeff3e2c1cbbb48", "rental_uris": {"ios": "https://dc.lft.to/lastmile_qr_scan", "android": "https://dc.lft.to/lastmile_qr_scan"}}, {"name": "a9d76f0542a5442421de6b146c3b4d35", "type": "electric_scooter", "lat": 38.89663216666667, "is_reserved": 0, "lon": -77.011959, "fusion_lon": 0.0, "is_disabled": 0, "fusion_lat": 0.0, "bike_id": "a9d76f0542a5442421de6b146c3b4d35", "rental_uris": {"ios": "https://dc.lft.to/lastmile_qr_scan", "android": "https://dc.lft.to/lastmile_qr_scan"}}, {"name": "ba2ce69e1370f86e23873e2a8c3c515f", "type": "electric_scooter", "lat": 38.920086833333336, "is_reserved": 0, "lon": -77.03893833333333, "fusion_lon": 0.0, "is_disabled": 0, "fusion_lat": 0.0, "bike_id": "ba2ce69e1370f86e23873e2a8c3c515f", "rental_uris": {"ios": "https://dc.lft.to/lastmile_qr_scan", "android": "https://dc.lft.to/lastmile_qr_scan"}}, {"name": "8f19021244dc82005b7b030a8f0360f1", "type": "electric_scooter", "lat": 38.9007645, "is_reserved": 0, "lon": -77.05076016666666, "fusion_lon": 0.0, "is_disabled": 0, "fusion_lat": 0.0, "bike_id": "8f19021244dc82005b7b030a8f0360f1", "rental_uris": {"ios": "https://dc.lft.to/lastmile_qr_scan", "android": "https://dc.lft.to/lastmile_qr_scan"}}, {"name": "7358969730bd1b27ffed6a55b7367339", "type": "electric_scooter", "lat": 38.876880666666665, "is_reserved": 0, "lon": -77.00073883333333, "fusion_lon": 0.0, "is_disabled": 0, "fusion_lat": 0.0, "bike_id": "7358969730bd1b27ffed6a55b7367339", "rental_uris": {"ios": "https://dc.lft.to/lastmile_qr_scan", "android": "https://dc.lft.to/lastmile_qr_scan"}}, {"name": "e663acab0c39e47a8cb9274390cbd5e6", "type": "electric_scooter", "lat": 38.906160166666666, "is_reserved": 0, "lon": -77.01288433333333, "fusion_lon": 0.0, "is_disabled": 0, "fusion_lat": 0.0, "bike_id": "e663acab0c39e47a8cb9274390cbd5e6", "rental_uris": {"ios": "https://dc.lft.to/lastmile_qr_scan", "android": "https://dc.lft.to/lastmile_qr_scan"}}, {"name": "3d6d65bd7ab47d4b2deae75075e7580d", "type": "electric_scooter", "lat": 38.84297883333333, "is_reserved": 0, "lon": -76.99950749999999, "fusion_lon": 0.0, "is_disabled": 0, "fusion_lat": 0.0, "bike_id": "3d6d65bd7ab47d4b2deae75075e7580d", "rental_uris": {"ios": "https://dc.lft.to/lastmile_qr_scan", "android": "https://dc.lft.to/lastmile_qr_scan"}}, {"name": "49699b30307fa3b82dc92e796e326b2b", "type": "electric_scooter", "lat": 38.86698883333333, "is_reserved": 0, "lon": -76.98712566666667, "fusion_lon": 0.0, "is_disabled": 0, "fusion_lat": 0.0, "bike_id": "49699b30307fa3b82dc92e796e326b2b", "rental_uris": {"ios": "https://dc.lft.to/lastmile_qr_scan", "android": "https://dc.lft.to/lastmile_qr_scan"}}, {"name": "ef730a890b5f6ae28b15f4860ce4b4a8", "type": "electric_scooter", "lat": 38.89736933333333, "is_reserved": 0, "lon": -77.0131915, "fusion_lon": 0.0, "is_disabled": 0, "fusion_lat": 0.0, "bike_id": "ef730a890b5f6ae28b15f4860ce4b4a8", "rental_uris": {"ios": "https://dc.lft.to/lastmile_qr_scan", "android": "https://dc.lft.to/lastmile_qr_scan"}}, {"name": "be4abc5cc65b3744526749b7c807d781", "type": "electric_scooter", "lat": 38.914737833333334, "is_reserved": 0, "lon": -77.03213083333333, "fusion_lon": 0.0, "is_disabled": 0, "fusion_lat": 0.0, "bike_id": "be4abc5cc65b3744526749b7c807d781", "rental_uris": {"ios": "https://dc.lft.to/lastmile_qr_scan", "android": "https://dc.lft.to/lastmile_qr_scan"}}, {"name": "08baf0efaa686acd2b4cfce59f4d3f1f", "type": "electric_scooter", "lat": 38.8841175, "is_reserved": 0, "lon": -76.97603733333334, "fusion_lon": 0.0, "is_disabled": 0, "fusion_lat": 0.0, "bike_id": "08baf0efaa686acd2b4cfce59f4d3f1f", "rental_uris": {"ios": "https://dc.lft.to/lastmile_qr_scan", "android": "https://dc.lft.to/lastmile_qr_scan"}}, {"name": "b564b5b99a2a8f6cc7133453969e5c62", "type": "electric_scooter", "lat": 38.91337133333333, "is_reserved": 0, "lon": -77.031224, "fusion_lon": 0.0, "is_disabled": 0, "fusion_lat": 0.0, "bike_id": "b564b5b99a2a8f6cc7133453969e5c62", "rental_uris": {"ios": "https://dc.lft.to/lastmile_qr_scan", "android": "https://dc.lft.to/lastmile_qr_scan"}}, {"name": "56c29e885cd8f11e1fc92b7f37bdafd4", "type": "electric_scooter", "lat": 38.943147333333336, "is_reserved": 0, "lon": -77.0627275, "fusion_lon": 0.0, "is_disabled": 0, "fusion_lat": 0.0, "bike_id": "56c29e885cd8f11e1fc92b7f37bdafd4", "rental_uris": {"ios": "https://dc.lft.to/lastmile_qr_scan", "android": "https://dc.lft.to/lastmile_qr_scan"}}, {"name": "04196784a64a9da8de7690eba9cedd3f", "type": "electric_bike", "lat": 38.965363833333335, "is_reserved": 0, "lon": -77.035248, "fusion_lon": 0.0, "is_disabled": 0, "fusion_lat": 0.0, "bike_id": "04196784a64a9da8de7690eba9cedd3f", "rental_uris": {"ios": "https://dc.lft.to/lastmile_qr_scan", "android": "https://dc.lft.to/lastmile_qr_scan"}}, {"name": "f152dc04bf8b2f60cd3b30fc0e42d3f4", "type": "electric_scooter", "lat": 38.90956166666667, "is_reserved": 0, "lon": -76.98540683333333, "fusion_lon": 0.0, "is_disabled": 0, "fusion_lat": 0.0, "bike_id": "f152dc04bf8b2f60cd3b30fc0e42d3f4", "rental_uris": {"ios": "https://dc.lft.to/lastmile_qr_scan", "android": "https://dc.lft.to/lastmile_qr_scan"}}, {"name": "219529798597d5f3031a8d43cf307471", "type": "electric_scooter", "lat": 38.903150833333335, "is_reserved": 0, "lon": -77.038275, "fusion_lon": 0.0, "is_disabled": 0, "fusion_lat": 0.0, "bike_id": "219529798597d5f3031a8d43cf307471", "rental_uris": {"ios": "https://dc.lft.to/lastmile_qr_scan", "android": "https://dc.lft.to/lastmile_qr_scan"}}, {"name": "4e0aaef969a8ed6959d0eb8c1b8e8dbe", "type": "electric_scooter", "lat": 38.92303316666667, "is_reserved": 0, "lon": -76.99390333333334, "fusion_lon": 0.0, "is_disabled": 0, "fusion_lat": 0.0, "bike_id": "4e0aaef969a8ed6959d0eb8c1b8e8dbe", "rental_uris": {"ios": "https://dc.lft.to/lastmile_qr_scan", "android": "https://dc.lft.to/lastmile_qr_scan"}}, {"name": "579138dbcd5008fa3d4338cbefa5b6be", "type": "electric_scooter", "lat": 38.96988366666667, "is_reserved": 0, "lon": -77.02717983333334, "fusion_lon": 0.0, "is_disabled": 0, "fusion_lat": 0.0, "bike_id": "579138dbcd5008fa3d4338cbefa5b6be", "rental_uris": {"ios": "https://dc.lft.to/lastmile_qr_scan", "android": "https://dc.lft.to/lastmile_qr_scan"}}, {"name": "e97f6201706cd189bc56e4adbbfcfbdb", "type": "electric_scooter", "lat": 38.920252, "is_reserved": 0, "lon": -77.02600633333333, "fusion_lon": 0.0, "is_disabled": 0, "fusion_lat": 0.0, "bike_id": "e97f6201706cd189bc56e4adbbfcfbdb", "rental_uris": {"ios": "https://dc.lft.to/lastmile_qr_scan", "android": "https://dc.lft.to/lastmile_qr_scan"}}, {"name": "1d888382f7e77bab0d15327dd912dd46", "type": "electric_scooter", "lat": 38.946399166666666, "is_reserved": 0, "lon": -77.0192955, "fusion_lon": 0.0, "is_disabled": 0, "fusion_lat": 0.0, "bike_id": "1d888382f7e77bab0d15327dd912dd46", "rental_uris": {"ios": "https://dc.lft.to/lastmile_qr_scan", "android": "https://dc.lft.to/lastmile_qr_scan"}}, {"name": "dd652cfb669bbb6d0314404e34e3b683", "type": "electric_scooter", "lat": 38.866640333333336, "is_reserved": 0, "lon": -76.9888885, "fusion_lon": 0.0, "is_disabled": 0, "fusion_lat": 0.0, "bike_id": "dd652cfb669bbb6d0314404e34e3b683", "rental_uris": {"ios": "https://dc.lft.to/lastmile_qr_scan", "android": "https://dc.lft.to/lastmile_qr_scan"}}, {"name": "cd82af232bd111e9e2dc63496e5485de", "type": "electric_bike", "lat": 38.96756633333333, "is_reserved": 0, "lon": -77.02794466666667, "fusion_lon": 0.0, "is_disabled": 0, "fusion_lat": 0.0, "bike_id": "cd82af232bd111e9e2dc63496e5485de", "rental_uris": {"ios": "https://dc.lft.to/lastmile_qr_scan", "android": "https://dc.lft.to/lastmile_qr_scan"}}, {"name": "93b11b9d62d34c2137aae2729c7d75b1", "type": "electric_bike", "lat": 38.87477616666666, "is_reserved": 0, "lon": -76.96523166666667, "fusion_lon": 0.0, "is_disabled": 0, "fusion_lat": 0.0, "bike_id": "93b11b9d62d34c2137aae2729c7d75b1", "rental_uris": {"ios": "https://dc.lft.to/lastmile_qr_scan", "android": "https://dc.lft.to/lastmile_qr_scan"}}, {"name": "f0bdbcd00b79dc513de71ad129ca0579", "type": "electric_scooter", "lat": 38.915753, "is_reserved": 0, "lon": -77.04641583333333, "fusion_lon": 0.0, "is_disabled": 0, "fusion_lat": 0.0, "bike_id": "f0bdbcd00b79dc513de71ad129ca0579", "rental_uris": {"ios": "https://dc.lft.to/lastmile_qr_scan", "android": "https://dc.lft.to/lastmile_qr_scan"}}, {"name": "e20a2bbba473dc4ab14e7d1b90d43e74", "type": "electric_scooter", "lat": 38.91017766666667, "is_reserved": 0, "lon": -76.99395766666666, "fusion_lon": 0.0, "is_disabled": 0, "fusion_lat": 0.0, "bike_id": "e20a2bbba473dc4ab14e7d1b90d43e74", "rental_uris": {"ios": "https://dc.lft.to/lastmile_qr_scan", "android": "https://dc.lft.to/lastmile_qr_scan"}}, {"name": "44a54a3d1437717e001096a0a20c0382", "type": "electric_scooter", "lat": 38.91498766666667, "is_reserved": 0, "lon": -77.01862183333333, "fusion_lon": 0.0, "is_disabled": 0, "fusion_lat": 0.0, "bike_id": "44a54a3d1437717e001096a0a20c0382", "rental_uris": {"ios": "https://dc.lft.to/lastmile_qr_scan", "android": "https://dc.lft.to/lastmile_qr_scan"}}, {"name": "58361881323e175e5adb71bdcd6bfd7b", "type": "electric_scooter", "lat": 38.900607666666666, "is_reserved": 0, "lon": -77.01300983333333, "fusion_lon": 0.0, "is_disabled": 0, "fusion_lat": 0.0, "bike_id": "58361881323e175e5adb71bdcd6bfd7b", "rental_uris": {"ios": "https://dc.lft.to/lastmile_qr_scan", "android": "https://dc.lft.to/lastmile_qr_scan"}}, {"name": "a3d339c1cd80538cf7a25517bbc9f202", "type": "electric_scooter", "lat": 38.9394005, "is_reserved": 0, "lon": -77.0170665, "fusion_lon": 0.0, "is_disabled": 0, "fusion_lat": 0.0, "bike_id": "a3d339c1cd80538cf7a25517bbc9f202", "rental_uris": {"ios": "https://dc.lft.to/lastmile_qr_scan", "android": "https://dc.lft.to/lastmile_qr_scan"}}, {"name": "db34a60b31d85b7d96d224539679c022", "type": "electric_bike", "lat": 38.94278466666667, "is_reserved": 0, "lon": -76.98077516666666, "fusion_lon": 0.0, "is_disabled": 0, "fusion_lat": 0.0, "bike_id": "db34a60b31d85b7d96d224539679c022", "rental_uris": {"ios": "https://dc.lft.to/lastmile_qr_scan", "android": "https://dc.lft.to/lastmile_qr_scan"}}, {"name": "837197e7b228d14b97ca0ea23d62e0fd", "type": "electric_scooter", "lat": 38.9273705, "is_reserved": 0, "lon": -77.0299315, "fusion_lon": 0.0, "is_disabled": 0, "fusion_lat": 0.0, "bike_id": "837197e7b228d14b97ca0ea23d62e0fd", "rental_uris": {"ios": "https://dc.lft.to/lastmile_qr_scan", "android": "https://dc.lft.to/lastmile_qr_scan"}}, {"name": "15079da5b23cd46ae52cd3584f526954", "type": "electric_scooter", "lat": 38.883185166666664, "is_reserved": 0, "lon": -77.00944066666666, "fusion_lon": 0.0, "is_disabled": 0, "fusion_lat": 0.0, "bike_id": "15079da5b23cd46ae52cd3584f526954", "rental_uris": {"ios": "https://dc.lft.to/lastmile_qr_scan", "android": "https://dc.lft.to/lastmile_qr_scan"}}, {"name": "47a3c0a0e24e623fe72aefeee168f6b3", "type": "electric_scooter", "lat": 38.88452216666667, "is_reserved": 0, "lon": -77.00577166666666, "fusion_lon": 0.0, "is_disabled": 0, "fusion_lat": 0.0, "bike_id": "47a3c0a0e24e623fe72aefeee168f6b3", "rental_uris": {"ios": "https://dc.lft.to/lastmile_qr_scan", "android": "https://dc.lft.to/lastmile_qr_scan"}}, {"name": "fde0c7d39e39821ff15577b8f6a61d29", "type": "electric_scooter", "lat": 38.896230833333334, "is_reserved": 0, "lon": -77.01026133333333, "fusion_lon": 0.0, "is_disabled": 0, "fusion_lat": 0.0, "bike_id": "fde0c7d39e39821ff15577b8f6a61d29", "rental_uris": {"ios": "https://dc.lft.to/lastmile_qr_scan", "android": "https://dc.lft.to/lastmile_qr_scan"}}, {"name": "07b192bee1069fc001217cfcc42f06ba", "type": "electric_scooter", "lat": 38.920237666666665, "is_reserved": 0, "lon": -77.04400816666667, "fusion_lon": 0.0, "is_disabled": 0, "fusion_lat": 0.0, "bike_id": "07b192bee1069fc001217cfcc42f06ba", "rental_uris": {"ios": "https://dc.lft.to/lastmile_qr_scan", "android": "https://dc.lft.to/lastmile_qr_scan"}}, {"name": "6e51c37873d48a5dec54dad2ccb1e1aa", "type": "electric_scooter", "lat": 38.93448716666666, "is_reserved": 0, "lon": -77.07235283333333, "fusion_lon": 0.0, "is_disabled": 0, "fusion_lat": 0.0, "bike_id": "6e51c37873d48a5dec54dad2ccb1e1aa", "rental_uris": {"ios": "https://dc.lft.to/lastmile_qr_scan", "android": "https://dc.lft.to/lastmile_qr_scan"}}, {"name": "21b816ef4bde5e39e32974ced0cede64", "type": "electric_scooter", "lat": 38.898862, "is_reserved": 0, "lon": -76.93176816666667, "fusion_lon": 0.0, "is_disabled": 0, "fusion_lat": 0.0, "bike_id": "21b816ef4bde5e39e32974ced0cede64", "rental_uris": {"ios": "https://dc.lft.to/lastmile_qr_scan", "android": "https://dc.lft.to/lastmile_qr_scan"}}, {"name": "2973594d0ebd789d529e895df5b56fba", "type": "electric_scooter", "lat": 38.92880666666667, "is_reserved": 0, "lon": -77.0373645, "fusion_lon": 0.0, "is_disabled": 0, "fusion_lat": 0.0, "bike_id": "2973594d0ebd789d529e895df5b56fba", "rental_uris": {"ios": "https://dc.lft.to/lastmile_qr_scan", "android": "https://dc.lft.to/lastmile_qr_scan"}}, {"name": "3119c1df9bdb267d152eddc92626aed0", "type": "electric_bike", "lat": 38.898873, "is_reserved": 0, "lon": -76.983924, "fusion_lon": 0.0, "is_disabled": 0, "fusion_lat": 0.0, "bike_id": "3119c1df9bdb267d152eddc92626aed0", "rental_uris": {"ios": "https://dc.lft.to/lastmile_qr_scan", "android": "https://dc.lft.to/lastmile_qr_scan"}}, {"name": "409d428df2b4853b837404b66e1f43ec", "type": "electric_scooter", "lat": 38.89403166666666, "is_reserved": 0, "lon": -76.99363516666666, "fusion_lon": 0.0, "is_disabled": 0, "fusion_lat": 0.0, "bike_id": "409d428df2b4853b837404b66e1f43ec", "rental_uris": {"ios": "https://dc.lft.to/lastmile_qr_scan", "android": "https://dc.lft.to/lastmile_qr_scan"}}, {"name": "ec642afd7cadb0cd65592b3e6b73ca10", "type": "electric_scooter", "lat": 38.90527133333333, "is_reserved": 0, "lon": -77.06630783333334, "fusion_lon": 0.0, "is_disabled": 0, "fusion_lat": 0.0, "bike_id": "ec642afd7cadb0cd65592b3e6b73ca10", "rental_uris": {"ios": "https://dc.lft.to/lastmile_qr_scan", "android": "https://dc.lft.to/lastmile_qr_scan"}}, {"name": "ac5570cee55c12fdfbe433520cb67c9a", "type": "electric_scooter", "lat": 38.91920433333333, "is_reserved": 0, "lon": -77.03433483333333, "fusion_lon": 0.0, "is_disabled": 0, "fusion_lat": 0.0, "bike_id": "ac5570cee55c12fdfbe433520cb67c9a", "rental_uris": {"ios": "https://dc.lft.to/lastmile_qr_scan", "android": "https://dc.lft.to/lastmile_qr_scan"}}, {"name": "ac48b5cf1a1aa31a4d115bcd0f5d909b", "type": "electric_scooter", "lat": 38.903013333333334, "is_reserved": 0, "lon": -77.03984133333333, "fusion_lon": 0.0, "is_disabled": 0, "fusion_lat": 0.0, "bike_id": "ac48b5cf1a1aa31a4d115bcd0f5d909b", "rental_uris": {"ios": "https://dc.lft.to/lastmile_qr_scan", "android": "https://dc.lft.to/lastmile_qr_scan"}}, {"name": "d68758eaf170d087b0fd27a7213af7fe", "type": "electric_scooter", "lat": 38.936176, "is_reserved": 0, "lon": -77.03217166666667, "fusion_lon": 0.0, "is_disabled": 0, "fusion_lat": 0.0, "bike_id": "d68758eaf170d087b0fd27a7213af7fe", "rental_uris": {"ios": "https://dc.lft.to/lastmile_qr_scan", "android": "https://dc.lft.to/lastmile_qr_scan"}}, {"name": "8aac6488992f1ec5ae5b1355b60f2ec5", "type": "electric_scooter", "lat": 38.9170345, "is_reserved": 0, "lon": -77.03348333333334, "fusion_lon": 0.0, "is_disabled": 0, "fusion_lat": 0.0, "bike_id": "8aac6488992f1ec5ae5b1355b60f2ec5", "rental_uris": {"ios": "https://dc.lft.to/lastmile_qr_scan", "android": "https://dc.lft.to/lastmile_qr_scan"}}, {"name": "5bc1b181226d3b7b2aba51347ee4a3d3", "type": "electric_scooter", "lat": 38.9334975, "is_reserved": 0, "lon": -77.0586715, "fusion_lon": 0.0, "is_disabled": 0, "fusion_lat": 0.0, "bike_id": "5bc1b181226d3b7b2aba51347ee4a3d3", "rental_uris": {"ios": "https://dc.lft.to/lastmile_qr_scan", "android": "https://dc.lft.to/lastmile_qr_scan"}}, {"name": "77bbb6d61a3a307acabd97a657815230", "type": "electric_scooter", "lat": 38.9129685, "is_reserved": 0, "lon": -77.06118216666667, "fusion_lon": 0.0, "is_disabled": 0, "fusion_lat": 0.0, "bike_id": "77bbb6d61a3a307acabd97a657815230", "rental_uris": {"ios": "https://dc.lft.to/lastmile_qr_scan", "android": "https://dc.lft.to/lastmile_qr_scan"}}, {"name": "bc01e3119c19eb8fed4211986e005e83", "type": "electric_scooter", "lat": 38.9209455, "is_reserved": 0, "lon": -77.02599883333333, "fusion_lon": 0.0, "is_disabled": 0, "fusion_lat": 0.0, "bike_id": "bc01e3119c19eb8fed4211986e005e83", "rental_uris": {"ios": "https://dc.lft.to/lastmile_qr_scan", "android": "https://dc.lft.to/lastmile_qr_scan"}}, {"name": "6f841c90fd99f5d9c09e3593cde8c473", "type": "electric_scooter", "lat": 38.864379666666665, "is_reserved": 0, "lon": -76.9800865, "fusion_lon": 0.0, "is_disabled": 0, "fusion_lat": 0.0, "bike_id": "6f841c90fd99f5d9c09e3593cde8c473", "rental_uris": {"ios": "https://dc.lft.to/lastmile_qr_scan", "android": "https://dc.lft.to/lastmile_qr_scan"}}, {"name": "7125560e0120f0710e3943ae197c79b5", "type": "electric_scooter", "lat": 38.8952685, "is_reserved": 0, "lon": -76.9914985, "fusion_lon": 0.0, "is_disabled": 0, "fusion_lat": 0.0, "bike_id": "7125560e0120f0710e3943ae197c79b5", "rental_uris": {"ios": "https://dc.lft.to/lastmile_qr_scan", "android": "https://dc.lft.to/lastmile_qr_scan"}}, {"name": "5a3d94b985f7e2917b3677a5a36dde54", "type": "electric_scooter", "lat": 38.94210966666667, "is_reserved": 0, "lon": -77.03590433333333, "fusion_lon": 0.0, "is_disabled": 0, "fusion_lat": 0.0, "bike_id": "5a3d94b985f7e2917b3677a5a36dde54", "rental_uris": {"ios": "https://dc.lft.to/lastmile_qr_scan", "android": "https://dc.lft.to/lastmile_qr_scan"}}, {"name": "14abc4c345ea760870c11032de528598", "type": "electric_scooter", "lat": 38.90370216666667, "is_reserved": 0, "lon": -77.04005783333334, "fusion_lon": 0.0, "is_disabled": 0, "fusion_lat": 0.0, "bike_id": "14abc4c345ea760870c11032de528598", "rental_uris": {"ios": "https://dc.lft.to/lastmile_qr_scan", "android": "https://dc.lft.to/lastmile_qr_scan"}}, {"name": "32a6b7efd144509f172b19092df803e5", "type": "electric_scooter", "lat": 38.92122216666667, "is_reserved": 0, "lon": -77.036527, "fusion_lon": 0.0, "is_disabled": 0, "fusion_lat": 0.0, "bike_id": "32a6b7efd144509f172b19092df803e5", "rental_uris": {"ios": "https://dc.lft.to/lastmile_qr_scan", "android": "https://dc.lft.to/lastmile_qr_scan"}}, {"name": "8e7c2da9f22f2cc7597e003983ef86f2", "type": "electric_scooter", "lat": 38.90264366666667, "is_reserved": 0, "lon": -77.017394, "fusion_lon": 0.0, "is_disabled": 0, "fusion_lat": 0.0, "bike_id": "8e7c2da9f22f2cc7597e003983ef86f2", "rental_uris": {"ios": "https://dc.lft.to/lastmile_qr_scan", "android": "https://dc.lft.to/lastmile_qr_scan"}}, {"name": "8b98de29005687f0cd9b6d7652dc426f", "type": "electric_bike", "lat": 38.87677266666667, "is_reserved": 0, "lon": -77.0144345, "fusion_lon": 0.0, "is_disabled": 0, "fusion_lat": 0.0, "bike_id": "8b98de29005687f0cd9b6d7652dc426f", "rental_uris": {"ios": "https://dc.lft.to/lastmile_qr_scan", "android": "https://dc.lft.to/lastmile_qr_scan"}}, {"name": "7d138adaaed202bf8b218fa3b8b1fe88", "type": "electric_bike", "lat": 38.9358155, "is_reserved": 0, "lon": -77.02127633333333, "fusion_lon": 0.0, "is_disabled": 0, "fusion_lat": 0.0, "bike_id": "7d138adaaed202bf8b218fa3b8b1fe88", "rental_uris": {"ios": "https://dc.lft.to/lastmile_qr_scan", "android": "https://dc.lft.to/lastmile_qr_scan"}}, {"name": "24644fbdfb5c6f428a740b7c17a99e81", "type": "electric_scooter", "lat": 38.863556, "is_reserved": 0, "lon": -76.9907725, "fusion_lon": 0.0, "is_disabled": 0, "fusion_lat": 0.0, "bike_id": "24644fbdfb5c6f428a740b7c17a99e81", "rental_uris": {"ios": "https://dc.lft.to/lastmile_qr_scan", "android": "https://dc.lft.to/lastmile_qr_scan"}}, {"name": "1761c99d9bb9734c4a968f4a952172e3", "type": "electric_scooter", "lat": 38.90665083333333, "is_reserved": 0, "lon": -77.0386645, "fusion_lon": 0.0, "is_disabled": 0, "fusion_lat": 0.0, "bike_id": "1761c99d9bb9734c4a968f4a952172e3", "rental_uris": {"ios": "https://dc.lft.to/lastmile_qr_scan", "android": "https://dc.lft.to/lastmile_qr_scan"}}, {"name": "7dc655b9facd84d4ae498f0820e9a75e", "type": "electric_scooter", "lat": 38.9076035, "is_reserved": 0, "lon": -77.03091883333333, "fusion_lon": 0.0, "is_disabled": 0, "fusion_lat": 0.0, "bike_id": "7dc655b9facd84d4ae498f0820e9a75e", "rental_uris": {"ios": "https://dc.lft.to/lastmile_qr_scan", "android": "https://dc.lft.to/lastmile_qr_scan"}}, {"name": "ba90f3aa50c91203257f021ec9a4c345", "type": "electric_scooter", "lat": 38.900261, "is_reserved": 0, "lon": -76.998143, "fusion_lon": 0.0, "is_disabled": 0, "fusion_lat": 0.0, "bike_id": "ba90f3aa50c91203257f021ec9a4c345", "rental_uris": {"ios": "https://dc.lft.to/lastmile_qr_scan", "android": "https://dc.lft.to/lastmile_qr_scan"}}, {"name": "706177e8bafe5d464c3a7f41766dd1af", "type": "electric_scooter", "lat": 38.91346816666667, "is_reserved": 0, "lon": -77.04836416666667, "fusion_lon": 0.0, "is_disabled": 0, "fusion_lat": 0.0, "bike_id": "706177e8bafe5d464c3a7f41766dd1af", "rental_uris": {"ios": "https://dc.lft.to/lastmile_qr_scan", "android": "https://dc.lft.to/lastmile_qr_scan"}}, {"name": "d5c4a673a44376302b37b1385a2f22af", "type": "electric_scooter", "lat": 38.940485833333334, "is_reserved": 0, "lon": -77.02712283333334, "fusion_lon": 0.0, "is_disabled": 0, "fusion_lat": 0.0, "bike_id": "d5c4a673a44376302b37b1385a2f22af", "rental_uris": {"ios": "https://dc.lft.to/lastmile_qr_scan", "android": "https://dc.lft.to/lastmile_qr_scan"}}, {"name": "9e89e6d69740fb74bebfd4611e87b3ed", "type": "electric_scooter", "lat": 38.90113016666667, "is_reserved": 0, "lon": -77.04986716666667, "fusion_lon": 0.0, "is_disabled": 0, "fusion_lat": 0.0, "bike_id": "9e89e6d69740fb74bebfd4611e87b3ed", "rental_uris": {"ios": "https://dc.lft.to/lastmile_qr_scan", "android": "https://dc.lft.to/lastmile_qr_scan"}}, {"name": "e21306f36c4e6d2c0e8d9a0c9a4c21a0", "type": "electric_scooter", "lat": 38.902677, "is_reserved": 0, "lon": -77.01785183333334, "fusion_lon": 0.0, "is_disabled": 0, "fusion_lat": 0.0, "bike_id": "e21306f36c4e6d2c0e8d9a0c9a4c21a0", "rental_uris": {"ios": "https://dc.lft.to/lastmile_qr_scan", "android": "https://dc.lft.to/lastmile_qr_scan"}}, {"name": "24b18036228189891cabf892c4e5662f", "type": "electric_scooter", "lat": 38.87838166666667, "is_reserved": 0, "lon": -76.98842916666666, "fusion_lon": 0.0, "is_disabled": 0, "fusion_lat": 0.0, "bike_id": "24b18036228189891cabf892c4e5662f", "rental_uris": {"ios": "https://dc.lft.to/lastmile_qr_scan", "android": "https://dc.lft.to/lastmile_qr_scan"}}, {"name": "05a7210a0da7ccc76de0f846fa09d56f", "type": "electric_scooter", "lat": 38.914766, "is_reserved": 0, "lon": -77.02182233333333, "fusion_lon": 0.0, "is_disabled": 0, "fusion_lat": 0.0, "bike_id": "05a7210a0da7ccc76de0f846fa09d56f", "rental_uris": {"ios": "https://dc.lft.to/lastmile_qr_scan", "android": "https://dc.lft.to/lastmile_qr_scan"}}, {"name": "da0134e69b4d8b07e6acc1fb39da0690", "type": "electric_scooter", "lat": 38.92039333333334, "is_reserved": 0, "lon": -77.04174383333333, "fusion_lon": 0.0, "is_disabled": 0, "fusion_lat": 0.0, "bike_id": "da0134e69b4d8b07e6acc1fb39da0690", "rental_uris": {"ios": "https://dc.lft.to/lastmile_qr_scan", "android": "https://dc.lft.to/lastmile_qr_scan"}}, {"name": "84ac408264dae90a36243beee89d5598", "type": "electric_scooter", "lat": 38.8922675, "is_reserved": 0, "lon": -77.04866833333334, "fusion_lon": 0.0, "is_disabled": 0, "fusion_lat": 0.0, "bike_id": "84ac408264dae90a36243beee89d5598", "rental_uris": {"ios": "https://dc.lft.to/lastmile_qr_scan", "android": "https://dc.lft.to/lastmile_qr_scan"}}, {"name": "6264b7778fccb49f32b78dac838209de", "type": "electric_scooter", "lat": 38.880536, "is_reserved": 0, "lon": -77.01333816666667, "fusion_lon": 0.0, "is_disabled": 0, "fusion_lat": 0.0, "bike_id": "6264b7778fccb49f32b78dac838209de", "rental_uris": {"ios": "https://dc.lft.to/lastmile_qr_scan", "android": "https://dc.lft.to/lastmile_qr_scan"}}, {"name": "05626650653165a8a43e7e0d262f02a4", "type": "electric_scooter", "lat": 38.898840166666666, "is_reserved": 0, "lon": -76.931722, "fusion_lon": 0.0, "is_disabled": 0, "fusion_lat": 0.0, "bike_id": "05626650653165a8a43e7e0d262f02a4", "rental_uris": {"ios": "https://dc.lft.to/lastmile_qr_scan", "android": "https://dc.lft.to/lastmile_qr_scan"}}, {"name": "43cf1eb0c78d0f739359f7a9f42f83f2", "type": "electric_scooter", "lat": 38.90267716666666, "is_reserved": 0, "lon": -77.03631766666666, "fusion_lon": 0.0, "is_disabled": 0, "fusion_lat": 0.0, "bike_id": "43cf1eb0c78d0f739359f7a9f42f83f2", "rental_uris": {"ios": "https://dc.lft.to/lastmile_qr_scan", "android": "https://dc.lft.to/lastmile_qr_scan"}}, {"name": "e0bb97a5da52c1017c20cc3fb68cd2fc", "type": "electric_scooter", "lat": 38.917169333333334, "is_reserved": 0, "lon": -77.03857533333333, "fusion_lon": 0.0, "is_disabled": 0, "fusion_lat": 0.0, "bike_id": "e0bb97a5da52c1017c20cc3fb68cd2fc", "rental_uris": {"ios": "https://dc.lft.to/lastmile_qr_scan", "android": "https://dc.lft.to/lastmile_qr_scan"}}, {"name": "d08f2c14a8dea371dcd1929bd6170b73", "type": "electric_scooter", "lat": 38.904034833333334, "is_reserved": 0, "lon": -77.04035016666667, "fusion_lon": 0.0, "is_disabled": 0, "fusion_lat": 0.0, "bike_id": "d08f2c14a8dea371dcd1929bd6170b73", "rental_uris": {"ios": "https://dc.lft.to/lastmile_qr_scan", "android": "https://dc.lft.to/lastmile_qr_scan"}}, {"name": "fea33e3deab957a2da287ed801ecd5a4", "type": "electric_scooter", "lat": 38.949955333333335, "is_reserved": 0, "lon": -77.06691533333333, "fusion_lon": 0.0, "is_disabled": 0, "fusion_lat": 0.0, "bike_id": "fea33e3deab957a2da287ed801ecd5a4", "rental_uris": {"ios": "https://dc.lft.to/lastmile_qr_scan", "android": "https://dc.lft.to/lastmile_qr_scan"}}, {"name": "a2f143f420ed7ffd79de4cbaae28a364", "type": "electric_scooter", "lat": 38.9170205, "is_reserved": 0, "lon": -77.008156, "fusion_lon": 0.0, "is_disabled": 0, "fusion_lat": 0.0, "bike_id": "a2f143f420ed7ffd79de4cbaae28a364", "rental_uris": {"ios": "https://dc.lft.to/lastmile_qr_scan", "android": "https://dc.lft.to/lastmile_qr_scan"}}, {"name": "4850bfb2d81e11f6c0f4446daa98c66f", "type": "electric_scooter", "lat": 38.89475, "is_reserved": 0, "lon": -76.9860085, "fusion_lon": 0.0, "is_disabled": 0, "fusion_lat": 0.0, "bike_id": "4850bfb2d81e11f6c0f4446daa98c66f", "rental_uris": {"ios": "https://dc.lft.to/lastmile_qr_scan", "android": "https://dc.lft.to/lastmile_qr_scan"}}, {"name": "6a26adb9211dc9b66002962bfb79a439", "type": "electric_bike", "lat": 38.85063916666667, "is_reserved": 0, "lon": -76.97332033333333, "fusion_lon": 0.0, "is_disabled": 0, "fusion_lat": 0.0, "bike_id": "6a26adb9211dc9b66002962bfb79a439", "rental_uris": {"ios": "https://dc.lft.to/lastmile_qr_scan", "android": "https://dc.lft.to/lastmile_qr_scan"}}, {"name": "fb0a7a9950fb02d1a11ed9d039fe3f8f", "type": "electric_scooter", "lat": 38.93100166666667, "is_reserved": 0, "lon": -77.02511066666666, "fusion_lon": 0.0, "is_disabled": 0, "fusion_lat": 0.0, "bike_id": "fb0a7a9950fb02d1a11ed9d039fe3f8f", "rental_uris": {"ios": "https://dc.lft.to/lastmile_qr_scan", "android": "https://dc.lft.to/lastmile_qr_scan"}}, {"name": "2005e8a6d91137cac34eec1ffe90a110", "type": "electric_scooter", "lat": 38.907315833333335, "is_reserved": 0, "lon": -76.98604816666666, "fusion_lon": 0.0, "is_disabled": 0, "fusion_lat": 0.0, "bike_id": "2005e8a6d91137cac34eec1ffe90a110", "rental_uris": {"ios": "https://dc.lft.to/lastmile_qr_scan", "android": "https://dc.lft.to/lastmile_qr_scan"}}, {"name": "e6bd4e1755cd0ab166e0364c18fe618b", "type": "electric_scooter", "lat": 38.90371066666667, "is_reserved": 0, "lon": -77.04478816666666, "fusion_lon": 0.0, "is_disabled": 0, "fusion_lat": 0.0, "bike_id": "e6bd4e1755cd0ab166e0364c18fe618b", "rental_uris": {"ios": "https://dc.lft.to/lastmile_qr_scan", "android": "https://dc.lft.to/lastmile_qr_scan"}}, {"name": "778bee36182fe4fb7fe919e4bedd9e71", "type": "electric_scooter", "lat": 38.942487, "is_reserved": 0, "lon": -77.02174533333333, "fusion_lon": 0.0, "is_disabled": 0, "fusion_lat": 0.0, "bike_id": "778bee36182fe4fb7fe919e4bedd9e71", "rental_uris": {"ios": "https://dc.lft.to/lastmile_qr_scan", "android": "https://dc.lft.to/lastmile_qr_scan"}}, {"name": "8bcac1d35f0511bcd8f4c67cdd138391", "type": "electric_scooter", "lat": 38.95106766666667, "is_reserved": 0, "lon": -77.015796, "fusion_lon": 0.0, "is_disabled": 0, "fusion_lat": 0.0, "bike_id": "8bcac1d35f0511bcd8f4c67cdd138391", "rental_uris": {"ios": "https://dc.lft.to/lastmile_qr_scan", "android": "https://dc.lft.to/lastmile_qr_scan"}}, {"name": "8c3e8fbd1b8dc55df4d24d34f993d108", "type": "electric_scooter", "lat": 38.913476, "is_reserved": 0, "lon": -77.0208795, "fusion_lon": 0.0, "is_disabled": 0, "fusion_lat": 0.0, "bike_id": "8c3e8fbd1b8dc55df4d24d34f993d108", "rental_uris": {"ios": "https://dc.lft.to/lastmile_qr_scan", "android": "https://dc.lft.to/lastmile_qr_scan"}}, {"name": "d4c2aa80eebeb886b58e33b9eb8464da", "type": "electric_scooter", "lat": 38.94015783333333, "is_reserved": 0, "lon": -77.07177066666667, "fusion_lon": 0.0, "is_disabled": 0, "fusion_lat": 0.0, "bike_id": "d4c2aa80eebeb886b58e33b9eb8464da", "rental_uris": {"ios": "https://dc.lft.to/lastmile_qr_scan", "android": "https://dc.lft.to/lastmile_qr_scan"}}, {"name": "3497b71d256e759f5d33b7851049cf1e", "type": "electric_scooter", "lat": 38.9573465, "is_reserved": 0, "lon": -77.0240575, "fusion_lon": 0.0, "is_disabled": 0, "fusion_lat": 0.0, "bike_id": "3497b71d256e759f5d33b7851049cf1e", "rental_uris": {"ios": "https://dc.lft.to/lastmile_qr_scan", "android": "https://dc.lft.to/lastmile_qr_scan"}}, {"name": "3868117ac0741b10ef0727b1a7495265", "type": "electric_scooter", "lat": 38.906560166666665, "is_reserved": 0, "lon": -77.04302183333333, "fusion_lon": 0.0, "is_disabled": 0, "fusion_lat": 0.0, "bike_id": "3868117ac0741b10ef0727b1a7495265", "rental_uris": {"ios": "https://dc.lft.to/lastmile_qr_scan", "android": "https://dc.lft.to/lastmile_qr_scan"}}, {"name": "ae1d1ac0cc045d2fb8e1e7085c9f6bf2", "type": "electric_bike", "lat": 38.88405316666667, "is_reserved": 0, "lon": -77.046462, "fusion_lon": 0.0, "is_disabled": 0, "fusion_lat": 0.0, "bike_id": "ae1d1ac0cc045d2fb8e1e7085c9f6bf2", "rental_uris": {"ios": "https://dc.lft.to/lastmile_qr_scan", "android": "https://dc.lft.to/lastmile_qr_scan"}}, {"name": "07ccb13db1041fe5911e035ec5bbfd7a", "type": "electric_scooter", "lat": 38.94326516666667, "is_reserved": 0, "lon": -77.0594025, "fusion_lon": 0.0, "is_disabled": 0, "fusion_lat": 0.0, "bike_id": "07ccb13db1041fe5911e035ec5bbfd7a", "rental_uris": {"ios": "https://dc.lft.to/lastmile_qr_scan", "android": "https://dc.lft.to/lastmile_qr_scan"}}, {"name": "2e14bd55b18569083ab62796fc9e561c", "type": "electric_scooter", "lat": 38.865773833333336, "is_reserved": 0, "lon": -76.98949483333334, "fusion_lon": 0.0, "is_disabled": 0, "fusion_lat": 0.0, "bike_id": "2e14bd55b18569083ab62796fc9e561c", "rental_uris": {"ios": "https://dc.lft.to/lastmile_qr_scan", "android": "https://dc.lft.to/lastmile_qr_scan"}}, {"name": "bc17e4ef9b58e85f3da758a35fe72581", "type": "electric_scooter", "lat": 38.930682166666664, "is_reserved": 0, "lon": -77.03946933333333, "fusion_lon": 0.0, "is_disabled": 0, "fusion_lat": 0.0, "bike_id": "bc17e4ef9b58e85f3da758a35fe72581", "rental_uris": {"ios": "https://dc.lft.to/lastmile_qr_scan", "android": "https://dc.lft.to/lastmile_qr_scan"}}, {"name": "7a160382e732f8a5b8772838ba339fe0", "type": "electric_bike", "lat": 38.851599666666665, "is_reserved": 0, "lon": -77.12881216666666, "fusion_lon": 0.0, "is_disabled": 0, "fusion_lat": 0.0, "bike_id": "7a160382e732f8a5b8772838ba339fe0", "rental_uris": {"ios": "https://dc.lft.to/lastmile_qr_scan", "android": "https://dc.lft.to/lastmile_qr_scan"}}, {"name": "f63cda77d05b63f100aa9d7fe309f405", "type": "electric_scooter", "lat": 38.899192666666664, "is_reserved": 0, "lon": -76.9338655, "fusion_lon": 0.0, "is_disabled": 0, "fusion_lat": 0.0, "bike_id": "f63cda77d05b63f100aa9d7fe309f405", "rental_uris": {"ios": "https://dc.lft.to/lastmile_qr_scan", "android": "https://dc.lft.to/lastmile_qr_scan"}}, {"name": "9fbfee4f4f7483ef0841d208877f6209", "type": "electric_scooter", "lat": 38.93095316666667, "is_reserved": 0, "lon": -77.036781, "fusion_lon": 0.0, "is_disabled": 0, "fusion_lat": 0.0, "bike_id": "9fbfee4f4f7483ef0841d208877f6209", "rental_uris": {"ios": "https://dc.lft.to/lastmile_qr_scan", "android": "https://dc.lft.to/lastmile_qr_scan"}}, {"name": "4473ac9f31ef67dc884ce2783fa13264", "type": "electric_scooter", "lat": 38.924889666666665, "is_reserved": 0, "lon": -77.0271595, "fusion_lon": 0.0, "is_disabled": 0, "fusion_lat": 0.0, "bike_id": "4473ac9f31ef67dc884ce2783fa13264", "rental_uris": {"ios": "https://dc.lft.to/lastmile_qr_scan", "android": "https://dc.lft.to/lastmile_qr_scan"}}, {"name": "7664c3e2b7478601ef8594a5e30e144d", "type": "electric_bike", "lat": 38.91185316666667, "is_reserved": 0, "lon": -77.00284616666667, "fusion_lon": 0.0, "is_disabled": 0, "fusion_lat": 0.0, "bike_id": "7664c3e2b7478601ef8594a5e30e144d", "rental_uris": {"ios": "https://dc.lft.to/lastmile_qr_scan", "android": "https://dc.lft.to/lastmile_qr_scan"}}, {"name": "110f11e9ba7d69b3480c621f5f8756f3", "type": "electric_scooter", "lat": 38.95735633333334, "is_reserved": 0, "lon": -77.02401233333333, "fusion_lon": 0.0, "is_disabled": 0, "fusion_lat": 0.0, "bike_id": "110f11e9ba7d69b3480c621f5f8756f3", "rental_uris": {"ios": "https://dc.lft.to/lastmile_qr_scan", "android": "https://dc.lft.to/lastmile_qr_scan"}}, {"name": "8d8b1355e83af67faded776c3c552648", "type": "electric_scooter", "lat": 38.9223955, "is_reserved": 0, "lon": -77.04617033333334, "fusion_lon": 0.0, "is_disabled": 0, "fusion_lat": 0.0, "bike_id": "8d8b1355e83af67faded776c3c552648", "rental_uris": {"ios": "https://dc.lft.to/lastmile_qr_scan", "android": "https://dc.lft.to/lastmile_qr_scan"}}, {"name": "0103d84eed91c266d68e401b9765b368", "type": "electric_scooter", "lat": 38.902484, "is_reserved": 0, "lon": -76.979336, "fusion_lon": 0.0, "is_disabled": 0, "fusion_lat": 0.0, "bike_id": "0103d84eed91c266d68e401b9765b368", "rental_uris": {"ios": "https://dc.lft.to/lastmile_qr_scan", "android": "https://dc.lft.to/lastmile_qr_scan"}}, {"name": "99615c6f3e184ce09c68252b104715bf", "type": "electric_scooter", "lat": 38.89472133333334, "is_reserved": 0, "lon": -76.98404033333334, "fusion_lon": 0.0, "is_disabled": 0, "fusion_lat": 0.0, "bike_id": "99615c6f3e184ce09c68252b104715bf", "rental_uris": {"ios": "https://dc.lft.to/lastmile_qr_scan", "android": "https://dc.lft.to/lastmile_qr_scan"}}, {"name": "38927d96ca248a5d8907f995d62c7886", "type": "electric_scooter", "lat": 38.901286666666664, "is_reserved": 0, "lon": -77.04472916666667, "fusion_lon": 0.0, "is_disabled": 0, "fusion_lat": 0.0, "bike_id": "38927d96ca248a5d8907f995d62c7886", "rental_uris": {"ios": "https://dc.lft.to/lastmile_qr_scan", "android": "https://dc.lft.to/lastmile_qr_scan"}}, {"name": "99b64e492d591f61460f91da0d6dd1fd", "type": "electric_scooter", "lat": 38.91100083333333, "is_reserved": 0, "lon": -77.0366475, "fusion_lon": 0.0, "is_disabled": 0, "fusion_lat": 0.0, "bike_id": "99b64e492d591f61460f91da0d6dd1fd", "rental_uris": {"ios": "https://dc.lft.to/lastmile_qr_scan", "android": "https://dc.lft.to/lastmile_qr_scan"}}, {"name": "eeeecd290ea27a62d87c2b6e09a547fc", "type": "electric_scooter", "lat": 38.905549666666666, "is_reserved": 0, "lon": -77.022041, "fusion_lon": 0.0, "is_disabled": 0, "fusion_lat": 0.0, "bike_id": "eeeecd290ea27a62d87c2b6e09a547fc", "rental_uris": {"ios": "https://dc.lft.to/lastmile_qr_scan", "android": "https://dc.lft.to/lastmile_qr_scan"}}, {"name": "ee29bda09f724a2d8c5a431c7601aea8", "type": "electric_bike", "lat": 38.822315, "is_reserved": 0, "lon": -77.10454183333333, "fusion_lon": 0.0, "is_disabled": 0, "fusion_lat": 0.0, "bike_id": "ee29bda09f724a2d8c5a431c7601aea8", "rental_uris": {"ios": "https://dc.lft.to/lastmile_qr_scan", "android": "https://dc.lft.to/lastmile_qr_scan"}}, {"name": "6987ac1820a51489cae65cfebb9c9026", "type": "electric_scooter", "lat": 38.86665716666667, "is_reserved": 0, "lon": -76.98889016666666, "fusion_lon": 0.0, "is_disabled": 0, "fusion_lat": 0.0, "bike_id": "6987ac1820a51489cae65cfebb9c9026", "rental_uris": {"ios": "https://dc.lft.to/lastmile_qr_scan", "android": "https://dc.lft.to/lastmile_qr_scan"}}, {"name": "30d2ec59a64f848eee3745916369f963", "type": "electric_scooter", "lat": 38.924779, "is_reserved": 0, "lon": -77.03914433333334, "fusion_lon": 0.0, "is_disabled": 0, "fusion_lat": 0.0, "bike_id": "30d2ec59a64f848eee3745916369f963", "rental_uris": {"ios": "https://dc.lft.to/lastmile_qr_scan", "android": "https://dc.lft.to/lastmile_qr_scan"}}, {"name": "9443a3b542e72ec80d3a2af4d4118195", "type": "electric_scooter", "lat": 38.8580465, "is_reserved": 0, "lon": -76.99121733333334, "fusion_lon": 0.0, "is_disabled": 0, "fusion_lat": 0.0, "bike_id": "9443a3b542e72ec80d3a2af4d4118195", "rental_uris": {"ios": "https://dc.lft.to/lastmile_qr_scan", "android": "https://dc.lft.to/lastmile_qr_scan"}}, {"name": "e218f251bd8d67bc2d635fd84a6e612d", "type": "electric_scooter", "lat": 38.91662633333333, "is_reserved": 0, "lon": -77.02330966666666, "fusion_lon": 0.0, "is_disabled": 0, "fusion_lat": 0.0, "bike_id": "e218f251bd8d67bc2d635fd84a6e612d", "rental_uris": {"ios": "https://dc.lft.to/lastmile_qr_scan", "android": "https://dc.lft.to/lastmile_qr_scan"}}, {"name": "a99c1b343909cf972453b77a81071cdc", "type": "electric_scooter", "lat": 38.9566425, "is_reserved": 0, "lon": -77.03305383333333, "fusion_lon": 0.0, "is_disabled": 0, "fusion_lat": 0.0, "bike_id": "a99c1b343909cf972453b77a81071cdc", "rental_uris": {"ios": "https://dc.lft.to/lastmile_qr_scan", "android": "https://dc.lft.to/lastmile_qr_scan"}}, {"name": "15072f7519a46d9314545fad559e5abf", "type": "electric_bike", "lat": 39.00388433333333, "is_reserved": 0, "lon": -77.01297316666667, "fusion_lon": 0.0, "is_disabled": 0, "fusion_lat": 0.0, "bike_id": "15072f7519a46d9314545fad559e5abf", "rental_uris": {"ios": "https://dc.lft.to/lastmile_qr_scan", "android": "https://dc.lft.to/lastmile_qr_scan"}}, {"name": "4695f1cad6964d5cc6cb7ceb9af4e926", "type": "electric_bike", "lat": 38.82789416666667, "is_reserved": 0, "lon": -77.00925116666667, "fusion_lon": 0.0, "is_disabled": 0, "fusion_lat": 0.0, "bike_id": "4695f1cad6964d5cc6cb7ceb9af4e926", "rental_uris": {"ios": "https://dc.lft.to/lastmile_qr_scan", "android": "https://dc.lft.to/lastmile_qr_scan"}}, {"name": "550ea4908bc7e4c5df34989826c3a272", "type": "electric_scooter", "lat": 38.93458533333333, "is_reserved": 0, "lon": -77.07297183333333, "fusion_lon": 0.0, "is_disabled": 0, "fusion_lat": 0.0, "bike_id": "550ea4908bc7e4c5df34989826c3a272", "rental_uris": {"ios": "https://dc.lft.to/lastmile_qr_scan", "android": "https://dc.lft.to/lastmile_qr_scan"}}, {"name": "cc312ce20f9e68f0d70be4bcb3b560eb", "type": "electric_scooter", "lat": 38.918851833333335, "is_reserved": 0, "lon": -77.034659, "fusion_lon": 0.0, "is_disabled": 0, "fusion_lat": 0.0, "bike_id": "cc312ce20f9e68f0d70be4bcb3b560eb", "rental_uris": {"ios": "https://dc.lft.to/lastmile_qr_scan", "android": "https://dc.lft.to/lastmile_qr_scan"}}, {"name": "129e45517f377bc498fb86f18408b018", "type": "electric_scooter", "lat": 38.90038083333334, "is_reserved": 0, "lon": -76.98840116666666, "fusion_lon": 0.0, "is_disabled": 0, "fusion_lat": 0.0, "bike_id": "129e45517f377bc498fb86f18408b018", "rental_uris": {"ios": "https://dc.lft.to/lastmile_qr_scan", "android": "https://dc.lft.to/lastmile_qr_scan"}}, {"name": "e16c59cf8fc29dacc18f7f73de1fa3ae", "type": "electric_bike", "lat": 38.807831666666665, "is_reserved": 0, "lon": -77.12958233333333, "fusion_lon": 0.0, "is_disabled": 0, "fusion_lat": 0.0, "bike_id": "e16c59cf8fc29dacc18f7f73de1fa3ae", "rental_uris": {"ios": "https://dc.lft.to/lastmile_qr_scan", "android": "https://dc.lft.to/lastmile_qr_scan"}}, {"name": "344631e9eacae0794fc39732b07001a7", "type": "electric_scooter", "lat": 38.90261533333333, "is_reserved": 0, "lon": -77.03831883333334, "fusion_lon": 0.0, "is_disabled": 0, "fusion_lat": 0.0, "bike_id": "344631e9eacae0794fc39732b07001a7", "rental_uris": {"ios": "https://dc.lft.to/lastmile_qr_scan", "android": "https://dc.lft.to/lastmile_qr_scan"}}, {"name": "ade3f9a6878afa64bb279c7f1c2bf015", "type": "electric_scooter", "lat": 38.92069016666667, "is_reserved": 0, "lon": -76.97812, "fusion_lon": 0.0, "is_disabled": 0, "fusion_lat": 0.0, "bike_id": "ade3f9a6878afa64bb279c7f1c2bf015", "rental_uris": {"ios": "https://dc.lft.to/lastmile_qr_scan", "android": "https://dc.lft.to/lastmile_qr_scan"}}, {"name": "6c0ee782fd53a24696b88429e561b3ac", "type": "electric_scooter", "lat": 38.90546533333333, "is_reserved": 0, "lon": -77.006092, "fusion_lon": 0.0, "is_disabled": 0, "fusion_lat": 0.0, "bike_id": "6c0ee782fd53a24696b88429e561b3ac", "rental_uris": {"ios": "https://dc.lft.to/lastmile_qr_scan", "android": "https://dc.lft.to/lastmile_qr_scan"}}, {"name": "fdd3dba23c66101795f0db18dd857f08", "type": "electric_scooter", "lat": 38.920612, "is_reserved": 0, "lon": -77.02970466666666, "fusion_lon": 0.0, "is_disabled": 0, "fusion_lat": 0.0, "bike_id": "fdd3dba23c66101795f0db18dd857f08", "rental_uris": {"ios": "https://dc.lft.to/lastmile_qr_scan", "android": "https://dc.lft.to/lastmile_qr_scan"}}, {"name": "440730b3418200c6da7a866fe089b114", "type": "electric_bike", "lat": 38.9553905, "is_reserved": 0, "lon": -77.02291866666667, "fusion_lon": 0.0, "is_disabled": 0, "fusion_lat": 0.0, "bike_id": "440730b3418200c6da7a866fe089b114", "rental_uris": {"ios": "https://dc.lft.to/lastmile_qr_scan", "android": "https://dc.lft.to/lastmile_qr_scan"}}, {"name": "647fc05d1298771ad152964af7c24440", "type": "electric_scooter", "lat": 38.9235165, "is_reserved": 0, "lon": -77.0190865, "fusion_lon": 0.0, "is_disabled": 0, "fusion_lat": 0.0, "bike_id": "647fc05d1298771ad152964af7c24440", "rental_uris": {"ios": "https://dc.lft.to/lastmile_qr_scan", "android": "https://dc.lft.to/lastmile_qr_scan"}}, {"name": "d3b8457e4db42ee53cf2edda80495322", "type": "electric_scooter", "lat": 38.905898666666666, "is_reserved": 0, "lon": -77.06526133333334, "fusion_lon": 0.0, "is_disabled": 0, "fusion_lat": 0.0, "bike_id": "d3b8457e4db42ee53cf2edda80495322", "rental_uris": {"ios": "https://dc.lft.to/lastmile_qr_scan", "android": "https://dc.lft.to/lastmile_qr_scan"}}, {"name": "c17a5908afd638c195cbc06a921ec749", "type": "electric_scooter", "lat": 38.909715, "is_reserved": 0, "lon": -77.01713683333334, "fusion_lon": 0.0, "is_disabled": 0, "fusion_lat": 0.0, "bike_id": "c17a5908afd638c195cbc06a921ec749", "rental_uris": {"ios": "https://dc.lft.to/lastmile_qr_scan", "android": "https://dc.lft.to/lastmile_qr_scan"}}, {"name": "5f5cf687a8adea9ca5658cc57cb7b335", "type": "electric_scooter", "lat": 38.926366333333334, "is_reserved": 0, "lon": -77.03516933333333, "fusion_lon": 0.0, "is_disabled": 0, "fusion_lat": 0.0, "bike_id": "5f5cf687a8adea9ca5658cc57cb7b335", "rental_uris": {"ios": "https://dc.lft.to/lastmile_qr_scan", "android": "https://dc.lft.to/lastmile_qr_scan"}}, {"name": "912ee29670e8c26b5ef70ecd5c148891", "type": "electric_scooter", "lat": 38.919786, "is_reserved": 0, "lon": -77.00111266666667, "fusion_lon": 0.0, "is_disabled": 0, "fusion_lat": 0.0, "bike_id": "912ee29670e8c26b5ef70ecd5c148891", "rental_uris": {"ios": "https://dc.lft.to/lastmile_qr_scan", "android": "https://dc.lft.to/lastmile_qr_scan"}}, {"name": "a72c79e1738492f61d648fbd5d2319a2", "type": "electric_bike", "lat": 38.888416166666666, "is_reserved": 0, "lon": -76.99370083333334, "fusion_lon": 0.0, "is_disabled": 0, "fusion_lat": 0.0, "bike_id": "a72c79e1738492f61d648fbd5d2319a2", "rental_uris": {"ios": "https://dc.lft.to/lastmile_qr_scan", "android": "https://dc.lft.to/lastmile_qr_scan"}}, {"name": "9a078fedec2ed56f2a1fd0e2728daa71", "type": "electric_scooter", "lat": 38.91732583333334, "is_reserved": 0, "lon": -77.03643566666666, "fusion_lon": 0.0, "is_disabled": 0, "fusion_lat": 0.0, "bike_id": "9a078fedec2ed56f2a1fd0e2728daa71", "rental_uris": {"ios": "https://dc.lft.to/lastmile_qr_scan", "android": "https://dc.lft.to/lastmile_qr_scan"}}, {"name": "28235bf804a871e550ac2e6aa100d9d9", "type": "electric_scooter", "lat": 38.90589333333333, "is_reserved": 0, "lon": -77.06522916666667, "fusion_lon": 0.0, "is_disabled": 0, "fusion_lat": 0.0, "bike_id": "28235bf804a871e550ac2e6aa100d9d9", "rental_uris": {"ios": "https://dc.lft.to/lastmile_qr_scan", "android": "https://dc.lft.to/lastmile_qr_scan"}}, {"name": "5913d347a9f4bfc5e4268d1a03d8e014", "type": "electric_scooter", "lat": 38.909727333333336, "is_reserved": 0, "lon": -77.01122833333334, "fusion_lon": 0.0, "is_disabled": 0, "fusion_lat": 0.0, "bike_id": "5913d347a9f4bfc5e4268d1a03d8e014", "rental_uris": {"ios": "https://dc.lft.to/lastmile_qr_scan", "android": "https://dc.lft.to/lastmile_qr_scan"}}, {"name": "a0e6f51c066a401416d5a9564db2369d", "type": "electric_bike", "lat": 38.90366083333333, "is_reserved": 0, "lon": -76.983303, "fusion_lon": 0.0, "is_disabled": 0, "fusion_lat": 0.0, "bike_id": "a0e6f51c066a401416d5a9564db2369d", "rental_uris": {"ios": "https://dc.lft.to/lastmile_qr_scan", "android": "https://dc.lft.to/lastmile_qr_scan"}}, {"name": "665affdd44f8a26beb2e69fe777aef7c", "type": "electric_scooter", "lat": 38.90037066666667, "is_reserved": 0, "lon": -76.98838866666667, "fusion_lon": 0.0, "is_disabled": 0, "fusion_lat": 0.0, "bike_id": "665affdd44f8a26beb2e69fe777aef7c", "rental_uris": {"ios": "https://dc.lft.to/lastmile_qr_scan", "android": "https://dc.lft.to/lastmile_qr_scan"}}, {"name": "afc14d34f64c0b0ee459ecfb916a5f2d", "type": "electric_scooter", "lat": 38.90525383333333, "is_reserved": 0, "lon": -77.0658835, "fusion_lon": 0.0, "is_disabled": 0, "fusion_lat": 0.0, "bike_id": "afc14d34f64c0b0ee459ecfb916a5f2d", "rental_uris": {"ios": "https://dc.lft.to/lastmile_qr_scan", "android": "https://dc.lft.to/lastmile_qr_scan"}}, {"name": "7f72869b51d0cea0ed1a312d935574b7", "type": "electric_scooter", "lat": 38.863545333333334, "is_reserved": 0, "lon": -76.99067033333333, "fusion_lon": 0.0, "is_disabled": 0, "fusion_lat": 0.0, "bike_id": "7f72869b51d0cea0ed1a312d935574b7", "rental_uris": {"ios": "https://dc.lft.to/lastmile_qr_scan", "android": "https://dc.lft.to/lastmile_qr_scan"}}, {"name": "7fb6dd76ef530c023c1da8367eba262b", "type": "electric_scooter", "lat": 38.901750166666666, "is_reserved": 0, "lon": -77.00009983333334, "fusion_lon": 0.0, "is_disabled": 0, "fusion_lat": 0.0, "bike_id": "7fb6dd76ef530c023c1da8367eba262b", "rental_uris": {"ios": "https://dc.lft.to/lastmile_qr_scan", "android": "https://dc.lft.to/lastmile_qr_scan"}}, {"name": "acc31a4af694822d2dbdfa1138d322b5", "type": "electric_scooter", "lat": 38.908622666666666, "is_reserved": 0, "lon": -76.98621183333333, "fusion_lon": 0.0, "is_disabled": 0, "fusion_lat": 0.0, "bike_id": "acc31a4af694822d2dbdfa1138d322b5", "rental_uris": {"ios": "https://dc.lft.to/lastmile_qr_scan", "android": "https://dc.lft.to/lastmile_qr_scan"}}, {"name": "d7ac8c50b99e3480d8f812cc13537e0b", "type": "electric_scooter", "lat": 38.903775, "is_reserved": 0, "lon": -77.04479766666667, "fusion_lon": 0.0, "is_disabled": 0, "fusion_lat": 0.0, "bike_id": "d7ac8c50b99e3480d8f812cc13537e0b", "rental_uris": {"ios": "https://dc.lft.to/lastmile_qr_scan", "android": "https://dc.lft.to/lastmile_qr_scan"}}, {"name": "3fe89370184ae5d56d1ae313b752d466", "type": "electric_scooter", "lat": 38.94123316666666, "is_reserved": 0, "lon": -77.02661033333334, "fusion_lon": 0.0, "is_disabled": 0, "fusion_lat": 0.0, "bike_id": "3fe89370184ae5d56d1ae313b752d466", "rental_uris": {"ios": "https://dc.lft.to/lastmile_qr_scan", "android": "https://dc.lft.to/lastmile_qr_scan"}}, {"name": "f64526b1f9aa82704fd0671ea3271e5b", "type": "electric_scooter", "lat": 38.884891833333334, "is_reserved": 0, "lon": -77.02862133333333, "fusion_lon": 0.0, "is_disabled": 0, "fusion_lat": 0.0, "bike_id": "f64526b1f9aa82704fd0671ea3271e5b", "rental_uris": {"ios": "https://dc.lft.to/lastmile_qr_scan", "android": "https://dc.lft.to/lastmile_qr_scan"}}, {"name": "64f2e3e77f685f79eeb66dbe0c02b0cc", "type": "electric_bike", "lat": 38.8324455, "is_reserved": 0, "lon": -76.94624183333333, "fusion_lon": 0.0, "is_disabled": 0, "fusion_lat": 0.0, "bike_id": "64f2e3e77f685f79eeb66dbe0c02b0cc", "rental_uris": {"ios": "https://dc.lft.to/lastmile_qr_scan", "android": "https://dc.lft.to/lastmile_qr_scan"}}, {"name": "93909372a8ee1573944b5d241bb96744", "type": "electric_scooter", "lat": 38.929866, "is_reserved": 0, "lon": -77.07944383333333, "fusion_lon": 0.0, "is_disabled": 0, "fusion_lat": 0.0, "bike_id": "93909372a8ee1573944b5d241bb96744", "rental_uris": {"ios": "https://dc.lft.to/lastmile_qr_scan", "android": "https://dc.lft.to/lastmile_qr_scan"}}, {"name": "5de62d4c89489a803b15528abba6eec2", "type": "electric_scooter", "lat": 38.924905833333334, "is_reserved": 0, "lon": -77.02716283333334, "fusion_lon": 0.0, "is_disabled": 0, "fusion_lat": 0.0, "bike_id": "5de62d4c89489a803b15528abba6eec2", "rental_uris": {"ios": "https://dc.lft.to/lastmile_qr_scan", "android": "https://dc.lft.to/lastmile_qr_scan"}}, {"name": "4e814541689f9dc17bd5ff2fee6f8751", "type": "electric_scooter", "lat": 38.931161, "is_reserved": 0, "lon": -77.0381285, "fusion_lon": 0.0, "is_disabled": 0, "fusion_lat": 0.0, "bike_id": "4e814541689f9dc17bd5ff2fee6f8751", "rental_uris": {"ios": "https://dc.lft.to/lastmile_qr_scan", "android": "https://dc.lft.to/lastmile_qr_scan"}}, {"name": "8ee88f14a2e9028a9d195bca08af5eff", "type": "electric_scooter", "lat": 38.905621833333335, "is_reserved": 0, "lon": -77.02934266666666, "fusion_lon": 0.0, "is_disabled": 0, "fusion_lat": 0.0, "bike_id": "8ee88f14a2e9028a9d195bca08af5eff", "rental_uris": {"ios": "https://dc.lft.to/lastmile_qr_scan", "android": "https://dc.lft.to/lastmile_qr_scan"}}, {"name": "93fa8602635c48a9bd3b6d13e82e4cda", "type": "electric_scooter", "lat": 38.941665666666665, "is_reserved": 0, "lon": -77.01545916666667, "fusion_lon": 0.0, "is_disabled": 0, "fusion_lat": 0.0, "bike_id": "93fa8602635c48a9bd3b6d13e82e4cda", "rental_uris": {"ios": "https://dc.lft.to/lastmile_qr_scan", "android": "https://dc.lft.to/lastmile_qr_scan"}}, {"name": "411a30395a5f15ab6a700c1244859ea4", "type": "electric_scooter", "lat": 38.91597016666667, "is_reserved": 0, "lon": -76.98371583333333, "fusion_lon": 0.0, "is_disabled": 0, "fusion_lat": 0.0, "bike_id": "411a30395a5f15ab6a700c1244859ea4", "rental_uris": {"ios": "https://dc.lft.to/lastmile_qr_scan", "android": "https://dc.lft.to/lastmile_qr_scan"}}, {"name": "082d7295bfb2401710eaeb6181805881", "type": "electric_scooter", "lat": 38.898423666666666, "is_reserved": 0, "lon": -77.03311716666667, "fusion_lon": 0.0, "is_disabled": 0, "fusion_lat": 0.0, "bike_id": "082d7295bfb2401710eaeb6181805881", "rental_uris": {"ios": "https://dc.lft.to/lastmile_qr_scan", "android": "https://dc.lft.to/lastmile_qr_scan"}}, {"name": "48da15890fa43d9bed6ac13258684810", "type": "electric_bike", "lat": 38.871349333333335, "is_reserved": 0, "lon": -76.93729916666666, "fusion_lon": 0.0, "is_disabled": 0, "fusion_lat": 0.0, "bike_id": "48da15890fa43d9bed6ac13258684810", "rental_uris": {"ios": "https://dc.lft.to/lastmile_qr_scan", "android": "https://dc.lft.to/lastmile_qr_scan"}}, {"name": "55b5f95b8ad2143a0a63d1df3f6fd554", "type": "electric_scooter", "lat": 38.9095195, "is_reserved": 0, "lon": -77.0432375, "fusion_lon": 0.0, "is_disabled": 0, "fusion_lat": 0.0, "bike_id": "55b5f95b8ad2143a0a63d1df3f6fd554", "rental_uris": {"ios": "https://dc.lft.to/lastmile_qr_scan", "android": "https://dc.lft.to/lastmile_qr_scan"}}, {"name": "ab42b0c7972cacb78dd1b6db72099bd7", "type": "electric_scooter", "lat": 38.9236175, "is_reserved": 0, "lon": -77.0353515, "fusion_lon": 0.0, "is_disabled": 0, "fusion_lat": 0.0, "bike_id": "ab42b0c7972cacb78dd1b6db72099bd7", "rental_uris": {"ios": "https://dc.lft.to/lastmile_qr_scan", "android": "https://dc.lft.to/lastmile_qr_scan"}}, {"name": "56c82a6d65caccd9db7bc7a17785517b", "type": "electric_scooter", "lat": 38.93951466666667, "is_reserved": 0, "lon": -77.032629, "fusion_lon": 0.0, "is_disabled": 0, "fusion_lat": 0.0, "bike_id": "56c82a6d65caccd9db7bc7a17785517b", "rental_uris": {"ios": "https://dc.lft.to/lastmile_qr_scan", "android": "https://dc.lft.to/lastmile_qr_scan"}}, {"name": "0f0dc0ed0188c59bed2ecacde0ed7092", "type": "electric_scooter", "lat": 38.939758, "is_reserved": 0, "lon": -77.03262766666667, "fusion_lon": 0.0, "is_disabled": 0, "fusion_lat": 0.0, "bike_id": "0f0dc0ed0188c59bed2ecacde0ed7092", "rental_uris": {"ios": "https://dc.lft.to/lastmile_qr_scan", "android": "https://dc.lft.to/lastmile_qr_scan"}}, {"name": "1fbcc420389bca3b6e29e3cfad7e25fb", "type": "electric_scooter", "lat": 38.881150833333336, "is_reserved": 0, "lon": -76.99948916666666, "fusion_lon": 0.0, "is_disabled": 0, "fusion_lat": 0.0, "bike_id": "1fbcc420389bca3b6e29e3cfad7e25fb", "rental_uris": {"ios": "https://dc.lft.to/lastmile_qr_scan", "android": "https://dc.lft.to/lastmile_qr_scan"}}, {"name": "fbd28346332f28490bdcd1fe71dddd28", "type": "electric_bike", "lat": 38.9906855, "is_reserved": 0, "lon": -77.10032733333334, "fusion_lon": 0.0, "is_disabled": 0, "fusion_lat": 0.0, "bike_id": "fbd28346332f28490bdcd1fe71dddd28", "rental_uris": {"ios": "https://dc.lft.to/lastmile_qr_scan", "android": "https://dc.lft.to/lastmile_qr_scan"}}, {"name": "c2abc5e9c681ab697e93b2476e27faa5", "type": "electric_scooter", "lat": 38.876492999999996, "is_reserved": 0, "lon": -76.96511433333333, "fusion_lon": 0.0, "is_disabled": 0, "fusion_lat": 0.0, "bike_id": "c2abc5e9c681ab697e93b2476e27faa5", "rental_uris": {"ios": "https://dc.lft.to/lastmile_qr_scan", "android": "https://dc.lft.to/lastmile_qr_scan"}}, {"name": "ed6379614201b95e4c78e10f113e8508", "type": "electric_scooter", "lat": 38.940751, "is_reserved": 0, "lon": -77.02703066666666, "fusion_lon": 0.0, "is_disabled": 0, "fusion_lat": 0.0, "bike_id": "ed6379614201b95e4c78e10f113e8508", "rental_uris": {"ios": "https://dc.lft.to/lastmile_qr_scan", "android": "https://dc.lft.to/lastmile_qr_scan"}}, {"name": "e3243b87037ed9c88f8f5268365079e7", "type": "electric_scooter", "lat": 38.853216833333335, "is_reserved": 0, "lon": -76.98009016666667, "fusion_lon": 0.0, "is_disabled": 0, "fusion_lat": 0.0, "bike_id": "e3243b87037ed9c88f8f5268365079e7", "rental_uris": {"ios": "https://dc.lft.to/lastmile_qr_scan", "android": "https://dc.lft.to/lastmile_qr_scan"}}, {"name": "01afb15c78d99b4b5b4cc06ae8fbffa9", "type": "electric_scooter", "lat": 38.918025666666665, "is_reserved": 0, "lon": -77.02707416666667, "fusion_lon": 0.0, "is_disabled": 0, "fusion_lat": 0.0, "bike_id": "01afb15c78d99b4b5b4cc06ae8fbffa9", "rental_uris": {"ios": "https://dc.lft.to/lastmile_qr_scan", "android": "https://dc.lft.to/lastmile_qr_scan"}}, {"name": "c5ec1e460f7057b40707cb390f068dae", "type": "electric_scooter", "lat": 38.929498333333335, "is_reserved": 0, "lon": -77.03459416666666, "fusion_lon": 0.0, "is_disabled": 0, "fusion_lat": 0.0, "bike_id": "c5ec1e460f7057b40707cb390f068dae", "rental_uris": {"ios": "https://dc.lft.to/lastmile_qr_scan", "android": "https://dc.lft.to/lastmile_qr_scan"}}, {"name": "bf6582173f2be9eb44ca509f30ac0c07", "type": "electric_scooter", "lat": 38.913166833333335, "is_reserved": 0, "lon": -77.0447955, "fusion_lon": 0.0, "is_disabled": 0, "fusion_lat": 0.0, "bike_id": "bf6582173f2be9eb44ca509f30ac0c07", "rental_uris": {"ios": "https://dc.lft.to/lastmile_qr_scan", "android": "https://dc.lft.to/lastmile_qr_scan"}}, {"name": "05655e15f4e1fb53d25f95bf42d9b47e", "type": "electric_scooter", "lat": 38.88337883333333, "is_reserved": 0, "lon": -77.01765366666666, "fusion_lon": 0.0, "is_disabled": 0, "fusion_lat": 0.0, "bike_id": "05655e15f4e1fb53d25f95bf42d9b47e", "rental_uris": {"ios": "https://dc.lft.to/lastmile_qr_scan", "android": "https://dc.lft.to/lastmile_qr_scan"}}, {"name": "e95e601a7893f37460889cd2d0cbc4d5", "type": "electric_scooter", "lat": 38.938398166666666, "is_reserved": 0, "lon": -77.024753, "fusion_lon": 0.0, "is_disabled": 0, "fusion_lat": 0.0, "bike_id": "e95e601a7893f37460889cd2d0cbc4d5", "rental_uris": {"ios": "https://dc.lft.to/lastmile_qr_scan", "android": "https://dc.lft.to/lastmile_qr_scan"}}, {"name": "396cd3d5d117b07be5caf205f42634ea", "type": "electric_scooter", "lat": 38.90718, "is_reserved": 0, "lon": -77.03061816666667, "fusion_lon": 0.0, "is_disabled": 0, "fusion_lat": 0.0, "bike_id": "396cd3d5d117b07be5caf205f42634ea", "rental_uris": {"ios": "https://dc.lft.to/lastmile_qr_scan", "android": "https://dc.lft.to/lastmile_qr_scan"}}, {"name": "7c767d4f3e3462a425b703dc558ba785", "type": "electric_scooter", "lat": 38.947764166666666, "is_reserved": 0, "lon": -77.06535116666667, "fusion_lon": 0.0, "is_disabled": 0, "fusion_lat": 0.0, "bike_id": "7c767d4f3e3462a425b703dc558ba785", "rental_uris": {"ios": "https://dc.lft.to/lastmile_qr_scan", "android": "https://dc.lft.to/lastmile_qr_scan"}}, {"name": "e09180d6d9e494f5c0fe2b479e421e0d", "type": "electric_scooter", "lat": 38.911914, "is_reserved": 0, "lon": -77.00558933333333, "fusion_lon": 0.0, "is_disabled": 0, "fusion_lat": 0.0, "bike_id": "e09180d6d9e494f5c0fe2b479e421e0d", "rental_uris": {"ios": "https://dc.lft.to/lastmile_qr_scan", "android": "https://dc.lft.to/lastmile_qr_scan"}}, {"name": "f76796667b76c12231b9671434d24d66", "type": "electric_scooter", "lat": 38.91995133333333, "is_reserved": 0, "lon": -77.03471266666666, "fusion_lon": 0.0, "is_disabled": 0, "fusion_lat": 0.0, "bike_id": "f76796667b76c12231b9671434d24d66", "rental_uris": {"ios": "https://dc.lft.to/lastmile_qr_scan", "android": "https://dc.lft.to/lastmile_qr_scan"}}, {"name": "079941d01b9a51b07a667e5966780aa6", "type": "electric_scooter", "lat": 38.91198166666667, "is_reserved": 0, "lon": -77.04538866666667, "fusion_lon": 0.0, "is_disabled": 0, "fusion_lat": 0.0, "bike_id": "079941d01b9a51b07a667e5966780aa6", "rental_uris": {"ios": "https://dc.lft.to/lastmile_qr_scan", "android": "https://dc.lft.to/lastmile_qr_scan"}}, {"name": "7e49c9c4c53621bb0ea3b09da73d4678", "type": "electric_scooter", "lat": 38.89203933333334, "is_reserved": 0, "lon": -77.00245316666667, "fusion_lon": 0.0, "is_disabled": 0, "fusion_lat": 0.0, "bike_id": "7e49c9c4c53621bb0ea3b09da73d4678", "rental_uris": {"ios": "https://dc.lft.to/lastmile_qr_scan", "android": "https://dc.lft.to/lastmile_qr_scan"}}, {"name": "ce0007479036e0371bbc063c3298e904", "type": "electric_scooter", "lat": 38.933576, "is_reserved": 0, "lon": -77.0693325, "fusion_lon": 0.0, "is_disabled": 0, "fusion_lat": 0.0, "bike_id": "ce0007479036e0371bbc063c3298e904", "rental_uris": {"ios": "https://dc.lft.to/lastmile_qr_scan", "android": "https://dc.lft.to/lastmile_qr_scan"}}, {"name": "52dc1287ec6dfaedcd200f864edde750", "type": "electric_scooter", "lat": 38.89943566666667, "is_reserved": 0, "lon": -76.92635216666666, "fusion_lon": 0.0, "is_disabled": 0, "fusion_lat": 0.0, "bike_id": "52dc1287ec6dfaedcd200f864edde750", "rental_uris": {"ios": "https://dc.lft.to/lastmile_qr_scan", "android": "https://dc.lft.to/lastmile_qr_scan"}}, {"name": "ae8f56a4e39a88c5a3b4d80580f914ac", "type": "electric_scooter", "lat": 38.902750166666664, "is_reserved": 0, "lon": -77.0383755, "fusion_lon": 0.0, "is_disabled": 0, "fusion_lat": 0.0, "bike_id": "ae8f56a4e39a88c5a3b4d80580f914ac", "rental_uris": {"ios": "https://dc.lft.to/lastmile_qr_scan", "android": "https://dc.lft.to/lastmile_qr_scan"}}, {"name": "2b778431ec18555ced80904641bfd5d6", "type": "electric_scooter", "lat": 38.902735, "is_reserved": 0, "lon": -77.038408, "fusion_lon": 0.0, "is_disabled": 0, "fusion_lat": 0.0, "bike_id": "2b778431ec18555ced80904641bfd5d6", "rental_uris": {"ios": "https://dc.lft.to/lastmile_qr_scan", "android": "https://dc.lft.to/lastmile_qr_scan"}}, {"name": "f7802d368ac8e0b538799b5712d062c8", "type": "electric_scooter", "lat": 38.900442166666664, "is_reserved": 0, "lon": -77.0020605, "fusion_lon": 0.0, "is_disabled": 0, "fusion_lat": 0.0, "bike_id": "f7802d368ac8e0b538799b5712d062c8", "rental_uris": {"ios": "https://dc.lft.to/lastmile_qr_scan", "android": "https://dc.lft.to/lastmile_qr_scan"}}, {"name": "7c8b895bd76f5ee29db0b7ea1bbdb26c", "type": "electric_scooter", "lat": 38.930731333333334, "is_reserved": 0, "lon": -77.03805983333334, "fusion_lon": 0.0, "is_disabled": 0, "fusion_lat": 0.0, "bike_id": "7c8b895bd76f5ee29db0b7ea1bbdb26c", "rental_uris": {"ios": "https://dc.lft.to/lastmile_qr_scan", "android": "https://dc.lft.to/lastmile_qr_scan"}}, {"name": "489cba44fcf8d0cd250308e8eb6bb70e", "type": "electric_scooter", "lat": 38.91760466666667, "is_reserved": 0, "lon": -77.038634, "fusion_lon": 0.0, "is_disabled": 0, "fusion_lat": 0.0, "bike_id": "489cba44fcf8d0cd250308e8eb6bb70e", "rental_uris": {"ios": "https://dc.lft.to/lastmile_qr_scan", "android": "https://dc.lft.to/lastmile_qr_scan"}}, {"name": "4f831f70e306c83bf2db6bb0ed7180c5", "type": "electric_scooter", "lat": 38.9496395, "is_reserved": 0, "lon": -77.027237, "fusion_lon": 0.0, "is_disabled": 0, "fusion_lat": 0.0, "bike_id": "4f831f70e306c83bf2db6bb0ed7180c5", "rental_uris": {"ios": "https://dc.lft.to/lastmile_qr_scan", "android": "https://dc.lft.to/lastmile_qr_scan"}}, {"name": "9bde9b8d3e3c5b524ff13526570249bc", "type": "electric_scooter", "lat": 38.876419, "is_reserved": 0, "lon": -76.9959135, "fusion_lon": 0.0, "is_disabled": 0, "fusion_lat": 0.0, "bike_id": "9bde9b8d3e3c5b524ff13526570249bc", "rental_uris": {"ios": "https://dc.lft.to/lastmile_qr_scan", "android": "https://dc.lft.to/lastmile_qr_scan"}}, {"name": "6a436b501b2bfee41134657ab0f5b777", "type": "electric_scooter", "lat": 38.9189385, "is_reserved": 0, "lon": -77.01974433333334, "fusion_lon": 0.0, "is_disabled": 0, "fusion_lat": 0.0, "bike_id": "6a436b501b2bfee41134657ab0f5b777", "rental_uris": {"ios": "https://dc.lft.to/lastmile_qr_scan", "android": "https://dc.lft.to/lastmile_qr_scan"}}, {"name": "ee119d3cea81f313ba5cb0df58500462", "type": "electric_scooter", "lat": 38.9004185, "is_reserved": 0, "lon": -77.00105116666667, "fusion_lon": 0.0, "is_disabled": 0, "fusion_lat": 0.0, "bike_id": "ee119d3cea81f313ba5cb0df58500462", "rental_uris": {"ios": "https://dc.lft.to/lastmile_qr_scan", "android": "https://dc.lft.to/lastmile_qr_scan"}}, {"name": "0fcd3e6d96e9b899016cdfe5e05af74b", "type": "electric_scooter", "lat": 38.877075833333336, "is_reserved": 0, "lon": -76.99390133333333, "fusion_lon": 0.0, "is_disabled": 0, "fusion_lat": 0.0, "bike_id": "0fcd3e6d96e9b899016cdfe5e05af74b", "rental_uris": {"ios": "https://dc.lft.to/lastmile_qr_scan", "android": "https://dc.lft.to/lastmile_qr_scan"}}, {"name": "f8d03a7312034cfa0fcc5154d3537481", "type": "electric_bike", "lat": 38.9370025, "is_reserved": 0, "lon": -77.0298065, "fusion_lon": 0.0, "is_disabled": 0, "fusion_lat": 0.0, "bike_id": "f8d03a7312034cfa0fcc5154d3537481", "rental_uris": {"ios": "https://dc.lft.to/lastmile_qr_scan", "android": "https://dc.lft.to/lastmile_qr_scan"}}, {"name": "02772baea5ddc8dbff07123a71d5e779", "type": "electric_scooter", "lat": 38.906267166666666, "is_reserved": 0, "lon": -76.983175, "fusion_lon": 0.0, "is_disabled": 0, "fusion_lat": 0.0, "bike_id": "02772baea5ddc8dbff07123a71d5e779", "rental_uris": {"ios": "https://dc.lft.to/lastmile_qr_scan", "android": "https://dc.lft.to/lastmile_qr_scan"}}, {"name": "85e17fe62bacd000c555bb4b59bc4e0a", "type": "electric_bike", "lat": 38.936940666666665, "is_reserved": 0, "lon": -77.05647533333334, "fusion_lon": 0.0, "is_disabled": 0, "fusion_lat": 0.0, "bike_id": "85e17fe62bacd000c555bb4b59bc4e0a", "rental_uris": {"ios": "https://dc.lft.to/lastmile_qr_scan", "android": "https://dc.lft.to/lastmile_qr_scan"}}, {"name": "e02f90930079ca42fb8fc01fc08ffda9", "type": "electric_scooter", "lat": 38.86221483333333, "is_reserved": 0, "lon": -76.994953, "fusion_lon": 0.0, "is_disabled": 0, "fusion_lat": 0.0, "bike_id": "e02f90930079ca42fb8fc01fc08ffda9", "rental_uris": {"ios": "https://dc.lft.to/lastmile_qr_scan", "android": "https://dc.lft.to/lastmile_qr_scan"}}, {"name": "81ddc2ffef591e7f86b0ba76e0dcc9ef", "type": "electric_scooter", "lat": 38.891, "is_reserved": 0, "lon": -76.987077, "fusion_lon": 0.0, "is_disabled": 0, "fusion_lat": 0.0, "bike_id": "81ddc2ffef591e7f86b0ba76e0dcc9ef", "rental_uris": {"ios": "https://dc.lft.to/lastmile_qr_scan", "android": "https://dc.lft.to/lastmile_qr_scan"}}, {"name": "f4cba6d1c5bf477d7f10b5c9e1b185ce", "type": "electric_bike", "lat": 38.8708695, "is_reserved": 0, "lon": -77.0120845, "fusion_lon": 0.0, "is_disabled": 0, "fusion_lat": 0.0, "bike_id": "f4cba6d1c5bf477d7f10b5c9e1b185ce", "rental_uris": {"ios": "https://dc.lft.to/lastmile_qr_scan", "android": "https://dc.lft.to/lastmile_qr_scan"}}, {"name": "fc3abe6ff45d0f0dc451ca8e3783036c", "type": "electric_scooter", "lat": 38.9024835, "is_reserved": 0, "lon": -77.00208016666667, "fusion_lon": 0.0, "is_disabled": 0, "fusion_lat": 0.0, "bike_id": "fc3abe6ff45d0f0dc451ca8e3783036c", "rental_uris": {"ios": "https://dc.lft.to/lastmile_qr_scan", "android": "https://dc.lft.to/lastmile_qr_scan"}}, {"name": "e42494a3f86c662ca1d47c2c097db245", "type": "electric_scooter", "lat": 38.910192, "is_reserved": 0, "lon": -77.05276383333333, "fusion_lon": 0.0, "is_disabled": 0, "fusion_lat": 0.0, "bike_id": "e42494a3f86c662ca1d47c2c097db245", "rental_uris": {"ios": "https://dc.lft.to/lastmile_qr_scan", "android": "https://dc.lft.to/lastmile_qr_scan"}}, {"name": "1bc2dbdda60f7e9c362dd1e225c920b2", "type": "electric_scooter", "lat": 38.934291333333334, "is_reserved": 0, "lon": -77.03414766666667, "fusion_lon": 0.0, "is_disabled": 0, "fusion_lat": 0.0, "bike_id": "1bc2dbdda60f7e9c362dd1e225c920b2", "rental_uris": {"ios": "https://dc.lft.to/lastmile_qr_scan", "android": "https://dc.lft.to/lastmile_qr_scan"}}, {"name": "f13e02a741cf29c8d356060e6f5252d8", "type": "electric_bike", "lat": 38.831975, "is_reserved": 0, "lon": -77.0768645, "fusion_lon": 0.0, "is_disabled": 0, "fusion_lat": 0.0, "bike_id": "f13e02a741cf29c8d356060e6f5252d8", "rental_uris": {"ios": "https://dc.lft.to/lastmile_qr_scan", "android": "https://dc.lft.to/lastmile_qr_scan"}}, {"name": "876369cb10b488d03017df4608905cd6", "type": "electric_scooter", "lat": 38.9217715, "is_reserved": 0, "lon": -77.04246133333334, "fusion_lon": 0.0, "is_disabled": 0, "fusion_lat": 0.0, "bike_id": "876369cb10b488d03017df4608905cd6", "rental_uris": {"ios": "https://dc.lft.to/lastmile_qr_scan", "android": "https://dc.lft.to/lastmile_qr_scan"}}, {"name": "ea099e46f6f1076884d4f2900f3081ea", "type": "electric_scooter", "lat": 38.942762, "is_reserved": 0, "lon": -77.02504916666666, "fusion_lon": 0.0, "is_disabled": 0, "fusion_lat": 0.0, "bike_id": "ea099e46f6f1076884d4f2900f3081ea", "rental_uris": {"ios": "https://dc.lft.to/lastmile_qr_scan", "android": "https://dc.lft.to/lastmile_qr_scan"}}, {"name": "d4e8dfa44e80a544aa5fa62bc1b5ca39", "type": "electric_bike", "lat": 38.9255305, "is_reserved": 0, "lon": -77.00143683333333, "fusion_lon": 0.0, "is_disabled": 0, "fusion_lat": 0.0, "bike_id": "d4e8dfa44e80a544aa5fa62bc1b5ca39", "rental_uris": {"ios": "https://dc.lft.to/lastmile_qr_scan", "android": "https://dc.lft.to/lastmile_qr_scan"}}, {"name": "80379a77bdf444d21cfad7ec3f871852", "type": "electric_bike", "lat": 38.924626833333335, "is_reserved": 0, "lon": -77.20841416666667, "fusion_lon": 0.0, "is_disabled": 0, "fusion_lat": 0.0, "bike_id": "80379a77bdf444d21cfad7ec3f871852", "rental_uris": {"ios": "https://dc.lft.to/lastmile_qr_scan", "android": "https://dc.lft.to/lastmile_qr_scan"}}, {"name": "64fb15d489bc0f1c7da90030de128ecc", "type": "electric_bike", "lat": 38.89194583333333, "is_reserved": 0, "lon": -77.122654, "fusion_lon": 0.0, "is_disabled": 0, "fusion_lat": 0.0, "bike_id": "64fb15d489bc0f1c7da90030de128ecc", "rental_uris": {"ios": "https://dc.lft.to/lastmile_qr_scan", "android": "https://dc.lft.to/lastmile_qr_scan"}}, {"name": "6f8bb8d230f60914cb0788d3a0763af6", "type": "electric_scooter", "lat": 38.910362, "is_reserved": 0, "lon": -77.03084383333334, "fusion_lon": 0.0, "is_disabled": 0, "fusion_lat": 0.0, "bike_id": "6f8bb8d230f60914cb0788d3a0763af6", "rental_uris": {"ios": "https://dc.lft.to/lastmile_qr_scan", "android": "https://dc.lft.to/lastmile_qr_scan"}}, {"name": "2cf1e70b933f8e0c766ef74ba4b9ff56", "type": "electric_scooter", "lat": 38.93403216666667, "is_reserved": 0, "lon": -77.05745166666667, "fusion_lon": 0.0, "is_disabled": 0, "fusion_lat": 0.0, "bike_id": "2cf1e70b933f8e0c766ef74ba4b9ff56", "rental_uris": {"ios": "https://dc.lft.to/lastmile_qr_scan", "android": "https://dc.lft.to/lastmile_qr_scan"}}, {"name": "7094ee608c8359a4e8e404747fa6cf72", "type": "electric_scooter", "lat": 38.88045183333333, "is_reserved": 0, "lon": -76.9272215, "fusion_lon": 0.0, "is_disabled": 0, "fusion_lat": 0.0, "bike_id": "7094ee608c8359a4e8e404747fa6cf72", "rental_uris": {"ios": "https://dc.lft.to/lastmile_qr_scan", "android": "https://dc.lft.to/lastmile_qr_scan"}}, {"name": "af48e2b87fcb79fa3e4e45f2e99c9c82", "type": "electric_bike", "lat": 38.955551, "is_reserved": 0, "lon": -76.93547866666667, "fusion_lon": 0.0, "is_disabled": 0, "fusion_lat": 0.0, "bike_id": "af48e2b87fcb79fa3e4e45f2e99c9c82", "rental_uris": {"ios": "https://dc.lft.to/lastmile_qr_scan", "android": "https://dc.lft.to/lastmile_qr_scan"}}, {"name": "ffca6fef9d141bcb8154e146bfe6cfda", "type": "electric_scooter", "lat": 38.9191815, "is_reserved": 0, "lon": -77.0463285, "fusion_lon": 0.0, "is_disabled": 0, "fusion_lat": 0.0, "bike_id": "ffca6fef9d141bcb8154e146bfe6cfda", "rental_uris": {"ios": "https://dc.lft.to/lastmile_qr_scan", "android": "https://dc.lft.to/lastmile_qr_scan"}}, {"name": "ff1a6345a4e044e84b1270f06c4d2734", "type": "electric_scooter", "lat": 38.909193, "is_reserved": 0, "lon": -76.99273, "fusion_lon": 0.0, "is_disabled": 0, "fusion_lat": 0.0, "bike_id": "ff1a6345a4e044e84b1270f06c4d2734", "rental_uris": {"ios": "https://dc.lft.to/lastmile_qr_scan", "android": "https://dc.lft.to/lastmile_qr_scan"}}, {"name": "cb0dd31de3dbc6aaec801340d8a09fdb", "type": "electric_scooter", "lat": 38.90538033333333, "is_reserved": 0, "lon": -77.05052266666667, "fusion_lon": 0.0, "is_disabled": 0, "fusion_lat": 0.0, "bike_id": "cb0dd31de3dbc6aaec801340d8a09fdb", "rental_uris": {"ios": "https://dc.lft.to/lastmile_qr_scan", "android": "https://dc.lft.to/lastmile_qr_scan"}}, {"name": "01d17a36cbe15a52ebbfcdf4a973cf8a", "type": "electric_scooter", "lat": 38.90551466666667, "is_reserved": 0, "lon": -77.02976533333333, "fusion_lon": 0.0, "is_disabled": 0, "fusion_lat": 0.0, "bike_id": "01d17a36cbe15a52ebbfcdf4a973cf8a", "rental_uris": {"ios": "https://dc.lft.to/lastmile_qr_scan", "android": "https://dc.lft.to/lastmile_qr_scan"}}, {"name": "723313bc6665fb09ce07f5062dee858a", "type": "electric_scooter", "lat": 38.903798, "is_reserved": 0, "lon": -77.00771516666667, "fusion_lon": 0.0, "is_disabled": 0, "fusion_lat": 0.0, "bike_id": "723313bc6665fb09ce07f5062dee858a", "rental_uris": {"ios": "https://dc.lft.to/lastmile_qr_scan", "android": "https://dc.lft.to/lastmile_qr_scan"}}, {"name": "edd8dd9f6b289b9ad67b7835a61ebc50", "type": "electric_scooter", "lat": 38.91108716666667, "is_reserved": 0, "lon": -77.04927583333334, "fusion_lon": 0.0, "is_disabled": 0, "fusion_lat": 0.0, "bike_id": "edd8dd9f6b289b9ad67b7835a61ebc50", "rental_uris": {"ios": "https://dc.lft.to/lastmile_qr_scan", "android": "https://dc.lft.to/lastmile_qr_scan"}}, {"name": "ac48f146e3613ff81da781c91dd13a82", "type": "electric_scooter", "lat": 38.906757166666665, "is_reserved": 0, "lon": -76.97813566666666, "fusion_lon": 0.0, "is_disabled": 0, "fusion_lat": 0.0, "bike_id": "ac48f146e3613ff81da781c91dd13a82", "rental_uris": {"ios": "https://dc.lft.to/lastmile_qr_scan", "android": "https://dc.lft.to/lastmile_qr_scan"}}, {"name": "5ae31231c05e2b94cf14b65e7b1c7193", "type": "electric_scooter", "lat": 38.924407333333335, "is_reserved": 0, "lon": -77.07566766666666, "fusion_lon": 0.0, "is_disabled": 0, "fusion_lat": 0.0, "bike_id": "5ae31231c05e2b94cf14b65e7b1c7193", "rental_uris": {"ios": "https://dc.lft.to/lastmile_qr_scan", "android": "https://dc.lft.to/lastmile_qr_scan"}}, {"name": "1f5fb8e327c2f630f7f7734160423318", "type": "electric_scooter", "lat": 38.924884666666664, "is_reserved": 0, "lon": -77.05203433333334, "fusion_lon": 0.0, "is_disabled": 0, "fusion_lat": 0.0, "bike_id": "1f5fb8e327c2f630f7f7734160423318", "rental_uris": {"ios": "https://dc.lft.to/lastmile_qr_scan", "android": "https://dc.lft.to/lastmile_qr_scan"}}, {"name": "203991a65f09d262a3a8f746ccfb6213", "type": "electric_scooter", "lat": 38.91560483333333, "is_reserved": 0, "lon": -77.01208433333333, "fusion_lon": 0.0, "is_disabled": 0, "fusion_lat": 0.0, "bike_id": "203991a65f09d262a3a8f746ccfb6213", "rental_uris": {"ios": "https://dc.lft.to/lastmile_qr_scan", "android": "https://dc.lft.to/lastmile_qr_scan"}}, {"name": "71be410f8691d53da17bbeb2dad36903", "type": "electric_scooter", "lat": 38.9051085, "is_reserved": 0, "lon": -77.067526, "fusion_lon": 0.0, "is_disabled": 0, "fusion_lat": 0.0, "bike_id": "71be410f8691d53da17bbeb2dad36903", "rental_uris": {"ios": "https://dc.lft.to/lastmile_qr_scan", "android": "https://dc.lft.to/lastmile_qr_scan"}}, {"name": "c8426b1fced3f288f94ac8c069b09456", "type": "electric_scooter", "lat": 38.9376235, "is_reserved": 0, "lon": -77.03502883333333, "fusion_lon": 0.0, "is_disabled": 0, "fusion_lat": 0.0, "bike_id": "c8426b1fced3f288f94ac8c069b09456", "rental_uris": {"ios": "https://dc.lft.to/lastmile_qr_scan", "android": "https://dc.lft.to/lastmile_qr_scan"}}, {"name": "9ed49b8467326259f6ec144ee8ee947d", "type": "electric_scooter", "lat": 38.92350483333333, "is_reserved": 0, "lon": -77.03396833333333, "fusion_lon": 0.0, "is_disabled": 0, "fusion_lat": 0.0, "bike_id": "9ed49b8467326259f6ec144ee8ee947d", "rental_uris": {"ios": "https://dc.lft.to/lastmile_qr_scan", "android": "https://dc.lft.to/lastmile_qr_scan"}}, {"name": "867eefdf0ee7bd1e800ff54e69dba331", "type": "electric_scooter", "lat": 38.9273945, "is_reserved": 0, "lon": -77.03432733333334, "fusion_lon": 0.0, "is_disabled": 0, "fusion_lat": 0.0, "bike_id": "867eefdf0ee7bd1e800ff54e69dba331", "rental_uris": {"ios": "https://dc.lft.to/lastmile_qr_scan", "android": "https://dc.lft.to/lastmile_qr_scan"}},