{"data": {"bikes": [{"lat": 38.883695833333334, "is_reserved": 0, "lon": -76.99508683333333, "fusion_lon": 0.0, "fusion_lat": 0.0, "is_disabled": 0, "type": "electric_scooter", "bike_id": "638d114eb0b2b93d498c0685d1086eed", "rental_uris": {"android": "https://dc.lft.to/lastmile_qr_scan", "ios": "https://dc.lft.to/lastmile_qr_scan"}, "name": "638d114eb0b2b93d498c0685d1086eed"}, {"lat": 38.91493783333333, "is_reserved": 0, "lon": -77.04621816666666, "fusion_lon": 0.0, "fusion_lat": 0.0, "is_disabled": 0, "type": "electric_scooter", "bike_id": "0514b5ebf27ae84ffa88e6e3e9e8343c", "rental_uris": {"android": "https://dc.lft.to/lastmile_qr_scan", "ios": "https://dc.lft.to/lastmile_qr_scan"}, "name": "0514b5ebf27ae84ffa88e6e3e9e8343c"}, {"lat": 38.8991515, "is_reserved": 0, "lon": -77.04170983333333, "fusion_lon": 0.0, "fusion_lat": 0.0, "is_disabled": 0, "type": "electric_scooter", "bike_id": "44dcc11075fef7e62f30aeb283f254cd", "rental_uris": {"android": "https://dc.lft.to/lastmile_qr_scan", "ios": "https://dc.lft.to/lastmile_qr_scan"}, "name": "44dcc11075fef7e62f30aeb283f254cd"}, {"lat": 38.929783, "is_reserved": 0, "lon": -77.02341766666666, "fusion_lon": 0.0, "fusion_lat": 0.0, "is_disabled": 0, "type": "electric_scooter", "bike_id": "c9ff2229fa1c755007b1fa7f4773c9b8", "rental_uris": {"android": "https://dc.lft.to/lastmile_qr_scan", "ios": "https://dc.lft.to/lastmile_qr_scan"}, "name": "c9ff2229fa1c755007b1fa7f4773c9b8"}, {"lat": 38.916849666666664, "is_reserved": 0, "lon": -77.04138733333333, "fusion_lon": 0.0, "fusion_lat": 0.0, "is_disabled": 0, "type": "electric_scooter", "bike_id": "a55e44775bf5c68d522f73e54a17c2c0", "rental_uris": {"android": "https://dc.lft.to/lastmile_qr_scan", "ios": "https://dc.lft.to/lastmile_qr_scan"}, "name": "a55e44775bf5c68d522f73e54a17c2c0"}, {"lat": 38.965482333333334, "is_reserved": 0, "lon": -77.0362875, "fusion_lon": 0.0, "fusion_lat": 0.0, "is_disabled": 0, "type": "electric_scooter", "bike_id": "a179893c2d80637a01130a38e8a53abf", "rental_uris": {"android": "https://dc.lft.to/lastmile_qr_scan", "ios": "https://dc.lft.to/lastmile_qr_scan"}, "name": "a179893c2d80637a01130a38e8a53abf"}, {"lat": 38.925339, "is_reserved": 0, "lon": -77.03530216666667, "fusion_lon": 0.0, "fusion_lat": 0.0, "is_disabled": 0, "type": "electric_scooter", "bike_id": "5bb3a7bdc8e30f0a053532c65d079e9a", "rental_uris": {"android": "https://dc.lft.to/lastmile_qr_scan", "ios": "https://dc.lft.to/lastmile_qr_scan"}, "name": "5bb3a7bdc8e30f0a053532c65d079e9a"}, {"lat": 38.92423933333333, "is_reserved": 0, "lon": -77.01950316666667, "fusion_lon": 0.0, "fusion_lat": 0.0, "is_disabled": 0, "type": "electric_scooter", "bike_id": "f3795dc9d87a86a04ca806b5c8d229b1", "rental_uris": {"android": "https://dc.lft.to/lastmile_qr_scan", "ios": "https://dc.lft.to/lastmile_qr_scan"}, "name": "f3795dc9d87a86a04ca806b5c8d229b1"}, {"lat": 38.9193715, "is_reserved": 0, "lon": -77.070791, "fusion_lon": 0.0, "fusion_lat": 0.0, "is_disabled": 0, "type": "electric_scooter", "bike_id": "8a37fa60b98e82bafb4c329248f866de", "rental_uris": {"android": "https://dc.lft.to/lastmile_qr_scan", "ios": "https://dc.lft.to/lastmile_qr_scan"}, "name": "8a37fa60b98e82bafb4c329248f866de"}, {"lat": 38.922454333333334, "is_reserved": 0, "lon": -77.0389695, "fusion_lon": 0.0, "fusion_lat": 0.0, "is_disabled": 0, "type": "electric_scooter", "bike_id": "e2172378e02d0a21062ad04367da8ded", "rental_uris": {"android": "https://dc.lft.to/lastmile_qr_scan", "ios": "https://dc.lft.to/lastmile_qr_scan"}, "name": "e2172378e02d0a21062ad04367da8ded"}, {"lat": 38.915705333333335, "is_reserved": 0, "lon": -77.02286016666666, "fusion_lon": 0.0, "fusion_lat": 0.0, "is_disabled": 0, "type": "electric_scooter", "bike_id": "f4d860f0fc8bc123783cace0eeee3060", "rental_uris": {"android": "https://dc.lft.to/lastmile_qr_scan", "ios": "https://dc.lft.to/lastmile_qr_scan"}, "name": "f4d860f0fc8bc123783cace0eeee3060"}, {"lat": 38.902933, "is_reserved": 0, "lon": -77.03384783333334, "fusion_lon": 0.0, "fusion_lat": 0.0, "is_disabled": 0, "type": "electric_scooter", "bike_id": "9789313f4ae348622fb4f4e23f271090", "rental_uris": {"android": "https://dc.lft.to/lastmile_qr_scan", "ios": "https://dc.lft.to/lastmile_qr_scan"}, "name": "9789313f4ae348622fb4f4e23f271090"}, {"lat": 38.911046, "is_reserved": 0, "lon": -77.00214033333333, "fusion_lon": 0.0, "fusion_lat": 0.0, "is_disabled": 0, "type": "electric_scooter", "bike_id": "be80f733391e3312a128b6fb8d5c5b9f", "rental_uris": {"android": "https://dc.lft.to/lastmile_qr_scan", "ios": "https://dc.lft.to/lastmile_qr_scan"}, "name": "be80f733391e3312a128b6fb8d5c5b9f"}, {"lat": 38.95712783333333, "is_reserved": 0, "lon": -77.00280583333333, "fusion_lon": 0.0, "fusion_lat": 0.0, "is_disabled": 0, "type": "electric_bike", "bike_id": "fd7d7cf663f6c0809719ad75a88e2aa0", "rental_uris": {"android": "https://dc.lft.to/lastmile_qr_scan", "ios": "https://dc.lft.to/lastmile_qr_scan"}, "name": "fd7d7cf663f6c0809719ad75a88e2aa0"}, {"lat": 38.88653766666667, "is_reserved": 0, "lon": -77.16226616666667, "fusion_lon": 0.0, "fusion_lat": 0.0, "is_disabled": 0, "type": "electric_bike", "bike_id": "f9a23a787ee429b730f1fb5a7f81119d", "rental_uris": {"android": "https://dc.lft.to/lastmile_qr_scan", "ios": "https://dc.lft.to/lastmile_qr_scan"}, "name": "f9a23a787ee429b730f1fb5a7f81119d"}, {"lat": 38.904044, "is_reserved": 0, "lon": -76.9732975, "fusion_lon": 0.0, "fusion_lat": 0.0, "is_disabled": 0, "type": "electric_scooter", "bike_id": "836c9a8ad06feb343b14e5b3c48448ea", "rental_uris": {"android": "https://dc.lft.to/lastmile_qr_scan", "ios": "https://dc.lft.to/lastmile_qr_scan"}, "name": "836c9a8ad06feb343b14e5b3c48448ea"}, {"lat": 38.919912833333335, "is_reserved": 0, "lon": -77.0239255, "fusion_lon": 0.0, "fusion_lat": 0.0, "is_disabled": 0, "type": "electric_scooter", "bike_id": "ab27f52b5a9b97c988ff99cdd14700b6", "rental_uris": {"android": "https://dc.lft.to/lastmile_qr_scan", "ios": "https://dc.lft.to/lastmile_qr_scan"}, "name": "ab27f52b5a9b97c988ff99cdd14700b6"}, {"lat": 38.90901483333333, "is_reserved": 0, "lon": -77.043149, "fusion_lon": 0.0, "fusion_lat": 0.0, "is_disabled": 0, "type": "electric_scooter", "bike_id": "c5bd543270273171845b57f5048e2984", "rental_uris": {"android": "https://dc.lft.to/lastmile_qr_scan", "ios": "https://dc.lft.to/lastmile_qr_scan"}, "name": "c5bd543270273171845b57f5048e2984"}, {"lat": 38.92414216666667, "is_reserved": 0, "lon": -77.02977616666666, "fusion_lon": 0.0, "fusion_lat": 0.0, "is_disabled": 0, "type": "electric_bike", "bike_id": "4820cd5d20da872fb11be59d5d056aad", "rental_uris": {"android": "https://dc.lft.to/lastmile_qr_scan", "ios": "https://dc.lft.to/lastmile_qr_scan"}, "name": "4820cd5d20da872fb11be59d5d056aad"}, {"lat": 38.9010025, "is_reserved": 0, "lon": -77.013431, "fusion_lon": 0.0, "fusion_lat": 0.0, "is_disabled": 0, "type": "electric_scooter", "bike_id": "d7833037fbeff97a9f5a5efb161512c5", "rental_uris": {"android": "https://dc.lft.to/lastmile_qr_scan", "ios": "https://dc.lft.to/lastmile_qr_scan"}, "name": "d7833037fbeff97a9f5a5efb161512c5"}, {"lat": 38.913978666666665, "is_reserved": 0, "lon": -77.02408066666666, "fusion_lon": 0.0, "fusion_lat": 0.0, "is_disabled": 0, "type": "electric_scooter", "bike_id": "797111934a17c0e69cff09df93204cbb", "rental_uris": {"android": "https://dc.lft.to/lastmile_qr_scan", "ios": "https://dc.lft.to/lastmile_qr_scan"}, "name": "797111934a17c0e69cff09df93204cbb"}, {"lat": 38.901073833333335, "is_reserved": 0, "lon": -77.05973116666667, "fusion_lon": 0.0, "fusion_lat": 0.0, "is_disabled": 0, "type": "electric_scooter", "bike_id": "55f2c00fd5ad8376aa9a034a3bde273a", "rental_uris": {"android": "https://dc.lft.to/lastmile_qr_scan", "ios": "https://dc.lft.to/lastmile_qr_scan"}, "name": "55f2c00fd5ad8376aa9a034a3bde273a"}, {"lat": 38.90686566666667, "is_reserved": 0, "lon": -77.0633605, "fusion_lon": 0.0, "fusion_lat": 0.0, "is_disabled": 0, "type": "electric_scooter", "bike_id": "21f879e470d59eb38d8b4dacddb37acb", "rental_uris": {"android": "https://dc.lft.to/lastmile_qr_scan", "ios": "https://dc.lft.to/lastmile_qr_scan"}, "name": "21f879e470d59eb38d8b4dacddb37acb"}, {"lat": 38.909207, "is_reserved": 0, "lon": -77.018927, "fusion_lon": 0.0, "fusion_lat": 0.0, "is_disabled": 0, "type": "electric_scooter", "bike_id": "c25e190a46e74f6910b65d4566f04047", "rental_uris": {"android": "https://dc.lft.to/lastmile_qr_scan", "ios": "https://dc.lft.to/lastmile_qr_scan"}, "name": "c25e190a46e74f6910b65d4566f04047"}, {"lat": 38.900614166666664, "is_reserved": 0, "lon": -77.04829933333333, "fusion_lon": 0.0, "fusion_lat": 0.0, "is_disabled": 0, "type": "electric_scooter", "bike_id": "ce9980504f7d9698c643c2115438817b", "rental_uris": {"android": "https://dc.lft.to/lastmile_qr_scan", "ios": "https://dc.lft.to/lastmile_qr_scan"}, "name": "ce9980504f7d9698c643c2115438817b"}, {"lat": 38.944122166666666, "is_reserved": 0, "lon": -77.06381666666667, "fusion_lon": 0.0, "fusion_lat": 0.0, "is_disabled": 0, "type": "electric_scooter", "bike_id": "2cd70d4f852860d005053e924e3878ba", "rental_uris": {"android": "https://dc.lft.to/lastmile_qr_scan", "ios": "https://dc.lft.to/lastmile_qr_scan"}, "name": "2cd70d4f852860d005053e924e3878ba"}, {"lat": 38.8987725, "is_reserved": 0, "lon": -77.03313883333334, "fusion_lon": 0.0, "fusion_lat": 0.0, "is_disabled": 0, "type": "electric_scooter", "bike_id": "03d518aee6f6fd02c53f0e22abf35a62", "rental_uris": {"android": "https://dc.lft.to/lastmile_qr_scan", "ios": "https://dc.lft.to/lastmile_qr_scan"}, "name": "03d518aee6f6fd02c53f0e22abf35a62"}, {"lat": 38.908895666666666, "is_reserved": 0, "lon": -77.02801016666666, "fusion_lon": 0.0, "fusion_lat": 0.0, "is_disabled": 0, "type": "electric_scooter", "bike_id": "05b1a1a3cdc45c551adfaea9b051b437", "rental_uris": {"android": "https://dc.lft.to/lastmile_qr_scan", "ios": "https://dc.lft.to/lastmile_qr_scan"}, "name": "05b1a1a3cdc45c551adfaea9b051b437"}, {"lat": 38.917999, "is_reserved": 0, "lon": -77.034463, "fusion_lon": 0.0, "fusion_lat": 0.0, "is_disabled": 0, "type": "electric_scooter", "bike_id": "85400db819121b43d4945f7e0e147f9a", "rental_uris": {"android": "https://dc.lft.to/lastmile_qr_scan", "ios": "https://dc.lft.to/lastmile_qr_scan"}, "name": "85400db819121b43d4945f7e0e147f9a"}, {"lat": 38.93168466666667, "is_reserved": 0, "lon": -77.056235, "fusion_lon": 0.0, "fusion_lat": 0.0, "is_disabled": 0, "type": "electric_scooter", "bike_id": "44cef59d80660e2870ccb46ac66eb6ae", "rental_uris": {"android": "https://dc.lft.to/lastmile_qr_scan", "ios": "https://dc.lft.to/lastmile_qr_scan"}, "name": "44cef59d80660e2870ccb46ac66eb6ae"}, {"lat": 38.89704416666667, "is_reserved": 0, "lon": -77.01982633333333, "fusion_lon": 0.0, "fusion_lat": 0.0, "is_disabled": 0, "type": "electric_scooter", "bike_id": "924b416d37d50bea5b9701fa8eb2c85b", "rental_uris": {"android": "https://dc.lft.to/lastmile_qr_scan", "ios": "https://dc.lft.to/lastmile_qr_scan"}, "name": "924b416d37d50bea5b9701fa8eb2c85b"}, {"lat": 38.91118433333333, "is_reserved": 0, "lon": -77.031443, "fusion_lon": 0.0, "fusion_lat": 0.0, "is_disabled": 0, "type": "electric_scooter", "bike_id": "7ea538fe1393c0d43be065241c295975", "rental_uris": {"android": "https://dc.lft.to/lastmile_qr_scan", "ios": "https://dc.lft.to/lastmile_qr_scan"}, "name": "7ea538fe1393c0d43be065241c295975"}, {"lat": 38.89670816666667, "is_reserved": 0, "lon": -77.0054585, "fusion_lon": 0.0, "fusion_lat": 0.0, "is_disabled": 0, "type": "electric_scooter", "bike_id": "37093e095e7b1b3d6d7b16f80684a53f", "rental_uris": {"android": "https://dc.lft.to/lastmile_qr_scan", "ios": "https://dc.lft.to/lastmile_qr_scan"}, "name": "37093e095e7b1b3d6d7b16f80684a53f"}, {"lat": 38.92292116666667, "is_reserved": 0, "lon": -77.02964583333333, "fusion_lon": 0.0, "fusion_lat": 0.0, "is_disabled": 0, "type": "electric_scooter", "bike_id": "4f51a5ae838211c95627c0dfe3e4b8e4", "rental_uris": {"android": "https://dc.lft.to/lastmile_qr_scan", "ios": "https://dc.lft.to/lastmile_qr_scan"}, "name": "4f51a5ae838211c95627c0dfe3e4b8e4"}, {"lat": 38.911742, "is_reserved": 0, "lon": -77.04462616666666, "fusion_lon": 0.0, "fusion_lat": 0.0, "is_disabled": 0, "type": "electric_scooter", "bike_id": "73e7ba991e060e93d5540f02011c718c", "rental_uris": {"android": "https://dc.lft.to/lastmile_qr_scan", "ios": "https://dc.lft.to/lastmile_qr_scan"}, "name": "73e7ba991e060e93d5540f02011c718c"}, {"lat": 38.92046, "is_reserved": 0, "lon": -77.0422975, "fusion_lon": 0.0, "fusion_lat": 0.0, "is_disabled": 0, "type": "electric_scooter", "bike_id": "c51f14d24c2146d1b0ee056b7f09a777", "rental_uris": {"android": "https://dc.lft.to/lastmile_qr_scan", "ios": "https://dc.lft.to/lastmile_qr_scan"}, "name": "c51f14d24c2146d1b0ee056b7f09a777"}, {"lat": 38.97370166666666, "is_reserved": 0, "lon": -77.01852816666667, "fusion_lon": 0.0, "fusion_lat": 0.0, "is_disabled": 0, "type": "electric_scooter", "bike_id": "a5a40c1a4574c9f9a795ae1650fa94d4", "rental_uris": {"android": "https://dc.lft.to/lastmile_qr_scan", "ios": "https://dc.lft.to/lastmile_qr_scan"}, "name": "a5a40c1a4574c9f9a795ae1650fa94d4"}, {"lat": 38.92031216666667, "is_reserved": 0, "lon": -77.010259, "fusion_lon": 0.0, "fusion_lat": 0.0, "is_disabled": 0, "type": "electric_scooter", "bike_id": "62689a78ab24e1c66429e50194310b98", "rental_uris": {"android": "https://dc.lft.to/lastmile_qr_scan", "ios": "https://dc.lft.to/lastmile_qr_scan"}, "name": "62689a78ab24e1c66429e50194310b98"}, {"lat": 38.90560816666667, "is_reserved": 0, "lon": -77.02497916666667, "fusion_lon": 0.0, "fusion_lat": 0.0, "is_disabled": 0, "type": "electric_scooter", "bike_id": "9f31e55268cfddd2e3067c7cb026c24d", "rental_uris": {"android": "https://dc.lft.to/lastmile_qr_scan", "ios": "https://dc.lft.to/lastmile_qr_scan"}, "name": "9f31e55268cfddd2e3067c7cb026c24d"}, {"lat": 38.90032633333333, "is_reserved": 0, "lon": -76.99855066666667, "fusion_lon": 0.0, "fusion_lat": 0.0, "is_disabled": 0, "type": "electric_scooter", "bike_id": "0c0a51e7509eb295a735bec1ac8afc3f", "rental_uris": {"android": "https://dc.lft.to/lastmile_qr_scan", "ios": "https://dc.lft.to/lastmile_qr_scan"}, "name": "0c0a51e7509eb295a735bec1ac8afc3f"}, {"lat": 38.91692583333333, "is_reserved": 0, "lon": -77.01193266666667, "fusion_lon": 0.0, "fusion_lat": 0.0, "is_disabled": 0, "type": "electric_scooter", "bike_id": "00e2ac30eaa45dae4833dd6f308e4170", "rental_uris": {"android": "https://dc.lft.to/lastmile_qr_scan", "ios": "https://dc.lft.to/lastmile_qr_scan"}, "name": "00e2ac30eaa45dae4833dd6f308e4170"}, {"lat": 38.9205045, "is_reserved": 0, "lon": -77.0336085, "fusion_lon": 0.0, "fusion_lat": 0.0, "is_disabled": 0, "type": "electric_scooter", "bike_id": "3e3f6603a64e0e791fdc57d6685bb4f1", "rental_uris": {"android": "https://dc.lft.to/lastmile_qr_scan", "ios": "https://dc.lft.to/lastmile_qr_scan"}, "name": "3e3f6603a64e0e791fdc57d6685bb4f1"}, {"lat": 38.907144833333334, "is_reserved": 0, "lon": -77.01463816666667, "fusion_lon": 0.0, "fusion_lat": 0.0, "is_disabled": 0, "type": "electric_scooter", "bike_id": "56e26f299b97d5ab3541cd725dba252e", "rental_uris": {"android": "https://dc.lft.to/lastmile_qr_scan", "ios": "https://dc.lft.to/lastmile_qr_scan"}, "name": "56e26f299b97d5ab3541cd725dba252e"}, {"lat": 38.89909333333333, "is_reserved": 0, "lon": -77.02805516666666, "fusion_lon": 0.0, "fusion_lat": 0.0, "is_disabled": 0, "type": "electric_scooter", "bike_id": "bb6f4ae4713e91aae2098b08dd2bb769", "rental_uris": {"android": "https://dc.lft.to/lastmile_qr_scan", "ios": "https://dc.lft.to/lastmile_qr_scan"}, "name": "bb6f4ae4713e91aae2098b08dd2bb769"}, {"lat": 38.917131833333336, "is_reserved": 0, "lon": -77.02463533333334, "fusion_lon": 0.0, "fusion_lat": 0.0, "is_disabled": 0, "type": "electric_scooter", "bike_id": "94237e2e5081d2ac4b115ac0ed8c1beb", "rental_uris": {"android": "https://dc.lft.to/lastmile_qr_scan", "ios": "https://dc.lft.to/lastmile_qr_scan"}, "name": "94237e2e5081d2ac4b115ac0ed8c1beb"}, {"lat": 38.8954155, "is_reserved": 0, "lon": -76.98242683333334, "fusion_lon": 0.0, "fusion_lat": 0.0, "is_disabled": 0, "type": "electric_scooter", "bike_id": "21ba49debfd16aaa17a7e36da3576dd5", "rental_uris": {"android": "https://dc.lft.to/lastmile_qr_scan", "ios": "https://dc.lft.to/lastmile_qr_scan"}, "name": "21ba49debfd16aaa17a7e36da3576dd5"}, {"lat": 38.92357833333333, "is_reserved": 0, "lon": -77.01947483333333, "fusion_lon": 0.0, "fusion_lat": 0.0, "is_disabled": 0, "type": "electric_scooter", "bike_id": "b7f98956aaa712c5c839ebad6fa0d578", "rental_uris": {"android": "https://dc.lft.to/lastmile_qr_scan", "ios": "https://dc.lft.to/lastmile_qr_scan"}, "name": "b7f98956aaa712c5c839ebad6fa0d578"}, {"lat": 38.902351333333336, "is_reserved": 0, "lon": -77.02949583333333, "fusion_lon": 0.0, "fusion_lat": 0.0, "is_disabled": 0, "type": "electric_scooter", "bike_id": "5b2bb3efdf9c9d7e40b12021624c0134", "rental_uris": {"android": "https://dc.lft.to/lastmile_qr_scan", "ios": "https://dc.lft.to/lastmile_qr_scan"}, "name": "5b2bb3efdf9c9d7e40b12021624c0134"}, {"lat": 38.897476, "is_reserved": 0, "lon": -77.02499583333334, "fusion_lon": 0.0, "fusion_lat": 0.0, "is_disabled": 0, "type": "electric_scooter", "bike_id": "9cf09cd4b2e9e5837a4cf5b4d63290ce", "rental_uris": {"android": "https://dc.lft.to/lastmile_qr_scan", "ios": "https://dc.lft.to/lastmile_qr_scan"}, "name": "9cf09cd4b2e9e5837a4cf5b4d63290ce"}, {"lat": 38.900701166666664, "is_reserved": 0, "lon": -77.027068, "fusion_lon": 0.0, "fusion_lat": 0.0, "is_disabled": 0, "type": "electric_scooter", "bike_id": "6ccdda82ace1a3a647981d959461d51e", "rental_uris": {"android": "https://dc.lft.to/lastmile_qr_scan", "ios": "https://dc.lft.to/lastmile_qr_scan"}, "name": "6ccdda82ace1a3a647981d959461d51e"}, {"lat": 38.910955, "is_reserved": 0, "lon": -77.02232766666667, "fusion_lon": 0.0, "fusion_lat": 0.0, "is_disabled": 0, "type": "electric_scooter", "bike_id": "5ce365e83392c964f893e8f3f09e2e4f", "rental_uris": {"android": "https://dc.lft.to/lastmile_qr_scan", "ios": "https://dc.lft.to/lastmile_qr_scan"}, "name": "5ce365e83392c964f893e8f3f09e2e4f"}, {"lat": 38.901713, "is_reserved": 0, "lon": -76.92653983333334, "fusion_lon": 0.0, "fusion_lat": 0.0, "is_disabled": 0, "type": "electric_scooter", "bike_id": "be6185227b25c7bd9c023fec2189b421", "rental_uris": {"android": "https://dc.lft.to/lastmile_qr_scan", "ios": "https://dc.lft.to/lastmile_qr_scan"}, "name": "be6185227b25c7bd9c023fec2189b421"}, {"lat": 38.925301, "is_reserved": 0, "lon": -77.05066983333333, "fusion_lon": 0.0, "fusion_lat": 0.0, "is_disabled": 0, "type": "electric_scooter", "bike_id": "0a6767ed74865ebab60c6ec8f961ec35", "rental_uris": {"android": "https://dc.lft.to/lastmile_qr_scan", "ios": "https://dc.lft.to/lastmile_qr_scan"}, "name": "0a6767ed74865ebab60c6ec8f961ec35"}, {"lat": 38.91550933333333, "is_reserved": 0, "lon": -77.02133266666667, "fusion_lon": 0.0, "fusion_lat": 0.0, "is_disabled": 0, "type": "electric_scooter", "bike_id": "ddaf705b0d3daa19f08a2ac3e7d04a4c", "rental_uris": {"android": "https://dc.lft.to/lastmile_qr_scan", "ios": "https://dc.lft.to/lastmile_qr_scan"}, "name": "ddaf705b0d3daa19f08a2ac3e7d04a4c"}, {"lat": 38.90234733333333, "is_reserved": 0, "lon": -77.03836516666667, "fusion_lon": 0.0, "fusion_lat": 0.0, "is_disabled": 0, "type": "electric_scooter", "bike_id": "55f47665378e1983642459bf8633c6c3", "rental_uris": {"android": "https://dc.lft.to/lastmile_qr_scan", "ios": "https://dc.lft.to/lastmile_qr_scan"}, "name": "55f47665378e1983642459bf8633c6c3"}, {"lat": 38.90599116666667, "is_reserved": 0, "lon": -77.04341733333334, "fusion_lon": 0.0, "fusion_lat": 0.0, "is_disabled": 0, "type": "electric_scooter", "bike_id": "c5d360044bfbbc93ed59ee92386ca904", "rental_uris": {"android": "https://dc.lft.to/lastmile_qr_scan", "ios": "https://dc.lft.to/lastmile_qr_scan"}, "name": "c5d360044bfbbc93ed59ee92386ca904"}, {"lat": 38.86683566666667, "is_reserved": 0, "lon": -76.98571266666667, "fusion_lon": 0.0, "fusion_lat": 0.0, "is_disabled": 0, "type": "electric_scooter", "bike_id": "bfce17fd32e33e397a48badf0508ab73", "rental_uris": {"android": "https://dc.lft.to/lastmile_qr_scan", "ios": "https://dc.lft.to/lastmile_qr_scan"}, "name": "bfce17fd32e33e397a48badf0508ab73"}, {"lat": 38.90370216666667, "is_reserved": 0, "lon": -76.98598816666667, "fusion_lon": 0.0, "fusion_lat": 0.0, "is_disabled": 0, "type": "electric_scooter", "bike_id": "8bf1074777fadc894124c40b4f5695ae", "rental_uris": {"android": "https://dc.lft.to/lastmile_qr_scan", "ios": "https://dc.lft.to/lastmile_qr_scan"}, "name": "8bf1074777fadc894124c40b4f5695ae"}, {"lat": 38.853502, "is_reserved": 0, "lon": -77.13469933333333, "fusion_lon": 0.0, "fusion_lat": 0.0, "is_disabled": 0, "type": "electric_bike", "bike_id": "fd91b2ec7318b555568da4c3188d4762", "rental_uris": {"android": "https://dc.lft.to/lastmile_qr_scan", "ios": "https://dc.lft.to/lastmile_qr_scan"}, "name": "fd91b2ec7318b555568da4c3188d4762"}, {"lat": 38.90980066666667, "is_reserved": 0, "lon": -77.02183416666666, "fusion_lon": 0.0, "fusion_lat": 0.0, "is_disabled": 0, "type": "electric_scooter", "bike_id": "6e4449071c94591fda981c7a3bbddb5c", "rental_uris": {"android": "https://dc.lft.to/lastmile_qr_scan", "ios": "https://dc.lft.to/lastmile_qr_scan"}, "name": "6e4449071c94591fda981c7a3bbddb5c"}, {"lat": 38.8973985, "is_reserved": 0, "lon": -76.97979966666666, "fusion_lon": 0.0, "fusion_lat": 0.0, "is_disabled": 0, "type": "electric_scooter", "bike_id": "31ca25744d08e57df9cef72936de84e6", "rental_uris": {"android": "https://dc.lft.to/lastmile_qr_scan", "ios": "https://dc.lft.to/lastmile_qr_scan"}, "name": "31ca25744d08e57df9cef72936de84e6"}, {"lat": 38.9185955, "is_reserved": 0, "lon": -77.04171016666666, "fusion_lon": 0.0, "fusion_lat": 0.0, "is_disabled": 0, "type": "electric_scooter", "bike_id": "1baa374dbeb226638c758ff7058e35d7", "rental_uris": {"android": "https://dc.lft.to/lastmile_qr_scan", "ios": "https://dc.lft.to/lastmile_qr_scan"}, "name": "1baa374dbeb226638c758ff7058e35d7"}, {"lat": 38.9896725, "is_reserved": 0, "lon": -77.02382283333333, "fusion_lon": 0.0, "fusion_lat": 0.0, "is_disabled": 0, "type": "electric_bike", "bike_id": "8e3d6178bad906174a008a6bae592796", "rental_uris": {"android": "https://dc.lft.to/lastmile_qr_scan", "ios": "https://dc.lft.to/lastmile_qr_scan"}, "name": "8e3d6178bad906174a008a6bae592796"}, {"lat": 38.93481883333333, "is_reserved": 0, "lon": -77.07269316666667, "fusion_lon": 0.0, "fusion_lat": 0.0, "is_disabled": 0, "type": "electric_scooter", "bike_id": "e7afc4a5c41f201d306e552e8130d3da", "rental_uris": {"android": "https://dc.lft.to/lastmile_qr_scan", "ios": "https://dc.lft.to/lastmile_qr_scan"}, "name": "e7afc4a5c41f201d306e552e8130d3da"}, {"lat": 38.9013085, "is_reserved": 0, "lon": -77.0131085, "fusion_lon": 0.0, "fusion_lat": 0.0, "is_disabled": 0, "type": "electric_scooter", "bike_id": "a3549b6a7c5dcacb91bdaa78501b5555", "rental_uris": {"android": "https://dc.lft.to/lastmile_qr_scan", "ios": "https://dc.lft.to/lastmile_qr_scan"}, "name": "a3549b6a7c5dcacb91bdaa78501b5555"}, {"lat": 38.917211333333334, "is_reserved": 0, "lon": -77.02705866666666, "fusion_lon": 0.0, "fusion_lat": 0.0, "is_disabled": 0, "type": "electric_scooter", "bike_id": "e8bc7b76b7a5094cd478f12faec97710", "rental_uris": {"android": "https://dc.lft.to/lastmile_qr_scan", "ios": "https://dc.lft.to/lastmile_qr_scan"}, "name": "e8bc7b76b7a5094cd478f12faec97710"}, {"lat": 38.92132633333333, "is_reserved": 0, "lon": -77.01811483333333, "fusion_lon": 0.0, "fusion_lat": 0.0, "is_disabled": 0, "type": "electric_scooter", "bike_id": "103615df2153d640227eec142ccf47c4", "rental_uris": {"android": "https://dc.lft.to/lastmile_qr_scan", "ios": "https://dc.lft.to/lastmile_qr_scan"}, "name": "103615df2153d640227eec142ccf47c4"}, {"lat": 38.905166666666666, "is_reserved": 0, "lon": -77.04170866666666, "fusion_lon": 0.0, "fusion_lat": 0.0, "is_disabled": 0, "type": "electric_scooter", "bike_id": "731e1bfe0c196e14950fa13fb9f489e9", "rental_uris": {"android": "https://dc.lft.to/lastmile_qr_scan", "ios": "https://dc.lft.to/lastmile_qr_scan"}, "name": "731e1bfe0c196e14950fa13fb9f489e9"}, {"lat": 38.90132333333333, "is_reserved": 0, "lon": -77.04674866666667, "fusion_lon": 0.0, "fusion_lat": 0.0, "is_disabled": 0, "type": "electric_scooter", "bike_id": "27f14e97a804de80504022dd56732885", "rental_uris": {"android": "https://dc.lft.to/lastmile_qr_scan", "ios": "https://dc.lft.to/lastmile_qr_scan"}, "name": "27f14e97a804de80504022dd56732885"}, {"lat": 38.92377116666667, "is_reserved": 0, "lon": -77.05150583333334, "fusion_lon": 0.0, "fusion_lat": 0.0, "is_disabled": 0, "type": "electric_scooter", "bike_id": "a7306bce607ee09b4f5858716006b6fc", "rental_uris": {"android": "https://dc.lft.to/lastmile_qr_scan", "ios": "https://dc.lft.to/lastmile_qr_scan"}, "name": "a7306bce607ee09b4f5858716006b6fc"}, {"lat": 38.9216575, "is_reserved": 0, "lon": -77.03385883333333, "fusion_lon": 0.0, "fusion_lat": 0.0, "is_disabled": 0, "type": "electric_scooter", "bike_id": "6cc70410dbf2828ab93167ead6a7e883", "rental_uris": {"android": "https://dc.lft.to/lastmile_qr_scan", "ios": "https://dc.lft.to/lastmile_qr_scan"}, "name": "6cc70410dbf2828ab93167ead6a7e883"}, {"lat": 38.910461166666664, "is_reserved": 0, "lon": -77.04336583333334, "fusion_lon": 0.0, "fusion_lat": 0.0, "is_disabled": 0, "type": "electric_scooter", "bike_id": "c369ba21cb6ae853d70a3ce8a889cee4", "rental_uris": {"android": "https://dc.lft.to/lastmile_qr_scan", "ios": "https://dc.lft.to/lastmile_qr_scan"}, "name": "c369ba21cb6ae853d70a3ce8a889cee4"}, {"lat": 38.832438333333336, "is_reserved": 0, "lon": -76.94626466666666, "fusion_lon": 0.0, "fusion_lat": 0.0, "is_disabled": 0, "type": "electric_bike", "bike_id": "6c72e6aec1784f07c38bc0a53c12989c", "rental_uris": {"android": "https://dc.lft.to/lastmile_qr_scan", "ios": "https://dc.lft.to/lastmile_qr_scan"}, "name": "6c72e6aec1784f07c38bc0a53c12989c"}, {"lat": 38.877565833333335, "is_reserved": 0, "lon": -76.986825, "fusion_lon": 0.0, "fusion_lat": 0.0, "is_disabled": 0, "type": "electric_scooter", "bike_id": "132100b6aad33a5b47b6b6d4adaa9afc", "rental_uris": {"android": "https://dc.lft.to/lastmile_qr_scan", "ios": "https://dc.lft.to/lastmile_qr_scan"}, "name": "132100b6aad33a5b47b6b6d4adaa9afc"}, {"lat": 38.91696233333333, "is_reserved": 0, "lon": -77.04104966666667, "fusion_lon": 0.0, "fusion_lat": 0.0, "is_disabled": 0, "type": "electric_scooter", "bike_id": "39ad78be0e6bdf8c637cc1e80d61918b", "rental_uris": {"android": "https://dc.lft.to/lastmile_qr_scan", "ios": "https://dc.lft.to/lastmile_qr_scan"}, "name": "39ad78be0e6bdf8c637cc1e80d61918b"}, {"lat": 38.884638, "is_reserved": 0, "lon": -76.95662383333334, "fusion_lon": 0.0, "fusion_lat": 0.0, "is_disabled": 0, "type": "electric_bike", "bike_id": "f3fd9b023aa0e88a2176a9220b375535", "rental_uris": {"android": "https://dc.lft.to/lastmile_qr_scan", "ios": "https://dc.lft.to/lastmile_qr_scan"}, "name": "f3fd9b023aa0e88a2176a9220b375535"}, {"lat": 39.034214, "is_reserved": 0, "lon": -77.04305833333333, "fusion_lon": 0.0, "fusion_lat": 0.0, "is_disabled": 0, "type": "electric_bike", "bike_id": "738a629021e0f85e362c294ef638d8b0", "rental_uris": {"android": "https://dc.lft.to/lastmile_qr_scan", "ios": "https://dc.lft.to/lastmile_qr_scan"}, "name": "738a629021e0f85e362c294ef638d8b0"}, {"lat": 38.9050035, "is_reserved": 0, "lon": -77.04332083333334, "fusion_lon": 0.0, "fusion_lat": 0.0, "is_disabled": 0, "type": "electric_scooter", "bike_id": "43c8954d3eaaeba53b7ab226f9f66e77", "rental_uris": {"android": "https://dc.lft.to/lastmile_qr_scan", "ios": "https://dc.lft.to/lastmile_qr_scan"}, "name": "43c8954d3eaaeba53b7ab226f9f66e77"}, {"lat": 38.90237, "is_reserved": 0, "lon": -77.037835, "fusion_lon": 0.0, "fusion_lat": 0.0, "is_disabled": 0, "type": "electric_scooter", "bike_id": "79ecb2876f80b5c750b94d302c4ba3a3", "rental_uris": {"android": "https://dc.lft.to/lastmile_qr_scan", "ios": "https://dc.lft.to/lastmile_qr_scan"}, "name": "79ecb2876f80b5c750b94d302c4ba3a3"}, {"lat": 38.90981433333333, "is_reserved": 0, "lon": -77.02177516666667, "fusion_lon": 0.0, "fusion_lat": 0.0, "is_disabled": 0, "type": "electric_scooter", "bike_id": "963e056afe6a0dd3141a894c3902584a", "rental_uris": {"android": "https://dc.lft.to/lastmile_qr_scan", "ios": "https://dc.lft.to/lastmile_qr_scan"}, "name": "963e056afe6a0dd3141a894c3902584a"}, {"lat": 38.89704783333333, "is_reserved": 0, "lon": -77.03002183333334, "fusion_lon": 0.0, "fusion_lat": 0.0, "is_disabled": 0, "type": "electric_scooter", "bike_id": "f2836a85443901ac562282a7a480daf1", "rental_uris": {"android": "https://dc.lft.to/lastmile_qr_scan", "ios": "https://dc.lft.to/lastmile_qr_scan"}, "name": "f2836a85443901ac562282a7a480daf1"}, {"lat": 38.9286325, "is_reserved": 0, "lon": -77.02766766666667, "fusion_lon": 0.0, "fusion_lat": 0.0, "is_disabled": 0, "type": "electric_scooter", "bike_id": "dc1cfb92d49d3ce70ad53bf2ae11d3a2", "rental_uris": {"android": "https://dc.lft.to/lastmile_qr_scan", "ios": "https://dc.lft.to/lastmile_qr_scan"}, "name": "dc1cfb92d49d3ce70ad53bf2ae11d3a2"}, {"lat": 38.92315133333334, "is_reserved": 0, "lon": -77.04621716666666, "fusion_lon": 0.0, "fusion_lat": 0.0, "is_disabled": 0, "type": "electric_scooter", "bike_id": "deeb9e761dd0d3f2e3b7d1ca7520203b", "rental_uris": {"android": "https://dc.lft.to/lastmile_qr_scan", "ios": "https://dc.lft.to/lastmile_qr_scan"}, "name": "deeb9e761dd0d3f2e3b7d1ca7520203b"}, {"lat": 38.927447666666666, "is_reserved": 0, "lon": -77.02293383333334, "fusion_lon": 0.0, "fusion_lat": 0.0, "is_disabled": 0, "type": "electric_scooter", "bike_id": "ebd6b4f2360c5541e56e3d734f7bae92", "rental_uris": {"android": "https://dc.lft.to/lastmile_qr_scan", "ios": "https://dc.lft.to/lastmile_qr_scan"}, "name": "ebd6b4f2360c5541e56e3d734f7bae92"}, {"lat": 38.891665833333334, "is_reserved": 0, "lon": -76.99942616666667, "fusion_lon": 0.0, "fusion_lat": 0.0, "is_disabled": 0, "type": "electric_scooter", "bike_id": "7b777716042cb5e6b091e84d36959989", "rental_uris": {"android": "https://dc.lft.to/lastmile_qr_scan", "ios": "https://dc.lft.to/lastmile_qr_scan"}, "name": "7b777716042cb5e6b091e84d36959989"}, {"lat": 38.876876333333335, "is_reserved": 0, "lon": -77.0005425, "fusion_lon": 0.0, "fusion_lat": 0.0, "is_disabled": 0, "type": "electric_scooter", "bike_id": "9f6e553f3873e64a98a51ad71c270d68", "rental_uris": {"android": "https://dc.lft.to/lastmile_qr_scan", "ios": "https://dc.lft.to/lastmile_qr_scan"}, "name": "9f6e553f3873e64a98a51ad71c270d68"}, {"lat": 38.905696666666664, "is_reserved": 0, "lon": -76.97781983333333, "fusion_lon": 0.0, "fusion_lat": 0.0, "is_disabled": 0, "type": "electric_scooter", "bike_id": "30c629427410b316b66fd0cc0cffbb22", "rental_uris": {"android": "https://dc.lft.to/lastmile_qr_scan", "ios": "https://dc.lft.to/lastmile_qr_scan"}, "name": "30c629427410b316b66fd0cc0cffbb22"}, {"lat": 38.914227333333336, "is_reserved": 0, "lon": -77.02404916666667, "fusion_lon": 0.0, "fusion_lat": 0.0, "is_disabled": 0, "type": "electric_scooter", "bike_id": "8717f956d695dc0bea9e6b1425581a7e", "rental_uris": {"android": "https://dc.lft.to/lastmile_qr_scan", "ios": "https://dc.lft.to/lastmile_qr_scan"}, "name": "8717f956d695dc0bea9e6b1425581a7e"}, {"lat": 38.89992983333333, "is_reserved": 0, "lon": -76.9808615, "fusion_lon": 0.0, "fusion_lat": 0.0, "is_disabled": 0, "type": "electric_scooter", "bike_id": "0bbe3f17bbb739d1cb90bdb97d38f9bf", "rental_uris": {"android": "https://dc.lft.to/lastmile_qr_scan", "ios": "https://dc.lft.to/lastmile_qr_scan"}, "name": "0bbe3f17bbb739d1cb90bdb97d38f9bf"}, {"lat": 38.89727216666667, "is_reserved": 0, "lon": -77.04865116666667, "fusion_lon": 0.0, "fusion_lat": 0.0, "is_disabled": 0, "type": "electric_scooter", "bike_id": "b23931cf92e3f8c8589c428b99358185", "rental_uris": {"android": "https://dc.lft.to/lastmile_qr_scan", "ios": "https://dc.lft.to/lastmile_qr_scan"}, "name": "b23931cf92e3f8c8589c428b99358185"}, {"lat": 38.9358885, "is_reserved": 0, "lon": -77.02447, "fusion_lon": 0.0, "fusion_lat": 0.0, "is_disabled": 0, "type": "electric_scooter", "bike_id": "fb6e080f7a1cb3f0be40dad3257ce544", "rental_uris": {"android": "https://dc.lft.to/lastmile_qr_scan", "ios": "https://dc.lft.to/lastmile_qr_scan"}, "name": "fb6e080f7a1cb3f0be40dad3257ce544"}, {"lat": 38.904634, "is_reserved": 0, "lon": -77.04630583333334, "fusion_lon": 0.0, "fusion_lat": 0.0, "is_disabled": 0, "type": "electric_scooter", "bike_id": "1e7b104bac9f94eb29542ef3b36257ec", "rental_uris": {"android": "https://dc.lft.to/lastmile_qr_scan", "ios": "https://dc.lft.to/lastmile_qr_scan"}, "name": "1e7b104bac9f94eb29542ef3b36257ec"}, {"lat": 38.89900816666667, "is_reserved": 0, "lon": -77.03293666666667, "fusion_lon": 0.0, "fusion_lat": 0.0, "is_disabled": 0, "type": "electric_scooter", "bike_id": "88edfd2b9a19d4824060c240a3e730ba", "rental_uris": {"android": "https://dc.lft.to/lastmile_qr_scan", "ios": "https://dc.lft.to/lastmile_qr_scan"}, "name": "88edfd2b9a19d4824060c240a3e730ba"}, {"lat": 38.80445783333333, "is_reserved": 0, "lon": -77.05393333333333, "fusion_lon": 0.0, "fusion_lat": 0.0, "is_disabled": 0, "type": "electric_bike", "bike_id": "04afb978bdde7795be11ec254693c54a", "rental_uris": {"android": "https://dc.lft.to/lastmile_qr_scan", "ios": "https://dc.lft.to/lastmile_qr_scan"}, "name": "04afb978bdde7795be11ec254693c54a"}, {"lat": 38.89852166666667, "is_reserved": 0, "lon": -76.975198, "fusion_lon": 0.0, "fusion_lat": 0.0, "is_disabled": 0, "type": "electric_scooter", "bike_id": "3d4de364dd917aa3d4e838c39d5c3e37", "rental_uris": {"android": "https://dc.lft.to/lastmile_qr_scan", "ios": "https://dc.lft.to/lastmile_qr_scan"}, "name": "3d4de364dd917aa3d4e838c39d5c3e37"}, {"lat": 38.91122433333334, "is_reserved": 0, "lon": -77.0408995, "fusion_lon": 0.0, "fusion_lat": 0.0, "is_disabled": 0, "type": "electric_scooter", "bike_id": "9e2d5aa0c447c14accfee94663545fea", "rental_uris": {"android": "https://dc.lft.to/lastmile_qr_scan", "ios": "https://dc.lft.to/lastmile_qr_scan"}, "name": "9e2d5aa0c447c14accfee94663545fea"}, {"lat": 38.894166, "is_reserved": 0, "lon": -77.0003875, "fusion_lon": 0.0, "fusion_lat": 0.0, "is_disabled": 0, "type": "electric_scooter", "bike_id": "d8059e1c27eb4bba7a0f806315751937", "rental_uris": {"android": "https://dc.lft.to/lastmile_qr_scan", "ios": "https://dc.lft.to/lastmile_qr_scan"}, "name": "d8059e1c27eb4bba7a0f806315751937"}, {"lat": 38.89811683333333, "is_reserved": 0, "lon": -77.03327833333333, "fusion_lon": 0.0, "fusion_lat": 0.0, "is_disabled": 0, "type": "electric_scooter", "bike_id": "9d91fa124943fc231d5636e1c2a11861", "rental_uris": {"android": "https://dc.lft.to/lastmile_qr_scan", "ios": "https://dc.lft.to/lastmile_qr_scan"}, "name": "9d91fa124943fc231d5636e1c2a11861"}, {"lat": 38.90977816666667, "is_reserved": 0, "lon": -77.04266366666667, "fusion_lon": 0.0, "fusion_lat": 0.0, "is_disabled": 0, "type": "electric_scooter", "bike_id": "f88d4fda32a531d308526eb4e38331e2", "rental_uris": {"android": "https://dc.lft.to/lastmile_qr_scan", "ios": "https://dc.lft.to/lastmile_qr_scan"}, "name": "f88d4fda32a531d308526eb4e38331e2"}, {"lat": 38.878168333333335, "is_reserved": 0, "lon": -76.971664, "fusion_lon": 0.0, "fusion_lat": 0.0, "is_disabled": 0, "type": "electric_scooter", "bike_id": "2487b9dae572dd879c900a5af31aa9c8", "rental_uris": {"android": "https://dc.lft.to/lastmile_qr_scan", "ios": "https://dc.lft.to/lastmile_qr_scan"}, "name": "2487b9dae572dd879c900a5af31aa9c8"}, {"lat": 38.88029816666667, "is_reserved": 0, "lon": -77.00523983333333, "fusion_lon": 0.0, "fusion_lat": 0.0, "is_disabled": 0, "type": "electric_scooter", "bike_id": "ebdd9dd17e97fdbe346d2a2d234d38fd", "rental_uris": {"android": "https://dc.lft.to/lastmile_qr_scan", "ios": "https://dc.lft.to/lastmile_qr_scan"}, "name": "ebdd9dd17e97fdbe346d2a2d234d38fd"}, {"lat": 38.99097166666667, "is_reserved": 0, "lon": -76.99355616666666, "fusion_lon": 0.0, "fusion_lat": 0.0, "is_disabled": 0, "type": "electric_bike", "bike_id": "abe60518d78a89c3f0caf468187431ed", "rental_uris": {"android": "https://dc.lft.to/lastmile_qr_scan", "ios": "https://dc.lft.to/lastmile_qr_scan"}, "name": "abe60518d78a89c3f0caf468187431ed"}, {"lat": 38.9287135, "is_reserved": 0, "lon": -77.03288466666666, "fusion_lon": 0.0, "fusion_lat": 0.0, "is_disabled": 0, "type": "electric_scooter", "bike_id": "cf337693506c80040a2d8fb1e5c53c34", "rental_uris": {"android": "https://dc.lft.to/lastmile_qr_scan", "ios": "https://dc.lft.to/lastmile_qr_scan"}, "name": "cf337693506c80040a2d8fb1e5c53c34"}, {"lat": 38.908090666666666, "is_reserved": 0, "lon": -77.06362783333333, "fusion_lon": 0.0, "fusion_lat": 0.0, "is_disabled": 0, "type": "electric_scooter", "bike_id": "ba84bbde4f59de7eabadc1c37d3fbe5f", "rental_uris": {"android": "https://dc.lft.to/lastmile_qr_scan", "ios": "https://dc.lft.to/lastmile_qr_scan"}, "name": "ba84bbde4f59de7eabadc1c37d3fbe5f"}, {"lat": 38.8929825, "is_reserved": 0, "lon": -77.0450075, "fusion_lon": 0.0, "fusion_lat": 0.0, "is_disabled": 0, "type": "electric_scooter", "bike_id": "0023d6d208dd80f4f8a8c5319e872877", "rental_uris": {"android": "https://dc.lft.to/lastmile_qr_scan", "ios": "https://dc.lft.to/lastmile_qr_scan"}, "name": "0023d6d208dd80f4f8a8c5319e872877"}, {"lat": 38.90111666666667, "is_reserved": 0, "lon": -77.03181166666667, "fusion_lon": 0.0, "fusion_lat": 0.0, "is_disabled": 0, "type": "electric_scooter", "bike_id": "3ea9351ab51c2788552d3ff0c93e2da0", "rental_uris": {"android": "https://dc.lft.to/lastmile_qr_scan", "ios": "https://dc.lft.to/lastmile_qr_scan"}, "name": "3ea9351ab51c2788552d3ff0c93e2da0"}, {"lat": 38.91666033333333, "is_reserved": 0, "lon": -76.98169016666667, "fusion_lon": 0.0, "fusion_lat": 0.0, "is_disabled": 0, "type": "electric_scooter", "bike_id": "a517238e33e079a2c8f3c85326ba5cf8", "rental_uris": {"android": "https://dc.lft.to/lastmile_qr_scan", "ios": "https://dc.lft.to/lastmile_qr_scan"}, "name": "a517238e33e079a2c8f3c85326ba5cf8"}, {"lat": 38.91925783333333, "is_reserved": 0, "lon": -77.02519133333334, "fusion_lon": 0.0, "fusion_lat": 0.0, "is_disabled": 0, "type": "electric_scooter", "bike_id": "f24aa1f65f412853bf288b20e9d3b16b", "rental_uris": {"android": "https://dc.lft.to/lastmile_qr_scan", "ios": "https://dc.lft.to/lastmile_qr_scan"}, "name": "f24aa1f65f412853bf288b20e9d3b16b"}, {"lat": 38.92620616666667, "is_reserved": 0, "lon": -77.03780366666666, "fusion_lon": 0.0, "fusion_lat": 0.0, "is_disabled": 0, "type": "electric_scooter", "bike_id": "9a9d93c05ad9a4e864d5587f9aab76c0", "rental_uris": {"android": "https://dc.lft.to/lastmile_qr_scan", "ios": "https://dc.lft.to/lastmile_qr_scan"}, "name": "9a9d93c05ad9a4e864d5587f9aab76c0"}, {"lat": 38.92152566666667, "is_reserved": 0, "lon": -77.038667, "fusion_lon": 0.0, "fusion_lat": 0.0, "is_disabled": 0, "type": "electric_scooter", "bike_id": "dd96986153237691728c90cb05761a50", "rental_uris": {"android": "https://dc.lft.to/lastmile_qr_scan", "ios": "https://dc.lft.to/lastmile_qr_scan"}, "name": "dd96986153237691728c90cb05761a50"}, {"lat": 38.91874383333333, "is_reserved": 0, "lon": -77.01474416666667, "fusion_lon": 0.0, "fusion_lat": 0.0, "is_disabled": 0, "type": "electric_scooter", "bike_id": "4f90d2808fe1c2d72aff26ac593b2458", "rental_uris": {"android": "https://dc.lft.to/lastmile_qr_scan", "ios": "https://dc.lft.to/lastmile_qr_scan"}, "name": "4f90d2808fe1c2d72aff26ac593b2458"}, {"lat": 38.897424666666666, "is_reserved": 0, "lon": -77.00139283333333, "fusion_lon": 0.0, "fusion_lat": 0.0, "is_disabled": 0, "type": "electric_scooter", "bike_id": "a04688e1c0211f68234a1fe9b9f714ad", "rental_uris": {"android": "https://dc.lft.to/lastmile_qr_scan", "ios": "https://dc.lft.to/lastmile_qr_scan"}, "name": "a04688e1c0211f68234a1fe9b9f714ad"}, {"lat": 38.89220783333333, "is_reserved": 0, "lon": -77.04681616666667, "fusion_lon": 0.0, "fusion_lat": 0.0, "is_disabled": 0, "type": "electric_scooter", "bike_id": "b508c3923d6e1fc56623231f1bb1788c", "rental_uris": {"android": "https://dc.lft.to/lastmile_qr_scan", "ios": "https://dc.lft.to/lastmile_qr_scan"}, "name": "b508c3923d6e1fc56623231f1bb1788c"}, {"lat": 38.886279, "is_reserved": 0, "lon": -77.028294, "fusion_lon": 0.0, "fusion_lat": 0.0, "is_disabled": 0, "type": "electric_scooter", "bike_id": "f18a046cf249d46114490b471b0e7047", "rental_uris": {"android": "https://dc.lft.to/lastmile_qr_scan", "ios": "https://dc.lft.to/lastmile_qr_scan"}, "name": "f18a046cf249d46114490b471b0e7047"}, {"lat": 38.925241, "is_reserved": 0, "lon": -77.04092666666666, "fusion_lon": 0.0, "fusion_lat": 0.0, "is_disabled": 0, "type": "electric_scooter", "bike_id": "986d8dfb2a2697ae7aecdfefe71f1461", "rental_uris": {"android": "https://dc.lft.to/lastmile_qr_scan", "ios": "https://dc.lft.to/lastmile_qr_scan"}, "name": "986d8dfb2a2697ae7aecdfefe71f1461"}, {"lat": 38.89736383333333, "is_reserved": 0, "lon": -76.94724416666666, "fusion_lon": 0.0, "fusion_lat": 0.0, "is_disabled": 0, "type": "electric_scooter", "bike_id": "5a9af7f4933b022993c9476acc922db0", "rental_uris": {"android": "https://dc.lft.to/lastmile_qr_scan", "ios": "https://dc.lft.to/lastmile_qr_scan"}, "name": "5a9af7f4933b022993c9476acc922db0"}, {"lat": 38.930479, "is_reserved": 0, "lon": -77.03205183333333, "fusion_lon": 0.0, "fusion_lat": 0.0, "is_disabled": 0, "type": "electric_scooter", "bike_id": "de24c4f96d4a3a6240173b48319de94c", "rental_uris": {"android": "https://dc.lft.to/lastmile_qr_scan", "ios": "https://dc.lft.to/lastmile_qr_scan"}, "name": "de24c4f96d4a3a6240173b48319de94c"}, {"lat": 38.927977166666665, "is_reserved": 0, "lon": -77.03601266666666, "fusion_lon": 0.0, "fusion_lat": 0.0, "is_disabled": 0, "type": "electric_scooter", "bike_id": "5593510d8b30adc7f6f18d0680538e06", "rental_uris": {"android": "https://dc.lft.to/lastmile_qr_scan", "ios": "https://dc.lft.to/lastmile_qr_scan"}, "name": "5593510d8b30adc7f6f18d0680538e06"}, {"lat": 38.91126633333333, "is_reserved": 0, "lon": -77.0318715, "fusion_lon": 0.0, "fusion_lat": 0.0, "is_disabled": 0, "type": "electric_scooter", "bike_id": "fef718a8c04bc312cdf8a5edd22f960b", "rental_uris": {"android": "https://dc.lft.to/lastmile_qr_scan", "ios": "https://dc.lft.to/lastmile_qr_scan"}, "name": "fef718a8c04bc312cdf8a5edd22f960b"}, {"lat": 38.93827916666667, "is_reserved": 0, "lon": -76.94315066666667, "fusion_lon": 0.0, "fusion_lat": 0.0, "is_disabled": 0, "type": "electric_bike", "bike_id": "db9d4dd9fba624071a49bd98b7975231", "rental_uris": {"android": "https://dc.lft.to/lastmile_qr_scan", "ios": "https://dc.lft.to/lastmile_qr_scan"}, "name": "db9d4dd9fba624071a49bd98b7975231"}, {"lat": 38.93519833333333, "is_reserved": 0, "lon": -77.03070766666667, "fusion_lon": 0.0, "fusion_lat": 0.0, "is_disabled": 0, "type": "electric_scooter", "bike_id": "c288b0c3a0771854dcf72efd37eda75c", "rental_uris": {"android": "https://dc.lft.to/lastmile_qr_scan", "ios": "https://dc.lft.to/lastmile_qr_scan"}, "name": "c288b0c3a0771854dcf72efd37eda75c"}, {"lat": 38.92456933333333, "is_reserved": 0, "lon": -77.021565, "fusion_lon": 0.0, "fusion_lat": 0.0, "is_disabled": 0, "type": "electric_scooter", "bike_id": "807dc9ef9cefcb9946299510412f74c8", "rental_uris": {"android": "https://dc.lft.to/lastmile_qr_scan", "ios": "https://dc.lft.to/lastmile_qr_scan"}, "name": "807dc9ef9cefcb9946299510412f74c8"}, {"lat": 38.909553333333335, "is_reserved": 0, "lon": -77.02216333333334, "fusion_lon": 0.0, "fusion_lat": 0.0, "is_disabled": 0, "type": "electric_scooter", "bike_id": "405f8727ee5649409bf1cb8bdbcce726", "rental_uris": {"android": "https://dc.lft.to/lastmile_qr_scan", "ios": "https://dc.lft.to/lastmile_qr_scan"}, "name": "405f8727ee5649409bf1cb8bdbcce726"}, {"lat": 38.9261805, "is_reserved": 0, "lon": -77.03963683333333, "fusion_lon": 0.0, "fusion_lat": 0.0, "is_disabled": 0, "type": "electric_scooter", "bike_id": "912c9c3d33e4770367c1949b9ed9a4cb", "rental_uris": {"android": "https://dc.lft.to/lastmile_qr_scan", "ios": "https://dc.lft.to/lastmile_qr_scan"}, "name": "912c9c3d33e4770367c1949b9ed9a4cb"}, {"lat": 38.899581, "is_reserved": 0, "lon": -77.05098733333334, "fusion_lon": 0.0, "fusion_lat": 0.0, "is_disabled": 0, "type": "electric_scooter", "bike_id": "5bb4c1831a7b9135eccbd5fb395c25f0", "rental_uris": {"android": "https://dc.lft.to/lastmile_qr_scan", "ios": "https://dc.lft.to/lastmile_qr_scan"}, "name": "5bb4c1831a7b9135eccbd5fb395c25f0"}, {"lat": 38.925647166666664, "is_reserved": 0, "lon": -77.03539283333333, "fusion_lon": 0.0, "fusion_lat": 0.0, "is_disabled": 0, "type": "electric_scooter", "bike_id": "4175e5edc864caa3a699abe8e165366b", "rental_uris": {"android": "https://dc.lft.to/lastmile_qr_scan", "ios": "https://dc.lft.to/lastmile_qr_scan"}, "name": "4175e5edc864caa3a699abe8e165366b"}, {"lat": 38.80974716666667, "is_reserved": 0, "lon": -77.08631483333333, "fusion_lon": 0.0, "fusion_lat": 0.0, "is_disabled": 0, "type": "electric_bike", "bike_id": "6f30803ff7fe13965b1c6f260775b41e", "rental_uris": {"android": "https://dc.lft.to/lastmile_qr_scan", "ios": "https://dc.lft.to/lastmile_qr_scan"}, "name": "6f30803ff7fe13965b1c6f260775b41e"}, {"lat": 38.892199833333336, "is_reserved": 0, "lon": -77.02220166666666, "fusion_lon": 0.0, "fusion_lat": 0.0, "is_disabled": 0, "type": "electric_scooter", "bike_id": "101065e2358c2b572b7560f2b04391d5", "rental_uris": {"android": "https://dc.lft.to/lastmile_qr_scan", "ios": "https://dc.lft.to/lastmile_qr_scan"}, "name": "101065e2358c2b572b7560f2b04391d5"}, {"lat": 38.88652733333333, "is_reserved": 0, "lon": -77.02826033333334, "fusion_lon": 0.0, "fusion_lat": 0.0, "is_disabled": 0, "type": "electric_scooter", "bike_id": "832cf18304faff6b64911db665b53b08", "rental_uris": {"android": "https://dc.lft.to/lastmile_qr_scan", "ios": "https://dc.lft.to/lastmile_qr_scan"}, "name": "832cf18304faff6b64911db665b53b08"}, {"lat": 38.89889983333333, "is_reserved": 0, "lon": -77.03277133333333, "fusion_lon": 0.0, "fusion_lat": 0.0, "is_disabled": 0, "type": "electric_scooter", "bike_id": "0c34e4c5829610a96b62299cf8876544", "rental_uris": {"android": "https://dc.lft.to/lastmile_qr_scan", "ios": "https://dc.lft.to/lastmile_qr_scan"}, "name": "0c34e4c5829610a96b62299cf8876544"}, {"lat": 38.9180095, "is_reserved": 0, "lon": -77.03449833333333, "fusion_lon": 0.0, "fusion_lat": 0.0, "is_disabled": 0, "type": "electric_scooter", "bike_id": "4ab7f62541649083aad0efae38c0079a", "rental_uris": {"android": "https://dc.lft.to/lastmile_qr_scan", "ios": "https://dc.lft.to/lastmile_qr_scan"}, "name": "4ab7f62541649083aad0efae38c0079a"}, {"lat": 38.92230633333333, "is_reserved": 0, "lon": -77.023306, "fusion_lon": 0.0, "fusion_lat": 0.0, "is_disabled": 0, "type": "electric_scooter", "bike_id": "a3de89d3cdc169cd114ed992d9d7e922", "rental_uris": {"android": "https://dc.lft.to/lastmile_qr_scan", "ios": "https://dc.lft.to/lastmile_qr_scan"}, "name": "a3de89d3cdc169cd114ed992d9d7e922"}, {"lat": 38.91562533333333, "is_reserved": 0, "lon": -77.02277983333333, "fusion_lon": 0.0, "fusion_lat": 0.0, "is_disabled": 0, "type": "electric_scooter", "bike_id": "7b5b98ba6ba383f1503699fc9e178731", "rental_uris": {"android": "https://dc.lft.to/lastmile_qr_scan", "ios": "https://dc.lft.to/lastmile_qr_scan"}, "name": "7b5b98ba6ba383f1503699fc9e178731"}, {"lat": 38.996794666666666, "is_reserved": 0, "lon": -77.03784833333333, "fusion_lon": 0.0, "fusion_lat": 0.0, "is_disabled": 0, "type": "electric_bike", "bike_id": "34c8990b04d600362ff4f2469b56baee", "rental_uris": {"android": "https://dc.lft.to/lastmile_qr_scan", "ios": "https://dc.lft.to/lastmile_qr_scan"}, "name": "34c8990b04d600362ff4f2469b56baee"}, {"lat": 38.923137833333335, "is_reserved": 0, "lon": -77.04217166666666, "fusion_lon": 0.0, "fusion_lat": 0.0, "is_disabled": 0, "type": "electric_scooter", "bike_id": "868dd029ec1c0d993c92d1d4a126338b", "rental_uris": {"android": "https://dc.lft.to/lastmile_qr_scan", "ios": "https://dc.lft.to/lastmile_qr_scan"}, "name": "868dd029ec1c0d993c92d1d4a126338b"}, {"lat": 38.90228166666667, "is_reserved": 0, "lon": -77.03829233333333, "fusion_lon": 0.0, "fusion_lat": 0.0, "is_disabled": 0, "type": "electric_scooter", "bike_id": "5bc2e6de755dc0fdb949540902550965", "rental_uris": {"android": "https://dc.lft.to/lastmile_qr_scan", "ios": "https://dc.lft.to/lastmile_qr_scan"}, "name": "5bc2e6de755dc0fdb949540902550965"}, {"lat": 38.91847283333333, "is_reserved": 0, "lon": -77.04830633333333, "fusion_lon": 0.0, "fusion_lat": 0.0, "is_disabled": 0, "type": "electric_scooter", "bike_id": "3b391254aed3e9d561865b7db38dd907", "rental_uris": {"android": "https://dc.lft.to/lastmile_qr_scan", "ios": "https://dc.lft.to/lastmile_qr_scan"}, "name": "3b391254aed3e9d561865b7db38dd907"}, {"lat": 38.92236366666667, "is_reserved": 0, "lon": -77.0282245, "fusion_lon": 0.0, "fusion_lat": 0.0, "is_disabled": 0, "type": "electric_scooter", "bike_id": "944d5da3f7fc1a55f9c2515296989c3d", "rental_uris": {"android": "https://dc.lft.to/lastmile_qr_scan", "ios": "https://dc.lft.to/lastmile_qr_scan"}, "name": "944d5da3f7fc1a55f9c2515296989c3d"}, {"lat": 38.916918, "is_reserved": 0, "lon": -77.025931, "fusion_lon": 0.0, "fusion_lat": 0.0, "is_disabled": 0, "type": "electric_scooter", "bike_id": "30984b385c21299bc17d87703cdf5e95", "rental_uris": {"android": "https://dc.lft.to/lastmile_qr_scan", "ios": "https://dc.lft.to/lastmile_qr_scan"}, "name": "30984b385c21299bc17d87703cdf5e95"}, {"lat": 38.9246085, "is_reserved": 0, "lon": -77.0330025, "fusion_lon": 0.0, "fusion_lat": 0.0, "is_disabled": 0, "type": "electric_scooter", "bike_id": "90e564fc6ce4b6c856d67d63125fed65", "rental_uris": {"android": "https://dc.lft.to/lastmile_qr_scan", "ios": "https://dc.lft.to/lastmile_qr_scan"}, "name": "90e564fc6ce4b6c856d67d63125fed65"}, {"lat": 38.9191845, "is_reserved": 0, "lon": -77.03180033333334, "fusion_lon": 0.0, "fusion_lat": 0.0, "is_disabled": 0, "type": "electric_scooter", "bike_id": "cceb4f6877b0bd5b755e28beecba6f4e", "rental_uris": {"android": "https://dc.lft.to/lastmile_qr_scan", "ios": "https://dc.lft.to/lastmile_qr_scan"}, "name": "cceb4f6877b0bd5b755e28beecba6f4e"}, {"lat": 38.892177833333335, "is_reserved": 0, "lon": -77.02606133333333, "fusion_lon": 0.0, "fusion_lat": 0.0, "is_disabled": 0, "type": "electric_scooter", "bike_id": "fc0fed621f141b376a11341cf6ea7f00", "rental_uris": {"android": "https://dc.lft.to/lastmile_qr_scan", "ios": "https://dc.lft.to/lastmile_qr_scan"}, "name": "fc0fed621f141b376a11341cf6ea7f00"}, {"lat": 38.92652366666667, "is_reserved": 0, "lon": -77.03725, "fusion_lon": 0.0, "fusion_lat": 0.0, "is_disabled": 0, "type": "electric_scooter", "bike_id": "959cd378b43be0f6e0e7cd95cdc84eb6", "rental_uris": {"android": "https://dc.lft.to/lastmile_qr_scan", "ios": "https://dc.lft.to/lastmile_qr_scan"}, "name": "959cd378b43be0f6e0e7cd95cdc84eb6"}, {"lat": 38.95778983333334, "is_reserved": 0, "lon": -77.02481716666667, "fusion_lon": 0.0, "fusion_lat": 0.0, "is_disabled": 0, "type": "electric_scooter", "bike_id": "a530b2d2b1259502b81522be81d102cf", "rental_uris": {"android": "https://dc.lft.to/lastmile_qr_scan", "ios": "https://dc.lft.to/lastmile_qr_scan"}, "name": "a530b2d2b1259502b81522be81d102cf"}, {"lat": 38.881044333333335, "is_reserved": 0, "lon": -77.016642, "fusion_lon": 0.0, "fusion_lat": 0.0, "is_disabled": 0, "type": "electric_bike", "bike_id": "70b3f6b2671fc0aa80242517068c0cc9", "rental_uris": {"android": "https://dc.lft.to/lastmile_qr_scan", "ios": "https://dc.lft.to/lastmile_qr_scan"}, "name": "70b3f6b2671fc0aa80242517068c0cc9"}, {"lat": 38.89861233333333, "is_reserved": 0, "lon": -76.946389, "fusion_lon": 0.0, "fusion_lat": 0.0, "is_disabled": 0, "type": "electric_scooter", "bike_id": "9e0c7409bb02975c0a637d6166b55347", "rental_uris": {"android": "https://dc.lft.to/lastmile_qr_scan", "ios": "https://dc.lft.to/lastmile_qr_scan"}, "name": "9e0c7409bb02975c0a637d6166b55347"}, {"lat": 38.9001625, "is_reserved": 0, "lon": -77.04152983333333, "fusion_lon": 0.0, "fusion_lat": 0.0, "is_disabled": 0, "type": "electric_scooter", "bike_id": "8d0b97920e43c19ad03e9fd9fe1c0cbf", "rental_uris": {"android": "https://dc.lft.to/lastmile_qr_scan", "ios": "https://dc.lft.to/lastmile_qr_scan"}, "name": "8d0b97920e43c19ad03e9fd9fe1c0cbf"}, {"lat": 38.88738766666667, "is_reserved": 0, "lon": -77.02566733333333, "fusion_lon": 0.0, "fusion_lat": 0.0, "is_disabled": 0, "type": "electric_scooter", "bike_id": "cb80bef72839502604c48a8d0e68e417", "rental_uris": {"android": "https://dc.lft.to/lastmile_qr_scan", "ios": "https://dc.lft.to/lastmile_qr_scan"}, "name": "cb80bef72839502604c48a8d0e68e417"}, {"lat": 38.92129833333333, "is_reserved": 0, "lon": -77.0413045, "fusion_lon": 0.0, "fusion_lat": 0.0, "is_disabled": 0, "type": "electric_scooter", "bike_id": "4d55766b8211b5ae2dc98a560454659a", "rental_uris": {"android": "https://dc.lft.to/lastmile_qr_scan", "ios": "https://dc.lft.to/lastmile_qr_scan"}, "name": "4d55766b8211b5ae2dc98a560454659a"}, {"lat": 38.909841166666666, "is_reserved": 0, "lon": -77.03276433333333, "fusion_lon": 0.0, "fusion_lat": 0.0, "is_disabled": 0, "type": "electric_scooter", "bike_id": "42ce56823cec152fd82077f460220a63", "rental_uris": {"android": "https://dc.lft.to/lastmile_qr_scan", "ios": "https://dc.lft.to/lastmile_qr_scan"}, "name": "42ce56823cec152fd82077f460220a63"}, {"lat": 38.9111815, "is_reserved": 0, "lon": -77.03577883333334, "fusion_lon": 0.0, "fusion_lat": 0.0, "is_disabled": 0, "type": "electric_scooter", "bike_id": "ccbff8bc0db562038591ecb325e39b77", "rental_uris": {"android": "https://dc.lft.to/lastmile_qr_scan", "ios": "https://dc.lft.to/lastmile_qr_scan"}, "name": "ccbff8bc0db562038591ecb325e39b77"}, {"lat": 38.92360733333334, "is_reserved": 0, "lon": -77.02124483333333, "fusion_lon": 0.0, "fusion_lat": 0.0, "is_disabled": 0, "type": "electric_scooter", "bike_id": "a88624b8cb4433f52cede1e09deba471", "rental_uris": {"android": "https://dc.lft.to/lastmile_qr_scan", "ios": "https://dc.lft.to/lastmile_qr_scan"}, "name": "a88624b8cb4433f52cede1e09deba471"}, {"lat": 38.920272833333335, "is_reserved": 0, "lon": -77.03082916666666, "fusion_lon": 0.0, "fusion_lat": 0.0, "is_disabled": 0, "type": "electric_scooter", "bike_id": "c91d2d9c61e389fc7ae6d50abe8ceb4c", "rental_uris": {"android": "https://dc.lft.to/lastmile_qr_scan", "ios": "https://dc.lft.to/lastmile_qr_scan"}, "name": "c91d2d9c61e389fc7ae6d50abe8ceb4c"}, {"lat": 38.914063666666664, "is_reserved": 0, "lon": -77.04274833333334, "fusion_lon": 0.0, "fusion_lat": 0.0, "is_disabled": 0, "type": "electric_scooter", "bike_id": "d27a2e93dfa54e6abb9a2c9cae006b0d", "rental_uris": {"android": "https://dc.lft.to/lastmile_qr_scan", "ios": "https://dc.lft.to/lastmile_qr_scan"}, "name": "d27a2e93dfa54e6abb9a2c9cae006b0d"}, {"lat": 38.903404333333334, "is_reserved": 0, "lon": -77.01628066666666, "fusion_lon": 0.0, "fusion_lat": 0.0, "is_disabled": 0, "type": "electric_scooter", "bike_id": "532cd192036eef7519e80f495cebc6d8", "rental_uris": {"android": "https://dc.lft.to/lastmile_qr_scan", "ios": "https://dc.lft.to/lastmile_qr_scan"}, "name": "532cd192036eef7519e80f495cebc6d8"}, {"lat": 38.91648166666667, "is_reserved": 0, "lon": -77.03180133333333, "fusion_lon": 0.0, "fusion_lat": 0.0, "is_disabled": 0, "type": "electric_scooter", "bike_id": "71db568a6e6ee3950eef5cbf719d33e3", "rental_uris": {"android": "https://dc.lft.to/lastmile_qr_scan", "ios": "https://dc.lft.to/lastmile_qr_scan"}, "name": "71db568a6e6ee3950eef5cbf719d33e3"}, {"lat": 38.93087366666666, "is_reserved": 0, "lon": -77.03118683333334, "fusion_lon": 0.0, "fusion_lat": 0.0, "is_disabled": 0, "type": "electric_scooter", "bike_id": "50ac3c3c28c773621dae615a53f77d60", "rental_uris": {"android": "https://dc.lft.to/lastmile_qr_scan", "ios": "https://dc.lft.to/lastmile_qr_scan"}, "name": "50ac3c3c28c773621dae615a53f77d60"}, {"lat": 38.902120833333335, "is_reserved": 0, "lon": -77.04705083333333, "fusion_lon": 0.0, "fusion_lat": 0.0, "is_disabled": 0, "type": "electric_scooter", "bike_id": "f88375cd6b3caf8318975ea9e33979f9", "rental_uris": {"android": "https://dc.lft.to/lastmile_qr_scan", "ios": "https://dc.lft.to/lastmile_qr_scan"}, "name": "f88375cd6b3caf8318975ea9e33979f9"}, {"lat": 38.934324833333335, "is_reserved": 0, "lon": -77.0398935, "fusion_lon": 0.0, "fusion_lat": 0.0, "is_disabled": 0, "type": "electric_scooter", "bike_id": "70c326ab355d47f169d6cae0175211d0", "rental_uris": {"android": "https://dc.lft.to/lastmile_qr_scan", "ios": "https://dc.lft.to/lastmile_qr_scan"}, "name": "70c326ab355d47f169d6cae0175211d0"}, {"lat": 38.917907666666665, "is_reserved": 0, "lon": -77.02371316666667, "fusion_lon": 0.0, "fusion_lat": 0.0, "is_disabled": 0, "type": "electric_scooter", "bike_id": "9e92646547aa0d992d79b8df67168240", "rental_uris": {"android": "https://dc.lft.to/lastmile_qr_scan", "ios": "https://dc.lft.to/lastmile_qr_scan"}, "name": "9e92646547aa0d992d79b8df67168240"}, {"lat": 38.90243616666667, "is_reserved": 0, "lon": -77.02483, "fusion_lon": 0.0, "fusion_lat": 0.0, "is_disabled": 0, "type": "electric_scooter", "bike_id": "b80970811c4b2da43a4c2d950affd4e9", "rental_uris": {"android": "https://dc.lft.to/lastmile_qr_scan", "ios": "https://dc.lft.to/lastmile_qr_scan"}, "name": "b80970811c4b2da43a4c2d950affd4e9"}, {"lat": 38.908704666666665, "is_reserved": 0, "lon": -76.93336966666666, "fusion_lon": 0.0, "fusion_lat": 0.0, "is_disabled": 0, "type": "electric_scooter", "bike_id": "aa0d8e05222aa6c4b05050a515e21d66", "rental_uris": {"android": "https://dc.lft.to/lastmile_qr_scan", "ios": "https://dc.lft.to/lastmile_qr_scan"}, "name": "aa0d8e05222aa6c4b05050a515e21d66"}, {"lat": 38.94919933333333, "is_reserved": 0, "lon": -77.018579, "fusion_lon": 0.0, "fusion_lat": 0.0, "is_disabled": 0, "type": "electric_scooter", "bike_id": "936cb72a3ce1fe60e81d63e4fdfeade8", "rental_uris": {"android": "https://dc.lft.to/lastmile_qr_scan", "ios": "https://dc.lft.to/lastmile_qr_scan"}, "name": "936cb72a3ce1fe60e81d63e4fdfeade8"}, {"lat": 38.89424866666667, "is_reserved": 0, "lon": -77.03969916666667, "fusion_lon": 0.0, "fusion_lat": 0.0, "is_disabled": 0, "type": "electric_scooter", "bike_id": "feae338f1ac568d478b9e2f8eb7f3844", "rental_uris": {"android": "https://dc.lft.to/lastmile_qr_scan", "ios": "https://dc.lft.to/lastmile_qr_scan"}, "name": "feae338f1ac568d478b9e2f8eb7f3844"}, {"lat": 38.897241, "is_reserved": 0, "lon": -77.02215633333333, "fusion_lon": 0.0, "fusion_lat": 0.0, "is_disabled": 0, "type": "electric_scooter", "bike_id": "301047fe590166ec3bf8631704f60653", "rental_uris": {"android": "https://dc.lft.to/lastmile_qr_scan", "ios": "https://dc.lft.to/lastmile_qr_scan"}, "name": "301047fe590166ec3bf8631704f60653"}, {"lat": 38.90468166666667, "is_reserved": 0, "lon": -77.04860233333333, "fusion_lon": 0.0, "fusion_lat": 0.0, "is_disabled": 0, "type": "electric_scooter", "bike_id": "005888289a2daed535a00b59aa686b60", "rental_uris": {"android": "https://dc.lft.to/lastmile_qr_scan", "ios": "https://dc.lft.to/lastmile_qr_scan"}, "name": "005888289a2daed535a00b59aa686b60"}, {"lat": 38.917795166666664, "is_reserved": 0, "lon": -77.04771366666667, "fusion_lon": 0.0, "fusion_lat": 0.0, "is_disabled": 0, "type": "electric_bike", "bike_id": "6213033f071ef9e33194a1b4f213ecc8", "rental_uris": {"android": "https://dc.lft.to/lastmile_qr_scan", "ios": "https://dc.lft.to/lastmile_qr_scan"}, "name": "6213033f071ef9e33194a1b4f213ecc8"}, {"lat": 38.9053185, "is_reserved": 0, "lon": -77.05771416666667, "fusion_lon": 0.0, "fusion_lat": 0.0, "is_disabled": 0, "type": "electric_scooter", "bike_id": "acf66d13a46c4d15da32f9df800979e4", "rental_uris": {"android": "https://dc.lft.to/lastmile_qr_scan", "ios": "https://dc.lft.to/lastmile_qr_scan"}, "name": "acf66d13a46c4d15da32f9df800979e4"}, {"lat": 38.8424985, "is_reserved": 0, "lon": -77.0788685, "fusion_lon": 0.0, "fusion_lat": 0.0, "is_disabled": 0, "type": "electric_bike", "bike_id": "fe1241ff393c0c644d3d0b4d479bb747", "rental_uris": {"android": "https://dc.lft.to/lastmile_qr_scan", "ios": "https://dc.lft.to/lastmile_qr_scan"}, "name": "fe1241ff393c0c644d3d0b4d479bb747"}, {"lat": 38.92218166666667, "is_reserved": 0, "lon": -77.03523083333333, "fusion_lon": 0.0, "fusion_lat": 0.0, "is_disabled": 0, "type": "electric_scooter", "bike_id": "84f60dde94b95e4c87ff7d02cdd227a3", "rental_uris": {"android": "https://dc.lft.to/lastmile_qr_scan", "ios": "https://dc.lft.to/lastmile_qr_scan"}, "name": "84f60dde94b95e4c87ff7d02cdd227a3"}, {"lat": 38.90810583333333, "is_reserved": 0, "lon": -77.04880266666666, "fusion_lon": 0.0, "fusion_lat": 0.0, "is_disabled": 0, "type": "electric_scooter", "bike_id": "4954a916769ad689e43c9bfaad8fe9a1", "rental_uris": {"android": "https://dc.lft.to/lastmile_qr_scan", "ios": "https://dc.lft.to/lastmile_qr_scan"}, "name": "4954a916769ad689e43c9bfaad8fe9a1"}, {"lat": 38.92784566666667, "is_reserved": 0, "lon": -77.03270933333333, "fusion_lon": 0.0, "fusion_lat": 0.0, "is_disabled": 0, "type": "electric_scooter", "bike_id": "0609077c7628c3a7c9765741b6f739a9", "rental_uris": {"android": "https://dc.lft.to/lastmile_qr_scan", "ios": "https://dc.lft.to/lastmile_qr_scan"}, "name": "0609077c7628c3a7c9765741b6f739a9"}, {"lat": 38.9031985, "is_reserved": 0, "lon": -76.991252, "fusion_lon": 0.0, "fusion_lat": 0.0, "is_disabled": 0, "type": "electric_scooter", "bike_id": "f62256a1cc640e0a4e146023aec8c724", "rental_uris": {"android": "https://dc.lft.to/lastmile_qr_scan", "ios": "https://dc.lft.to/lastmile_qr_scan"}, "name": "f62256a1cc640e0a4e146023aec8c724"}, {"lat": 38.92694566666667, "is_reserved": 0, "lon": -77.03565033333334, "fusion_lon": 0.0, "fusion_lat": 0.0, "is_disabled": 0, "type": "electric_scooter", "bike_id": "ae109a6c02bd0bbb9ff9eb9ff091a6f1", "rental_uris": {"android": "https://dc.lft.to/lastmile_qr_scan", "ios": "https://dc.lft.to/lastmile_qr_scan"}, "name": "ae109a6c02bd0bbb9ff9eb9ff091a6f1"}, {"lat": 38.99707733333334, "is_reserved": 0, "lon": -77.02558216666667, "fusion_lon": 0.0, "fusion_lat": 0.0, "is_disabled": 0, "type": "electric_bike", "bike_id": "444eb1206d425954891743be89ab4339", "rental_uris": {"android": "https://dc.lft.to/lastmile_qr_scan", "ios": "https://dc.lft.to/lastmile_qr_scan"}, "name": "444eb1206d425954891743be89ab4339"}, {"lat": 38.928647833333336, "is_reserved": 0, "lon": -76.9774865, "fusion_lon": 0.0, "fusion_lat": 0.0, "is_disabled": 0, "type": "electric_scooter", "bike_id": "450b7fba82c3a714a96f60de9b50cbba", "rental_uris": {"android": "https://dc.lft.to/lastmile_qr_scan", "ios": "https://dc.lft.to/lastmile_qr_scan"}, "name": "450b7fba82c3a714a96f60de9b50cbba"}, {"lat": 38.867455, "is_reserved": 0, "lon": -76.978573, "fusion_lon": 0.0, "fusion_lat": 0.0, "is_disabled": 0, "type": "electric_scooter", "bike_id": "e1f53b96022ae889314e5350935e2e6b", "rental_uris": {"android": "https://dc.lft.to/lastmile_qr_scan", "ios": "https://dc.lft.to/lastmile_qr_scan"}, "name": "e1f53b96022ae889314e5350935e2e6b"}, {"lat": 38.873719333333334, "is_reserved": 0, "lon": -77.00107533333333, "fusion_lon": 0.0, "fusion_lat": 0.0, "is_disabled": 0, "type": "electric_scooter", "bike_id": "8d074a2124078bb37d0c282633eb3e6a", "rental_uris": {"android": "https://dc.lft.to/lastmile_qr_scan", "ios": "https://dc.lft.to/lastmile_qr_scan"}, "name": "8d074a2124078bb37d0c282633eb3e6a"}, {"lat": 38.92403983333333, "is_reserved": 0, "lon": -77.01221266666667, "fusion_lon": 0.0, "fusion_lat": 0.0, "is_disabled": 0, "type": "electric_scooter", "bike_id": "99c0e55a35121928df4ffbe67cd75021", "rental_uris": {"android": "https://dc.lft.to/lastmile_qr_scan", "ios": "https://dc.lft.to/lastmile_qr_scan"}, "name": "99c0e55a35121928df4ffbe67cd75021"}, {"lat": 38.9265605, "is_reserved": 0, "lon": -77.03728033333333, "fusion_lon": 0.0, "fusion_lat": 0.0, "is_disabled": 0, "type": "electric_scooter", "bike_id": "9ca730771db1af32d8b9d8355cf7b87c", "rental_uris": {"android": "https://dc.lft.to/lastmile_qr_scan", "ios": "https://dc.lft.to/lastmile_qr_scan"}, "name": "9ca730771db1af32d8b9d8355cf7b87c"}, {"lat": 38.90549, "is_reserved": 0, "lon": -77.02716483333333, "fusion_lon": 0.0, "fusion_lat": 0.0, "is_disabled": 0, "type": "electric_scooter", "bike_id": "931e8ede715ea456b43cb6320f7f1fa0", "rental_uris": {"android": "https://dc.lft.to/lastmile_qr_scan", "ios": "https://dc.lft.to/lastmile_qr_scan"}, "name": "931e8ede715ea456b43cb6320f7f1fa0"}, {"lat": 38.934393166666666, "is_reserved": 0, "lon": -77.032923, "fusion_lon": 0.0, "fusion_lat": 0.0, "is_disabled": 0, "type": "electric_scooter", "bike_id": "9ce265203e357c7a858e13953c8aab31", "rental_uris": {"android": "https://dc.lft.to/lastmile_qr_scan", "ios": "https://dc.lft.to/lastmile_qr_scan"}, "name": "9ce265203e357c7a858e13953c8aab31"}, {"lat": 38.91006133333333, "is_reserved": 0, "lon": -77.0345615, "fusion_lon": 0.0, "fusion_lat": 0.0, "is_disabled": 0, "type": "electric_scooter", "bike_id": "493e9ec431f160d85e7705988dc41c76", "rental_uris": {"android": "https://dc.lft.to/lastmile_qr_scan", "ios": "https://dc.lft.to/lastmile_qr_scan"}, "name": "493e9ec431f160d85e7705988dc41c76"}, {"lat": 38.916797833333334, "is_reserved": 0, "lon": -77.03582533333334, "fusion_lon": 0.0, "fusion_lat": 0.0, "is_disabled": 0, "type": "electric_scooter", "bike_id": "f20c741dd7c69cbc5ba38a2690662afa", "rental_uris": {"android": "https://dc.lft.to/lastmile_qr_scan", "ios": "https://dc.lft.to/lastmile_qr_scan"}, "name": "f20c741dd7c69cbc5ba38a2690662afa"}, {"lat": 38.9003865, "is_reserved": 0, "lon": -76.9984035, "fusion_lon": 0.0, "fusion_lat": 0.0, "is_disabled": 0, "type": "electric_scooter", "bike_id": "dbcdce320fdffccbb69e277a715edbd2", "rental_uris": {"android": "https://dc.lft.to/lastmile_qr_scan", "ios": "https://dc.lft.to/lastmile_qr_scan"}, "name": "dbcdce320fdffccbb69e277a715edbd2"}, {"lat": 38.92579633333333, "is_reserved": 0, "lon": -77.03787933333334, "fusion_lon": 0.0, "fusion_lat": 0.0, "is_disabled": 0, "type": "electric_scooter", "bike_id": "bdd5d5c033dbc954abbbf10d1f0bf39b", "rental_uris": {"android": "https://dc.lft.to/lastmile_qr_scan", "ios": "https://dc.lft.to/lastmile_qr_scan"}, "name": "bdd5d5c033dbc954abbbf10d1f0bf39b"}, {"lat": 38.881342333333336, "is_reserved": 0, "lon": -77.01657933333334, "fusion_lon": 0.0, "fusion_lat": 0.0, "is_disabled": 0, "type": "electric_scooter", "bike_id": "40a54af1aea55c5b3ad59a0f231c1ca8", "rental_uris": {"android": "https://dc.lft.to/lastmile_qr_scan", "ios": "https://dc.lft.to/lastmile_qr_scan"}, "name": "40a54af1aea55c5b3ad59a0f231c1ca8"}, {"lat": 38.90126, "is_reserved": 0, "lon": -77.04587933333333, "fusion_lon": 0.0, "fusion_lat": 0.0, "is_disabled": 0, "type": "electric_scooter", "bike_id": "f2ed1965a9e825097c2fc08817472c4f", "rental_uris": {"android": "https://dc.lft.to/lastmile_qr_scan", "ios": "https://dc.lft.to/lastmile_qr_scan"}, "name": "f2ed1965a9e825097c2fc08817472c4f"}, {"lat": 38.90282916666666, "is_reserved": 0, "lon": -77.03380633333333, "fusion_lon": 0.0, "fusion_lat": 0.0, "is_disabled": 0, "type": "electric_scooter", "bike_id": "093129ee0caceca35c79b8b9d5442a9a", "rental_uris": {"android": "https://dc.lft.to/lastmile_qr_scan", "ios": "https://dc.lft.to/lastmile_qr_scan"}, "name": "093129ee0caceca35c79b8b9d5442a9a"}, {"lat": 38.89902566666667, "is_reserved": 0, "lon": -77.04468466666667, "fusion_lon": 0.0, "fusion_lat": 0.0, "is_disabled": 0, "type": "electric_scooter", "bike_id": "5446d3caef822a4653afd4242264c3d9", "rental_uris": {"android": "https://dc.lft.to/lastmile_qr_scan", "ios": "https://dc.lft.to/lastmile_qr_scan"}, "name": "5446d3caef822a4653afd4242264c3d9"}, {"lat": 38.907888666666665, "is_reserved": 0, "lon": -77.04177533333333, "fusion_lon": 0.0, "fusion_lat": 0.0, "is_disabled": 0, "type": "electric_scooter", "bike_id": "b01b559de2d23c58c342500f2c564bf7", "rental_uris": {"android": "https://dc.lft.to/lastmile_qr_scan", "ios": "https://dc.lft.to/lastmile_qr_scan"}, "name": "b01b559de2d23c58c342500f2c564bf7"}, {"lat": 38.9176785, "is_reserved": 0, "lon": -77.0150715, "fusion_lon": 0.0, "fusion_lat": 0.0, "is_disabled": 0, "type": "electric_scooter", "bike_id": "3f9b4f61276149ac12a794f26c680ce3", "rental_uris": {"android": "https://dc.lft.to/lastmile_qr_scan", "ios": "https://dc.lft.to/lastmile_qr_scan"}, "name": "3f9b4f61276149ac12a794f26c680ce3"}, {"lat": 38.93667216666667, "is_reserved": 0, "lon": -76.99061983333333, "fusion_lon": 0.0, "fusion_lat": 0.0, "is_disabled": 0, "type": "electric_bike", "bike_id": "ac189fed01665053df042d0a5758e616", "rental_uris": {"android": "https://dc.lft.to/lastmile_qr_scan", "ios": "https://dc.lft.to/lastmile_qr_scan"}, "name": "ac189fed01665053df042d0a5758e616"}, {"lat": 38.92265666666667, "is_reserved": 0, "lon": -77.03659533333334, "fusion_lon": 0.0, "fusion_lat": 0.0, "is_disabled": 0, "type": "electric_scooter", "bike_id": "9f692972d72fa3f4d16a0f56e291bf64", "rental_uris": {"android": "https://dc.lft.to/lastmile_qr_scan", "ios": "https://dc.lft.to/lastmile_qr_scan"}, "name": "9f692972d72fa3f4d16a0f56e291bf64"}, {"lat": 38.89363933333333, "is_reserved": 0, "lon": -76.9470185, "fusion_lon": 0.0, "fusion_lat": 0.0, "is_disabled": 0, "type": "electric_scooter", "bike_id": "0a1aaad5e8b236fccb9f4c290a883ed5", "rental_uris": {"android": "https://dc.lft.to/lastmile_qr_scan", "ios": "https://dc.lft.to/lastmile_qr_scan"}, "name": "0a1aaad5e8b236fccb9f4c290a883ed5"}, {"lat": 38.905548, "is_reserved": 0, "lon": -77.04865866666667, "fusion_lon": 0.0, "fusion_lat": 0.0, "is_disabled": 0, "type": "electric_scooter", "bike_id": "4944e628db7a0130dd801fa746e4b74a", "rental_uris": {"android": "https://dc.lft.to/lastmile_qr_scan", "ios": "https://dc.lft.to/lastmile_qr_scan"}, "name": "4944e628db7a0130dd801fa746e4b74a"}, {"lat": 38.91689616666667, "is_reserved": 0, "lon": -77.037596, "fusion_lon": 0.0, "fusion_lat": 0.0, "is_disabled": 0, "type": "electric_scooter", "bike_id": "3229d4f4beadd2e07906f2d8197882f4", "rental_uris": {"android": "https://dc.lft.to/lastmile_qr_scan", "ios": "https://dc.lft.to/lastmile_qr_scan"}, "name": "3229d4f4beadd2e07906f2d8197882f4"}, {"lat": 38.90460383333333, "is_reserved": 0, "lon": -77.0354945, "fusion_lon": 0.0, "fusion_lat": 0.0, "is_disabled": 0, "type": "electric_scooter", "bike_id": "883fb5ebd0a986e9ba70afa7083cd18d", "rental_uris": {"android": "https://dc.lft.to/lastmile_qr_scan", "ios": "https://dc.lft.to/lastmile_qr_scan"}, "name": "883fb5ebd0a986e9ba70afa7083cd18d"}, {"lat": 38.93490883333333, "is_reserved": 0, "lon": -77.02605933333334, "fusion_lon": 0.0, "fusion_lat": 0.0, "is_disabled": 0, "type": "electric_scooter", "bike_id": "21fb0018390f50112b169ebdddf0024b", "rental_uris": {"android": "https://dc.lft.to/lastmile_qr_scan", "ios": "https://dc.lft.to/lastmile_qr_scan"}, "name": "21fb0018390f50112b169ebdddf0024b"}, {"lat": 38.923203666666666, "is_reserved": 0, "lon": -77.04346533333333, "fusion_lon": 0.0, "fusion_lat": 0.0, "is_disabled": 0, "type": "electric_scooter", "bike_id": "84b6a64bcb4011ed1104b69aa5088f56", "rental_uris": {"android": "https://dc.lft.to/lastmile_qr_scan", "ios": "https://dc.lft.to/lastmile_qr_scan"}, "name": "84b6a64bcb4011ed1104b69aa5088f56"}, {"lat": 38.92375783333333, "is_reserved": 0, "lon": -77.04119466666667, "fusion_lon": 0.0, "fusion_lat": 0.0, "is_disabled": 0, "type": "electric_scooter", "bike_id": "875f04793f01bb88d83904a1c7dc52da", "rental_uris": {"android": "https://dc.lft.to/lastmile_qr_scan", "ios": "https://dc.lft.to/lastmile_qr_scan"}, "name": "875f04793f01bb88d83904a1c7dc52da"}, {"lat": 38.944044833333336, "is_reserved": 0, "lon": -77.02615733333333, "fusion_lon": 0.0, "fusion_lat": 0.0, "is_disabled": 0, "type": "electric_scooter", "bike_id": "92232de90e3e164448cb06da48e75db9", "rental_uris": {"android": "https://dc.lft.to/lastmile_qr_scan", "ios": "https://dc.lft.to/lastmile_qr_scan"}, "name": "92232de90e3e164448cb06da48e75db9"}, {"lat": 38.87577133333333, "is_reserved": 0, "lon": -77.23410316666667, "fusion_lon": 0.0, "fusion_lat": 0.0, "is_disabled": 0, "type": "electric_bike", "bike_id": "96fdabdde5a6e0b4e8d4746bfc71faf1", "rental_uris": {"android": "https://dc.lft.to/lastmile_qr_scan", "ios": "https://dc.lft.to/lastmile_qr_scan"}, "name": "96fdabdde5a6e0b4e8d4746bfc71faf1"}, {"lat": 38.900022166666666, "is_reserved": 0, "lon": -77.0244915, "fusion_lon": 0.0, "fusion_lat": 0.0, "is_disabled": 0, "type": "electric_scooter", "bike_id": "eccb66ba112bf8d3d9fe8d76c0d80b0c", "rental_uris": {"android": "https://dc.lft.to/lastmile_qr_scan", "ios": "https://dc.lft.to/lastmile_qr_scan"}, "name": "eccb66ba112bf8d3d9fe8d76c0d80b0c"}, {"lat": 38.90158733333333, "is_reserved": 0, "lon": -77.033625, "fusion_lon": 0.0, "fusion_lat": 0.0, "is_disabled": 0, "type": "electric_scooter", "bike_id": "2c01421b5755c9f50266539844f1d4a6", "rental_uris": {"android": "https://dc.lft.to/lastmile_qr_scan", "ios": "https://dc.lft.to/lastmile_qr_scan"}, "name": "2c01421b5755c9f50266539844f1d4a6"}, {"lat": 38.87499366666667, "is_reserved": 0, "lon": -77.00124316666667, "fusion_lon": 0.0, "fusion_lat": 0.0, "is_disabled": 0, "type": "electric_scooter", "bike_id": "2ecc1e4c9edf565592ac68ec1656eea9", "rental_uris": {"android": "https://dc.lft.to/lastmile_qr_scan", "ios": "https://dc.lft.to/lastmile_qr_scan"}, "name": "2ecc1e4c9edf565592ac68ec1656eea9"}, {"lat": 38.9250425, "is_reserved": 0, "lon": -77.05227933333333, "fusion_lon": 0.0, "fusion_lat": 0.0, "is_disabled": 0, "type": "electric_scooter", "bike_id": "396b2bef5d06eafbeb56d5c413554038", "rental_uris": {"android": "https://dc.lft.to/lastmile_qr_scan", "ios": "https://dc.lft.to/lastmile_qr_scan"}, "name": "396b2bef5d06eafbeb56d5c413554038"}, {"lat": 38.88526733333333, "is_reserved": 0, "lon": -76.982676, "fusion_lon": 0.0, "fusion_lat": 0.0, "is_disabled": 0, "type": "electric_scooter", "bike_id": "61c5986c6624b9ee4670de2e45e51e5f", "rental_uris": {"android": "https://dc.lft.to/lastmile_qr_scan", "ios": "https://dc.lft.to/lastmile_qr_scan"}, "name": "61c5986c6624b9ee4670de2e45e51e5f"}, {"lat": 38.91611183333333, "is_reserved": 0, "lon": -77.0311005, "fusion_lon": 0.0, "fusion_lat": 0.0, "is_disabled": 0, "type": "electric_scooter", "bike_id": "b4f441f435b3381a1c73c43f54059f86", "rental_uris": {"android": "https://dc.lft.to/lastmile_qr_scan", "ios": "https://dc.lft.to/lastmile_qr_scan"}, "name": "b4f441f435b3381a1c73c43f54059f86"}, {"lat": 38.86535216666667, "is_reserved": 0, "lon": -76.98969916666667, "fusion_lon": 0.0, "fusion_lat": 0.0, "is_disabled": 0, "type": "electric_scooter", "bike_id": "ab41862fff12abcda4141c4429fe1d08", "rental_uris": {"android": "https://dc.lft.to/lastmile_qr_scan", "ios": "https://dc.lft.to/lastmile_qr_scan"}, "name": "ab41862fff12abcda4141c4429fe1d08"}, {"lat": 38.918304166666665, "is_reserved": 0, "lon": -77.04029716666666, "fusion_lon": 0.0, "fusion_lat": 0.0, "is_disabled": 0, "type": "electric_scooter", "bike_id": "956e7641ee91f08c7e3efbcb0d50c5a1", "rental_uris": {"android": "https://dc.lft.to/lastmile_qr_scan", "ios": "https://dc.lft.to/lastmile_qr_scan"}, "name": "956e7641ee91f08c7e3efbcb0d50c5a1"}, {"lat": 38.902665, "is_reserved": 0, "lon": -77.03032716666667, "fusion_lon": 0.0, "fusion_lat": 0.0, "is_disabled": 0, "type": "electric_scooter", "bike_id": "83b186d5344b17bce17c09e6bb2aca18", "rental_uris": {"android": "https://dc.lft.to/lastmile_qr_scan", "ios": "https://dc.lft.to/lastmile_qr_scan"}, "name": "83b186d5344b17bce17c09e6bb2aca18"}, {"lat": 38.875702833333335, "is_reserved": 0, "lon": -77.00574666666667, "fusion_lon": 0.0, "fusion_lat": 0.0, "is_disabled": 0, "type": "electric_scooter", "bike_id": "8f14345b7771fa6049e18ac3f8545690", "rental_uris": {"android": "https://dc.lft.to/lastmile_qr_scan", "ios": "https://dc.lft.to/lastmile_qr_scan"}, "name": "8f14345b7771fa6049e18ac3f8545690"}, {"lat": 38.897321833333336, "is_reserved": 0, "lon": -77.02724083333334, "fusion_lon": 0.0, "fusion_lat": 0.0, "is_disabled": 0, "type": "electric_scooter", "bike_id": "9ad17c8ab3824d3d5d65fd138e447401", "rental_uris": {"android": "https://dc.lft.to/lastmile_qr_scan", "ios": "https://dc.lft.to/lastmile_qr_scan"}, "name": "9ad17c8ab3824d3d5d65fd138e447401"}, {"lat": 38.99697666666667, "is_reserved": 0, "lon": -77.02542066666666, "fusion_lon": 0.0, "fusion_lat": 0.0, "is_disabled": 0, "type": "electric_bike", "bike_id": "1afbd1c88408be695b7b2d84860f8b8e", "rental_uris": {"android": "https://dc.lft.to/lastmile_qr_scan", "ios": "https://dc.lft.to/lastmile_qr_scan"}, "name": "1afbd1c88408be695b7b2d84860f8b8e"}, {"lat": 38.903657333333335, "is_reserved": 0, "lon": -77.02569283333334, "fusion_lon": 0.0, "fusion_lat": 0.0, "is_disabled": 0, "type": "electric_scooter", "bike_id": "fb5e2f7e5cfc184e235718518d15bae1", "rental_uris": {"android": "https://dc.lft.to/lastmile_qr_scan", "ios": "https://dc.lft.to/lastmile_qr_scan"}, "name": "fb5e2f7e5cfc184e235718518d15bae1"}, {"lat": 38.9310265, "is_reserved": 0, "lon": -77.02476016666667, "fusion_lon": 0.0, "fusion_lat": 0.0, "is_disabled": 0, "type": "electric_scooter", "bike_id": "78c8bd521afbc9a914e6519fdc7cc58b", "rental_uris": {"android": "https://dc.lft.to/lastmile_qr_scan", "ios": "https://dc.lft.to/lastmile_qr_scan"}, "name": "78c8bd521afbc9a914e6519fdc7cc58b"}, {"lat": 38.906027, "is_reserved": 0, "lon": -77.01324633333333, "fusion_lon": 0.0, "fusion_lat": 0.0, "is_disabled": 0, "type": "electric_scooter", "bike_id": "836b21d94d8895b401c6c9b901df18e8", "rental_uris": {"android": "https://dc.lft.to/lastmile_qr_scan", "ios": "https://dc.lft.to/lastmile_qr_scan"}, "name": "836b21d94d8895b401c6c9b901df18e8"}, {"lat": 38.9174845, "is_reserved": 0, "lon": -77.03639816666667, "fusion_lon": 0.0, "fusion_lat": 0.0, "is_disabled": 0, "type": "electric_scooter", "bike_id": "4a5fe69f31c09d436859edde3f0f0059", "rental_uris": {"android": "https://dc.lft.to/lastmile_qr_scan", "ios": "https://dc.lft.to/lastmile_qr_scan"}, "name": "4a5fe69f31c09d436859edde3f0f0059"}, {"lat": 38.866242666666665, "is_reserved": 0, "lon": -76.98710633333333, "fusion_lon": 0.0, "fusion_lat": 0.0, "is_disabled": 0, "type": "electric_scooter", "bike_id": "34cf9dcd64df1e8c686fa8540b37ed11", "rental_uris": {"android": "https://dc.lft.to/lastmile_qr_scan", "ios": "https://dc.lft.to/lastmile_qr_scan"}, "name": "34cf9dcd64df1e8c686fa8540b37ed11"}, {"lat": 38.91172483333333, "is_reserved": 0, "lon": -77.0113595, "fusion_lon": 0.0, "fusion_lat": 0.0, "is_disabled": 0, "type": "electric_scooter", "bike_id": "84702e4421fc5cf5930b02f961d1be15", "rental_uris": {"android": "https://dc.lft.to/lastmile_qr_scan", "ios": "https://dc.lft.to/lastmile_qr_scan"}, "name": "84702e4421fc5cf5930b02f961d1be15"}, {"lat": 38.927275, "is_reserved": 0, "lon": -77.02302416666667, "fusion_lon": 0.0, "fusion_lat": 0.0, "is_disabled": 0, "type": "electric_scooter", "bike_id": "3783764e3bea0a005f25905f46ab6ef8", "rental_uris": {"android": "https://dc.lft.to/lastmile_qr_scan", "ios": "https://dc.lft.to/lastmile_qr_scan"}, "name": "3783764e3bea0a005f25905f46ab6ef8"}, {"lat": 38.9002665, "is_reserved": 0, "lon": -77.0114455, "fusion_lon": 0.0, "fusion_lat": 0.0, "is_disabled": 0, "type": "electric_scooter", "bike_id": "15ab910f55d408b41fc3179620b155f6", "rental_uris": {"android": "https://dc.lft.to/lastmile_qr_scan", "ios": "https://dc.lft.to/lastmile_qr_scan"}, "name": "15ab910f55d408b41fc3179620b155f6"}, {"lat": 38.887663833333335, "is_reserved": 0, "lon": -76.95592383333333, "fusion_lon": 0.0, "fusion_lat": 0.0, "is_disabled": 0, "type": "electric_scooter", "bike_id": "d97d744f2a980a9dfcdafd363b74e14f", "rental_uris": {"android": "https://dc.lft.to/lastmile_qr_scan", "ios": "https://dc.lft.to/lastmile_qr_scan"}, "name": "d97d744f2a980a9dfcdafd363b74e14f"}, {"lat": 38.92475916666667, "is_reserved": 0, "lon": -77.05214516666666, "fusion_lon": 0.0, "fusion_lat": 0.0, "is_disabled": 0, "type": "electric_scooter", "bike_id": "167731c278c02aa8b55c0ca0e86475de", "rental_uris": {"android": "https://dc.lft.to/lastmile_qr_scan", "ios": "https://dc.lft.to/lastmile_qr_scan"}, "name": "167731c278c02aa8b55c0ca0e86475de"}, {"lat": 38.896151833333334, "is_reserved": 0, "lon": -77.07090433333333, "fusion_lon": 0.0, "fusion_lat": 0.0, "is_disabled": 0, "type": "electric_scooter", "bike_id": "c36e297464f093374ad885f377f512a0", "rental_uris": {"android": "https://dc.lft.to/lastmile_qr_scan", "ios": "https://dc.lft.to/lastmile_qr_scan"}, "name": "c36e297464f093374ad885f377f512a0"}, {"lat": 38.908197666666666, "is_reserved": 0, "lon": -77.03671466666667, "fusion_lon": 0.0, "fusion_lat": 0.0, "is_disabled": 0, "type": "electric_scooter", "bike_id": "63e8777a9281ffac257352576890d34f", "rental_uris": {"android": "https://dc.lft.to/lastmile_qr_scan", "ios": "https://dc.lft.to/lastmile_qr_scan"}, "name": "63e8777a9281ffac257352576890d34f"}, {"lat": 38.88413833333333, "is_reserved": 0, "lon": -76.996992, "fusion_lon": 0.0, "fusion_lat": 0.0, "is_disabled": 0, "type": "electric_scooter", "bike_id": "97d6c971c83a3e7a1bd65bfb7d326029", "rental_uris": {"android": "https://dc.lft.to/lastmile_qr_scan", "ios": "https://dc.lft.to/lastmile_qr_scan"}, "name": "97d6c971c83a3e7a1bd65bfb7d326029"}, {"lat": 38.9202765, "is_reserved": 0, "lon": -77.02025083333334, "fusion_lon": 0.0, "fusion_lat": 0.0, "is_disabled": 0, "type": "electric_scooter", "bike_id": "93eebfbd60c73165cff8698abacbef78", "rental_uris": {"android": "https://dc.lft.to/lastmile_qr_scan", "ios": "https://dc.lft.to/lastmile_qr_scan"}, "name": "93eebfbd60c73165cff8698abacbef78"}, {"lat": 38.895972, "is_reserved": 0, "lon": -77.02247183333333, "fusion_lon": 0.0, "fusion_lat": 0.0, "is_disabled": 0, "type": "electric_scooter", "bike_id": "01b67688ff15aaa4a97cd6b10250a79e", "rental_uris": {"android": "https://dc.lft.to/lastmile_qr_scan", "ios": "https://dc.lft.to/lastmile_qr_scan"}, "name": "01b67688ff15aaa4a97cd6b10250a79e"}, {"lat": 38.938723333333336, "is_reserved": 0, "lon": -77.03391016666667, "fusion_lon": 0.0, "fusion_lat": 0.0, "is_disabled": 0, "type": "electric_scooter", "bike_id": "9dfd5d98a810ccc6911316521f0bd9fe", "rental_uris": {"android": "https://dc.lft.to/lastmile_qr_scan", "ios": "https://dc.lft.to/lastmile_qr_scan"}, "name": "9dfd5d98a810ccc6911316521f0bd9fe"}, {"lat": 38.907329, "is_reserved": 0, "lon": -77.02371916666667, "fusion_lon": 0.0, "fusion_lat": 0.0, "is_disabled": 0, "type": "electric_scooter", "bike_id": "cfec45e429715ff825870d342fa8035a", "rental_uris": {"android": "https://dc.lft.to/lastmile_qr_scan", "ios": "https://dc.lft.to/lastmile_qr_scan"}, "name": "cfec45e429715ff825870d342fa8035a"}, {"lat": 38.914537833333334, "is_reserved": 0, "lon": -77.02182483333333, "fusion_lon": 0.0, "fusion_lat": 0.0, "is_disabled": 0, "type": "electric_scooter", "bike_id": "4df920c22ee196a21eb870f92993ff48", "rental_uris": {"android": "https://dc.lft.to/lastmile_qr_scan", "ios": "https://dc.lft.to/lastmile_qr_scan"}, "name": "4df920c22ee196a21eb870f92993ff48"}, {"lat": 38.882468333333335, "is_reserved": 0, "lon": -76.93552033333333, "fusion_lon": 0.0, "fusion_lat": 0.0, "is_disabled": 0, "type": "electric_scooter", "bike_id": "56dbef3ec05173ce1f148da1eaf5fbfa", "rental_uris": {"android": "https://dc.lft.to/lastmile_qr_scan", "ios": "https://dc.lft.to/lastmile_qr_scan"}, "name": "56dbef3ec05173ce1f148da1eaf5fbfa"}, {"lat": 38.92143683333333, "is_reserved": 0, "lon": -77.018048, "fusion_lon": 0.0, "fusion_lat": 0.0, "is_disabled": 0, "type": "electric_scooter", "bike_id": "309e5d427d063cd3ac969fdabc1bdc89", "rental_uris": {"android": "https://dc.lft.to/lastmile_qr_scan", "ios": "https://dc.lft.to/lastmile_qr_scan"}, "name": "309e5d427d063cd3ac969fdabc1bdc89"}, {"lat": 38.905846, "is_reserved": 0, "lon": -77.05705966666666, "fusion_lon": 0.0, "fusion_lat": 0.0, "is_disabled": 0, "type": "electric_scooter", "bike_id": "1a8e015ee40608efe2ef6dff9cdd1485", "rental_uris": {"android": "https://dc.lft.to/lastmile_qr_scan", "ios": "https://dc.lft.to/lastmile_qr_scan"}, "name": "1a8e015ee40608efe2ef6dff9cdd1485"}, {"lat": 38.908491166666664, "is_reserved": 0, "lon": -76.99802316666667, "fusion_lon": 0.0, "fusion_lat": 0.0, "is_disabled": 0, "type": "electric_scooter", "bike_id": "3dfdf4c6e06c21a58c3656931de45f8b", "rental_uris": {"android": "https://dc.lft.to/lastmile_qr_scan", "ios": "https://dc.lft.to/lastmile_qr_scan"}, "name": "3dfdf4c6e06c21a58c3656931de45f8b"}, {"lat": 38.87660316666667, "is_reserved": 0, "lon": -77.0046055, "fusion_lon": 0.0, "fusion_lat": 0.0, "is_disabled": 0, "type": "electric_scooter", "bike_id": "cf2451dccaab939690a16972a2a6e015", "rental_uris": {"android": "https://dc.lft.to/lastmile_qr_scan", "ios": "https://dc.lft.to/lastmile_qr_scan"}, "name": "cf2451dccaab939690a16972a2a6e015"}, {"lat": 38.87535416666667, "is_reserved": 0, "lon": -77.00076916666667, "fusion_lon": 0.0, "fusion_lat": 0.0, "is_disabled": 0, "type": "electric_scooter", "bike_id": "719a45d187a3e0d8ccf4c557af2352ff", "rental_uris": {"android": "https://dc.lft.to/lastmile_qr_scan", "ios": "https://dc.lft.to/lastmile_qr_scan"}, "name": "719a45d187a3e0d8ccf4c557af2352ff"}, {"lat": 38.860085166666664, "is_reserved": 0, "lon": -76.9965835, "fusion_lon": 0.0, "fusion_lat": 0.0, "is_disabled": 0, "type": "electric_scooter", "bike_id": "1c2b9b731c92f0df7159805e6f89dfc4", "rental_uris": {"android": "https://dc.lft.to/lastmile_qr_scan", "ios": "https://dc.lft.to/lastmile_qr_scan"}, "name": "1c2b9b731c92f0df7159805e6f89dfc4"}, {"lat": 38.91568916666667, "is_reserved": 0, "lon": -77.03189983333333, "fusion_lon": 0.0, "fusion_lat": 0.0, "is_disabled": 0, "type": "electric_scooter", "bike_id": "e5dffa929427068b757e8980e4462d76", "rental_uris": {"android": "https://dc.lft.to/lastmile_qr_scan", "ios": "https://dc.lft.to/lastmile_qr_scan"}, "name": "e5dffa929427068b757e8980e4462d76"}, {"lat": 38.92299166666667, "is_reserved": 0, "lon": -77.04142116666667, "fusion_lon": 0.0, "fusion_lat": 0.0, "is_disabled": 0, "type": "electric_scooter", "bike_id": "59f50b5c51961d1afb124e67ca616632", "rental_uris": {"android": "https://dc.lft.to/lastmile_qr_scan", "ios": "https://dc.lft.to/lastmile_qr_scan"}, "name": "59f50b5c51961d1afb124e67ca616632"}, {"lat": 38.903652666666666, "is_reserved": 0, "lon": -77.03580183333334, "fusion_lon": 0.0, "fusion_lat": 0.0, "is_disabled": 0, "type": "electric_scooter", "bike_id": "0111e17a63782ef8b211cf617ff05c4d", "rental_uris": {"android": "https://dc.lft.to/lastmile_qr_scan", "ios": "https://dc.lft.to/lastmile_qr_scan"}, "name": "0111e17a63782ef8b211cf617ff05c4d"}, {"lat": 38.91065433333333, "is_reserved": 0, "lon": -77.01979783333333, "fusion_lon": 0.0, "fusion_lat": 0.0, "is_disabled": 0, "type": "electric_bike", "bike_id": "79bfb41aa24aa7785a54b9eb4b10589b", "rental_uris": {"android": "https://dc.lft.to/lastmile_qr_scan", "ios": "https://dc.lft.to/lastmile_qr_scan"}, "name": "79bfb41aa24aa7785a54b9eb4b10589b"}, {"lat": 38.898626, "is_reserved": 0, "lon": -76.94636966666667, "fusion_lon": 0.0, "fusion_lat": 0.0, "is_disabled": 0, "type": "electric_scooter", "bike_id": "839734b178a032181eb0d0051ec59f30", "rental_uris": {"android": "https://dc.lft.to/lastmile_qr_scan", "ios": "https://dc.lft.to/lastmile_qr_scan"}, "name": "839734b178a032181eb0d0051ec59f30"}, {"lat": 38.88186816666666, "is_reserved": 0, "lon": -77.020876, "fusion_lon": 0.0, "fusion_lat": 0.0, "is_disabled": 0, "type": "electric_scooter", "bike_id": "bd0ce62f44b764de0bcc404d405a61da", "rental_uris": {"android": "https://dc.lft.to/lastmile_qr_scan", "ios": "https://dc.lft.to/lastmile_qr_scan"}, "name": "bd0ce62f44b764de0bcc404d405a61da"}, {"lat": 38.9084685, "is_reserved": 0, "lon": -77.00382366666666, "fusion_lon": 0.0, "fusion_lat": 0.0, "is_disabled": 0, "type": "electric_scooter", "bike_id": "4035a7cd4be9cd5f7867a50f39d85d8f", "rental_uris": {"android": "https://dc.lft.to/lastmile_qr_scan", "ios": "https://dc.lft.to/lastmile_qr_scan"}, "name": "4035a7cd4be9cd5f7867a50f39d85d8f"}, {"lat": 38.8782855, "is_reserved": 0, "lon": -77.00191033333333, "fusion_lon": 0.0, "fusion_lat": 0.0, "is_disabled": 0, "type": "electric_scooter", "bike_id": "b22e937541e810914f974c12faf08466", "rental_uris": {"android": "https://dc.lft.to/lastmile_qr_scan", "ios": "https://dc.lft.to/lastmile_qr_scan"}, "name": "b22e937541e810914f974c12faf08466"}, {"lat": 38.90268866666667, "is_reserved": 0, "lon": -77.0190495, "fusion_lon": 0.0, "fusion_lat": 0.0, "is_disabled": 0, "type": "electric_scooter", "bike_id": "88b6ecf31fbb98df1ac30e85d23e244d", "rental_uris": {"android": "https://dc.lft.to/lastmile_qr_scan", "ios": "https://dc.lft.to/lastmile_qr_scan"}, "name": "88b6ecf31fbb98df1ac30e85d23e244d"}, {"lat": 38.90015266666666, "is_reserved": 0, "lon": -76.98593616666666, "fusion_lon": 0.0, "fusion_lat": 0.0, "is_disabled": 0, "type": "electric_scooter", "bike_id": "5b2ab86db44b3e03e9cf4cafd06a3923", "rental_uris": {"android": "https://dc.lft.to/lastmile_qr_scan", "ios": "https://dc.lft.to/lastmile_qr_scan"}, "name": "5b2ab86db44b3e03e9cf4cafd06a3923"}, {"lat": 38.902907666666664, "is_reserved": 0, "lon": -77.03828166666666, "fusion_lon": 0.0, "fusion_lat": 0.0, "is_disabled": 0, "type": "electric_scooter", "bike_id": "cb81702267dea6c17bd78491f3bddaa5", "rental_uris": {"android": "https://dc.lft.to/lastmile_qr_scan", "ios": "https://dc.lft.to/lastmile_qr_scan"}, "name": "cb81702267dea6c17bd78491f3bddaa5"}, {"lat": 38.903584333333335, "is_reserved": 0, "lon": -77.04509833333333, "fusion_lon": 0.0, "fusion_lat": 0.0, "is_disabled": 0, "type": "electric_scooter", "bike_id": "8f04599084735d734f49a42109f9748a", "rental_uris": {"android": "https://dc.lft.to/lastmile_qr_scan", "ios": "https://dc.lft.to/lastmile_qr_scan"}, "name": "8f04599084735d734f49a42109f9748a"}, {"lat": 38.8762775, "is_reserved": 0, "lon": -76.96523983333333, "fusion_lon": 0.0, "fusion_lat": 0.0, "is_disabled": 0, "type": "electric_scooter", "bike_id": "42d0c9c101167df6e3b1e8d66de93ae4", "rental_uris": {"android": "https://dc.lft.to/lastmile_qr_scan", "ios": "https://dc.lft.to/lastmile_qr_scan"}, "name": "42d0c9c101167df6e3b1e8d66de93ae4"}, {"lat": 38.892323166666664, "is_reserved": 0, "lon": -77.04160433333334, "fusion_lon": 0.0, "fusion_lat": 0.0, "is_disabled": 0, "type": "electric_scooter", "bike_id": "3c8ce0f8698357be9945bc542ed736ee", "rental_uris": {"android": "https://dc.lft.to/lastmile_qr_scan", "ios": "https://dc.lft.to/lastmile_qr_scan"}, "name": "3c8ce0f8698357be9945bc542ed736ee"}, {"lat": 38.8842235, "is_reserved": 0, "lon": -76.9610885, "fusion_lon": 0.0, "fusion_lat": 0.0, "is_disabled": 0, "type": "electric_scooter", "bike_id": "c7135d425d6eb3ab679ff3da05ef677d", "rental_uris": {"android": "https://dc.lft.to/lastmile_qr_scan", "ios": "https://dc.lft.to/lastmile_qr_scan"}, "name": "c7135d425d6eb3ab679ff3da05ef677d"}, {"lat": 38.90558566666667, "is_reserved": 0, "lon": -77.005021, "fusion_lon": 0.0, "fusion_lat": 0.0, "is_disabled": 0, "type": "electric_scooter", "bike_id": "26d50e5ec78910e0ffc20872aff525e2", "rental_uris": {"android": "https://dc.lft.to/lastmile_qr_scan", "ios": "https://dc.lft.to/lastmile_qr_scan"}, "name": "26d50e5ec78910e0ffc20872aff525e2"}, {"lat": 38.9213815, "is_reserved": 0, "lon": -77.01803616666666, "fusion_lon": 0.0, "fusion_lat": 0.0, "is_disabled": 0, "type": "electric_scooter", "bike_id": "74bcefe357dad2016fc609df89ec2f0e", "rental_uris": {"android": "https://dc.lft.to/lastmile_qr_scan", "ios": "https://dc.lft.to/lastmile_qr_scan"}, "name": "74bcefe357dad2016fc609df89ec2f0e"}, {"lat": 38.862447, "is_reserved": 0, "lon": -76.99492083333334, "fusion_lon": 0.0, "fusion_lat": 0.0, "is_disabled": 0, "type": "electric_scooter", "bike_id": "24e1eb19f04a056814a520afbd4a9ce1", "rental_uris": {"android": "https://dc.lft.to/lastmile_qr_scan", "ios": "https://dc.lft.to/lastmile_qr_scan"}, "name": "24e1eb19f04a056814a520afbd4a9ce1"}, {"lat": 38.89735366666667, "is_reserved": 0, "lon": -77.02611633333333, "fusion_lon": 0.0, "fusion_lat": 0.0, "is_disabled": 0, "type": "electric_scooter", "bike_id": "0132163e21612b711d511e785cd3def0", "rental_uris": {"android": "https://dc.lft.to/lastmile_qr_scan", "ios": "https://dc.lft.to/lastmile_qr_scan"}, "name": "0132163e21612b711d511e785cd3def0"}, {"lat": 38.926130666666666, "is_reserved": 0, "lon": -77.04194633333333, "fusion_lon": 0.0, "fusion_lat": 0.0, "is_disabled": 0, "type": "electric_scooter", "bike_id": "80cfd8feb84a84c456ca4a08f83b67ea", "rental_uris": {"android": "https://dc.lft.to/lastmile_qr_scan", "ios": "https://dc.lft.to/lastmile_qr_scan"}, "name": "80cfd8feb84a84c456ca4a08f83b67ea"}, {"lat": 38.892257, "is_reserved": 0, "lon": -77.04371333333333, "fusion_lon": 0.0, "fusion_lat": 0.0, "is_disabled": 0, "type": "electric_scooter", "bike_id": "689757ea9957afc5913d6f5acf561ef0", "rental_uris": {"android": "https://dc.lft.to/lastmile_qr_scan", "ios": "https://dc.lft.to/lastmile_qr_scan"}, "name": "689757ea9957afc5913d6f5acf561ef0"}, {"lat": 38.89304966666667, "is_reserved": 0, "lon": -76.93977966666667, "fusion_lon": 0.0, "fusion_lat": 0.0, "is_disabled": 0, "type": "electric_scooter", "bike_id": "1400614cf4166e7f4e35326d06918154", "rental_uris": {"android": "https://dc.lft.to/lastmile_qr_scan", "ios": "https://dc.lft.to/lastmile_qr_scan"}, "name": "1400614cf4166e7f4e35326d06918154"}, {"lat": 38.920530166666666, "is_reserved": 0, "lon": -77.02554883333333, "fusion_lon": 0.0, "fusion_lat": 0.0, "is_disabled": 0, "type": "electric_scooter", "bike_id": "fb988d5ba886ee05aea2a0475ef5fd42", "rental_uris": {"android": "https://dc.lft.to/lastmile_qr_scan", "ios": "https://dc.lft.to/lastmile_qr_scan"}, "name": "fb988d5ba886ee05aea2a0475ef5fd42"}, {"lat": 38.846135, "is_reserved": 0, "lon": -76.98268716666666, "fusion_lon": 0.0, "fusion_lat": 0.0, "is_disabled": 0, "type": "electric_scooter", "bike_id": "46b45054b84d0901b62e37cf4adfdb5c", "rental_uris": {"android": "https://dc.lft.to/lastmile_qr_scan", "ios": "https://dc.lft.to/lastmile_qr_scan"}, "name": "46b45054b84d0901b62e37cf4adfdb5c"}, {"lat": 38.876966, "is_reserved": 0, "lon": -77.00531516666666, "fusion_lon": 0.0, "fusion_lat": 0.0, "is_disabled": 0, "type": "electric_scooter", "bike_id": "132a198559599b717a8c83cb0abc7032", "rental_uris": {"android": "https://dc.lft.to/lastmile_qr_scan", "ios": "https://dc.lft.to/lastmile_qr_scan"}, "name": "132a198559599b717a8c83cb0abc7032"}, {"lat": 38.909185, "is_reserved": 0, "lon": -77.02282866666667, "fusion_lon": 0.0, "fusion_lat": 0.0, "is_disabled": 0, "type": "electric_scooter", "bike_id": "ad0e901faebd9c7819773484bef6adac", "rental_uris": {"android": "https://dc.lft.to/lastmile_qr_scan", "ios": "https://dc.lft.to/lastmile_qr_scan"}, "name": "ad0e901faebd9c7819773484bef6adac"}, {"lat": 38.91115516666667, "is_reserved": 0, "lon": -77.04334816666666, "fusion_lon": 0.0, "fusion_lat": 0.0, "is_disabled": 0, "type": "electric_scooter", "bike_id": "7915d0afc29ad021c7136fb72997d01a", "rental_uris": {"android": "https://dc.lft.to/lastmile_qr_scan", "ios": "https://dc.lft.to/lastmile_qr_scan"}, "name": "7915d0afc29ad021c7136fb72997d01a"}, {"lat": 38.91161316666667, "is_reserved": 0, "lon": -77.07761466666666, "fusion_lon": 0.0, "fusion_lat": 0.0, "is_disabled": 0, "type": "electric_scooter", "bike_id": "94f40fc8dff0db69434918dfbd044ac2", "rental_uris": {"android": "https://dc.lft.to/lastmile_qr_scan", "ios": "https://dc.lft.to/lastmile_qr_scan"}, "name": "94f40fc8dff0db69434918dfbd044ac2"}, {"lat": 38.910548166666665, "is_reserved": 0, "lon": -77.030815, "fusion_lon": 0.0, "fusion_lat": 0.0, "is_disabled": 0, "type": "electric_scooter", "bike_id": "bfff2f66e8be206cf6bd8612b9810d89", "rental_uris": {"android": "https://dc.lft.to/lastmile_qr_scan", "ios": "https://dc.lft.to/lastmile_qr_scan"}, "name": "bfff2f66e8be206cf6bd8612b9810d89"}, {"lat": 38.940168, "is_reserved": 0, "lon": -76.97610416666667, "fusion_lon": 0.0, "fusion_lat": 0.0, "is_disabled": 0, "type": "electric_scooter", "bike_id": "57e74c8b77cf8bdb31fcf5a4ebf0c09a", "rental_uris": {"android": "https://dc.lft.to/lastmile_qr_scan", "ios": "https://dc.lft.to/lastmile_qr_scan"}, "name": "57e74c8b77cf8bdb31fcf5a4ebf0c09a"}, {"lat": 38.89830833333333, "is_reserved": 0, "lon": -77.007503, "fusion_lon": 0.0, "fusion_lat": 0.0, "is_disabled": 0, "type": "electric_scooter", "bike_id": "638838168779992a3b64b5d0820ca523", "rental_uris": {"android": "https://dc.lft.to/lastmile_qr_scan", "ios": "https://dc.lft.to/lastmile_qr_scan"}, "name": "638838168779992a3b64b5d0820ca523"}, {"lat": 38.894827166666666, "is_reserved": 0, "lon": -76.94858083333334, "fusion_lon": 0.0, "fusion_lat": 0.0, "is_disabled": 0, "type": "electric_scooter", "bike_id": "cca083bd1282ac1db92d7d0496710873", "rental_uris": {"android": "https://dc.lft.to/lastmile_qr_scan", "ios": "https://dc.lft.to/lastmile_qr_scan"}, "name": "cca083bd1282ac1db92d7d0496710873"}, {"lat": 38.90964266666667, "is_reserved": 0, "lon": -77.02180466666667, "fusion_lon": 0.0, "fusion_lat": 0.0, "is_disabled": 0, "type": "electric_scooter", "bike_id": "c85b772a6b3ef1c9665448ba589f1901", "rental_uris": {"android": "https://dc.lft.to/lastmile_qr_scan", "ios": "https://dc.lft.to/lastmile_qr_scan"}, "name": "c85b772a6b3ef1c9665448ba589f1901"}, {"lat": 38.91011666666667, "is_reserved": 0, "lon": -77.03434566666667, "fusion_lon": 0.0, "fusion_lat": 0.0, "is_disabled": 0, "type": "electric_scooter", "bike_id": "334fe419ad1f2b60a50f60a5377c7a35", "rental_uris": {"android": "https://dc.lft.to/lastmile_qr_scan", "ios": "https://dc.lft.to/lastmile_qr_scan"}, "name": "334fe419ad1f2b60a50f60a5377c7a35"}, {"lat": 38.902690666666665, "is_reserved": 0, "lon": -77.03001966666666, "fusion_lon": 0.0, "fusion_lat": 0.0, "is_disabled": 0, "type": "electric_scooter", "bike_id": "59f1850898fb4be45fce9e3435f2ec14", "rental_uris": {"android": "https://dc.lft.to/lastmile_qr_scan", "ios": "https://dc.lft.to/lastmile_qr_scan"}, "name": "59f1850898fb4be45fce9e3435f2ec14"}, {"lat": 38.917096666666666, "is_reserved": 0, "lon": -77.02788483333333, "fusion_lon": 0.0, "fusion_lat": 0.0, "is_disabled": 0, "type": "electric_scooter", "bike_id": "1cdf409465450cea07957300fff362b5", "rental_uris": {"android": "https://dc.lft.to/lastmile_qr_scan", "ios": "https://dc.lft.to/lastmile_qr_scan"}, "name": "1cdf409465450cea07957300fff362b5"}, {"lat": 38.92624716666667, "is_reserved": 0, "lon": -77.04216383333333, "fusion_lon": 0.0, "fusion_lat": 0.0, "is_disabled": 0, "type": "electric_scooter", "bike_id": "1a7db0d99d9056df4879e9b9c0e6b3af", "rental_uris": {"android": "https://dc.lft.to/lastmile_qr_scan", "ios": "https://dc.lft.to/lastmile_qr_scan"}, "name": "1a7db0d99d9056df4879e9b9c0e6b3af"}, {"lat": 38.934339, "is_reserved": 0, "lon": -77.05586966666667, "fusion_lon": 0.0, "fusion_lat": 0.0, "is_disabled": 0, "type": "electric_scooter", "bike_id": "8a0fca385d0a1aa4a2830eba1f0efaf9", "rental_uris": {"android": "https://dc.lft.to/lastmile_qr_scan", "ios": "https://dc.lft.to/lastmile_qr_scan"}, "name": "8a0fca385d0a1aa4a2830eba1f0efaf9"}, {"lat": 38.956282333333334, "is_reserved": 0, "lon": -77.029072, "fusion_lon": 0.0, "fusion_lat": 0.0, "is_disabled": 0, "type": "electric_scooter", "bike_id": "363323c64628151481451338605fdcbe", "rental_uris": {"android": "https://dc.lft.to/lastmile_qr_scan", "ios": "https://dc.lft.to/lastmile_qr_scan"}, "name": "363323c64628151481451338605fdcbe"}, {"lat": 38.878303333333335, "is_reserved": 0, "lon": -77.007302, "fusion_lon": 0.0, "fusion_lat": 0.0, "is_disabled": 0, "type": "electric_scooter", "bike_id": "e8c0f6affbb83f5a7096f502ff1a6fb5", "rental_uris": {"android": "https://dc.lft.to/lastmile_qr_scan", "ios": "https://dc.lft.to/lastmile_qr_scan"}, "name": "e8c0f6affbb83f5a7096f502ff1a6fb5"}, {"lat": 38.90951316666667, "is_reserved": 0, "lon": -77.034368, "fusion_lon": 0.0, "fusion_lat": 0.0, "is_disabled": 0, "type": "electric_scooter", "bike_id": "b0b309484a31a677e31f8d9cc572b996", "rental_uris": {"android": "https://dc.lft.to/lastmile_qr_scan", "ios": "https://dc.lft.to/lastmile_qr_scan"}, "name": "b0b309484a31a677e31f8d9cc572b996"},