{"data": {"bikes": [{"lat": 38.92507233333333, "type": "electric_scooter", "is_disabled": 0, "name": "759b8b479de6999f1b147dc3eaaab0fb", "bike_id": "759b8b479de6999f1b147dc3eaaab0fb", "fusion_lon": 0.0, "rental_uris": {"ios": "https://dc.lft.to/lastmile_qr_scan", "android": "https://dc.lft.to/lastmile_qr_scan"}, "is_reserved": 0, "fusion_lat": 0.0, "lon": -77.025786}, {"lat": 38.919422833333336, "type": "electric_scooter", "is_disabled": 0, "name": "266e7be11aaf3e5c958bcff859146acb", "bike_id": "266e7be11aaf3e5c958bcff859146acb", "fusion_lon": 0.0, "rental_uris": {"ios": "https://dc.lft.to/lastmile_qr_scan", "android": "https://dc.lft.to/lastmile_qr_scan"}, "is_reserved": 0, "fusion_lat": 0.0, "lon": -77.01804516666667}, {"lat": 38.884390333333336, "type": "electric_scooter", "is_disabled": 0, "name": "930dbfeec47cc0ab03a4c0b51ed5fba5", "bike_id": "930dbfeec47cc0ab03a4c0b51ed5fba5", "fusion_lon": 0.0, "rental_uris": {"ios": "https://dc.lft.to/lastmile_qr_scan", "android": "https://dc.lft.to/lastmile_qr_scan"}, "is_reserved": 0, "fusion_lat": 0.0, "lon": -76.99729516666666}, {"lat": 38.92447216666667, "type": "electric_scooter", "is_disabled": 0, "name": "a3b86b521c327c71d96803e146536374", "bike_id": "a3b86b521c327c71d96803e146536374", "fusion_lon": 0.0, "rental_uris": {"ios": "https://dc.lft.to/lastmile_qr_scan", "android": "https://dc.lft.to/lastmile_qr_scan"}, "is_reserved": 0, "fusion_lat": 0.0, "lon": -76.968322}, {"lat": 38.9191765, "type": "electric_scooter", "is_disabled": 0, "name": "889fa0e6f8d5352ae466da2a2872f704", "bike_id": "889fa0e6f8d5352ae466da2a2872f704", "fusion_lon": 0.0, "rental_uris": {"ios": "https://dc.lft.to/lastmile_qr_scan", "android": "https://dc.lft.to/lastmile_qr_scan"}, "is_reserved": 0, "fusion_lat": 0.0, "lon": -77.0343035}, {"lat": 38.919807666666664, "type": "electric_scooter", "is_disabled": 0, "name": "076818857100589571e578a5fc74c89b", "bike_id": "076818857100589571e578a5fc74c89b", "fusion_lon": 0.0, "rental_uris": {"ios": "https://dc.lft.to/lastmile_qr_scan", "android": "https://dc.lft.to/lastmile_qr_scan"}, "is_reserved": 0, "fusion_lat": 0.0, "lon": -77.02193133333333}, {"lat": 38.872886, "type": "electric_scooter", "is_disabled": 0, "name": "0ee892be9b8f9c4b588d8790950f1af9", "bike_id": "0ee892be9b8f9c4b588d8790950f1af9", "fusion_lon": 0.0, "rental_uris": {"ios": "https://dc.lft.to/lastmile_qr_scan", "android": "https://dc.lft.to/lastmile_qr_scan"}, "is_reserved": 0, "fusion_lat": 0.0, "lon": -77.01585733333333}, {"lat": 38.918920666666665, "type": "electric_scooter", "is_disabled": 0, "name": "e9a8d857e6239ec8ed3ea68ab79a8fdc", "bike_id": "e9a8d857e6239ec8ed3ea68ab79a8fdc", "fusion_lon": 0.0, "rental_uris": {"ios": "https://dc.lft.to/lastmile_qr_scan", "android": "https://dc.lft.to/lastmile_qr_scan"}, "is_reserved": 0, "fusion_lat": 0.0, "lon": -77.02093483333333}, {"lat": 38.88438083333333, "type": "electric_scooter", "is_disabled": 0, "name": "595a25c115a32a131bf8c96c9abc089d", "bike_id": "595a25c115a32a131bf8c96c9abc089d", "fusion_lon": 0.0, "rental_uris": {"ios": "https://dc.lft.to/lastmile_qr_scan", "android": "https://dc.lft.to/lastmile_qr_scan"}, "is_reserved": 0, "fusion_lat": 0.0, "lon": -76.957661}, {"lat": 38.899556833333335, "type": "electric_bike", "is_disabled": 0, "name": "8625561908542b570ffb3b278f8190a9", "bike_id": "8625561908542b570ffb3b278f8190a9", "fusion_lon": 0.0, "rental_uris": {"ios": "https://dc.lft.to/lastmile_qr_scan", "android": "https://dc.lft.to/lastmile_qr_scan"}, "is_reserved": 0, "fusion_lat": 0.0, "lon": -77.0453365}, {"lat": 38.903085, "type": "electric_scooter", "is_disabled": 0, "name": "4f2cb97dc13cc819ce1065e3c8063828", "bike_id": "4f2cb97dc13cc819ce1065e3c8063828", "fusion_lon": 0.0, "rental_uris": {"ios": "https://dc.lft.to/lastmile_qr_scan", "android": "https://dc.lft.to/lastmile_qr_scan"}, "is_reserved": 0, "fusion_lat": 0.0, "lon": -76.97495633333334}, {"lat": 38.865288166666666, "type": "electric_scooter", "is_disabled": 0, "name": "aecb1980e73257c09722a6728a52ad36", "bike_id": "aecb1980e73257c09722a6728a52ad36", "fusion_lon": 0.0, "rental_uris": {"ios": "https://dc.lft.to/lastmile_qr_scan", "android": "https://dc.lft.to/lastmile_qr_scan"}, "is_reserved": 0, "fusion_lat": 0.0, "lon": -76.96908766666667}, {"lat": 38.937139333333334, "type": "electric_scooter", "is_disabled": 0, "name": "a864c2ddebb44486cec14fc2de97c0b4", "bike_id": "a864c2ddebb44486cec14fc2de97c0b4", "fusion_lon": 0.0, "rental_uris": {"ios": "https://dc.lft.to/lastmile_qr_scan", "android": "https://dc.lft.to/lastmile_qr_scan"}, "is_reserved": 0, "fusion_lat": 0.0, "lon": -77.024546}, {"lat": 38.915863333333334, "type": "electric_scooter", "is_disabled": 0, "name": "b4f18a2ac509747a52afe0d8fb621d76", "bike_id": "b4f18a2ac509747a52afe0d8fb621d76", "fusion_lon": 0.0, "rental_uris": {"ios": "https://dc.lft.to/lastmile_qr_scan", "android": "https://dc.lft.to/lastmile_qr_scan"}, "is_reserved": 0, "fusion_lat": 0.0, "lon": -77.0681355}, {"lat": 38.906980833333336, "type": "electric_bike", "is_disabled": 0, "name": "d960a6cdc49142bac22e8ee4418e6a06", "bike_id": "d960a6cdc49142bac22e8ee4418e6a06", "fusion_lon": 0.0, "rental_uris": {"ios": "https://dc.lft.to/lastmile_qr_scan", "android": "https://dc.lft.to/lastmile_qr_scan"}, "is_reserved": 0, "fusion_lat": 0.0, "lon": -76.95254633333333}, {"lat": 38.9239185, "type": "electric_scooter", "is_disabled": 0, "name": "42da002a061b08f5ef38ef7fc5c006f8", "bike_id": "42da002a061b08f5ef38ef7fc5c006f8", "fusion_lon": 0.0, "rental_uris": {"ios": "https://dc.lft.to/lastmile_qr_scan", "android": "https://dc.lft.to/lastmile_qr_scan"}, "is_reserved": 0, "fusion_lat": 0.0, "lon": -77.0406055}, {"lat": 38.87660666666667, "type": "electric_scooter", "is_disabled": 0, "name": "f189d9a6d96fe647a7595da94708f677", "bike_id": "f189d9a6d96fe647a7595da94708f677", "fusion_lon": 0.0, "rental_uris": {"ios": "https://dc.lft.to/lastmile_qr_scan", "android": "https://dc.lft.to/lastmile_qr_scan"}, "is_reserved": 0, "fusion_lat": 0.0, "lon": -77.00242516666667}, {"lat": 38.927567833333335, "type": "electric_scooter", "is_disabled": 0, "name": "86ac75058e79e31e447db95ce0a0e327", "bike_id": "86ac75058e79e31e447db95ce0a0e327", "fusion_lon": 0.0, "rental_uris": {"ios": "https://dc.lft.to/lastmile_qr_scan", "android": "https://dc.lft.to/lastmile_qr_scan"}, "is_reserved": 0, "fusion_lat": 0.0, "lon": -77.03217066666667}, {"lat": 38.900216666666665, "type": "electric_scooter", "is_disabled": 0, "name": "295356c1bc6511bb13225af7d27c63fb", "bike_id": "295356c1bc6511bb13225af7d27c63fb", "fusion_lon": 0.0, "rental_uris": {"ios": "https://dc.lft.to/lastmile_qr_scan", "android": "https://dc.lft.to/lastmile_qr_scan"}, "is_reserved": 0, "fusion_lat": 0.0, "lon": -76.99346283333334}, {"lat": 38.880451666666666, "type": "electric_scooter", "is_disabled": 0, "name": "5f2c0a98a55b3dcfec5f22101ae3bdb3", "bike_id": "5f2c0a98a55b3dcfec5f22101ae3bdb3", "fusion_lon": 0.0, "rental_uris": {"ios": "https://dc.lft.to/lastmile_qr_scan", "android": "https://dc.lft.to/lastmile_qr_scan"}, "is_reserved": 0, "fusion_lat": 0.0, "lon": -77.00523266666667}, {"lat": 38.92733716666667, "type": "electric_scooter", "is_disabled": 0, "name": "d3a0bcb499fdc93f50c7539d381fa3e1", "bike_id": "d3a0bcb499fdc93f50c7539d381fa3e1", "fusion_lon": 0.0, "rental_uris": {"ios": "https://dc.lft.to/lastmile_qr_scan", "android": "https://dc.lft.to/lastmile_qr_scan"}, "is_reserved": 0, "fusion_lat": 0.0, "lon": -77.03426766666666}, {"lat": 38.9290135, "type": "electric_scooter", "is_disabled": 0, "name": "a170bdd49578ec0795d11eacc4603236", "bike_id": "a170bdd49578ec0795d11eacc4603236", "fusion_lon": 0.0, "rental_uris": {"ios": "https://dc.lft.to/lastmile_qr_scan", "android": "https://dc.lft.to/lastmile_qr_scan"}, "is_reserved": 0, "fusion_lat": 0.0, "lon": -77.0328325}, {"lat": 38.998192833333334, "type": "electric_bike", "is_disabled": 0, "name": "c10eb9c7566f8c103c80a3a38782a4b1", "bike_id": "c10eb9c7566f8c103c80a3a38782a4b1", "fusion_lon": 0.0, "rental_uris": {"ios": "https://dc.lft.to/lastmile_qr_scan", "android": "https://dc.lft.to/lastmile_qr_scan"}, "is_reserved": 0, "fusion_lat": 0.0, "lon": -77.02906616666667}, {"lat": 38.902791, "type": "electric_scooter", "is_disabled": 0, "name": "5e4f874546ba015dbc71a761385f0a1b", "bike_id": "5e4f874546ba015dbc71a761385f0a1b", "fusion_lon": 0.0, "rental_uris": {"ios": "https://dc.lft.to/lastmile_qr_scan", "android": "https://dc.lft.to/lastmile_qr_scan"}, "is_reserved": 0, "fusion_lat": 0.0, "lon": -77.02277}, {"lat": 38.9037995, "type": "electric_scooter", "is_disabled": 0, "name": "bd0e2104e670a32587e5bf370888253d", "bike_id": "bd0e2104e670a32587e5bf370888253d", "fusion_lon": 0.0, "rental_uris": {"ios": "https://dc.lft.to/lastmile_qr_scan", "android": "https://dc.lft.to/lastmile_qr_scan"}, "is_reserved": 0, "fusion_lat": 0.0, "lon": -77.0431785}, {"lat": 38.926202833333335, "type": "electric_scooter", "is_disabled": 0, "name": "8ab725f4538f60ec0cba1cecb7adcc7d", "bike_id": "8ab725f4538f60ec0cba1cecb7adcc7d", "fusion_lon": 0.0, "rental_uris": {"ios": "https://dc.lft.to/lastmile_qr_scan", "android": "https://dc.lft.to/lastmile_qr_scan"}, "is_reserved": 0, "fusion_lat": 0.0, "lon": -77.07307}, {"lat": 38.899797666666664, "type": "electric_scooter", "is_disabled": 0, "name": "54e7a638a7ea4e9d9f5eaaa4b3e4c39c", "bike_id": "54e7a638a7ea4e9d9f5eaaa4b3e4c39c", "fusion_lon": 0.0, "rental_uris": {"ios": "https://dc.lft.to/lastmile_qr_scan", "android": "https://dc.lft.to/lastmile_qr_scan"}, "is_reserved": 0, "fusion_lat": 0.0, "lon": -77.041949}, {"lat": 38.89906516666667, "type": "electric_scooter", "is_disabled": 0, "name": "1479ab1a809309b4ce4c790cad64f207", "bike_id": "1479ab1a809309b4ce4c790cad64f207", "fusion_lon": 0.0, "rental_uris": {"ios": "https://dc.lft.to/lastmile_qr_scan", "android": "https://dc.lft.to/lastmile_qr_scan"}, "is_reserved": 0, "fusion_lat": 0.0, "lon": -76.988243}, {"lat": 38.91247233333333, "type": "electric_scooter", "is_disabled": 0, "name": "4e172b13e2ff8ab461145cd58df43653", "bike_id": "4e172b13e2ff8ab461145cd58df43653", "fusion_lon": 0.0, "rental_uris": {"ios": "https://dc.lft.to/lastmile_qr_scan", "android": "https://dc.lft.to/lastmile_qr_scan"}, "is_reserved": 0, "fusion_lat": 0.0, "lon": -77.00113433333334}, {"lat": 38.9232385, "type": "electric_scooter", "is_disabled": 0, "name": "46e931ac75cac0914e77c6e382e29edf", "bike_id": "46e931ac75cac0914e77c6e382e29edf", "fusion_lon": 0.0, "rental_uris": {"ios": "https://dc.lft.to/lastmile_qr_scan", "android": "https://dc.lft.to/lastmile_qr_scan"}, "is_reserved": 0, "fusion_lat": 0.0, "lon": -77.0441465}, {"lat": 38.91718683333333, "type": "electric_scooter", "is_disabled": 0, "name": "dd1f7ddcca22279af0de1ae16f466a12", "bike_id": "dd1f7ddcca22279af0de1ae16f466a12", "fusion_lon": 0.0, "rental_uris": {"ios": "https://dc.lft.to/lastmile_qr_scan", "android": "https://dc.lft.to/lastmile_qr_scan"}, "is_reserved": 0, "fusion_lat": 0.0, "lon": -77.03861766666667}, {"lat": 38.901884833333334, "type": "electric_scooter", "is_disabled": 0, "name": "88a893c66191b7c386aca22658a47667", "bike_id": "88a893c66191b7c386aca22658a47667", "fusion_lon": 0.0, "rental_uris": {"ios": "https://dc.lft.to/lastmile_qr_scan", "android": "https://dc.lft.to/lastmile_qr_scan"}, "is_reserved": 0, "fusion_lat": 0.0, "lon": -77.03673733333333}, {"lat": 38.8922215, "type": "electric_scooter", "is_disabled": 0, "name": "44072e9a5fe12d5e9caa589d2c1761f2", "bike_id": "44072e9a5fe12d5e9caa589d2c1761f2", "fusion_lon": 0.0, "rental_uris": {"ios": "https://dc.lft.to/lastmile_qr_scan", "android": "https://dc.lft.to/lastmile_qr_scan"}, "is_reserved": 0, "fusion_lat": 0.0, "lon": -77.04150066666666}, {"lat": 38.91981066666666, "type": "electric_scooter", "is_disabled": 0, "name": "a8790e24e9d1f67fede5bdd7043fb882", "bike_id": "a8790e24e9d1f67fede5bdd7043fb882", "fusion_lon": 0.0, "rental_uris": {"ios": "https://dc.lft.to/lastmile_qr_scan", "android": "https://dc.lft.to/lastmile_qr_scan"}, "is_reserved": 0, "fusion_lat": 0.0, "lon": -77.02767483333334}, {"lat": 38.9672485, "type": "electric_bike", "is_disabled": 0, "name": "9d4476e2cf3c4fd20c656bbd5c604fb3", "bike_id": "9d4476e2cf3c4fd20c656bbd5c604fb3", "fusion_lon": 0.0, "rental_uris": {"ios": "https://dc.lft.to/lastmile_qr_scan", "android": "https://dc.lft.to/lastmile_qr_scan"}, "is_reserved": 0, "fusion_lat": 0.0, "lon": -77.01985766666667}, {"lat": 38.902867666666666, "type": "electric_scooter", "is_disabled": 0, "name": "946ea837e1b0373464d748c8d19ea2ae", "bike_id": "946ea837e1b0373464d748c8d19ea2ae", "fusion_lon": 0.0, "rental_uris": {"ios": "https://dc.lft.to/lastmile_qr_scan", "android": "https://dc.lft.to/lastmile_qr_scan"}, "is_reserved": 0, "fusion_lat": 0.0, "lon": -77.03878433333334}, {"lat": 38.892243, "type": "electric_scooter", "is_disabled": 0, "name": "8677fcc7729e59fb1e11113d35cc2285", "bike_id": "8677fcc7729e59fb1e11113d35cc2285", "fusion_lon": 0.0, "rental_uris": {"ios": "https://dc.lft.to/lastmile_qr_scan", "android": "https://dc.lft.to/lastmile_qr_scan"}, "is_reserved": 0, "fusion_lat": 0.0, "lon": -77.043357}, {"lat": 38.876842333333336, "type": "electric_scooter", "is_disabled": 0, "name": "c64e830073ba38ee01a91b6e2820596e", "bike_id": "c64e830073ba38ee01a91b6e2820596e", "fusion_lon": 0.0, "rental_uris": {"ios": "https://dc.lft.to/lastmile_qr_scan", "android": "https://dc.lft.to/lastmile_qr_scan"}, "is_reserved": 0, "fusion_lat": 0.0, "lon": -77.0034875}, {"lat": 38.9006235, "type": "electric_scooter", "is_disabled": 0, "name": "1f9c5e3c16308f55915f50fa2abf1215", "bike_id": "1f9c5e3c16308f55915f50fa2abf1215", "fusion_lon": 0.0, "rental_uris": {"ios": "https://dc.lft.to/lastmile_qr_scan", "android": "https://dc.lft.to/lastmile_qr_scan"}, "is_reserved": 0, "fusion_lat": 0.0, "lon": -77.04809316666666}, {"lat": 38.896339, "type": "electric_scooter", "is_disabled": 0, "name": "1149cf0c54a19aa1e70cb4f734012db1", "bike_id": "1149cf0c54a19aa1e70cb4f734012db1", "fusion_lon": 0.0, "rental_uris": {"ios": "https://dc.lft.to/lastmile_qr_scan", "android": "https://dc.lft.to/lastmile_qr_scan"}, "is_reserved": 0, "fusion_lat": 0.0, "lon": -77.030349}, {"lat": 38.910241, "type": "electric_scooter", "is_disabled": 0, "name": "357bdb175d8419ee15620ebee8b7f6ef", "bike_id": "357bdb175d8419ee15620ebee8b7f6ef", "fusion_lon": 0.0, "rental_uris": {"ios": "https://dc.lft.to/lastmile_qr_scan", "android": "https://dc.lft.to/lastmile_qr_scan"}, "is_reserved": 0, "fusion_lat": 0.0, "lon": -77.05277366666667}, {"lat": 38.935379166666664, "type": "electric_scooter", "is_disabled": 0, "name": "4090d5a3363553423614178873126074", "bike_id": "4090d5a3363553423614178873126074", "fusion_lon": 0.0, "rental_uris": {"ios": "https://dc.lft.to/lastmile_qr_scan", "android": "https://dc.lft.to/lastmile_qr_scan"}, "is_reserved": 0, "fusion_lat": 0.0, "lon": -77.02859}, {"lat": 38.90265316666667, "type": "electric_scooter", "is_disabled": 0, "name": "540fb8cf2b84fa8dd40c31e9e5680958", "bike_id": "540fb8cf2b84fa8dd40c31e9e5680958", "fusion_lon": 0.0, "rental_uris": {"ios": "https://dc.lft.to/lastmile_qr_scan", "android": "https://dc.lft.to/lastmile_qr_scan"}, "is_reserved": 0, "fusion_lat": 0.0, "lon": -77.06165383333334}, {"lat": 38.903538166666664, "type": "electric_scooter", "is_disabled": 0, "name": "41338cb2b6ab3793ad5c45dd2cbe9e6f", "bike_id": "41338cb2b6ab3793ad5c45dd2cbe9e6f", "fusion_lon": 0.0, "rental_uris": {"ios": "https://dc.lft.to/lastmile_qr_scan", "android": "https://dc.lft.to/lastmile_qr_scan"}, "is_reserved": 0, "fusion_lat": 0.0, "lon": -77.0372565}, {"lat": 38.9288655, "type": "electric_scooter", "is_disabled": 0, "name": "fca34eb5956c2e74b3f86f6d933d1517", "bike_id": "fca34eb5956c2e74b3f86f6d933d1517", "fusion_lon": 0.0, "rental_uris": {"ios": "https://dc.lft.to/lastmile_qr_scan", "android": "https://dc.lft.to/lastmile_qr_scan"}, "is_reserved": 0, "fusion_lat": 0.0, "lon": -77.0346355}, {"lat": 38.8974885, "type": "electric_scooter", "is_disabled": 0, "name": "6f988072cad4de120c3158a4aa0f1635", "bike_id": "6f988072cad4de120c3158a4aa0f1635", "fusion_lon": 0.0, "rental_uris": {"ios": "https://dc.lft.to/lastmile_qr_scan", "android": "https://dc.lft.to/lastmile_qr_scan"}, "is_reserved": 0, "fusion_lat": 0.0, "lon": -77.032037}, {"lat": 38.885452666666666, "type": "electric_scooter", "is_disabled": 0, "name": "4b4f8b3b40285a32a84f117ceb7765a2", "bike_id": "4b4f8b3b40285a32a84f117ceb7765a2", "fusion_lon": 0.0, "rental_uris": {"ios": "https://dc.lft.to/lastmile_qr_scan", "android": "https://dc.lft.to/lastmile_qr_scan"}, "is_reserved": 0, "fusion_lat": 0.0, "lon": -76.982088}, {"lat": 38.8773375, "type": "electric_scooter", "is_disabled": 0, "name": "7b1ce2b8c3bf88104cfa053050f98af8", "bike_id": "7b1ce2b8c3bf88104cfa053050f98af8", "fusion_lon": 0.0, "rental_uris": {"ios": "https://dc.lft.to/lastmile_qr_scan", "android": "https://dc.lft.to/lastmile_qr_scan"}, "is_reserved": 0, "fusion_lat": 0.0, "lon": -77.00829283333333}, {"lat": 38.90168966666667, "type": "electric_scooter", "is_disabled": 0, "name": "7dafa1866e41260bfb7f2b3a132f1625", "bike_id": "7dafa1866e41260bfb7f2b3a132f1625", "fusion_lon": 0.0, "rental_uris": {"ios": "https://dc.lft.to/lastmile_qr_scan", "android": "https://dc.lft.to/lastmile_qr_scan"}, "is_reserved": 0, "fusion_lat": 0.0, "lon": -76.98074566666666}, {"lat": 38.940469666666665, "type": "electric_scooter", "is_disabled": 0, "name": "acb46f2cd9e9ef7d46a0ce2e83a083a1", "bike_id": "acb46f2cd9e9ef7d46a0ce2e83a083a1", "fusion_lon": 0.0, "rental_uris": {"ios": "https://dc.lft.to/lastmile_qr_scan", "android": "https://dc.lft.to/lastmile_qr_scan"}, "is_reserved": 0, "fusion_lat": 0.0, "lon": -77.02905933333334}, {"lat": 38.926769, "type": "electric_scooter", "is_disabled": 0, "name": "6f164c3f397a5b96134cfde25238727b", "bike_id": "6f164c3f397a5b96134cfde25238727b", "fusion_lon": 0.0, "rental_uris": {"ios": "https://dc.lft.to/lastmile_qr_scan", "android": "https://dc.lft.to/lastmile_qr_scan"}, "is_reserved": 0, "fusion_lat": 0.0, "lon": -77.01488933333333}, {"lat": 38.923922, "type": "electric_scooter", "is_disabled": 0, "name": "80402dc26d33cb94d0a8a28ecdd14b41", "bike_id": "80402dc26d33cb94d0a8a28ecdd14b41", "fusion_lon": 0.0, "rental_uris": {"ios": "https://dc.lft.to/lastmile_qr_scan", "android": "https://dc.lft.to/lastmile_qr_scan"}, "is_reserved": 0, "fusion_lat": 0.0, "lon": -77.02966283333333}, {"lat": 38.900651, "type": "electric_scooter", "is_disabled": 0, "name": "d562ca442af6d6591750ab378801af46", "bike_id": "d562ca442af6d6591750ab378801af46", "fusion_lon": 0.0, "rental_uris": {"ios": "https://dc.lft.to/lastmile_qr_scan", "android": "https://dc.lft.to/lastmile_qr_scan"}, "is_reserved": 0, "fusion_lat": 0.0, "lon": -77.04536083333333}, {"lat": 38.89545233333333, "type": "electric_scooter", "is_disabled": 0, "name": "b04931a11968bddb6402e6b769319466", "bike_id": "b04931a11968bddb6402e6b769319466", "fusion_lon": 0.0, "rental_uris": {"ios": "https://dc.lft.to/lastmile_qr_scan", "android": "https://dc.lft.to/lastmile_qr_scan"}, "is_reserved": 0, "fusion_lat": 0.0, "lon": -76.988986}, {"lat": 38.898374833333335, "type": "electric_scooter", "is_disabled": 0, "name": "f529738839ec27d530a733bd81f56955", "bike_id": "f529738839ec27d530a733bd81f56955", "fusion_lon": 0.0, "rental_uris": {"ios": "https://dc.lft.to/lastmile_qr_scan", "android": "https://dc.lft.to/lastmile_qr_scan"}, "is_reserved": 0, "fusion_lat": 0.0, "lon": -77.03299933333334}, {"lat": 38.875760666666665, "type": "electric_scooter", "is_disabled": 0, "name": "db35859a9c329c84d12f6ef5092f067c", "bike_id": "db35859a9c329c84d12f6ef5092f067c", "fusion_lon": 0.0, "rental_uris": {"ios": "https://dc.lft.to/lastmile_qr_scan", "android": "https://dc.lft.to/lastmile_qr_scan"}, "is_reserved": 0, "fusion_lat": 0.0, "lon": -77.0058295}, {"lat": 38.9240605, "type": "electric_scooter", "is_disabled": 0, "name": "1f668fe831726dd35425b07f6b95932f", "bike_id": "1f668fe831726dd35425b07f6b95932f", "fusion_lon": 0.0, "rental_uris": {"ios": "https://dc.lft.to/lastmile_qr_scan", "android": "https://dc.lft.to/lastmile_qr_scan"}, "is_reserved": 0, "fusion_lat": 0.0, "lon": -77.02243}, {"lat": 38.8475395, "type": "electric_bike", "is_disabled": 0, "name": "05caab088a5851c59004a6fce10f68cc", "bike_id": "05caab088a5851c59004a6fce10f68cc", "fusion_lon": 0.0, "rental_uris": {"ios": "https://dc.lft.to/lastmile_qr_scan", "android": "https://dc.lft.to/lastmile_qr_scan"}, "is_reserved": 0, "fusion_lat": 0.0, "lon": -77.0537205}, {"lat": 38.9155285, "type": "electric_scooter", "is_disabled": 0, "name": "1f21e82dd7eef8881f8ad8e9d288114b", "bike_id": "1f21e82dd7eef8881f8ad8e9d288114b", "fusion_lon": 0.0, "rental_uris": {"ios": "https://dc.lft.to/lastmile_qr_scan", "android": "https://dc.lft.to/lastmile_qr_scan"}, "is_reserved": 0, "fusion_lat": 0.0, "lon": -77.04443966666666}, {"lat": 38.899026166666665, "type": "electric_scooter", "is_disabled": 0, "name": "0b9eadef1200e80a725ffc1f2b3152c8", "bike_id": "0b9eadef1200e80a725ffc1f2b3152c8", "fusion_lon": 0.0, "rental_uris": {"ios": "https://dc.lft.to/lastmile_qr_scan", "android": "https://dc.lft.to/lastmile_qr_scan"}, "is_reserved": 0, "fusion_lat": 0.0, "lon": -76.99021166666667}, {"lat": 38.911139, "type": "electric_scooter", "is_disabled": 0, "name": "5e87545824e83d77103874902377172f", "bike_id": "5e87545824e83d77103874902377172f", "fusion_lon": 0.0, "rental_uris": {"ios": "https://dc.lft.to/lastmile_qr_scan", "android": "https://dc.lft.to/lastmile_qr_scan"}, "is_reserved": 0, "fusion_lat": 0.0, "lon": -77.0313375}, {"lat": 38.935407166666664, "type": "electric_scooter", "is_disabled": 0, "name": "2487e261ca305d10be7bae2cea49df84", "bike_id": "2487e261ca305d10be7bae2cea49df84", "fusion_lon": 0.0, "rental_uris": {"ios": "https://dc.lft.to/lastmile_qr_scan", "android": "https://dc.lft.to/lastmile_qr_scan"}, "is_reserved": 0, "fusion_lat": 0.0, "lon": -77.058324}, {"lat": 38.893115, "type": "electric_scooter", "is_disabled": 0, "name": "db7a20eee9f1517e46e8519beee8d033", "bike_id": "db7a20eee9f1517e46e8519beee8d033", "fusion_lon": 0.0, "rental_uris": {"ios": "https://dc.lft.to/lastmile_qr_scan", "android": "https://dc.lft.to/lastmile_qr_scan"}, "is_reserved": 0, "fusion_lat": 0.0, "lon": -76.9397125}, {"lat": 38.915736333333335, "type": "electric_scooter", "is_disabled": 0, "name": "a652e3888e3d67cf715da750a901e0df", "bike_id": "a652e3888e3d67cf715da750a901e0df", "fusion_lon": 0.0, "rental_uris": {"ios": "https://dc.lft.to/lastmile_qr_scan", "android": "https://dc.lft.to/lastmile_qr_scan"}, "is_reserved": 0, "fusion_lat": 0.0, "lon": -77.03186416666667}, {"lat": 38.89224816666667, "type": "electric_scooter", "is_disabled": 0, "name": "1dcb8d5d2fcdb8c7fd1300d1ee3fa23b", "bike_id": "1dcb8d5d2fcdb8c7fd1300d1ee3fa23b", "fusion_lon": 0.0, "rental_uris": {"ios": "https://dc.lft.to/lastmile_qr_scan", "android": "https://dc.lft.to/lastmile_qr_scan"}, "is_reserved": 0, "fusion_lat": 0.0, "lon": -77.04679066666667}, {"lat": 38.938615166666665, "type": "electric_scooter", "is_disabled": 0, "name": "20b7ff55cbc5bb9a48f582fe7acc45ae", "bike_id": "20b7ff55cbc5bb9a48f582fe7acc45ae", "fusion_lon": 0.0, "rental_uris": {"ios": "https://dc.lft.to/lastmile_qr_scan", "android": "https://dc.lft.to/lastmile_qr_scan"}, "is_reserved": 0, "fusion_lat": 0.0, "lon": -77.02491766666667}, {"lat": 38.94292216666667, "type": "electric_scooter", "is_disabled": 0, "name": "b53b6e75bb7c29c929f3fbbfb43f6ba5", "bike_id": "b53b6e75bb7c29c929f3fbbfb43f6ba5", "fusion_lon": 0.0, "rental_uris": {"ios": "https://dc.lft.to/lastmile_qr_scan", "android": "https://dc.lft.to/lastmile_qr_scan"}, "is_reserved": 0, "fusion_lat": 0.0, "lon": -77.02797733333334}, {"lat": 38.88489083333333, "type": "electric_scooter", "is_disabled": 0, "name": "ddc9d59ba199d9546a254d0a3ec63a66", "bike_id": "ddc9d59ba199d9546a254d0a3ec63a66", "fusion_lon": 0.0, "rental_uris": {"ios": "https://dc.lft.to/lastmile_qr_scan", "android": "https://dc.lft.to/lastmile_qr_scan"}, "is_reserved": 0, "fusion_lat": 0.0, "lon": -77.02087333333333}, {"lat": 38.900022166666666, "type": "electric_scooter", "is_disabled": 0, "name": "7b9f88691f528c80ce92cfbee33570d6", "bike_id": "7b9f88691f528c80ce92cfbee33570d6", "fusion_lon": 0.0, "rental_uris": {"ios": "https://dc.lft.to/lastmile_qr_scan", "android": "https://dc.lft.to/lastmile_qr_scan"}, "is_reserved": 0, "fusion_lat": 0.0, "lon": -77.04098566666667}, {"lat": 38.89493083333333, "type": "electric_scooter", "is_disabled": 0, "name": "23d7021f6af301df6a5e6e3ed1799d28", "bike_id": "23d7021f6af301df6a5e6e3ed1799d28", "fusion_lon": 0.0, "rental_uris": {"ios": "https://dc.lft.to/lastmile_qr_scan", "android": "https://dc.lft.to/lastmile_qr_scan"}, "is_reserved": 0, "fusion_lat": 0.0, "lon": -76.94895833333334}, {"lat": 38.90395766666666, "type": "electric_scooter", "is_disabled": 0, "name": "b78c68dddf92262cf09641f259668e04", "bike_id": "b78c68dddf92262cf09641f259668e04", "fusion_lon": 0.0, "rental_uris": {"ios": "https://dc.lft.to/lastmile_qr_scan", "android": "https://dc.lft.to/lastmile_qr_scan"}, "is_reserved": 0, "fusion_lat": 0.0, "lon": -77.06295066666667}, {"lat": 38.854399, "type": "electric_scooter", "is_disabled": 0, "name": "88101ee5e3ffe67f3a75440ab2161de5", "bike_id": "88101ee5e3ffe67f3a75440ab2161de5", "fusion_lon": 0.0, "rental_uris": {"ios": "https://dc.lft.to/lastmile_qr_scan", "android": "https://dc.lft.to/lastmile_qr_scan"}, "is_reserved": 0, "fusion_lat": 0.0, "lon": -76.9718085}, {"lat": 38.919940833333335, "type": "electric_scooter", "is_disabled": 0, "name": "10762f1d8dde013f76cb4562da29a393", "bike_id": "10762f1d8dde013f76cb4562da29a393", "fusion_lon": 0.0, "rental_uris": {"ios": "https://dc.lft.to/lastmile_qr_scan", "android": "https://dc.lft.to/lastmile_qr_scan"}, "is_reserved": 0, "fusion_lat": 0.0, "lon": -76.98396666666666}, {"lat": 38.892237, "type": "electric_scooter", "is_disabled": 0, "name": "79e0d3b5f4518fab8bb29cff252234a7", "bike_id": "79e0d3b5f4518fab8bb29cff252234a7", "fusion_lon": 0.0, "rental_uris": {"ios": "https://dc.lft.to/lastmile_qr_scan", "android": "https://dc.lft.to/lastmile_qr_scan"}, "is_reserved": 0, "fusion_lat": 0.0, "lon": -77.0436435}, {"lat": 38.91566266666667, "type": "electric_scooter", "is_disabled": 0, "name": "7d043c8aea24922a59e7fadc3dbeebbf", "bike_id": "7d043c8aea24922a59e7fadc3dbeebbf", "fusion_lon": 0.0, "rental_uris": {"ios": "https://dc.lft.to/lastmile_qr_scan", "android": "https://dc.lft.to/lastmile_qr_scan"}, "is_reserved": 0, "fusion_lat": 0.0, "lon": -77.031839}, {"lat": 38.93390933333333, "type": "electric_scooter", "is_disabled": 0, "name": "57ffd1405ed5898d123a1efd04db09a1", "bike_id": "57ffd1405ed5898d123a1efd04db09a1", "fusion_lon": 0.0, "rental_uris": {"ios": "https://dc.lft.to/lastmile_qr_scan", "android": "https://dc.lft.to/lastmile_qr_scan"}, "is_reserved": 0, "fusion_lat": 0.0, "lon": -77.03215616666667}, {"lat": 38.90168583333333, "type": "electric_bike", "is_disabled": 0, "name": "1e4dcf299365f2e2c7da797b6cc0a1f4", "bike_id": "1e4dcf299365f2e2c7da797b6cc0a1f4", "fusion_lon": 0.0, "rental_uris": {"ios": "https://dc.lft.to/lastmile_qr_scan", "android": "https://dc.lft.to/lastmile_qr_scan"}, "is_reserved": 0, "fusion_lat": 0.0, "lon": -76.976955}, {"lat": 38.922574166666664, "type": "electric_bike", "is_disabled": 0, "name": "c3f9fefda61533696ac48905249c80de", "bike_id": "c3f9fefda61533696ac48905249c80de", "fusion_lon": 0.0, "rental_uris": {"ios": "https://dc.lft.to/lastmile_qr_scan", "android": "https://dc.lft.to/lastmile_qr_scan"}, "is_reserved": 0, "fusion_lat": 0.0, "lon": -76.98641033333334}, {"lat": 38.903663333333334, "type": "electric_scooter", "is_disabled": 0, "name": "289b907c74613d4c9aa3fcf650c5716f", "bike_id": "289b907c74613d4c9aa3fcf650c5716f", "fusion_lon": 0.0, "rental_uris": {"ios": "https://dc.lft.to/lastmile_qr_scan", "android": "https://dc.lft.to/lastmile_qr_scan"}, "is_reserved": 0, "fusion_lat": 0.0, "lon": -77.04220566666666}, {"lat": 38.918399666666666, "type": "electric_scooter", "is_disabled": 0, "name": "895ba93bb0926d32a07c895c22df59ae", "bike_id": "895ba93bb0926d32a07c895c22df59ae", "fusion_lon": 0.0, "rental_uris": {"ios": "https://dc.lft.to/lastmile_qr_scan", "android": "https://dc.lft.to/lastmile_qr_scan"}, "is_reserved": 0, "fusion_lat": 0.0, "lon": -77.03213116666667}, {"lat": 38.89735916666667, "type": "electric_scooter", "is_disabled": 0, "name": "a0b0b081ff2ab3ef55331d61b7cde2b3", "bike_id": "a0b0b081ff2ab3ef55331d61b7cde2b3", "fusion_lon": 0.0, "rental_uris": {"ios": "https://dc.lft.to/lastmile_qr_scan", "android": "https://dc.lft.to/lastmile_qr_scan"}, "is_reserved": 0, "fusion_lat": 0.0, "lon": -77.03016616666666}, {"lat": 38.905055, "type": "electric_scooter", "is_disabled": 0, "name": "401005b27d0b7b93b1e75a57ec10600f", "bike_id": "401005b27d0b7b93b1e75a57ec10600f", "fusion_lon": 0.0, "rental_uris": {"ios": "https://dc.lft.to/lastmile_qr_scan", "android": "https://dc.lft.to/lastmile_qr_scan"}, "is_reserved": 0, "fusion_lat": 0.0, "lon": -77.05193916666667}, {"lat": 38.89940583333333, "type": "electric_scooter", "is_disabled": 0, "name": "724164e305d76a93b06757b8604c6ef6", "bike_id": "724164e305d76a93b06757b8604c6ef6", "fusion_lon": 0.0, "rental_uris": {"ios": "https://dc.lft.to/lastmile_qr_scan", "android": "https://dc.lft.to/lastmile_qr_scan"}, "is_reserved": 0, "fusion_lat": 0.0, "lon": -77.02960116666667}, {"lat": 38.899629166666664, "type": "electric_scooter", "is_disabled": 0, "name": "b721c49ae35399e49d8f3d99db5b5e03", "bike_id": "b721c49ae35399e49d8f3d99db5b5e03", "fusion_lon": 0.0, "rental_uris": {"ios": "https://dc.lft.to/lastmile_qr_scan", "android": "https://dc.lft.to/lastmile_qr_scan"}, "is_reserved": 0, "fusion_lat": 0.0, "lon": -77.030746}, {"lat": 38.898256333333336, "type": "electric_scooter", "is_disabled": 0, "name": "7bcb5d83d12d996746ec18f5e51d2bb6", "bike_id": "7bcb5d83d12d996746ec18f5e51d2bb6", "fusion_lon": 0.0, "rental_uris": {"ios": "https://dc.lft.to/lastmile_qr_scan", "android": "https://dc.lft.to/lastmile_qr_scan"}, "is_reserved": 0, "fusion_lat": 0.0, "lon": -77.02941666666666}, {"lat": 38.903687166666664, "type": "electric_scooter", "is_disabled": 0, "name": "9b119a9dfabed954f4ae213a0cfa4768", "bike_id": "9b119a9dfabed954f4ae213a0cfa4768", "fusion_lon": 0.0, "rental_uris": {"ios": "https://dc.lft.to/lastmile_qr_scan", "android": "https://dc.lft.to/lastmile_qr_scan"}, "is_reserved": 0, "fusion_lat": 0.0, "lon": -77.03993616666666}, {"lat": 38.8191355, "type": "electric_bike", "is_disabled": 0, "name": "2007ed1cc16870217bf34f4e3aa69b64", "bike_id": "2007ed1cc16870217bf34f4e3aa69b64", "fusion_lon": 0.0, "rental_uris": {"ios": "https://dc.lft.to/lastmile_qr_scan", "android": "https://dc.lft.to/lastmile_qr_scan"}, "is_reserved": 0, "fusion_lat": 0.0, "lon": -77.12662716666667}, {"lat": 38.92568083333333, "type": "electric_scooter", "is_disabled": 0, "name": "016d38c9ddeefe2288ec6e4215351ec1", "bike_id": "016d38c9ddeefe2288ec6e4215351ec1", "fusion_lon": 0.0, "rental_uris": {"ios": "https://dc.lft.to/lastmile_qr_scan", "android": "https://dc.lft.to/lastmile_qr_scan"}, "is_reserved": 0, "fusion_lat": 0.0, "lon": -77.02285816666667}, {"lat": 38.90158516666666, "type": "electric_scooter", "is_disabled": 0, "name": "f6367fab528a141fcb92e2d97db34880", "bike_id": "f6367fab528a141fcb92e2d97db34880", "fusion_lon": 0.0, "rental_uris": {"ios": "https://dc.lft.to/lastmile_qr_scan", "android": "https://dc.lft.to/lastmile_qr_scan"}, "is_reserved": 0, "fusion_lat": 0.0, "lon": -77.048945}, {"lat": 38.92411966666667, "type": "electric_scooter", "is_disabled": 0, "name": "bef793ece95ab638b47f7a23030489db", "bike_id": "bef793ece95ab638b47f7a23030489db", "fusion_lon": 0.0, "rental_uris": {"ios": "https://dc.lft.to/lastmile_qr_scan", "android": "https://dc.lft.to/lastmile_qr_scan"}, "is_reserved": 0, "fusion_lat": 0.0, "lon": -77.02297166666666}, {"lat": 38.924714, "type": "electric_scooter", "is_disabled": 0, "name": "190e142ff7e0fe2d004536fb21ba9081", "bike_id": "190e142ff7e0fe2d004536fb21ba9081", "fusion_lon": 0.0, "rental_uris": {"ios": "https://dc.lft.to/lastmile_qr_scan", "android": "https://dc.lft.to/lastmile_qr_scan"}, "is_reserved": 0, "fusion_lat": 0.0, "lon": -77.03830316666667}, {"lat": 38.901845, "type": "electric_scooter", "is_disabled": 0, "name": "e0bdf2936c383720cccc3e4ce353afb5", "bike_id": "e0bdf2936c383720cccc3e4ce353afb5", "fusion_lon": 0.0, "rental_uris": {"ios": "https://dc.lft.to/lastmile_qr_scan", "android": "https://dc.lft.to/lastmile_qr_scan"}, "is_reserved": 0, "fusion_lat": 0.0, "lon": -76.9300375}, {"lat": 38.90551, "type": "electric_scooter", "is_disabled": 0, "name": "d6e03cc6d6d5f760ca866770623a4017", "bike_id": "d6e03cc6d6d5f760ca866770623a4017", "fusion_lon": 0.0, "rental_uris": {"ios": "https://dc.lft.to/lastmile_qr_scan", "android": "https://dc.lft.to/lastmile_qr_scan"}, "is_reserved": 0, "fusion_lat": 0.0, "lon": -77.00625183333334}, {"lat": 38.9198705, "type": "electric_scooter", "is_disabled": 0, "name": "073f944643f2b0244ed3b88bda4e2de2", "bike_id": "073f944643f2b0244ed3b88bda4e2de2", "fusion_lon": 0.0, "rental_uris": {"ios": "https://dc.lft.to/lastmile_qr_scan", "android": "https://dc.lft.to/lastmile_qr_scan"}, "is_reserved": 0, "fusion_lat": 0.0, "lon": -77.02184633333333}, {"lat": 38.900331, "type": "electric_scooter", "is_disabled": 0, "name": "3e8d08597e4848212f2d019b25c7aab3", "bike_id": "3e8d08597e4848212f2d019b25c7aab3", "fusion_lon": 0.0, "rental_uris": {"ios": "https://dc.lft.to/lastmile_qr_scan", "android": "https://dc.lft.to/lastmile_qr_scan"}, "is_reserved": 0, "fusion_lat": 0.0, "lon": -77.01239816666667}, {"lat": 38.9237965, "type": "electric_scooter", "is_disabled": 0, "name": "028d19f8f13f558f052bf3c11e25e643", "bike_id": "028d19f8f13f558f052bf3c11e25e643", "fusion_lon": 0.0, "rental_uris": {"ios": "https://dc.lft.to/lastmile_qr_scan", "android": "https://dc.lft.to/lastmile_qr_scan"}, "is_reserved": 0, "fusion_lat": 0.0, "lon": -77.01914066666667}, {"lat": 38.89956133333333, "type": "electric_scooter", "is_disabled": 0, "name": "ddc69c3ee1211eb7a541988e5c775b83", "bike_id": "ddc69c3ee1211eb7a541988e5c775b83", "fusion_lon": 0.0, "rental_uris": {"ios": "https://dc.lft.to/lastmile_qr_scan", "android": "https://dc.lft.to/lastmile_qr_scan"}, "is_reserved": 0, "fusion_lat": 0.0, "lon": -77.04509416666667}, {"lat": 38.899397666666665, "type": "electric_scooter", "is_disabled": 0, "name": "79a8e4c48691644e24e25ac5fc16251c", "bike_id": "79a8e4c48691644e24e25ac5fc16251c", "fusion_lon": 0.0, "rental_uris": {"ios": "https://dc.lft.to/lastmile_qr_scan", "android": "https://dc.lft.to/lastmile_qr_scan"}, "is_reserved": 0, "fusion_lat": 0.0, "lon": -77.02041866666667}, {"lat": 38.908008, "type": "electric_scooter", "is_disabled": 0, "name": "a110207cc5a140fc924898b4299883da", "bike_id": "a110207cc5a140fc924898b4299883da", "fusion_lon": 0.0, "rental_uris": {"ios": "https://dc.lft.to/lastmile_qr_scan", "android": "https://dc.lft.to/lastmile_qr_scan"}, "is_reserved": 0, "fusion_lat": 0.0, "lon": -76.99731266666667}, {"lat": 38.901907, "type": "electric_scooter", "is_disabled": 0, "name": "2f3fa4ad2e9205f97cb190b1407b8b26", "bike_id": "2f3fa4ad2e9205f97cb190b1407b8b26", "fusion_lon": 0.0, "rental_uris": {"ios": "https://dc.lft.to/lastmile_qr_scan", "android": "https://dc.lft.to/lastmile_qr_scan"}, "is_reserved": 0, "fusion_lat": 0.0, "lon": -77.0502135}, {"lat": 38.897496333333336, "type": "electric_scooter", "is_disabled": 0, "name": "e98ce855844454b8a446f26b226e102d", "bike_id": "e98ce855844454b8a446f26b226e102d", "fusion_lon": 0.0, "rental_uris": {"ios": "https://dc.lft.to/lastmile_qr_scan", "android": "https://dc.lft.to/lastmile_qr_scan"}, "is_reserved": 0, "fusion_lat": 0.0, "lon": -77.021986}, {"lat": 38.925924, "type": "electric_scooter", "is_disabled": 0, "name": "cf08c57891169fa4d9380a81f01a3074", "bike_id": "cf08c57891169fa4d9380a81f01a3074", "fusion_lon": 0.0, "rental_uris": {"ios": "https://dc.lft.to/lastmile_qr_scan", "android": "https://dc.lft.to/lastmile_qr_scan"}, "is_reserved": 0, "fusion_lat": 0.0, "lon": -77.0092035}, {"lat": 38.91606733333333, "type": "electric_scooter", "is_disabled": 0, "name": "9cf08972b5318d0c352d8e564c6104e5", "bike_id": "9cf08972b5318d0c352d8e564c6104e5", "fusion_lon": 0.0, "rental_uris": {"ios": "https://dc.lft.to/lastmile_qr_scan", "android": "https://dc.lft.to/lastmile_qr_scan"}, "is_reserved": 0, "fusion_lat": 0.0, "lon": -77.0463615}, {"lat": 38.936245, "type": "electric_scooter", "is_disabled": 0, "name": "f0104cc45da71e676d8502442e1a4e44", "bike_id": "f0104cc45da71e676d8502442e1a4e44", "fusion_lon": 0.0, "rental_uris": {"ios": "https://dc.lft.to/lastmile_qr_scan", "android": "https://dc.lft.to/lastmile_qr_scan"}, "is_reserved": 0, "fusion_lat": 0.0, "lon": -77.0643155}, {"lat": 38.896331333333336, "type": "electric_scooter", "is_disabled": 0, "name": "cf480a1aea122a1574d54a2967d6e732", "bike_id": "cf480a1aea122a1574d54a2967d6e732", "fusion_lon": 0.0, "rental_uris": {"ios": "https://dc.lft.to/lastmile_qr_scan", "android": "https://dc.lft.to/lastmile_qr_scan"}, "is_reserved": 0, "fusion_lat": 0.0, "lon": -77.04414166666666}, {"lat": 38.989320666666664, "type": "electric_bike", "is_disabled": 0, "name": "e91f2ec12c94815228979c45c39190b7", "bike_id": "e91f2ec12c94815228979c45c39190b7", "fusion_lon": 0.0, "rental_uris": {"ios": "https://dc.lft.to/lastmile_qr_scan", "android": "https://dc.lft.to/lastmile_qr_scan"}, "is_reserved": 0, "fusion_lat": 0.0, "lon": -77.10101516666667}, {"lat": 38.91957416666666, "type": "electric_scooter", "is_disabled": 0, "name": "dcdcd4d6ec3fa980f6c128f41cfeff6e", "bike_id": "dcdcd4d6ec3fa980f6c128f41cfeff6e", "fusion_lon": 0.0, "rental_uris": {"ios": "https://dc.lft.to/lastmile_qr_scan", "android": "https://dc.lft.to/lastmile_qr_scan"}, "is_reserved": 0, "fusion_lat": 0.0, "lon": -77.01899066666667}, {"lat": 38.9043595, "type": "electric_scooter", "is_disabled": 0, "name": "3314d4493d625f4c5fdf0efe323471bb", "bike_id": "3314d4493d625f4c5fdf0efe323471bb", "fusion_lon": 0.0, "rental_uris": {"ios": "https://dc.lft.to/lastmile_qr_scan", "android": "https://dc.lft.to/lastmile_qr_scan"}, "is_reserved": 0, "fusion_lat": 0.0, "lon": -77.04351416666667}, {"lat": 38.903088, "type": "electric_scooter", "is_disabled": 0, "name": "c84be987f5963beac7d40d52e2e56157", "bike_id": "c84be987f5963beac7d40d52e2e56157", "fusion_lon": 0.0, "rental_uris": {"ios": "https://dc.lft.to/lastmile_qr_scan", "android": "https://dc.lft.to/lastmile_qr_scan"}, "is_reserved": 0, "fusion_lat": 0.0, "lon": -77.03198483333334}, {"lat": 38.926912, "type": "electric_scooter", "is_disabled": 0, "name": "bcdf6ce3d524b4a82fafbeddf2137c9b", "bike_id": "bcdf6ce3d524b4a82fafbeddf2137c9b", "fusion_lon": 0.0, "rental_uris": {"ios": "https://dc.lft.to/lastmile_qr_scan", "android": "https://dc.lft.to/lastmile_qr_scan"}, "is_reserved": 0, "fusion_lat": 0.0, "lon": -77.027893}, {"lat": 38.90885633333333, "type": "electric_scooter", "is_disabled": 0, "name": "98b46c4f83be53debc1ec08486a4fe71", "bike_id": "98b46c4f83be53debc1ec08486a4fe71", "fusion_lon": 0.0, "rental_uris": {"ios": "https://dc.lft.to/lastmile_qr_scan", "android": "https://dc.lft.to/lastmile_qr_scan"}, "is_reserved": 0, "fusion_lat": 0.0, "lon": -77.07536766666666}, {"lat": 38.92492216666667, "type": "electric_scooter", "is_disabled": 0, "name": "7451d5ec17c2bcb2c5f30b8927ac99c3", "bike_id": "7451d5ec17c2bcb2c5f30b8927ac99c3", "fusion_lon": 0.0, "rental_uris": {"ios": "https://dc.lft.to/lastmile_qr_scan", "android": "https://dc.lft.to/lastmile_qr_scan"}, "is_reserved": 0, "fusion_lat": 0.0, "lon": -77.03931466666667}, {"lat": 38.90267816666667, "type": "electric_scooter", "is_disabled": 0, "name": "d8e517f3ecfc4d9158115ef5f0a057d4", "bike_id": "d8e517f3ecfc4d9158115ef5f0a057d4", "fusion_lon": 0.0, "rental_uris": {"ios": "https://dc.lft.to/lastmile_qr_scan", "android": "https://dc.lft.to/lastmile_qr_scan"}, "is_reserved": 0, "fusion_lat": 0.0, "lon": -77.011305}, {"lat": 38.89890366666667, "type": "electric_scooter", "is_disabled": 0, "name": "f93a91a825d2c908230b780cc49fc4da", "bike_id": "f93a91a825d2c908230b780cc49fc4da", "fusion_lon": 0.0, "rental_uris": {"ios": "https://dc.lft.to/lastmile_qr_scan", "android": "https://dc.lft.to/lastmile_qr_scan"}, "is_reserved": 0, "fusion_lat": 0.0, "lon": -77.02974783333333}, {"lat": 38.898851666666665, "type": "electric_scooter", "is_disabled": 0, "name": "ecb86c29f8369be7e0e494f3fe5ecece", "bike_id": "ecb86c29f8369be7e0e494f3fe5ecece", "fusion_lon": 0.0, "rental_uris": {"ios": "https://dc.lft.to/lastmile_qr_scan", "android": "https://dc.lft.to/lastmile_qr_scan"}, "is_reserved": 0, "fusion_lat": 0.0, "lon": -76.93174766666667}, {"lat": 38.8778575, "type": "electric_scooter", "is_disabled": 0, "name": "a3887928b1af7f2d5f4eb48dd427c653", "bike_id": "a3887928b1af7f2d5f4eb48dd427c653", "fusion_lon": 0.0, "rental_uris": {"ios": "https://dc.lft.to/lastmile_qr_scan", "android": "https://dc.lft.to/lastmile_qr_scan"}, "is_reserved": 0, "fusion_lat": 0.0, "lon": -76.99416333333333}, {"lat": 38.90558166666667, "type": "electric_scooter", "is_disabled": 0, "name": "cad6cbf2fc53039013f0f7ce918cdeea", "bike_id": "cad6cbf2fc53039013f0f7ce918cdeea", "fusion_lon": 0.0, "rental_uris": {"ios": "https://dc.lft.to/lastmile_qr_scan", "android": "https://dc.lft.to/lastmile_qr_scan"}, "is_reserved": 0, "fusion_lat": 0.0, "lon": -77.04185116666666}, {"lat": 38.90719516666667, "type": "electric_scooter", "is_disabled": 0, "name": "9f3c03138f1304b5f76dfd55f41c555b", "bike_id": "9f3c03138f1304b5f76dfd55f41c555b", "fusion_lon": 0.0, "rental_uris": {"ios": "https://dc.lft.to/lastmile_qr_scan", "android": "https://dc.lft.to/lastmile_qr_scan"}, "is_reserved": 0, "fusion_lat": 0.0, "lon": -77.03360466666666}, {"lat": 38.92472883333333, "type": "electric_scooter", "is_disabled": 0, "name": "79c9a98b89b5a943876036effd5fa600", "bike_id": "79c9a98b89b5a943876036effd5fa600", "fusion_lon": 0.0, "rental_uris": {"ios": "https://dc.lft.to/lastmile_qr_scan", "android": "https://dc.lft.to/lastmile_qr_scan"}, "is_reserved": 0, "fusion_lat": 0.0, "lon": -77.03935016666667}, {"lat": 38.92287966666667, "type": "electric_scooter", "is_disabled": 0, "name": "8b25c4eab20d7dab088471a55af5fa3f", "bike_id": "8b25c4eab20d7dab088471a55af5fa3f", "fusion_lon": 0.0, "rental_uris": {"ios": "https://dc.lft.to/lastmile_qr_scan", "android": "https://dc.lft.to/lastmile_qr_scan"}, "is_reserved": 0, "fusion_lat": 0.0, "lon": -77.04219}, {"lat": 38.95514633333333, "type": "electric_scooter", "is_disabled": 0, "name": "f60da04ea5371a62eb97420ab96cdb92", "bike_id": "f60da04ea5371a62eb97420ab96cdb92", "fusion_lon": 0.0, "rental_uris": {"ios": "https://dc.lft.to/lastmile_qr_scan", "android": "https://dc.lft.to/lastmile_qr_scan"}, "is_reserved": 0, "fusion_lat": 0.0, "lon": -77.01048383333334}, {"lat": 38.91567933333333, "type": "electric_scooter", "is_disabled": 0, "name": "a4e8be5a3ca2ab44416d3d9a5dcc1f99", "bike_id": "a4e8be5a3ca2ab44416d3d9a5dcc1f99", "fusion_lon": 0.0, "rental_uris": {"ios": "https://dc.lft.to/lastmile_qr_scan", "android": "https://dc.lft.to/lastmile_qr_scan"}, "is_reserved": 0, "fusion_lat": 0.0, "lon": -77.0453635}, {"lat": 38.926134, "type": "electric_scooter", "is_disabled": 0, "name": "1544dd86a35e6aa791f8bcac6bd6ef00", "bike_id": "1544dd86a35e6aa791f8bcac6bd6ef00", "fusion_lon": 0.0, "rental_uris": {"ios": "https://dc.lft.to/lastmile_qr_scan", "android": "https://dc.lft.to/lastmile_qr_scan"}, "is_reserved": 0, "fusion_lat": 0.0, "lon": -77.021644}, {"lat": 38.911879, "type": "electric_scooter", "is_disabled": 0, "name": "ca0cbcf86cb33729965f7bef93938c53", "bike_id": "ca0cbcf86cb33729965f7bef93938c53", "fusion_lon": 0.0, "rental_uris": {"ios": "https://dc.lft.to/lastmile_qr_scan", "android": "https://dc.lft.to/lastmile_qr_scan"}, "is_reserved": 0, "fusion_lat": 0.0, "lon": -77.00555616666666}, {"lat": 38.88238583333333, "type": "electric_bike", "is_disabled": 0, "name": "25e8735a561378a1bcc329d697fac55d", "bike_id": "25e8735a561378a1bcc329d697fac55d", "fusion_lon": 0.0, "rental_uris": {"ios": "https://dc.lft.to/lastmile_qr_scan", "android": "https://dc.lft.to/lastmile_qr_scan"}, "is_reserved": 0, "fusion_lat": 0.0, "lon": -77.11188183333333}, {"lat": 38.903434, "type": "electric_scooter", "is_disabled": 0, "name": "437e2e6cb3363c4a9060fd7c7ef179ae", "bike_id": "437e2e6cb3363c4a9060fd7c7ef179ae", "fusion_lon": 0.0, "rental_uris": {"ios": "https://dc.lft.to/lastmile_qr_scan", "android": "https://dc.lft.to/lastmile_qr_scan"}, "is_reserved": 0, "fusion_lat": 0.0, "lon": -77.02196433333333}, {"lat": 38.92727566666667, "type": "electric_scooter", "is_disabled": 0, "name": "f8262fa6155937136af04d31cec99d26", "bike_id": "f8262fa6155937136af04d31cec99d26", "fusion_lon": 0.0, "rental_uris": {"ios": "https://dc.lft.to/lastmile_qr_scan", "android": "https://dc.lft.to/lastmile_qr_scan"}, "is_reserved": 0, "fusion_lat": 0.0, "lon": -77.02276883333333}, {"lat": 38.92410566666667, "type": "electric_scooter", "is_disabled": 0, "name": "f93bfe8ef42c8eecdfeedd0480afcece", "bike_id": "f93bfe8ef42c8eecdfeedd0480afcece", "fusion_lon": 0.0, "rental_uris": {"ios": "https://dc.lft.to/lastmile_qr_scan", "android": "https://dc.lft.to/lastmile_qr_scan"}, "is_reserved": 0, "fusion_lat": 0.0, "lon": -77.01945333333333}, {"lat": 38.892204166666666, "type": "electric_scooter", "is_disabled": 0, "name": "e15fa82a6421c3c8f9b144f2dce5fb6e", "bike_id": "e15fa82a6421c3c8f9b144f2dce5fb6e", "fusion_lon": 0.0, "rental_uris": {"ios": "https://dc.lft.to/lastmile_qr_scan", "android": "https://dc.lft.to/lastmile_qr_scan"}, "is_reserved": 0, "fusion_lat": 0.0, "lon": -77.04274183333334}, {"lat": 38.904061666666664, "type": "electric_scooter", "is_disabled": 0, "name": "d7741fbcde5397e87c593d5ad677d8ad", "bike_id": "d7741fbcde5397e87c593d5ad677d8ad", "fusion_lon": 0.0, "rental_uris": {"ios": "https://dc.lft.to/lastmile_qr_scan", "android": "https://dc.lft.to/lastmile_qr_scan"}, "is_reserved": 0, "fusion_lat": 0.0, "lon": -77.02957216666667}, {"lat": 38.90543566666667, "type": "electric_scooter", "is_disabled": 0, "name": "cc900ae101652d69e7d590b58f1934a4", "bike_id": "cc900ae101652d69e7d590b58f1934a4", "fusion_lon": 0.0, "rental_uris": {"ios": "https://dc.lft.to/lastmile_qr_scan", "android": "https://dc.lft.to/lastmile_qr_scan"}, "is_reserved": 0, "fusion_lat": 0.0, "lon": -77.0406115}, {"lat": 38.9232855, "type": "electric_scooter", "is_disabled": 0, "name": "075afef5b99d988e9e99b8a3730b4638", "bike_id": "075afef5b99d988e9e99b8a3730b4638", "fusion_lon": 0.0, "rental_uris": {"ios": "https://dc.lft.to/lastmile_qr_scan", "android": "https://dc.lft.to/lastmile_qr_scan"}, "is_reserved": 0, "fusion_lat": 0.0, "lon": -77.019524}, {"lat": 38.88740983333334, "type": "electric_scooter", "is_disabled": 0, "name": "db7cc224962ae7c885de5f2f34cd04f1", "bike_id": "db7cc224962ae7c885de5f2f34cd04f1", "fusion_lon": 0.0, "rental_uris": {"ios": "https://dc.lft.to/lastmile_qr_scan", "android": "https://dc.lft.to/lastmile_qr_scan"}, "is_reserved": 0, "fusion_lat": 0.0, "lon": -76.9964315}, {"lat": 38.8950735, "type": "electric_scooter", "is_disabled": 0, "name": "098f16ff709853cacd48d19f94cabd7a", "bike_id": "098f16ff709853cacd48d19f94cabd7a", "fusion_lon": 0.0, "rental_uris": {"ios": "https://dc.lft.to/lastmile_qr_scan", "android": "https://dc.lft.to/lastmile_qr_scan"}, "is_reserved": 0, "fusion_lat": 0.0, "lon": -77.04647766666666}, {"lat": 38.919289666666664, "type": "electric_scooter", "is_disabled": 0, "name": "cc195188e2b478d6b459e3d0273a70d7", "bike_id": "cc195188e2b478d6b459e3d0273a70d7", "fusion_lon": 0.0, "rental_uris": {"ios": "https://dc.lft.to/lastmile_qr_scan", "android": "https://dc.lft.to/lastmile_qr_scan"}, "is_reserved": 0, "fusion_lat": 0.0, "lon": -77.04556}, {"lat": 38.92434766666667, "type": "electric_scooter", "is_disabled": 0, "name": "628dcf5535306ece69ddfeb9deedde29", "bike_id": "628dcf5535306ece69ddfeb9deedde29", "fusion_lon": 0.0, "rental_uris": {"ios": "https://dc.lft.to/lastmile_qr_scan", "android": "https://dc.lft.to/lastmile_qr_scan"}, "is_reserved": 0, "fusion_lat": 0.0, "lon": -77.0203605}, {"lat": 38.9576095, "type": "electric_scooter", "is_disabled": 0, "name": "c7110c29a4e5c016be4295f82df8ded4", "bike_id": "c7110c29a4e5c016be4295f82df8ded4", "fusion_lon": 0.0, "rental_uris": {"ios": "https://dc.lft.to/lastmile_qr_scan", "android": "https://dc.lft.to/lastmile_qr_scan"}, "is_reserved": 0, "fusion_lat": 0.0, "lon": -77.009159}, {"lat": 38.91982216666667, "type": "electric_scooter", "is_disabled": 0, "name": "514cdaade069702b357a3ddf50c4678b", "bike_id": "514cdaade069702b357a3ddf50c4678b", "fusion_lon": 0.0, "rental_uris": {"ios": "https://dc.lft.to/lastmile_qr_scan", "android": "https://dc.lft.to/lastmile_qr_scan"}, "is_reserved": 0, "fusion_lat": 0.0, "lon": -77.02205983333333}, {"lat": 38.9292165, "type": "electric_scooter", "is_disabled": 0, "name": "60476831fdd622bac2a6c3761a131a9e", "bike_id": "60476831fdd622bac2a6c3761a131a9e", "fusion_lon": 0.0, "rental_uris": {"ios": "https://dc.lft.to/lastmile_qr_scan", "android": "https://dc.lft.to/lastmile_qr_scan"}, "is_reserved": 0, "fusion_lat": 0.0, "lon": -76.99819566666666}, {"lat": 38.9100005, "type": "electric_scooter", "is_disabled": 0, "name": "90a012ec634e559b1a713ad398509d28", "bike_id": "90a012ec634e559b1a713ad398509d28", "fusion_lon": 0.0, "rental_uris": {"ios": "https://dc.lft.to/lastmile_qr_scan", "android": "https://dc.lft.to/lastmile_qr_scan"}, "is_reserved": 0, "fusion_lat": 0.0, "lon": -77.04502166666667}, {"lat": 38.900444, "type": "electric_scooter", "is_disabled": 0, "name": "240e775df412cbbd8d1a4b9777a5f09a", "bike_id": "240e775df412cbbd8d1a4b9777a5f09a", "fusion_lon": 0.0, "rental_uris": {"ios": "https://dc.lft.to/lastmile_qr_scan", "android": "https://dc.lft.to/lastmile_qr_scan"}, "is_reserved": 0, "fusion_lat": 0.0, "lon": -76.98560966666666}, {"lat": 38.920691, "type": "electric_scooter", "is_disabled": 0, "name": "8b02d195af763a24096ab8512a5bbe35", "bike_id": "8b02d195af763a24096ab8512a5bbe35", "fusion_lon": 0.0, "rental_uris": {"ios": "https://dc.lft.to/lastmile_qr_scan", "android": "https://dc.lft.to/lastmile_qr_scan"}, "is_reserved": 0, "fusion_lat": 0.0, "lon": -77.03793733333333}, {"lat": 38.922365666666664, "type": "electric_scooter", "is_disabled": 0, "name": "0ba046e8ec29fbd1fd76a5da10f807a9", "bike_id": "0ba046e8ec29fbd1fd76a5da10f807a9", "fusion_lon": 0.0, "rental_uris": {"ios": "https://dc.lft.to/lastmile_qr_scan", "android": "https://dc.lft.to/lastmile_qr_scan"}, "is_reserved": 0, "fusion_lat": 0.0, "lon": -77.0436485}, {"lat": 38.8988035, "type": "electric_scooter", "is_disabled": 0, "name": "368c0df9141e19695f8288d624e0e5fa", "bike_id": "368c0df9141e19695f8288d624e0e5fa", "fusion_lon": 0.0, "rental_uris": {"ios": "https://dc.lft.to/lastmile_qr_scan", "android": "https://dc.lft.to/lastmile_qr_scan"}, "is_reserved": 0, "fusion_lat": 0.0, "lon": -77.0334525}, {"lat": 38.93703683333333, "type": "electric_scooter", "is_disabled": 0, "name": "261f633d26d5f80330f13d29a98a3aa7", "bike_id": "261f633d26d5f80330f13d29a98a3aa7", "fusion_lon": 0.0, "rental_uris": {"ios": "https://dc.lft.to/lastmile_qr_scan", "android": "https://dc.lft.to/lastmile_qr_scan"}, "is_reserved": 0, "fusion_lat": 0.0, "lon": -77.03284733333334}, {"lat": 38.896903333333334, "type": "electric_scooter", "is_disabled": 0, "name": "7749e6f2f1fca657cad0521219ae0251", "bike_id": "7749e6f2f1fca657cad0521219ae0251", "fusion_lon": 0.0, "rental_uris": {"ios": "https://dc.lft.to/lastmile_qr_scan", "android": "https://dc.lft.to/lastmile_qr_scan"}, "is_reserved": 0, "fusion_lat": 0.0, "lon": -77.043508}, {"lat": 38.898495, "type": "electric_scooter", "is_disabled": 0, "name": "b4c3dede7b86aac239a35c40c13cad20", "bike_id": "b4c3dede7b86aac239a35c40c13cad20", "fusion_lon": 0.0, "rental_uris": {"ios": "https://dc.lft.to/lastmile_qr_scan", "android": "https://dc.lft.to/lastmile_qr_scan"}, "is_reserved": 0, "fusion_lat": 0.0, "lon": -76.99030833333333}, {"lat": 38.90783166666667, "type": "electric_scooter", "is_disabled": 0, "name": "7dce10ef55303d50c596067e6548e024", "bike_id": "7dce10ef55303d50c596067e6548e024", "fusion_lon": 0.0, "rental_uris": {"ios": "https://dc.lft.to/lastmile_qr_scan", "android": "https://dc.lft.to/lastmile_qr_scan"}, "is_reserved": 0, "fusion_lat": 0.0, "lon": -77.02197666666666}, {"lat": 38.90350083333333, "type": "electric_scooter", "is_disabled": 0, "name": "5f2a103bdd1731778b8805512d1807d4", "bike_id": "5f2a103bdd1731778b8805512d1807d4", "fusion_lon": 0.0, "rental_uris": {"ios": "https://dc.lft.to/lastmile_qr_scan", "android": "https://dc.lft.to/lastmile_qr_scan"}, "is_reserved": 0, "fusion_lat": 0.0, "lon": -76.9827905}, {"lat": 38.8870865, "type": "electric_scooter", "is_disabled": 0, "name": "1d705572734a28ba8345f59b746c1a7b", "bike_id": "1d705572734a28ba8345f59b746c1a7b", "fusion_lon": 0.0, "rental_uris": {"ios": "https://dc.lft.to/lastmile_qr_scan", "android": "https://dc.lft.to/lastmile_qr_scan"}, "is_reserved": 0, "fusion_lat": 0.0, "lon": -77.02836333333333}, {"lat": 38.927612333333336, "type": "electric_scooter", "is_disabled": 0, "name": "e0aa274b7d0dbff94f1a1189f9e31a92", "bike_id": "e0aa274b7d0dbff94f1a1189f9e31a92", "fusion_lon": 0.0, "rental_uris": {"ios": "https://dc.lft.to/lastmile_qr_scan", "android": "https://dc.lft.to/lastmile_qr_scan"}, "is_reserved": 0, "fusion_lat": 0.0, "lon": -77.03208733333334}, {"lat": 38.90441083333333, "type": "electric_scooter", "is_disabled": 0, "name": "c0b18f8f587d978d561dc73386f40fb0", "bike_id": "c0b18f8f587d978d561dc73386f40fb0", "fusion_lon": 0.0, "rental_uris": {"ios": "https://dc.lft.to/lastmile_qr_scan", "android": "https://dc.lft.to/lastmile_qr_scan"}, "is_reserved": 0, "fusion_lat": 0.0, "lon": -77.03465666666666}, {"lat": 38.8849125, "type": "electric_scooter", "is_disabled": 0, "name": "f73763dc7a7206c3eb3a7c481b5939fa", "bike_id": "f73763dc7a7206c3eb3a7c481b5939fa", "fusion_lon": 0.0, "rental_uris": {"ios": "https://dc.lft.to/lastmile_qr_scan", "android": "https://dc.lft.to/lastmile_qr_scan"}, "is_reserved": 0, "fusion_lat": 0.0, "lon": -77.00714833333333}, {"lat": 38.88768116666667, "type": "electric_bike", "is_disabled": 0, "name": "d3cd8acb92bf455da60824cac88dfe7f", "bike_id": "d3cd8acb92bf455da60824cac88dfe7f", "fusion_lon": 0.0, "rental_uris": {"ios": "https://dc.lft.to/lastmile_qr_scan", "android": "https://dc.lft.to/lastmile_qr_scan"}, "is_reserved": 0, "fusion_lat": 0.0, "lon": -76.97800733333334}, {"lat": 38.934313333333336, "type": "electric_scooter", "is_disabled": 0, "name": "23b1d7f749c6c2443a828908cda77eff", "bike_id": "23b1d7f749c6c2443a828908cda77eff", "fusion_lon": 0.0, "rental_uris": {"ios": "https://dc.lft.to/lastmile_qr_scan", "android": "https://dc.lft.to/lastmile_qr_scan"}, "is_reserved": 0, "fusion_lat": 0.0, "lon": -77.04005416666666}, {"lat": 38.938195, "type": "electric_scooter", "is_disabled": 0, "name": "1e2aabb883b3341d76f00b1cb88af9b1", "bike_id": "1e2aabb883b3341d76f00b1cb88af9b1", "fusion_lon": 0.0, "rental_uris": {"ios": "https://dc.lft.to/lastmile_qr_scan", "android": "https://dc.lft.to/lastmile_qr_scan"}, "is_reserved": 0, "fusion_lat": 0.0, "lon": -77.05988533333333}, {"lat": 38.892238666666664, "type": "electric_scooter", "is_disabled": 0, "name": "d76608d3d4c6c9a20e6708b240e325b9", "bike_id": "d76608d3d4c6c9a20e6708b240e325b9", "fusion_lon": 0.0, "rental_uris": {"ios": "https://dc.lft.to/lastmile_qr_scan", "android": "https://dc.lft.to/lastmile_qr_scan"}, "is_reserved": 0, "fusion_lat": 0.0, "lon": -77.04365216666666}, {"lat": 38.91108933333334, "type": "electric_scooter", "is_disabled": 0, "name": "ea81f80200572e3f951db103a2767069", "bike_id": "ea81f80200572e3f951db103a2767069", "fusion_lon": 0.0, "rental_uris": {"ios": "https://dc.lft.to/lastmile_qr_scan", "android": "https://dc.lft.to/lastmile_qr_scan"}, "is_reserved": 0, "fusion_lat": 0.0, "lon": -77.04520266666667}, {"lat": 38.892580833333334, "type": "electric_scooter", "is_disabled": 0, "name": "86772f0b69c42ed4811356616690e290", "bike_id": "86772f0b69c42ed4811356616690e290", "fusion_lon": 0.0, "rental_uris": {"ios": "https://dc.lft.to/lastmile_qr_scan", "android": "https://dc.lft.to/lastmile_qr_scan"}, "is_reserved": 0, "fusion_lat": 0.0, "lon": -77.00214083333333}, {"lat": 38.899794666666665, "type": "electric_scooter", "is_disabled": 0, "name": "8235894cc6d6e3e1ec3a62ef8e82c1fc", "bike_id": "8235894cc6d6e3e1ec3a62ef8e82c1fc", "fusion_lon": 0.0, "rental_uris": {"ios": "https://dc.lft.to/lastmile_qr_scan", "android": "https://dc.lft.to/lastmile_qr_scan"}, "is_reserved": 0, "fusion_lat": 0.0, "lon": -77.03389616666666}, {"lat": 38.900572833333335, "type": "electric_scooter", "is_disabled": 0, "name": "5559cca0653133e3a02634ecba8365ef", "bike_id": "5559cca0653133e3a02634ecba8365ef", "fusion_lon": 0.0, "rental_uris": {"ios": "https://dc.lft.to/lastmile_qr_scan", "android": "https://dc.lft.to/lastmile_qr_scan"}, "is_reserved": 0, "fusion_lat": 0.0, "lon": -77.04360566666666}, {"lat": 38.916391, "type": "electric_scooter", "is_disabled": 0, "name": "fca24765562a5e946cabaeb217bd9252", "bike_id": "fca24765562a5e946cabaeb217bd9252", "fusion_lon": 0.0, "rental_uris": {"ios": "https://dc.lft.to/lastmile_qr_scan", "android": "https://dc.lft.to/lastmile_qr_scan"}, "is_reserved": 0, "fusion_lat": 0.0, "lon": -77.0481385}, {"lat": 38.892338, "type": "electric_scooter", "is_disabled": 0, "name": "5c5627eaed8eb95deb5bace1a4bc8438", "bike_id": "5c5627eaed8eb95deb5bace1a4bc8438", "fusion_lon": 0.0, "rental_uris": {"ios": "https://dc.lft.to/lastmile_qr_scan", "android": "https://dc.lft.to/lastmile_qr_scan"}, "is_reserved": 0, "fusion_lat": 0.0, "lon": -77.032096}, {"lat": 38.903945666666665, "type": "electric_scooter", "is_disabled": 0, "name": "ce76c905cfc3354264d129a79a710253", "bike_id": "ce76c905cfc3354264d129a79a710253", "fusion_lon": 0.0, "rental_uris": {"ios": "https://dc.lft.to/lastmile_qr_scan", "android": "https://dc.lft.to/lastmile_qr_scan"}, "is_reserved": 0, "fusion_lat": 0.0, "lon": -77.06858166666666}, {"lat": 38.912609, "type": "electric_scooter", "is_disabled": 0, "name": "70b5102e4d7c80d322e3204f73b9ce75", "bike_id": "70b5102e4d7c80d322e3204f73b9ce75", "fusion_lon": 0.0, "rental_uris": {"ios": "https://dc.lft.to/lastmile_qr_scan", "android": "https://dc.lft.to/lastmile_qr_scan"}, "is_reserved": 0, "fusion_lat": 0.0, "lon": -77.05021566666667}, {"lat": 38.93190883333333, "type": "electric_scooter", "is_disabled": 0, "name": "bfe8435cf0424f1b8a3c6ab4b0ab0e56", "bike_id": "bfe8435cf0424f1b8a3c6ab4b0ab0e56", "fusion_lon": 0.0, "rental_uris": {"ios": "https://dc.lft.to/lastmile_qr_scan", "android": "https://dc.lft.to/lastmile_qr_scan"}, "is_reserved": 0, "fusion_lat": 0.0, "lon": -77.02835216666666}, {"lat": 38.921214666666664, "type": "electric_scooter", "is_disabled": 0, "name": "dfb306e8262c3a7d60fb928aed95aa7f", "bike_id": "dfb306e8262c3a7d60fb928aed95aa7f", "fusion_lon": 0.0, "rental_uris": {"ios": "https://dc.lft.to/lastmile_qr_scan", "android": "https://dc.lft.to/lastmile_qr_scan"}, "is_reserved": 0, "fusion_lat": 0.0, "lon": -77.02069633333333}, {"lat": 38.89633716666667, "type": "electric_scooter", "is_disabled": 0, "name": "56e4e38cc6b3fcb742bfe9fea302f631", "bike_id": "56e4e38cc6b3fcb742bfe9fea302f631", "fusion_lon": 0.0, "rental_uris": {"ios": "https://dc.lft.to/lastmile_qr_scan", "android": "https://dc.lft.to/lastmile_qr_scan"}, "is_reserved": 0, "fusion_lat": 0.0, "lon": -77.0304095}, {"lat": 38.92603866666666, "type": "electric_scooter", "is_disabled": 0, "name": "fe5f39a4fbbde3e2d1ed7a7d529c93d0", "bike_id": "fe5f39a4fbbde3e2d1ed7a7d529c93d0", "fusion_lon": 0.0, "rental_uris": {"ios": "https://dc.lft.to/lastmile_qr_scan", "android": "https://dc.lft.to/lastmile_qr_scan"}, "is_reserved": 0, "fusion_lat": 0.0, "lon": -77.02157716666666}, {"lat": 38.896014, "type": "electric_bike", "is_disabled": 0, "name": "42042dcf0d048d6e1c91516115b1bce3", "bike_id": "42042dcf0d048d6e1c91516115b1bce3", "fusion_lon": 0.0, "rental_uris": {"ios": "https://dc.lft.to/lastmile_qr_scan", "android": "https://dc.lft.to/lastmile_qr_scan"}, "is_reserved": 0, "fusion_lat": 0.0, "lon": -76.96782}, {"lat": 38.89196333333334, "type": "electric_scooter", "is_disabled": 0, "name": "38d0554ea2b8bda28a4d9eafdda6d103", "bike_id": "38d0554ea2b8bda28a4d9eafdda6d103", "fusion_lon": 0.0, "rental_uris": {"ios": "https://dc.lft.to/lastmile_qr_scan", "android": "https://dc.lft.to/lastmile_qr_scan"}, "is_reserved": 0, "fusion_lat": 0.0, "lon": -77.00295133333333}, {"lat": 38.92926216666667, "type": "electric_scooter", "is_disabled": 0, "name": "671ce3d71df939402bca445fc8de1f62", "bike_id": "671ce3d71df939402bca445fc8de1f62", "fusion_lon": 0.0, "rental_uris": {"ios": "https://dc.lft.to/lastmile_qr_scan", "android": "https://dc.lft.to/lastmile_qr_scan"}, "is_reserved": 0, "fusion_lat": 0.0, "lon": -77.032801}, {"lat": 38.92676633333333, "type": "electric_scooter", "is_disabled": 0, "name": "e4d6a40949d2ea9a79080f01146c2aba", "bike_id": "e4d6a40949d2ea9a79080f01146c2aba", "fusion_lon": 0.0, "rental_uris": {"ios": "https://dc.lft.to/lastmile_qr_scan", "android": "https://dc.lft.to/lastmile_qr_scan"}, "is_reserved": 0, "fusion_lat": 0.0, "lon": -77.02744066666666}, {"lat": 38.90687583333333, "type": "electric_scooter", "is_disabled": 0, "name": "d6a57dfb1b42201ff3715f76a62696fe", "bike_id": "d6a57dfb1b42201ff3715f76a62696fe", "fusion_lon": 0.0, "rental_uris": {"ios": "https://dc.lft.to/lastmile_qr_scan", "android": "https://dc.lft.to/lastmile_qr_scan"}, "is_reserved": 0, "fusion_lat": 0.0, "lon": -77.02694766666667}, {"lat": 38.876435666666666, "type": "electric_bike", "is_disabled": 0, "name": "94898837f86b672ca5615e4bf3b0d47e", "bike_id": "94898837f86b672ca5615e4bf3b0d47e", "fusion_lon": 0.0, "rental_uris": {"ios": "https://dc.lft.to/lastmile_qr_scan", "android": "https://dc.lft.to/lastmile_qr_scan"}, "is_reserved": 0, "fusion_lat": 0.0, "lon": -76.93547066666666}, {"lat": 38.879230166666666, "type": "electric_scooter", "is_disabled": 0, "name": "c3e77e1be59d535cef308d039de52acd", "bike_id": "c3e77e1be59d535cef308d039de52acd", "fusion_lon": 0.0, "rental_uris": {"ios": "https://dc.lft.to/lastmile_qr_scan", "android": "https://dc.lft.to/lastmile_qr_scan"}, "is_reserved": 0, "fusion_lat": 0.0, "lon": -77.02368383333334}, {"lat": 38.925458, "type": "electric_scooter", "is_disabled": 0, "name": "7e1ff40227ee36429a3cea9f0ed4b072", "bike_id": "7e1ff40227ee36429a3cea9f0ed4b072", "fusion_lon": 0.0, "rental_uris": {"ios": "https://dc.lft.to/lastmile_qr_scan", "android": "https://dc.lft.to/lastmile_qr_scan"}, "is_reserved": 0, "fusion_lat": 0.0, "lon": -77.0326355}, {"lat": 38.916000333333336, "type": "electric_scooter", "is_disabled": 0, "name": "dfdd4b74e32092a67ef81e59913fe682", "bike_id": "dfdd4b74e32092a67ef81e59913fe682", "fusion_lon": 0.0, "rental_uris": {"ios": "https://dc.lft.to/lastmile_qr_scan", "android": "https://dc.lft.to/lastmile_qr_scan"}, "is_reserved": 0, "fusion_lat": 0.0, "lon": -77.04906433333333}, {"lat": 38.897761, "type": "electric_scooter", "is_disabled": 0, "name": "71617c9384f86fee31dd859bd0a1bc01", "bike_id": "71617c9384f86fee31dd859bd0a1bc01", "fusion_lon": 0.0, "rental_uris": {"ios": "https://dc.lft.to/lastmile_qr_scan", "android": "https://dc.lft.to/lastmile_qr_scan"}, "is_reserved": 0, "fusion_lat": 0.0, "lon": -77.01235716666666}, {"lat": 38.91797283333333, "type": "electric_scooter", "is_disabled": 0, "name": "cf1e621e873ecb8b1e10930850661f88", "bike_id": "cf1e621e873ecb8b1e10930850661f88", "fusion_lon": 0.0, "rental_uris": {"ios": "https://dc.lft.to/lastmile_qr_scan", "android": "https://dc.lft.to/lastmile_qr_scan"}, "is_reserved": 0, "fusion_lat": 0.0, "lon": -77.040172}, {"lat": 38.918081666666666, "type": "electric_scooter", "is_disabled": 0, "name": "acb0de0574d666d119c9235347d5ef87", "bike_id": "acb0de0574d666d119c9235347d5ef87", "fusion_lon": 0.0, "rental_uris": {"ios": "https://dc.lft.to/lastmile_qr_scan", "android": "https://dc.lft.to/lastmile_qr_scan"}, "is_reserved": 0, "fusion_lat": 0.0, "lon": -77.03637966666666}, {"lat": 38.892637666666666, "type": "electric_scooter", "is_disabled": 0, "name": "f67471ca8718031b4104701480b4f77c", "bike_id": "f67471ca8718031b4104701480b4f77c", "fusion_lon": 0.0, "rental_uris": {"ios": "https://dc.lft.to/lastmile_qr_scan", "android": "https://dc.lft.to/lastmile_qr_scan"}, "is_reserved": 0, "fusion_lat": 0.0, "lon": -77.050299}, {"lat": 38.924951, "type": "electric_scooter", "is_disabled": 0, "name": "2c8e10a7f27de8fa8932eebb03ddd177", "bike_id": "2c8e10a7f27de8fa8932eebb03ddd177", "fusion_lon": 0.0, "rental_uris": {"ios": "https://dc.lft.to/lastmile_qr_scan", "android": "https://dc.lft.to/lastmile_qr_scan"}, "is_reserved": 0, "fusion_lat": 0.0, "lon": -77.03933766666667}, {"lat": 38.892475, "type": "electric_scooter", "is_disabled": 0, "name": "b6bd6bc14c7185692e56e4f45be310ad", "bike_id": "b6bd6bc14c7185692e56e4f45be310ad", "fusion_lon": 0.0, "rental_uris": {"ios": "https://dc.lft.to/lastmile_qr_scan", "android": "https://dc.lft.to/lastmile_qr_scan"}, "is_reserved": 0, "fusion_lat": 0.0, "lon": -77.03185216666667}, {"lat": 38.92176833333333, "type": "electric_scooter", "is_disabled": 0, "name": "0fe537c242069fecd8bfe09bbf301f8e", "bike_id": "0fe537c242069fecd8bfe09bbf301f8e", "fusion_lon": 0.0, "rental_uris": {"ios": "https://dc.lft.to/lastmile_qr_scan", "android": "https://dc.lft.to/lastmile_qr_scan"}, "is_reserved": 0, "fusion_lat": 0.0, "lon": -77.0366565}, {"lat": 38.926529, "type": "electric_bike", "is_disabled": 0, "name": "73cbf8937673d45abbacd8538a971e38", "bike_id": "73cbf8937673d45abbacd8538a971e38", "fusion_lon": 0.0, "rental_uris": {"ios": "https://dc.lft.to/lastmile_qr_scan", "android": "https://dc.lft.to/lastmile_qr_scan"}, "is_reserved": 0, "fusion_lat": 0.0, "lon": -77.09024266666667}, {"lat": 38.91131033333333, "type": "electric_scooter", "is_disabled": 0, "name": "1cf3f64c4f6d37341d35f94c9608627e", "bike_id": "1cf3f64c4f6d37341d35f94c9608627e", "fusion_lon": 0.0, "rental_uris": {"ios": "https://dc.lft.to/lastmile_qr_scan", "android": "https://dc.lft.to/lastmile_qr_scan"}, "is_reserved": 0, "fusion_lat": 0.0, "lon": -77.0219935}, {"lat": 38.88460516666667, "type": "electric_scooter", "is_disabled": 0, "name": "42cda6da84479d7d7adb60ee1750a119", "bike_id": "42cda6da84479d7d7adb60ee1750a119", "fusion_lon": 0.0, "rental_uris": {"ios": "https://dc.lft.to/lastmile_qr_scan", "android": "https://dc.lft.to/lastmile_qr_scan"}, "is_reserved": 0, "fusion_lat": 0.0, "lon": -76.92620016666666}, {"lat": 38.916881333333336, "type": "electric_scooter", "is_disabled": 0, "name": "e284e9373e640bb69393ef3f610ecfca", "bike_id": "e284e9373e640bb69393ef3f610ecfca", "fusion_lon": 0.0, "rental_uris": {"ios": "https://dc.lft.to/lastmile_qr_scan", "android": "https://dc.lft.to/lastmile_qr_scan"}, "is_reserved": 0, "fusion_lat": 0.0, "lon": -77.02901416666667}, {"lat": 38.90170083333334, "type": "electric_scooter", "is_disabled": 0, "name": "6d3bae9418783221f369c36fbc41e821", "bike_id": "6d3bae9418783221f369c36fbc41e821", "fusion_lon": 0.0, "rental_uris": {"ios": "https://dc.lft.to/lastmile_qr_scan", "android": "https://dc.lft.to/lastmile_qr_scan"}, "is_reserved": 0, "fusion_lat": 0.0, "lon": -76.94979833333333}, {"lat": 38.9018375, "type": "electric_scooter", "is_disabled": 0, "name": "30db7cfcf5976858beec99b311c51313", "bike_id": "30db7cfcf5976858beec99b311c51313", "fusion_lon": 0.0, "rental_uris": {"ios": "https://dc.lft.to/lastmile_qr_scan", "android": "https://dc.lft.to/lastmile_qr_scan"}, "is_reserved": 0, "fusion_lat": 0.0, "lon": -77.012682}, {"lat": 38.9359045, "type": "electric_scooter", "is_disabled": 0, "name": "3f99850ca4d7271332a62b408c7a310e", "bike_id": "3f99850ca4d7271332a62b408c7a310e", "fusion_lon": 0.0, "rental_uris": {"ios": "https://dc.lft.to/lastmile_qr_scan", "android": "https://dc.lft.to/lastmile_qr_scan"}, "is_reserved": 0, "fusion_lat": 0.0, "lon": -77.05845933333333}, {"lat": 38.92235683333333, "type": "electric_scooter", "is_disabled": 0, "name": "b65a4ee5ace8b1d1eb0c09f664ac466f", "bike_id": "b65a4ee5ace8b1d1eb0c09f664ac466f", "fusion_lon": 0.0, "rental_uris": {"ios": "https://dc.lft.to/lastmile_qr_scan", "android": "https://dc.lft.to/lastmile_qr_scan"}, "is_reserved": 0, "fusion_lat": 0.0, "lon": -77.02829133333333}, {"lat": 38.921430666666666, "type": "electric_scooter", "is_disabled": 0, "name": "c18bf90f2da0552080f00905f03cc328", "bike_id": "c18bf90f2da0552080f00905f03cc328", "fusion_lon": 0.0, "rental_uris": {"ios": "https://dc.lft.to/lastmile_qr_scan", "android": "https://dc.lft.to/lastmile_qr_scan"}, "is_reserved": 0, "fusion_lat": 0.0, "lon": -77.01221733333334}, {"lat": 38.92099833333333, "type": "electric_scooter", "is_disabled": 0, "name": "1223b2ceddcc6ad9f2d4c09f70255453", "bike_id": "1223b2ceddcc6ad9f2d4c09f70255453", "fusion_lon": 0.0, "rental_uris": {"ios": "https://dc.lft.to/lastmile_qr_scan", "android": "https://dc.lft.to/lastmile_qr_scan"}, "is_reserved": 0, "fusion_lat": 0.0, "lon": -77.0438815}, {"lat": 38.918688833333334, "type": "electric_scooter", "is_disabled": 0, "name": "9c1658d23ed2ecf2de3617276c016113", "bike_id": "9c1658d23ed2ecf2de3617276c016113", "fusion_lon": 0.0, "rental_uris": {"ios": "https://dc.lft.to/lastmile_qr_scan", "android": "https://dc.lft.to/lastmile_qr_scan"}, "is_reserved": 0, "fusion_lat": 0.0, "lon": -77.048375}, {"lat": 38.90356766666667, "type": "electric_scooter", "is_disabled": 0, "name": "ed44ff007269ac548a7a34814e41e5b2", "bike_id": "ed44ff007269ac548a7a34814e41e5b2", "fusion_lon": 0.0, "rental_uris": {"ios": "https://dc.lft.to/lastmile_qr_scan", "android": "https://dc.lft.to/lastmile_qr_scan"}, "is_reserved": 0, "fusion_lat": 0.0, "lon": -77.042004}, {"lat": 38.903884833333336, "type": "electric_scooter", "is_disabled": 0, "name": "2737eea9e91e382342c24206a4400d5b", "bike_id": "2737eea9e91e382342c24206a4400d5b", "fusion_lon": 0.0, "rental_uris": {"ios": "https://dc.lft.to/lastmile_qr_scan", "android": "https://dc.lft.to/lastmile_qr_scan"}, "is_reserved": 0, "fusion_lat": 0.0, "lon": -77.03626233333334}, {"lat": 38.902217666666665, "type": "electric_bike", "is_disabled": 0, "name": "7dce9448761b0eb807e94ee95bac675f", "bike_id": "7dce9448761b0eb807e94ee95bac675f", "fusion_lon": 0.0, "rental_uris": {"ios": "https://dc.lft.to/lastmile_qr_scan", "android": "https://dc.lft.to/lastmile_qr_scan"}, "is_reserved": 0, "fusion_lat": 0.0, "lon": -76.93177033333333}, {"lat": 38.969998333333336, "type": "electric_scooter", "is_disabled": 0, "name": "f02d2dc302e1cb7fc871551b82b41d2c", "bike_id": "f02d2dc302e1cb7fc871551b82b41d2c", "fusion_lon": 0.0, "rental_uris": {"ios": "https://dc.lft.to/lastmile_qr_scan", "android": "https://dc.lft.to/lastmile_qr_scan"}, "is_reserved": 0, "fusion_lat": 0.0, "lon": -77.03109683333334}, {"lat": 38.901664, "type": "electric_scooter", "is_disabled": 0, "name": "40b1c81a2cf3d85da9ed6919e99d7da6", "bike_id": "40b1c81a2cf3d85da9ed6919e99d7da6", "fusion_lon": 0.0, "rental_uris": {"ios": "https://dc.lft.to/lastmile_qr_scan", "android": "https://dc.lft.to/lastmile_qr_scan"}, "is_reserved": 0, "fusion_lat": 0.0, "lon": -77.02203533333333}, {"lat": 38.929191833333334, "type": "electric_scooter", "is_disabled": 0, "name": "48b9cd00dc7b24f5eeef656bab96df30", "bike_id": "48b9cd00dc7b24f5eeef656bab96df30", "fusion_lon": 0.0, "rental_uris": {"ios": "https://dc.lft.to/lastmile_qr_scan", "android": "https://dc.lft.to/lastmile_qr_scan"}, "is_reserved": 0, "fusion_lat": 0.0, "lon": -77.03250133333333}, {"lat": 38.8571175, "type": "electric_scooter", "is_disabled": 0, "name": "cbcf5ff9de04cd7968da9db99f5b8c6a", "bike_id": "cbcf5ff9de04cd7968da9db99f5b8c6a", "fusion_lon": 0.0, "rental_uris": {"ios": "https://dc.lft.to/lastmile_qr_scan", "android": "https://dc.lft.to/lastmile_qr_scan"}, "is_reserved": 0, "fusion_lat": 0.0, "lon": -76.9821555}, {"lat": 38.89739466666666, "type": "electric_scooter", "is_disabled": 0, "name": "d685b12c7a1181bf10c1a43d747460ed", "bike_id": "d685b12c7a1181bf10c1a43d747460ed", "fusion_lon": 0.0, "rental_uris": {"ios": "https://dc.lft.to/lastmile_qr_scan", "android": "https://dc.lft.to/lastmile_qr_scan"}, "is_reserved": 0, "fusion_lat": 0.0, "lon": -77.0250115}, {"lat": 38.901363333333336, "type": "electric_scooter", "is_disabled": 0, "name": "31d89eb87a3342f20f5147d2a04657ad", "bike_id": "31d89eb87a3342f20f5147d2a04657ad", "fusion_lon": 0.0, "rental_uris": {"ios": "https://dc.lft.to/lastmile_qr_scan", "android": "https://dc.lft.to/lastmile_qr_scan"}, "is_reserved": 0, "fusion_lat": 0.0, "lon": -76.9896305}, {"lat": 38.90395216666667, "type": "electric_scooter", "is_disabled": 0, "name": "0cb21b8ece047e97f9fa2494dee3bcbd", "bike_id": "0cb21b8ece047e97f9fa2494dee3bcbd", "fusion_lon": 0.0, "rental_uris": {"ios": "https://dc.lft.to/lastmile_qr_scan", "android": "https://dc.lft.to/lastmile_qr_scan"}, "is_reserved": 0, "fusion_lat": 0.0, "lon": -76.98105133333334}, {"lat": 38.92065916666667, "type": "electric_scooter", "is_disabled": 0, "name": "a6d4909cf101e1fb64ca144c17c910c8", "bike_id": "a6d4909cf101e1fb64ca144c17c910c8", "fusion_lon": 0.0, "rental_uris": {"ios": "https://dc.lft.to/lastmile_qr_scan", "android": "https://dc.lft.to/lastmile_qr_scan"}, "is_reserved": 0, "fusion_lat": 0.0, "lon": -77.03275333333333}, {"lat": 38.89343733333333, "type": "electric_bike", "is_disabled": 0, "name": "b9c1ca638f63f518accc1e6b30069696", "bike_id": "b9c1ca638f63f518accc1e6b30069696", "fusion_lon": 0.0, "rental_uris": {"ios": "https://dc.lft.to/lastmile_qr_scan", "android": "https://dc.lft.to/lastmile_qr_scan"}, "is_reserved": 0, "fusion_lat": 0.0, "lon": -77.0466785}, {"lat": 38.905294, "type": "electric_scooter", "is_disabled": 0, "name": "5b3de00e657c3358fe60e9f822dae4c6", "bike_id": "5b3de00e657c3358fe60e9f822dae4c6", "fusion_lon": 0.0, "rental_uris": {"ios": "https://dc.lft.to/lastmile_qr_scan", "android": "https://dc.lft.to/lastmile_qr_scan"}, "is_reserved": 0, "fusion_lat": 0.0, "lon": -77.06097333333334}, {"lat": 38.93543316666667, "type": "electric_scooter", "is_disabled": 0, "name": "f61a81f5cc9574ccb3fb8ac2907da6b6", "bike_id": "f61a81f5cc9574ccb3fb8ac2907da6b6", "fusion_lon": 0.0, "rental_uris": {"ios": "https://dc.lft.to/lastmile_qr_scan", "android": "https://dc.lft.to/lastmile_qr_scan"}, "is_reserved": 0, "fusion_lat": 0.0, "lon": -77.07301916666667}, {"lat": 38.95542983333333, "type": "electric_bike", "is_disabled": 0, "name": "e6e6f76d7c3c389b26e4ff862be37f66", "bike_id": "e6e6f76d7c3c389b26e4ff862be37f66", "fusion_lon": 0.0, "rental_uris": {"ios": "https://dc.lft.to/lastmile_qr_scan", "android": "https://dc.lft.to/lastmile_qr_scan"}, "is_reserved": 0, "fusion_lat": 0.0, "lon": -76.96849916666666}, {"lat": 38.90019133333333, "type": "electric_scooter", "is_disabled": 0, "name": "01e4fe928d61367d61ab11ba964d4e0c", "bike_id": "01e4fe928d61367d61ab11ba964d4e0c", "fusion_lon": 0.0, "rental_uris": {"ios": "https://dc.lft.to/lastmile_qr_scan", "android": "https://dc.lft.to/lastmile_qr_scan"}, "is_reserved": 0, "fusion_lat": 0.0, "lon": -76.99100583333333}, {"lat": 38.90264283333333, "type": "electric_scooter", "is_disabled": 0, "name": "5e57379cfce4ec1fed7cf4d698cf95a8", "bike_id": "5e57379cfce4ec1fed7cf4d698cf95a8", "fusion_lon": 0.0, "rental_uris": {"ios": "https://dc.lft.to/lastmile_qr_scan", "android": "https://dc.lft.to/lastmile_qr_scan"}, "is_reserved": 0, "fusion_lat": 0.0, "lon": -77.03435933333333}, {"lat": 38.924456, "type": "electric_scooter", "is_disabled": 0, "name": "4e80dd27fe0247c9b4fa112e02481fe4", "bike_id": "4e80dd27fe0247c9b4fa112e02481fe4", "fusion_lon": 0.0, "rental_uris": {"ios": "https://dc.lft.to/lastmile_qr_scan", "android": "https://dc.lft.to/lastmile_qr_scan"}, "is_reserved": 0, "fusion_lat": 0.0, "lon": -77.040324}, {"lat": 38.88790766666666, "type": "electric_scooter", "is_disabled": 0, "name": "fb69b8eef914b3fcf06db7e67bd89acd", "bike_id": "fb69b8eef914b3fcf06db7e67bd89acd", "fusion_lon": 0.0, "rental_uris": {"ios": "https://dc.lft.to/lastmile_qr_scan", "android": "https://dc.lft.to/lastmile_qr_scan"}, "is_reserved": 0, "fusion_lat": 0.0, "lon": -76.95335766666666}, {"lat": 38.9250865, "type": "electric_scooter", "is_disabled": 0, "name": "b3fa1ac6d872611d8c68c497b3576d99", "bike_id": "b3fa1ac6d872611d8c68c497b3576d99", "fusion_lon": 0.0, "rental_uris": {"ios": "https://dc.lft.to/lastmile_qr_scan", "android": "https://dc.lft.to/lastmile_qr_scan"}, "is_reserved": 0, "fusion_lat": 0.0, "lon": -77.02580966666666}, {"lat": 38.88000316666667, "type": "electric_scooter", "is_disabled": 0, "name": "e5bf3d95644d8904801a44ad24ca14e5", "bike_id": "e5bf3d95644d8904801a44ad24ca14e5", "fusion_lon": 0.0, "rental_uris": {"ios": "https://dc.lft.to/lastmile_qr_scan", "android": "https://dc.lft.to/lastmile_qr_scan"}, "is_reserved": 0, "fusion_lat": 0.0, "lon": -76.98541383333334}, {"lat": 38.925108, "type": "electric_scooter", "is_disabled": 0, "name": "448190943fc924bd2e91078f4530a7b5", "bike_id": "448190943fc924bd2e91078f4530a7b5", "fusion_lon": 0.0, "rental_uris": {"ios": "https://dc.lft.to/lastmile_qr_scan", "android": "https://dc.lft.to/lastmile_qr_scan"}, "is_reserved": 0, "fusion_lat": 0.0, "lon": -77.0022495}, {"lat": 38.874853333333334, "type": "electric_bike", "is_disabled": 0, "name": "aa98e7b5a35fc5baea9bc6cb4444c238", "bike_id": "aa98e7b5a35fc5baea9bc6cb4444c238", "fusion_lon": 0.0, "rental_uris": {"ios": "https://dc.lft.to/lastmile_qr_scan", "android": "https://dc.lft.to/lastmile_qr_scan"}, "is_reserved": 0, "fusion_lat": 0.0, "lon": -76.971499}, {"lat": 38.924665833333336, "type": "electric_scooter", "is_disabled": 0, "name": "c2472cec442722c30e30d41fef7bd846", "bike_id": "c2472cec442722c30e30d41fef7bd846", "fusion_lon": 0.0, "rental_uris": {"ios": "https://dc.lft.to/lastmile_qr_scan", "android": "https://dc.lft.to/lastmile_qr_scan"}, "is_reserved": 0, "fusion_lat": 0.0, "lon": -77.0393485}, {"lat": 38.913584666666665, "type": "electric_scooter", "is_disabled": 0, "name": "e17174a0059cb9ccb17decc68c7a41d6", "bike_id": "e17174a0059cb9ccb17decc68c7a41d6", "fusion_lon": 0.0, "rental_uris": {"ios": "https://dc.lft.to/lastmile_qr_scan", "android": "https://dc.lft.to/lastmile_qr_scan"}, "is_reserved": 0, "fusion_lat": 0.0, "lon": -77.0456325}, {"lat": 38.9413945, "type": "electric_scooter", "is_disabled": 0, "name": "88ac3cdcbc11b6bc600fdfc9fd31cb83", "bike_id": "88ac3cdcbc11b6bc600fdfc9fd31cb83", "fusion_lon": 0.0, "rental_uris": {"ios": "https://dc.lft.to/lastmile_qr_scan", "android": "https://dc.lft.to/lastmile_qr_scan"}, "is_reserved": 0, "fusion_lat": 0.0, "lon": -77.02327883333334}, {"lat": 38.923409166666666, "type": "electric_bike", "is_disabled": 0, "name": "165adfbf8dd3c2d451f6af82fb933ebd", "bike_id": "165adfbf8dd3c2d451f6af82fb933ebd", "fusion_lon": 0.0, "rental_uris": {"ios": "https://dc.lft.to/lastmile_qr_scan", "android": "https://dc.lft.to/lastmile_qr_scan"}, "is_reserved": 0, "fusion_lat": 0.0, "lon": -76.97143983333333}, {"lat": 38.90045933333333, "type": "electric_scooter", "is_disabled": 0, "name": "45b4fe13e1fe791b6810f66125346608", "bike_id": "45b4fe13e1fe791b6810f66125346608", "fusion_lon": 0.0, "rental_uris": {"ios": "https://dc.lft.to/lastmile_qr_scan", "android": "https://dc.lft.to/lastmile_qr_scan"}, "is_reserved": 0, "fusion_lat": 0.0, "lon": -76.98557116666667}, {"lat": 38.92478, "type": "electric_scooter", "is_disabled": 0, "name": "54d700097c49e3544b1fde0b9d9fe268", "bike_id": "54d700097c49e3544b1fde0b9d9fe268", "fusion_lon": 0.0, "rental_uris": {"ios": "https://dc.lft.to/lastmile_qr_scan", "android": "https://dc.lft.to/lastmile_qr_scan"}, "is_reserved": 0, "fusion_lat": 0.0, "lon": -77.02248533333334}, {"lat": 38.90375133333333, "type": "electric_scooter", "is_disabled": 0, "name": "b6893be11b536aa5a4b663b79b85425d", "bike_id": "b6893be11b536aa5a4b663b79b85425d", "fusion_lon": 0.0, "rental_uris": {"ios": "https://dc.lft.to/lastmile_qr_scan", "android": "https://dc.lft.to/lastmile_qr_scan"}, "is_reserved": 0, "fusion_lat": 0.0, "lon": -77.04601866666667}, {"lat": 38.93533033333333, "type": "electric_scooter", "is_disabled": 0, "name": "17c9c63229af901b67443ea82021a52b", "bike_id": "17c9c63229af901b67443ea82021a52b", "fusion_lon": 0.0, "rental_uris": {"ios": "https://dc.lft.to/lastmile_qr_scan", "android": "https://dc.lft.to/lastmile_qr_scan"}, "is_reserved": 0, "fusion_lat": 0.0, "lon": -77.0729275}, {"lat": 38.937213, "type": "electric_scooter", "is_disabled": 0, "name": "e41465e769c3d63c500d345a0d4ee795", "bike_id": "e41465e769c3d63c500d345a0d4ee795", "fusion_lon": 0.0, "rental_uris": {"ios": "https://dc.lft.to/lastmile_qr_scan", "android": "https://dc.lft.to/lastmile_qr_scan"}, "is_reserved": 0, "fusion_lat": 0.0, "lon": -77.032932}, {"lat": 38.89974816666667, "type": "electric_scooter", "is_disabled": 0, "name": "a7b06b503bfff1f0b5ac5eacee63350f", "bike_id": "a7b06b503bfff1f0b5ac5eacee63350f", "fusion_lon": 0.0, "rental_uris": {"ios": "https://dc.lft.to/lastmile_qr_scan", "android": "https://dc.lft.to/lastmile_qr_scan"}, "is_reserved": 0, "fusion_lat": 0.0, "lon": -77.00936733333333}, {"lat": 38.9090985, "type": "electric_scooter", "is_disabled": 0, "name": "03bbc13c131b132109a86c1b4915e0b6", "bike_id": "03bbc13c131b132109a86c1b4915e0b6", "fusion_lon": 0.0, "rental_uris": {"ios": "https://dc.lft.to/lastmile_qr_scan", "android": "https://dc.lft.to/lastmile_qr_scan"}, "is_reserved": 0, "fusion_lat": 0.0, "lon": -77.0727905}, {"lat": 38.89978833333333, "type": "electric_scooter", "is_disabled": 0, "name": "09264f1fa029b6623db1eea441507dc4", "bike_id": "09264f1fa029b6623db1eea441507dc4", "fusion_lon": 0.0, "rental_uris": {"ios": "https://dc.lft.to/lastmile_qr_scan", "android": "https://dc.lft.to/lastmile_qr_scan"}, "is_reserved": 0, "fusion_lat": 0.0, "lon": -77.04194983333333}, {"lat": 38.90516133333333, "type": "electric_scooter", "is_disabled": 0, "name": "3bd7ae8ac24ecfdff4715ba97bd941fa", "bike_id": "3bd7ae8ac24ecfdff4715ba97bd941fa", "fusion_lon": 0.0, "rental_uris": {"ios": "https://dc.lft.to/lastmile_qr_scan", "android": "https://dc.lft.to/lastmile_qr_scan"}, "is_reserved": 0, "fusion_lat": 0.0, "lon": -77.04041316666667}, {"lat": 38.8038425, "type": "electric_bike", "is_disabled": 0, "name": "693e41ed1ee26231294cd3d7dfe25527", "bike_id": "693e41ed1ee26231294cd3d7dfe25527", "fusion_lon": 0.0, "rental_uris": {"ios": "https://dc.lft.to/lastmile_qr_scan", "android": "https://dc.lft.to/lastmile_qr_scan"}, "is_reserved": 0, "fusion_lat": 0.0, "lon": -76.98816316666667}, {"lat": 38.8871195, "type": "electric_scooter", "is_disabled": 0, "name": "3867617d5c505472788f8e639aa5a5e5", "bike_id": "3867617d5c505472788f8e639aa5a5e5", "fusion_lon": 0.0, "rental_uris": {"ios": "https://dc.lft.to/lastmile_qr_scan", "android": "https://dc.lft.to/lastmile_qr_scan"}, "is_reserved": 0, "fusion_lat": 0.0, "lon": -76.9834315}, {"lat": 38.89607133333333, "type": "electric_scooter", "is_disabled": 0, "name": "0d22f9ae7a770c1cec064a61713d5205", "bike_id": "0d22f9ae7a770c1cec064a61713d5205", "fusion_lon": 0.0, "rental_uris": {"ios": "https://dc.lft.to/lastmile_qr_scan", "android": "https://dc.lft.to/lastmile_qr_scan"}, "is_reserved": 0, "fusion_lat": 0.0, "lon": -77.04650633333334}, {"lat": 38.90555366666667, "type": "electric_scooter", "is_disabled": 0, "name": "cd1de9b4fcd1f943f9dac8623a1eea8f", "bike_id": "cd1de9b4fcd1f943f9dac8623a1eea8f", "fusion_lon": 0.0, "rental_uris": {"ios": "https://dc.lft.to/lastmile_qr_scan", "android": "https://dc.lft.to/lastmile_qr_scan"}, "is_reserved": 0, "fusion_lat": 0.0, "lon": -76.983745}, {"lat": 38.94183966666667, "type": "electric_scooter", "is_disabled": 0, "name": "a7f11be4c2b9fce574c9cd09da6d7c65", "bike_id": "a7f11be4c2b9fce574c9cd09da6d7c65", "fusion_lon": 0.0, "rental_uris": {"ios": "https://dc.lft.to/lastmile_qr_scan", "android": "https://dc.lft.to/lastmile_qr_scan"}, "is_reserved": 0, "fusion_lat": 0.0, "lon": -77.03094383333334}, {"lat": 38.88025183333333, "type": "electric_scooter", "is_disabled": 0, "name": "04cca7b34b0deeb58f4d5b16c900fa59", "bike_id": "04cca7b34b0deeb58f4d5b16c900fa59", "fusion_lon": 0.0, "rental_uris": {"ios": "https://dc.lft.to/lastmile_qr_scan", "android": "https://dc.lft.to/lastmile_qr_scan"}, "is_reserved": 0, "fusion_lat": 0.0, "lon": -76.94328683333333}, {"lat": 38.91272766666667, "type": "electric_scooter", "is_disabled": 0, "name": "e1149fec8dc032a1c7947b70be5e08d2", "bike_id": "e1149fec8dc032a1c7947b70be5e08d2", "fusion_lon": 0.0, "rental_uris": {"ios": "https://dc.lft.to/lastmile_qr_scan", "android": "https://dc.lft.to/lastmile_qr_scan"}, "is_reserved": 0, "fusion_lat": 0.0, "lon": -77.02214083333334}, {"lat": 38.903780833333336, "type": "electric_scooter", "is_disabled": 0, "name": "0ef6f9e7b9ad122957122c2b8b79ecbd", "bike_id": "0ef6f9e7b9ad122957122c2b8b79ecbd", "fusion_lon": 0.0, "rental_uris": {"ios": "https://dc.lft.to/lastmile_qr_scan", "android": "https://dc.lft.to/lastmile_qr_scan"}, "is_reserved": 0, "fusion_lat": 0.0, "lon": -77.03657016666666}, {"lat": 38.865644, "type": "electric_scooter", "is_disabled": 0, "name": "3b40a7927bacc00dfd31f3188d3f72d9", "bike_id": "3b40a7927bacc00dfd31f3188d3f72d9", "fusion_lon": 0.0, "rental_uris": {"ios": "https://dc.lft.to/lastmile_qr_scan", "android": "https://dc.lft.to/lastmile_qr_scan"}, "is_reserved": 0, "fusion_lat": 0.0, "lon": -76.97842566666667}, {"lat": 38.921565666666666, "type": "electric_scooter", "is_disabled": 0, "name": "46004681ffd8a97cd025424470347cab", "bike_id": "46004681ffd8a97cd025424470347cab", "fusion_lon": 0.0, "rental_uris": {"ios": "https://dc.lft.to/lastmile_qr_scan", "android": "https://dc.lft.to/lastmile_qr_scan"}, "is_reserved": 0, "fusion_lat": 0.0, "lon": -77.04027216666667}, {"lat": 38.923965333333335, "type": "electric_scooter", "is_disabled": 0, "name": "9d6a865455e76581134ebcb2619e4d05", "bike_id": "9d6a865455e76581134ebcb2619e4d05", "fusion_lon": 0.0, "rental_uris": {"ios": "https://dc.lft.to/lastmile_qr_scan", "android": "https://dc.lft.to/lastmile_qr_scan"}, "is_reserved": 0, "fusion_lat": 0.0, "lon": -76.99593483333334}, {"lat": 38.898354833333336, "type": "electric_scooter", "is_disabled": 0, "name": "432d9544eceba07311425c964373a510", "bike_id": "432d9544eceba07311425c964373a510", "fusion_lon": 0.0, "rental_uris": {"ios": "https://dc.lft.to/lastmile_qr_scan", "android": "https://dc.lft.to/lastmile_qr_scan"}, "is_reserved": 0, "fusion_lat": 0.0, "lon": -76.946415}, {"lat": 38.911252833333336, "type": "electric_scooter", "is_disabled": 0, "name": "7fd1044ae303d27a46643cd6fc25c6f7", "bike_id": "7fd1044ae303d27a46643cd6fc25c6f7", "fusion_lon": 0.0, "rental_uris": {"ios": "https://dc.lft.to/lastmile_qr_scan", "android": "https://dc.lft.to/lastmile_qr_scan"}, "is_reserved": 0, "fusion_lat": 0.0, "lon": -77.04434133333334}, {"lat": 38.915617, "type": "electric_scooter", "is_disabled": 0, "name": "ea7175ce9051ca3c9d70b38552ef03b1", "bike_id": "ea7175ce9051ca3c9d70b38552ef03b1", "fusion_lon": 0.0, "rental_uris": {"ios": "https://dc.lft.to/lastmile_qr_scan", "android": "https://dc.lft.to/lastmile_qr_scan"}, "is_reserved": 0, "fusion_lat": 0.0, "lon": -77.00720816666667}, {"lat": 38.90033733333333, "type": "electric_scooter", "is_disabled": 0, "name": "b41283805f541e2c31cab71bf0048d78", "bike_id": "b41283805f541e2c31cab71bf0048d78", "fusion_lon": 0.0, "rental_uris": {"ios": "https://dc.lft.to/lastmile_qr_scan", "android": "https://dc.lft.to/lastmile_qr_scan"}, "is_reserved": 0, "fusion_lat": 0.0, "lon": -76.98755716666666}, {"lat": 38.9223635, "type": "electric_scooter", "is_disabled": 0, "name": "8fcccdad13345fa8d65821f99073774b", "bike_id": "8fcccdad13345fa8d65821f99073774b", "fusion_lon": 0.0, "rental_uris": {"ios": "https://dc.lft.to/lastmile_qr_scan", "android": "https://dc.lft.to/lastmile_qr_scan"}, "is_reserved": 0, "fusion_lat": 0.0, "lon": -77.02152483333333}, {"lat": 38.90032133333333, "type": "electric_scooter", "is_disabled": 0, "name": "b696f69a94f4ba26ddfdc490da62d68b", "bike_id": "b696f69a94f4ba26ddfdc490da62d68b", "fusion_lon": 0.0, "rental_uris": {"ios": "https://dc.lft.to/lastmile_qr_scan", "android": "https://dc.lft.to/lastmile_qr_scan"}, "is_reserved": 0, "fusion_lat": 0.0, "lon": -76.98756416666667}, {"lat": 38.953128666666665, "type": "electric_bike", "is_disabled": 0, "name": "deb42c18f0ed8652f762213077368d59", "bike_id": "deb42c18f0ed8652f762213077368d59", "fusion_lon": 0.0, "rental_uris": {"ios": "https://dc.lft.to/lastmile_qr_scan", "android": "https://dc.lft.to/lastmile_qr_scan"}, "is_reserved": 0, "fusion_lat": 0.0, "lon": -76.98180483333333}, {"lat": 38.90175, "type": "electric_scooter", "is_disabled": 0, "name": "046defa09499f1ea0ed3d0f75b96bc08", "bike_id": "046defa09499f1ea0ed3d0f75b96bc08", "fusion_lon": 0.0, "rental_uris": {"ios": "https://dc.lft.to/lastmile_qr_scan", "android": "https://dc.lft.to/lastmile_qr_scan"}, "is_reserved": 0, "fusion_lat": 0.0, "lon": -77.02215633333333}, {"lat": 38.86949283333333, "type": "electric_bike", "is_disabled": 0, "name": "35fe6b8a7bc0069bee0e43b7d3d0decf", "bike_id": "35fe6b8a7bc0069bee0e43b7d3d0decf", "fusion_lon": 0.0, "rental_uris": {"ios": "https://dc.lft.to/lastmile_qr_scan", "android": "https://dc.lft.to/lastmile_qr_scan"}, "is_reserved": 0, "fusion_lat": 0.0, "lon": -77.13308033333334}, {"lat": 38.908742, "type": "electric_scooter", "is_disabled": 0, "name": "cee4045e540cf5cb41f2f172e3015de2", "bike_id": "cee4045e540cf5cb41f2f172e3015de2", "fusion_lon": 0.0, "rental_uris": {"ios": "https://dc.lft.to/lastmile_qr_scan", "android": "https://dc.lft.to/lastmile_qr_scan"}, "is_reserved": 0, "fusion_lat": 0.0, "lon": -77.02601083333333}, {"lat": 38.922346833333336, "type": "electric_scooter", "is_disabled": 0, "name": "01e7fd7bde3d6b8bf6d6728b7319de44", "bike_id": "01e7fd7bde3d6b8bf6d6728b7319de44", "fusion_lon": 0.0, "rental_uris": {"ios": "https://dc.lft.to/lastmile_qr_scan", "android": "https://dc.lft.to/lastmile_qr_scan"}, "is_reserved": 0, "fusion_lat": 0.0, "lon": -77.02120566666666}, {"lat": 38.92297583333333, "type": "electric_scooter", "is_disabled": 0, "name": "f806b781fd1cf7ab5881a4988054014e", "bike_id": "f806b781fd1cf7ab5881a4988054014e", "fusion_lon": 0.0, "rental_uris": {"ios": "https://dc.lft.to/lastmile_qr_scan", "android": "https://dc.lft.to/lastmile_qr_scan"}, "is_reserved": 0, "fusion_lat": 0.0, "lon": -77.01954166666667}, {"lat": 38.927182333333334, "type": "electric_scooter", "is_disabled": 0, "name": "a9ee9cbbb7f3ac07425591f3dac27ae1", "bike_id": "a9ee9cbbb7f3ac07425591f3dac27ae1", "fusion_lon": 0.0, "rental_uris": {"ios": "https://dc.lft.to/lastmile_qr_scan", "android": "https://dc.lft.to/lastmile_qr_scan"}, "is_reserved": 0, "fusion_lat": 0.0, "lon": -77.02093866666667}, {"lat": 38.908423666666664, "type": "electric_scooter", "is_disabled": 0, "name": "52516b1d56bebbe4c9a789fcc5e666a4", "bike_id": "52516b1d56bebbe4c9a789fcc5e666a4", "fusion_lon": 0.0, "rental_uris": {"ios": "https://dc.lft.to/lastmile_qr_scan", "android": "https://dc.lft.to/lastmile_qr_scan"}, "is_reserved": 0, "fusion_lat": 0.0, "lon": -77.04942333333334}, {"lat": 38.9189985, "type": "electric_scooter", "is_disabled": 0, "name": "7da9dc7b2f508b61042bee39c3c97816", "bike_id": "7da9dc7b2f508b61042bee39c3c97816", "fusion_lon": 0.0, "rental_uris": {"ios": "https://dc.lft.to/lastmile_qr_scan", "android": "https://dc.lft.to/lastmile_qr_scan"}, "is_reserved": 0, "fusion_lat": 0.0, "lon": -77.04173183333333}, {"lat": 38.896067, "type": "electric_scooter", "is_disabled": 0, "name": "b9ee3149d1d766949a172c6eb8ec3ab8", "bike_id": "b9ee3149d1d766949a172c6eb8ec3ab8", "fusion_lon": 0.0, "rental_uris": {"ios": "https://dc.lft.to/lastmile_qr_scan", "android": "https://dc.lft.to/lastmile_qr_scan"}, "is_reserved": 0, "fusion_lat": 0.0, "lon": -77.04516883333334}, {"lat": 38.906588166666666, "type": "electric_scooter", "is_disabled": 0, "name": "15f2951f40dd7c5d7e05e3f49110401b", "bike_id": "15f2951f40dd7c5d7e05e3f49110401b", "fusion_lon": 0.0, "rental_uris": {"ios": "https://dc.lft.to/lastmile_qr_scan", "android": "https://dc.lft.to/lastmile_qr_scan"}, "is_reserved": 0, "fusion_lat": 0.0, "lon": -77.03817733333334}, {"lat": 38.874816, "type": "electric_bike", "is_disabled": 0, "name": "303c6aa0a10906897280eb565f66024e", "bike_id": "303c6aa0a10906897280eb565f66024e", "fusion_lon": 0.0, "rental_uris": {"ios": "https://dc.lft.to/lastmile_qr_scan", "android": "https://dc.lft.to/lastmile_qr_scan"}, "is_reserved": 0, "fusion_lat": 0.0, "lon": -76.9653235}, {"lat": 38.90112333333333, "type": "electric_scooter", "is_disabled": 0, "name": "6968c27b9ef5e7f8e91bbf052003a816", "bike_id": "6968c27b9ef5e7f8e91bbf052003a816", "fusion_lon": 0.0, "rental_uris": {"ios": "https://dc.lft.to/lastmile_qr_scan", "android": "https://dc.lft.to/lastmile_qr_scan"}, "is_reserved": 0, "fusion_lat": 0.0, "lon": -77.048793}, {"lat": 38.89638983333333, "type": "electric_scooter", "is_disabled": 0, "name": "06d623ac5007c0ad8b07c07bfd26d7ea", "bike_id": "06d623ac5007c0ad8b07c07bfd26d7ea", "fusion_lon": 0.0, "rental_uris": {"ios": "https://dc.lft.to/lastmile_qr_scan", "android": "https://dc.lft.to/lastmile_qr_scan"}, "is_reserved": 0, "fusion_lat": 0.0, "lon": -77.02731733333333}, {"lat": 38.8993255, "type": "electric_scooter", "is_disabled": 0, "name": "a60b4a3310cd16f54952c7b28dc63105", "bike_id": "a60b4a3310cd16f54952c7b28dc63105", "fusion_lon": 0.0, "rental_uris": {"ios": "https://dc.lft.to/lastmile_qr_scan", "android": "https://dc.lft.to/lastmile_qr_scan"}, "is_reserved": 0, "fusion_lat": 0.0, "lon": -77.02829383333334}, {"lat": 38.89554566666666, "type": "electric_scooter", "is_disabled": 0, "name": "ffd81c19d20074e2f08f35a7c41b7150", "bike_id": "ffd81c19d20074e2f08f35a7c41b7150", "fusion_lon": 0.0, "rental_uris": {"ios": "https://dc.lft.to/lastmile_qr_scan", "android": "https://dc.lft.to/lastmile_qr_scan"}, "is_reserved": 0, "fusion_lat": 0.0, "lon": -76.94896516666667}, {"lat": 38.876852, "type": "electric_scooter", "is_disabled": 0, "name": "096d327bd582daf58bd7f70f38c2b218", "bike_id": "096d327bd582daf58bd7f70f38c2b218", "fusion_lon": 0.0, "rental_uris": {"ios": "https://dc.lft.to/lastmile_qr_scan", "android": "https://dc.lft.to/lastmile_qr_scan"}, "is_reserved": 0, "fusion_lat": 0.0, "lon": -77.000774}, {"lat": 38.88489116666667, "type": "electric_scooter", "is_disabled": 0, "name": "c203db6acf2850236577328cbc274e49", "bike_id": "c203db6acf2850236577328cbc274e49", "fusion_lon": 0.0, "rental_uris": {"ios": "https://dc.lft.to/lastmile_qr_scan", "android": "https://dc.lft.to/lastmile_qr_scan"}, "is_reserved": 0, "fusion_lat": 0.0, "lon": -77.02026033333334}, {"lat": 38.8948335, "type": "electric_scooter", "is_disabled": 0, "name": "4667a8a80edcf754d064406932e901d3", "bike_id": "4667a8a80edcf754d064406932e901d3", "fusion_lon": 0.0, "rental_uris": {"ios": "https://dc.lft.to/lastmile_qr_scan", "android": "https://dc.lft.to/lastmile_qr_scan"}, "is_reserved": 0, "fusion_lat": 0.0, "lon": -76.99524133333334}, {"lat": 38.88440683333334, "type": "electric_scooter", "is_disabled": 0, "name": "50cbf4be419b6bb0bbe2127051709b3b", "bike_id": "50cbf4be419b6bb0bbe2127051709b3b", "fusion_lon": 0.0, "rental_uris": {"ios": "https://dc.lft.to/lastmile_qr_scan", "android": "https://dc.lft.to/lastmile_qr_scan"}, "is_reserved": 0, "fusion_lat": 0.0, "lon": -76.95764416666667}, {"lat": 38.83298766666667, "type": "electric_bike", "is_disabled": 0, "name": "12faff2433d0a391715e8d856e86c09f", "bike_id": "12faff2433d0a391715e8d856e86c09f", "fusion_lon": 0.0, "rental_uris": {"ios": "https://dc.lft.to/lastmile_qr_scan", "android": "https://dc.lft.to/lastmile_qr_scan"}, "is_reserved": 0, "fusion_lat": 0.0, "lon": -77.08409483333334}, {"lat": 38.89713366666667, "type": "electric_scooter", "is_disabled": 0, "name": "21827938cd10d2df02815619c4c851bc", "bike_id": "21827938cd10d2df02815619c4c851bc", "fusion_lon": 0.0, "rental_uris": {"ios": "https://dc.lft.to/lastmile_qr_scan", "android": "https://dc.lft.to/lastmile_qr_scan"}, "is_reserved": 0, "fusion_lat": 0.0, "lon": -77.013233}, {"lat": 38.90120366666667, "type": "electric_scooter", "is_disabled": 0, "name": "33589d2daf81c5a522c30f94104bc988", "bike_id": "33589d2daf81c5a522c30f94104bc988", "fusion_lon": 0.0, "rental_uris": {"ios": "https://dc.lft.to/lastmile_qr_scan", "android": "https://dc.lft.to/lastmile_qr_scan"}, "is_reserved": 0, "fusion_lat": 0.0, "lon": -77.03182}, {"lat": 38.91556333333333, "type": "electric_scooter", "is_disabled": 0, "name": "47d5dcffe91829e96b6656eda7a8e592", "bike_id": "47d5dcffe91829e96b6656eda7a8e592", "fusion_lon": 0.0, "rental_uris": {"ios": "https://dc.lft.to/lastmile_qr_scan", "android": "https://dc.lft.to/lastmile_qr_scan"}, "is_reserved": 0, "fusion_lat": 0.0, "lon": -77.020491}, {"lat": 38.912189, "type": "electric_scooter", "is_disabled": 0, "name": "312f3bc45843126bcbb346811f93485c", "bike_id": "312f3bc45843126bcbb346811f93485c", "fusion_lon": 0.0, "rental_uris": {"ios": "https://dc.lft.to/lastmile_qr_scan", "android": "https://dc.lft.to/lastmile_qr_scan"}, "is_reserved": 0, "fusion_lat": 0.0, "lon": -77.075982}, {"lat": 38.859368333333336, "type": "electric_scooter", "is_disabled": 0, "name": "ad18238be33fc0904ade3746d754eff0", "bike_id": "ad18238be33fc0904ade3746d754eff0", "fusion_lon": 0.0, "rental_uris": {"ios": "https://dc.lft.to/lastmile_qr_scan", "android": "https://dc.lft.to/lastmile_qr_scan"}, "is_reserved": 0, "fusion_lat": 0.0, "lon": -76.984491}, {"lat": 38.875754, "type": "electric_scooter", "is_disabled": 0, "name": "2bdc368cdd8e7c2a269033aad7a719ef", "bike_id": "2bdc368cdd8e7c2a269033aad7a719ef", "fusion_lon": 0.0, "rental_uris": {"ios": "https://dc.lft.to/lastmile_qr_scan", "android": "https://dc.lft.to/lastmile_qr_scan"}, "is_reserved": 0, "fusion_lat": 0.0, "lon": -77.00584383333333}, {"lat": 38.8990345, "type": "electric_scooter", "is_disabled": 0, "name": "8e9893f433b4a8ba34241ea6cd18312a", "bike_id": "8e9893f433b4a8ba34241ea6cd18312a", "fusion_lon": 0.0, "rental_uris": {"ios": "https://dc.lft.to/lastmile_qr_scan", "android": "https://dc.lft.to/lastmile_qr_scan"}, "is_reserved": 0, "fusion_lat": 0.0, "lon": -77.02449783333333}, {"lat": 38.94845333333333, "type": "electric_scooter", "is_disabled": 0, "name": "2cee07fef0b4a371814ef5857e605092", "bike_id": "2cee07fef0b4a371814ef5857e605092", "fusion_lon": 0.0, "rental_uris": {"ios": "https://dc.lft.to/lastmile_qr_scan", "android": "https://dc.lft.to/lastmile_qr_scan"}, "is_reserved": 0, "fusion_lat": 0.0, "lon": -77.065498}, {"lat": 38.88661483333333, "type": "electric_scooter", "is_disabled": 0, "name": "a9aae9a9db82cf21885799bf6217f243", "bike_id": "a9aae9a9db82cf21885799bf6217f243", "fusion_lon": 0.0, "rental_uris": {"ios": "https://dc.lft.to/lastmile_qr_scan", "android": "https://dc.lft.to/lastmile_qr_scan"}, "is_reserved": 0, "fusion_lat": 0.0, "lon": -76.93675733333333}, {"lat": 38.9215825, "type": "electric_scooter", "is_disabled": 0, "name": "3d1e2115c02158c4e09a259ce8b6827f", "bike_id": "3d1e2115c02158c4e09a259ce8b6827f", "fusion_lon": 0.0, "rental_uris": {"ios": "https://dc.lft.to/lastmile_qr_scan", "android": "https://dc.lft.to/lastmile_qr_scan"}, "is_reserved": 0, "fusion_lat": 0.0, "lon": -77.02085216666667}, {"lat": 38.92472733333334, "type": "electric_scooter", "is_disabled": 0, "name": "e2a7b95cb9797c414eae86f32bbbaf03", "bike_id": "e2a7b95cb9797c414eae86f32bbbaf03", "fusion_lon": 0.0, "rental_uris": {"ios": "https://dc.lft.to/lastmile_qr_scan", "android": "https://dc.lft.to/lastmile_qr_scan"}, "is_reserved": 0, "fusion_lat": 0.0, "lon": -77.02214283333333}, {"lat": 38.898542, "type": "electric_scooter", "is_disabled": 0, "name": "dd9ba865025963d1a46b17c170e9389d", "bike_id": "dd9ba865025963d1a46b17c170e9389d", "fusion_lon": 0.0, "rental_uris": {"ios": "https://dc.lft.to/lastmile_qr_scan", "android": "https://dc.lft.to/lastmile_qr_scan"}, "is_reserved": 0, "fusion_lat": 0.0, "lon": -77.04352933333334},