{"data": {"bikes": [{"is_reserved": 0, "fusion_lon": 0.0, "fusion_lat": 0.0, "name": "632ad1126a51cf486db5ddaef8f538b9", "type": "electric_scooter", "is_disabled": 0, "lat": 38.93997066666667, "rental_uris": {"android": "https://dc.lft.to/lastmile_qr_scan", "ios": "https://dc.lft.to/lastmile_qr_scan"}, "bike_id": "632ad1126a51cf486db5ddaef8f538b9", "lon": -77.01744033333334}, {"is_reserved": 0, "fusion_lon": 0.0, "fusion_lat": 0.0, "name": "3e7d7dc4c9fb6344ffdf2427504481c0", "type": "electric_bike", "is_disabled": 0, "lat": 38.874113333333334, "rental_uris": {"android": "https://dc.lft.to/lastmile_qr_scan", "ios": "https://dc.lft.to/lastmile_qr_scan"}, "bike_id": "3e7d7dc4c9fb6344ffdf2427504481c0", "lon": -76.971736}, {"is_reserved": 0, "fusion_lon": 0.0, "fusion_lat": 0.0, "name": "da0bc8ddd2f53df510166c51fa76fa17", "type": "electric_scooter", "is_disabled": 0, "lat": 38.908327, "rental_uris": {"android": "https://dc.lft.to/lastmile_qr_scan", "ios": "https://dc.lft.to/lastmile_qr_scan"}, "bike_id": "da0bc8ddd2f53df510166c51fa76fa17", "lon": -77.03857933333333}, {"is_reserved": 0, "fusion_lon": 0.0, "fusion_lat": 0.0, "name": "fea7aeb253af7b69eef660ab1010435e", "type": "electric_bike", "is_disabled": 0, "lat": 38.8237035, "rental_uris": {"android": "https://dc.lft.to/lastmile_qr_scan", "ios": "https://dc.lft.to/lastmile_qr_scan"}, "bike_id": "fea7aeb253af7b69eef660ab1010435e", "lon": -77.00218833333334}, {"is_reserved": 0, "fusion_lon": 0.0, "fusion_lat": 0.0, "name": "8e5cdcf69080267623ba471f4a94a3be", "type": "electric_scooter", "is_disabled": 0, "lat": 38.913672, "rental_uris": {"android": "https://dc.lft.to/lastmile_qr_scan", "ios": "https://dc.lft.to/lastmile_qr_scan"}, "bike_id": "8e5cdcf69080267623ba471f4a94a3be", "lon": -77.04554816666666}, {"is_reserved": 0, "fusion_lon": 0.0, "fusion_lat": 0.0, "name": "b1153e72dab82f630b244908cc30a0c0", "type": "electric_scooter", "is_disabled": 0, "lat": 38.956270333333336, "rental_uris": {"android": "https://dc.lft.to/lastmile_qr_scan", "ios": "https://dc.lft.to/lastmile_qr_scan"}, "bike_id": "b1153e72dab82f630b244908cc30a0c0", "lon": -77.02780116666666}, {"is_reserved": 0, "fusion_lon": 0.0, "fusion_lat": 0.0, "name": "9aae2472a98bf3fceaabe00cfbb5608e", "type": "electric_bike", "is_disabled": 0, "lat": 38.95735766666667, "rental_uris": {"android": "https://dc.lft.to/lastmile_qr_scan", "ios": "https://dc.lft.to/lastmile_qr_scan"}, "bike_id": "9aae2472a98bf3fceaabe00cfbb5608e", "lon": -77.02416933333333}, {"is_reserved": 0, "fusion_lon": 0.0, "fusion_lat": 0.0, "name": "3a0d6e32c371f55fc0c67b29627a8951", "type": "electric_scooter", "is_disabled": 0, "lat": 38.88609816666666, "rental_uris": {"android": "https://dc.lft.to/lastmile_qr_scan", "ios": "https://dc.lft.to/lastmile_qr_scan"}, "bike_id": "3a0d6e32c371f55fc0c67b29627a8951", "lon": -77.00138433333333}, {"is_reserved": 0, "fusion_lon": 0.0, "fusion_lat": 0.0, "name": "15f41c3c6d0067f12bf67d0dcf22ca4a", "type": "electric_bike", "is_disabled": 0, "lat": 38.85938766666666, "rental_uris": {"android": "https://dc.lft.to/lastmile_qr_scan", "ios": "https://dc.lft.to/lastmile_qr_scan"}, "bike_id": "15f41c3c6d0067f12bf67d0dcf22ca4a", "lon": -77.11826916666666}, {"is_reserved": 0, "fusion_lon": 0.0, "fusion_lat": 0.0, "name": "1a63f286a7c33ae7ef45c53302037092", "type": "electric_scooter", "is_disabled": 0, "lat": 38.86467183333333, "rental_uris": {"android": "https://dc.lft.to/lastmile_qr_scan", "ios": "https://dc.lft.to/lastmile_qr_scan"}, "bike_id": "1a63f286a7c33ae7ef45c53302037092", "lon": -76.982233}, {"is_reserved": 0, "fusion_lon": 0.0, "fusion_lat": 0.0, "name": "98446b2a97cdb728fd6cda0f4151cd05", "type": "electric_scooter", "is_disabled": 0, "lat": 38.916400333333335, "rental_uris": {"android": "https://dc.lft.to/lastmile_qr_scan", "ios": "https://dc.lft.to/lastmile_qr_scan"}, "bike_id": "98446b2a97cdb728fd6cda0f4151cd05", "lon": -77.048063}, {"is_reserved": 0, "fusion_lon": 0.0, "fusion_lat": 0.0, "name": "a9b947c22158cea19d12a8f7cfbd06ca", "type": "electric_bike", "is_disabled": 0, "lat": 38.93228916666666, "rental_uris": {"android": "https://dc.lft.to/lastmile_qr_scan", "ios": "https://dc.lft.to/lastmile_qr_scan"}, "bike_id": "a9b947c22158cea19d12a8f7cfbd06ca", "lon": -77.18119666666666}, {"is_reserved": 0, "fusion_lon": 0.0, "fusion_lat": 0.0, "name": "8ea0791f6dbc8d7851290c1101f4c0cb", "type": "electric_scooter", "is_disabled": 0, "lat": 38.926207833333336, "rental_uris": {"android": "https://dc.lft.to/lastmile_qr_scan", "ios": "https://dc.lft.to/lastmile_qr_scan"}, "bike_id": "8ea0791f6dbc8d7851290c1101f4c0cb", "lon": -77.04330166666666}, {"is_reserved": 0, "fusion_lon": 0.0, "fusion_lat": 0.0, "name": "7dd77c1363b64710a924004412a24563", "type": "electric_scooter", "is_disabled": 0, "lat": 38.951879166666664, "rental_uris": {"android": "https://dc.lft.to/lastmile_qr_scan", "ios": "https://dc.lft.to/lastmile_qr_scan"}, "bike_id": "7dd77c1363b64710a924004412a24563", "lon": -77.0261215}, {"is_reserved": 0, "fusion_lon": 0.0, "fusion_lat": 0.0, "name": "75dc79387186a14606401d049c03ac24", "type": "electric_scooter", "is_disabled": 0, "lat": 38.912669666666666, "rental_uris": {"android": "https://dc.lft.to/lastmile_qr_scan", "ios": "https://dc.lft.to/lastmile_qr_scan"}, "bike_id": "75dc79387186a14606401d049c03ac24", "lon": -77.0409945}, {"is_reserved": 0, "fusion_lon": 0.0, "fusion_lat": 0.0, "name": "3bddfbd356a9f4b4617956cb530b6fc3", "type": "electric_bike", "is_disabled": 0, "lat": 38.95325883333334, "rental_uris": {"android": "https://dc.lft.to/lastmile_qr_scan", "ios": "https://dc.lft.to/lastmile_qr_scan"}, "bike_id": "3bddfbd356a9f4b4617956cb530b6fc3", "lon": -76.95434316666666}, {"is_reserved": 0, "fusion_lon": 0.0, "fusion_lat": 0.0, "name": "ba1b7176ff9a682892f84eaf3f033658", "type": "electric_scooter", "is_disabled": 0, "lat": 38.91255483333333, "rental_uris": {"android": "https://dc.lft.to/lastmile_qr_scan", "ios": "https://dc.lft.to/lastmile_qr_scan"}, "bike_id": "ba1b7176ff9a682892f84eaf3f033658", "lon": -77.0731695}, {"is_reserved": 0, "fusion_lon": 0.0, "fusion_lat": 0.0, "name": "12397545f673b9b252e1040489a41729", "type": "electric_scooter", "is_disabled": 0, "lat": 38.900724, "rental_uris": {"android": "https://dc.lft.to/lastmile_qr_scan", "ios": "https://dc.lft.to/lastmile_qr_scan"}, "bike_id": "12397545f673b9b252e1040489a41729", "lon": -77.00210133333333}, {"is_reserved": 0, "fusion_lon": 0.0, "fusion_lat": 0.0, "name": "7a78a9a80f8c00be7abd3d249603df31", "type": "electric_scooter", "is_disabled": 0, "lat": 38.894271, "rental_uris": {"android": "https://dc.lft.to/lastmile_qr_scan", "ios": "https://dc.lft.to/lastmile_qr_scan"}, "bike_id": "7a78a9a80f8c00be7abd3d249603df31", "lon": -77.04002266666667}, {"is_reserved": 0, "fusion_lon": 0.0, "fusion_lat": 0.0, "name": "601d47243de437ca742a5d5580254e3c", "type": "electric_scooter", "is_disabled": 0, "lat": 38.921587, "rental_uris": {"android": "https://dc.lft.to/lastmile_qr_scan", "ios": "https://dc.lft.to/lastmile_qr_scan"}, "bike_id": "601d47243de437ca742a5d5580254e3c", "lon": -77.0338015}, {"is_reserved": 0, "fusion_lon": 0.0, "fusion_lat": 0.0, "name": "0dd764331aaaa895f639fd80dce5da36", "type": "electric_scooter", "is_disabled": 0, "lat": 38.9049555, "rental_uris": {"android": "https://dc.lft.to/lastmile_qr_scan", "ios": "https://dc.lft.to/lastmile_qr_scan"}, "bike_id": "0dd764331aaaa895f639fd80dce5da36", "lon": -76.98709666666667}, {"is_reserved": 0, "fusion_lon": 0.0, "fusion_lat": 0.0, "name": "41b8a6e153be6b4679be35f372fb72c2", "type": "electric_scooter", "is_disabled": 0, "lat": 38.916891166666666, "rental_uris": {"android": "https://dc.lft.to/lastmile_qr_scan", "ios": "https://dc.lft.to/lastmile_qr_scan"}, "bike_id": "41b8a6e153be6b4679be35f372fb72c2", "lon": -77.03207}, {"is_reserved": 0, "fusion_lon": 0.0, "fusion_lat": 0.0, "name": "6d64d73c77e1115de172ef0bbeff675e", "type": "electric_bike", "is_disabled": 0, "lat": 38.924291333333336, "rental_uris": {"android": "https://dc.lft.to/lastmile_qr_scan", "ios": "https://dc.lft.to/lastmile_qr_scan"}, "bike_id": "6d64d73c77e1115de172ef0bbeff675e", "lon": -76.99653616666667}, {"is_reserved": 0, "fusion_lon": 0.0, "fusion_lat": 0.0, "name": "7b74aa99dbfc4f5e8d22705b9c800841", "type": "electric_scooter", "is_disabled": 0, "lat": 38.9110775, "rental_uris": {"android": "https://dc.lft.to/lastmile_qr_scan", "ios": "https://dc.lft.to/lastmile_qr_scan"}, "bike_id": "7b74aa99dbfc4f5e8d22705b9c800841", "lon": -77.03258883333334}, {"is_reserved": 0, "fusion_lon": 0.0, "fusion_lat": 0.0, "name": "91a8eae4163c9c8498aac198d720e7a8", "type": "electric_scooter", "is_disabled": 0, "lat": 38.90857883333334, "rental_uris": {"android": "https://dc.lft.to/lastmile_qr_scan", "ios": "https://dc.lft.to/lastmile_qr_scan"}, "bike_id": "91a8eae4163c9c8498aac198d720e7a8", "lon": -77.04488183333333}, {"is_reserved": 0, "fusion_lon": 0.0, "fusion_lat": 0.0, "name": "8cf4dcfcca818c9c243bc5a02b3133e5", "type": "electric_bike", "is_disabled": 0, "lat": 39.05496933333333, "rental_uris": {"android": "https://dc.lft.to/lastmile_qr_scan", "ios": "https://dc.lft.to/lastmile_qr_scan"}, "bike_id": "8cf4dcfcca818c9c243bc5a02b3133e5", "lon": -77.11786483333333}, {"is_reserved": 0, "fusion_lon": 0.0, "fusion_lat": 0.0, "name": "e13e450314bb41c61083f5437287df40", "type": "electric_scooter", "is_disabled": 0, "lat": 38.9097955, "rental_uris": {"android": "https://dc.lft.to/lastmile_qr_scan", "ios": "https://dc.lft.to/lastmile_qr_scan"}, "bike_id": "e13e450314bb41c61083f5437287df40", "lon": -77.03410416666667}, {"is_reserved": 0, "fusion_lon": 0.0, "fusion_lat": 0.0, "name": "a79ca85d4b4ba35b9d3c18df619321a9", "type": "electric_bike", "is_disabled": 0, "lat": 39.034287166666665, "rental_uris": {"android": "https://dc.lft.to/lastmile_qr_scan", "ios": "https://dc.lft.to/lastmile_qr_scan"}, "bike_id": "a79ca85d4b4ba35b9d3c18df619321a9", "lon": -77.04090516666666}, {"is_reserved": 0, "fusion_lon": 0.0, "fusion_lat": 0.0, "name": "e6182e3dfe851bfc0d65a54a27cd5f57", "type": "electric_bike", "is_disabled": 0, "lat": 38.88336133333333, "rental_uris": {"android": "https://dc.lft.to/lastmile_qr_scan", "ios": "https://dc.lft.to/lastmile_qr_scan"}, "bike_id": "e6182e3dfe851bfc0d65a54a27cd5f57", "lon": -77.06565866666666}, {"is_reserved": 0, "fusion_lon": 0.0, "fusion_lat": 0.0, "name": "7dd6ad805c2c23e379ae9505aef068cd", "type": "electric_scooter", "is_disabled": 0, "lat": 38.881251666666664, "rental_uris": {"android": "https://dc.lft.to/lastmile_qr_scan", "ios": "https://dc.lft.to/lastmile_qr_scan"}, "bike_id": "7dd6ad805c2c23e379ae9505aef068cd", "lon": -77.00082516666667}, {"is_reserved": 0, "fusion_lon": 0.0, "fusion_lat": 0.0, "name": "db17bf9b67d1f41ba637a832fbe66fe7", "type": "electric_scooter", "is_disabled": 0, "lat": 38.926596, "rental_uris": {"android": "https://dc.lft.to/lastmile_qr_scan", "ios": "https://dc.lft.to/lastmile_qr_scan"}, "bike_id": "db17bf9b67d1f41ba637a832fbe66fe7", "lon": -77.00871033333334}, {"is_reserved": 0, "fusion_lon": 0.0, "fusion_lat": 0.0, "name": "5fc473885b55f39f4ecda0d4225fd43a", "type": "electric_scooter", "is_disabled": 0, "lat": 38.92968466666667, "rental_uris": {"android": "https://dc.lft.to/lastmile_qr_scan", "ios": "https://dc.lft.to/lastmile_qr_scan"}, "bike_id": "5fc473885b55f39f4ecda0d4225fd43a", "lon": -77.02757766666667}, {"is_reserved": 0, "fusion_lon": 0.0, "fusion_lat": 0.0, "name": "83520bbc7e408ae09d4ad70239422464", "type": "electric_scooter", "is_disabled": 0, "lat": 38.92899033333333, "rental_uris": {"android": "https://dc.lft.to/lastmile_qr_scan", "ios": "https://dc.lft.to/lastmile_qr_scan"}, "bike_id": "83520bbc7e408ae09d4ad70239422464", "lon": -77.0332495}, {"is_reserved": 0, "fusion_lon": 0.0, "fusion_lat": 0.0, "name": "e10e8570a413ebdb3411afc89389adef", "type": "electric_scooter", "is_disabled": 0, "lat": 38.91960916666667, "rental_uris": {"android": "https://dc.lft.to/lastmile_qr_scan", "ios": "https://dc.lft.to/lastmile_qr_scan"}, "bike_id": "e10e8570a413ebdb3411afc89389adef", "lon": -77.02399}, {"is_reserved": 0, "fusion_lon": 0.0, "fusion_lat": 0.0, "name": "cd83dfa26568fb46201f04f584a8ec32", "type": "electric_scooter", "is_disabled": 0, "lat": 38.917109833333335, "rental_uris": {"android": "https://dc.lft.to/lastmile_qr_scan", "ios": "https://dc.lft.to/lastmile_qr_scan"}, "bike_id": "cd83dfa26568fb46201f04f584a8ec32", "lon": -77.03316883333333}, {"is_reserved": 0, "fusion_lon": 0.0, "fusion_lat": 0.0, "name": "eb557bf79fd4410d896166b217b12510", "type": "electric_scooter", "is_disabled": 0, "lat": 38.931009833333334, "rental_uris": {"android": "https://dc.lft.to/lastmile_qr_scan", "ios": "https://dc.lft.to/lastmile_qr_scan"}, "bike_id": "eb557bf79fd4410d896166b217b12510", "lon": -77.02787516666666}, {"is_reserved": 0, "fusion_lon": 0.0, "fusion_lat": 0.0, "name": "806f5e6a0dfbdbc4028c489ecbde7a3b", "type": "electric_scooter", "is_disabled": 0, "lat": 38.90437333333333, "rental_uris": {"android": "https://dc.lft.to/lastmile_qr_scan", "ios": "https://dc.lft.to/lastmile_qr_scan"}, "bike_id": "806f5e6a0dfbdbc4028c489ecbde7a3b", "lon": -77.04326866666666}, {"is_reserved": 0, "fusion_lon": 0.0, "fusion_lat": 0.0, "name": "1d3e19c8dc10e149589150a7b2cf764d", "type": "electric_scooter", "is_disabled": 0, "lat": 38.955032, "rental_uris": {"android": "https://dc.lft.to/lastmile_qr_scan", "ios": "https://dc.lft.to/lastmile_qr_scan"}, "bike_id": "1d3e19c8dc10e149589150a7b2cf764d", "lon": -77.02957533333333}, {"is_reserved": 0, "fusion_lon": 0.0, "fusion_lat": 0.0, "name": "2edb54883c4c00b90aba6b382aaed722", "type": "electric_scooter", "is_disabled": 0, "lat": 38.906393333333334, "rental_uris": {"android": "https://dc.lft.to/lastmile_qr_scan", "ios": "https://dc.lft.to/lastmile_qr_scan"}, "bike_id": "2edb54883c4c00b90aba6b382aaed722", "lon": -77.0690685}, {"is_reserved": 0, "fusion_lon": 0.0, "fusion_lat": 0.0, "name": "4eb3fbde69ab965fcb25bb2e9bdc1883", "type": "electric_scooter", "is_disabled": 0, "lat": 38.917215, "rental_uris": {"android": "https://dc.lft.to/lastmile_qr_scan", "ios": "https://dc.lft.to/lastmile_qr_scan"}, "bike_id": "4eb3fbde69ab965fcb25bb2e9bdc1883", "lon": -77.03661416666667}, {"is_reserved": 0, "fusion_lon": 0.0, "fusion_lat": 0.0, "name": "71f3331fde381027fbe3acca4c8e6a77", "type": "electric_scooter", "is_disabled": 0, "lat": 38.900651833333335, "rental_uris": {"android": "https://dc.lft.to/lastmile_qr_scan", "ios": "https://dc.lft.to/lastmile_qr_scan"}, "bike_id": "71f3331fde381027fbe3acca4c8e6a77", "lon": -77.045364}, {"is_reserved": 0, "fusion_lon": 0.0, "fusion_lat": 0.0, "name": "83ace1e54782702c981de66adb62887e", "type": "electric_bike", "is_disabled": 0, "lat": 38.92454983333333, "rental_uris": {"android": "https://dc.lft.to/lastmile_qr_scan", "ios": "https://dc.lft.to/lastmile_qr_scan"}, "bike_id": "83ace1e54782702c981de66adb62887e", "lon": -76.97554516666666}, {"is_reserved": 0, "fusion_lon": 0.0, "fusion_lat": 0.0, "name": "a693838773fb4a660d2a412c6b257cec", "type": "electric_scooter", "is_disabled": 0, "lat": 38.915507166666664, "rental_uris": {"android": "https://dc.lft.to/lastmile_qr_scan", "ios": "https://dc.lft.to/lastmile_qr_scan"}, "bike_id": "a693838773fb4a660d2a412c6b257cec", "lon": -77.03801916666667}, {"is_reserved": 0, "fusion_lon": 0.0, "fusion_lat": 0.0, "name": "86290cb70b268e5f73e3375cd4b62133", "type": "electric_scooter", "is_disabled": 0, "lat": 38.911860833333336, "rental_uris": {"android": "https://dc.lft.to/lastmile_qr_scan", "ios": "https://dc.lft.to/lastmile_qr_scan"}, "bike_id": "86290cb70b268e5f73e3375cd4b62133", "lon": -77.03459633333334}, {"is_reserved": 0, "fusion_lon": 0.0, "fusion_lat": 0.0, "name": "80194142d1bc14e3acfdd5709220789c", "type": "electric_scooter", "is_disabled": 0, "lat": 38.9244375, "rental_uris": {"android": "https://dc.lft.to/lastmile_qr_scan", "ios": "https://dc.lft.to/lastmile_qr_scan"}, "bike_id": "80194142d1bc14e3acfdd5709220789c", "lon": -77.03407716666666}, {"is_reserved": 0, "fusion_lon": 0.0, "fusion_lat": 0.0, "name": "811b559231e4072af7e67e5ee6f4ef1d", "type": "electric_scooter", "is_disabled": 0, "lat": 38.90278833333333, "rental_uris": {"android": "https://dc.lft.to/lastmile_qr_scan", "ios": "https://dc.lft.to/lastmile_qr_scan"}, "bike_id": "811b559231e4072af7e67e5ee6f4ef1d", "lon": -77.03922816666666}, {"is_reserved": 0, "fusion_lon": 0.0, "fusion_lat": 0.0, "name": "b8565bfdcbbf8d7f24c4ee60acf4b919", "type": "electric_scooter", "is_disabled": 0, "lat": 38.9194985, "rental_uris": {"android": "https://dc.lft.to/lastmile_qr_scan", "ios": "https://dc.lft.to/lastmile_qr_scan"}, "bike_id": "b8565bfdcbbf8d7f24c4ee60acf4b919", "lon": -77.0138895}, {"is_reserved": 0, "fusion_lon": 0.0, "fusion_lat": 0.0, "name": "6a2286acc279a8923643719b3be6dd2c", "type": "electric_scooter", "is_disabled": 0, "lat": 38.9351435, "rental_uris": {"android": "https://dc.lft.to/lastmile_qr_scan", "ios": "https://dc.lft.to/lastmile_qr_scan"}, "bike_id": "6a2286acc279a8923643719b3be6dd2c", "lon": -77.0329125}, {"is_reserved": 0, "fusion_lon": 0.0, "fusion_lat": 0.0, "name": "45b8e835dc2725743dc1dc4f098f41e9", "type": "electric_scooter", "is_disabled": 0, "lat": 38.8987135, "rental_uris": {"android": "https://dc.lft.to/lastmile_qr_scan", "ios": "https://dc.lft.to/lastmile_qr_scan"}, "bike_id": "45b8e835dc2725743dc1dc4f098f41e9", "lon": -77.01377816666667}, {"is_reserved": 0, "fusion_lon": 0.0, "fusion_lat": 0.0, "name": "817521d67005e74e5ac221520b1465d6", "type": "electric_scooter", "is_disabled": 0, "lat": 38.92400583333333, "rental_uris": {"android": "https://dc.lft.to/lastmile_qr_scan", "ios": "https://dc.lft.to/lastmile_qr_scan"}, "bike_id": "817521d67005e74e5ac221520b1465d6", "lon": -77.02714533333334}, {"is_reserved": 0, "fusion_lon": 0.0, "fusion_lat": 0.0, "name": "5914be382e539439f73aeaef6d29e107", "type": "electric_scooter", "is_disabled": 0, "lat": 38.91821016666667, "rental_uris": {"android": "https://dc.lft.to/lastmile_qr_scan", "ios": "https://dc.lft.to/lastmile_qr_scan"}, "bike_id": "5914be382e539439f73aeaef6d29e107", "lon": -77.03253583333333}, {"is_reserved": 0, "fusion_lon": 0.0, "fusion_lat": 0.0, "name": "58be650f5925d5681eaaf8c2cca1cb96", "type": "electric_scooter", "is_disabled": 0, "lat": 38.8708315, "rental_uris": {"android": "https://dc.lft.to/lastmile_qr_scan", "ios": "https://dc.lft.to/lastmile_qr_scan"}, "bike_id": "58be650f5925d5681eaaf8c2cca1cb96", "lon": -76.98898983333333}, {"is_reserved": 0, "fusion_lon": 0.0, "fusion_lat": 0.0, "name": "87a6cf8159fb5f9768b7d3b38d7157a4", "type": "electric_scooter", "is_disabled": 0, "lat": 38.892223, "rental_uris": {"android": "https://dc.lft.to/lastmile_qr_scan", "ios": "https://dc.lft.to/lastmile_qr_scan"}, "bike_id": "87a6cf8159fb5f9768b7d3b38d7157a4", "lon": -77.023399}, {"is_reserved": 0, "fusion_lon": 0.0, "fusion_lat": 0.0, "name": "5cb60d0eb3b2a7e62d6f70b1026f7100", "type": "electric_scooter", "is_disabled": 0, "lat": 38.916783833333334, "rental_uris": {"android": "https://dc.lft.to/lastmile_qr_scan", "ios": "https://dc.lft.to/lastmile_qr_scan"}, "bike_id": "5cb60d0eb3b2a7e62d6f70b1026f7100", "lon": -77.022941}, {"is_reserved": 0, "fusion_lon": 0.0, "fusion_lat": 0.0, "name": "7c32ebc14f723794800350e6e63de1e3", "type": "electric_scooter", "is_disabled": 0, "lat": 38.932528, "rental_uris": {"android": "https://dc.lft.to/lastmile_qr_scan", "ios": "https://dc.lft.to/lastmile_qr_scan"}, "bike_id": "7c32ebc14f723794800350e6e63de1e3", "lon": -77.03858533333333}, {"is_reserved": 0, "fusion_lon": 0.0, "fusion_lat": 0.0, "name": "68ba19c72c88707efcadacbe47fc01ee", "type": "electric_scooter", "is_disabled": 0, "lat": 38.9173075, "rental_uris": {"android": "https://dc.lft.to/lastmile_qr_scan", "ios": "https://dc.lft.to/lastmile_qr_scan"}, "bike_id": "68ba19c72c88707efcadacbe47fc01ee", "lon": -77.06845016666666}, {"is_reserved": 0, "fusion_lon": 0.0, "fusion_lat": 0.0, "name": "b17ace010602aa6d2a1cc5a9e1292a94", "type": "electric_scooter", "is_disabled": 0, "lat": 38.89901583333334, "rental_uris": {"android": "https://dc.lft.to/lastmile_qr_scan", "ios": "https://dc.lft.to/lastmile_qr_scan"}, "bike_id": "b17ace010602aa6d2a1cc5a9e1292a94", "lon": -76.9915295}, {"is_reserved": 0, "fusion_lon": 0.0, "fusion_lat": 0.0, "name": "2e5a07cdf9e4fa82f4eef71793a9ec58", "type": "electric_scooter", "is_disabled": 0, "lat": 38.905019, "rental_uris": {"android": "https://dc.lft.to/lastmile_qr_scan", "ios": "https://dc.lft.to/lastmile_qr_scan"}, "bike_id": "2e5a07cdf9e4fa82f4eef71793a9ec58", "lon": -76.979266}, {"is_reserved": 0, "fusion_lon": 0.0, "fusion_lat": 0.0, "name": "3087664ddba90ee4932df1cf9a0cbb14", "type": "electric_scooter", "is_disabled": 0, "lat": 38.871103833333336, "rental_uris": {"android": "https://dc.lft.to/lastmile_qr_scan", "ios": "https://dc.lft.to/lastmile_qr_scan"}, "bike_id": "3087664ddba90ee4932df1cf9a0cbb14", "lon": -77.00753216666666}, {"is_reserved": 0, "fusion_lon": 0.0, "fusion_lat": 0.0, "name": "e2275e3e62fcb3a091181aa4782b7e34", "type": "electric_scooter", "is_disabled": 0, "lat": 38.8991405, "rental_uris": {"android": "https://dc.lft.to/lastmile_qr_scan", "ios": "https://dc.lft.to/lastmile_qr_scan"}, "bike_id": "e2275e3e62fcb3a091181aa4782b7e34", "lon": -76.93376583333334}, {"is_reserved": 0, "fusion_lon": 0.0, "fusion_lat": 0.0, "name": "0fdd01d82fc3882be6fe773326b01396", "type": "electric_bike", "is_disabled": 0, "lat": 38.9661855, "rental_uris": {"android": "https://dc.lft.to/lastmile_qr_scan", "ios": "https://dc.lft.to/lastmile_qr_scan"}, "bike_id": "0fdd01d82fc3882be6fe773326b01396", "lon": -77.03437066666666}, {"is_reserved": 0, "fusion_lon": 0.0, "fusion_lat": 0.0, "name": "27e67b576630381c24e034ed50a6c95f", "type": "electric_bike", "is_disabled": 0, "lat": 38.89350316666667, "rental_uris": {"android": "https://dc.lft.to/lastmile_qr_scan", "ios": "https://dc.lft.to/lastmile_qr_scan"}, "bike_id": "27e67b576630381c24e034ed50a6c95f", "lon": -77.18736533333333}, {"is_reserved": 0, "fusion_lon": 0.0, "fusion_lat": 0.0, "name": "4657c4d4e7fa58bb20c973b758b5af47", "type": "electric_scooter", "is_disabled": 0, "lat": 38.921609833333335, "rental_uris": {"android": "https://dc.lft.to/lastmile_qr_scan", "ios": "https://dc.lft.to/lastmile_qr_scan"}, "bike_id": "4657c4d4e7fa58bb20c973b758b5af47", "lon": -77.04356066666666}, {"is_reserved": 0, "fusion_lon": 0.0, "fusion_lat": 0.0, "name": "f0b6ddf690e0fee62b6946e305177bd2", "type": "electric_scooter", "is_disabled": 0, "lat": 38.9169665, "rental_uris": {"android": "https://dc.lft.to/lastmile_qr_scan", "ios": "https://dc.lft.to/lastmile_qr_scan"}, "bike_id": "f0b6ddf690e0fee62b6946e305177bd2", "lon": -77.02291516666666}, {"is_reserved": 0, "fusion_lon": 0.0, "fusion_lat": 0.0, "name": "74897b7b7daf476f989918a75e519fc7", "type": "electric_scooter", "is_disabled": 0, "lat": 38.89738283333333, "rental_uris": {"android": "https://dc.lft.to/lastmile_qr_scan", "ios": "https://dc.lft.to/lastmile_qr_scan"}, "bike_id": "74897b7b7daf476f989918a75e519fc7", "lon": -77.04719133333333}, {"is_reserved": 0, "fusion_lon": 0.0, "fusion_lat": 0.0, "name": "8d85f0b00e232f98efd2472d94e53e70", "type": "electric_bike", "is_disabled": 0, "lat": 38.85422033333333, "rental_uris": {"android": "https://dc.lft.to/lastmile_qr_scan", "ios": "https://dc.lft.to/lastmile_qr_scan"}, "bike_id": "8d85f0b00e232f98efd2472d94e53e70", "lon": -77.12075716666666}, {"is_reserved": 0, "fusion_lon": 0.0, "fusion_lat": 0.0, "name": "c6a5dbf51aad6d07bf5a58d9f2c1b20e", "type": "electric_scooter", "is_disabled": 0, "lat": 38.893882833333336, "rental_uris": {"android": "https://dc.lft.to/lastmile_qr_scan", "ios": "https://dc.lft.to/lastmile_qr_scan"}, "bike_id": "c6a5dbf51aad6d07bf5a58d9f2c1b20e", "lon": -77.02249366666666}, {"is_reserved": 0, "fusion_lon": 0.0, "fusion_lat": 0.0, "name": "07d14285b7d65ce7808d4b780161eafe", "type": "electric_scooter", "is_disabled": 0, "lat": 38.908001166666665, "rental_uris": {"android": "https://dc.lft.to/lastmile_qr_scan", "ios": "https://dc.lft.to/lastmile_qr_scan"}, "bike_id": "07d14285b7d65ce7808d4b780161eafe", "lon": -77.0345425}, {"is_reserved": 0, "fusion_lon": 0.0, "fusion_lat": 0.0, "name": "061a290887f4242f06bd4aa03c041f46", "type": "electric_scooter", "is_disabled": 0, "lat": 38.89933283333333, "rental_uris": {"android": "https://dc.lft.to/lastmile_qr_scan", "ios": "https://dc.lft.to/lastmile_qr_scan"}, "bike_id": "061a290887f4242f06bd4aa03c041f46", "lon": -76.9457215}, {"is_reserved": 0, "fusion_lon": 0.0, "fusion_lat": 0.0, "name": "29cf706f42ca7fda6366abec7b9932dd", "type": "electric_scooter", "is_disabled": 0, "lat": 38.912664, "rental_uris": {"android": "https://dc.lft.to/lastmile_qr_scan", "ios": "https://dc.lft.to/lastmile_qr_scan"}, "bike_id": "29cf706f42ca7fda6366abec7b9932dd", "lon": -77.031792}, {"is_reserved": 0, "fusion_lon": 0.0, "fusion_lat": 0.0, "name": "3a46ffac21795c04f3279e067d2f0a6d", "type": "electric_scooter", "is_disabled": 0, "lat": 38.9199565, "rental_uris": {"android": "https://dc.lft.to/lastmile_qr_scan", "ios": "https://dc.lft.to/lastmile_qr_scan"}, "bike_id": "3a46ffac21795c04f3279e067d2f0a6d", "lon": -77.02141566666667}, {"is_reserved": 0, "fusion_lon": 0.0, "fusion_lat": 0.0, "name": "79f70c84cd3d37a1d8602b5d67d4ffa2", "type": "electric_scooter", "is_disabled": 0, "lat": 38.909267166666666, "rental_uris": {"android": "https://dc.lft.to/lastmile_qr_scan", "ios": "https://dc.lft.to/lastmile_qr_scan"}, "bike_id": "79f70c84cd3d37a1d8602b5d67d4ffa2", "lon": -77.07269233333334}, {"is_reserved": 0, "fusion_lon": 0.0, "fusion_lat": 0.0, "name": "3ba55404923f8005fc5470b1d4f5aa3e", "type": "electric_scooter", "is_disabled": 0, "lat": 38.89309766666667, "rental_uris": {"android": "https://dc.lft.to/lastmile_qr_scan", "ios": "https://dc.lft.to/lastmile_qr_scan"}, "bike_id": "3ba55404923f8005fc5470b1d4f5aa3e", "lon": -76.93975566666667}, {"is_reserved": 0, "fusion_lon": 0.0, "fusion_lat": 0.0, "name": "c1b02cda1e3fb97818ab26f1a38eb414", "type": "electric_scooter", "is_disabled": 0, "lat": 38.90428133333333, "rental_uris": {"android": "https://dc.lft.to/lastmile_qr_scan", "ios": "https://dc.lft.to/lastmile_qr_scan"}, "bike_id": "c1b02cda1e3fb97818ab26f1a38eb414", "lon": -77.05151916666667}, {"is_reserved": 0, "fusion_lon": 0.0, "fusion_lat": 0.0, "name": "d4a23dd5cbadabd4873e23fc6c199dbe", "type": "electric_bike", "is_disabled": 0, "lat": 38.9014245, "rental_uris": {"android": "https://dc.lft.to/lastmile_qr_scan", "ios": "https://dc.lft.to/lastmile_qr_scan"}, "bike_id": "d4a23dd5cbadabd4873e23fc6c199dbe", "lon": -77.01784633333334}, {"is_reserved": 0, "fusion_lon": 0.0, "fusion_lat": 0.0, "name": "f2fb030e8851126db45ad3065fdb06bb", "type": "electric_scooter", "is_disabled": 0, "lat": 38.927336333333336, "rental_uris": {"android": "https://dc.lft.to/lastmile_qr_scan", "ios": "https://dc.lft.to/lastmile_qr_scan"}, "bike_id": "f2fb030e8851126db45ad3065fdb06bb", "lon": -77.03522333333333}, {"is_reserved": 0, "fusion_lon": 0.0, "fusion_lat": 0.0, "name": "729e4861885ad8692bf22d7664da2d85", "type": "electric_scooter", "is_disabled": 0, "lat": 38.9013915, "rental_uris": {"android": "https://dc.lft.to/lastmile_qr_scan", "ios": "https://dc.lft.to/lastmile_qr_scan"}, "bike_id": "729e4861885ad8692bf22d7664da2d85", "lon": -77.01304666666667}, {"is_reserved": 0, "fusion_lon": 0.0, "fusion_lat": 0.0, "name": "b7b3b95cb92e63f90f6a40ae115c92f6", "type": "electric_scooter", "is_disabled": 0, "lat": 38.9215845, "rental_uris": {"android": "https://dc.lft.to/lastmile_qr_scan", "ios": "https://dc.lft.to/lastmile_qr_scan"}, "bike_id": "b7b3b95cb92e63f90f6a40ae115c92f6", "lon": -77.02094833333334}, {"is_reserved": 0, "fusion_lon": 0.0, "fusion_lat": 0.0, "name": "dc48b42821e4c99edeb84f26406e85ba", "type": "electric_scooter", "is_disabled": 0, "lat": 38.9507105, "rental_uris": {"android": "https://dc.lft.to/lastmile_qr_scan", "ios": "https://dc.lft.to/lastmile_qr_scan"}, "bike_id": "dc48b42821e4c99edeb84f26406e85ba", "lon": -77.06532316666667}, {"is_reserved": 0, "fusion_lon": 0.0, "fusion_lat": 0.0, "name": "374151355f365e18a1bba9f2fdb1a315", "type": "electric_scooter", "is_disabled": 0, "lat": 38.90735433333333, "rental_uris": {"android": "https://dc.lft.to/lastmile_qr_scan", "ios": "https://dc.lft.to/lastmile_qr_scan"}, "bike_id": "374151355f365e18a1bba9f2fdb1a315", "lon": -77.02989416666667}, {"is_reserved": 0, "fusion_lon": 0.0, "fusion_lat": 0.0, "name": "7ad32b939af3e0ab78e30aeac3266afb", "type": "electric_scooter", "is_disabled": 0, "lat": 38.922103666666665, "rental_uris": {"android": "https://dc.lft.to/lastmile_qr_scan", "ios": "https://dc.lft.to/lastmile_qr_scan"}, "bike_id": "7ad32b939af3e0ab78e30aeac3266afb", "lon": -77.02964016666667}, {"is_reserved": 0, "fusion_lon": 0.0, "fusion_lat": 0.0, "name": "083020a54f91ab70d78d00181ce1fec7", "type": "electric_scooter", "is_disabled": 0, "lat": 38.928716666666666, "rental_uris": {"android": "https://dc.lft.to/lastmile_qr_scan", "ios": "https://dc.lft.to/lastmile_qr_scan"}, "bike_id": "083020a54f91ab70d78d00181ce1fec7", "lon": -77.03326533333333}, {"is_reserved": 0, "fusion_lon": 0.0, "fusion_lat": 0.0, "name": "64b4586b8d9ead4d13ab6d778a093c6c", "type": "electric_scooter", "is_disabled": 0, "lat": 38.90242716666667, "rental_uris": {"android": "https://dc.lft.to/lastmile_qr_scan", "ios": "https://dc.lft.to/lastmile_qr_scan"}, "bike_id": "64b4586b8d9ead4d13ab6d778a093c6c", "lon": -77.04515333333333}, {"is_reserved": 0, "fusion_lon": 0.0, "fusion_lat": 0.0, "name": "0601ed63faa1d5f10910050f19cdc425", "type": "electric_scooter", "is_disabled": 0, "lat": 38.92854166666667, "rental_uris": {"android": "https://dc.lft.to/lastmile_qr_scan", "ios": "https://dc.lft.to/lastmile_qr_scan"}, "bike_id": "0601ed63faa1d5f10910050f19cdc425", "lon": -77.02734983333333}, {"is_reserved": 0, "fusion_lon": 0.0, "fusion_lat": 0.0, "name": "706bb0c9af8c4b3f604da436652940cf", "type": "electric_scooter", "is_disabled": 0, "lat": 38.900769, "rental_uris": {"android": "https://dc.lft.to/lastmile_qr_scan", "ios": "https://dc.lft.to/lastmile_qr_scan"}, "bike_id": "706bb0c9af8c4b3f604da436652940cf", "lon": -77.0489235}, {"is_reserved": 0, "fusion_lon": 0.0, "fusion_lat": 0.0, "name": "b775c3514858717e52ca1955e3ded82d", "type": "electric_scooter", "is_disabled": 0, "lat": 38.91932633333333, "rental_uris": {"android": "https://dc.lft.to/lastmile_qr_scan", "ios": "https://dc.lft.to/lastmile_qr_scan"}, "bike_id": "b775c3514858717e52ca1955e3ded82d", "lon": -77.04480433333333}, {"is_reserved": 0, "fusion_lon": 0.0, "fusion_lat": 0.0, "name": "6f43aea863eea1ebb8e0b18f0ebeadfa", "type": "electric_scooter", "is_disabled": 0, "lat": 38.924661, "rental_uris": {"android": "https://dc.lft.to/lastmile_qr_scan", "ios": "https://dc.lft.to/lastmile_qr_scan"}, "bike_id": "6f43aea863eea1ebb8e0b18f0ebeadfa", "lon": -77.03283633333334}, {"is_reserved": 0, "fusion_lon": 0.0, "fusion_lat": 0.0, "name": "bc13fa85e3d500e92dd1daf6982daf65", "type": "electric_scooter", "is_disabled": 0, "lat": 38.9098265, "rental_uris": {"android": "https://dc.lft.to/lastmile_qr_scan", "ios": "https://dc.lft.to/lastmile_qr_scan"}, "bike_id": "bc13fa85e3d500e92dd1daf6982daf65", "lon": -77.03410266666667}, {"is_reserved": 0, "fusion_lon": 0.0, "fusion_lat": 0.0, "name": "c0987fbec215c1551a59aa81b7621e1d", "type": "electric_scooter", "is_disabled": 0, "lat": 38.92149666666667, "rental_uris": {"android": "https://dc.lft.to/lastmile_qr_scan", "ios": "https://dc.lft.to/lastmile_qr_scan"}, "bike_id": "c0987fbec215c1551a59aa81b7621e1d", "lon": -77.0211005}, {"is_reserved": 0, "fusion_lon": 0.0, "fusion_lat": 0.0, "name": "9b5f004d484f5aa289af92d132097b6a", "type": "electric_scooter", "is_disabled": 0, "lat": 38.91470483333333, "rental_uris": {"android": "https://dc.lft.to/lastmile_qr_scan", "ios": "https://dc.lft.to/lastmile_qr_scan"}, "bike_id": "9b5f004d484f5aa289af92d132097b6a", "lon": -77.02106366666666}, {"is_reserved": 0, "fusion_lon": 0.0, "fusion_lat": 0.0, "name": "5ab10f15f5647ad7433e4b81f69b7ffc", "type": "electric_scooter", "is_disabled": 0, "lat": 38.89154516666667, "rental_uris": {"android": "https://dc.lft.to/lastmile_qr_scan", "ios": "https://dc.lft.to/lastmile_qr_scan"}, "bike_id": "5ab10f15f5647ad7433e4b81f69b7ffc", "lon": -76.98382283333333}, {"is_reserved": 0, "fusion_lon": 0.0, "fusion_lat": 0.0, "name": "4d58a666e8dd0f892490aea6a3b0a143", "type": "electric_scooter", "is_disabled": 0, "lat": 38.920139166666665, "rental_uris": {"android": "https://dc.lft.to/lastmile_qr_scan", "ios": "https://dc.lft.to/lastmile_qr_scan"}, "bike_id": "4d58a666e8dd0f892490aea6a3b0a143", "lon": -77.03464133333334}, {"is_reserved": 0, "fusion_lon": 0.0, "fusion_lat": 0.0, "name": "b8ae40dfaae9f26bdbd990fdc9ccbe12", "type": "electric_scooter", "is_disabled": 0, "lat": 38.918043833333336, "rental_uris": {"android": "https://dc.lft.to/lastmile_qr_scan", "ios": "https://dc.lft.to/lastmile_qr_scan"}, "bike_id": "b8ae40dfaae9f26bdbd990fdc9ccbe12", "lon": -77.0249435}, {"is_reserved": 0, "fusion_lon": 0.0, "fusion_lat": 0.0, "name": "1e187e7b16940a676ebdeab8dae4f5f3", "type": "electric_scooter", "is_disabled": 0, "lat": 38.871705166666665, "rental_uris": {"android": "https://dc.lft.to/lastmile_qr_scan", "ios": "https://dc.lft.to/lastmile_qr_scan"}, "bike_id": "1e187e7b16940a676ebdeab8dae4f5f3", "lon": -76.977485}, {"is_reserved": 0, "fusion_lon": 0.0, "fusion_lat": 0.0, "name": "e779b635cd716cef19eb83001b9cdcb9", "type": "electric_scooter", "is_disabled": 0, "lat": 38.9172235, "rental_uris": {"android": "https://dc.lft.to/lastmile_qr_scan", "ios": "https://dc.lft.to/lastmile_qr_scan"}, "bike_id": "e779b635cd716cef19eb83001b9cdcb9", "lon": -77.03663916666666}, {"is_reserved": 0, "fusion_lon": 0.0, "fusion_lat": 0.0, "name": "26055135c980d4ea5069488e086d7c52", "type": "electric_scooter", "is_disabled": 0, "lat": 38.92277716666667, "rental_uris": {"android": "https://dc.lft.to/lastmile_qr_scan", "ios": "https://dc.lft.to/lastmile_qr_scan"}, "bike_id": "26055135c980d4ea5069488e086d7c52", "lon": -77.04022333333333}, {"is_reserved": 0, "fusion_lon": 0.0, "fusion_lat": 0.0, "name": "19ce31690243602e653154aeaa9fffe0", "type": "electric_scooter", "is_disabled": 0, "lat": 38.88507883333333, "rental_uris": {"android": "https://dc.lft.to/lastmile_qr_scan", "ios": "https://dc.lft.to/lastmile_qr_scan"}, "bike_id": "19ce31690243602e653154aeaa9fffe0", "lon": -76.99752766666667}, {"is_reserved": 0, "fusion_lon": 0.0, "fusion_lat": 0.0, "name": "276fceb496dfc8b5ba5449af0342b0b0", "type": "electric_bike", "is_disabled": 0, "lat": 38.839397, "rental_uris": {"android": "https://dc.lft.to/lastmile_qr_scan", "ios": "https://dc.lft.to/lastmile_qr_scan"}, "bike_id": "276fceb496dfc8b5ba5449af0342b0b0", "lon": -77.07893116666666}, {"is_reserved": 0, "fusion_lon": 0.0, "fusion_lat": 0.0, "name": "776fb0ba187186f84d81a1633e7a8ecb", "type": "electric_scooter", "is_disabled": 0, "lat": 38.9118275, "rental_uris": {"android": "https://dc.lft.to/lastmile_qr_scan", "ios": "https://dc.lft.to/lastmile_qr_scan"}, "bike_id": "776fb0ba187186f84d81a1633e7a8ecb", "lon": -77.060796}, {"is_reserved": 0, "fusion_lon": 0.0, "fusion_lat": 0.0, "name": "7a43d8477e5c6ab86ae7bd73e1e1fb57", "type": "electric_bike", "is_disabled": 0, "lat": 38.9031275, "rental_uris": {"android": "https://dc.lft.to/lastmile_qr_scan", "ios": "https://dc.lft.to/lastmile_qr_scan"}, "bike_id": "7a43d8477e5c6ab86ae7bd73e1e1fb57", "lon": -76.91218066666667}, {"is_reserved": 0, "fusion_lon": 0.0, "fusion_lat": 0.0, "name": "dc557f69ee59761364f89b9b703cc738", "type": "electric_scooter", "is_disabled": 0, "lat": 38.90070016666667, "rental_uris": {"android": "https://dc.lft.to/lastmile_qr_scan", "ios": "https://dc.lft.to/lastmile_qr_scan"}, "bike_id": "dc557f69ee59761364f89b9b703cc738", "lon": -77.00212366666666}, {"is_reserved": 0, "fusion_lon": 0.0, "fusion_lat": 0.0, "name": "6f27eb2a219b01b1f63cb60d1e411d90", "type": "electric_scooter", "is_disabled": 0, "lat": 38.9403585, "rental_uris": {"android": "https://dc.lft.to/lastmile_qr_scan", "ios": "https://dc.lft.to/lastmile_qr_scan"}, "bike_id": "6f27eb2a219b01b1f63cb60d1e411d90", "lon": -77.02901283333334}, {"is_reserved": 0, "fusion_lon": 0.0, "fusion_lat": 0.0, "name": "677c26093afe9a360decb05bee2a958c", "type": "electric_scooter", "is_disabled": 0, "lat": 38.90073066666667, "rental_uris": {"android": "https://dc.lft.to/lastmile_qr_scan", "ios": "https://dc.lft.to/lastmile_qr_scan"}, "bike_id": "677c26093afe9a360decb05bee2a958c", "lon": -77.002052}, {"is_reserved": 0, "fusion_lon": 0.0, "fusion_lat": 0.0, "name": "dc59b7b2e09a5bfb14a7c15cb5fdda9d", "type": "electric_scooter", "is_disabled": 0, "lat": 38.86471216666666, "rental_uris": {"android": "https://dc.lft.to/lastmile_qr_scan", "ios": "https://dc.lft.to/lastmile_qr_scan"}, "bike_id": "dc59b7b2e09a5bfb14a7c15cb5fdda9d", "lon": -76.97743516666667}, {"is_reserved": 0, "fusion_lon": 0.0, "fusion_lat": 0.0, "name": "1a33cb2c6e1049602c528ba224709422", "type": "electric_scooter", "is_disabled": 0, "lat": 38.91813283333333, "rental_uris": {"android": "https://dc.lft.to/lastmile_qr_scan", "ios": "https://dc.lft.to/lastmile_qr_scan"}, "bike_id": "1a33cb2c6e1049602c528ba224709422", "lon": -77.035653}, {"is_reserved": 0, "fusion_lon": 0.0, "fusion_lat": 0.0, "name": "6ca8eb03fe20d5c5e812cae6555740b0", "type": "electric_scooter", "is_disabled": 0, "lat": 38.9371155, "rental_uris": {"android": "https://dc.lft.to/lastmile_qr_scan", "ios": "https://dc.lft.to/lastmile_qr_scan"}, "bike_id": "6ca8eb03fe20d5c5e812cae6555740b0", "lon": -77.02444216666666}, {"is_reserved": 0, "fusion_lon": 0.0, "fusion_lat": 0.0, "name": "38c5356f5d34cd5ca4af9367b34a0df4", "type": "electric_scooter", "is_disabled": 0, "lat": 38.8670115, "rental_uris": {"android": "https://dc.lft.to/lastmile_qr_scan", "ios": "https://dc.lft.to/lastmile_qr_scan"}, "bike_id": "38c5356f5d34cd5ca4af9367b34a0df4", "lon": -76.98713883333333}, {"is_reserved": 0, "fusion_lon": 0.0, "fusion_lat": 0.0, "name": "7ff47199fb00d15c5f1f858feef9f219", "type": "electric_scooter", "is_disabled": 0, "lat": 38.931447166666665, "rental_uris": {"android": "https://dc.lft.to/lastmile_qr_scan", "ios": "https://dc.lft.to/lastmile_qr_scan"}, "bike_id": "7ff47199fb00d15c5f1f858feef9f219", "lon": -77.043974}, {"is_reserved": 0, "fusion_lon": 0.0, "fusion_lat": 0.0, "name": "1bb0812148eb920d03feb9d5ae3f8187", "type": "electric_scooter", "is_disabled": 0, "lat": 38.92436516666667, "rental_uris": {"android": "https://dc.lft.to/lastmile_qr_scan", "ios": "https://dc.lft.to/lastmile_qr_scan"}, "bike_id": "1bb0812148eb920d03feb9d5ae3f8187", "lon": -77.00067383333334}, {"is_reserved": 0, "fusion_lon": 0.0, "fusion_lat": 0.0, "name": "f29800d925aff3f69777baf647261d07", "type": "electric_bike", "is_disabled": 0, "lat": 38.90834266666667, "rental_uris": {"android": "https://dc.lft.to/lastmile_qr_scan", "ios": "https://dc.lft.to/lastmile_qr_scan"}, "bike_id": "f29800d925aff3f69777baf647261d07", "lon": -76.93312483333334}, {"is_reserved": 0, "fusion_lon": 0.0, "fusion_lat": 0.0, "name": "30ffcf746fadefdd3c96c4ea98f05e2c", "type": "electric_scooter", "is_disabled": 0, "lat": 38.88412566666667, "rental_uris": {"android": "https://dc.lft.to/lastmile_qr_scan", "ios": "https://dc.lft.to/lastmile_qr_scan"}, "bike_id": "30ffcf746fadefdd3c96c4ea98f05e2c", "lon": -76.95377933333333}, {"is_reserved": 0, "fusion_lon": 0.0, "fusion_lat": 0.0, "name": "348cbc77bb2bde5ca20c8e166f264456", "type": "electric_scooter", "is_disabled": 0, "lat": 38.91400983333333, "rental_uris": {"android": "https://dc.lft.to/lastmile_qr_scan", "ios": "https://dc.lft.to/lastmile_qr_scan"}, "bike_id": "348cbc77bb2bde5ca20c8e166f264456", "lon": -77.03951266666667}, {"is_reserved": 0, "fusion_lon": 0.0, "fusion_lat": 0.0, "name": "333f0e12ab0cb55344951309f2c83196", "type": "electric_scooter", "is_disabled": 0, "lat": 38.90731016666667, "rental_uris": {"android": "https://dc.lft.to/lastmile_qr_scan", "ios": "https://dc.lft.to/lastmile_qr_scan"}, "bike_id": "333f0e12ab0cb55344951309f2c83196", "lon": -77.0230775}, {"is_reserved": 0, "fusion_lon": 0.0, "fusion_lat": 0.0, "name": "768a8c96ac98e2406ec99213a0132109", "type": "electric_scooter", "is_disabled": 0, "lat": 38.92078583333333, "rental_uris": {"android": "https://dc.lft.to/lastmile_qr_scan", "ios": "https://dc.lft.to/lastmile_qr_scan"}, "bike_id": "768a8c96ac98e2406ec99213a0132109", "lon": -77.046925}, {"is_reserved": 0, "fusion_lon": 0.0, "fusion_lat": 0.0, "name": "da3dbca4150df2dfbbf1148cfed19e66", "type": "electric_scooter", "is_disabled": 0, "lat": 38.89993283333333, "rental_uris": {"android": "https://dc.lft.to/lastmile_qr_scan", "ios": "https://dc.lft.to/lastmile_qr_scan"}, "bike_id": "da3dbca4150df2dfbbf1148cfed19e66", "lon": -77.00663816666666}, {"is_reserved": 0, "fusion_lon": 0.0, "fusion_lat": 0.0, "name": "bd20b0603e908edddb54de59f3b4d441", "type": "electric_scooter", "is_disabled": 0, "lat": 38.916873, "rental_uris": {"android": "https://dc.lft.to/lastmile_qr_scan", "ios": "https://dc.lft.to/lastmile_qr_scan"}, "bike_id": "bd20b0603e908edddb54de59f3b4d441", "lon": -77.02710733333333}, {"is_reserved": 0, "fusion_lon": 0.0, "fusion_lat": 0.0, "name": "51e4a001706ada2c90572b9e30b9811e", "type": "electric_scooter", "is_disabled": 0, "lat": 38.8641585, "rental_uris": {"android": "https://dc.lft.to/lastmile_qr_scan", "ios": "https://dc.lft.to/lastmile_qr_scan"}, "bike_id": "51e4a001706ada2c90572b9e30b9811e", "lon": -77.012263}, {"is_reserved": 0, "fusion_lon": 0.0, "fusion_lat": 0.0, "name": "ec0426d714f9eb6befeedd9efc586680", "type": "electric_bike", "is_disabled": 0, "lat": 38.930619166666666, "rental_uris": {"android": "https://dc.lft.to/lastmile_qr_scan", "ios": "https://dc.lft.to/lastmile_qr_scan"}, "bike_id": "ec0426d714f9eb6befeedd9efc586680", "lon": -77.03730933333334}, {"is_reserved": 0, "fusion_lon": 0.0, "fusion_lat": 0.0, "name": "d96e6aa8b4539a8c5f6acf0987b90fb5", "type": "electric_scooter", "is_disabled": 0, "lat": 38.915672666666666, "rental_uris": {"android": "https://dc.lft.to/lastmile_qr_scan", "ios": "https://dc.lft.to/lastmile_qr_scan"}, "bike_id": "d96e6aa8b4539a8c5f6acf0987b90fb5", "lon": -77.031673}, {"is_reserved": 0, "fusion_lon": 0.0, "fusion_lat": 0.0, "name": "d0e2255d1510d0696676f8751afbdcc7", "type": "electric_scooter", "is_disabled": 0, "lat": 38.8998605, "rental_uris": {"android": "https://dc.lft.to/lastmile_qr_scan", "ios": "https://dc.lft.to/lastmile_qr_scan"}, "bike_id": "d0e2255d1510d0696676f8751afbdcc7", "lon": -77.05555766666667}, {"is_reserved": 0, "fusion_lon": 0.0, "fusion_lat": 0.0, "name": "24b75e7b19e066fadcf5205040116703", "type": "electric_scooter", "is_disabled": 0, "lat": 38.920693, "rental_uris": {"android": "https://dc.lft.to/lastmile_qr_scan", "ios": "https://dc.lft.to/lastmile_qr_scan"}, "bike_id": "24b75e7b19e066fadcf5205040116703", "lon": -77.02336116666666}, {"is_reserved": 0, "fusion_lon": 0.0, "fusion_lat": 0.0, "name": "2f908897e8829754e04caf4df8872d56", "type": "electric_bike", "is_disabled": 0, "lat": 38.869379333333335, "rental_uris": {"android": "https://dc.lft.to/lastmile_qr_scan", "ios": "https://dc.lft.to/lastmile_qr_scan"}, "bike_id": "2f908897e8829754e04caf4df8872d56", "lon": -77.0946485}, {"is_reserved": 0, "fusion_lon": 0.0, "fusion_lat": 0.0, "name": "4babb0a01d55086582b64a49481a68a9", "type": "electric_scooter", "is_disabled": 0, "lat": 38.90565133333333, "rental_uris": {"android": "https://dc.lft.to/lastmile_qr_scan", "ios": "https://dc.lft.to/lastmile_qr_scan"}, "bike_id": "4babb0a01d55086582b64a49481a68a9", "lon": -77.00589283333333}, {"is_reserved": 0, "fusion_lon": 0.0, "fusion_lat": 0.0, "name": "957d61cf287e3424905968c76a74eb2e", "type": "electric_scooter", "is_disabled": 0, "lat": 38.91706883333333, "rental_uris": {"android": "https://dc.lft.to/lastmile_qr_scan", "ios": "https://dc.lft.to/lastmile_qr_scan"}, "bike_id": "957d61cf287e3424905968c76a74eb2e", "lon": -77.03471183333333}, {"is_reserved": 0, "fusion_lon": 0.0, "fusion_lat": 0.0, "name": "206777ad72ad5ebb86c6b7575300e189", "type": "electric_scooter", "is_disabled": 0, "lat": 38.892210666666664, "rental_uris": {"android": "https://dc.lft.to/lastmile_qr_scan", "ios": "https://dc.lft.to/lastmile_qr_scan"}, "bike_id": "206777ad72ad5ebb86c6b7575300e189", "lon": -77.02350733333333}, {"is_reserved": 0, "fusion_lon": 0.0, "fusion_lat": 0.0, "name": "ef3f847396e5e27ccba5fc3f64eee3cd", "type": "electric_scooter", "is_disabled": 0, "lat": 38.871961666666664, "rental_uris": {"android": "https://dc.lft.to/lastmile_qr_scan", "ios": "https://dc.lft.to/lastmile_qr_scan"}, "bike_id": "ef3f847396e5e27ccba5fc3f64eee3cd", "lon": -77.00571766666667}, {"is_reserved": 0, "fusion_lon": 0.0, "fusion_lat": 0.0, "name": "4caf302f87be986dd8f0b4e12d677371", "type": "electric_scooter", "is_disabled": 0, "lat": 38.918527166666664, "rental_uris": {"android": "https://dc.lft.to/lastmile_qr_scan", "ios": "https://dc.lft.to/lastmile_qr_scan"}, "bike_id": "4caf302f87be986dd8f0b4e12d677371", "lon": -77.01347516666667}, {"is_reserved": 0, "fusion_lon": 0.0, "fusion_lat": 0.0, "name": "d1aaaf89242fa2e471b9cc9dcc4754ec", "type": "electric_scooter", "is_disabled": 0, "lat": 38.91754866666667, "rental_uris": {"android": "https://dc.lft.to/lastmile_qr_scan", "ios": "https://dc.lft.to/lastmile_qr_scan"}, "bike_id": "d1aaaf89242fa2e471b9cc9dcc4754ec", "lon": -77.03209683333333}, {"is_reserved": 0, "fusion_lon": 0.0, "fusion_lat": 0.0, "name": "da1e9733baf85547b9b1c5cdb1e03dab", "type": "electric_scooter", "is_disabled": 0, "lat": 38.9418075, "rental_uris": {"android": "https://dc.lft.to/lastmile_qr_scan", "ios": "https://dc.lft.to/lastmile_qr_scan"}, "bike_id": "da1e9733baf85547b9b1c5cdb1e03dab", "lon": -77.0296295}, {"is_reserved": 0, "fusion_lon": 0.0, "fusion_lat": 0.0, "name": "9e0dd327f9dc1d681c6d39bfc098e26e", "type": "electric_scooter", "is_disabled": 0, "lat": 38.890212166666664, "rental_uris": {"android": "https://dc.lft.to/lastmile_qr_scan", "ios": "https://dc.lft.to/lastmile_qr_scan"}, "bike_id": "9e0dd327f9dc1d681c6d39bfc098e26e", "lon": -76.93702433333333}, {"is_reserved": 0, "fusion_lon": 0.0, "fusion_lat": 0.0, "name": "5f0e130c25921aa0ecc8856a611ec162", "type": "electric_scooter", "is_disabled": 0, "lat": 38.907815, "rental_uris": {"android": "https://dc.lft.to/lastmile_qr_scan", "ios": "https://dc.lft.to/lastmile_qr_scan"}, "bike_id": "5f0e130c25921aa0ecc8856a611ec162", "lon": -77.00968866666666}, {"is_reserved": 0, "fusion_lon": 0.0, "fusion_lat": 0.0, "name": "b146732e6b9f0a6abff1be084c8c4d18", "type": "electric_scooter", "is_disabled": 0, "lat": 38.9257555, "rental_uris": {"android": "https://dc.lft.to/lastmile_qr_scan", "ios": "https://dc.lft.to/lastmile_qr_scan"}, "bike_id": "b146732e6b9f0a6abff1be084c8c4d18", "lon": -77.026062}, {"is_reserved": 0, "fusion_lon": 0.0, "fusion_lat": 0.0, "name": "fc831151cf1445c38479687be64ca15f", "type": "electric_scooter", "is_disabled": 0, "lat": 38.92066966666667, "rental_uris": {"android": "https://dc.lft.to/lastmile_qr_scan", "ios": "https://dc.lft.to/lastmile_qr_scan"}, "bike_id": "fc831151cf1445c38479687be64ca15f", "lon": -77.0234715}, {"is_reserved": 0, "fusion_lon": 0.0, "fusion_lat": 0.0, "name": "c15fbbe568d6d6801caf80f7074a0bcb", "type": "electric_scooter", "is_disabled": 0, "lat": 38.90152333333333, "rental_uris": {"android": "https://dc.lft.to/lastmile_qr_scan", "ios": "https://dc.lft.to/lastmile_qr_scan"}, "bike_id": "c15fbbe568d6d6801caf80f7074a0bcb", "lon": -76.99026166666667}, {"is_reserved": 0, "fusion_lon": 0.0, "fusion_lat": 0.0, "name": "4920efc3687a068c6a13e6e2836a0fe3", "type": "electric_bike", "is_disabled": 0, "lat": 38.939702, "rental_uris": {"android": "https://dc.lft.to/lastmile_qr_scan", "ios": "https://dc.lft.to/lastmile_qr_scan"}, "bike_id": "4920efc3687a068c6a13e6e2836a0fe3", "lon": -76.9861535}, {"is_reserved": 0, "fusion_lon": 0.0, "fusion_lat": 0.0, "name": "b51812616341af5b7ec88823f8cec5a3", "type": "electric_scooter", "is_disabled": 0, "lat": 38.91631566666667, "rental_uris": {"android": "https://dc.lft.to/lastmile_qr_scan", "ios": "https://dc.lft.to/lastmile_qr_scan"}, "bike_id": "b51812616341af5b7ec88823f8cec5a3", "lon": -77.01089316666666}, {"is_reserved": 0, "fusion_lon": 0.0, "fusion_lat": 0.0, "name": "790c5ec28bdcb302f381de35dfe9c597", "type": "electric_scooter", "is_disabled": 0, "lat": 38.907212333333334, "rental_uris": {"android": "https://dc.lft.to/lastmile_qr_scan", "ios": "https://dc.lft.to/lastmile_qr_scan"}, "bike_id": "790c5ec28bdcb302f381de35dfe9c597", "lon": -77.0163855}, {"is_reserved": 0, "fusion_lon": 0.0, "fusion_lat": 0.0, "name": "d9459bf205a2fa778b76fa0e489451bd", "type": "electric_scooter", "is_disabled": 0, "lat": 38.91530316666667, "rental_uris": {"android": "https://dc.lft.to/lastmile_qr_scan", "ios": "https://dc.lft.to/lastmile_qr_scan"}, "bike_id": "d9459bf205a2fa778b76fa0e489451bd", "lon": -77.07417383333333}, {"is_reserved": 0, "fusion_lon": 0.0, "fusion_lat": 0.0, "name": "b897f1ab9a4fe945b5684dc6539c611a", "type": "electric_scooter", "is_disabled": 0, "lat": 38.893089333333336, "rental_uris": {"android": "https://dc.lft.to/lastmile_qr_scan", "ios": "https://dc.lft.to/lastmile_qr_scan"}, "bike_id": "b897f1ab9a4fe945b5684dc6539c611a", "lon": -77.05008133333334}, {"is_reserved": 0, "fusion_lon": 0.0, "fusion_lat": 0.0, "name": "a62f4f113d67ec949f8c282b8c972d64", "type": "electric_scooter", "is_disabled": 0, "lat": 38.877125666666664, "rental_uris": {"android": "https://dc.lft.to/lastmile_qr_scan", "ios": "https://dc.lft.to/lastmile_qr_scan"}, "bike_id": "a62f4f113d67ec949f8c282b8c972d64", "lon": -77.01764366666667}, {"is_reserved": 0, "fusion_lon": 0.0, "fusion_lat": 0.0, "name": "e9a6720ec3c2a0b0c6be9e34c5bcccc4", "type": "electric_bike", "is_disabled": 0, "lat": 38.884086333333336, "rental_uris": {"android": "https://dc.lft.to/lastmile_qr_scan", "ios": "https://dc.lft.to/lastmile_qr_scan"}, "bike_id": "e9a6720ec3c2a0b0c6be9e34c5bcccc4", "lon": -76.960557}, {"is_reserved": 0, "fusion_lon": 0.0, "fusion_lat": 0.0, "name": "3a3997e594c4c1a0e77556ba7a96d77d", "type": "electric_scooter", "is_disabled": 0, "lat": 38.88129583333333, "rental_uris": {"android": "https://dc.lft.to/lastmile_qr_scan", "ios": "https://dc.lft.to/lastmile_qr_scan"}, "bike_id": "3a3997e594c4c1a0e77556ba7a96d77d", "lon": -77.016569}, {"is_reserved": 0, "fusion_lon": 0.0, "fusion_lat": 0.0, "name": "4eaae0239854263d95d45e2fb0290d60", "type": "electric_scooter", "is_disabled": 0, "lat": 38.90975916666667, "rental_uris": {"android": "https://dc.lft.to/lastmile_qr_scan", "ios": "https://dc.lft.to/lastmile_qr_scan"}, "bike_id": "4eaae0239854263d95d45e2fb0290d60", "lon": -77.04221483333333}, {"is_reserved": 0, "fusion_lon": 0.0, "fusion_lat": 0.0, "name": "f2e77cf0af515e910cecd8d370f8e1a0", "type": "electric_scooter", "is_disabled": 0, "lat": 38.936704, "rental_uris": {"android": "https://dc.lft.to/lastmile_qr_scan", "ios": "https://dc.lft.to/lastmile_qr_scan"}, "bike_id": "f2e77cf0af515e910cecd8d370f8e1a0", "lon": -77.03577783333333}, {"is_reserved": 0, "fusion_lon": 0.0, "fusion_lat": 0.0, "name": "a3f0ec7e92d00f9d275bd0b6e78109a8", "type": "electric_scooter", "is_disabled": 0, "lat": 38.907314166666666, "rental_uris": {"android": "https://dc.lft.to/lastmile_qr_scan", "ios": "https://dc.lft.to/lastmile_qr_scan"}, "bike_id": "a3f0ec7e92d00f9d275bd0b6e78109a8", "lon": -76.98692183333333}, {"is_reserved": 0, "fusion_lon": 0.0, "fusion_lat": 0.0, "name": "a0c6cf3acaeca0e81c653305328a51d6", "type": "electric_scooter", "is_disabled": 0, "lat": 38.919915333333336, "rental_uris": {"android": "https://dc.lft.to/lastmile_qr_scan", "ios": "https://dc.lft.to/lastmile_qr_scan"}, "bike_id": "a0c6cf3acaeca0e81c653305328a51d6", "lon": -77.0324555}, {"is_reserved": 0, "fusion_lon": 0.0, "fusion_lat": 0.0, "name": "1a67ef4df3e6c5a59c7deec2f81b0788", "type": "electric_bike", "is_disabled": 0, "lat": 38.9592795, "rental_uris": {"android": "https://dc.lft.to/lastmile_qr_scan", "ios": "https://dc.lft.to/lastmile_qr_scan"}, "bike_id": "1a67ef4df3e6c5a59c7deec2f81b0788", "lon": -76.925366}, {"is_reserved": 0, "fusion_lon": 0.0, "fusion_lat": 0.0, "name": "9877081104443e871d4d2954a57a0925", "type": "electric_scooter", "is_disabled": 0, "lat": 38.8723515, "rental_uris": {"android": "https://dc.lft.to/lastmile_qr_scan", "ios": "https://dc.lft.to/lastmile_qr_scan"}, "bike_id": "9877081104443e871d4d2954a57a0925", "lon": -77.0115985}, {"is_reserved": 0, "fusion_lon": 0.0, "fusion_lat": 0.0, "name": "d699e1ff25682402dcdff210b6cfca17", "type": "electric_scooter", "is_disabled": 0, "lat": 38.900469666666666, "rental_uris": {"android": "https://dc.lft.to/lastmile_qr_scan", "ios": "https://dc.lft.to/lastmile_qr_scan"}, "bike_id": "d699e1ff25682402dcdff210b6cfca17", "lon": -77.04245966666667}, {"is_reserved": 0, "fusion_lon": 0.0, "fusion_lat": 0.0, "name": "a15c4081c00f168e20168911c49a02b3", "type": "electric_scooter", "is_disabled": 0, "lat": 38.89223533333333, "rental_uris": {"android": "https://dc.lft.to/lastmile_qr_scan", "ios": "https://dc.lft.to/lastmile_qr_scan"}, "bike_id": "a15c4081c00f168e20168911c49a02b3", "lon": -77.04376283333333}, {"is_reserved": 0, "fusion_lon": 0.0, "fusion_lat": 0.0, "name": "63d48b6e20e107140d683924abf8adb5", "type": "electric_scooter", "is_disabled": 0, "lat": 38.8922215, "rental_uris": {"android": "https://dc.lft.to/lastmile_qr_scan", "ios": "https://dc.lft.to/lastmile_qr_scan"}, "bike_id": "63d48b6e20e107140d683924abf8adb5", "lon": -77.04370733333333}, {"is_reserved": 0, "fusion_lon": 0.0, "fusion_lat": 0.0, "name": "142973f05ca71c4ee7f2225b6666d727", "type": "electric_scooter", "is_disabled": 0, "lat": 38.892997333333334, "rental_uris": {"android": "https://dc.lft.to/lastmile_qr_scan", "ios": "https://dc.lft.to/lastmile_qr_scan"}, "bike_id": "142973f05ca71c4ee7f2225b6666d727", "lon": -76.93927183333334}, {"is_reserved": 0, "fusion_lon": 0.0, "fusion_lat": 0.0, "name": "e4348fb67a4e076a2aa357c8b51b425a", "type": "electric_scooter", "is_disabled": 0, "lat": 38.92829033333334, "rental_uris": {"android": "https://dc.lft.to/lastmile_qr_scan", "ios": "https://dc.lft.to/lastmile_qr_scan"}, "bike_id": "e4348fb67a4e076a2aa357c8b51b425a", "lon": -77.02254133333334}, {"is_reserved": 0, "fusion_lon": 0.0, "fusion_lat": 0.0, "name": "26b7f68558b30bd16e44aba5e736d96a", "type": "electric_scooter", "is_disabled": 0, "lat": 38.904338333333335, "rental_uris": {"android": "https://dc.lft.to/lastmile_qr_scan", "ios": "https://dc.lft.to/lastmile_qr_scan"}, "bike_id": "26b7f68558b30bd16e44aba5e736d96a", "lon": -77.025901}, {"is_reserved": 0, "fusion_lon": 0.0, "fusion_lat": 0.0, "name": "5f8505f355208af1608132f336a7f66f", "type": "electric_scooter", "is_disabled": 0, "lat": 38.896125166666664, "rental_uris": {"android": "https://dc.lft.to/lastmile_qr_scan", "ios": "https://dc.lft.to/lastmile_qr_scan"}, "bike_id": "5f8505f355208af1608132f336a7f66f", "lon": -77.03205266666667}, {"is_reserved": 0, "fusion_lon": 0.0, "fusion_lat": 0.0, "name": "d1d332610929a0774c93f01237d3a55d", "type": "electric_scooter", "is_disabled": 0, "lat": 38.905430833333334, "rental_uris": {"android": "https://dc.lft.to/lastmile_qr_scan", "ios": "https://dc.lft.to/lastmile_qr_scan"}, "bike_id": "d1d332610929a0774c93f01237d3a55d", "lon": -77.00709133333334}, {"is_reserved": 0, "fusion_lon": 0.0, "fusion_lat": 0.0, "name": "f87702cf0d8158610b83052a93adc247", "type": "electric_scooter", "is_disabled": 0, "lat": 38.917899166666665, "rental_uris": {"android": "https://dc.lft.to/lastmile_qr_scan", "ios": "https://dc.lft.to/lastmile_qr_scan"}, "bike_id": "f87702cf0d8158610b83052a93adc247", "lon": -77.025888}, {"is_reserved": 0, "fusion_lon": 0.0, "fusion_lat": 0.0, "name": "8792462e84f382da90bcce4c4fee2029", "type": "electric_scooter", "is_disabled": 0, "lat": 38.90268416666667, "rental_uris": {"android": "https://dc.lft.to/lastmile_qr_scan", "ios": "https://dc.lft.to/lastmile_qr_scan"}, "bike_id": "8792462e84f382da90bcce4c4fee2029", "lon": -77.03144816666666}, {"is_reserved": 0, "fusion_lon": 0.0, "fusion_lat": 0.0, "name": "a0e2998ccaff82e9b6db006b18941c5b", "type": "electric_scooter", "is_disabled": 0, "lat": 38.89016866666667, "rental_uris": {"android": "https://dc.lft.to/lastmile_qr_scan", "ios": "https://dc.lft.to/lastmile_qr_scan"}, "bike_id": "a0e2998ccaff82e9b6db006b18941c5b", "lon": -76.93735433333333}, {"is_reserved": 0, "fusion_lon": 0.0, "fusion_lat": 0.0, "name": "ab57b84e897406844d2aa9ecec0ca9e7", "type": "electric_scooter", "is_disabled": 0, "lat": 38.908054166666666, "rental_uris": {"android": "https://dc.lft.to/lastmile_qr_scan", "ios": "https://dc.lft.to/lastmile_qr_scan"}, "bike_id": "ab57b84e897406844d2aa9ecec0ca9e7", "lon": -77.03449866666666}, {"is_reserved": 0, "fusion_lon": 0.0, "fusion_lat": 0.0, "name": "b1a4404a40661de4f9684753b969577b", "type": "electric_scooter", "is_disabled": 0, "lat": 38.922534666666664, "rental_uris": {"android": "https://dc.lft.to/lastmile_qr_scan", "ios": "https://dc.lft.to/lastmile_qr_scan"}, "bike_id": "b1a4404a40661de4f9684753b969577b", "lon": -77.02954666666666}, {"is_reserved": 0, "fusion_lon": 0.0, "fusion_lat": 0.0, "name": "e7f713c10515ce3212ad2b94992fb7cb", "type": "electric_bike", "is_disabled": 0, "lat": 38.88120816666667, "rental_uris": {"android": "https://dc.lft.to/lastmile_qr_scan", "ios": "https://dc.lft.to/lastmile_qr_scan"}, "bike_id": "e7f713c10515ce3212ad2b94992fb7cb", "lon": -77.01658866666666}, {"is_reserved": 0, "fusion_lon": 0.0, "fusion_lat": 0.0, "name": "aa73e08a195d16b7f291087aace26201", "type": "electric_scooter", "is_disabled": 0, "lat": 38.9345475, "rental_uris": {"android": "https://dc.lft.to/lastmile_qr_scan", "ios": "https://dc.lft.to/lastmile_qr_scan"}, "bike_id": "aa73e08a195d16b7f291087aace26201", "lon": -77.0375535}, {"is_reserved": 0, "fusion_lon": 0.0, "fusion_lat": 0.0, "name": "b84a794d97ec86b065008e15a0a24032", "type": "electric_scooter", "is_disabled": 0, "lat": 38.900266333333335, "rental_uris": {"android": "https://dc.lft.to/lastmile_qr_scan", "ios": "https://dc.lft.to/lastmile_qr_scan"}, "bike_id": "b84a794d97ec86b065008e15a0a24032", "lon": -76.98861383333333}, {"is_reserved": 0, "fusion_lon": 0.0, "fusion_lat": 0.0, "name": "d5ea24e8e22add6c38d3b6df9983e690", "type": "electric_scooter", "is_disabled": 0, "lat": 38.907237, "rental_uris": {"android": "https://dc.lft.to/lastmile_qr_scan", "ios": "https://dc.lft.to/lastmile_qr_scan"}, "bike_id": "d5ea24e8e22add6c38d3b6df9983e690", "lon": -77.04162183333334}, {"is_reserved": 0, "fusion_lon": 0.0, "fusion_lat": 0.0, "name": "cc71b0bacbf1aa31c012dbdb84ab355b", "type": "electric_scooter", "is_disabled": 0, "lat": 38.93622666666667, "rental_uris": {"android": "https://dc.lft.to/lastmile_qr_scan", "ios": "https://dc.lft.to/lastmile_qr_scan"}, "bike_id": "cc71b0bacbf1aa31c012dbdb84ab355b", "lon": -77.05897666666667}, {"is_reserved": 0, "fusion_lon": 0.0, "fusion_lat": 0.0, "name": "b8ae88f7848369cc7b573bae2437b268", "type": "electric_scooter", "is_disabled": 0, "lat": 38.930205, "rental_uris": {"android": "https://dc.lft.to/lastmile_qr_scan", "ios": "https://dc.lft.to/lastmile_qr_scan"}, "bike_id": "b8ae88f7848369cc7b573bae2437b268", "lon": -77.05527233333333}, {"is_reserved": 0, "fusion_lon": 0.0, "fusion_lat": 0.0, "name": "4c80b8a02ea3f88d4ab5abd8f1ab17f8", "type": "electric_scooter", "is_disabled": 0, "lat": 38.941849166666664, "rental_uris": {"android": "https://dc.lft.to/lastmile_qr_scan", "ios": "https://dc.lft.to/lastmile_qr_scan"}, "bike_id": "4c80b8a02ea3f88d4ab5abd8f1ab17f8", "lon": -77.02488166666667}, {"is_reserved": 0, "fusion_lon": 0.0, "fusion_lat": 0.0, "name": "3a01aa3e0bae04297d0f9391fa2e9c34", "type": "electric_scooter", "is_disabled": 0, "lat": 38.904584, "rental_uris": {"android": "https://dc.lft.to/lastmile_qr_scan", "ios": "https://dc.lft.to/lastmile_qr_scan"}, "bike_id": "3a01aa3e0bae04297d0f9391fa2e9c34", "lon": -77.04806833333333}, {"is_reserved": 0, "fusion_lon": 0.0, "fusion_lat": 0.0, "name": "4d647b1f818bba73eb42583707bad49d", "type": "electric_bike", "is_disabled": 0, "lat": 38.993432, "rental_uris": {"android": "https://dc.lft.to/lastmile_qr_scan", "ios": "https://dc.lft.to/lastmile_qr_scan"}, "bike_id": "4d647b1f818bba73eb42583707bad49d", "lon": -77.11576316666667}, {"is_reserved": 0, "fusion_lon": 0.0, "fusion_lat": 0.0, "name": "7b26f3cd2999d367df15cf0e08cb7dd0", "type": "electric_scooter", "is_disabled": 0, "lat": 38.93147883333334, "rental_uris": {"android": "https://dc.lft.to/lastmile_qr_scan", "ios": "https://dc.lft.to/lastmile_qr_scan"}, "bike_id": "7b26f3cd2999d367df15cf0e08cb7dd0", "lon": -77.032444}, {"is_reserved": 0, "fusion_lon": 0.0, "fusion_lat": 0.0, "name": "5ac17fb1f5d920bca5accf2f851911b5", "type": "electric_scooter", "is_disabled": 0, "lat": 38.90255766666667, "rental_uris": {"android": "https://dc.lft.to/lastmile_qr_scan", "ios": "https://dc.lft.to/lastmile_qr_scan"}, "bike_id": "5ac17fb1f5d920bca5accf2f851911b5", "lon": -77.03369966666666}, {"is_reserved": 0, "fusion_lon": 0.0, "fusion_lat": 0.0, "name": "760030e1410747952c740fe43000f738", "type": "electric_bike", "is_disabled": 0, "lat": 38.845584333333335, "rental_uris": {"android": "https://dc.lft.to/lastmile_qr_scan", "ios": "https://dc.lft.to/lastmile_qr_scan"}, "bike_id": "760030e1410747952c740fe43000f738", "lon": -77.0669055}, {"is_reserved": 0, "fusion_lon": 0.0, "fusion_lat": 0.0, "name": "b8071ce039456962094e41eaaad6a3c9", "type": "electric_scooter", "is_disabled": 0, "lat": 38.8861705, "rental_uris": {"android": "https://dc.lft.to/lastmile_qr_scan", "ios": "https://dc.lft.to/lastmile_qr_scan"}, "bike_id": "b8071ce039456962094e41eaaad6a3c9", "lon": -77.019882}, {"is_reserved": 0, "fusion_lon": 0.0, "fusion_lat": 0.0, "name": "fbee6a82b6699484bf4ba7badf12a953", "type": "electric_scooter", "is_disabled": 0, "lat": 38.892207166666665, "rental_uris": {"android": "https://dc.lft.to/lastmile_qr_scan", "ios": "https://dc.lft.to/lastmile_qr_scan"}, "bike_id": "fbee6a82b6699484bf4ba7badf12a953", "lon": -76.95698033333333}, {"is_reserved": 0, "fusion_lon": 0.0, "fusion_lat": 0.0, "name": "18674937054c8ddd0ea149c45ea9f963", "type": "electric_scooter", "is_disabled": 0, "lat": 38.94504716666667, "rental_uris": {"android": "https://dc.lft.to/lastmile_qr_scan", "ios": "https://dc.lft.to/lastmile_qr_scan"}, "bike_id": "18674937054c8ddd0ea149c45ea9f963", "lon": -77.03498316666666}, {"is_reserved": 0, "fusion_lon": 0.0, "fusion_lat": 0.0, "name": "6856d77644c735c0577896a2542bb874", "type": "electric_scooter", "is_disabled": 0, "lat": 38.878475333333334, "rental_uris": {"android": "https://dc.lft.to/lastmile_qr_scan", "ios": "https://dc.lft.to/lastmile_qr_scan"}, "bike_id": "6856d77644c735c0577896a2542bb874", "lon": -77.01969966666667}, {"is_reserved": 0, "fusion_lon": 0.0, "fusion_lat": 0.0, "name": "ec7850ccc7801ab8d13636c8c982fb75", "type": "electric_scooter", "is_disabled": 0, "lat": 38.918241333333334, "rental_uris": {"android": "https://dc.lft.to/lastmile_qr_scan", "ios": "https://dc.lft.to/lastmile_qr_scan"}, "bike_id": "ec7850ccc7801ab8d13636c8c982fb75", "lon": -77.012117}, {"is_reserved": 0, "fusion_lon": 0.0, "fusion_lat": 0.0, "name": "0eac79b5046dfc6c28996c5497029f47", "type": "electric_scooter", "is_disabled": 0, "lat": 38.90084233333333, "rental_uris": {"android": "https://dc.lft.to/lastmile_qr_scan", "ios": "https://dc.lft.to/lastmile_qr_scan"}, "bike_id": "0eac79b5046dfc6c28996c5497029f47", "lon": -76.93024166666666}, {"is_reserved": 0, "fusion_lon": 0.0, "fusion_lat": 0.0, "name": "e00179f8ae4e00d7ecea168b5a735db3", "type": "electric_scooter", "is_disabled": 0, "lat": 38.9420565, "rental_uris": {"android": "https://dc.lft.to/lastmile_qr_scan", "ios": "https://dc.lft.to/lastmile_qr_scan"}, "bike_id": "e00179f8ae4e00d7ecea168b5a735db3", "lon": -77.0249945}, {"is_reserved": 0, "fusion_lon": 0.0, "fusion_lat": 0.0, "name": "4f4f28c90463e8092fd32fe009b8c83f", "type": "electric_scooter", "is_disabled": 0, "lat": 38.9251025, "rental_uris": {"android": "https://dc.lft.to/lastmile_qr_scan", "ios": "https://dc.lft.to/lastmile_qr_scan"}, "bike_id": "4f4f28c90463e8092fd32fe009b8c83f", "lon": -77.00225066666667}, {"is_reserved": 0, "fusion_lon": 0.0, "fusion_lat": 0.0, "name": "eb81eeb725140e69d866f48399c23e98", "type": "electric_scooter", "is_disabled": 0, "lat": 38.9334145, "rental_uris": {"android": "https://dc.lft.to/lastmile_qr_scan", "ios": "https://dc.lft.to/lastmile_qr_scan"}, "bike_id": "eb81eeb725140e69d866f48399c23e98", "lon": -77.02623433333333}, {"is_reserved": 0, "fusion_lon": 0.0, "fusion_lat": 0.0, "name": "c6ee5cc1444be995832bfcf5896e5bd4", "type": "electric_scooter", "is_disabled": 0, "lat": 38.911261833333334, "rental_uris": {"android": "https://dc.lft.to/lastmile_qr_scan", "ios": "https://dc.lft.to/lastmile_qr_scan"}, "bike_id": "c6ee5cc1444be995832bfcf5896e5bd4", "lon": -77.04417916666667}, {"is_reserved": 0, "fusion_lon": 0.0, "fusion_lat": 0.0, "name": "ce69e4f37fd112043f92cc0e36b6e4df", "type": "electric_scooter", "is_disabled": 0, "lat": 38.90188533333333, "rental_uris": {"android": "https://dc.lft.to/lastmile_qr_scan", "ios": "https://dc.lft.to/lastmile_qr_scan"}, "bike_id": "ce69e4f37fd112043f92cc0e36b6e4df", "lon": -77.013023}, {"is_reserved": 0, "fusion_lon": 0.0, "fusion_lat": 0.0, "name": "45df5b21682780724ac0b2bb8bb65185", "type": "electric_scooter", "is_disabled": 0, "lat": 38.90131433333333, "rental_uris": {"android": "https://dc.lft.to/lastmile_qr_scan", "ios": "https://dc.lft.to/lastmile_qr_scan"}, "bike_id": "45df5b21682780724ac0b2bb8bb65185", "lon": -77.04015133333333}, {"is_reserved": 0, "fusion_lon": 0.0, "fusion_lat": 0.0, "name": "13521aba02a0c02af3a6511fb11654b7", "type": "electric_scooter", "is_disabled": 0, "lat": 38.926656333333334, "rental_uris": {"android": "https://dc.lft.to/lastmile_qr_scan", "ios": "https://dc.lft.to/lastmile_qr_scan"}, "bike_id": "13521aba02a0c02af3a6511fb11654b7", "lon": -77.022753}, {"is_reserved": 0, "fusion_lon": 0.0, "fusion_lat": 0.0, "name": "a1fbbc6da69ce34e69fd533ff11836d1", "type": "electric_bike", "is_disabled": 0, "lat": 38.96467633333334, "rental_uris": {"android": "https://dc.lft.to/lastmile_qr_scan", "ios": "https://dc.lft.to/lastmile_qr_scan"}, "bike_id": "a1fbbc6da69ce34e69fd533ff11836d1", "lon": -77.03560116666667}, {"is_reserved": 0, "fusion_lon": 0.0, "fusion_lat": 0.0, "name": "3d6e5f6426dd4df3dde39159ea46b96c", "type": "electric_scooter", "is_disabled": 0, "lat": 38.915794166666664, "rental_uris": {"android": "https://dc.lft.to/lastmile_qr_scan", "ios": "https://dc.lft.to/lastmile_qr_scan"}, "bike_id": "3d6e5f6426dd4df3dde39159ea46b96c", "lon": -77.0319355}, {"is_reserved": 0, "fusion_lon": 0.0, "fusion_lat": 0.0, "name": "1e1f926ccdf5ab7b4ced5fa9a796658e", "type": "electric_scooter", "is_disabled": 0, "lat": 38.89611683333333, "rental_uris": {"android": "https://dc.lft.to/lastmile_qr_scan", "ios": "https://dc.lft.to/lastmile_qr_scan"}, "bike_id": "1e1f926ccdf5ab7b4ced5fa9a796658e", "lon": -77.02210033333333}, {"is_reserved": 0, "fusion_lon": 0.0, "fusion_lat": 0.0, "name": "c8655274cdc522db453d1eb28ad4c373", "type": "electric_scooter", "is_disabled": 0, "lat": 38.890345833333335, "rental_uris": {"android": "https://dc.lft.to/lastmile_qr_scan", "ios": "https://dc.lft.to/lastmile_qr_scan"}, "bike_id": "c8655274cdc522db453d1eb28ad4c373", "lon": -76.93754166666666}, {"is_reserved": 0, "fusion_lon": 0.0, "fusion_lat": 0.0, "name": "fea64453e5da1f56425e76d63f470b3b", "type": "electric_scooter", "is_disabled": 0, "lat": 38.91661833333333, "rental_uris": {"android": "https://dc.lft.to/lastmile_qr_scan", "ios": "https://dc.lft.to/lastmile_qr_scan"}, "bike_id": "fea64453e5da1f56425e76d63f470b3b", "lon": -77.03848316666667}, {"is_reserved": 0, "fusion_lon": 0.0, "fusion_lat": 0.0, "name": "5dc689a184794462fb2646420aae9cd9", "type": "electric_bike", "is_disabled": 0, "lat": 38.81202616666667, "rental_uris": {"android": "https://dc.lft.to/lastmile_qr_scan", "ios": "https://dc.lft.to/lastmile_qr_scan"}, "bike_id": "5dc689a184794462fb2646420aae9cd9", "lon": -77.10842366666667}, {"is_reserved": 0, "fusion_lon": 0.0, "fusion_lat": 0.0, "name": "9d96269cb483ad3d10bbf4248e78b3ea", "type": "electric_bike", "is_disabled": 0, "lat": 38.94894433333333, "rental_uris": {"android": "https://dc.lft.to/lastmile_qr_scan", "ios": "https://dc.lft.to/lastmile_qr_scan"}, "bike_id": "9d96269cb483ad3d10bbf4248e78b3ea", "lon": -77.03443333333334}, {"is_reserved": 0, "fusion_lon": 0.0, "fusion_lat": 0.0, "name": "3514357f4e221653a422be074476f5e1", "type": "electric_bike", "is_disabled": 0, "lat": 38.7967895, "rental_uris": {"android": "https://dc.lft.to/lastmile_qr_scan", "ios": "https://dc.lft.to/lastmile_qr_scan"}, "bike_id": "3514357f4e221653a422be074476f5e1", "lon": -76.99331316666667}, {"is_reserved": 0, "fusion_lon": 0.0, "fusion_lat": 0.0, "name": "af5911595fab21b76218c408bf1e35a7", "type": "electric_scooter", "is_disabled": 0, "lat": 38.88742366666666, "rental_uris": {"android": "https://dc.lft.to/lastmile_qr_scan", "ios": "https://dc.lft.to/lastmile_qr_scan"}, "bike_id": "af5911595fab21b76218c408bf1e35a7", "lon": -77.0220935}, {"is_reserved": 0, "fusion_lon": 0.0, "fusion_lat": 0.0, "name": "5c1f77ecaee8b823174f53772d2623b0", "type": "electric_scooter", "is_disabled": 0, "lat": 38.89316733333333, "rental_uris": {"android": "https://dc.lft.to/lastmile_qr_scan", "ios": "https://dc.lft.to/lastmile_qr_scan"}, "bike_id": "5c1f77ecaee8b823174f53772d2623b0", "lon": -77.01793216666667}, {"is_reserved": 0, "fusion_lon": 0.0, "fusion_lat": 0.0, "name": "ecf27d0a83d623d81b3f5791b7e45a7e", "type": "electric_scooter", "is_disabled": 0, "lat": 38.89165533333333, "rental_uris": {"android": "https://dc.lft.to/lastmile_qr_scan", "ios": "https://dc.lft.to/lastmile_qr_scan"}, "bike_id": "ecf27d0a83d623d81b3f5791b7e45a7e", "lon": -76.95177966666667}, {"is_reserved": 0, "fusion_lon": 0.0, "fusion_lat": 0.0, "name": "388b836d6dfd16b0d62e177d8d939c6e", "type": "electric_scooter", "is_disabled": 0, "lat": 38.900726166666665, "rental_uris": {"android": "https://dc.lft.to/lastmile_qr_scan", "ios": "https://dc.lft.to/lastmile_qr_scan"}, "bike_id": "388b836d6dfd16b0d62e177d8d939c6e", "lon": -77.00210583333333}, {"is_reserved": 0, "fusion_lon": 0.0, "fusion_lat": 0.0, "name": "6eea82abb43e1fba6c0c1b401aa4590f", "type": "electric_scooter", "is_disabled": 0, "lat": 38.902354833333334, "rental_uris": {"android": "https://dc.lft.to/lastmile_qr_scan", "ios": "https://dc.lft.to/lastmile_qr_scan"}, "bike_id": "6eea82abb43e1fba6c0c1b401aa4590f", "lon": -77.05333316666666}, {"is_reserved": 0, "fusion_lon": 0.0, "fusion_lat": 0.0, "name": "fcd20f15f789d6da02a9253cae372224", "type": "electric_bike", "is_disabled": 0, "lat": 38.95645366666667, "rental_uris": {"android": "https://dc.lft.to/lastmile_qr_scan", "ios": "https://dc.lft.to/lastmile_qr_scan"}, "bike_id": "fcd20f15f789d6da02a9253cae372224", "lon": -77.02255766666667}, {"is_reserved": 0, "fusion_lon": 0.0, "fusion_lat": 0.0, "name": "d68147a590e145dace94f38c970d2d8f", "type": "electric_bike", "is_disabled": 0, "lat": 38.8065885, "rental_uris": {"android": "https://dc.lft.to/lastmile_qr_scan", "ios": "https://dc.lft.to/lastmile_qr_scan"}, "bike_id": "d68147a590e145dace94f38c970d2d8f", "lon": -77.087627}, {"is_reserved": 0, "fusion_lon": 0.0, "fusion_lat": 0.0, "name": "ceeebf5dd311931f6cac28ff171bd7a3", "type": "electric_scooter", "is_disabled": 0, "lat": 38.90383833333333, "rental_uris": {"android": "https://dc.lft.to/lastmile_qr_scan", "ios": "https://dc.lft.to/lastmile_qr_scan"}, "bike_id": "ceeebf5dd311931f6cac28ff171bd7a3", "lon": -77.04198466666666}, {"is_reserved": 0, "fusion_lon": 0.0, "fusion_lat": 0.0, "name": "278182a1f2653b026bbcc387e80f591a", "type": "electric_scooter", "is_disabled": 0, "lat": 38.910979166666664, "rental_uris": {"android": "https://dc.lft.to/lastmile_qr_scan", "ios": "https://dc.lft.to/lastmile_qr_scan"}, "bike_id": "278182a1f2653b026bbcc387e80f591a", "lon": -77.02798583333333}, {"is_reserved": 0, "fusion_lon": 0.0, "fusion_lat": 0.0, "name": "1cae2fb22cc127d61e6d5d081f579fe0", "type": "electric_scooter", "is_disabled": 0, "lat": 38.934085333333336, "rental_uris": {"android": "https://dc.lft.to/lastmile_qr_scan", "ios": "https://dc.lft.to/lastmile_qr_scan"}, "bike_id": "1cae2fb22cc127d61e6d5d081f579fe0", "lon": -77.03268216666666}, {"is_reserved": 0, "fusion_lon": 0.0, "fusion_lat": 0.0, "name": "f1d1f194861cfbc14c2ee04898575bd3", "type": "electric_scooter", "is_disabled": 0, "lat": 38.9302165, "rental_uris": {"android": "https://dc.lft.to/lastmile_qr_scan", "ios": "https://dc.lft.to/lastmile_qr_scan"}, "bike_id": "f1d1f194861cfbc14c2ee04898575bd3", "lon": -77.06311666666667}, {"is_reserved": 0, "fusion_lon": 0.0, "fusion_lat": 0.0, "name": "6d4290fc6eb345d6022c9cba98356eef", "type": "electric_bike", "is_disabled": 0, "lat": 38.92468433333333, "rental_uris": {"android": "https://dc.lft.to/lastmile_qr_scan", "ios": "https://dc.lft.to/lastmile_qr_scan"}, "bike_id": "6d4290fc6eb345d6022c9cba98356eef", "lon": -77.03765116666666}, {"is_reserved": 0, "fusion_lon": 0.0, "fusion_lat": 0.0, "name": "392304a9104f14b619e17c5be3d80653", "type": "electric_scooter", "is_disabled": 0, "lat": 38.90219733333333, "rental_uris": {"android": "https://dc.lft.to/lastmile_qr_scan", "ios": "https://dc.lft.to/lastmile_qr_scan"}, "bike_id": "392304a9104f14b619e17c5be3d80653", "lon": -77.04813416666667}, {"is_reserved": 0, "fusion_lon": 0.0, "fusion_lat": 0.0, "name": "e1cbd594b3cac78fd3cd78a71c4b52fb", "type": "electric_scooter", "is_disabled": 0, "lat": 38.9040925, "rental_uris": {"android": "https://dc.lft.to/lastmile_qr_scan", "ios": "https://dc.lft.to/lastmile_qr_scan"}, "bike_id": "e1cbd594b3cac78fd3cd78a71c4b52fb", "lon": -76.97332733333333}, {"is_reserved": 0, "fusion_lon": 0.0, "fusion_lat": 0.0, "name": "bff3681c444e1de83350b5bc6d6a46c1", "type": "electric_scooter", "is_disabled": 0, "lat": 38.921829333333335, "rental_uris": {"android": "https://dc.lft.to/lastmile_qr_scan", "ios": "https://dc.lft.to/lastmile_qr_scan"}, "bike_id": "bff3681c444e1de83350b5bc6d6a46c1", "lon": -77.04352333333334}, {"is_reserved": 0, "fusion_lon": 0.0, "fusion_lat": 0.0, "name": "e3bde00869817cec05a58a8386988488", "type": "electric_scooter", "is_disabled": 0, "lat": 38.921405, "rental_uris": {"android": "https://dc.lft.to/lastmile_qr_scan", "ios": "https://dc.lft.to/lastmile_qr_scan"}, "bike_id": "e3bde00869817cec05a58a8386988488", "lon": -77.04532816666666}, {"is_reserved": 0, "fusion_lon": 0.0, "fusion_lat": 0.0, "name": "02be42c5c062060fb474ae760fd313d2", "type": "electric_bike", "is_disabled": 0, "lat": 39.05052216666667, "rental_uris": {"android": "https://dc.lft.to/lastmile_qr_scan", "ios": "https://dc.lft.to/lastmile_qr_scan"}, "bike_id": "02be42c5c062060fb474ae760fd313d2", "lon": -77.051509}, {"is_reserved": 0, "fusion_lon": 0.0, "fusion_lat": 0.0, "name": "247642a2c53ebb832b16dca3bb2c74e1", "type": "electric_scooter", "is_disabled": 0, "lat": 38.8856135, "rental_uris": {"android": "https://dc.lft.to/lastmile_qr_scan", "ios": "https://dc.lft.to/lastmile_qr_scan"}, "bike_id": "247642a2c53ebb832b16dca3bb2c74e1", "lon": -76.997973}, {"is_reserved": 0, "fusion_lon": 0.0, "fusion_lat": 0.0, "name": "9da7cc2b1b24e7f27d6c85907b43b90f", "type": "electric_scooter", "is_disabled": 0, "lat": 38.917146333333335, "rental_uris": {"android": "https://dc.lft.to/lastmile_qr_scan", "ios": "https://dc.lft.to/lastmile_qr_scan"}, "bike_id": "9da7cc2b1b24e7f27d6c85907b43b90f", "lon": -77.038566}, {"is_reserved": 0, "fusion_lon": 0.0, "fusion_lat": 0.0, "name": "7d12c73444251a2b2240641cc32474c2", "type": "electric_bike", "is_disabled": 0, "lat": 38.83236866666667, "rental_uris": {"android": "https://dc.lft.to/lastmile_qr_scan", "ios": "https://dc.lft.to/lastmile_qr_scan"}, "bike_id": "7d12c73444251a2b2240641cc32474c2", "lon": -76.94618816666667}, {"is_reserved": 0, "fusion_lon": 0.0, "fusion_lat": 0.0, "name": "e7e7a966670b541b36d6e5e8aa1a4e9a", "type": "electric_scooter", "is_disabled": 0, "lat": 38.876888, "rental_uris": {"android": "https://dc.lft.to/lastmile_qr_scan", "ios": "https://dc.lft.to/lastmile_qr_scan"}, "bike_id": "e7e7a966670b541b36d6e5e8aa1a4e9a", "lon": -77.00443966666667}, {"is_reserved": 0, "fusion_lon": 0.0, "fusion_lat": 0.0, "name": "17237a6a38dbf847abcadec43bc806a8", "type": "electric_scooter", "is_disabled": 0, "lat": 38.90031616666667, "rental_uris": {"android": "https://dc.lft.to/lastmile_qr_scan", "ios": "https://dc.lft.to/lastmile_qr_scan"}, "bike_id": "17237a6a38dbf847abcadec43bc806a8", "lon": -76.9886305}, {"is_reserved": 0, "fusion_lon": 0.0, "fusion_lat": 0.0, "name": "a44302de300affb07f15c00e5473bc7a", "type": "electric_scooter", "is_disabled": 0, "lat": 38.9044845, "rental_uris": {"android": "https://dc.lft.to/lastmile_qr_scan", "ios": "https://dc.lft.to/lastmile_qr_scan"}, "bike_id": "a44302de300affb07f15c00e5473bc7a", "lon": -76.9962585}, {"is_reserved": 0, "fusion_lon": 0.0, "fusion_lat": 0.0, "name": "d8f65cd5353738cfbf6d6e9743f159c5", "type": "electric_scooter", "is_disabled": 0, "lat": 38.9101595, "rental_uris": {"android": "https://dc.lft.to/lastmile_qr_scan", "ios": "https://dc.lft.to/lastmile_qr_scan"}, "bike_id": "d8f65cd5353738cfbf6d6e9743f159c5", "lon": -77.06489666666667}, {"is_reserved": 0, "fusion_lon": 0.0, "fusion_lat": 0.0, "name": "9f1646479e68a910907e5b6eb2f9ec77", "type": "electric_scooter", "is_disabled": 0, "lat": 38.9241985, "rental_uris": {"android": "https://dc.lft.to/lastmile_qr_scan", "ios": "https://dc.lft.to/lastmile_qr_scan"}, "bike_id": "9f1646479e68a910907e5b6eb2f9ec77", "lon": -77.03548666666667}, {"is_reserved": 0, "fusion_lon": 0.0, "fusion_lat": 0.0, "name": "e0477cb8f6b374726d14d1b7f5057712", "type": "electric_scooter", "is_disabled": 0, "lat": 38.918327, "rental_uris": {"android": "https://dc.lft.to/lastmile_qr_scan", "ios": "https://dc.lft.to/lastmile_qr_scan"}, "bike_id": "e0477cb8f6b374726d14d1b7f5057712", "lon": -77.02463783333333}, {"is_reserved": 0, "fusion_lon": 0.0, "fusion_lat": 0.0, "name": "e4c38ee56c3059d773c749f22ced7607", "type": "electric_scooter", "is_disabled": 0, "lat": 38.914151, "rental_uris": {"android": "https://dc.lft.to/lastmile_qr_scan", "ios": "https://dc.lft.to/lastmile_qr_scan"}, "bike_id": "e4c38ee56c3059d773c749f22ced7607", "lon": -77.02149766666666}, {"is_reserved": 0, "fusion_lon": 0.0, "fusion_lat": 0.0, "name": "14132995cbdf1775aada1ec0ee78c191", "type": "electric_scooter", "is_disabled": 0, "lat": 38.89553866666667, "rental_uris": {"android": "https://dc.lft.to/lastmile_qr_scan", "ios": "https://dc.lft.to/lastmile_qr_scan"}, "bike_id": "14132995cbdf1775aada1ec0ee78c191", "lon": -77.02777983333333}, {"is_reserved": 0, "fusion_lon": 0.0, "fusion_lat": 0.0, "name": "83d15d7c26980289449ef0d4741b6228", "type": "electric_scooter", "is_disabled": 0, "lat": 38.90791883333333, "rental_uris": {"android": "https://dc.lft.to/lastmile_qr_scan", "ios": "https://dc.lft.to/lastmile_qr_scan"}, "bike_id": "83d15d7c26980289449ef0d4741b6228", "lon": -77.03444183333333}, {"is_reserved": 0, "fusion_lon": 0.0, "fusion_lat": 0.0, "name": "03748af83128454f5e23eed8a030430d", "type": "electric_scooter", "is_disabled": 0, "lat": 38.89998683333334, "rental_uris": {"android": "https://dc.lft.to/lastmile_qr_scan", "ios": "https://dc.lft.to/lastmile_qr_scan"}, "bike_id": "03748af83128454f5e23eed8a030430d", "lon": -76.9983885}, {"is_reserved": 0, "fusion_lon": 0.0, "fusion_lat": 0.0, "name": "e12b1b13f63ec4fc5e949a7f19d6912c", "type": "electric_scooter", "is_disabled": 0, "lat": 38.92575, "rental_uris": {"android": "https://dc.lft.to/lastmile_qr_scan", "ios": "https://dc.lft.to/lastmile_qr_scan"}, "bike_id": "e12b1b13f63ec4fc5e949a7f19d6912c", "lon": -77.0526285}, {"is_reserved": 0, "fusion_lon": 0.0, "fusion_lat": 0.0, "name": "45f985589c39bedf6c08be6d667255ac", "type": "electric_scooter", "is_disabled": 0, "lat": 38.908076666666666, "rental_uris": {"android": "https://dc.lft.to/lastmile_qr_scan", "ios": "https://dc.lft.to/lastmile_qr_scan"}, "bike_id": "45f985589c39bedf6c08be6d667255ac", "lon": -77.04334316666667}, {"is_reserved": 0, "fusion_lon": 0.0, "fusion_lat": 0.0, "name": "7edb51da69fe430b53917232bd728ec4", "type": "electric_scooter", "is_disabled": 0, "lat": 38.922451833333334, "rental_uris": {"android": "https://dc.lft.to/lastmile_qr_scan", "ios": "https://dc.lft.to/lastmile_qr_scan"}, "bike_id": "7edb51da69fe430b53917232bd728ec4", "lon": -77.03085083333333}, {"is_reserved": 0, "fusion_lon": 0.0, "fusion_lat": 0.0, "name": "f6a13ddbd6ea4e3fdd81c701e400df43", "type": "electric_bike", "is_disabled": 0, "lat": 39.04232233333333, "rental_uris": {"android": "https://dc.lft.to/lastmile_qr_scan", "ios": "https://dc.lft.to/lastmile_qr_scan"}, "bike_id": "f6a13ddbd6ea4e3fdd81c701e400df43", "lon": -76.99738916666666}, {"is_reserved": 0, "fusion_lon": 0.0, "fusion_lat": 0.0, "name": "6cdee2f4b564bbff35ea9aa767527598", "type": "electric_scooter", "is_disabled": 0, "lat": 38.905105, "rental_uris": {"android": "https://dc.lft.to/lastmile_qr_scan", "ios": "https://dc.lft.to/lastmile_qr_scan"}, "bike_id": "6cdee2f4b564bbff35ea9aa767527598", "lon": -77.001389}, {"is_reserved": 0, "fusion_lon": 0.0, "fusion_lat": 0.0, "name": "659df4fba3281b7385bf8b4b10b08881", "type": "electric_scooter", "is_disabled": 0, "lat": 38.90740016666667, "rental_uris": {"android": "https://dc.lft.to/lastmile_qr_scan", "ios": "https://dc.lft.to/lastmile_qr_scan"}, "bike_id": "659df4fba3281b7385bf8b4b10b08881", "lon": -77.02690566666666}, {"is_reserved": 0, "fusion_lon": 0.0, "fusion_lat": 0.0, "name": "c4a75e88970727193fcddaa82cc88322", "type": "electric_scooter", "is_disabled": 0, "lat": 38.91098733333333, "rental_uris": {"android": "https://dc.lft.to/lastmile_qr_scan", "ios": "https://dc.lft.to/lastmile_qr_scan"}, "bike_id": "c4a75e88970727193fcddaa82cc88322", "lon": -77.02967883333334}, {"is_reserved": 0, "fusion_lon": 0.0, "fusion_lat": 0.0, "name": "0fc2df728c5a4687060de8b1a8af4e4e", "type": "electric_scooter", "is_disabled": 0, "lat": 38.9198915, "rental_uris": {"android": "https://dc.lft.to/lastmile_qr_scan", "ios": "https://dc.lft.to/lastmile_qr_scan"}, "bike_id": "0fc2df728c5a4687060de8b1a8af4e4e", "lon": -77.032472}, {"is_reserved": 0, "fusion_lon": 0.0, "fusion_lat": 0.0, "name": "7c7dd9ae61e6864417f5e936eaeea30d", "type": "electric_scooter", "is_disabled": 0, "lat": 38.95170533333334, "rental_uris": {"android": "https://dc.lft.to/lastmile_qr_scan", "ios": "https://dc.lft.to/lastmile_qr_scan"}, "bike_id": "7c7dd9ae61e6864417f5e936eaeea30d", "lon": -77.02744916666667}, {"is_reserved": 0, "fusion_lon": 0.0, "fusion_lat": 0.0, "name": "d570112fc37dd0b27db08efb8769adb3", "type": "electric_scooter", "is_disabled": 0, "lat": 38.895977333333335, "rental_uris": {"android": "https://dc.lft.to/lastmile_qr_scan", "ios": "https://dc.lft.to/lastmile_qr_scan"}, "bike_id": "d570112fc37dd0b27db08efb8769adb3", "lon": -77.00768716666667}, {"is_reserved": 0, "fusion_lon": 0.0, "fusion_lat": 0.0, "name": "ac7b5a1fb08d93e02f362c9e888c7355", "type": "electric_bike", "is_disabled": 0, "lat": 38.902731333333335, "rental_uris": {"android": "https://dc.lft.to/lastmile_qr_scan", "ios": "https://dc.lft.to/lastmile_qr_scan"}, "bike_id": "ac7b5a1fb08d93e02f362c9e888c7355", "lon": -76.92922066666667}, {"is_reserved": 0, "fusion_lon": 0.0, "fusion_lat": 0.0, "name": "b278630411be465bf2beb36bdd4710c1", "type": "electric_bike", "is_disabled": 0, "lat": 38.938594, "rental_uris": {"android": "https://dc.lft.to/lastmile_qr_scan", "ios": "https://dc.lft.to/lastmile_qr_scan"}, "bike_id": "b278630411be465bf2beb36bdd4710c1", "lon": -76.99313533333333}, {"is_reserved": 0, "fusion_lon": 0.0, "fusion_lat": 0.0, "name": "5805e13be3601d8c2098431f022592b6", "type": "electric_scooter", "is_disabled": 0, "lat": 38.972262666666666, "rental_uris": {"android": "https://dc.lft.to/lastmile_qr_scan", "ios": "https://dc.lft.to/lastmile_qr_scan"}, "bike_id": "5805e13be3601d8c2098431f022592b6", "lon": -77.026229}, {"is_reserved": 0, "fusion_lon": 0.0, "fusion_lat": 0.0, "name": "07f8ea07971e6c70cae93aa5422d350b", "type": "electric_scooter", "is_disabled": 0, "lat": 38.90732366666667, "rental_uris": {"android": "https://dc.lft.to/lastmile_qr_scan", "ios": "https://dc.lft.to/lastmile_qr_scan"}, "bike_id": "07f8ea07971e6c70cae93aa5422d350b", "lon": -77.00224233333333}, {"is_reserved": 0, "fusion_lon": 0.0, "fusion_lat": 0.0, "name": "33c74f78e22cb87d38f0d87a70271384", "type": "electric_scooter", "is_disabled": 0, "lat": 38.8922045, "rental_uris": {"android": "https://dc.lft.to/lastmile_qr_scan", "ios": "https://dc.lft.to/lastmile_qr_scan"}, "bike_id": "33c74f78e22cb87d38f0d87a70271384", "lon": -77.043712}, {"is_reserved": 0, "fusion_lon": 0.0, "fusion_lat": 0.0, "name": "6d68d624626eb0a43039bb9a17a649f3", "type": "electric_scooter", "is_disabled": 0, "lat": 38.876793, "rental_uris": {"android": "https://dc.lft.to/lastmile_qr_scan", "ios": "https://dc.lft.to/lastmile_qr_scan"}, "bike_id": "6d68d624626eb0a43039bb9a17a649f3", "lon": -76.99827483333334}, {"is_reserved": 0, "fusion_lon": 0.0, "fusion_lat": 0.0, "name": "65109a89bdd92efb781d025d2a504110", "type": "electric_scooter", "is_disabled": 0, "lat": 38.901546833333335, "rental_uris": {"android": "https://dc.lft.to/lastmile_qr_scan", "ios": "https://dc.lft.to/lastmile_qr_scan"}, "bike_id": "65109a89bdd92efb781d025d2a504110", "lon": -77.02305733333333}, {"is_reserved": 0, "fusion_lon": 0.0, "fusion_lat": 0.0, "name": "4908d722fe7c31b3cbbd33cc841c6ad1", "type": "electric_scooter", "is_disabled": 0, "lat": 38.924010333333335, "rental_uris": {"android": "https://dc.lft.to/lastmile_qr_scan", "ios": "https://dc.lft.to/lastmile_qr_scan"}, "bike_id": "4908d722fe7c31b3cbbd33cc841c6ad1", "lon": -77.02694966666667}, {"is_reserved": 0, "fusion_lon": 0.0, "fusion_lat": 0.0, "name": "4c8ded4346d8dd3a64eaff4a229d83e3", "type": "electric_scooter", "is_disabled": 0, "lat": 38.91713933333333, "rental_uris": {"android": "https://dc.lft.to/lastmile_qr_scan", "ios": "https://dc.lft.to/lastmile_qr_scan"}, "bike_id": "4c8ded4346d8dd3a64eaff4a229d83e3", "lon": -77.0088485}, {"is_reserved": 0, "fusion_lon": 0.0, "fusion_lat": 0.0, "name": "0223289b37773fd084fd7d870c07f560", "type": "electric_scooter", "is_disabled": 0, "lat": 38.901412666666666, "rental_uris": {"android": "https://dc.lft.to/lastmile_qr_scan", "ios": "https://dc.lft.to/lastmile_qr_scan"}, "bike_id": "0223289b37773fd084fd7d870c07f560", "lon": -77.00009616666667}, {"is_reserved": 0, "fusion_lon": 0.0, "fusion_lat": 0.0, "name": "099c2b88488f0f84cd22e039ccb569b2", "type": "electric_scooter", "is_disabled": 0, "lat": 38.89919866666666, "rental_uris": {"android": "https://dc.lft.to/lastmile_qr_scan", "ios": "https://dc.lft.to/lastmile_qr_scan"}, "bike_id": "099c2b88488f0f84cd22e039ccb569b2", "lon": -76.9336915}, {"is_reserved": 0, "fusion_lon": 0.0, "fusion_lat": 0.0, "name": "e7f2d13b23f773226e5984344152a45d", "type": "electric_scooter", "is_disabled": 0, "lat": 38.901556666666664, "rental_uris": {"android": "https://dc.lft.to/lastmile_qr_scan", "ios": "https://dc.lft.to/lastmile_qr_scan"}, "bike_id": "e7f2d13b23f773226e5984344152a45d", "lon": -76.97629783333333}, {"is_reserved": 0, "fusion_lon": 0.0, "fusion_lat": 0.0, "name": "7b680d52d3f8c7264d7a0f1a93629be5", "type": "electric_scooter", "is_disabled": 0, "lat": 38.903776666666666, "rental_uris": {"android": "https://dc.lft.to/lastmile_qr_scan", "ios": "https://dc.lft.to/lastmile_qr_scan"}, "bike_id": "7b680d52d3f8c7264d7a0f1a93629be5", "lon": -77.04049466666666}, {"is_reserved": 0, "fusion_lon": 0.0, "fusion_lat": 0.0, "name": "90ab71b9ee0fe4137c460d741d651e78", "type": "electric_scooter", "is_disabled": 0, "lat": 38.907720833333336, "rental_uris": {"android": "https://dc.lft.to/lastmile_qr_scan", "ios": "https://dc.lft.to/lastmile_qr_scan"}, "bike_id": "90ab71b9ee0fe4137c460d741d651e78", "lon": -77.03833833333333}, {"is_reserved": 0, "fusion_lon": 0.0, "fusion_lat": 0.0, "name": "4bb595b48393b3bee5ff72fea5376876", "type": "electric_bike", "is_disabled": 0, "lat": 38.9618745, "rental_uris": {"android": "https://dc.lft.to/lastmile_qr_scan", "ios": "https://dc.lft.to/lastmile_qr_scan"}, "bike_id": "4bb595b48393b3bee5ff72fea5376876", "lon": -77.07385916666667}, {"is_reserved": 0, "fusion_lon": 0.0, "fusion_lat": 0.0, "name": "8d7e385ddf032d9f6190b4205e040265", "type": "electric_scooter", "is_disabled": 0, "lat": 38.89807916666667, "rental_uris": {"android": "https://dc.lft.to/lastmile_qr_scan", "ios": "https://dc.lft.to/lastmile_qr_scan"}, "bike_id": "8d7e385ddf032d9f6190b4205e040265", "lon": -77.02490533333334}, {"is_reserved": 0, "fusion_lon": 0.0, "fusion_lat": 0.0, "name": "9e05e22aa56018b5ee41eb3257a37ec7", "type": "electric_scooter", "is_disabled": 0, "lat": 38.89613683333334, "rental_uris": {"android": "https://dc.lft.to/lastmile_qr_scan", "ios": "https://dc.lft.to/lastmile_qr_scan"}, "bike_id": "9e05e22aa56018b5ee41eb3257a37ec7", "lon": -76.98159433333333}, {"is_reserved": 0, "fusion_lon": 0.0, "fusion_lat": 0.0, "name": "dfdc522df0505c453b0aa1f34bcbe39c", "type": "electric_scooter", "is_disabled": 0, "lat": 38.9181715, "rental_uris": {"android": "https://dc.lft.to/lastmile_qr_scan", "ios": "https://dc.lft.to/lastmile_qr_scan"}, "bike_id": "dfdc522df0505c453b0aa1f34bcbe39c", "lon": -77.0325155}, {"is_reserved": 0, "fusion_lon": 0.0, "fusion_lat": 0.0, "name": "b1c011fbd4d9f7182d928b5f3f34b99e", "type": "electric_scooter", "is_disabled": 0, "lat": 38.88392283333334, "rental_uris": {"android": "https://dc.lft.to/lastmile_qr_scan", "ios": "https://dc.lft.to/lastmile_qr_scan"}, "bike_id": "b1c011fbd4d9f7182d928b5f3f34b99e", "lon": -76.95443316666666}, {"is_reserved": 0, "fusion_lon": 0.0, "fusion_lat": 0.0, "name": "22569b6f61ca0e14d3895409c2c08ee8", "type": "electric_scooter", "is_disabled": 0, "lat": 38.95180333333333, "rental_uris": {"android": "https://dc.lft.to/lastmile_qr_scan", "ios": "https://dc.lft.to/lastmile_qr_scan"}, "bike_id": "22569b6f61ca0e14d3895409c2c08ee8", "lon": -77.02613766666667}, {"is_reserved": 0, "fusion_lon": 0.0, "fusion_lat": 0.0, "name": "d34ecfc4da7f26032d1a826fba696029", "type": "electric_scooter", "is_disabled": 0, "lat": 38.9277295, "rental_uris": {"android": "https://dc.lft.to/lastmile_qr_scan", "ios": "https://dc.lft.to/lastmile_qr_scan"}, "bike_id": "d34ecfc4da7f26032d1a826fba696029", "lon": -77.05260066666666}, {"is_reserved": 0, "fusion_lon": 0.0, "fusion_lat": 0.0, "name": "98b375a11ae05994f30acff3e0056046", "type": "electric_scooter", "is_disabled": 0, "lat": 38.920702166666665, "rental_uris": {"android": "https://dc.lft.to/lastmile_qr_scan", "ios": "https://dc.lft.to/lastmile_qr_scan"}, "bike_id": "98b375a11ae05994f30acff3e0056046", "lon": -77.02420783333334}, {"is_reserved": 0, "fusion_lon": 0.0, "fusion_lat": 0.0, "name": "3c4ce834cfb6e60168851573d5da4be2", "type": "electric_scooter", "is_disabled": 0, "lat": 38.893647, "rental_uris": {"android": "https://dc.lft.to/lastmile_qr_scan", "ios": "https://dc.lft.to/lastmile_qr_scan"}, "bike_id": "3c4ce834cfb6e60168851573d5da4be2", "lon": -77.05493183333333}, {"is_reserved": 0, "fusion_lon": 0.0, "fusion_lat": 0.0, "name": "9ffbc9526d941ddf7f4aee4ee3faa732", "type": "electric_scooter", "is_disabled": 0, "lat": 38.90800383333333, "rental_uris": {"android": "https://dc.lft.to/lastmile_qr_scan", "ios": "https://dc.lft.to/lastmile_qr_scan"}, "bike_id": "9ffbc9526d941ddf7f4aee4ee3faa732", "lon": -77.03185683333334}, {"is_reserved": 0, "fusion_lon": 0.0, "fusion_lat": 0.0, "name": "db5dfe9f16bc918967ff3b89474e8f35", "type": "electric_scooter", "is_disabled": 0, "lat": 38.92293083333333, "rental_uris": {"android": "https://dc.lft.to/lastmile_qr_scan", "ios": "https://dc.lft.to/lastmile_qr_scan"}, "bike_id": "db5dfe9f16bc918967ff3b89474e8f35", "lon": -77.04263333333333}, {"is_reserved": 0, "fusion_lon": 0.0, "fusion_lat": 0.0, "name": "1fbd22ed7df0330ea6f4caebd179c5e7", "type": "electric_scooter", "is_disabled": 0, "lat": 38.884816666666666, "rental_uris": {"android": "https://dc.lft.to/lastmile_qr_scan", "ios": "https://dc.lft.to/lastmile_qr_scan"}, "bike_id": "1fbd22ed7df0330ea6f4caebd179c5e7", "lon": -77.026524}, {"is_reserved": 0, "fusion_lon": 0.0, "fusion_lat": 0.0, "name": "c7ed3c9e92ed25dcd451da164ca1b923", "type": "electric_scooter", "is_disabled": 0, "lat": 38.89659266666666, "rental_uris": {"android": "https://dc.lft.to/lastmile_qr_scan", "ios": "https://dc.lft.to/lastmile_qr_scan"}, "bike_id": "c7ed3c9e92ed25dcd451da164ca1b923", "lon": -77.05026066666667}, {"is_reserved": 0, "fusion_lon": 0.0, "fusion_lat": 0.0, "name": "291f99796953a318f39f37413116d86e", "type": "electric_scooter", "is_disabled": 0, "lat": 38.94456316666667, "rental_uris": {"android": "https://dc.lft.to/lastmile_qr_scan", "ios": "https://dc.lft.to/lastmile_qr_scan"}, "bike_id": "291f99796953a318f39f37413116d86e", "lon": -77.0602585}, {"is_reserved": 0, "fusion_lon": 0.0, "fusion_lat": 0.0, "name": "4d6248acf546f8d6a28ed12d912ce26b", "type": "electric_scooter", "is_disabled": 0, "lat": 38.892993, "rental_uris": {"android": "https://dc.lft.to/lastmile_qr_scan", "ios": "https://dc.lft.to/lastmile_qr_scan"}, "bike_id": "4d6248acf546f8d6a28ed12d912ce26b", "lon": -76.9981975}, {"is_reserved": 0, "fusion_lon": 0.0, "fusion_lat": 0.0, "name": "7d83fe196762f6e13c42ad996746f11c", "type": "electric_scooter", "is_disabled": 0, "lat": 38.93607383333333, "rental_uris": {"android": "https://dc.lft.to/lastmile_qr_scan", "ios": "https://dc.lft.to/lastmile_qr_scan"}, "bike_id": "7d83fe196762f6e13c42ad996746f11c", "lon": -77.02917283333333}, {"is_reserved": 0, "fusion_lon": 0.0, "fusion_lat": 0.0, "name": "83c01592873d02d0a30e264a71933b9c", "type": "electric_scooter", "is_disabled": 0, "lat": 38.837007666666665, "rental_uris": {"android": "https://dc.lft.to/lastmile_qr_scan", "ios": "https://dc.lft.to/lastmile_qr_scan"}, "bike_id": "83c01592873d02d0a30e264a71933b9c", "lon": -77.00568383333334}, {"is_reserved": 0, "fusion_lon": 0.0, "fusion_lat": 0.0, "name": "a3fe6e205f00cd54a4d41068ddd1d601", "type": "electric_scooter", "is_disabled": 0, "lat": 38.90114916666667, "rental_uris": {"android": "https://dc.lft.to/lastmile_qr_scan", "ios": "https://dc.lft.to/lastmile_qr_scan"}, "bike_id": "a3fe6e205f00cd54a4d41068ddd1d601", "lon": -77.06004933333334}, {"is_reserved": 0, "fusion_lon": 0.0, "fusion_lat": 0.0, "name": "882944020d0f92fa8acf5289d084ab93", "type": "electric_scooter", "is_disabled": 0, "lat": 38.885579, "rental_uris": {"android": "https://dc.lft.to/lastmile_qr_scan", "ios": "https://dc.lft.to/lastmile_qr_scan"}, "bike_id": "882944020d0f92fa8acf5289d084ab93", "lon": -77.01997133333333}, {"is_reserved": 0, "fusion_lon": 0.0, "fusion_lat": 0.0, "name": "a04e05b2dcd72766ebf3f8220f904f6f", "type": "electric_scooter", "is_disabled": 0, "lat": 38.9178805, "rental_uris": {"android": "https://dc.lft.to/lastmile_qr_scan", "ios": "https://dc.lft.to/lastmile_qr_scan"}, "bike_id": "a04e05b2dcd72766ebf3f8220f904f6f", "lon": -77.031862}, {"is_reserved": 0, "fusion_lon": 0.0, "fusion_lat": 0.0, "name": "56dd1821f3cce7a00858d2d2673f7750", "type": "electric_scooter", "is_disabled": 0, "lat": 38.90651283333333, "rental_uris": {"android": "https://dc.lft.to/lastmile_qr_scan", "ios": "https://dc.lft.to/lastmile_qr_scan"}, "bike_id": "56dd1821f3cce7a00858d2d2673f7750", "lon": -77.02712166666667}, {"is_reserved": 0, "fusion_lon": 0.0, "fusion_lat": 0.0, "name": "3b065b1517644b6c41d1de6663182d34", "type": "electric_scooter", "is_disabled": 0, "lat": 38.844384, "rental_uris": {"android": "https://dc.lft.to/lastmile_qr_scan", "ios": "https://dc.lft.to/lastmile_qr_scan"}, "bike_id": "3b065b1517644b6c41d1de6663182d34", "lon": -76.997171}, {"is_reserved": 0, "fusion_lon": 0.0, "fusion_lat": 0.0, "name": "c303cd4ceff346c54fbae78043a64694", "type": "electric_scooter", "is_disabled": 0, "lat": 38.94117133333334, "rental_uris": {"android": "https://dc.lft.to/lastmile_qr_scan", "ios": "https://dc.lft.to/lastmile_qr_scan"}, "bike_id": "c303cd4ceff346c54fbae78043a64694", "lon": -77.01540366666667}, {"is_reserved": 0, "fusion_lon": 0.0, "fusion_lat": 0.0, "name": "91856447236d6678682856685cb5068c", "type": "electric_scooter", "is_disabled": 0, "lat": 38.908397, "rental_uris": {"android": "https://dc.lft.to/lastmile_qr_scan", "ios": "https://dc.lft.to/lastmile_qr_scan"}, "bike_id": "91856447236d6678682856685cb5068c", "lon": -77.03315516666666}, {"is_reserved": 0, "fusion_lon": 0.0, "fusion_lat": 0.0, "name": "2d739e35a1f14d4ea738bf93bdc9bc79", "type": "electric_scooter", "is_disabled": 0, "lat": 38.9090535, "rental_uris": {"android": "https://dc.lft.to/lastmile_qr_scan", "ios": "https://dc.lft.to/lastmile_qr_scan"}, "bike_id": "2d739e35a1f14d4ea738bf93bdc9bc79", "lon": -77.04137233333333}, {"is_reserved": 0, "fusion_lon": 0.0, "fusion_lat": 0.0, "name": "9037a6b059a33d172ef116b7d9175f05", "type": "electric_scooter", "is_disabled": 0, "lat": 38.901578, "rental_uris": {"android": "https://dc.lft.to/lastmile_qr_scan", "ios": "https://dc.lft.to/lastmile_qr_scan"}, "bike_id": "9037a6b059a33d172ef116b7d9175f05", "lon": -77.06003466666667}, {"is_reserved": 0, "fusion_lon": 0.0, "fusion_lat": 0.0, "name": "e90271c234ba7bcc42a64d19c5207072", "type": "electric_scooter", "is_disabled": 0, "lat": 38.9074255, "rental_uris": {"android": "https://dc.lft.to/lastmile_qr_scan", "ios": "https://dc.lft.to/lastmile_qr_scan"}, "bike_id": "e90271c234ba7bcc42a64d19c5207072", "lon": -76.98506883333333}, {"is_reserved": 0, "fusion_lon": 0.0, "fusion_lat": 0.0, "name": "620c9cc093ba89a2e3fc4faa9ac5069f", "type": "electric_scooter", "is_disabled": 0, "lat": 38.905297166666664, "rental_uris": {"android": "https://dc.lft.to/lastmile_qr_scan", "ios": "https://dc.lft.to/lastmile_qr_scan"}, "bike_id": "620c9cc093ba89a2e3fc4faa9ac5069f", "lon": -77.0485675}, {"is_reserved": 0, "fusion_lon": 0.0, "fusion_lat": 0.0, "name": "1fa85461a9e969c45f5dd6ef92455088", "type": "electric_scooter", "is_disabled": 0, "lat": 38.913744333333334, "rental_uris": {"android": "https://dc.lft.to/lastmile_qr_scan", "ios": "https://dc.lft.to/lastmile_qr_scan"}, "bike_id": "1fa85461a9e969c45f5dd6ef92455088", "lon": -77.04132583333333}, {"is_reserved": 0, "fusion_lon": 0.0, "fusion_lat": 0.0, "name": "7be4feee6340e0cf76128ae238a3b135", "type": "electric_scooter", "is_disabled": 0, "lat": 38.89550166666667, "rental_uris": {"android": "https://dc.lft.to/lastmile_qr_scan", "ios": "https://dc.lft.to/lastmile_qr_scan"}, "bike_id": "7be4feee6340e0cf76128ae238a3b135", "lon": -76.94874883333334}, {"is_reserved": 0, "fusion_lon": 0.0, "fusion_lat": 0.0, "name": "9dc58649d9875fd534061dc6d4493b57", "type": "electric_scooter", "is_disabled": 0, "lat": 38.92950316666666, "rental_uris": {"android": "https://dc.lft.to/lastmile_qr_scan", "ios": "https://dc.lft.to/lastmile_qr_scan"}, "bike_id": "9dc58649d9875fd534061dc6d4493b57", "lon": -77.02786783333333}, {"is_reserved": 0, "fusion_lon": 0.0, "fusion_lat": 0.0, "name": "efdb884d092788dcc9f1f04feb91c464", "type": "electric_scooter", "is_disabled": 0, "lat": 38.90719466666667, "rental_uris": {"android": "https://dc.lft.to/lastmile_qr_scan", "ios": "https://dc.lft.to/lastmile_qr_scan"}, "bike_id": "efdb884d092788dcc9f1f04feb91c464", "lon": -77.08206233333334}, {"is_reserved": 0, "fusion_lon": 0.0, "fusion_lat": 0.0, "name": "9997d2ff6bd7f72b14c7bf2716d5e5eb", "type": "electric_scooter", "is_disabled": 0, "lat": 38.91692116666667, "rental_uris": {"android": "https://dc.lft.to/lastmile_qr_scan", "ios": "https://dc.lft.to/lastmile_qr_scan"}, "bike_id": "9997d2ff6bd7f72b14c7bf2716d5e5eb", "lon": -77.0259535}, {"is_reserved": 0, "fusion_lon": 0.0, "fusion_lat": 0.0, "name": "ceaf2069889c5202641fd76750f0f042", "type": "electric_scooter", "is_disabled": 0, "lat": 38.917667333333334, "rental_uris": {"android": "https://dc.lft.to/lastmile_qr_scan", "ios": "https://dc.lft.to/lastmile_qr_scan"}, "bike_id": "ceaf2069889c5202641fd76750f0f042", "lon": -77.0320935},