{"data": {"bikes": [{"lon": -77.03517683333334, "fusion_lon": 0.0, "bike_id": "5db3c9943bc6191d40f3a19c31d8ef86", "type": "electric_scooter", "name": "5db3c9943bc6191d40f3a19c31d8ef86", "rental_uris": {"android": "https://dc.lft.to/lastmile_qr_scan", "ios": "https://dc.lft.to/lastmile_qr_scan"}, "is_disabled": 0, "fusion_lat": 0.0, "lat": 38.9216825, "is_reserved": 0}, {"lon": -77.00748416666667, "fusion_lon": 0.0, "bike_id": "fc4287e64669df84f3349954547fc237", "type": "electric_scooter", "name": "fc4287e64669df84f3349954547fc237", "rental_uris": {"android": "https://dc.lft.to/lastmile_qr_scan", "ios": "https://dc.lft.to/lastmile_qr_scan"}, "is_disabled": 0, "fusion_lat": 0.0, "lat": 38.89832783333333, "is_reserved": 0}, {"lon": -77.045406, "fusion_lon": 0.0, "bike_id": "287f46bd2383501e589a62b42b8820ac", "type": "electric_scooter", "name": "287f46bd2383501e589a62b42b8820ac", "rental_uris": {"android": "https://dc.lft.to/lastmile_qr_scan", "ios": "https://dc.lft.to/lastmile_qr_scan"}, "is_disabled": 0, "fusion_lat": 0.0, "lat": 38.900628, "is_reserved": 0}, {"lon": -77.03664766666667, "fusion_lon": 0.0, "bike_id": "30ecb7869d1c938acbdab23ee6f7d67a", "type": "electric_scooter", "name": "30ecb7869d1c938acbdab23ee6f7d67a", "rental_uris": {"android": "https://dc.lft.to/lastmile_qr_scan", "ios": "https://dc.lft.to/lastmile_qr_scan"}, "is_disabled": 0, "fusion_lat": 0.0, "lat": 38.907992166666666, "is_reserved": 0}, {"lon": -77.11465833333334, "fusion_lon": 0.0, "bike_id": "f0b90f9a86d2b357f9d55e0361652138", "type": "electric_bike", "name": "f0b90f9a86d2b357f9d55e0361652138", "rental_uris": {"android": "https://dc.lft.to/lastmile_qr_scan", "ios": "https://dc.lft.to/lastmile_qr_scan"}, "is_disabled": 0, "fusion_lat": 0.0, "lat": 38.841464333333334, "is_reserved": 0}, {"lon": -77.03326033333333, "fusion_lon": 0.0, "bike_id": "655b6c51c03d04c811fd5c8def4a9bf9", "type": "electric_scooter", "name": "655b6c51c03d04c811fd5c8def4a9bf9", "rental_uris": {"android": "https://dc.lft.to/lastmile_qr_scan", "ios": "https://dc.lft.to/lastmile_qr_scan"}, "is_disabled": 0, "fusion_lat": 0.0, "lat": 38.89818016666667, "is_reserved": 0}, {"lon": -77.04002316666667, "fusion_lon": 0.0, "bike_id": "fc173b4976882c452da5da2642e26c64", "type": "electric_scooter", "name": "fc173b4976882c452da5da2642e26c64", "rental_uris": {"android": "https://dc.lft.to/lastmile_qr_scan", "ios": "https://dc.lft.to/lastmile_qr_scan"}, "is_disabled": 0, "fusion_lat": 0.0, "lat": 38.90275283333333, "is_reserved": 0}, {"lon": -77.05860833333334, "fusion_lon": 0.0, "bike_id": "8115fb51a173bc3356a8470b6694d178", "type": "electric_scooter", "name": "8115fb51a173bc3356a8470b6694d178", "rental_uris": {"android": "https://dc.lft.to/lastmile_qr_scan", "ios": "https://dc.lft.to/lastmile_qr_scan"}, "is_disabled": 0, "fusion_lat": 0.0, "lat": 38.9360565, "is_reserved": 0}, {"lon": -77.02006233333333, "fusion_lon": 0.0, "bike_id": "7fd80ab2e7e3ac377dba2013fa5eef71", "type": "electric_scooter", "name": "7fd80ab2e7e3ac377dba2013fa5eef71", "rental_uris": {"android": "https://dc.lft.to/lastmile_qr_scan", "ios": "https://dc.lft.to/lastmile_qr_scan"}, "is_disabled": 0, "fusion_lat": 0.0, "lat": 38.9140545, "is_reserved": 0}, {"lon": -77.11413516666667, "fusion_lon": 0.0, "bike_id": "0a43c843f4aff4b1a1ab45e46170c6bf", "type": "electric_bike", "name": "0a43c843f4aff4b1a1ab45e46170c6bf", "rental_uris": {"android": "https://dc.lft.to/lastmile_qr_scan", "ios": "https://dc.lft.to/lastmile_qr_scan"}, "is_disabled": 0, "fusion_lat": 0.0, "lat": 38.855248333333336, "is_reserved": 0}, {"lon": -76.94432233333333, "fusion_lon": 0.0, "bike_id": "06541dd7f4459452181a4c3f70d9996a", "type": "electric_bike", "name": "06541dd7f4459452181a4c3f70d9996a", "rental_uris": {"android": "https://dc.lft.to/lastmile_qr_scan", "ios": "https://dc.lft.to/lastmile_qr_scan"}, "is_disabled": 0, "fusion_lat": 0.0, "lat": 38.99223283333333, "is_reserved": 0}, {"lon": -77.046597, "fusion_lon": 0.0, "bike_id": "dd1710ab6bdbe6e930c6ede1dd8a0165", "type": "electric_scooter", "name": "dd1710ab6bdbe6e930c6ede1dd8a0165", "rental_uris": {"android": "https://dc.lft.to/lastmile_qr_scan", "ios": "https://dc.lft.to/lastmile_qr_scan"}, "is_disabled": 0, "fusion_lat": 0.0, "lat": 38.90573666666667, "is_reserved": 0}, {"lon": -77.02317266666667, "fusion_lon": 0.0, "bike_id": "26c72acf4d739cb83fc2487fcf1c4649", "type": "electric_scooter", "name": "26c72acf4d739cb83fc2487fcf1c4649", "rental_uris": {"android": "https://dc.lft.to/lastmile_qr_scan", "ios": "https://dc.lft.to/lastmile_qr_scan"}, "is_disabled": 0, "fusion_lat": 0.0, "lat": 38.918401333333335, "is_reserved": 0}, {"lon": -77.120202, "fusion_lon": 0.0, "bike_id": "fc0e755cae14f36282172f9724e8d602", "type": "electric_bike", "name": "fc0e755cae14f36282172f9724e8d602", "rental_uris": {"android": "https://dc.lft.to/lastmile_qr_scan", "ios": "https://dc.lft.to/lastmile_qr_scan"}, "is_disabled": 0, "fusion_lat": 0.0, "lat": 38.85787033333333, "is_reserved": 0}, {"lon": -77.03161633333333, "fusion_lon": 0.0, "bike_id": "bf6877e55e4c6a26808450c437b4d170", "type": "electric_scooter", "name": "bf6877e55e4c6a26808450c437b4d170", "rental_uris": {"android": "https://dc.lft.to/lastmile_qr_scan", "ios": "https://dc.lft.to/lastmile_qr_scan"}, "is_disabled": 0, "fusion_lat": 0.0, "lat": 38.90097466666667, "is_reserved": 0}, {"lon": -77.03403433333334, "fusion_lon": 0.0, "bike_id": "7da42d604e16557aa5d292cd27ddf2fd", "type": "electric_scooter", "name": "7da42d604e16557aa5d292cd27ddf2fd", "rental_uris": {"android": "https://dc.lft.to/lastmile_qr_scan", "ios": "https://dc.lft.to/lastmile_qr_scan"}, "is_disabled": 0, "fusion_lat": 0.0, "lat": 38.9244755, "is_reserved": 0}, {"lon": -76.95256983333333, "fusion_lon": 0.0, "bike_id": "ab12e54b1f12e9c10fc990850dd84ced", "type": "electric_bike", "name": "ab12e54b1f12e9c10fc990850dd84ced", "rental_uris": {"android": "https://dc.lft.to/lastmile_qr_scan", "ios": "https://dc.lft.to/lastmile_qr_scan"}, "is_disabled": 0, "fusion_lat": 0.0, "lat": 38.906912166666665, "is_reserved": 0}, {"lon": -77.0467575, "fusion_lon": 0.0, "bike_id": "b09713454a3745e1e356d73cd7bbbb29", "type": "electric_scooter", "name": "b09713454a3745e1e356d73cd7bbbb29", "rental_uris": {"android": "https://dc.lft.to/lastmile_qr_scan", "ios": "https://dc.lft.to/lastmile_qr_scan"}, "is_disabled": 0, "fusion_lat": 0.0, "lat": 38.893262666666665, "is_reserved": 0}, {"lon": -76.9709525, "fusion_lon": 0.0, "bike_id": "01d6dcc2ca0a6e8c94f954e519b468fc", "type": "electric_scooter", "name": "01d6dcc2ca0a6e8c94f954e519b468fc", "rental_uris": {"android": "https://dc.lft.to/lastmile_qr_scan", "ios": "https://dc.lft.to/lastmile_qr_scan"}, "is_disabled": 0, "fusion_lat": 0.0, "lat": 38.870638166666666, "is_reserved": 0}, {"lon": -77.2013925, "fusion_lon": 0.0, "bike_id": "95d8f260723d4ce0fd94becfaf9cc2be", "type": "electric_bike", "name": "95d8f260723d4ce0fd94becfaf9cc2be", "rental_uris": {"android": "https://dc.lft.to/lastmile_qr_scan", "ios": "https://dc.lft.to/lastmile_qr_scan"}, "is_disabled": 0, "fusion_lat": 0.0, "lat": 38.92215933333333, "is_reserved": 0}, {"lon": -77.03841316666667, "fusion_lon": 0.0, "bike_id": "c40d99d74067c40e9c28a23cdfbb6c0b", "type": "electric_scooter", "name": "c40d99d74067c40e9c28a23cdfbb6c0b", "rental_uris": {"android": "https://dc.lft.to/lastmile_qr_scan", "ios": "https://dc.lft.to/lastmile_qr_scan"}, "is_disabled": 0, "fusion_lat": 0.0, "lat": 38.921689, "is_reserved": 0}, {"lon": -76.94639966666666, "fusion_lon": 0.0, "bike_id": "61ed87be251bc2796fa1607a43a2f19a", "type": "electric_scooter", "name": "61ed87be251bc2796fa1607a43a2f19a", "rental_uris": {"android": "https://dc.lft.to/lastmile_qr_scan", "ios": "https://dc.lft.to/lastmile_qr_scan"}, "is_disabled": 0, "fusion_lat": 0.0, "lat": 38.89861916666667, "is_reserved": 0}, {"lon": -77.04503516666666, "fusion_lon": 0.0, "bike_id": "3285730c833b6525cdc0db1f5bf28800", "type": "electric_scooter", "name": "3285730c833b6525cdc0db1f5bf28800", "rental_uris": {"android": "https://dc.lft.to/lastmile_qr_scan", "ios": "https://dc.lft.to/lastmile_qr_scan"}, "is_disabled": 0, "fusion_lat": 0.0, "lat": 38.911852333333336, "is_reserved": 0}, {"lon": -77.02229566666666, "fusion_lon": 0.0, "bike_id": "25e290236a3638794066be43d145a638", "type": "electric_scooter", "name": "25e290236a3638794066be43d145a638", "rental_uris": {"android": "https://dc.lft.to/lastmile_qr_scan", "ios": "https://dc.lft.to/lastmile_qr_scan"}, "is_disabled": 0, "fusion_lat": 0.0, "lat": 38.934709166666664, "is_reserved": 0}, {"lon": -77.04075316666666, "fusion_lon": 0.0, "bike_id": "7964c216d57f7c7bd399f1973e515e8f", "type": "electric_scooter", "name": "7964c216d57f7c7bd399f1973e515e8f", "rental_uris": {"android": "https://dc.lft.to/lastmile_qr_scan", "ios": "https://dc.lft.to/lastmile_qr_scan"}, "is_disabled": 0, "fusion_lat": 0.0, "lat": 38.903912, "is_reserved": 0}, {"lon": -77.02187683333334, "fusion_lon": 0.0, "bike_id": "9f92961739225506dd4db3c95753d717", "type": "electric_scooter", "name": "9f92961739225506dd4db3c95753d717", "rental_uris": {"android": "https://dc.lft.to/lastmile_qr_scan", "ios": "https://dc.lft.to/lastmile_qr_scan"}, "is_disabled": 0, "fusion_lat": 0.0, "lat": 38.914953, "is_reserved": 0}, {"lon": -77.03279783333333, "fusion_lon": 0.0, "bike_id": "921344d0069806d6efffe28dc09c0c7f", "type": "electric_scooter", "name": "921344d0069806d6efffe28dc09c0c7f", "rental_uris": {"android": "https://dc.lft.to/lastmile_qr_scan", "ios": "https://dc.lft.to/lastmile_qr_scan"}, "is_disabled": 0, "fusion_lat": 0.0, "lat": 38.92280783333333, "is_reserved": 0}, {"lon": -77.0315215, "fusion_lon": 0.0, "bike_id": "a88840550d2f6459b07e9cf15abf2198", "type": "electric_bike", "name": "a88840550d2f6459b07e9cf15abf2198", "rental_uris": {"android": "https://dc.lft.to/lastmile_qr_scan", "ios": "https://dc.lft.to/lastmile_qr_scan"}, "is_disabled": 0, "fusion_lat": 0.0, "lat": 38.96441333333333, "is_reserved": 0}, {"lon": -77.02053283333333, "fusion_lon": 0.0, "bike_id": "91cd2e5fa99f62ebdca7e8cb98cb6ebf", "type": "electric_scooter", "name": "91cd2e5fa99f62ebdca7e8cb98cb6ebf", "rental_uris": {"android": "https://dc.lft.to/lastmile_qr_scan", "ios": "https://dc.lft.to/lastmile_qr_scan"}, "is_disabled": 0, "fusion_lat": 0.0, "lat": 38.933378, "is_reserved": 0}, {"lon": -77.00609066666667, "fusion_lon": 0.0, "bike_id": "e9b0d3f6a37c1f0724bddef0b81b35f1", "type": "electric_scooter", "name": "e9b0d3f6a37c1f0724bddef0b81b35f1", "rental_uris": {"android": "https://dc.lft.to/lastmile_qr_scan", "ios": "https://dc.lft.to/lastmile_qr_scan"}, "is_disabled": 0, "fusion_lat": 0.0, "lat": 38.87567716666667, "is_reserved": 0}, {"lon": -76.9702745, "fusion_lon": 0.0, "bike_id": "5ae0b17aee923ac2e962ecaa46afb673", "type": "electric_scooter", "name": "5ae0b17aee923ac2e962ecaa46afb673", "rental_uris": {"android": "https://dc.lft.to/lastmile_qr_scan", "ios": "https://dc.lft.to/lastmile_qr_scan"}, "is_disabled": 0, "fusion_lat": 0.0, "lat": 38.873590666666665, "is_reserved": 0}, {"lon": -77.02305133333333, "fusion_lon": 0.0, "bike_id": "75065753fdd1ba9ea005d9ec27410e4c", "type": "electric_scooter", "name": "75065753fdd1ba9ea005d9ec27410e4c", "rental_uris": {"android": "https://dc.lft.to/lastmile_qr_scan", "ios": "https://dc.lft.to/lastmile_qr_scan"}, "is_disabled": 0, "fusion_lat": 0.0, "lat": 38.894982666666664, "is_reserved": 0}, {"lon": -77.0806845, "fusion_lon": 0.0, "bike_id": "46d12110c2b15506be992e1025343d61", "type": "electric_bike", "name": "46d12110c2b15506be992e1025343d61", "rental_uris": {"android": "https://dc.lft.to/lastmile_qr_scan", "ios": "https://dc.lft.to/lastmile_qr_scan"}, "is_disabled": 0, "fusion_lat": 0.0, "lat": 39.05250916666667, "is_reserved": 0}, {"lon": -77.00501266666667, "fusion_lon": 0.0, "bike_id": "5cf5b7b98fabe31a74acd54b806c8cab", "type": "electric_scooter", "name": "5cf5b7b98fabe31a74acd54b806c8cab", "rental_uris": {"android": "https://dc.lft.to/lastmile_qr_scan", "ios": "https://dc.lft.to/lastmile_qr_scan"}, "is_disabled": 0, "fusion_lat": 0.0, "lat": 38.874588833333334, "is_reserved": 0}, {"lon": -77.01763516666666, "fusion_lon": 0.0, "bike_id": "8ea2321fd0368a05ac21ec927928cf49", "type": "electric_scooter", "name": "8ea2321fd0368a05ac21ec927928cf49", "rental_uris": {"android": "https://dc.lft.to/lastmile_qr_scan", "ios": "https://dc.lft.to/lastmile_qr_scan"}, "is_disabled": 0, "fusion_lat": 0.0, "lat": 38.900874333333334, "is_reserved": 0}, {"lon": -77.02411333333333, "fusion_lon": 0.0, "bike_id": "99308c030673805d0d88119043b32e6d", "type": "electric_scooter", "name": "99308c030673805d0d88119043b32e6d", "rental_uris": {"android": "https://dc.lft.to/lastmile_qr_scan", "ios": "https://dc.lft.to/lastmile_qr_scan"}, "is_disabled": 0, "fusion_lat": 0.0, "lat": 38.9139545, "is_reserved": 0}, {"lon": -77.04508033333333, "fusion_lon": 0.0, "bike_id": "1bb0b203b7acfff2da3968cf8009e469", "type": "electric_scooter", "name": "1bb0b203b7acfff2da3968cf8009e469", "rental_uris": {"android": "https://dc.lft.to/lastmile_qr_scan", "ios": "https://dc.lft.to/lastmile_qr_scan"}, "is_disabled": 0, "fusion_lat": 0.0, "lat": 38.914964833333336, "is_reserved": 0}, {"lon": -77.0059695, "fusion_lon": 0.0, "bike_id": "f58f67d4724d880681a7234fd4a3dc62", "type": "electric_scooter", "name": "f58f67d4724d880681a7234fd4a3dc62", "rental_uris": {"android": "https://dc.lft.to/lastmile_qr_scan", "ios": "https://dc.lft.to/lastmile_qr_scan"}, "is_disabled": 0, "fusion_lat": 0.0, "lat": 38.90628516666666, "is_reserved": 0}, {"lon": -77.033843, "fusion_lon": 0.0, "bike_id": "1695f8c48a67bcba4e9ff286f0bd60ed", "type": "electric_scooter", "name": "1695f8c48a67bcba4e9ff286f0bd60ed", "rental_uris": {"android": "https://dc.lft.to/lastmile_qr_scan", "ios": "https://dc.lft.to/lastmile_qr_scan"}, "is_disabled": 0, "fusion_lat": 0.0, "lat": 38.92541166666667, "is_reserved": 0}, {"lon": -77.00065983333333, "fusion_lon": 0.0, "bike_id": "2c51f1b6b1517650695c0f838daba8be", "type": "electric_bike", "name": "2c51f1b6b1517650695c0f838daba8be", "rental_uris": {"android": "https://dc.lft.to/lastmile_qr_scan", "ios": "https://dc.lft.to/lastmile_qr_scan"}, "is_disabled": 0, "fusion_lat": 0.0, "lat": 38.919023333333335, "is_reserved": 0}, {"lon": -77.03264233333333, "fusion_lon": 0.0, "bike_id": "798a49ad4b3ac8f2c19d35cc25d5551e", "type": "electric_scooter", "name": "798a49ad4b3ac8f2c19d35cc25d5551e", "rental_uris": {"android": "https://dc.lft.to/lastmile_qr_scan", "ios": "https://dc.lft.to/lastmile_qr_scan"}, "is_disabled": 0, "fusion_lat": 0.0, "lat": 38.9290665, "is_reserved": 0}, {"lon": -77.08650183333333, "fusion_lon": 0.0, "bike_id": "691b2fa04a595e833c42e0ebea047308", "type": "electric_scooter", "name": "691b2fa04a595e833c42e0ebea047308", "rental_uris": {"android": "https://dc.lft.to/lastmile_qr_scan", "ios": "https://dc.lft.to/lastmile_qr_scan"}, "is_disabled": 0, "fusion_lat": 0.0, "lat": 38.93473633333333, "is_reserved": 0}, {"lon": -77.0385745, "fusion_lon": 0.0, "bike_id": "b95983a46ccaac03269510ff946dd8e2", "type": "electric_scooter", "name": "b95983a46ccaac03269510ff946dd8e2", "rental_uris": {"android": "https://dc.lft.to/lastmile_qr_scan", "ios": "https://dc.lft.to/lastmile_qr_scan"}, "is_disabled": 0, "fusion_lat": 0.0, "lat": 38.902759333333336, "is_reserved": 0}, {"lon": -77.04691533333333, "fusion_lon": 0.0, "bike_id": "146d11dae8b1930d00f923c577420f9d", "type": "electric_scooter", "name": "146d11dae8b1930d00f923c577420f9d", "rental_uris": {"android": "https://dc.lft.to/lastmile_qr_scan", "ios": "https://dc.lft.to/lastmile_qr_scan"}, "is_disabled": 0, "fusion_lat": 0.0, "lat": 38.897325, "is_reserved": 0}, {"lon": -77.08866283333333, "fusion_lon": 0.0, "bike_id": "46f2e7d02dae8c6e957981b5328ff011", "type": "electric_scooter", "name": "46f2e7d02dae8c6e957981b5328ff011", "rental_uris": {"android": "https://dc.lft.to/lastmile_qr_scan", "ios": "https://dc.lft.to/lastmile_qr_scan"}, "is_disabled": 0, "fusion_lat": 0.0, "lat": 38.91634466666667, "is_reserved": 0}, {"lon": -77.022135, "fusion_lon": 0.0, "bike_id": "8a3b0aa2c5bda81b3493fbbd0657cfe5", "type": "electric_scooter", "name": "8a3b0aa2c5bda81b3493fbbd0657cfe5", "rental_uris": {"android": "https://dc.lft.to/lastmile_qr_scan", "ios": "https://dc.lft.to/lastmile_qr_scan"}, "is_disabled": 0, "fusion_lat": 0.0, "lat": 38.89619483333333, "is_reserved": 0}, {"lon": -76.9814445, "fusion_lon": 0.0, "bike_id": "6b502a93aaa61cda91bedc1fc0ef1cae", "type": "electric_scooter", "name": "6b502a93aaa61cda91bedc1fc0ef1cae", "rental_uris": {"android": "https://dc.lft.to/lastmile_qr_scan", "ios": "https://dc.lft.to/lastmile_qr_scan"}, "is_disabled": 0, "fusion_lat": 0.0, "lat": 38.897399666666665, "is_reserved": 0}, {"lon": -76.96833483333333, "fusion_lon": 0.0, "bike_id": "74bffd22d81f905c7035d19981b65857", "type": "electric_scooter", "name": "74bffd22d81f905c7035d19981b65857", "rental_uris": {"android": "https://dc.lft.to/lastmile_qr_scan", "ios": "https://dc.lft.to/lastmile_qr_scan"}, "is_disabled": 0, "fusion_lat": 0.0, "lat": 38.87335383333333, "is_reserved": 0}, {"lon": -77.02100533333333, "fusion_lon": 0.0, "bike_id": "38b58e08a8bd07c0ff6c5c432346593e", "type": "electric_scooter", "name": "38b58e08a8bd07c0ff6c5c432346593e", "rental_uris": {"android": "https://dc.lft.to/lastmile_qr_scan", "ios": "https://dc.lft.to/lastmile_qr_scan"}, "is_disabled": 0, "fusion_lat": 0.0, "lat": 38.93011716666667, "is_reserved": 0}, {"lon": -77.03508216666667, "fusion_lon": 0.0, "bike_id": "b22350b40a6ea215ed219a688f889a07", "type": "electric_scooter", "name": "b22350b40a6ea215ed219a688f889a07", "rental_uris": {"android": "https://dc.lft.to/lastmile_qr_scan", "ios": "https://dc.lft.to/lastmile_qr_scan"}, "is_disabled": 0, "fusion_lat": 0.0, "lat": 38.9214135, "is_reserved": 0}, {"lon": -77.02309666666666, "fusion_lon": 0.0, "bike_id": "32cd7f058a05c0640796257a36437ca7", "type": "electric_scooter", "name": "32cd7f058a05c0640796257a36437ca7", "rental_uris": {"android": "https://dc.lft.to/lastmile_qr_scan", "ios": "https://dc.lft.to/lastmile_qr_scan"}, "is_disabled": 0, "fusion_lat": 0.0, "lat": 38.920900333333336, "is_reserved": 0}, {"lon": -77.00405116666667, "fusion_lon": 0.0, "bike_id": "d717c3025f21bf7166be5a4b768a61d3", "type": "electric_scooter", "name": "d717c3025f21bf7166be5a4b768a61d3", "rental_uris": {"android": "https://dc.lft.to/lastmile_qr_scan", "ios": "https://dc.lft.to/lastmile_qr_scan"}, "is_disabled": 0, "fusion_lat": 0.0, "lat": 38.92130183333333, "is_reserved": 0}, {"lon": -77.0399125, "fusion_lon": 0.0, "bike_id": "d7b6cbbc837170a08c2d5dda1ff1adba", "type": "electric_scooter", "name": "d7b6cbbc837170a08c2d5dda1ff1adba", "rental_uris": {"android": "https://dc.lft.to/lastmile_qr_scan", "ios": "https://dc.lft.to/lastmile_qr_scan"}, "is_disabled": 0, "fusion_lat": 0.0, "lat": 38.903282833333336, "is_reserved": 0}, {"lon": -77.04096716666666, "fusion_lon": 0.0, "bike_id": "0f056549f251b21cdf281afdc314b3de", "type": "electric_scooter", "name": "0f056549f251b21cdf281afdc314b3de", "rental_uris": {"android": "https://dc.lft.to/lastmile_qr_scan", "ios": "https://dc.lft.to/lastmile_qr_scan"}, "is_disabled": 0, "fusion_lat": 0.0, "lat": 38.914826833333336, "is_reserved": 0}, {"lon": -77.00718283333333, "fusion_lon": 0.0, "bike_id": "2e76f6d7f85527019949c7d6c88766ad", "type": "electric_scooter", "name": "2e76f6d7f85527019949c7d6c88766ad", "rental_uris": {"android": "https://dc.lft.to/lastmile_qr_scan", "ios": "https://dc.lft.to/lastmile_qr_scan"}, "is_disabled": 0, "fusion_lat": 0.0, "lat": 38.92541133333334, "is_reserved": 0}, {"lon": -77.0319575, "fusion_lon": 0.0, "bike_id": "1882cb3bc88383c8915cb4a819977992", "type": "electric_scooter", "name": "1882cb3bc88383c8915cb4a819977992", "rental_uris": {"android": "https://dc.lft.to/lastmile_qr_scan", "ios": "https://dc.lft.to/lastmile_qr_scan"}, "is_disabled": 0, "fusion_lat": 0.0, "lat": 38.910127, "is_reserved": 0}, {"lon": -77.02276133333334, "fusion_lon": 0.0, "bike_id": "063a749d3975961c8f9a3b26fe999bfe", "type": "electric_scooter", "name": "063a749d3975961c8f9a3b26fe999bfe", "rental_uris": {"android": "https://dc.lft.to/lastmile_qr_scan", "ios": "https://dc.lft.to/lastmile_qr_scan"}, "is_disabled": 0, "fusion_lat": 0.0, "lat": 38.91651683333333, "is_reserved": 0}, {"lon": -77.02640383333333, "fusion_lon": 0.0, "bike_id": "608b4a81438e4b04f7b3d20b56190ebe", "type": "electric_scooter", "name": "608b4a81438e4b04f7b3d20b56190ebe", "rental_uris": {"android": "https://dc.lft.to/lastmile_qr_scan", "ios": "https://dc.lft.to/lastmile_qr_scan"}, "is_disabled": 0, "fusion_lat": 0.0, "lat": 38.93650366666667, "is_reserved": 0}, {"lon": -77.00341533333334, "fusion_lon": 0.0, "bike_id": "7aed46a336e5ad2f7ce25cfa365ffcfb", "type": "electric_scooter", "name": "7aed46a336e5ad2f7ce25cfa365ffcfb", "rental_uris": {"android": "https://dc.lft.to/lastmile_qr_scan", "ios": "https://dc.lft.to/lastmile_qr_scan"}, "is_disabled": 0, "fusion_lat": 0.0, "lat": 38.895039, "is_reserved": 0}, {"lon": -77.02581516666666, "fusion_lon": 0.0, "bike_id": "8ca7d9aef4f82a0e1cc648652a5f5688", "type": "electric_scooter", "name": "8ca7d9aef4f82a0e1cc648652a5f5688", "rental_uris": {"android": "https://dc.lft.to/lastmile_qr_scan", "ios": "https://dc.lft.to/lastmile_qr_scan"}, "is_disabled": 0, "fusion_lat": 0.0, "lat": 38.92416016666667, "is_reserved": 0}, {"lon": -77.02483433333333, "fusion_lon": 0.0, "bike_id": "4b8f21219d85165cb06be72d3e1bcc8f", "type": "electric_scooter", "name": "4b8f21219d85165cb06be72d3e1bcc8f", "rental_uris": {"android": "https://dc.lft.to/lastmile_qr_scan", "ios": "https://dc.lft.to/lastmile_qr_scan"}, "is_disabled": 0, "fusion_lat": 0.0, "lat": 38.93876933333333, "is_reserved": 0}, {"lon": -77.05482183333334, "fusion_lon": 0.0, "bike_id": "2c92a55903b1d5424eb9136ef3fbb473", "type": "electric_bike", "name": "2c92a55903b1d5424eb9136ef3fbb473", "rental_uris": {"android": "https://dc.lft.to/lastmile_qr_scan", "ios": "https://dc.lft.to/lastmile_qr_scan"}, "is_disabled": 0, "fusion_lat": 0.0, "lat": 38.80015, "is_reserved": 0}, {"lon": -77.02653983333333, "fusion_lon": 0.0, "bike_id": "22938dd794973dc1043a1ed8ff8237f4", "type": "electric_scooter", "name": "22938dd794973dc1043a1ed8ff8237f4", "rental_uris": {"android": "https://dc.lft.to/lastmile_qr_scan", "ios": "https://dc.lft.to/lastmile_qr_scan"}, "is_disabled": 0, "fusion_lat": 0.0, "lat": 38.89605, "is_reserved": 0}, {"lon": -77.03272766666667, "fusion_lon": 0.0, "bike_id": "f263a8d70eaa9833b28281a2f0b60c5d", "type": "electric_scooter", "name": "f263a8d70eaa9833b28281a2f0b60c5d", "rental_uris": {"android": "https://dc.lft.to/lastmile_qr_scan", "ios": "https://dc.lft.to/lastmile_qr_scan"}, "is_disabled": 0, "fusion_lat": 0.0, "lat": 38.92947133333333, "is_reserved": 0}, {"lon": -77.03535016666666, "fusion_lon": 0.0, "bike_id": "fbf5e91c430e41b7a60f559b6b4207dd", "type": "electric_scooter", "name": "fbf5e91c430e41b7a60f559b6b4207dd", "rental_uris": {"android": "https://dc.lft.to/lastmile_qr_scan", "ios": "https://dc.lft.to/lastmile_qr_scan"}, "is_disabled": 0, "fusion_lat": 0.0, "lat": 38.923174833333334, "is_reserved": 0}, {"lon": -77.0228085, "fusion_lon": 0.0, "bike_id": "f12da76edc170d5adb0b3d88df43ff58", "type": "electric_scooter", "name": "f12da76edc170d5adb0b3d88df43ff58", "rental_uris": {"android": "https://dc.lft.to/lastmile_qr_scan", "ios": "https://dc.lft.to/lastmile_qr_scan"}, "is_disabled": 0, "fusion_lat": 0.0, "lat": 38.92699233333333, "is_reserved": 0}, {"lon": -76.9575065, "fusion_lon": 0.0, "bike_id": "2fda8bd1939f78c658190801eebf9775", "type": "electric_scooter", "name": "2fda8bd1939f78c658190801eebf9775", "rental_uris": {"android": "https://dc.lft.to/lastmile_qr_scan", "ios": "https://dc.lft.to/lastmile_qr_scan"}, "is_disabled": 0, "fusion_lat": 0.0, "lat": 38.88427083333333, "is_reserved": 0}, {"lon": -76.99793533333333, "fusion_lon": 0.0, "bike_id": "132a595f1d224c7c19745a18135ceb99", "type": "electric_bike", "name": "132a595f1d224c7c19745a18135ceb99", "rental_uris": {"android": "https://dc.lft.to/lastmile_qr_scan", "ios": "https://dc.lft.to/lastmile_qr_scan"}, "is_disabled": 0, "fusion_lat": 0.0, "lat": 38.950848, "is_reserved": 0}, {"lon": -76.98215716666667, "fusion_lon": 0.0, "bike_id": "59adf45b85150d60ff28b1408aa5ef6a", "type": "electric_scooter", "name": "59adf45b85150d60ff28b1408aa5ef6a", "rental_uris": {"android": "https://dc.lft.to/lastmile_qr_scan", "ios": "https://dc.lft.to/lastmile_qr_scan"}, "is_disabled": 0, "fusion_lat": 0.0, "lat": 38.902150166666665, "is_reserved": 0}, {"lon": -76.9921945, "fusion_lon": 0.0, "bike_id": "c9645e6ee95f1cdaf608a01bfd2f4b33", "type": "electric_bike", "name": "c9645e6ee95f1cdaf608a01bfd2f4b33", "rental_uris": {"android": "https://dc.lft.to/lastmile_qr_scan", "ios": "https://dc.lft.to/lastmile_qr_scan"}, "is_disabled": 0, "fusion_lat": 0.0, "lat": 38.94021333333333, "is_reserved": 0}, {"lon": -77.05436433333334, "fusion_lon": 0.0, "bike_id": "0a92dab0f206592ff803ebdce146cb44", "type": "electric_scooter", "name": "0a92dab0f206592ff803ebdce146cb44", "rental_uris": {"android": "https://dc.lft.to/lastmile_qr_scan", "ios": "https://dc.lft.to/lastmile_qr_scan"}, "is_disabled": 0, "fusion_lat": 0.0, "lat": 38.92852416666667, "is_reserved": 0}, {"lon": -77.00339716666667, "fusion_lon": 0.0, "bike_id": "2923b808389d193a64331511b8af2f61", "type": "electric_scooter", "name": "2923b808389d193a64331511b8af2f61", "rental_uris": {"android": "https://dc.lft.to/lastmile_qr_scan", "ios": "https://dc.lft.to/lastmile_qr_scan"}, "is_disabled": 0, "fusion_lat": 0.0, "lat": 38.89525033333334, "is_reserved": 0}, {"lon": -77.041704, "fusion_lon": 0.0, "bike_id": "fede5f5e35ff8778435d192cbdea5ed7", "type": "electric_scooter", "name": "fede5f5e35ff8778435d192cbdea5ed7", "rental_uris": {"android": "https://dc.lft.to/lastmile_qr_scan", "ios": "https://dc.lft.to/lastmile_qr_scan"}, "is_disabled": 0, "fusion_lat": 0.0, "lat": 38.90148383333333, "is_reserved": 0}, {"lon": -77.03191516666666, "fusion_lon": 0.0, "bike_id": "abd9f8247f03ee40943f245c09ef293a", "type": "electric_scooter", "name": "abd9f8247f03ee40943f245c09ef293a", "rental_uris": {"android": "https://dc.lft.to/lastmile_qr_scan", "ios": "https://dc.lft.to/lastmile_qr_scan"}, "is_disabled": 0, "fusion_lat": 0.0, "lat": 38.9131965, "is_reserved": 0}, {"lon": -77.00896116666667, "fusion_lon": 0.0, "bike_id": "44c412bd08eadef41e065a76636faff9", "type": "electric_scooter", "name": "44c412bd08eadef41e065a76636faff9", "rental_uris": {"android": "https://dc.lft.to/lastmile_qr_scan", "ios": "https://dc.lft.to/lastmile_qr_scan"}, "is_disabled": 0, "fusion_lat": 0.0, "lat": 38.884956833333334, "is_reserved": 0}, {"lon": -77.02617166666667, "fusion_lon": 0.0, "bike_id": "3b7bd75ce3e9f920e06e4e86b3202344", "type": "electric_scooter", "name": "3b7bd75ce3e9f920e06e4e86b3202344", "rental_uris": {"android": "https://dc.lft.to/lastmile_qr_scan", "ios": "https://dc.lft.to/lastmile_qr_scan"}, "is_disabled": 0, "fusion_lat": 0.0, "lat": 38.898370666666665, "is_reserved": 0}, {"lon": -77.03003866666667, "fusion_lon": 0.0, "bike_id": "7ad762fee77cd0792dc96728ee8807ee", "type": "electric_scooter", "name": "7ad762fee77cd0792dc96728ee8807ee", "rental_uris": {"android": "https://dc.lft.to/lastmile_qr_scan", "ios": "https://dc.lft.to/lastmile_qr_scan"}, "is_disabled": 0, "fusion_lat": 0.0, "lat": 38.902651666666664, "is_reserved": 0}, {"lon": -77.05118883333333, "fusion_lon": 0.0, "bike_id": "1457eb321decf376876e07c54b3653c5", "type": "electric_scooter", "name": "1457eb321decf376876e07c54b3653c5", "rental_uris": {"android": "https://dc.lft.to/lastmile_qr_scan", "ios": "https://dc.lft.to/lastmile_qr_scan"}, "is_disabled": 0, "fusion_lat": 0.0, "lat": 38.896583166666666, "is_reserved": 0}, {"lon": -77.0344785, "fusion_lon": 0.0, "bike_id": "e0148a1faeace8249455b5abacda7055", "type": "electric_scooter", "name": "e0148a1faeace8249455b5abacda7055", "rental_uris": {"android": "https://dc.lft.to/lastmile_qr_scan", "ios": "https://dc.lft.to/lastmile_qr_scan"}, "is_disabled": 0, "fusion_lat": 0.0, "lat": 38.909464666666665, "is_reserved": 0}, {"lon": -77.05583566666667, "fusion_lon": 0.0, "bike_id": "6b7393fb33295f7fda83b38476728b52", "type": "electric_scooter", "name": "6b7393fb33295f7fda83b38476728b52", "rental_uris": {"android": "https://dc.lft.to/lastmile_qr_scan", "ios": "https://dc.lft.to/lastmile_qr_scan"}, "is_disabled": 0, "fusion_lat": 0.0, "lat": 38.93427233333333, "is_reserved": 0}, {"lon": -77.042206, "fusion_lon": 0.0, "bike_id": "292b775f848aeeba2459ca4d6636cfde", "type": "electric_scooter", "name": "292b775f848aeeba2459ca4d6636cfde", "rental_uris": {"android": "https://dc.lft.to/lastmile_qr_scan", "ios": "https://dc.lft.to/lastmile_qr_scan"}, "is_disabled": 0, "fusion_lat": 0.0, "lat": 38.92625066666667, "is_reserved": 0}, {"lon": -77.02789316666667, "fusion_lon": 0.0, "bike_id": "f1f523ed498e612ce66a2a61a7a91c6b", "type": "electric_scooter", "name": "f1f523ed498e612ce66a2a61a7a91c6b", "rental_uris": {"android": "https://dc.lft.to/lastmile_qr_scan", "ios": "https://dc.lft.to/lastmile_qr_scan"}, "is_disabled": 0, "fusion_lat": 0.0, "lat": 38.917102666666665, "is_reserved": 0}, {"lon": -77.029052, "fusion_lon": 0.0, "bike_id": "04291761bf185be6cbb3f047ecf289b7", "type": "electric_scooter", "name": "04291761bf185be6cbb3f047ecf289b7", "rental_uris": {"android": "https://dc.lft.to/lastmile_qr_scan", "ios": "https://dc.lft.to/lastmile_qr_scan"}, "is_disabled": 0, "fusion_lat": 0.0, "lat": 38.956252666666664, "is_reserved": 0}, {"lon": -77.005683, "fusion_lon": 0.0, "bike_id": "4f549cdafb8d7c37075f3ff0610ee96a", "type": "electric_scooter", "name": "4f549cdafb8d7c37075f3ff0610ee96a", "rental_uris": {"android": "https://dc.lft.to/lastmile_qr_scan", "ios": "https://dc.lft.to/lastmile_qr_scan"}, "is_disabled": 0, "fusion_lat": 0.0, "lat": 38.87619483333334, "is_reserved": 0}, {"lon": -76.9532795, "fusion_lon": 0.0, "bike_id": "40bd36e7a2411b3a0b8f7e141f67b3a1", "type": "electric_scooter", "name": "40bd36e7a2411b3a0b8f7e141f67b3a1", "rental_uris": {"android": "https://dc.lft.to/lastmile_qr_scan", "ios": "https://dc.lft.to/lastmile_qr_scan"}, "is_disabled": 0, "fusion_lat": 0.0, "lat": 38.892387166666666, "is_reserved": 0}, {"lon": -77.02784966666667, "fusion_lon": 0.0, "bike_id": "325a48ada7472eb44d0ff8fb55de9f43", "type": "electric_scooter", "name": "325a48ada7472eb44d0ff8fb55de9f43", "rental_uris": {"android": "https://dc.lft.to/lastmile_qr_scan", "ios": "https://dc.lft.to/lastmile_qr_scan"}, "is_disabled": 0, "fusion_lat": 0.0, "lat": 38.89632983333333, "is_reserved": 0}, {"lon": -77.0550975, "fusion_lon": 0.0, "bike_id": "521b68b0cbb1997c20fc2980012f042b", "type": "electric_scooter", "name": "521b68b0cbb1997c20fc2980012f042b", "rental_uris": {"android": "https://dc.lft.to/lastmile_qr_scan", "ios": "https://dc.lft.to/lastmile_qr_scan"}, "is_disabled": 0, "fusion_lat": 0.0, "lat": 38.9152835, "is_reserved": 0}, {"lon": -77.086552, "fusion_lon": 0.0, "bike_id": "3489189e752607715f45616724eac27a", "type": "electric_bike", "name": "3489189e752607715f45616724eac27a", "rental_uris": {"android": "https://dc.lft.to/lastmile_qr_scan", "ios": "https://dc.lft.to/lastmile_qr_scan"}, "is_disabled": 0, "fusion_lat": 0.0, "lat": 38.80907233333333, "is_reserved": 0}, {"lon": -76.99010633333333, "fusion_lon": 0.0, "bike_id": "9e65e9c12b83c2b1da52bb81621ae4d5", "type": "electric_scooter", "name": "9e65e9c12b83c2b1da52bb81621ae4d5", "rental_uris": {"android": "https://dc.lft.to/lastmile_qr_scan", "ios": "https://dc.lft.to/lastmile_qr_scan"}, "is_disabled": 0, "fusion_lat": 0.0, "lat": 38.865089, "is_reserved": 0}, {"lon": -77.02611516666667, "fusion_lon": 0.0, "bike_id": "dd444c54c659fb3962137ca8c01ed2de", "type": "electric_scooter", "name": "dd444c54c659fb3962137ca8c01ed2de", "rental_uris": {"android": "https://dc.lft.to/lastmile_qr_scan", "ios": "https://dc.lft.to/lastmile_qr_scan"}, "is_disabled": 0, "fusion_lat": 0.0, "lat": 38.917105666666664, "is_reserved": 0}, {"lon": -76.99164516666667, "fusion_lon": 0.0, "bike_id": "41ecb2c79be4a5be74c65c10300fae0f", "type": "electric_bike", "name": "41ecb2c79be4a5be74c65c10300fae0f", "rental_uris": {"android": "https://dc.lft.to/lastmile_qr_scan", "ios": "https://dc.lft.to/lastmile_qr_scan"}, "is_disabled": 0, "fusion_lat": 0.0, "lat": 38.89340466666667, "is_reserved": 0}, {"lon": -77.04942516666667, "fusion_lon": 0.0, "bike_id": "966da4cc576403cc549fc59a5e0e92ae", "type": "electric_scooter", "name": "966da4cc576403cc549fc59a5e0e92ae", "rental_uris": {"android": "https://dc.lft.to/lastmile_qr_scan", "ios": "https://dc.lft.to/lastmile_qr_scan"}, "is_disabled": 0, "fusion_lat": 0.0, "lat": 38.900725, "is_reserved": 0}, {"lon": -76.98338333333334, "fusion_lon": 0.0, "bike_id": "75b6af02648299809293f39b7d37a8f9", "type": "electric_scooter", "name": "75b6af02648299809293f39b7d37a8f9", "rental_uris": {"android": "https://dc.lft.to/lastmile_qr_scan", "ios": "https://dc.lft.to/lastmile_qr_scan"}, "is_disabled": 0, "fusion_lat": 0.0, "lat": 38.900967333333334, "is_reserved": 0}, {"lon": -77.0190795, "fusion_lon": 0.0, "bike_id": "4ff1ca2c8fbf73cf43154e52f6777cbd", "type": "electric_scooter", "name": "4ff1ca2c8fbf73cf43154e52f6777cbd", "rental_uris": {"android": "https://dc.lft.to/lastmile_qr_scan", "ios": "https://dc.lft.to/lastmile_qr_scan"}, "is_disabled": 0, "fusion_lat": 0.0, "lat": 38.923395666666664, "is_reserved": 0}, {"lon": -77.0131725, "fusion_lon": 0.0, "bike_id": "3b080a2e1d021eeb16f87282fb181c85", "type": "electric_scooter", "name": "3b080a2e1d021eeb16f87282fb181c85", "rental_uris": {"android": "https://dc.lft.to/lastmile_qr_scan", "ios": "https://dc.lft.to/lastmile_qr_scan"}, "is_disabled": 0, "fusion_lat": 0.0, "lat": 38.871622, "is_reserved": 0}, {"lon": -77.04562283333334, "fusion_lon": 0.0, "bike_id": "9edb099e48ca32ee45a5bf6a1c5cd47e", "type": "electric_scooter", "name": "9edb099e48ca32ee45a5bf6a1c5cd47e", "rental_uris": {"android": "https://dc.lft.to/lastmile_qr_scan", "ios": "https://dc.lft.to/lastmile_qr_scan"}, "is_disabled": 0, "fusion_lat": 0.0, "lat": 38.917640666666664, "is_reserved": 0}, {"lon": -77.04127216666667, "fusion_lon": 0.0, "bike_id": "2e244b2fd96ee50d7923b4e292612d9c", "type": "electric_scooter", "name": "2e244b2fd96ee50d7923b4e292612d9c", "rental_uris": {"android": "https://dc.lft.to/lastmile_qr_scan", "ios": "https://dc.lft.to/lastmile_qr_scan"}, "is_disabled": 0, "fusion_lat": 0.0, "lat": 38.933529666666665, "is_reserved": 0}, {"lon": -77.02962533333333, "fusion_lon": 0.0, "bike_id": "9f7365c86585a8fce31a419524216440", "type": "electric_scooter", "name": "9f7365c86585a8fce31a419524216440", "rental_uris": {"android": "https://dc.lft.to/lastmile_qr_scan", "ios": "https://dc.lft.to/lastmile_qr_scan"}, "is_disabled": 0, "fusion_lat": 0.0, "lat": 38.917107666666666, "is_reserved": 0}, {"lon": -77.06333016666666, "fusion_lon": 0.0, "bike_id": "2de5a78625b8751899f87644e9dbcdee", "type": "electric_bike", "name": "2de5a78625b8751899f87644e9dbcdee", "rental_uris": {"android": "https://dc.lft.to/lastmile_qr_scan", "ios": "https://dc.lft.to/lastmile_qr_scan"}, "is_disabled": 0, "fusion_lat": 0.0, "lat": 38.80034216666667, "is_reserved": 0}, {"lon": -77.019897, "fusion_lon": 0.0, "bike_id": "2ce6d58d8209d3a6d69a68555fc2f0a0", "type": "electric_scooter", "name": "2ce6d58d8209d3a6d69a68555fc2f0a0", "rental_uris": {"android": "https://dc.lft.to/lastmile_qr_scan", "ios": "https://dc.lft.to/lastmile_qr_scan"}, "is_disabled": 0, "fusion_lat": 0.0, "lat": 38.930819166666666, "is_reserved": 0}, {"lon": -77.0282245, "fusion_lon": 0.0, "bike_id": "d1c5b507aaa59db21c7cc02916dbec55", "type": "electric_scooter", "name": "d1c5b507aaa59db21c7cc02916dbec55", "rental_uris": {"android": "https://dc.lft.to/lastmile_qr_scan", "ios": "https://dc.lft.to/lastmile_qr_scan"}, "is_disabled": 0, "fusion_lat": 0.0, "lat": 38.932072833333336, "is_reserved": 0}, {"lon": -76.99458316666667, "fusion_lon": 0.0, "bike_id": "482d4bf564d5526d26dc153410dc28b3", "type": "electric_scooter", "name": "482d4bf564d5526d26dc153410dc28b3", "rental_uris": {"android": "https://dc.lft.to/lastmile_qr_scan", "ios": "https://dc.lft.to/lastmile_qr_scan"}, "is_disabled": 0, "fusion_lat": 0.0, "lat": 38.862225, "is_reserved": 0}, {"lon": -77.02230316666666, "fusion_lon": 0.0, "bike_id": "2c346f34073e89e9fb3fa1a7a5413ed5", "type": "electric_scooter", "name": "2c346f34073e89e9fb3fa1a7a5413ed5", "rental_uris": {"android": "https://dc.lft.to/lastmile_qr_scan", "ios": "https://dc.lft.to/lastmile_qr_scan"}, "is_disabled": 0, "fusion_lat": 0.0, "lat": 38.90845133333333, "is_reserved": 0}, {"lon": -77.0239055, "fusion_lon": 0.0, "bike_id": "9a8e56b23f638d7c3b12608fac7f027a", "type": "electric_scooter", "name": "9a8e56b23f638d7c3b12608fac7f027a", "rental_uris": {"android": "https://dc.lft.to/lastmile_qr_scan", "ios": "https://dc.lft.to/lastmile_qr_scan"}, "is_disabled": 0, "fusion_lat": 0.0, "lat": 38.916649166666666, "is_reserved": 0}, {"lon": -77.0174335, "fusion_lon": 0.0, "bike_id": "8af10251c28e71ac28269e679951a3e2", "type": "electric_scooter", "name": "8af10251c28e71ac28269e679951a3e2", "rental_uris": {"android": "https://dc.lft.to/lastmile_qr_scan", "ios": "https://dc.lft.to/lastmile_qr_scan"}, "is_disabled": 0, "fusion_lat": 0.0, "lat": 38.902764833333336, "is_reserved": 0}, {"lon": -77.03841066666666, "fusion_lon": 0.0, "bike_id": "4a76b5990b81801ea601900b37c08295", "type": "electric_scooter", "name": "4a76b5990b81801ea601900b37c08295", "rental_uris": {"android": "https://dc.lft.to/lastmile_qr_scan", "ios": "https://dc.lft.to/lastmile_qr_scan"}, "is_disabled": 0, "fusion_lat": 0.0, "lat": 38.902907166666665, "is_reserved": 0}, {"lon": -76.98604083333333, "fusion_lon": 0.0, "bike_id": "52fb6940100bfb8302f250a38e2ffd3f", "type": "electric_scooter", "name": "52fb6940100bfb8302f250a38e2ffd3f", "rental_uris": {"android": "https://dc.lft.to/lastmile_qr_scan", "ios": "https://dc.lft.to/lastmile_qr_scan"}, "is_disabled": 0, "fusion_lat": 0.0, "lat": 38.900117333333334, "is_reserved": 0}, {"lon": -77.031759, "fusion_lon": 0.0, "bike_id": "8134cc0645f2d48572a8ceb6d701d62e", "type": "electric_scooter", "name": "8134cc0645f2d48572a8ceb6d701d62e", "rental_uris": {"android": "https://dc.lft.to/lastmile_qr_scan", "ios": "https://dc.lft.to/lastmile_qr_scan"}, "is_disabled": 0, "fusion_lat": 0.0, "lat": 38.91806583333333, "is_reserved": 0}, {"lon": -77.0290005, "fusion_lon": 0.0, "bike_id": "087f3bd32591f52d2960f534e58fa788", "type": "electric_scooter", "name": "087f3bd32591f52d2960f534e58fa788", "rental_uris": {"android": "https://dc.lft.to/lastmile_qr_scan", "ios": "https://dc.lft.to/lastmile_qr_scan"}, "is_disabled": 0, "fusion_lat": 0.0, "lat": 38.904409, "is_reserved": 0}, {"lon": -77.041448, "fusion_lon": 0.0, "bike_id": "04de99008d0bd861c8a072ba44d93f43", "type": "electric_scooter", "name": "04de99008d0bd861c8a072ba44d93f43", "rental_uris": {"android": "https://dc.lft.to/lastmile_qr_scan", "ios": "https://dc.lft.to/lastmile_qr_scan"}, "is_disabled": 0, "fusion_lat": 0.0, "lat": 38.922933666666665, "is_reserved": 0}, {"lon": -77.03575833333333, "fusion_lon": 0.0, "bike_id": "3831cf699fa3d0c3b436f9ff5f8ffb4e", "type": "electric_scooter", "name": "3831cf699fa3d0c3b436f9ff5f8ffb4e", "rental_uris": {"android": "https://dc.lft.to/lastmile_qr_scan", "ios": "https://dc.lft.to/lastmile_qr_scan"}, "is_disabled": 0, "fusion_lat": 0.0, "lat": 38.9038135, "is_reserved": 0}, {"lon": -76.96530783333333, "fusion_lon": 0.0, "bike_id": "3cf53294be2c0f05163b613d00c04fec", "type": "electric_scooter", "name": "3cf53294be2c0f05163b613d00c04fec", "rental_uris": {"android": "https://dc.lft.to/lastmile_qr_scan", "ios": "https://dc.lft.to/lastmile_qr_scan"}, "is_disabled": 0, "fusion_lat": 0.0, "lat": 38.876266666666666, "is_reserved": 0}, {"lon": -77.019889, "fusion_lon": 0.0, "bike_id": "9ea50619f7ca668018900af6fea0dc56", "type": "electric_bike", "name": "9ea50619f7ca668018900af6fea0dc56", "rental_uris": {"android": "https://dc.lft.to/lastmile_qr_scan", "ios": "https://dc.lft.to/lastmile_qr_scan"}, "is_disabled": 0, "fusion_lat": 0.0, "lat": 38.9105875, "is_reserved": 0}, {"lon": -76.94635316666667, "fusion_lon": 0.0, "bike_id": "f52b2634bd976580555cdcc62a90285e", "type": "electric_scooter", "name": "f52b2634bd976580555cdcc62a90285e", "rental_uris": {"android": "https://dc.lft.to/lastmile_qr_scan", "ios": "https://dc.lft.to/lastmile_qr_scan"}, "is_disabled": 0, "fusion_lat": 0.0, "lat": 38.898598666666665, "is_reserved": 0}, {"lon": -77.02092366666666, "fusion_lon": 0.0, "bike_id": "c32f929e8e438b3a8034099efae1bef4", "type": "electric_scooter", "name": "c32f929e8e438b3a8034099efae1bef4", "rental_uris": {"android": "https://dc.lft.to/lastmile_qr_scan", "ios": "https://dc.lft.to/lastmile_qr_scan"}, "is_disabled": 0, "fusion_lat": 0.0, "lat": 38.88180216666667, "is_reserved": 0}, {"lon": -77.0036355, "fusion_lon": 0.0, "bike_id": "e48b55e177beeda23b8e32d2b4415f74", "type": "electric_scooter", "name": "e48b55e177beeda23b8e32d2b4415f74", "rental_uris": {"android": "https://dc.lft.to/lastmile_qr_scan", "ios": "https://dc.lft.to/lastmile_qr_scan"}, "is_disabled": 0, "fusion_lat": 0.0, "lat": 38.90875583333333, "is_reserved": 0}, {"lon": -77.00195266666667, "fusion_lon": 0.0, "bike_id": "724ce5879a6caace60150875aba746a7", "type": "electric_scooter", "name": "724ce5879a6caace60150875aba746a7", "rental_uris": {"android": "https://dc.lft.to/lastmile_qr_scan", "ios": "https://dc.lft.to/lastmile_qr_scan"}, "is_disabled": 0, "fusion_lat": 0.0, "lat": 38.878248, "is_reserved": 0}, {"lon": -77.024328, "fusion_lon": 0.0, "bike_id": "6f7e915ccb35ebfd2610366123c2e5ed", "type": "electric_scooter", "name": "6f7e915ccb35ebfd2610366123c2e5ed", "rental_uris": {"android": "https://dc.lft.to/lastmile_qr_scan", "ios": "https://dc.lft.to/lastmile_qr_scan"}, "is_disabled": 0, "fusion_lat": 0.0, "lat": 38.912480333333335, "is_reserved": 0}, {"lon": -77.03670266666667, "fusion_lon": 0.0, "bike_id": "5d3c8f784121d6fcb635344243f09950", "type": "electric_scooter", "name": "5d3c8f784121d6fcb635344243f09950", "rental_uris": {"android": "https://dc.lft.to/lastmile_qr_scan", "ios": "https://dc.lft.to/lastmile_qr_scan"}, "is_disabled": 0, "fusion_lat": 0.0, "lat": 38.912431, "is_reserved": 0}, {"lon": -77.013724, "fusion_lon": 0.0, "bike_id": "dfd1e550fc907d3113569efbde289293", "type": "electric_scooter", "name": "dfd1e550fc907d3113569efbde289293", "rental_uris": {"android": "https://dc.lft.to/lastmile_qr_scan", "ios": "https://dc.lft.to/lastmile_qr_scan"}, "is_disabled": 0, "fusion_lat": 0.0, "lat": 38.97449316666667, "is_reserved": 0}, {"lon": -77.0061195, "fusion_lon": 0.0, "bike_id": "d2a9e88a06a571d959ad05f25f0729e9", "type": "electric_scooter", "name": "d2a9e88a06a571d959ad05f25f0729e9", "rental_uris": {"android": "https://dc.lft.to/lastmile_qr_scan", "ios": "https://dc.lft.to/lastmile_qr_scan"}, "is_disabled": 0, "fusion_lat": 0.0, "lat": 38.8718, "is_reserved": 0}, {"lon": -77.05154516666667, "fusion_lon": 0.0, "bike_id": "e8e3146cc81dc1d1b269d5b4bffe2ea1", "type": "electric_scooter", "name": "e8e3146cc81dc1d1b269d5b4bffe2ea1", "rental_uris": {"android": "https://dc.lft.to/lastmile_qr_scan", "ios": "https://dc.lft.to/lastmile_qr_scan"}, "is_disabled": 0, "fusion_lat": 0.0, "lat": 38.923762833333335, "is_reserved": 0}, {"lon": -77.0283995, "fusion_lon": 0.0, "bike_id": "aeb8619aafea18e1dfd9fb3177b4b236", "type": "electric_scooter", "name": "aeb8619aafea18e1dfd9fb3177b4b236", "rental_uris": {"android": "https://dc.lft.to/lastmile_qr_scan", "ios": "https://dc.lft.to/lastmile_qr_scan"}, "is_disabled": 0, "fusion_lat": 0.0, "lat": 38.893545, "is_reserved": 0}, {"lon": -77.00293983333333, "fusion_lon": 0.0, "bike_id": "bf72a1a3a408dcdfdb651e6b909a20e9", "type": "electric_scooter", "name": "bf72a1a3a408dcdfdb651e6b909a20e9", "rental_uris": {"android": "https://dc.lft.to/lastmile_qr_scan", "ios": "https://dc.lft.to/lastmile_qr_scan"}, "is_disabled": 0, "fusion_lat": 0.0, "lat": 38.91815866666666, "is_reserved": 0}, {"lon": -77.002356, "fusion_lon": 0.0, "bike_id": "d414cea836a2f9d158d3ef15eb3601d4", "type": "electric_scooter", "name": "d414cea836a2f9d158d3ef15eb3601d4", "rental_uris": {"android": "https://dc.lft.to/lastmile_qr_scan", "ios": "https://dc.lft.to/lastmile_qr_scan"}, "is_disabled": 0, "fusion_lat": 0.0, "lat": 38.874941666666665, "is_reserved": 0}, {"lon": -77.04108916666667, "fusion_lon": 0.0, "bike_id": "6cfcfd9e747b812c45c621557e82f07e", "type": "electric_scooter", "name": "6cfcfd9e747b812c45c621557e82f07e", "rental_uris": {"android": "https://dc.lft.to/lastmile_qr_scan", "ios": "https://dc.lft.to/lastmile_qr_scan"}, "is_disabled": 0, "fusion_lat": 0.0, "lat": 38.916981, "is_reserved": 0}, {"lon": -77.0607335, "fusion_lon": 0.0, "bike_id": "ffd52b5c0b78557978aa199bcecc09db", "type": "electric_scooter", "name": "ffd52b5c0b78557978aa199bcecc09db", "rental_uris": {"android": "https://dc.lft.to/lastmile_qr_scan", "ios": "https://dc.lft.to/lastmile_qr_scan"}, "is_disabled": 0, "fusion_lat": 0.0, "lat": 38.90685666666667, "is_reserved": 0}, {"lon": -77.02216983333334, "fusion_lon": 0.0, "bike_id": "174f79808f76a66c2eea325ab8768561", "type": "electric_scooter", "name": "174f79808f76a66c2eea325ab8768561", "rental_uris": {"android": "https://dc.lft.to/lastmile_qr_scan", "ios": "https://dc.lft.to/lastmile_qr_scan"}, "is_disabled": 0, "fusion_lat": 0.0, "lat": 38.924723166666666, "is_reserved": 0}, {"lon": -77.02119183333333, "fusion_lon": 0.0, "bike_id": "86a33eacaf831aeacbd76244f59f1468", "type": "electric_scooter", "name": "86a33eacaf831aeacbd76244f59f1468", "rental_uris": {"android": "https://dc.lft.to/lastmile_qr_scan", "ios": "https://dc.lft.to/lastmile_qr_scan"}, "is_disabled": 0, "fusion_lat": 0.0, "lat": 38.885197166666664, "is_reserved": 0}, {"lon": -76.99582116666667, "fusion_lon": 0.0, "bike_id": "06fc4fe6c37393d83287784858df6631", "type": "electric_scooter", "name": "06fc4fe6c37393d83287784858df6631", "rental_uris": {"android": "https://dc.lft.to/lastmile_qr_scan", "ios": "https://dc.lft.to/lastmile_qr_scan"}, "is_disabled": 0, "fusion_lat": 0.0, "lat": 38.85175533333334, "is_reserved": 0}, {"lon": -77.028291, "fusion_lon": 0.0, "bike_id": "be27d002cc10cb3abb8b0f93442e4f64", "type": "electric_scooter", "name": "be27d002cc10cb3abb8b0f93442e4f64", "rental_uris": {"android": "https://dc.lft.to/lastmile_qr_scan", "ios": "https://dc.lft.to/lastmile_qr_scan"}, "is_disabled": 0, "fusion_lat": 0.0, "lat": 38.924653666666664, "is_reserved": 0}, {"lon": -77.042859, "fusion_lon": 0.0, "bike_id": "8c48c77e6be6666914cd4b64cd1ad8d2", "type": "electric_scooter", "name": "8c48c77e6be6666914cd4b64cd1ad8d2", "rental_uris": {"android": "https://dc.lft.to/lastmile_qr_scan", "ios": "https://dc.lft.to/lastmile_qr_scan"}, "is_disabled": 0, "fusion_lat": 0.0, "lat": 38.906463333333335, "is_reserved": 0}, {"lon": -77.0337425, "fusion_lon": 0.0, "bike_id": "53c5924e4ac4b83085b9eb0857507835", "type": "electric_scooter", "name": "53c5924e4ac4b83085b9eb0857507835", "rental_uris": {"android": "https://dc.lft.to/lastmile_qr_scan", "ios": "https://dc.lft.to/lastmile_qr_scan"}, "is_disabled": 0, "fusion_lat": 0.0, "lat": 38.921472333333334, "is_reserved": 0}, {"lon": -77.044685, "fusion_lon": 0.0, "bike_id": "b2f568a91ed153e36b8af3eb098f4f11", "type": "electric_scooter", "name": "b2f568a91ed153e36b8af3eb098f4f11", "rental_uris": {"android": "https://dc.lft.to/lastmile_qr_scan", "ios": "https://dc.lft.to/lastmile_qr_scan"}, "is_disabled": 0, "fusion_lat": 0.0, "lat": 38.897287, "is_reserved": 0}, {"lon": -77.02661466666666, "fusion_lon": 0.0, "bike_id": "698c5b10da4be91967b1b71523339a4c", "type": "electric_scooter", "name": "698c5b10da4be91967b1b71523339a4c", "rental_uris": {"android": "https://dc.lft.to/lastmile_qr_scan", "ios": "https://dc.lft.to/lastmile_qr_scan"}, "is_disabled": 0, "fusion_lat": 0.0, "lat": 38.91696616666667, "is_reserved": 0}, {"lon": -77.02388016666667, "fusion_lon": 0.0, "bike_id": "9f8b1988657e5dccb5f0ccea0ee198be", "type": "electric_scooter", "name": "9f8b1988657e5dccb5f0ccea0ee198be", "rental_uris": {"android": "https://dc.lft.to/lastmile_qr_scan", "ios": "https://dc.lft.to/lastmile_qr_scan"}, "is_disabled": 0, "fusion_lat": 0.0, "lat": 38.89743566666667, "is_reserved": 0}, {"lon": -77.04951316666667, "fusion_lon": 0.0, "bike_id": "ba8832d713c3d3a0ceb93e73b7b9b9f6", "type": "electric_scooter", "name": "ba8832d713c3d3a0ceb93e73b7b9b9f6", "rental_uris": {"android": "https://dc.lft.to/lastmile_qr_scan", "ios": "https://dc.lft.to/lastmile_qr_scan"}, "is_disabled": 0, "fusion_lat": 0.0, "lat": 38.9007545, "is_reserved": 0}, {"lon": -77.0276325, "fusion_lon": 0.0, "bike_id": "b35b162fee60e6dafa0ff4feece8889f", "type": "electric_scooter", "name": "b35b162fee60e6dafa0ff4feece8889f", "rental_uris": {"android": "https://dc.lft.to/lastmile_qr_scan", "ios": "https://dc.lft.to/lastmile_qr_scan"}, "is_disabled": 0, "fusion_lat": 0.0, "lat": 38.9169925, "is_reserved": 0}, {"lon": -77.04022283333333, "fusion_lon": 0.0, "bike_id": "89c49f8b7969353dbaac95d96e8c40e6", "type": "electric_scooter", "name": "89c49f8b7969353dbaac95d96e8c40e6", "rental_uris": {"android": "https://dc.lft.to/lastmile_qr_scan", "ios": "https://dc.lft.to/lastmile_qr_scan"}, "is_disabled": 0, "fusion_lat": 0.0, "lat": 38.92409266666667, "is_reserved": 0}, {"lon": -77.00071166666666, "fusion_lon": 0.0, "bike_id": "5a1029b8fea3113c2d068182a74c5b4a", "type": "electric_scooter", "name": "5a1029b8fea3113c2d068182a74c5b4a", "rental_uris": {"android": "https://dc.lft.to/lastmile_qr_scan", "ios": "https://dc.lft.to/lastmile_qr_scan"}, "is_disabled": 0, "fusion_lat": 0.0, "lat": 38.87681083333333, "is_reserved": 0}, {"lon": -77.006254, "fusion_lon": 0.0, "bike_id": "079422723b115febcce2ef640f4e555e", "type": "electric_scooter", "name": "079422723b115febcce2ef640f4e555e", "rental_uris": {"android": "https://dc.lft.to/lastmile_qr_scan", "ios": "https://dc.lft.to/lastmile_qr_scan"}, "is_disabled": 0, "fusion_lat": 0.0, "lat": 38.871729333333334, "is_reserved": 0}, {"lon": -77.02652016666667, "fusion_lon": 0.0, "bike_id": "2329410b4dda4399ca4d55ac7e8fca73", "type": "electric_scooter", "name": "2329410b4dda4399ca4d55ac7e8fca73", "rental_uris": {"android": "https://dc.lft.to/lastmile_qr_scan", "ios": "https://dc.lft.to/lastmile_qr_scan"}, "is_disabled": 0, "fusion_lat": 0.0, "lat": 38.9386035, "is_reserved": 0}, {"lon": -77.0054635, "fusion_lon": 0.0, "bike_id": "6d57bc2687bf1ea3e15fee0da61c234f", "type": "electric_scooter", "name": "6d57bc2687bf1ea3e15fee0da61c234f", "rental_uris": {"android": "https://dc.lft.to/lastmile_qr_scan", "ios": "https://dc.lft.to/lastmile_qr_scan"}, "is_disabled": 0, "fusion_lat": 0.0, "lat": 38.905724666666664, "is_reserved": 0}, {"lon": -77.02819216666667, "fusion_lon": 0.0, "bike_id": "c1ee600d6257b7434e421943d7f69e38", "type": "electric_scooter", "name": "c1ee600d6257b7434e421943d7f69e38", "rental_uris": {"android": "https://dc.lft.to/lastmile_qr_scan", "ios": "https://dc.lft.to/lastmile_qr_scan"}, "is_disabled": 0, "fusion_lat": 0.0, "lat": 38.9164845, "is_reserved": 0}, {"lon": -77.007014, "fusion_lon": 0.0, "bike_id": "de6829a372d53534624b34207ce0c309", "type": "electric_scooter", "name": "de6829a372d53534624b34207ce0c309", "rental_uris": {"android": "https://dc.lft.to/lastmile_qr_scan", "ios": "https://dc.lft.to/lastmile_qr_scan"}, "is_disabled": 0, "fusion_lat": 0.0, "lat": 38.877365, "is_reserved": 0}, {"lon": -77.03291933333334, "fusion_lon": 0.0, "bike_id": "9f5b77176dc6b822093b173c10a39685", "type": "electric_scooter", "name": "9f5b77176dc6b822093b173c10a39685", "rental_uris": {"android": "https://dc.lft.to/lastmile_qr_scan", "ios": "https://dc.lft.to/lastmile_qr_scan"}, "is_disabled": 0, "fusion_lat": 0.0, "lat": 38.909553, "is_reserved": 0}, {"lon": -76.97616533333333, "fusion_lon": 0.0, "bike_id": "3b4835eb379395ae880faa0aa0865708", "type": "electric_scooter", "name": "3b4835eb379395ae880faa0aa0865708", "rental_uris": {"android": "https://dc.lft.to/lastmile_qr_scan", "ios": "https://dc.lft.to/lastmile_qr_scan"}, "is_disabled": 0, "fusion_lat": 0.0, "lat": 38.8927835, "is_reserved": 0}, {"lon": -77.05177783333333, "fusion_lon": 0.0, "bike_id": "9e215bb80a32c89a4fd25e9f94a2542e", "type": "electric_scooter", "name": "9e215bb80a32c89a4fd25e9f94a2542e", "rental_uris": {"android": "https://dc.lft.to/lastmile_qr_scan", "ios": "https://dc.lft.to/lastmile_qr_scan"}, "is_disabled": 0, "fusion_lat": 0.0, "lat": 38.923698, "is_reserved": 0}, {"lon": -77.074623, "fusion_lon": 0.0, "bike_id": "c1b90091928e8f8353cb3c72039c4838", "type": "electric_scooter", "name": "c1b90091928e8f8353cb3c72039c4838", "rental_uris": {"android": "https://dc.lft.to/lastmile_qr_scan", "ios": "https://dc.lft.to/lastmile_qr_scan"}, "is_disabled": 0, "fusion_lat": 0.0, "lat": 38.935587, "is_reserved": 0}, {"lon": -77.007459, "fusion_lon": 0.0, "bike_id": "008fbe9ccde94e7571771c84a8326959", "type": "electric_scooter", "name": "008fbe9ccde94e7571771c84a8326959", "rental_uris": {"android": "https://dc.lft.to/lastmile_qr_scan", "ios": "https://dc.lft.to/lastmile_qr_scan"}, "is_disabled": 0, "fusion_lat": 0.0, "lat": 38.87696316666667, "is_reserved": 0}, {"lon": -77.0403125, "fusion_lon": 0.0, "bike_id": "54b1024662abae0174b0ed6be3aabaab", "type": "electric_scooter", "name": "54b1024662abae0174b0ed6be3aabaab", "rental_uris": {"android": "https://dc.lft.to/lastmile_qr_scan", "ios": "https://dc.lft.to/lastmile_qr_scan"}, "is_disabled": 0, "fusion_lat": 0.0, "lat": 38.905964, "is_reserved": 0}, {"lon": -76.95190983333333, "fusion_lon": 0.0, "bike_id": "8f1a27c4e1527d894b54e27c1245cee5", "type": "electric_scooter", "name": "8f1a27c4e1527d894b54e27c1245cee5", "rental_uris": {"android": "https://dc.lft.to/lastmile_qr_scan", "ios": "https://dc.lft.to/lastmile_qr_scan"}, "is_disabled": 0, "fusion_lat": 0.0, "lat": 38.8912885, "is_reserved": 0}, {"lon": -77.0371825, "fusion_lon": 0.0, "bike_id": "554d4d77c0720d058dd57df156a6dcc1", "type": "electric_scooter", "name": "554d4d77c0720d058dd57df156a6dcc1", "rental_uris": {"android": "https://dc.lft.to/lastmile_qr_scan", "ios": "https://dc.lft.to/lastmile_qr_scan"}, "is_disabled": 0, "fusion_lat": 0.0, "lat": 38.903666666666666, "is_reserved": 0}, {"lon": -77.03424583333333, "fusion_lon": 0.0, "bike_id": "39490aaea43c1f44f624a07cdc0dd315", "type": "electric_scooter", "name": "39490aaea43c1f44f624a07cdc0dd315", "rental_uris": {"android": "https://dc.lft.to/lastmile_qr_scan", "ios": "https://dc.lft.to/lastmile_qr_scan"}, "is_disabled": 0, "fusion_lat": 0.0, "lat": 38.92736466666667, "is_reserved": 0}, {"lon": -77.03435183333333, "fusion_lon": 0.0, "bike_id": "6f045e34e0e75f27d9573ae4d19d1cc4", "type": "electric_scooter", "name": "6f045e34e0e75f27d9573ae4d19d1cc4", "rental_uris": {"android": "https://dc.lft.to/lastmile_qr_scan", "ios": "https://dc.lft.to/lastmile_qr_scan"}, "is_disabled": 0, "fusion_lat": 0.0, "lat": 38.91798716666667, "is_reserved": 0}, {"lon": -77.0218325, "fusion_lon": 0.0, "bike_id": "5fb7f8d8b010f8133f7204c7d2864ebe", "type": "electric_scooter", "name": "5fb7f8d8b010f8133f7204c7d2864ebe", "rental_uris": {"android": "https://dc.lft.to/lastmile_qr_scan", "ios": "https://dc.lft.to/lastmile_qr_scan"}, "is_disabled": 0, "fusion_lat": 0.0, "lat": 38.90831816666667, "is_reserved": 0}, {"lon": -77.0271375, "fusion_lon": 0.0, "bike_id": "aa63758de88c591a747f732583085ba8", "type": "electric_scooter", "name": "aa63758de88c591a747f732583085ba8", "rental_uris": {"android": "https://dc.lft.to/lastmile_qr_scan", "ios": "https://dc.lft.to/lastmile_qr_scan"}, "is_disabled": 0, "fusion_lat": 0.0, "lat": 38.917161666666665, "is_reserved": 0}, {"lon": -76.9041535, "fusion_lon": 0.0, "bike_id": "f2257b6ef0dd2e78dd4019136b924f8b", "type": "electric_bike", "name": "f2257b6ef0dd2e78dd4019136b924f8b", "rental_uris": {"android": "https://dc.lft.to/lastmile_qr_scan", "ios": "https://dc.lft.to/lastmile_qr_scan"}, "is_disabled": 0, "fusion_lat": 0.0, "lat": 38.940513333333335, "is_reserved": 0}, {"lon": -77.00824066666667, "fusion_lon": 0.0, "bike_id": "5852b84c3f3c96e3aedf34000fa1d3ae", "type": "electric_scooter", "name": "5852b84c3f3c96e3aedf34000fa1d3ae", "rental_uris": {"android": "https://dc.lft.to/lastmile_qr_scan", "ios": "https://dc.lft.to/lastmile_qr_scan"}, "is_disabled": 0, "fusion_lat": 0.0, "lat": 38.83166583333333, "is_reserved": 0}, {"lon": -77.05125183333334, "fusion_lon": 0.0, "bike_id": "2becb5f6b78cae3ff2759077735da251", "type": "electric_scooter", "name": "2becb5f6b78cae3ff2759077735da251", "rental_uris": {"android": "https://dc.lft.to/lastmile_qr_scan", "ios": "https://dc.lft.to/lastmile_qr_scan"}, "is_disabled": 0, "fusion_lat": 0.0, "lat": 38.92361983333333, "is_reserved": 0}, {"lon": -77.038788, "fusion_lon": 0.0, "bike_id": "333fd46320b86fad79a49e951e18ed2a", "type": "electric_scooter", "name": "333fd46320b86fad79a49e951e18ed2a", "rental_uris": {"android": "https://dc.lft.to/lastmile_qr_scan", "ios": "https://dc.lft.to/lastmile_qr_scan"}, "is_disabled": 0, "fusion_lat": 0.0, "lat": 38.917045, "is_reserved": 0}, {"lon": -77.04528933333333, "fusion_lon": 0.0, "bike_id": "c6105b317c92eeb5cf0ea0a52bc718c7", "type": "electric_scooter", "name": "c6105b317c92eeb5cf0ea0a52bc718c7", "rental_uris": {"android": "https://dc.lft.to/lastmile_qr_scan", "ios": "https://dc.lft.to/lastmile_qr_scan"}, "is_disabled": 0, "fusion_lat": 0.0, "lat": 38.894716, "is_reserved": 0}, {"lon": -77.05151533333333, "fusion_lon": 0.0, "bike_id": "d55e01504a08bcdc962484dd5236882b", "type": "electric_scooter", "name": "d55e01504a08bcdc962484dd5236882b", "rental_uris": {"android": "https://dc.lft.to/lastmile_qr_scan", "ios": "https://dc.lft.to/lastmile_qr_scan"}, "is_disabled": 0, "fusion_lat": 0.0, "lat": 38.923777333333334, "is_reserved": 0}, {"lon": -77.00384683333333, "fusion_lon": 0.0, "bike_id": "bc5053dcce25ad8e2a59799a4eb08ebb", "type": "electric_scooter", "name": "bc5053dcce25ad8e2a59799a4eb08ebb", "rental_uris": {"android": "https://dc.lft.to/lastmile_qr_scan", "ios": "https://dc.lft.to/lastmile_qr_scan"}, "is_disabled": 0, "fusion_lat": 0.0, "lat": 38.848493166666664, "is_reserved": 0}, {"lon": -77.02530266666666, "fusion_lon": 0.0, "bike_id": "dbcb11a6012b92261186130ffa50f601", "type": "electric_scooter", "name": "dbcb11a6012b92261186130ffa50f601", "rental_uris": {"android": "https://dc.lft.to/lastmile_qr_scan", "ios": "https://dc.lft.to/lastmile_qr_scan"}, "is_disabled": 0, "fusion_lat": 0.0, "lat": 38.906502333333336, "is_reserved": 0}, {"lon": -77.03147933333334, "fusion_lon": 0.0, "bike_id": "a05f6d490ee9124c6b379c6a316272d3", "type": "electric_scooter", "name": "a05f6d490ee9124c6b379c6a316272d3", "rental_uris": {"android": "https://dc.lft.to/lastmile_qr_scan", "ios": "https://dc.lft.to/lastmile_qr_scan"}, "is_disabled": 0, "fusion_lat": 0.0, "lat": 38.91265083333333, "is_reserved": 0}, {"lon": -77.03836716666666, "fusion_lon": 0.0, "bike_id": "61ef27dd2d29959bca5da32a93dc206d", "type": "electric_scooter", "name": "61ef27dd2d29959bca5da32a93dc206d", "rental_uris": {"android": "https://dc.lft.to/lastmile_qr_scan", "ios": "https://dc.lft.to/lastmile_qr_scan"}, "is_disabled": 0, "fusion_lat": 0.0, "lat": 38.90317366666667, "is_reserved": 0}, {"lon": -77.02302333333333, "fusion_lon": 0.0, "bike_id": "10e14a5e58ba8ab878bacb1ecd750fac", "type": "electric_scooter", "name": "10e14a5e58ba8ab878bacb1ecd750fac", "rental_uris": {"android": "https://dc.lft.to/lastmile_qr_scan", "ios": "https://dc.lft.to/lastmile_qr_scan"}, "is_disabled": 0, "fusion_lat": 0.0, "lat": 38.9168255, "is_reserved": 0}, {"lon": -77.05595233333334, "fusion_lon": 0.0, "bike_id": "3dd5fe93435a9cf2e18cb8698ec51fcc", "type": "electric_bike", "name": "3dd5fe93435a9cf2e18cb8698ec51fcc", "rental_uris": {"android": "https://dc.lft.to/lastmile_qr_scan", "ios": "https://dc.lft.to/lastmile_qr_scan"}, "is_disabled": 0, "fusion_lat": 0.0, "lat": 38.936957, "is_reserved": 0}, {"lon": -77.03249, "fusion_lon": 0.0, "bike_id": "593cbd7acb8ed535a01d9d699f7b893e", "type": "electric_scooter", "name": "593cbd7acb8ed535a01d9d699f7b893e", "rental_uris": {"android": "https://dc.lft.to/lastmile_qr_scan", "ios": "https://dc.lft.to/lastmile_qr_scan"}, "is_disabled": 0, "fusion_lat": 0.0, "lat": 38.89719933333333, "is_reserved": 0}, {"lon": -77.03532783333333, "fusion_lon": 0.0, "bike_id": "ce5e46db92341d2c061affdcd0b3804e", "type": "electric_scooter", "name": "ce5e46db92341d2c061affdcd0b3804e", "rental_uris": {"android": "https://dc.lft.to/lastmile_qr_scan", "ios": "https://dc.lft.to/lastmile_qr_scan"}, "is_disabled": 0, "fusion_lat": 0.0, "lat": 38.9231655, "is_reserved": 0}, {"lon": -77.03408433333334, "fusion_lon": 0.0, "bike_id": "e87f291ff0b4e7ecac2ac883523f5363", "type": "electric_scooter", "name": "e87f291ff0b4e7ecac2ac883523f5363", "rental_uris": {"android": "https://dc.lft.to/lastmile_qr_scan", "ios": "https://dc.lft.to/lastmile_qr_scan"}, "is_disabled": 0, "fusion_lat": 0.0, "lat": 38.92317233333333, "is_reserved": 0}, {"lon": -76.9835135, "fusion_lon": 0.0, "bike_id": "06968913e3498f8079c73aeb599c1796", "type": "electric_bike", "name": "06968913e3498f8079c73aeb599c1796", "rental_uris": {"android": "https://dc.lft.to/lastmile_qr_scan", "ios": "https://dc.lft.to/lastmile_qr_scan"}, "is_disabled": 0, "fusion_lat": 0.0, "lat": 38.862602, "is_reserved": 0}, {"lon": -76.96019766666667, "fusion_lon": 0.0, "bike_id": "d624a64c7377aed25890c5fd31f4a156", "type": "electric_scooter", "name": "d624a64c7377aed25890c5fd31f4a156", "rental_uris": {"android": "https://dc.lft.to/lastmile_qr_scan", "ios": "https://dc.lft.to/lastmile_qr_scan"}, "is_disabled": 0, "fusion_lat": 0.0, "lat": 38.869305833333335, "is_reserved": 0}, {"lon": -77.03639766666667, "fusion_lon": 0.0, "bike_id": "0bb82380d499e5a08ef14985f61810a2", "type": "electric_scooter", "name": "0bb82380d499e5a08ef14985f61810a2", "rental_uris": {"android": "https://dc.lft.to/lastmile_qr_scan", "ios": "https://dc.lft.to/lastmile_qr_scan"}, "is_disabled": 0, "fusion_lat": 0.0, "lat": 38.917442666666666, "is_reserved": 0}, {"lon": -77.031858, "fusion_lon": 0.0, "bike_id": "c01f796cf098722eb331c23b6372ed0c", "type": "electric_scooter", "name": "c01f796cf098722eb331c23b6372ed0c", "rental_uris": {"android": "https://dc.lft.to/lastmile_qr_scan", "ios": "https://dc.lft.to/lastmile_qr_scan"}, "is_disabled": 0, "fusion_lat": 0.0, "lat": 38.9157555, "is_reserved": 0}, {"lon": -77.02307566666667, "fusion_lon": 0.0, "bike_id": "75572f9af5a5a377f87aaf26f2662038", "type": "electric_scooter", "name": "75572f9af5a5a377f87aaf26f2662038", "rental_uris": {"android": "https://dc.lft.to/lastmile_qr_scan", "ios": "https://dc.lft.to/lastmile_qr_scan"}, "is_disabled": 0, "fusion_lat": 0.0, "lat": 38.927253, "is_reserved": 0}, {"lon": -77.0454005, "fusion_lon": 0.0, "bike_id": "8dba4df5880af848ed4924db6abf2b69", "type": "electric_scooter", "name": "8dba4df5880af848ed4924db6abf2b69", "rental_uris": {"android": "https://dc.lft.to/lastmile_qr_scan", "ios": "https://dc.lft.to/lastmile_qr_scan"}, "is_disabled": 0, "fusion_lat": 0.0, "lat": 38.93153983333333, "is_reserved": 0}, {"lon": -77.01140533333333, "fusion_lon": 0.0, "bike_id": "fa5a6a4cafb6da3783074cba21af09c7", "type": "electric_scooter", "name": "fa5a6a4cafb6da3783074cba21af09c7", "rental_uris": {"android": "https://dc.lft.to/lastmile_qr_scan", "ios": "https://dc.lft.to/lastmile_qr_scan"}, "is_disabled": 0, "fusion_lat": 0.0, "lat": 38.90012383333333, "is_reserved": 0}, {"lon": -76.9559245, "fusion_lon": 0.0, "bike_id": "00a5fd2c077039353aaee2e3b696bcd4", "type": "electric_scooter", "name": "00a5fd2c077039353aaee2e3b696bcd4", "rental_uris": {"android": "https://dc.lft.to/lastmile_qr_scan", "ios": "https://dc.lft.to/lastmile_qr_scan"}, "is_disabled": 0, "fusion_lat": 0.0, "lat": 38.88763216666667, "is_reserved": 0}, {"lon": -77.07090466666666, "fusion_lon": 0.0, "bike_id": "4cf76cd4c3b3cb462a4c4c8f3151629d", "type": "electric_scooter", "name": "4cf76cd4c3b3cb462a4c4c8f3151629d", "rental_uris": {"android": "https://dc.lft.to/lastmile_qr_scan", "ios": "https://dc.lft.to/lastmile_qr_scan"}, "is_disabled": 0, "fusion_lat": 0.0, "lat": 38.896563666666665, "is_reserved": 0}, {"lon": -77.02466283333334, "fusion_lon": 0.0, "bike_id": "6b5ec5f08b2ffc2b0f2703a40fc20d6e", "type": "electric_scooter", "name": "6b5ec5f08b2ffc2b0f2703a40fc20d6e", "rental_uris": {"android": "https://dc.lft.to/lastmile_qr_scan", "ios": "https://dc.lft.to/lastmile_qr_scan"}, "is_disabled": 0, "fusion_lat": 0.0, "lat": 38.930993666666666, "is_reserved": 0}, {"lon": -77.00579783333333, "fusion_lon": 0.0, "bike_id": "cd845d95e7f52c2586550b4a866549b7", "type": "electric_scooter", "name": "cd845d95e7f52c2586550b4a866549b7", "rental_uris": {"android": "https://dc.lft.to/lastmile_qr_scan", "ios": "https://dc.lft.to/lastmile_qr_scan"}, "is_disabled": 0, "fusion_lat": 0.0, "lat": 38.87571783333333, "is_reserved": 0}, {"lon": -77.02754216666666, "fusion_lon": 0.0, "bike_id": "21f1145d50c1e85e11b4460cae83224c", "type": "electric_scooter", "name": "21f1145d50c1e85e11b4460cae83224c", "rental_uris": {"android": "https://dc.lft.to/lastmile_qr_scan", "ios": "https://dc.lft.to/lastmile_qr_scan"}, "is_disabled": 0, "fusion_lat": 0.0, "lat": 38.89710616666667, "is_reserved": 0}, {"lon": -77.03860433333334, "fusion_lon": 0.0, "bike_id": "5da82a4ed7459297bd39ed0b064800d4", "type": "electric_scooter", "name": "5da82a4ed7459297bd39ed0b064800d4", "rental_uris": {"android": "https://dc.lft.to/lastmile_qr_scan", "ios": "https://dc.lft.to/lastmile_qr_scan"}, "is_disabled": 0, "fusion_lat": 0.0, "lat": 38.91715466666667, "is_reserved": 0}, {"lon": -77.025608, "fusion_lon": 0.0, "bike_id": "5c65aa84c15b137ba09aa43f24e98ca5", "type": "electric_scooter", "name": "5c65aa84c15b137ba09aa43f24e98ca5", "rental_uris": {"android": "https://dc.lft.to/lastmile_qr_scan", "ios": "https://dc.lft.to/lastmile_qr_scan"}, "is_disabled": 0, "fusion_lat": 0.0, "lat": 38.903498666666664, "is_reserved": 0}, {"lon": -77.0254575, "fusion_lon": 0.0, "bike_id": "bc83e7dd5a9aef4eea5becbe66a70256", "type": "electric_bike", "name": "bc83e7dd5a9aef4eea5becbe66a70256", "rental_uris": {"android": "https://dc.lft.to/lastmile_qr_scan", "ios": "https://dc.lft.to/lastmile_qr_scan"}, "is_disabled": 0, "fusion_lat": 0.0, "lat": 38.99709633333333, "is_reserved": 0}, {"lon": -77.013229, "fusion_lon": 0.0, "bike_id": "22eac357f9c7066786d3f7c7ab0a0821", "type": "electric_scooter", "name": "22eac357f9c7066786d3f7c7ab0a0821", "rental_uris": {"android": "https://dc.lft.to/lastmile_qr_scan", "ios": "https://dc.lft.to/lastmile_qr_scan"}, "is_disabled": 0, "fusion_lat": 0.0, "lat": 38.906060833333335, "is_reserved": 0}, {"lon": -76.98717083333334, "fusion_lon": 0.0, "bike_id": "246d3db82fdff9827a4c12c5dd672302", "type": "electric_scooter", "name": "246d3db82fdff9827a4c12c5dd672302", "rental_uris": {"android": "https://dc.lft.to/lastmile_qr_scan", "ios": "https://dc.lft.to/lastmile_qr_scan"}, "is_disabled": 0, "fusion_lat": 0.0, "lat": 38.86625033333333, "is_reserved": 0}, {"lon": -77.01141316666667, "fusion_lon": 0.0, "bike_id": "bc7579832e82289d5a6238a885bcddba", "type": "electric_scooter", "name": "bc7579832e82289d5a6238a885bcddba", "rental_uris": {"android": "https://dc.lft.to/lastmile_qr_scan", "ios": "https://dc.lft.to/lastmile_qr_scan"}, "is_disabled": 0, "fusion_lat": 0.0, "lat": 38.911636333333334, "is_reserved": 0}, {"lon": -77.039052, "fusion_lon": 0.0, "bike_id": "463dab656bf4014992bacea82ef33882", "type": "electric_scooter", "name": "463dab656bf4014992bacea82ef33882", "rental_uris": {"android": "https://dc.lft.to/lastmile_qr_scan", "ios": "https://dc.lft.to/lastmile_qr_scan"}, "is_disabled": 0, "fusion_lat": 0.0, "lat": 38.903689, "is_reserved": 0}, {"lon": -77.051436, "fusion_lon": 0.0, "bike_id": "a1535f39167c27849c37a9569f655f65", "type": "electric_scooter", "name": "a1535f39167c27849c37a9569f655f65", "rental_uris": {"android": "https://dc.lft.to/lastmile_qr_scan", "ios": "https://dc.lft.to/lastmile_qr_scan"}, "is_disabled": 0, "fusion_lat": 0.0, "lat": 38.906412, "is_reserved": 0}, {"lon": -77.01854683333333, "fusion_lon": 0.0, "bike_id": "c27677f4e6fa9ff48b4b36884bcb17fa", "type": "electric_scooter", "name": "c27677f4e6fa9ff48b4b36884bcb17fa", "rental_uris": {"android": "https://dc.lft.to/lastmile_qr_scan", "ios": "https://dc.lft.to/lastmile_qr_scan"}, "is_disabled": 0, "fusion_lat": 0.0, "lat": 38.909629833333334, "is_reserved": 0}, {"lon": -77.027202, "fusion_lon": 0.0, "bike_id": "1d1cfb0cd633fe7a88a4fba6bf6a62ed", "type": "electric_scooter", "name": "1d1cfb0cd633fe7a88a4fba6bf6a62ed", "rental_uris": {"android": "https://dc.lft.to/lastmile_qr_scan", "ios": "https://dc.lft.to/lastmile_qr_scan"}, "is_disabled": 0, "fusion_lat": 0.0, "lat": 38.907833333333336, "is_reserved": 0}, {"lon": -77.05342283333333, "fusion_lon": 0.0, "bike_id": "98836e148151ea5aadb2c0e071de1f3f", "type": "electric_scooter", "name": "98836e148151ea5aadb2c0e071de1f3f", "rental_uris": {"android": "https://dc.lft.to/lastmile_qr_scan", "ios": "https://dc.lft.to/lastmile_qr_scan"}, "is_disabled": 0, "fusion_lat": 0.0, "lat": 38.90001816666667, "is_reserved": 0}, {"lon": -77.02589266666666, "fusion_lon": 0.0, "bike_id": "6487fbf160c39ad67c58db65bb7c572c", "type": "electric_scooter", "name": "6487fbf160c39ad67c58db65bb7c572c", "rental_uris": {"android": "https://dc.lft.to/lastmile_qr_scan", "ios": "https://dc.lft.to/lastmile_qr_scan"}, "is_disabled": 0, "fusion_lat": 0.0, "lat": 38.942039333333334, "is_reserved": 0}, {"lon": -76.930785, "fusion_lon": 0.0, "bike_id": "a3f10cf6a77c1c91c4afde93e1ae2cd1", "type": "electric_scooter", "name": "a3f10cf6a77c1c91c4afde93e1ae2cd1", "rental_uris": {"android": "https://dc.lft.to/lastmile_qr_scan", "ios": "https://dc.lft.to/lastmile_qr_scan"}, "is_disabled": 0, "fusion_lat": 0.0, "lat": 38.901618666666664, "is_reserved": 0}, {"lon": -77.010911, "fusion_lon": 0.0, "bike_id": "c33d31994df895e675b77ab0f7b2ab31", "type": "electric_bike", "name": "c33d31994df895e675b77ab0f7b2ab31", "rental_uris": {"android": "https://dc.lft.to/lastmile_qr_scan", "ios": "https://dc.lft.to/lastmile_qr_scan"}, "is_disabled": 0, "fusion_lat": 0.0, "lat": 38.872995333333336, "is_reserved": 0}, {"lon": -77.05684033333333, "fusion_lon": 0.0, "bike_id": "907c4ddb51552d8b9cc4619612b2a0b1", "type": "electric_scooter", "name": "907c4ddb51552d8b9cc4619612b2a0b1", "rental_uris": {"android": "https://dc.lft.to/lastmile_qr_scan", "ios": "https://dc.lft.to/lastmile_qr_scan"}, "is_disabled": 0, "fusion_lat": 0.0, "lat": 38.951622666666665, "is_reserved": 0}, {"lon": -77.01210233333333, "fusion_lon": 0.0, "bike_id": "361c89c18d20baf8d88a0c218b212829", "type": "electric_scooter", "name": "361c89c18d20baf8d88a0c218b212829", "rental_uris": {"android": "https://dc.lft.to/lastmile_qr_scan", "ios": "https://dc.lft.to/lastmile_qr_scan"}, "is_disabled": 0, "fusion_lat": 0.0, "lat": 38.900376, "is_reserved": 0}, {"lon": -77.07958066666667, "fusion_lon": 0.0, "bike_id": "83c9fa00e29a4d0031e4ebc37295b48c", "type": "electric_scooter", "name": "83c9fa00e29a4d0031e4ebc37295b48c", "rental_uris": {"android": "https://dc.lft.to/lastmile_qr_scan", "ios": "https://dc.lft.to/lastmile_qr_scan"}, "is_disabled": 0, "fusion_lat": 0.0, "lat": 38.94559616666667, "is_reserved": 0}, {"lon": -77.02175516666667, "fusion_lon": 0.0, "bike_id": "030cae3ac3ab65222add868bf09d6d6f", "type": "electric_scooter", "name": "030cae3ac3ab65222add868bf09d6d6f", "rental_uris": {"android": "https://dc.lft.to/lastmile_qr_scan", "ios": "https://dc.lft.to/lastmile_qr_scan"}, "is_disabled": 0, "fusion_lat": 0.0, "lat": 38.919868666666666, "is_reserved": 0}, {"lon": -77.22890266666667, "fusion_lon": 0.0, "bike_id": "bdb3da26a1c2c64db6ab26830d0b4475", "type": "electric_bike", "name": "bdb3da26a1c2c64db6ab26830d0b4475", "rental_uris": {"android": "https://dc.lft.to/lastmile_qr_scan", "ios": "https://dc.lft.to/lastmile_qr_scan"}, "is_disabled": 0, "fusion_lat": 0.0, "lat": 38.909568, "is_reserved": 0}, {"lon": -77.007113, "fusion_lon": 0.0, "bike_id": "1b9b280bbe65ebc1f64b854646491016", "type": "electric_scooter", "name": "1b9b280bbe65ebc1f64b854646491016", "rental_uris": {"android": "https://dc.lft.to/lastmile_qr_scan", "ios": "https://dc.lft.to/lastmile_qr_scan"}, "is_disabled": 0, "fusion_lat": 0.0, "lat": 38.8849235, "is_reserved": 0}, {"lon": -77.05062466666666, "fusion_lon": 0.0, "bike_id": "045b30ac9e34b546138b59c24dc9f8fa", "type": "electric_scooter", "name": "045b30ac9e34b546138b59c24dc9f8fa", "rental_uris": {"android": "https://dc.lft.to/lastmile_qr_scan", "ios": "https://dc.lft.to/lastmile_qr_scan"}, "is_disabled": 0, "fusion_lat": 0.0, "lat": 38.90545616666667, "is_reserved": 0}, {"lon": -77.027139, "fusion_lon": 0.0, "bike_id": "cdee4241aaf10cd84a8620ec7fe9116e", "type": "electric_scooter", "name": "cdee4241aaf10cd84a8620ec7fe9116e", "rental_uris": {"android": "https://dc.lft.to/lastmile_qr_scan", "ios": "https://dc.lft.to/lastmile_qr_scan"}, "is_disabled": 0, "fusion_lat": 0.0, "lat": 38.92456466666667, "is_reserved": 0}, {"lon": -76.9887595, "fusion_lon": 0.0, "bike_id": "b5af7d009de3e61f3e9f337ecefe4e42", "type": "electric_scooter", "name": "b5af7d009de3e61f3e9f337ecefe4e42", "rental_uris": {"android": "https://dc.lft.to/lastmile_qr_scan", "ios": "https://dc.lft.to/lastmile_qr_scan"}, "is_disabled": 0, "fusion_lat": 0.0, "lat": 38.866572, "is_reserved": 0}, {"lon": -76.997009, "fusion_lon": 0.0, "bike_id": "ab1c2e080ba5267514e1fec2fe31b68b", "type": "electric_scooter", "name": "ab1c2e080ba5267514e1fec2fe31b68b", "rental_uris": {"android": "https://dc.lft.to/lastmile_qr_scan", "ios": "https://dc.lft.to/lastmile_qr_scan"}, "is_disabled": 0, "fusion_lat": 0.0, "lat": 38.9220385, "is_reserved": 0}, {"lon": -76.97822733333334, "fusion_lon": 0.0, "bike_id": "7a4523d2ffe6910aa8b58a5de2710d60", "type": "electric_scooter", "name": "7a4523d2ffe6910aa8b58a5de2710d60", "rental_uris": {"android": "https://dc.lft.to/lastmile_qr_scan", "ios": "https://dc.lft.to/lastmile_qr_scan"}, "is_disabled": 0, "fusion_lat": 0.0, "lat": 38.8984055, "is_reserved": 0}, {"lon": -77.02964033333333, "fusion_lon": 0.0, "bike_id": "5970b9036efecf9968317c1ac50643c5", "type": "electric_scooter", "name": "5970b9036efecf9968317c1ac50643c5", "rental_uris": {"android": "https://dc.lft.to/lastmile_qr_scan", "ios": "https://dc.lft.to/lastmile_qr_scan"}, "is_disabled": 0, "fusion_lat": 0.0, "lat": 38.9209425, "is_reserved": 0}, {"lon": -77.03327383333334, "fusion_lon": 0.0, "bike_id": "db87b7d4dfe2da393191aa563089e26f", "type": "electric_scooter", "name": "db87b7d4dfe2da393191aa563089e26f", "rental_uris": {"android": "https://dc.lft.to/lastmile_qr_scan", "ios": "https://dc.lft.to/lastmile_qr_scan"}, "is_disabled": 0, "fusion_lat": 0.0, "lat": 38.89817516666667, "is_reserved": 0}, {"lon": -76.9817535, "fusion_lon": 0.0, "bike_id": "c12b6bffcd674315070bafc71c80e2ad", "type": "electric_scooter", "name": "c12b6bffcd674315070bafc71c80e2ad", "rental_uris": {"android": "https://dc.lft.to/lastmile_qr_scan", "ios": "https://dc.lft.to/lastmile_qr_scan"}, "is_disabled": 0, "fusion_lat": 0.0, "lat": 38.869663333333335, "is_reserved": 0}, {"lon": -77.03043883333333, "fusion_lon": 0.0, "bike_id": "91f5499acb0212c03c4e535ab3b425fc", "type": "electric_scooter", "name": "91f5499acb0212c03c4e535ab3b425fc", "rental_uris": {"android": "https://dc.lft.to/lastmile_qr_scan", "ios": "https://dc.lft.to/lastmile_qr_scan"}, "is_disabled": 0, "fusion_lat": 0.0, "lat": 38.92357783333333, "is_reserved": 0}, {"lon": -77.02821016666667, "fusion_lon": 0.0, "bike_id": "a59163f954dc50e2feb7e3893a4276d4", "type": "electric_scooter", "name": "a59163f954dc50e2feb7e3893a4276d4", "rental_uris": {"android": "https://dc.lft.to/lastmile_qr_scan", "ios": "https://dc.lft.to/lastmile_qr_scan"}, "is_disabled": 0, "fusion_lat": 0.0, "lat": 38.932082, "is_reserved": 0}, {"lon": -77.01541566666667, "fusion_lon": 0.0, "bike_id": "edd73b170b287ef944e0d26daaae90d4", "type": "electric_scooter", "name": "edd73b170b287ef944e0d26daaae90d4", "rental_uris": {"android": "https://dc.lft.to/lastmile_qr_scan", "ios": "https://dc.lft.to/lastmile_qr_scan"}, "is_disabled": 0, "fusion_lat": 0.0, "lat": 38.941222333333336, "is_reserved": 0}, {"lon": -77.04499783333333, "fusion_lon": 0.0, "bike_id": "6dfd34f64d669d52294a8d1ab0051e43", "type": "electric_scooter", "name": "6dfd34f64d669d52294a8d1ab0051e43", "rental_uris": {"android": "https://dc.lft.to/lastmile_qr_scan", "ios": "https://dc.lft.to/lastmile_qr_scan"}, "is_disabled": 0, "fusion_lat": 0.0, "lat": 38.919313, "is_reserved": 0}, {"lon": -77.01146133333333, "fusion_lon": 0.0, "bike_id": "186ace152fe9b56477abbd7963515dc9", "type": "electric_scooter", "name": "186ace152fe9b56477abbd7963515dc9", "rental_uris": {"android": "https://dc.lft.to/lastmile_qr_scan", "ios": "https://dc.lft.to/lastmile_qr_scan"}, "is_disabled": 0, "fusion_lat": 0.0, "lat": 38.896281, "is_reserved": 0}, {"lon": -77.0393465, "fusion_lon": 0.0, "bike_id": "23d7c77ba5872ce4f007daf9c27541f9", "type": "electric_scooter", "name": "23d7c77ba5872ce4f007daf9c27541f9", "rental_uris": {"android": "https://dc.lft.to/lastmile_qr_scan", "ios": "https://dc.lft.to/lastmile_qr_scan"}, "is_disabled": 0, "fusion_lat": 0.0, "lat": 38.898526833333335, "is_reserved": 0}, {"lon": -77.019837, "fusion_lon": 0.0, "bike_id": "394d42826732eaa982db0307ae2e868f", "type": "electric_scooter", "name": "394d42826732eaa982db0307ae2e868f", "rental_uris": {"android": "https://dc.lft.to/lastmile_qr_scan", "ios": "https://dc.lft.to/lastmile_qr_scan"}, "is_disabled": 0, "fusion_lat": 0.0, "lat": 38.905052833333336, "is_reserved": 0}, {"lon": -77.02081133333333, "fusion_lon": 0.0, "bike_id": "3a2a21befed9666d442a4e25fa3a2d00", "type": "electric_scooter", "name": "3a2a21befed9666d442a4e25fa3a2d00", "rental_uris": {"android": "https://dc.lft.to/lastmile_qr_scan", "ios": "https://dc.lft.to/lastmile_qr_scan"}, "is_disabled": 0, "fusion_lat": 0.0, "lat": 38.92779216666667, "is_reserved": 0}, {"lon": -77.03237783333333, "fusion_lon": 0.0, "bike_id": "ee8d8e5639c6f7422eefa76b0c39d8be", "type": "electric_scooter", "name": "ee8d8e5639c6f7422eefa76b0c39d8be", "rental_uris": {"android": "https://dc.lft.to/lastmile_qr_scan", "ios": "https://dc.lft.to/lastmile_qr_scan"}, "is_disabled": 0, "fusion_lat": 0.0, "lat": 38.9205955, "is_reserved": 0}, {"lon": -77.04358133333334, "fusion_lon": 0.0, "bike_id": "a9f8af60c87e8289a537192e32e59269", "type": "electric_scooter", "name": "a9f8af60c87e8289a537192e32e59269", "rental_uris": {"android": "https://dc.lft.to/lastmile_qr_scan", "ios": "https://dc.lft.to/lastmile_qr_scan"}, "is_disabled": 0, "fusion_lat": 0.0, "lat": 38.908394, "is_reserved": 0}, {"lon": -77.037924, "fusion_lon": 0.0, "bike_id": "73b489b89e0a701d082c1717ae801e67", "type": "electric_scooter", "name": "73b489b89e0a701d082c1717ae801e67", "rental_uris": {"android": "https://dc.lft.to/lastmile_qr_scan", "ios": "https://dc.lft.to/lastmile_qr_scan"}, "is_disabled": 0, "fusion_lat": 0.0, "lat": 38.92184683333333, "is_reserved": 0}, {"lon": -77.110808, "fusion_lon": 0.0, "bike_id": "6c1dbeba0ca1229e7f01b3ecff8625ec", "type": "electric_bike", "name": "6c1dbeba0ca1229e7f01b3ecff8625ec", "rental_uris": {"android": "https://dc.lft.to/lastmile_qr_scan", "ios": "https://dc.lft.to/lastmile_qr_scan"}, "is_disabled": 0, "fusion_lat": 0.0, "lat": 39.012221333333336, "is_reserved": 0}, {"lon": -77.02820366666667, "fusion_lon": 0.0, "bike_id": "6934dca8104605f2e2f5f661704e92de", "type": "electric_scooter", "name": "6934dca8104605f2e2f5f661704e92de", "rental_uris": {"android": "https://dc.lft.to/lastmile_qr_scan", "ios": "https://dc.lft.to/lastmile_qr_scan"}, "is_disabled": 0, "fusion_lat": 0.0, "lat": 38.932064833333335, "is_reserved": 0}, {"lon": -76.9795645, "fusion_lon": 0.0, "bike_id": "59da03b24fc2c76e28b557c4c54144f5", "type": "electric_scooter", "name": "59da03b24fc2c76e28b557c4c54144f5", "rental_uris": {"android": "https://dc.lft.to/lastmile_qr_scan", "ios": "https://dc.lft.to/lastmile_qr_scan"}, "is_disabled": 0, "fusion_lat": 0.0, "lat": 38.90501166666667, "is_reserved": 0}, {"lon": -77.04354233333333, "fusion_lon": 0.0, "bike_id": "6d95af8d1d3a7dcc2c83b746c25452fc", "type": "electric_scooter", "name": "6d95af8d1d3a7dcc2c83b746c25452fc", "rental_uris": {"android": "https://dc.lft.to/lastmile_qr_scan", "ios": "https://dc.lft.to/lastmile_qr_scan"}, "is_disabled": 0, "fusion_lat": 0.0, "lat": 38.90866183333333, "is_reserved": 0}, {"lon": -76.99505616666667, "fusion_lon": 0.0, "bike_id": "8a5c98dc3ded5ae0958258bd0899d322", "type": "electric_scooter", "name": "8a5c98dc3ded5ae0958258bd0899d322", "rental_uris": {"android": "https://dc.lft.to/lastmile_qr_scan", "ios": "https://dc.lft.to/lastmile_qr_scan"}, "is_disabled": 0, "fusion_lat": 0.0, "lat": 38.862413833333335, "is_reserved": 0}, {"lon": -77.02532883333333, "fusion_lon": 0.0, "bike_id": "b37ed0aa57836752f6e08afb7b7ef02b", "type": "electric_scooter", "name": "b37ed0aa57836752f6e08afb7b7ef02b", "rental_uris": {"android": "https://dc.lft.to/lastmile_qr_scan", "ios": "https://dc.lft.to/lastmile_qr_scan"}, "is_disabled": 0, "fusion_lat": 0.0, "lat": 38.94551216666667, "is_reserved": 0}, {"lon": -77.0307225, "fusion_lon": 0.0, "bike_id": "f80f3a2b3e6314d267619fc7f68f31f9", "type": "electric_scooter", "name": "f80f3a2b3e6314d267619fc7f68f31f9", "rental_uris": {"android": "https://dc.lft.to/lastmile_qr_scan", "ios": "https://dc.lft.to/lastmile_qr_scan"}, "is_disabled": 0, "fusion_lat": 0.0, "lat": 38.902585333333334, "is_reserved": 0}, {"lon": -77.04941583333333, "fusion_lon": 0.0, "bike_id": "99fae16f327d6662d377445af2c39459", "type": "electric_scooter", "name": "99fae16f327d6662d377445af2c39459", "rental_uris": {"android": "https://dc.lft.to/lastmile_qr_scan", "ios": "https://dc.lft.to/lastmile_qr_scan"}, "is_disabled": 0, "fusion_lat": 0.0, "lat": 38.88827283333333, "is_reserved": 0}, {"lon": -76.9404865, "fusion_lon": 0.0, "bike_id": "766286a9553e3e31e8632dbe589c76bd", "type": "electric_bike", "name": "766286a9553e3e31e8632dbe589c76bd", "rental_uris": {"android": "https://dc.lft.to/lastmile_qr_scan", "ios": "https://dc.lft.to/lastmile_qr_scan"}, "is_disabled": 0, "fusion_lat": 0.0, "lat": 38.9785665, "is_reserved": 0}, {"lon": -77.027085, "fusion_lon": 0.0, "bike_id": "dfe85f00839e951c3dddcc8ba2d5eff5", "type": "electric_scooter", "name": "dfe85f00839e951c3dddcc8ba2d5eff5", "rental_uris": {"android": "https://dc.lft.to/lastmile_qr_scan", "ios": "https://dc.lft.to/lastmile_qr_scan"}, "is_disabled": 0, "fusion_lat": 0.0, "lat": 38.90484583333333, "is_reserved": 0}, {"lon": -77.02406916666666, "fusion_lon": 0.0, "bike_id": "2667e28a4c30e4bb7707e2cde07db118", "type": "electric_scooter", "name": "2667e28a4c30e4bb7707e2cde07db118", "rental_uris": {"android": "https://dc.lft.to/lastmile_qr_scan", "ios": "https://dc.lft.to/lastmile_qr_scan"}, "is_disabled": 0, "fusion_lat": 0.0, "lat": 38.91545633333333, "is_reserved": 0}, {"lon": -76.98714483333333, "fusion_lon": 0.0, "bike_id": "31be06735c17004f52b548ecee1c8589", "type": "electric_scooter", "name": "31be06735c17004f52b548ecee1c8589", "rental_uris": {"android": "https://dc.lft.to/lastmile_qr_scan", "ios": "https://dc.lft.to/lastmile_qr_scan"}, "is_disabled": 0, "fusion_lat": 0.0, "lat": 38.8669835, "is_reserved": 0}, {"lon": -76.94637333333333, "fusion_lon": 0.0, "bike_id": "0aad4fda539b964965cae5ee1fcd33e5", "type": "electric_scooter", "name": "0aad4fda539b964965cae5ee1fcd33e5", "rental_uris": {"android": "https://dc.lft.to/lastmile_qr_scan", "ios": "https://dc.lft.to/lastmile_qr_scan"}, "is_disabled": 0, "fusion_lat": 0.0, "lat": 38.898668666666666, "is_reserved": 0}, {"lon": -77.00655633333334, "fusion_lon": 0.0, "bike_id": "9e7f7119bd445fd50207561bd02e03b4", "type": "electric_scooter", "name": "9e7f7119bd445fd50207561bd02e03b4", "rental_uris": {"android": "https://dc.lft.to/lastmile_qr_scan", "ios": "https://dc.lft.to/lastmile_qr_scan"}, "is_disabled": 0, "fusion_lat": 0.0, "lat": 38.90094766666667, "is_reserved": 0}, {"lon": -77.0819485, "fusion_lon": 0.0, "bike_id": "ac725c0e673a41e3aa977f64577fb515", "type": "electric_scooter", "name": "ac725c0e673a41e3aa977f64577fb515", "rental_uris": {"android": "https://dc.lft.to/lastmile_qr_scan", "ios": "https://dc.lft.to/lastmile_qr_scan"}, "is_disabled": 0, "fusion_lat": 0.0, "lat": 38.933259, "is_reserved": 0}, {"lon": -77.02615633333333, "fusion_lon": 0.0, "bike_id": "5303c6e79d51e2c7829b1230a45a4018", "type": "electric_scooter", "name": "5303c6e79d51e2c7829b1230a45a4018", "rental_uris": {"android": "https://dc.lft.to/lastmile_qr_scan", "ios": "https://dc.lft.to/lastmile_qr_scan"}, "is_disabled": 0, "fusion_lat": 0.0, "lat": 38.91410483333333, "is_reserved": 0}, {"lon": -77.02288683333333, "fusion_lon": 0.0, "bike_id": "54437d06db75e00b1e49d98f584eed24", "type": "electric_scooter", "name": "54437d06db75e00b1e49d98f584eed24", "rental_uris": {"android": "https://dc.lft.to/lastmile_qr_scan", "ios": "https://dc.lft.to/lastmile_qr_scan"}, "is_disabled": 0, "fusion_lat": 0.0, "lat": 38.917906333333335, "is_reserved": 0}, {"lon": -77.06392933333333, "fusion_lon": 0.0, "bike_id": "b57dd60fce03e17560cef4adccd92a7f", "type": "electric_scooter", "name": "b57dd60fce03e17560cef4adccd92a7f", "rental_uris": {"android": "https://dc.lft.to/lastmile_qr_scan", "ios": "https://dc.lft.to/lastmile_qr_scan"}, "is_disabled": 0, "fusion_lat": 0.0, "lat": 38.94418016666667, "is_reserved": 0}, {"lon": -77.023055, "fusion_lon": 0.0, "bike_id": "c294df10225ad3b63680cc6aa4094060", "type": "electric_scooter", "name": "c294df10225ad3b63680cc6aa4094060", "rental_uris": {"android": "https://dc.lft.to/lastmile_qr_scan", "ios": "https://dc.lft.to/lastmile_qr_scan"}, "is_disabled": 0, "fusion_lat": 0.0, "lat": 38.915936333333335, "is_reserved": 0}, {"lon": -77.01912483333334, "fusion_lon": 0.0, "bike_id": "a649534c4e0065801be1a729ce0760a0", "type": "electric_bike", "name": "a649534c4e0065801be1a729ce0760a0", "rental_uris": {"android": "https://dc.lft.to/lastmile_qr_scan", "ios": "https://dc.lft.to/lastmile_qr_scan"}, "is_disabled": 0, "fusion_lat": 0.0, "lat": 38.93773683333333, "is_reserved": 0}, {"lon": -77.0218575, "fusion_lon": 0.0, "bike_id": "42a985292ad77e61937a106b7f0d5f47", "type": "electric_scooter", "name": "42a985292ad77e61937a106b7f0d5f47", "rental_uris": {"android": "https://dc.lft.to/lastmile_qr_scan", "ios": "https://dc.lft.to/lastmile_qr_scan"}, "is_disabled": 0, "fusion_lat": 0.0, "lat": 38.909814833333336, "is_reserved": 0}, {"lon": -77.0141495, "fusion_lon": 0.0, "bike_id": "6c61e910eeede1426921be0099281d9b", "type": "electric_scooter", "name": "6c61e910eeede1426921be0099281d9b", "rental_uris": {"android": "https://dc.lft.to/lastmile_qr_scan", "ios": "https://dc.lft.to/lastmile_qr_scan"}, "is_disabled": 0, "fusion_lat": 0.0, "lat": 38.919199666666664, "is_reserved": 0}, {"lon": -77.03405316666667, "fusion_lon": 0.0, "bike_id": "69fb5d9c45c8059e8e8bbd3b6e1b1025", "type": "electric_scooter", "name": "69fb5d9c45c8059e8e8bbd3b6e1b1025", "rental_uris": {"android": "https://dc.lft.to/lastmile_qr_scan", "ios": "https://dc.lft.to/lastmile_qr_scan"}, "is_disabled": 0, "fusion_lat": 0.0, "lat": 38.911102666666665, "is_reserved": 0}, {"lon": -77.04885833333333, "fusion_lon": 0.0, "bike_id": "1baeaac0567c50a426cddc6f10ebd43d", "type": "electric_scooter", "name": "1baeaac0567c50a426cddc6f10ebd43d", "rental_uris": {"android": "https://dc.lft.to/lastmile_qr_scan", "ios": "https://dc.lft.to/lastmile_qr_scan"}, "is_disabled": 0, "fusion_lat": 0.0, "lat": 38.8999145, "is_reserved": 0}, {"lon": -76.94942683333333, "fusion_lon": 0.0, "bike_id": "0fd7bf9a4a90cd4777e3babf3f937f62", "type": "electric_scooter", "name": "0fd7bf9a4a90cd4777e3babf3f937f62", "rental_uris": {"android": "https://dc.lft.to/lastmile_qr_scan", "ios": "https://dc.lft.to/lastmile_qr_scan"}, "is_disabled": 0, "fusion_lat": 0.0, "lat": 38.89498716666667, "is_reserved": 0}, {"lon": -77.04091516666666, "fusion_lon": 0.0, "bike_id": "4efaafc15ae1ffd6620531dc125fc18b", "type": "electric_scooter", "name": "4efaafc15ae1ffd6620531dc125fc18b", "rental_uris": {"android": "https://dc.lft.to/lastmile_qr_scan", "ios": "https://dc.lft.to/lastmile_qr_scan"}, "is_disabled": 0, "fusion_lat": 0.0, "lat": 38.925199666666664, "is_reserved": 0}, {"lon": -76.987884, "fusion_lon": 0.0, "bike_id": "17adc9441b86affafcfa5c20ce709aa9", "type": "electric_scooter", "name": "17adc9441b86affafcfa5c20ce709aa9", "rental_uris": {"android": "https://dc.lft.to/lastmile_qr_scan", "ios": "https://dc.lft.to/lastmile_qr_scan"}, "is_disabled": 0, "fusion_lat": 0.0, "lat": 38.912313833333336, "is_reserved": 0}, {"lon": -77.054554, "fusion_lon": 0.0, "bike_id": "c17ede1e03147d1b293525ba1ee61751", "type": "electric_scooter", "name": "c17ede1e03147d1b293525ba1ee61751", "rental_uris": {"android": "https://dc.lft.to/lastmile_qr_scan", "ios": "https://dc.lft.to/lastmile_qr_scan"}, "is_disabled": 0, "fusion_lat": 0.0, "lat": 38.9023865, "is_reserved": 0}, {"lon": -77.01516, "fusion_lon": 0.0, "bike_id": "ad053db6f8f9a5916823f92150280b3d", "type": "electric_scooter", "name": "ad053db6f8f9a5916823f92150280b3d", "rental_uris": {"android": "https://dc.lft.to/lastmile_qr_scan", "ios": "https://dc.lft.to/lastmile_qr_scan"}, "is_disabled": 0, "fusion_lat": 0.0, "lat": 38.902372, "is_reserved": 0}, {"lon": -77.0145605, "fusion_lon": 0.0, "bike_id": "10e91566e9b41a9449915ff1b33fcfc0", "type": "electric_scooter", "name": "10e91566e9b41a9449915ff1b33fcfc0", "rental_uris": {"android": "https://dc.lft.to/lastmile_qr_scan", "ios": "https://dc.lft.to/lastmile_qr_scan"}, "is_disabled": 0, "fusion_lat": 0.0, "lat": 38.8793, "is_reserved": 0}, {"lon": -77.0228035, "fusion_lon": 0.0, "bike_id": "4e07a0c05692dcaef41e703b1fb6ae36", "type": "electric_scooter", "name": "4e07a0c05692dcaef41e703b1fb6ae36", "rental_uris": {"android": "https://dc.lft.to/lastmile_qr_scan", "ios": "https://dc.lft.to/lastmile_qr_scan"}, "is_disabled": 0, "fusion_lat": 0.0, "lat": 38.91411433333333, "is_reserved": 0}, {"lon": -76.9827515, "fusion_lon": 0.0, "bike_id": "5e684383949214cd93bbe769261c678d", "type": "electric_scooter", "name": "5e684383949214cd93bbe769261c678d", "rental_uris": {"android": "https://dc.lft.to/lastmile_qr_scan", "ios": "https://dc.lft.to/lastmile_qr_scan"}, "is_disabled": 0, "fusion_lat": 0.0, "lat": 38.904321, "is_reserved": 0}, {"lon": -77.0380505, "fusion_lon": 0.0, "bike_id": "a8f80a1064dab94ef98773a393ed0159", "type": "electric_bike", "name": "a8f80a1064dab94ef98773a393ed0159", "rental_uris": {"android": "https://dc.lft.to/lastmile_qr_scan", "ios": "https://dc.lft.to/lastmile_qr_scan"}, "is_disabled": 0, "fusion_lat": 0.0, "lat": 38.933739833333334, "is_reserved": 0}, {"lon": -77.00346916666666, "fusion_lon": 0.0, "bike_id": "1cf10664dd8bd333803c3a2facf17986", "type": "electric_scooter", "name": "1cf10664dd8bd333803c3a2facf17986", "rental_uris": {"android": "https://dc.lft.to/lastmile_qr_scan", "ios": "https://dc.lft.to/lastmile_qr_scan"}, "is_disabled": 0, "fusion_lat": 0.0, "lat": 38.89458116666667, "is_reserved": 0}, {"lon": -77.02977516666667, "fusion_lon": 0.0, "bike_id": "515af3f70bc10116e2e880bc4a14020e", "type": "electric_scooter", "name": "515af3f70bc10116e2e880bc4a14020e", "rental_uris": {"android": "https://dc.lft.to/lastmile_qr_scan", "ios": "https://dc.lft.to/lastmile_qr_scan"}, "is_disabled": 0, "fusion_lat": 0.0, "lat": 38.907292, "is_reserved": 0}, {"lon": -77.04197133333334, "fusion_lon": 0.0, "bike_id": "5817546ee7dac133b5cf31b50f8b00bd", "type": "electric_scooter", "name": "5817546ee7dac133b5cf31b50f8b00bd", "rental_uris": {"android": "https://dc.lft.to/lastmile_qr_scan", "ios": "https://dc.lft.to/lastmile_qr_scan"}, "is_disabled": 0, "fusion_lat": 0.0, "lat": 38.920409666666664, "is_reserved": 0}, {"lon": -77.0512995, "fusion_lon": 0.0, "bike_id": "7ea3ea430d60b86a883162a55cf1f7a7", "type": "electric_scooter", "name": "7ea3ea430d60b86a883162a55cf1f7a7", "rental_uris": {"android": "https://dc.lft.to/lastmile_qr_scan", "ios": "https://dc.lft.to/lastmile_qr_scan"}, "is_disabled": 0, "fusion_lat": 0.0, "lat": 38.9251885, "is_reserved": 0}, {"lon": -77.03184366666666, "fusion_lon": 0.0, "bike_id": "dd1b7ceecad6851b9cb616b4eb9d9b49", "type": "electric_scooter", "name": "dd1b7ceecad6851b9cb616b4eb9d9b49", "rental_uris": {"android": "https://dc.lft.to/lastmile_qr_scan", "ios": "https://dc.lft.to/lastmile_qr_scan"}, "is_disabled": 0, "fusion_lat": 0.0, "lat": 38.916209, "is_reserved": 0}, {"lon": -77.01941166666667, "fusion_lon": 0.0, "bike_id": "b36a757b0380b60f43c34c5954781ce2", "type": "electric_scooter", "name": "b36a757b0380b60f43c34c5954781ce2", "rental_uris": {"android": "https://dc.lft.to/lastmile_qr_scan", "ios": "https://dc.lft.to/lastmile_qr_scan"}, "is_disabled": 0, "fusion_lat": 0.0, "lat": 38.92373766666667, "is_reserved": 0}, {"lon": -77.03285366666667, "fusion_lon": 0.0, "bike_id": "1484763a034265ba6d9f0acf3b435f1b", "type": "electric_scooter", "name": "1484763a034265ba6d9f0acf3b435f1b", "rental_uris": {"android": "https://dc.lft.to/lastmile_qr_scan", "ios": "https://dc.lft.to/lastmile_qr_scan"}, "is_disabled": 0, "fusion_lat": 0.0, "lat": 38.942774666666665, "is_reserved": 0}, {"lon": -77.02096383333334, "fusion_lon": 0.0, "bike_id": "f465659e441bd1ce42c499c0e543cecc", "type": "electric_scooter", "name": "f465659e441bd1ce42c499c0e543cecc", "rental_uris": {"android": "https://dc.lft.to/lastmile_qr_scan", "ios": "https://dc.lft.to/lastmile_qr_scan"}, "is_disabled": 0, "fusion_lat": 0.0, "lat": 38.89425266666667, "is_reserved": 0}, {"lon": -77.0261275, "fusion_lon": 0.0, "bike_id": "2d0dd0e3a7334a0e706d91550a94f2b4", "type": "electric_scooter", "name": "2d0dd0e3a7334a0e706d91550a94f2b4", "rental_uris": {"android": "https://dc.lft.to/lastmile_qr_scan", "ios": "https://dc.lft.to/lastmile_qr_scan"}, "is_disabled": 0, "fusion_lat": 0.0, "lat": 38.89624333333333, "is_reserved": 0}, {"lon": -77.02378883333333, "fusion_lon": 0.0, "bike_id": "657c8570a7289f23cdc8df2191444c95", "type": "electric_scooter", "name": "657c8570a7289f23cdc8df2191444c95", "rental_uris": {"android": "https://dc.lft.to/lastmile_qr_scan", "ios": "https://dc.lft.to/lastmile_qr_scan"}, "is_disabled": 0, "fusion_lat": 0.0, "lat": 38.891961333333334, "is_reserved": 0}, {"lon": -77.042932, "fusion_lon": 0.0, "bike_id": "c2b1cbd3e179a9bf4d39bbbf7d05a8d8", "type": "electric_bike", "name": "c2b1cbd3e179a9bf4d39bbbf7d05a8d8", "rental_uris": {"android": "https://dc.lft.to/lastmile_qr_scan", "ios": "https://dc.lft.to/lastmile_qr_scan"}, "is_disabled": 0, "fusion_lat": 0.0, "lat": 38.83096066666667, "is_reserved": 0}, {"lon": -77.023353, "fusion_lon": 0.0, "bike_id": "a31f5a206143538a8959fe4c4c9c9b9e", "type": "electric_scooter", "name": "a31f5a206143538a8959fe4c4c9c9b9e", "rental_uris": {"android": "https://dc.lft.to/lastmile_qr_scan", "ios": "https://dc.lft.to/lastmile_qr_scan"}, "is_disabled": 0, "fusion_lat": 0.0, "lat": 38.93169233333333, "is_reserved": 0}, {"lon": -76.94824966666667, "fusion_lon": 0.0, "bike_id": "49171291f97598b4c5be8a06233dfde8", "type": "electric_scooter", "name": "49171291f97598b4c5be8a06233dfde8", "rental_uris": {"android": "https://dc.lft.to/lastmile_qr_scan", "ios": "https://dc.lft.to/lastmile_qr_scan"}, "is_disabled": 0, "fusion_lat": 0.0, "lat": 38.88407733333333, "is_reserved": 0}, {"lon": -77.029834, "fusion_lon": 0.0, "bike_id": "70e16726723356ade76d629a67c52759", "type": "electric_scooter", "name": "70e16726723356ade76d629a67c52759", "rental_uris": {"android": "https://dc.lft.to/lastmile_qr_scan", "ios": "https://dc.lft.to/lastmile_qr_scan"}, "is_disabled": 0, "fusion_lat": 0.0, "lat": 38.89757766666666, "is_reserved": 0}, {"lon": -77.04252816666667, "fusion_lon": 0.0, "bike_id": "5d452a6e0d9e7f61b1cf0a27692100b6", "type": "electric_scooter", "name": "5d452a6e0d9e7f61b1cf0a27692100b6", "rental_uris": {"android": "https://dc.lft.to/lastmile_qr_scan", "ios": "https://dc.lft.to/lastmile_qr_scan"}, "is_disabled": 0, "fusion_lat": 0.0, "lat": 38.922521, "is_reserved": 0}, {"lon": -77.02853816666666, "fusion_lon": 0.0, "bike_id": "d96f9b9bbd4b748a275f407a6d09d4ef", "type": "electric_scooter", "name": "d96f9b9bbd4b748a275f407a6d09d4ef", "rental_uris": {"android": "https://dc.lft.to/lastmile_qr_scan", "ios": "https://dc.lft.to/lastmile_qr_scan"}, "is_disabled": 0, "fusion_lat": 0.0, "lat": 38.934866, "is_reserved": 0}, {"lon": -77.03623, "fusion_lon": 0.0, "bike_id": "3782593e9b6a4f6318e2ae3553fa80fa", "type": "electric_scooter", "name": "3782593e9b6a4f6318e2ae3553fa80fa", "rental_uris": {"android": "https://dc.lft.to/lastmile_qr_scan", "ios": "https://dc.lft.to/lastmile_qr_scan"}, "is_disabled": 0, "fusion_lat": 0.0, "lat": 38.9316245, "is_reserved": 0}, {"lon": -76.92897016666667, "fusion_lon": 0.0, "bike_id": "4fa9e93f0daf3b7e6da4bdd6aac2646b", "type": "electric_scooter", "name": "4fa9e93f0daf3b7e6da4bdd6aac2646b", "rental_uris": {"android": "https://dc.lft.to/lastmile_qr_scan", "ios": "https://dc.lft.to/lastmile_qr_scan"}, "is_disabled": 0, "fusion_lat": 0.0, "lat": 38.90188783333333, "is_reserved": 0}, {"lon": -77.0215665, "fusion_lon": 0.0, "bike_id": "e98b2dd10e7c8837de5bc26399086343", "type": "electric_scooter", "name": "e98b2dd10e7c8837de5bc26399086343", "rental_uris": {"android": "https://dc.lft.to/lastmile_qr_scan", "ios": "https://dc.lft.to/lastmile_qr_scan"}, "is_disabled": 0, "fusion_lat": 0.0, "lat": 38.914017333333334, "is_reserved": 0}, {"lon": -77.04648966666667, "fusion_lon": 0.0, "bike_id": "f9d4cf2022d71568efe066940f5c56f8", "type": "electric_scooter", "name": "f9d4cf2022d71568efe066940f5c56f8", "rental_uris": {"android": "https://dc.lft.to/lastmile_qr_scan", "ios": "https://dc.lft.to/lastmile_qr_scan"}, "is_disabled": 0, "fusion_lat": 0.0, "lat": 38.90225983333333, "is_reserved": 0}, {"lon": -77.022166, "fusion_lon": 0.0, "bike_id": "9be9105d6ced8f034d040ba58b58fd4e", "type": "electric_scooter", "name": "9be9105d6ced8f034d040ba58b58fd4e", "rental_uris": {"android": "https://dc.lft.to/lastmile_qr_scan", "ios": "https://dc.lft.to/lastmile_qr_scan"}, "is_disabled": 0, "fusion_lat": 0.0, "lat": 38.912410333333334, "is_reserved": 0}, {"lon": -77.02458866666667, "fusion_lon": 0.0, "bike_id": "13171d27cd41186c5c6d1989f5e1db45", "type": "electric_scooter", "name": "13171d27cd41186c5c6d1989f5e1db45", "rental_uris": {"android": "https://dc.lft.to/lastmile_qr_scan", "ios": "https://dc.lft.to/lastmile_qr_scan"}, "is_disabled": 0, "fusion_lat": 0.0, "lat": 38.908612, "is_reserved": 0}, {"lon": -77.0110675, "fusion_lon": 0.0, "bike_id": "3e5cee00f12902e47930408c1f5b5a18", "type": "electric_scooter", "name": "3e5cee00f12902e47930408c1f5b5a18", "rental_uris": {"android": "https://dc.lft.to/lastmile_qr_scan", "ios": "https://dc.lft.to/lastmile_qr_scan"}, "is_disabled": 0, "fusion_lat": 0.0, "lat": 38.9033065, "is_reserved": 0}, {"lon": -77.06062416666667, "fusion_lon": 0.0, "bike_id": "f80e95c17f0ee7b203a842ffc84d9156", "type": "electric_scooter", "name": "f80e95c17f0ee7b203a842ffc84d9156", "rental_uris": {"android": "https://dc.lft.to/lastmile_qr_scan", "ios": "https://dc.lft.to/lastmile_qr_scan"}, "is_disabled": 0, "fusion_lat": 0.0, "lat": 38.943331, "is_reserved": 0}, {"lon": -77.02318433333333, "fusion_lon": 0.0, "bike_id": "0886ad4fe25310186031eb286bc1ee3b", "type": "electric_scooter", "name": "0886ad4fe25310186031eb286bc1ee3b", "rental_uris": {"android": "https://dc.lft.to/lastmile_qr_scan", "ios": "https://dc.lft.to/lastmile_qr_scan"}, "is_disabled": 0, "fusion_lat": 0.0, "lat": 38.92940216666667, "is_reserved": 0}, {"lon": -77.071629, "fusion_lon": 0.0, "bike_id": "f6399163de6d46a8c728e4ee5a776d98", "type": "electric_scooter", "name": "f6399163de6d46a8c728e4ee5a776d98", "rental_uris": {"android": "https://dc.lft.to/lastmile_qr_scan", "ios": "https://dc.lft.to/lastmile_qr_scan"}, "is_disabled": 0, "fusion_lat": 0.0, "lat": 38.938183, "is_reserved": 0},