{"data": {"bikes": [{"is_reserved": 0, "type": "electric_scooter", "fusion_lat": 0.0, "is_disabled": 0, "rental_uris": {"ios": "https://dc.lft.to/lastmile_qr_scan", "android": "https://dc.lft.to/lastmile_qr_scan"}, "bike_id": "96c046f8b618b095c04ae10cc99acf82", "lat": 38.8887845, "name": "96c046f8b618b095c04ae10cc99acf82", "lon": -76.990328, "fusion_lon": 0.0}, {"is_reserved": 0, "type": "electric_scooter", "fusion_lat": 0.0, "is_disabled": 0, "rental_uris": {"ios": "https://dc.lft.to/lastmile_qr_scan", "android": "https://dc.lft.to/lastmile_qr_scan"}, "bike_id": "52ea781d175e516989ee51393e1681e8", "lat": 38.9178725, "name": "52ea781d175e516989ee51393e1681e8", "lon": -77.036384, "fusion_lon": 0.0}, {"is_reserved": 0, "type": "electric_scooter", "fusion_lat": 0.0, "is_disabled": 0, "rental_uris": {"ios": "https://dc.lft.to/lastmile_qr_scan", "android": "https://dc.lft.to/lastmile_qr_scan"}, "bike_id": "15d983d4c1312c1c7b24a5a1e10c677d", "lat": 38.952656, "name": "15d983d4c1312c1c7b24a5a1e10c677d", "lon": -77.068357, "fusion_lon": 0.0}, {"is_reserved": 0, "type": "electric_bike", "fusion_lat": 0.0, "is_disabled": 0, "rental_uris": {"ios": "https://dc.lft.to/lastmile_qr_scan", "android": "https://dc.lft.to/lastmile_qr_scan"}, "bike_id": "182a898c3a9bfbb355f01ef2bd613dca", "lat": 39.025167, "name": "182a898c3a9bfbb355f01ef2bd613dca", "lon": -77.01968566666666, "fusion_lon": 0.0}, {"is_reserved": 0, "type": "electric_scooter", "fusion_lat": 0.0, "is_disabled": 0, "rental_uris": {"ios": "https://dc.lft.to/lastmile_qr_scan", "android": "https://dc.lft.to/lastmile_qr_scan"}, "bike_id": "94990d30cb950c2651e3cfc5ef00854e", "lat": 38.93213083333333, "name": "94990d30cb950c2651e3cfc5ef00854e", "lon": -77.03517866666667, "fusion_lon": 0.0}, {"is_reserved": 0, "type": "electric_scooter", "fusion_lat": 0.0, "is_disabled": 0, "rental_uris": {"ios": "https://dc.lft.to/lastmile_qr_scan", "android": "https://dc.lft.to/lastmile_qr_scan"}, "bike_id": "94c9134d29f5fb77dd455ac40f45897f", "lat": 38.90491333333333, "name": "94c9134d29f5fb77dd455ac40f45897f", "lon": -77.02812316666666, "fusion_lon": 0.0}, {"is_reserved": 0, "type": "electric_scooter", "fusion_lat": 0.0, "is_disabled": 0, "rental_uris": {"ios": "https://dc.lft.to/lastmile_qr_scan", "android": "https://dc.lft.to/lastmile_qr_scan"}, "bike_id": "e7dcfd98871d6c1d100b94dd94f6c0ec", "lat": 38.901368833333336, "name": "e7dcfd98871d6c1d100b94dd94f6c0ec", "lon": -77.030813, "fusion_lon": 0.0}, {"is_reserved": 0, "type": "electric_scooter", "fusion_lat": 0.0, "is_disabled": 0, "rental_uris": {"ios": "https://dc.lft.to/lastmile_qr_scan", "android": "https://dc.lft.to/lastmile_qr_scan"}, "bike_id": "9aa28b2e73a65135c967fb65d4e60d52", "lat": 38.9299965, "name": "9aa28b2e73a65135c967fb65d4e60d52", "lon": -77.03797066666667, "fusion_lon": 0.0}, {"is_reserved": 0, "type": "electric_scooter", "fusion_lat": 0.0, "is_disabled": 0, "rental_uris": {"ios": "https://dc.lft.to/lastmile_qr_scan", "android": "https://dc.lft.to/lastmile_qr_scan"}, "bike_id": "94f27b06c30e8d838eb8f6ee12dbeb8f", "lat": 38.94081966666667, "name": "94f27b06c30e8d838eb8f6ee12dbeb8f", "lon": -77.02721883333334, "fusion_lon": 0.0}, {"is_reserved": 0, "type": "electric_bike", "fusion_lat": 0.0, "is_disabled": 0, "rental_uris": {"ios": "https://dc.lft.to/lastmile_qr_scan", "android": "https://dc.lft.to/lastmile_qr_scan"}, "bike_id": "bad3da1b889d45d63610d1b219d1108e", "lat": 39.084696666666666, "name": "bad3da1b889d45d63610d1b219d1108e", "lon": -76.950668, "fusion_lon": 0.0}, {"is_reserved": 0, "type": "electric_scooter", "fusion_lat": 0.0, "is_disabled": 0, "rental_uris": {"ios": "https://dc.lft.to/lastmile_qr_scan", "android": "https://dc.lft.to/lastmile_qr_scan"}, "bike_id": "d67bcdfed71d386f3199ae1273180dcb", "lat": 38.86491633333333, "name": "d67bcdfed71d386f3199ae1273180dcb", "lon": -76.977272, "fusion_lon": 0.0}, {"is_reserved": 0, "type": "electric_scooter", "fusion_lat": 0.0, "is_disabled": 0, "rental_uris": {"ios": "https://dc.lft.to/lastmile_qr_scan", "android": "https://dc.lft.to/lastmile_qr_scan"}, "bike_id": "e24e20ae841809eb4d1ce7276c2fec8d", "lat": 38.899555, "name": "e24e20ae841809eb4d1ce7276c2fec8d", "lon": -76.92630633333333, "fusion_lon": 0.0}, {"is_reserved": 0, "type": "electric_scooter", "fusion_lat": 0.0, "is_disabled": 0, "rental_uris": {"ios": "https://dc.lft.to/lastmile_qr_scan", "android": "https://dc.lft.to/lastmile_qr_scan"}, "bike_id": "caece7279c607442bdc1ba8fa1d88252", "lat": 38.88168816666666, "name": "caece7279c607442bdc1ba8fa1d88252", "lon": -77.01747433333334, "fusion_lon": 0.0}, {"is_reserved": 0, "type": "electric_scooter", "fusion_lat": 0.0, "is_disabled": 0, "rental_uris": {"ios": "https://dc.lft.to/lastmile_qr_scan", "android": "https://dc.lft.to/lastmile_qr_scan"}, "bike_id": "d0df4c04814d80509d2b2ebe50694192", "lat": 38.93699866666667, "name": "d0df4c04814d80509d2b2ebe50694192", "lon": -77.0239515, "fusion_lon": 0.0}, {"is_reserved": 0, "type": "electric_scooter", "fusion_lat": 0.0, "is_disabled": 0, "rental_uris": {"ios": "https://dc.lft.to/lastmile_qr_scan", "android": "https://dc.lft.to/lastmile_qr_scan"}, "bike_id": "833b7c074d56cecc187c8fb061574401", "lat": 38.910532833333335, "name": "833b7c074d56cecc187c8fb061574401", "lon": -77.04350333333333, "fusion_lon": 0.0}, {"is_reserved": 0, "type": "electric_bike", "fusion_lat": 0.0, "is_disabled": 0, "rental_uris": {"ios": "https://dc.lft.to/lastmile_qr_scan", "android": "https://dc.lft.to/lastmile_qr_scan"}, "bike_id": "eac4662cfe98f98ab04bf061c68a9750", "lat": 38.902296166666666, "name": "eac4662cfe98f98ab04bf061c68a9750", "lon": -77.05913033333333, "fusion_lon": 0.0}, {"is_reserved": 0, "type": "electric_scooter", "fusion_lat": 0.0, "is_disabled": 0, "rental_uris": {"ios": "https://dc.lft.to/lastmile_qr_scan", "android": "https://dc.lft.to/lastmile_qr_scan"}, "bike_id": "872923debdfda7e88ef766dc5a869050", "lat": 38.89872966666667, "name": "872923debdfda7e88ef766dc5a869050", "lon": -77.04673533333333, "fusion_lon": 0.0}, {"is_reserved": 0, "type": "electric_scooter", "fusion_lat": 0.0, "is_disabled": 0, "rental_uris": {"ios": "https://dc.lft.to/lastmile_qr_scan", "android": "https://dc.lft.to/lastmile_qr_scan"}, "bike_id": "8dfdccbb7378ba5d8c52ec220d0228c9", "lat": 38.89427966666667, "name": "8dfdccbb7378ba5d8c52ec220d0228c9", "lon": -77.04467216666667, "fusion_lon": 0.0}, {"is_reserved": 0, "type": "electric_scooter", "fusion_lat": 0.0, "is_disabled": 0, "rental_uris": {"ios": "https://dc.lft.to/lastmile_qr_scan", "android": "https://dc.lft.to/lastmile_qr_scan"}, "bike_id": "d95f8a9b061d0aa169953b67ecb2a031", "lat": 38.927917666666666, "name": "d95f8a9b061d0aa169953b67ecb2a031", "lon": -77.0314775, "fusion_lon": 0.0}, {"is_reserved": 0, "type": "electric_scooter", "fusion_lat": 0.0, "is_disabled": 0, "rental_uris": {"ios": "https://dc.lft.to/lastmile_qr_scan", "android": "https://dc.lft.to/lastmile_qr_scan"}, "bike_id": "3cefdf39a6550c34fd3b2b47a1d2863b", "lat": 38.919097, "name": "3cefdf39a6550c34fd3b2b47a1d2863b", "lon": -77.01165133333333, "fusion_lon": 0.0}, {"is_reserved": 0, "type": "electric_scooter", "fusion_lat": 0.0, "is_disabled": 0, "rental_uris": {"ios": "https://dc.lft.to/lastmile_qr_scan", "android": "https://dc.lft.to/lastmile_qr_scan"}, "bike_id": "dc258b90a1a5082d221d6e57238b0975", "lat": 38.8860485, "name": "dc258b90a1a5082d221d6e57238b0975", "lon": -77.00332516666667, "fusion_lon": 0.0}, {"is_reserved": 0, "type": "electric_scooter", "fusion_lat": 0.0, "is_disabled": 0, "rental_uris": {"ios": "https://dc.lft.to/lastmile_qr_scan", "android": "https://dc.lft.to/lastmile_qr_scan"}, "bike_id": "44145b5536224aeee0255c9b6651a94a", "lat": 38.876512166666664, "name": "44145b5536224aeee0255c9b6651a94a", "lon": -77.00294366666667, "fusion_lon": 0.0}, {"is_reserved": 0, "type": "electric_scooter", "fusion_lat": 0.0, "is_disabled": 0, "rental_uris": {"ios": "https://dc.lft.to/lastmile_qr_scan", "android": "https://dc.lft.to/lastmile_qr_scan"}, "bike_id": "d6193aec2ca70f4b59a26faf6351a403", "lat": 38.877281833333335, "name": "d6193aec2ca70f4b59a26faf6351a403", "lon": -77.00607883333333, "fusion_lon": 0.0}, {"is_reserved": 0, "type": "electric_scooter", "fusion_lat": 0.0, "is_disabled": 0, "rental_uris": {"ios": "https://dc.lft.to/lastmile_qr_scan", "android": "https://dc.lft.to/lastmile_qr_scan"}, "bike_id": "c5b6e45bbf8ce5250e11817c1baa018f", "lat": 38.9280125, "name": "c5b6e45bbf8ce5250e11817c1baa018f", "lon": -77.0369635, "fusion_lon": 0.0}, {"is_reserved": 0, "type": "electric_scooter", "fusion_lat": 0.0, "is_disabled": 0, "rental_uris": {"ios": "https://dc.lft.to/lastmile_qr_scan", "android": "https://dc.lft.to/lastmile_qr_scan"}, "bike_id": "02c7cc0a7e3f1e32881a082090472a45", "lat": 38.91872566666667, "name": "02c7cc0a7e3f1e32881a082090472a45", "lon": -77.035406, "fusion_lon": 0.0}, {"is_reserved": 0, "type": "electric_scooter", "fusion_lat": 0.0, "is_disabled": 0, "rental_uris": {"ios": "https://dc.lft.to/lastmile_qr_scan", "android": "https://dc.lft.to/lastmile_qr_scan"}, "bike_id": "48746e71bc83c29dcd8ecf23f4953b68", "lat": 38.935850333333335, "name": "48746e71bc83c29dcd8ecf23f4953b68", "lon": -77.0743705, "fusion_lon": 0.0}, {"is_reserved": 0, "type": "electric_scooter", "fusion_lat": 0.0, "is_disabled": 0, "rental_uris": {"ios": "https://dc.lft.to/lastmile_qr_scan", "android": "https://dc.lft.to/lastmile_qr_scan"}, "bike_id": "4ac02851dadb4d438d6d4c16e96ff83e", "lat": 38.89338016666667, "name": "4ac02851dadb4d438d6d4c16e96ff83e", "lon": -76.985564, "fusion_lon": 0.0}, {"is_reserved": 0, "type": "electric_scooter", "fusion_lat": 0.0, "is_disabled": 0, "rental_uris": {"ios": "https://dc.lft.to/lastmile_qr_scan", "android": "https://dc.lft.to/lastmile_qr_scan"}, "bike_id": "8490915b65c9ac467bebda132c2795dc", "lat": 38.91708783333333, "name": "8490915b65c9ac467bebda132c2795dc", "lon": -77.034939, "fusion_lon": 0.0}, {"is_reserved": 0, "type": "electric_scooter", "fusion_lat": 0.0, "is_disabled": 0, "rental_uris": {"ios": "https://dc.lft.to/lastmile_qr_scan", "android": "https://dc.lft.to/lastmile_qr_scan"}, "bike_id": "3d27a9abadb459649fe53c5c2cd454b4", "lat": 38.9273965, "name": "3d27a9abadb459649fe53c5c2cd454b4", "lon": -77.02606233333333, "fusion_lon": 0.0}, {"is_reserved": 0, "type": "electric_scooter", "fusion_lat": 0.0, "is_disabled": 0, "rental_uris": {"ios": "https://dc.lft.to/lastmile_qr_scan", "android": "https://dc.lft.to/lastmile_qr_scan"}, "bike_id": "8aa5ca5d90ee99a3b81447a71b4921ae", "lat": 38.9231925, "name": "8aa5ca5d90ee99a3b81447a71b4921ae", "lon": -77.0195095, "fusion_lon": 0.0}, {"is_reserved": 0, "type": "electric_scooter", "fusion_lat": 0.0, "is_disabled": 0, "rental_uris": {"ios": "https://dc.lft.to/lastmile_qr_scan", "android": "https://dc.lft.to/lastmile_qr_scan"}, "bike_id": "5148cad6b13358a01a19cac9adadb7f6", "lat": 38.902475333333335, "name": "5148cad6b13358a01a19cac9adadb7f6", "lon": -77.0278015, "fusion_lon": 0.0}, {"is_reserved": 0, "type": "electric_scooter", "fusion_lat": 0.0, "is_disabled": 0, "rental_uris": {"ios": "https://dc.lft.to/lastmile_qr_scan", "android": "https://dc.lft.to/lastmile_qr_scan"}, "bike_id": "762c3df99079cacd0bafad5bbaed4e04", "lat": 38.9231855, "name": "762c3df99079cacd0bafad5bbaed4e04", "lon": -77.04512933333334, "fusion_lon": 0.0}, {"is_reserved": 0, "type": "electric_scooter", "fusion_lat": 0.0, "is_disabled": 0, "rental_uris": {"ios": "https://dc.lft.to/lastmile_qr_scan", "android": "https://dc.lft.to/lastmile_qr_scan"}, "bike_id": "3198d5ff4bb8e3276e712082c12f536a", "lat": 38.917104, "name": "3198d5ff4bb8e3276e712082c12f536a", "lon": -77.02405866666666, "fusion_lon": 0.0}, {"is_reserved": 0, "type": "electric_scooter", "fusion_lat": 0.0, "is_disabled": 0, "rental_uris": {"ios": "https://dc.lft.to/lastmile_qr_scan", "android": "https://dc.lft.to/lastmile_qr_scan"}, "bike_id": "122f2cfe1d9bee178c94e8ddf2668071", "lat": 38.92105433333333, "name": "122f2cfe1d9bee178c94e8ddf2668071", "lon": -77.03043183333334, "fusion_lon": 0.0}, {"is_reserved": 0, "type": "electric_scooter", "fusion_lat": 0.0, "is_disabled": 0, "rental_uris": {"ios": "https://dc.lft.to/lastmile_qr_scan", "android": "https://dc.lft.to/lastmile_qr_scan"}, "bike_id": "acbb5aad0f0d4deda73f88c3aa463755", "lat": 38.91707816666667, "name": "acbb5aad0f0d4deda73f88c3aa463755", "lon": -77.0240805, "fusion_lon": 0.0}, {"is_reserved": 0, "type": "electric_scooter", "fusion_lat": 0.0, "is_disabled": 0, "rental_uris": {"ios": "https://dc.lft.to/lastmile_qr_scan", "android": "https://dc.lft.to/lastmile_qr_scan"}, "bike_id": "50d7d715a0ee3a72094b2fc903ceac0f", "lat": 38.914991, "name": "50d7d715a0ee3a72094b2fc903ceac0f", "lon": -77.03210433333334, "fusion_lon": 0.0}, {"is_reserved": 0, "type": "electric_scooter", "fusion_lat": 0.0, "is_disabled": 0, "rental_uris": {"ios": "https://dc.lft.to/lastmile_qr_scan", "android": "https://dc.lft.to/lastmile_qr_scan"}, "bike_id": "fe3c713ede3e02d30fd66e321d488676", "lat": 38.909706666666665, "name": "fe3c713ede3e02d30fd66e321d488676", "lon": -77.03294633333333, "fusion_lon": 0.0}, {"is_reserved": 0, "type": "electric_scooter", "fusion_lat": 0.0, "is_disabled": 0, "rental_uris": {"ios": "https://dc.lft.to/lastmile_qr_scan", "android": "https://dc.lft.to/lastmile_qr_scan"}, "bike_id": "3b7ab2599df721e590337bccaf81fe06", "lat": 38.9096925, "name": "3b7ab2599df721e590337bccaf81fe06", "lon": -77.02199816666666, "fusion_lon": 0.0}, {"is_reserved": 0, "type": "electric_scooter", "fusion_lat": 0.0, "is_disabled": 0, "rental_uris": {"ios": "https://dc.lft.to/lastmile_qr_scan", "android": "https://dc.lft.to/lastmile_qr_scan"}, "bike_id": "e9ae6b1906fd6e1048c14ce777193727", "lat": 38.9115685, "name": "e9ae6b1906fd6e1048c14ce777193727", "lon": -77.04479566666667, "fusion_lon": 0.0}, {"is_reserved": 0, "type": "electric_scooter", "fusion_lat": 0.0, "is_disabled": 0, "rental_uris": {"ios": "https://dc.lft.to/lastmile_qr_scan", "android": "https://dc.lft.to/lastmile_qr_scan"}, "bike_id": "553481cc3f667e39bae8671016ae334d", "lat": 38.885786, "name": "553481cc3f667e39bae8671016ae334d", "lon": -77.01224783333333, "fusion_lon": 0.0}, {"is_reserved": 0, "type": "electric_bike", "fusion_lat": 0.0, "is_disabled": 0, "rental_uris": {"ios": "https://dc.lft.to/lastmile_qr_scan", "android": "https://dc.lft.to/lastmile_qr_scan"}, "bike_id": "791d5d3bf6e01f33163d0da61a9824c3", "lat": 38.865621833333336, "name": "791d5d3bf6e01f33163d0da61a9824c3", "lon": -76.9748055, "fusion_lon": 0.0}, {"is_reserved": 0, "type": "electric_scooter", "fusion_lat": 0.0, "is_disabled": 0, "rental_uris": {"ios": "https://dc.lft.to/lastmile_qr_scan", "android": "https://dc.lft.to/lastmile_qr_scan"}, "bike_id": "69c5f7e0339488c42106036303a30ed8", "lat": 38.90068383333333, "name": "69c5f7e0339488c42106036303a30ed8", "lon": -77.01321033333333, "fusion_lon": 0.0}, {"is_reserved": 0, "type": "electric_bike", "fusion_lat": 0.0, "is_disabled": 0, "rental_uris": {"ios": "https://dc.lft.to/lastmile_qr_scan", "android": "https://dc.lft.to/lastmile_qr_scan"}, "bike_id": "2dd9d0fcc8537ef3820a52241d7f323b", "lat": 38.82428, "name": "2dd9d0fcc8537ef3820a52241d7f323b", "lon": -77.12042466666666, "fusion_lon": 0.0}, {"is_reserved": 0, "type": "electric_scooter", "fusion_lat": 0.0, "is_disabled": 0, "rental_uris": {"ios": "https://dc.lft.to/lastmile_qr_scan", "android": "https://dc.lft.to/lastmile_qr_scan"}, "bike_id": "038a4ad0b1e52da322ede0f65c6a55df", "lat": 38.9104235, "name": "038a4ad0b1e52da322ede0f65c6a55df", "lon": -77.010237, "fusion_lon": 0.0}, {"is_reserved": 0, "type": "electric_scooter", "fusion_lat": 0.0, "is_disabled": 0, "rental_uris": {"ios": "https://dc.lft.to/lastmile_qr_scan", "android": "https://dc.lft.to/lastmile_qr_scan"}, "bike_id": "faf6b9c9277a7597ec647dd634cf4c55", "lat": 38.930530166666664, "name": "faf6b9c9277a7597ec647dd634cf4c55", "lon": -77.03667883333334, "fusion_lon": 0.0}, {"is_reserved": 0, "type": "electric_scooter", "fusion_lat": 0.0, "is_disabled": 0, "rental_uris": {"ios": "https://dc.lft.to/lastmile_qr_scan", "android": "https://dc.lft.to/lastmile_qr_scan"}, "bike_id": "d7342f90c2333ab6d01b51dcb4d0961a", "lat": 38.899792166666664, "name": "d7342f90c2333ab6d01b51dcb4d0961a", "lon": -77.04198933333333, "fusion_lon": 0.0}, {"is_reserved": 0, "type": "electric_scooter", "fusion_lat": 0.0, "is_disabled": 0, "rental_uris": {"ios": "https://dc.lft.to/lastmile_qr_scan", "android": "https://dc.lft.to/lastmile_qr_scan"}, "bike_id": "d8bdfd8ad941185c7377d4f8766c7671", "lat": 38.9200395, "name": "d8bdfd8ad941185c7377d4f8766c7671", "lon": -77.04183866666666, "fusion_lon": 0.0}, {"is_reserved": 0, "type": "electric_scooter", "fusion_lat": 0.0, "is_disabled": 0, "rental_uris": {"ios": "https://dc.lft.to/lastmile_qr_scan", "android": "https://dc.lft.to/lastmile_qr_scan"}, "bike_id": "65cc0c85787e44e2f3bafd07f1ee35bf", "lat": 38.885381333333335, "name": "65cc0c85787e44e2f3bafd07f1ee35bf", "lon": -76.95458433333333, "fusion_lon": 0.0}, {"is_reserved": 0, "type": "electric_scooter", "fusion_lat": 0.0, "is_disabled": 0, "rental_uris": {"ios": "https://dc.lft.to/lastmile_qr_scan", "android": "https://dc.lft.to/lastmile_qr_scan"}, "bike_id": "98eccacc1371992ccb2a4a5652f3b1ef", "lat": 38.943102, "name": "98eccacc1371992ccb2a4a5652f3b1ef", "lon": -77.07634266666666, "fusion_lon": 0.0}, {"is_reserved": 0, "type": "electric_scooter", "fusion_lat": 0.0, "is_disabled": 0, "rental_uris": {"ios": "https://dc.lft.to/lastmile_qr_scan", "android": "https://dc.lft.to/lastmile_qr_scan"}, "bike_id": "c3bc0ac3ae6b92c8a7b7aef1565adb32", "lat": 38.8922875, "name": "c3bc0ac3ae6b92c8a7b7aef1565adb32", "lon": -77.023812, "fusion_lon": 0.0}, {"is_reserved": 0, "type": "electric_scooter", "fusion_lat": 0.0, "is_disabled": 0, "rental_uris": {"ios": "https://dc.lft.to/lastmile_qr_scan", "android": "https://dc.lft.to/lastmile_qr_scan"}, "bike_id": "aa074b934c735b0e1076ee60f4aaa3f6", "lat": 38.91530483333333, "name": "aa074b934c735b0e1076ee60f4aaa3f6", "lon": -77.04433533333334, "fusion_lon": 0.0}, {"is_reserved": 0, "type": "electric_scooter", "fusion_lat": 0.0, "is_disabled": 0, "rental_uris": {"ios": "https://dc.lft.to/lastmile_qr_scan", "android": "https://dc.lft.to/lastmile_qr_scan"}, "bike_id": "6cf1acd3983a4279504f2f501f43d104", "lat": 38.909423833333335, "name": "6cf1acd3983a4279504f2f501f43d104", "lon": -77.0465615, "fusion_lon": 0.0}, {"is_reserved": 0, "type": "electric_scooter", "fusion_lat": 0.0, "is_disabled": 0, "rental_uris": {"ios": "https://dc.lft.to/lastmile_qr_scan", "android": "https://dc.lft.to/lastmile_qr_scan"}, "bike_id": "f1754ee67658b2f0763f1144380208e9", "lat": 38.88369516666667, "name": "f1754ee67658b2f0763f1144380208e9", "lon": -76.99514116666667, "fusion_lon": 0.0}, {"is_reserved": 0, "type": "electric_scooter", "fusion_lat": 0.0, "is_disabled": 0, "rental_uris": {"ios": "https://dc.lft.to/lastmile_qr_scan", "android": "https://dc.lft.to/lastmile_qr_scan"}, "bike_id": "aff7d55d4a3a2cde1db327f3a8543169", "lat": 38.921615, "name": "aff7d55d4a3a2cde1db327f3a8543169", "lon": -77.04119933333334, "fusion_lon": 0.0}, {"is_reserved": 0, "type": "electric_scooter", "fusion_lat": 0.0, "is_disabled": 0, "rental_uris": {"ios": "https://dc.lft.to/lastmile_qr_scan", "android": "https://dc.lft.to/lastmile_qr_scan"}, "bike_id": "4f797a5779ee937211e1849b3397d577", "lat": 38.931028166666664, "name": "4f797a5779ee937211e1849b3397d577", "lon": -77.0248235, "fusion_lon": 0.0}, {"is_reserved": 0, "type": "electric_scooter", "fusion_lat": 0.0, "is_disabled": 0, "rental_uris": {"ios": "https://dc.lft.to/lastmile_qr_scan", "android": "https://dc.lft.to/lastmile_qr_scan"}, "bike_id": "c51f48817612be602250841bdf643e21", "lat": 38.9024385, "name": "c51f48817612be602250841bdf643e21", "lon": -77.03945783333333, "fusion_lon": 0.0}, {"is_reserved": 0, "type": "electric_scooter", "fusion_lat": 0.0, "is_disabled": 0, "rental_uris": {"ios": "https://dc.lft.to/lastmile_qr_scan", "android": "https://dc.lft.to/lastmile_qr_scan"}, "bike_id": "3e69c11ce8694217ff5743bfb4da72f1", "lat": 38.91967983333333, "name": "3e69c11ce8694217ff5743bfb4da72f1", "lon": -77.03965666666667, "fusion_lon": 0.0}, {"is_reserved": 0, "type": "electric_scooter", "fusion_lat": 0.0, "is_disabled": 0, "rental_uris": {"ios": "https://dc.lft.to/lastmile_qr_scan", "android": "https://dc.lft.to/lastmile_qr_scan"}, "bike_id": "538aec54a1ab9ecaa15c0591018024f6", "lat": 38.895303, "name": "538aec54a1ab9ecaa15c0591018024f6", "lon": -76.94891733333333, "fusion_lon": 0.0}, {"is_reserved": 0, "type": "electric_scooter", "fusion_lat": 0.0, "is_disabled": 0, "rental_uris": {"ios": "https://dc.lft.to/lastmile_qr_scan", "android": "https://dc.lft.to/lastmile_qr_scan"}, "bike_id": "fbd0477f9ff6cafb7039e204914fa4dd", "lat": 38.89950183333333, "name": "fbd0477f9ff6cafb7039e204914fa4dd", "lon": -77.02573033333333, "fusion_lon": 0.0}, {"is_reserved": 0, "type": "electric_scooter", "fusion_lat": 0.0, "is_disabled": 0, "rental_uris": {"ios": "https://dc.lft.to/lastmile_qr_scan", "android": "https://dc.lft.to/lastmile_qr_scan"}, "bike_id": "4b5bc4fa609323da8168d031d4366c01", "lat": 38.90609383333334, "name": "4b5bc4fa609323da8168d031d4366c01", "lon": -77.048853, "fusion_lon": 0.0}, {"is_reserved": 0, "type": "electric_scooter", "fusion_lat": 0.0, "is_disabled": 0, "rental_uris": {"ios": "https://dc.lft.to/lastmile_qr_scan", "android": "https://dc.lft.to/lastmile_qr_scan"}, "bike_id": "d2329a7d8afa7892c1ecfb7ef7a2fee4", "lat": 38.914883333333336, "name": "d2329a7d8afa7892c1ecfb7ef7a2fee4", "lon": -77.04943816666666, "fusion_lon": 0.0}, {"is_reserved": 0, "type": "electric_scooter", "fusion_lat": 0.0, "is_disabled": 0, "rental_uris": {"ios": "https://dc.lft.to/lastmile_qr_scan", "android": "https://dc.lft.to/lastmile_qr_scan"}, "bike_id": "410f6be77abba3ea6b840fb9a0247de7", "lat": 38.923869833333335, "name": "410f6be77abba3ea6b840fb9a0247de7", "lon": -77.04069433333333, "fusion_lon": 0.0}, {"is_reserved": 0, "type": "electric_scooter", "fusion_lat": 0.0, "is_disabled": 0, "rental_uris": {"ios": "https://dc.lft.to/lastmile_qr_scan", "android": "https://dc.lft.to/lastmile_qr_scan"}, "bike_id": "86689e7bd96872b6c57ac2e98fe9fecc", "lat": 38.939443, "name": "86689e7bd96872b6c57ac2e98fe9fecc", "lon": -77.07238916666667, "fusion_lon": 0.0}, {"is_reserved": 0, "type": "electric_bike", "fusion_lat": 0.0, "is_disabled": 0, "rental_uris": {"ios": "https://dc.lft.to/lastmile_qr_scan", "android": "https://dc.lft.to/lastmile_qr_scan"}, "bike_id": "62d36572ada36361ed40d3c3d1ce333f", "lat": 38.9069585, "name": "62d36572ada36361ed40d3c3d1ce333f", "lon": -76.95251383333333, "fusion_lon": 0.0}, {"is_reserved": 0, "type": "electric_scooter", "fusion_lat": 0.0, "is_disabled": 0, "rental_uris": {"ios": "https://dc.lft.to/lastmile_qr_scan", "android": "https://dc.lft.to/lastmile_qr_scan"}, "bike_id": "86b2bfa58936796c235675f443e6d63d", "lat": 38.89715616666667, "name": "86b2bfa58936796c235675f443e6d63d", "lon": -77.0253245, "fusion_lon": 0.0}, {"is_reserved": 0, "type": "electric_scooter", "fusion_lat": 0.0, "is_disabled": 0, "rental_uris": {"ios": "https://dc.lft.to/lastmile_qr_scan", "android": "https://dc.lft.to/lastmile_qr_scan"}, "bike_id": "2ab692279a1c9873967de10fda28ca5a", "lat": 38.94262066666667, "name": "2ab692279a1c9873967de10fda28ca5a", "lon": -76.984712, "fusion_lon": 0.0}, {"is_reserved": 0, "type": "electric_scooter", "fusion_lat": 0.0, "is_disabled": 0, "rental_uris": {"ios": "https://dc.lft.to/lastmile_qr_scan", "android": "https://dc.lft.to/lastmile_qr_scan"}, "bike_id": "09e73c818fc2140d05724107c5ef097d", "lat": 38.883627833333335, "name": "09e73c818fc2140d05724107c5ef097d", "lon": -76.9576845, "fusion_lon": 0.0}, {"is_reserved": 0, "type": "electric_scooter", "fusion_lat": 0.0, "is_disabled": 0, "rental_uris": {"ios": "https://dc.lft.to/lastmile_qr_scan", "android": "https://dc.lft.to/lastmile_qr_scan"}, "bike_id": "4e7eb87745393013bb4f354df34e4480", "lat": 38.896522166666664, "name": "4e7eb87745393013bb4f354df34e4480", "lon": -77.05108833333334, "fusion_lon": 0.0}, {"is_reserved": 0, "type": "electric_scooter", "fusion_lat": 0.0, "is_disabled": 0, "rental_uris": {"ios": "https://dc.lft.to/lastmile_qr_scan", "android": "https://dc.lft.to/lastmile_qr_scan"}, "bike_id": "606eafbfe112a26956dd9485cb75a915", "lat": 38.9118735, "name": "606eafbfe112a26956dd9485cb75a915", "lon": -77.0608605, "fusion_lon": 0.0}, {"is_reserved": 0, "type": "electric_scooter", "fusion_lat": 0.0, "is_disabled": 0, "rental_uris": {"ios": "https://dc.lft.to/lastmile_qr_scan", "android": "https://dc.lft.to/lastmile_qr_scan"}, "bike_id": "46c3b989983067dc90c11a973c63d380", "lat": 38.895367666666665, "name": "46c3b989983067dc90c11a973c63d380", "lon": -76.988338, "fusion_lon": 0.0}, {"is_reserved": 0, "type": "electric_scooter", "fusion_lat": 0.0, "is_disabled": 0, "rental_uris": {"ios": "https://dc.lft.to/lastmile_qr_scan", "android": "https://dc.lft.to/lastmile_qr_scan"}, "bike_id": "08c04b59f3d23f891c0f4b7317d1e452", "lat": 38.94718066666667, "name": "08c04b59f3d23f891c0f4b7317d1e452", "lon": -77.06801066666667, "fusion_lon": 0.0}, {"is_reserved": 0, "type": "electric_scooter", "fusion_lat": 0.0, "is_disabled": 0, "rental_uris": {"ios": "https://dc.lft.to/lastmile_qr_scan", "android": "https://dc.lft.to/lastmile_qr_scan"}, "bike_id": "49718b30002fab161c0b999089d486c7", "lat": 38.90957983333333, "name": "49718b30002fab161c0b999089d486c7", "lon": -77.02384483333333, "fusion_lon": 0.0}, {"is_reserved": 0, "type": "electric_scooter", "fusion_lat": 0.0, "is_disabled": 0, "rental_uris": {"ios": "https://dc.lft.to/lastmile_qr_scan", "android": "https://dc.lft.to/lastmile_qr_scan"}, "bike_id": "e769cc3346b8d45b5aedaccf3e483b56", "lat": 38.8981925, "name": "e769cc3346b8d45b5aedaccf3e483b56", "lon": -77.0467025, "fusion_lon": 0.0}, {"is_reserved": 0, "type": "electric_scooter", "fusion_lat": 0.0, "is_disabled": 0, "rental_uris": {"ios": "https://dc.lft.to/lastmile_qr_scan", "android": "https://dc.lft.to/lastmile_qr_scan"}, "bike_id": "6eebd0fc980fb0ebf5807e8916f87375", "lat": 38.93528083333333, "name": "6eebd0fc980fb0ebf5807e8916f87375", "lon": -77.054529, "fusion_lon": 0.0}, {"is_reserved": 0, "type": "electric_scooter", "fusion_lat": 0.0, "is_disabled": 0, "rental_uris": {"ios": "https://dc.lft.to/lastmile_qr_scan", "android": "https://dc.lft.to/lastmile_qr_scan"}, "bike_id": "4c77b2c978aa550abb582c3ee0fec17c", "lat": 38.92234833333333, "name": "4c77b2c978aa550abb582c3ee0fec17c", "lon": -77.02814633333334, "fusion_lon": 0.0}, {"is_reserved": 0, "type": "electric_scooter", "fusion_lat": 0.0, "is_disabled": 0, "rental_uris": {"ios": "https://dc.lft.to/lastmile_qr_scan", "android": "https://dc.lft.to/lastmile_qr_scan"}, "bike_id": "a441b8108279ab5971f2e125a3cd4858", "lat": 38.8706755, "name": "a441b8108279ab5971f2e125a3cd4858", "lon": -76.98128016666666, "fusion_lon": 0.0}, {"is_reserved": 0, "type": "electric_scooter", "fusion_lat": 0.0, "is_disabled": 0, "rental_uris": {"ios": "https://dc.lft.to/lastmile_qr_scan", "android": "https://dc.lft.to/lastmile_qr_scan"}, "bike_id": "2799c421cd49d595db2af94210b983c0", "lat": 38.90746266666667, "name": "2799c421cd49d595db2af94210b983c0", "lon": -76.99920916666667, "fusion_lon": 0.0}, {"is_reserved": 0, "type": "electric_scooter", "fusion_lat": 0.0, "is_disabled": 0, "rental_uris": {"ios": "https://dc.lft.to/lastmile_qr_scan", "android": "https://dc.lft.to/lastmile_qr_scan"}, "bike_id": "2ee497f1ae0cb80588a4e1b2110144b3", "lat": 38.91358016666667, "name": "2ee497f1ae0cb80588a4e1b2110144b3", "lon": -77.046706, "fusion_lon": 0.0}, {"is_reserved": 0, "type": "electric_scooter", "fusion_lat": 0.0, "is_disabled": 0, "rental_uris": {"ios": "https://dc.lft.to/lastmile_qr_scan", "android": "https://dc.lft.to/lastmile_qr_scan"}, "bike_id": "ef94689fc79c782d98d52af7c2e63e90", "lat": 38.89970483333333, "name": "ef94689fc79c782d98d52af7c2e63e90", "lon": -77.0481545, "fusion_lon": 0.0}, {"is_reserved": 0, "type": "electric_bike", "fusion_lat": 0.0, "is_disabled": 0, "rental_uris": {"ios": "https://dc.lft.to/lastmile_qr_scan", "android": "https://dc.lft.to/lastmile_qr_scan"}, "bike_id": "89bfe9313bbe90c434b756474b59612e", "lat": 38.832666, "name": "89bfe9313bbe90c434b756474b59612e", "lon": -77.08365133333334, "fusion_lon": 0.0}, {"is_reserved": 0, "type": "electric_scooter", "fusion_lat": 0.0, "is_disabled": 0, "rental_uris": {"ios": "https://dc.lft.to/lastmile_qr_scan", "android": "https://dc.lft.to/lastmile_qr_scan"}, "bike_id": "3983b6ad59852d1b492005bb3abe6771", "lat": 38.920208, "name": "3983b6ad59852d1b492005bb3abe6771", "lon": -77.01700083333333, "fusion_lon": 0.0}, {"is_reserved": 0, "type": "electric_scooter", "fusion_lat": 0.0, "is_disabled": 0, "rental_uris": {"ios": "https://dc.lft.to/lastmile_qr_scan", "android": "https://dc.lft.to/lastmile_qr_scan"}, "bike_id": "f1de9e1764adc057a35789bacd8ca5cf", "lat": 38.889877166666665, "name": "f1de9e1764adc057a35789bacd8ca5cf", "lon": -77.00072633333333, "fusion_lon": 0.0}, {"is_reserved": 0, "type": "electric_scooter", "fusion_lat": 0.0, "is_disabled": 0, "rental_uris": {"ios": "https://dc.lft.to/lastmile_qr_scan", "android": "https://dc.lft.to/lastmile_qr_scan"}, "bike_id": "666a442ec1a787bbfe1f26b3d6542912", "lat": 38.93862583333333, "name": "666a442ec1a787bbfe1f26b3d6542912", "lon": -77.07237366666666, "fusion_lon": 0.0}, {"is_reserved": 0, "type": "electric_scooter", "fusion_lat": 0.0, "is_disabled": 0, "rental_uris": {"ios": "https://dc.lft.to/lastmile_qr_scan", "android": "https://dc.lft.to/lastmile_qr_scan"}, "bike_id": "915f374b33caef877d68bd5049b6f4ca", "lat": 38.92039183333333, "name": "915f374b33caef877d68bd5049b6f4ca", "lon": -77.0166975, "fusion_lon": 0.0}, {"is_reserved": 0, "type": "electric_scooter", "fusion_lat": 0.0, "is_disabled": 0, "rental_uris": {"ios": "https://dc.lft.to/lastmile_qr_scan", "android": "https://dc.lft.to/lastmile_qr_scan"}, "bike_id": "b91018c9ed424122dea9f1ff481f25f3", "lat": 38.898974, "name": "b91018c9ed424122dea9f1ff481f25f3", "lon": -77.05004466666666, "fusion_lon": 0.0}, {"is_reserved": 0, "type": "electric_scooter", "fusion_lat": 0.0, "is_disabled": 0, "rental_uris": {"ios": "https://dc.lft.to/lastmile_qr_scan", "android": "https://dc.lft.to/lastmile_qr_scan"}, "bike_id": "15ad77579653a78a47e9b33a025eaf89", "lat": 38.927140333333334, "name": "15ad77579653a78a47e9b33a025eaf89", "lon": -77.04047883333334, "fusion_lon": 0.0}, {"is_reserved": 0, "type": "electric_scooter", "fusion_lat": 0.0, "is_disabled": 0, "rental_uris": {"ios": "https://dc.lft.to/lastmile_qr_scan", "android": "https://dc.lft.to/lastmile_qr_scan"}, "bike_id": "cd4fef7bcb596f76144ca3a3b61f3d3a", "lat": 38.9465155, "name": "cd4fef7bcb596f76144ca3a3b61f3d3a", "lon": -77.06481433333333, "fusion_lon": 0.0}, {"is_reserved": 0, "type": "electric_scooter", "fusion_lat": 0.0, "is_disabled": 0, "rental_uris": {"ios": "https://dc.lft.to/lastmile_qr_scan", "android": "https://dc.lft.to/lastmile_qr_scan"}, "bike_id": "02f4bc7ac887f75d7e847016189c4e49", "lat": 38.9202615, "name": "02f4bc7ac887f75d7e847016189c4e49", "lon": -77.03977133333333, "fusion_lon": 0.0}, {"is_reserved": 0, "type": "electric_scooter", "fusion_lat": 0.0, "is_disabled": 0, "rental_uris": {"ios": "https://dc.lft.to/lastmile_qr_scan", "android": "https://dc.lft.to/lastmile_qr_scan"}, "bike_id": "f9b4632d7a5cb19d69eb5f48b7864f70", "lat": 38.95632416666667, "name": "f9b4632d7a5cb19d69eb5f48b7864f70", "lon": -77.0220895, "fusion_lon": 0.0}, {"is_reserved": 0, "type": "electric_scooter", "fusion_lat": 0.0, "is_disabled": 0, "rental_uris": {"ios": "https://dc.lft.to/lastmile_qr_scan", "android": "https://dc.lft.to/lastmile_qr_scan"}, "bike_id": "dfac0ac75dba2c8d4d6ce2ddc1d339ed", "lat": 38.89729416666667, "name": "dfac0ac75dba2c8d4d6ce2ddc1d339ed", "lon": -77.007584, "fusion_lon": 0.0}, {"is_reserved": 0, "type": "electric_scooter", "fusion_lat": 0.0, "is_disabled": 0, "rental_uris": {"ios": "https://dc.lft.to/lastmile_qr_scan", "android": "https://dc.lft.to/lastmile_qr_scan"}, "bike_id": "cfa1e50101e76983875654ee3cd86b5c", "lat": 38.9302855, "name": "cfa1e50101e76983875654ee3cd86b5c", "lon": -77.0380965, "fusion_lon": 0.0}, {"is_reserved": 0, "type": "electric_scooter", "fusion_lat": 0.0, "is_disabled": 0, "rental_uris": {"ios": "https://dc.lft.to/lastmile_qr_scan", "android": "https://dc.lft.to/lastmile_qr_scan"}, "bike_id": "1a69dd5e18994fef799dd23997f9bca1", "lat": 38.91700266666667, "name": "1a69dd5e18994fef799dd23997f9bca1", "lon": -77.024778, "fusion_lon": 0.0}, {"is_reserved": 0, "type": "electric_scooter", "fusion_lat": 0.0, "is_disabled": 0, "rental_uris": {"ios": "https://dc.lft.to/lastmile_qr_scan", "android": "https://dc.lft.to/lastmile_qr_scan"}, "bike_id": "d4be26d9a25a7ad6c751a9bdb3b483ae", "lat": 38.937632, "name": "d4be26d9a25a7ad6c751a9bdb3b483ae", "lon": -77.02660616666667, "fusion_lon": 0.0}, {"is_reserved": 0, "type": "electric_scooter", "fusion_lat": 0.0, "is_disabled": 0, "rental_uris": {"ios": "https://dc.lft.to/lastmile_qr_scan", "android": "https://dc.lft.to/lastmile_qr_scan"}, "bike_id": "0cad24fdf50ff72f36533407aaefacfc", "lat": 38.92996516666667, "name": "0cad24fdf50ff72f36533407aaefacfc", "lon": -77.0379875, "fusion_lon": 0.0}, {"is_reserved": 0, "type": "electric_scooter", "fusion_lat": 0.0, "is_disabled": 0, "rental_uris": {"ios": "https://dc.lft.to/lastmile_qr_scan", "android": "https://dc.lft.to/lastmile_qr_scan"}, "bike_id": "1b261a5182565441e60382bb055206ec", "lat": 38.9427145, "name": "1b261a5182565441e60382bb055206ec", "lon": -77.08195283333333, "fusion_lon": 0.0}, {"is_reserved": 0, "type": "electric_scooter", "fusion_lat": 0.0, "is_disabled": 0, "rental_uris": {"ios": "https://dc.lft.to/lastmile_qr_scan", "android": "https://dc.lft.to/lastmile_qr_scan"}, "bike_id": "cc330ea808ccd32515c422b92e515b3f", "lat": 38.95634366666667, "name": "cc330ea808ccd32515c422b92e515b3f", "lon": -77.03631666666666, "fusion_lon": 0.0}, {"is_reserved": 0, "type": "electric_scooter", "fusion_lat": 0.0, "is_disabled": 0, "rental_uris": {"ios": "https://dc.lft.to/lastmile_qr_scan", "android": "https://dc.lft.to/lastmile_qr_scan"}, "bike_id": "f430b5cb14b87fdd60a09c999df60b98", "lat": 38.912538166666664, "name": "f430b5cb14b87fdd60a09c999df60b98", "lon": -77.0098805, "fusion_lon": 0.0}, {"is_reserved": 0, "type": "electric_scooter", "fusion_lat": 0.0, "is_disabled": 0, "rental_uris": {"ios": "https://dc.lft.to/lastmile_qr_scan", "android": "https://dc.lft.to/lastmile_qr_scan"}, "bike_id": "70fbdcfb9034d83f4316405e72fd8c90", "lat": 38.90026666666667, "name": "70fbdcfb9034d83f4316405e72fd8c90", "lon": -77.0199285, "fusion_lon": 0.0}, {"is_reserved": 0, "type": "electric_scooter", "fusion_lat": 0.0, "is_disabled": 0, "rental_uris": {"ios": "https://dc.lft.to/lastmile_qr_scan", "android": "https://dc.lft.to/lastmile_qr_scan"}, "bike_id": "42af8f0314bf51dfa7f0c441d0b4e198", "lat": 38.89332866666667, "name": "42af8f0314bf51dfa7f0c441d0b4e198", "lon": -76.92889066666666, "fusion_lon": 0.0}, {"is_reserved": 0, "type": "electric_scooter", "fusion_lat": 0.0, "is_disabled": 0, "rental_uris": {"ios": "https://dc.lft.to/lastmile_qr_scan", "android": "https://dc.lft.to/lastmile_qr_scan"}, "bike_id": "e2dfae3bd0ba428e96a0851acb012343", "lat": 38.89957016666666, "name": "e2dfae3bd0ba428e96a0851acb012343", "lon": -77.01509066666667, "fusion_lon": 0.0}, {"is_reserved": 0, "type": "electric_scooter", "fusion_lat": 0.0, "is_disabled": 0, "rental_uris": {"ios": "https://dc.lft.to/lastmile_qr_scan", "android": "https://dc.lft.to/lastmile_qr_scan"}, "bike_id": "8145a4814141b1d9f3453f359c7bacf3", "lat": 38.91720766666667, "name": "8145a4814141b1d9f3453f359c7bacf3", "lon": -77.03465866666667, "fusion_lon": 0.0}, {"is_reserved": 0, "type": "electric_scooter", "fusion_lat": 0.0, "is_disabled": 0, "rental_uris": {"ios": "https://dc.lft.to/lastmile_qr_scan", "android": "https://dc.lft.to/lastmile_qr_scan"}, "bike_id": "205466f9b64ed11f1bd0e43b08b0b113", "lat": 38.9176675, "name": "205466f9b64ed11f1bd0e43b08b0b113", "lon": -77.02292933333334, "fusion_lon": 0.0}, {"is_reserved": 0, "type": "electric_scooter", "fusion_lat": 0.0, "is_disabled": 0, "rental_uris": {"ios": "https://dc.lft.to/lastmile_qr_scan", "android": "https://dc.lft.to/lastmile_qr_scan"}, "bike_id": "1c83d985d1dd1aa3aff1564990434d3c", "lat": 38.91561566666667, "name": "1c83d985d1dd1aa3aff1564990434d3c", "lon": -77.04095716666667, "fusion_lon": 0.0}, {"is_reserved": 0, "type": "electric_bike", "fusion_lat": 0.0, "is_disabled": 0, "rental_uris": {"ios": "https://dc.lft.to/lastmile_qr_scan", "android": "https://dc.lft.to/lastmile_qr_scan"}, "bike_id": "e82845b5e25f8cfaea8f2a8f4dc41855", "lat": 38.83866183333333, "name": "e82845b5e25f8cfaea8f2a8f4dc41855", "lon": -76.9969635, "fusion_lon": 0.0}, {"is_reserved": 0, "type": "electric_scooter", "fusion_lat": 0.0, "is_disabled": 0, "rental_uris": {"ios": "https://dc.lft.to/lastmile_qr_scan", "android": "https://dc.lft.to/lastmile_qr_scan"}, "bike_id": "5852a211fdafd2a65d5dda13cb1a7662", "lat": 38.903486, "name": "5852a211fdafd2a65d5dda13cb1a7662", "lon": -77.00732983333333, "fusion_lon": 0.0}, {"is_reserved": 0, "type": "electric_bike", "fusion_lat": 0.0, "is_disabled": 0, "rental_uris": {"ios": "https://dc.lft.to/lastmile_qr_scan", "android": "https://dc.lft.to/lastmile_qr_scan"}, "bike_id": "ee48db866fbbdae1845b68c9f35f467f", "lat": 38.90374466666667, "name": "ee48db866fbbdae1845b68c9f35f467f", "lon": -76.93747833333333, "fusion_lon": 0.0}, {"is_reserved": 0, "type": "electric_scooter", "fusion_lat": 0.0, "is_disabled": 0, "rental_uris": {"ios": "https://dc.lft.to/lastmile_qr_scan", "android": "https://dc.lft.to/lastmile_qr_scan"}, "bike_id": "2478285d9c8c208cc22eac0b12a579ef", "lat": 38.93614733333333, "name": "2478285d9c8c208cc22eac0b12a579ef", "lon": -77.05583633333333, "fusion_lon": 0.0}, {"is_reserved": 0, "type": "electric_scooter", "fusion_lat": 0.0, "is_disabled": 0, "rental_uris": {"ios": "https://dc.lft.to/lastmile_qr_scan", "android": "https://dc.lft.to/lastmile_qr_scan"}, "bike_id": "a11d2e0eedc4c5f03acf7d16a919d45a", "lat": 38.92128266666667, "name": "a11d2e0eedc4c5f03acf7d16a919d45a", "lon": -77.04437816666666, "fusion_lon": 0.0}, {"is_reserved": 0, "type": "electric_scooter", "fusion_lat": 0.0, "is_disabled": 0, "rental_uris": {"ios": "https://dc.lft.to/lastmile_qr_scan", "android": "https://dc.lft.to/lastmile_qr_scan"}, "bike_id": "ddd7cf8b491bc9b117789baebadf87a7", "lat": 38.903535166666664, "name": "ddd7cf8b491bc9b117789baebadf87a7", "lon": -77.06003216666667, "fusion_lon": 0.0}, {"is_reserved": 0, "type": "electric_scooter", "fusion_lat": 0.0, "is_disabled": 0, "rental_uris": {"ios": "https://dc.lft.to/lastmile_qr_scan", "android": "https://dc.lft.to/lastmile_qr_scan"}, "bike_id": "2a964688f6e41f6209137730e6f30ea1", "lat": 38.89934483333333, "name": "2a964688f6e41f6209137730e6f30ea1", "lon": -77.05399066666666, "fusion_lon": 0.0}, {"is_reserved": 0, "type": "electric_scooter", "fusion_lat": 0.0, "is_disabled": 0, "rental_uris": {"ios": "https://dc.lft.to/lastmile_qr_scan", "android": "https://dc.lft.to/lastmile_qr_scan"}, "bike_id": "1642389bd387cd29846830e076caab34", "lat": 38.88529466666667, "name": "1642389bd387cd29846830e076caab34", "lon": -76.98051966666667, "fusion_lon": 0.0}, {"is_reserved": 0, "type": "electric_scooter", "fusion_lat": 0.0, "is_disabled": 0, "rental_uris": {"ios": "https://dc.lft.to/lastmile_qr_scan", "android": "https://dc.lft.to/lastmile_qr_scan"}, "bike_id": "0169da7b1a74379c579c56941e614d95", "lat": 38.934812666666666, "name": "0169da7b1a74379c579c56941e614d95", "lon": -77.03635266666667, "fusion_lon": 0.0}, {"is_reserved": 0, "type": "electric_scooter", "fusion_lat": 0.0, "is_disabled": 0, "rental_uris": {"ios": "https://dc.lft.to/lastmile_qr_scan", "android": "https://dc.lft.to/lastmile_qr_scan"}, "bike_id": "0ad0bcc428d599addb01c6ddd2e3d462", "lat": 38.88381066666667, "name": "0ad0bcc428d599addb01c6ddd2e3d462", "lon": -77.04606066666666, "fusion_lon": 0.0}, {"is_reserved": 0, "type": "electric_scooter", "fusion_lat": 0.0, "is_disabled": 0, "rental_uris": {"ios": "https://dc.lft.to/lastmile_qr_scan", "android": "https://dc.lft.to/lastmile_qr_scan"}, "bike_id": "ef8d181866df349d6f1b2c918dc63603", "lat": 38.959547, "name": "ef8d181866df349d6f1b2c918dc63603", "lon": -77.03317283333334, "fusion_lon": 0.0}, {"is_reserved": 0, "type": "electric_scooter", "fusion_lat": 0.0, "is_disabled": 0, "rental_uris": {"ios": "https://dc.lft.to/lastmile_qr_scan", "android": "https://dc.lft.to/lastmile_qr_scan"}, "bike_id": "b8e96dc0b4c4b237886acefb2e570058", "lat": 38.912678, "name": "b8e96dc0b4c4b237886acefb2e570058", "lon": -77.04653633333334, "fusion_lon": 0.0}, {"is_reserved": 0, "type": "electric_scooter", "fusion_lat": 0.0, "is_disabled": 0, "rental_uris": {"ios": "https://dc.lft.to/lastmile_qr_scan", "android": "https://dc.lft.to/lastmile_qr_scan"}, "bike_id": "bd343fc46797936cd73f0d3b098dd45f", "lat": 38.8921, "name": "bd343fc46797936cd73f0d3b098dd45f", "lon": -76.961181, "fusion_lon": 0.0}, {"is_reserved": 0, "type": "electric_bike", "fusion_lat": 0.0, "is_disabled": 0, "rental_uris": {"ios": "https://dc.lft.to/lastmile_qr_scan", "android": "https://dc.lft.to/lastmile_qr_scan"}, "bike_id": "d6f707b9a0fbb13eec4aee61284ea565", "lat": 38.99827166666667, "name": "d6f707b9a0fbb13eec4aee61284ea565", "lon": -76.99729833333333, "fusion_lon": 0.0}, {"is_reserved": 0, "type": "electric_scooter", "fusion_lat": 0.0, "is_disabled": 0, "rental_uris": {"ios": "https://dc.lft.to/lastmile_qr_scan", "android": "https://dc.lft.to/lastmile_qr_scan"}, "bike_id": "6a0cfa80ac54e2acac73f30aa642c5d4", "lat": 38.91185, "name": "6a0cfa80ac54e2acac73f30aa642c5d4", "lon": -77.01766533333333, "fusion_lon": 0.0}, {"is_reserved": 0, "type": "electric_scooter", "fusion_lat": 0.0, "is_disabled": 0, "rental_uris": {"ios": "https://dc.lft.to/lastmile_qr_scan", "android": "https://dc.lft.to/lastmile_qr_scan"}, "bike_id": "5e651e15550278188fd59a25e3f7a4bd", "lat": 38.92885666666667, "name": "5e651e15550278188fd59a25e3f7a4bd", "lon": -77.0387495, "fusion_lon": 0.0}, {"is_reserved": 0, "type": "electric_scooter", "fusion_lat": 0.0, "is_disabled": 0, "rental_uris": {"ios": "https://dc.lft.to/lastmile_qr_scan", "android": "https://dc.lft.to/lastmile_qr_scan"}, "bike_id": "3f0e25e614939ce72cb0b1acc78a149e", "lat": 38.92145933333333, "name": "3f0e25e614939ce72cb0b1acc78a149e", "lon": -77.03384416666667, "fusion_lon": 0.0}, {"is_reserved": 0, "type": "electric_scooter", "fusion_lat": 0.0, "is_disabled": 0, "rental_uris": {"ios": "https://dc.lft.to/lastmile_qr_scan", "android": "https://dc.lft.to/lastmile_qr_scan"}, "bike_id": "08c0311b9252c047b6626c0959b72c7a", "lat": 38.902783666666664, "name": "08c0311b9252c047b6626c0959b72c7a", "lon": -77.03353683333333, "fusion_lon": 0.0}, {"is_reserved": 0, "type": "electric_scooter", "fusion_lat": 0.0, "is_disabled": 0, "rental_uris": {"ios": "https://dc.lft.to/lastmile_qr_scan", "android": "https://dc.lft.to/lastmile_qr_scan"}, "bike_id": "b275744e23386605cf696d774c6ef706", "lat": 38.8876445, "name": "b275744e23386605cf696d774c6ef706", "lon": -76.97731566666667, "fusion_lon": 0.0}, {"is_reserved": 0, "type": "electric_scooter", "fusion_lat": 0.0, "is_disabled": 0, "rental_uris": {"ios": "https://dc.lft.to/lastmile_qr_scan", "android": "https://dc.lft.to/lastmile_qr_scan"}, "bike_id": "3ffc01c6cf73d5180617bba61acc08e6", "lat": 38.92056016666667, "name": "3ffc01c6cf73d5180617bba61acc08e6", "lon": -77.04386416666667, "fusion_lon": 0.0}, {"is_reserved": 0, "type": "electric_scooter", "fusion_lat": 0.0, "is_disabled": 0, "rental_uris": {"ios": "https://dc.lft.to/lastmile_qr_scan", "android": "https://dc.lft.to/lastmile_qr_scan"}, "bike_id": "3a671137eecd13ac3fa7606ef1e35ada", "lat": 38.87623966666666, "name": "3a671137eecd13ac3fa7606ef1e35ada", "lon": -77.002146, "fusion_lon": 0.0}, {"is_reserved": 0, "type": "electric_scooter", "fusion_lat": 0.0, "is_disabled": 0, "rental_uris": {"ios": "https://dc.lft.to/lastmile_qr_scan", "android": "https://dc.lft.to/lastmile_qr_scan"}, "bike_id": "4091c7baa339b56a4c691f9f52e528ef", "lat": 38.947052, "name": "4091c7baa339b56a4c691f9f52e528ef", "lon": -77.0194935, "fusion_lon": 0.0}, {"is_reserved": 0, "type": "electric_scooter", "fusion_lat": 0.0, "is_disabled": 0, "rental_uris": {"ios": "https://dc.lft.to/lastmile_qr_scan", "android": "https://dc.lft.to/lastmile_qr_scan"}, "bike_id": "3e0e6acdb08e833146c47c7e5644dee0", "lat": 38.91878766666667, "name": "3e0e6acdb08e833146c47c7e5644dee0", "lon": -77.07311366666667, "fusion_lon": 0.0}, {"is_reserved": 0, "type": "electric_scooter", "fusion_lat": 0.0, "is_disabled": 0, "rental_uris": {"ios": "https://dc.lft.to/lastmile_qr_scan", "android": "https://dc.lft.to/lastmile_qr_scan"}, "bike_id": "ecfb4fd4e89231a3fc4c8eb92532a37a", "lat": 38.914174, "name": "ecfb4fd4e89231a3fc4c8eb92532a37a", "lon": -77.06921266666667, "fusion_lon": 0.0}, {"is_reserved": 0, "type": "electric_scooter", "fusion_lat": 0.0, "is_disabled": 0, "rental_uris": {"ios": "https://dc.lft.to/lastmile_qr_scan", "android": "https://dc.lft.to/lastmile_qr_scan"}, "bike_id": "165d84eb94cb03bbaed5dc68b1f6271f", "lat": 38.887661, "name": "165d84eb94cb03bbaed5dc68b1f6271f", "lon": -76.97730833333334, "fusion_lon": 0.0}, {"is_reserved": 0, "type": "electric_scooter", "fusion_lat": 0.0, "is_disabled": 0, "rental_uris": {"ios": "https://dc.lft.to/lastmile_qr_scan", "android": "https://dc.lft.to/lastmile_qr_scan"}, "bike_id": "0e800c052d4381897e898e14930116a5", "lat": 38.9243155, "name": "0e800c052d4381897e898e14930116a5", "lon": -77.01945416666666, "fusion_lon": 0.0}, {"is_reserved": 0, "type": "electric_scooter", "fusion_lat": 0.0, "is_disabled": 0, "rental_uris": {"ios": "https://dc.lft.to/lastmile_qr_scan", "android": "https://dc.lft.to/lastmile_qr_scan"}, "bike_id": "7096730119d19390e09b84aae3952e69", "lat": 38.87351983333333, "name": "7096730119d19390e09b84aae3952e69", "lon": -77.00197366666667, "fusion_lon": 0.0}, {"is_reserved": 0, "type": "electric_scooter", "fusion_lat": 0.0, "is_disabled": 0, "rental_uris": {"ios": "https://dc.lft.to/lastmile_qr_scan", "android": "https://dc.lft.to/lastmile_qr_scan"}, "bike_id": "5b93e33d6c237503b31b2243dbb2cbe4", "lat": 38.909117333333334, "name": "5b93e33d6c237503b31b2243dbb2cbe4", "lon": -77.04938066666666, "fusion_lon": 0.0}, {"is_reserved": 0, "type": "electric_scooter", "fusion_lat": 0.0, "is_disabled": 0, "rental_uris": {"ios": "https://dc.lft.to/lastmile_qr_scan", "android": "https://dc.lft.to/lastmile_qr_scan"}, "bike_id": "b6de912d35a01765d8fcb3d98f33b997", "lat": 38.917458333333336, "name": "b6de912d35a01765d8fcb3d98f33b997", "lon": -77.01087583333333, "fusion_lon": 0.0}, {"is_reserved": 0, "type": "electric_scooter", "fusion_lat": 0.0, "is_disabled": 0, "rental_uris": {"ios": "https://dc.lft.to/lastmile_qr_scan", "android": "https://dc.lft.to/lastmile_qr_scan"}, "bike_id": "a46e4df2cf77e37c4d68a6ef81691940", "lat": 38.899359833333335, "name": "a46e4df2cf77e37c4d68a6ef81691940", "lon": -76.93759316666667, "fusion_lon": 0.0}, {"is_reserved": 0, "type": "electric_scooter", "fusion_lat": 0.0, "is_disabled": 0, "rental_uris": {"ios": "https://dc.lft.to/lastmile_qr_scan", "android": "https://dc.lft.to/lastmile_qr_scan"}, "bike_id": "ba00c6984cbca30e7f93d73841a1be03", "lat": 38.89747933333334, "name": "ba00c6984cbca30e7f93d73841a1be03", "lon": -77.01046516666666, "fusion_lon": 0.0}, {"is_reserved": 0, "type": "electric_scooter", "fusion_lat": 0.0, "is_disabled": 0, "rental_uris": {"ios": "https://dc.lft.to/lastmile_qr_scan", "android": "https://dc.lft.to/lastmile_qr_scan"}, "bike_id": "20004c6d29ff5fe4e3879889ed30a824", "lat": 38.91810983333333, "name": "20004c6d29ff5fe4e3879889ed30a824", "lon": -77.03436833333333, "fusion_lon": 0.0}, {"is_reserved": 0, "type": "electric_scooter", "fusion_lat": 0.0, "is_disabled": 0, "rental_uris": {"ios": "https://dc.lft.to/lastmile_qr_scan", "android": "https://dc.lft.to/lastmile_qr_scan"}, "bike_id": "726efb65d57dcd83fea5bd59e634f885", "lat": 38.94310483333334, "name": "726efb65d57dcd83fea5bd59e634f885", "lon": -77.01726816666667, "fusion_lon": 0.0}, {"is_reserved": 0, "type": "electric_scooter", "fusion_lat": 0.0, "is_disabled": 0, "rental_uris": {"ios": "https://dc.lft.to/lastmile_qr_scan", "android": "https://dc.lft.to/lastmile_qr_scan"}, "bike_id": "c5682ddce503b50ba372369f3edf0bf2", "lat": 38.936369, "name": "c5682ddce503b50ba372369f3edf0bf2", "lon": -77.03639683333333, "fusion_lon": 0.0}, {"is_reserved": 0, "type": "electric_scooter", "fusion_lat": 0.0, "is_disabled": 0, "rental_uris": {"ios": "https://dc.lft.to/lastmile_qr_scan", "android": "https://dc.lft.to/lastmile_qr_scan"}, "bike_id": "bd7975c19e6ba2319035e6ff0fea1cb4", "lat": 38.928239166666664, "name": "bd7975c19e6ba2319035e6ff0fea1cb4", "lon": -77.02254416666666, "fusion_lon": 0.0}, {"is_reserved": 0, "type": "electric_scooter", "fusion_lat": 0.0, "is_disabled": 0, "rental_uris": {"ios": "https://dc.lft.to/lastmile_qr_scan", "android": "https://dc.lft.to/lastmile_qr_scan"}, "bike_id": "20043419ffacb05223e4b8c1b88c0ec1", "lat": 38.898531, "name": "20043419ffacb05223e4b8c1b88c0ec1", "lon": -77.03371033333333, "fusion_lon": 0.0}, {"is_reserved": 0, "type": "electric_scooter", "fusion_lat": 0.0, "is_disabled": 0, "rental_uris": {"ios": "https://dc.lft.to/lastmile_qr_scan", "android": "https://dc.lft.to/lastmile_qr_scan"}, "bike_id": "059ac08f05d743f5b612b84d449e6054", "lat": 38.91012766666667, "name": "059ac08f05d743f5b612b84d449e6054", "lon": -76.99390233333334, "fusion_lon": 0.0}, {"is_reserved": 0, "type": "electric_scooter", "fusion_lat": 0.0, "is_disabled": 0, "rental_uris": {"ios": "https://dc.lft.to/lastmile_qr_scan", "android": "https://dc.lft.to/lastmile_qr_scan"}, "bike_id": "f48a2fb33075ba3871bf6b06b2fe48ea", "lat": 38.904513666666666, "name": "f48a2fb33075ba3871bf6b06b2fe48ea", "lon": -77.01888166666667, "fusion_lon": 0.0}, {"is_reserved": 0, "type": "electric_scooter", "fusion_lat": 0.0, "is_disabled": 0, "rental_uris": {"ios": "https://dc.lft.to/lastmile_qr_scan", "android": "https://dc.lft.to/lastmile_qr_scan"}, "bike_id": "d8772122605a7dc659ea75ac3c79e47b", "lat": 38.91922733333333, "name": "d8772122605a7dc659ea75ac3c79e47b", "lon": -77.00973933333333, "fusion_lon": 0.0}, {"is_reserved": 0, "type": "electric_scooter", "fusion_lat": 0.0, "is_disabled": 0, "rental_uris": {"ios": "https://dc.lft.to/lastmile_qr_scan", "android": "https://dc.lft.to/lastmile_qr_scan"}, "bike_id": "24238dd2c4bba89bc2bd527d2685d3d3", "lat": 38.9029105, "name": "24238dd2c4bba89bc2bd527d2685d3d3", "lon": -77.02105466666667, "fusion_lon": 0.0}, {"is_reserved": 0, "type": "electric_scooter", "fusion_lat": 0.0, "is_disabled": 0, "rental_uris": {"ios": "https://dc.lft.to/lastmile_qr_scan", "android": "https://dc.lft.to/lastmile_qr_scan"}, "bike_id": "599ab1bbe1b030343cfeffafce5fb9dc", "lat": 38.90097683333333, "name": "599ab1bbe1b030343cfeffafce5fb9dc", "lon": -77.01765816666666, "fusion_lon": 0.0}, {"is_reserved": 0, "type": "electric_scooter", "fusion_lat": 0.0, "is_disabled": 0, "rental_uris": {"ios": "https://dc.lft.to/lastmile_qr_scan", "android": "https://dc.lft.to/lastmile_qr_scan"}, "bike_id": "16d3af5c45b0855958be5a96c19d28d7", "lat": 38.92049883333333, "name": "16d3af5c45b0855958be5a96c19d28d7", "lon": -77.03388783333334, "fusion_lon": 0.0}, {"is_reserved": 0, "type": "electric_scooter", "fusion_lat": 0.0, "is_disabled": 0, "rental_uris": {"ios": "https://dc.lft.to/lastmile_qr_scan", "android": "https://dc.lft.to/lastmile_qr_scan"}, "bike_id": "50b7795618d282820b3450d5530058cd", "lat": 38.9121145, "name": "50b7795618d282820b3450d5530058cd", "lon": -77.00659433333334, "fusion_lon": 0.0}, {"is_reserved": 0, "type": "electric_scooter", "fusion_lat": 0.0, "is_disabled": 0, "rental_uris": {"ios": "https://dc.lft.to/lastmile_qr_scan", "android": "https://dc.lft.to/lastmile_qr_scan"}, "bike_id": "93ae74224a9368b8c9a952e32751d65d", "lat": 38.90269883333333, "name": "93ae74224a9368b8c9a952e32751d65d", "lon": -76.98980066666667, "fusion_lon": 0.0}, {"is_reserved": 0, "type": "electric_scooter", "fusion_lat": 0.0, "is_disabled": 0, "rental_uris": {"ios": "https://dc.lft.to/lastmile_qr_scan", "android": "https://dc.lft.to/lastmile_qr_scan"}, "bike_id": "dfa53c68fadbec5cf294fdcba21d09b9", "lat": 38.907746, "name": "dfa53c68fadbec5cf294fdcba21d09b9", "lon": -77.07245716666667, "fusion_lon": 0.0}, {"is_reserved": 0, "type": "electric_scooter", "fusion_lat": 0.0, "is_disabled": 0, "rental_uris": {"ios": "https://dc.lft.to/lastmile_qr_scan", "android": "https://dc.lft.to/lastmile_qr_scan"}, "bike_id": "ac3667813d1471e88476491825326d80", "lat": 38.915414, "name": "ac3667813d1471e88476491825326d80", "lon": -77.02970533333334, "fusion_lon": 0.0}, {"is_reserved": 0, "type": "electric_scooter", "fusion_lat": 0.0, "is_disabled": 0, "rental_uris": {"ios": "https://dc.lft.to/lastmile_qr_scan", "android": "https://dc.lft.to/lastmile_qr_scan"}, "bike_id": "4ccec5898ee16f0f6d90953c3ffa14a8", "lat": 38.905031666666666, "name": "4ccec5898ee16f0f6d90953c3ffa14a8", "lon": -77.04334416666667, "fusion_lon": 0.0}, {"is_reserved": 0, "type": "electric_scooter", "fusion_lat": 0.0, "is_disabled": 0, "rental_uris": {"ios": "https://dc.lft.to/lastmile_qr_scan", "android": "https://dc.lft.to/lastmile_qr_scan"}, "bike_id": "860a4b17d7eed1d27bdc7d75afe80570", "lat": 38.87371066666667, "name": "860a4b17d7eed1d27bdc7d75afe80570", "lon": -77.0012335, "fusion_lon": 0.0}, {"is_reserved": 0, "type": "electric_scooter", "fusion_lat": 0.0, "is_disabled": 0, "rental_uris": {"ios": "https://dc.lft.to/lastmile_qr_scan", "android": "https://dc.lft.to/lastmile_qr_scan"}, "bike_id": "2562f79e47476f18f346876353d2b47c", "lat": 38.9446005, "name": "2562f79e47476f18f346876353d2b47c", "lon": -77.00656016666667, "fusion_lon": 0.0}, {"is_reserved": 0, "type": "electric_scooter", "fusion_lat": 0.0, "is_disabled": 0, "rental_uris": {"ios": "https://dc.lft.to/lastmile_qr_scan", "android": "https://dc.lft.to/lastmile_qr_scan"}, "bike_id": "a9cb0ee2f205cbd2ae95d85386b9aa5c", "lat": 38.93371716666667, "name": "a9cb0ee2f205cbd2ae95d85386b9aa5c", "lon": -77.0724595, "fusion_lon": 0.0}, {"is_reserved": 0, "type": "electric_scooter", "fusion_lat": 0.0, "is_disabled": 0, "rental_uris": {"ios": "https://dc.lft.to/lastmile_qr_scan", "android": "https://dc.lft.to/lastmile_qr_scan"}, "bike_id": "98015fad662cf2f0fda8b30d11b5c8b1", "lat": 38.9023295, "name": "98015fad662cf2f0fda8b30d11b5c8b1", "lon": -77.0006355, "fusion_lon": 0.0}, {"is_reserved": 0, "type": "electric_scooter", "fusion_lat": 0.0, "is_disabled": 0, "rental_uris": {"ios": "https://dc.lft.to/lastmile_qr_scan", "android": "https://dc.lft.to/lastmile_qr_scan"}, "bike_id": "e5821a6d888fe0d78239a6faf80d74cc", "lat": 38.92408666666667, "name": "e5821a6d888fe0d78239a6faf80d74cc", "lon": -77.02125566666666, "fusion_lon": 0.0}, {"is_reserved": 0, "type": "electric_scooter", "fusion_lat": 0.0, "is_disabled": 0, "rental_uris": {"ios": "https://dc.lft.to/lastmile_qr_scan", "android": "https://dc.lft.to/lastmile_qr_scan"}, "bike_id": "17fd70f8e458390641e794c9274b242c", "lat": 38.89976733333334, "name": "17fd70f8e458390641e794c9274b242c", "lon": -77.04490533333333, "fusion_lon": 0.0}, {"is_reserved": 0, "type": "electric_scooter", "fusion_lat": 0.0, "is_disabled": 0, "rental_uris": {"ios": "https://dc.lft.to/lastmile_qr_scan", "android": "https://dc.lft.to/lastmile_qr_scan"}, "bike_id": "a3f4aef431bfe48a7c5c78597eaa9225", "lat": 38.948243166666664, "name": "a3f4aef431bfe48a7c5c78597eaa9225", "lon": -77.026122, "fusion_lon": 0.0}, {"is_reserved": 0, "type": "electric_scooter", "fusion_lat": 0.0, "is_disabled": 0, "rental_uris": {"ios": "https://dc.lft.to/lastmile_qr_scan", "android": "https://dc.lft.to/lastmile_qr_scan"}, "bike_id": "31c0a36550ee01dffbec628012b2fcd5", "lat": 38.87640116666667, "name": "31c0a36550ee01dffbec628012b2fcd5", "lon": -77.0007275, "fusion_lon": 0.0}, {"is_reserved": 0, "type": "electric_scooter", "fusion_lat": 0.0, "is_disabled": 0, "rental_uris": {"ios": "https://dc.lft.to/lastmile_qr_scan", "android": "https://dc.lft.to/lastmile_qr_scan"}, "bike_id": "0a2436d93ec99fce6865db7d986295c5", "lat": 38.88133233333333, "name": "0a2436d93ec99fce6865db7d986295c5", "lon": -77.0201, "fusion_lon": 0.0}, {"is_reserved": 0, "type": "electric_scooter", "fusion_lat": 0.0, "is_disabled": 0, "rental_uris": {"ios": "https://dc.lft.to/lastmile_qr_scan", "android": "https://dc.lft.to/lastmile_qr_scan"}, "bike_id": "4ed6e107f9b8dc2f3655a495aa283977", "lat": 38.891983, "name": "4ed6e107f9b8dc2f3655a495aa283977", "lon": -77.0154995, "fusion_lon": 0.0}, {"is_reserved": 0, "type": "electric_scooter", "fusion_lat": 0.0, "is_disabled": 0, "rental_uris": {"ios": "https://dc.lft.to/lastmile_qr_scan", "android": "https://dc.lft.to/lastmile_qr_scan"}, "bike_id": "30c4a381b40b7da9d767c4ed3e1d87b1", "lat": 38.917966166666666, "name": "30c4a381b40b7da9d767c4ed3e1d87b1", "lon": -77.0443905, "fusion_lon": 0.0}, {"is_reserved": 0, "type": "electric_bike", "fusion_lat": 0.0, "is_disabled": 0, "rental_uris": {"ios": "https://dc.lft.to/lastmile_qr_scan", "android": "https://dc.lft.to/lastmile_qr_scan"}, "bike_id": "a958e81fcc746535aa99770948914519", "lat": 38.8133455, "name": "a958e81fcc746535aa99770948914519", "lon": -77.05118133333333, "fusion_lon": 0.0}, {"is_reserved": 0, "type": "electric_scooter", "fusion_lat": 0.0, "is_disabled": 0, "rental_uris": {"ios": "https://dc.lft.to/lastmile_qr_scan", "android": "https://dc.lft.to/lastmile_qr_scan"}, "bike_id": "5625099d86fd2ee37c3a816a2bed6288", "lat": 38.915887833333336, "name": "5625099d86fd2ee37c3a816a2bed6288", "lon": -77.02299733333334, "fusion_lon": 0.0}, {"is_reserved": 0, "type": "electric_bike", "fusion_lat": 0.0, "is_disabled": 0, "rental_uris": {"ios": "https://dc.lft.to/lastmile_qr_scan", "android": "https://dc.lft.to/lastmile_qr_scan"}, "bike_id": "d3980d4cc9fa981d49ecd765976341b6", "lat": 38.876616, "name": "d3980d4cc9fa981d49ecd765976341b6", "lon": -77.020876, "fusion_lon": 0.0}, {"is_reserved": 0, "type": "electric_bike", "fusion_lat": 0.0, "is_disabled": 0, "rental_uris": {"ios": "https://dc.lft.to/lastmile_qr_scan", "android": "https://dc.lft.to/lastmile_qr_scan"}, "bike_id": "b82bdb3c243e88d2440f48a24bcbb197", "lat": 38.875753333333336, "name": "b82bdb3c243e88d2440f48a24bcbb197", "lon": -77.23410816666667, "fusion_lon": 0.0}, {"is_reserved": 0, "type": "electric_scooter", "fusion_lat": 0.0, "is_disabled": 0, "rental_uris": {"ios": "https://dc.lft.to/lastmile_qr_scan", "android": "https://dc.lft.to/lastmile_qr_scan"}, "bike_id": "be64798e45a6cf3b4c89f3de97fea543", "lat": 38.870635166666666, "name": "be64798e45a6cf3b4c89f3de97fea543", "lon": -76.98130183333333, "fusion_lon": 0.0}, {"is_reserved": 0, "type": "electric_scooter", "fusion_lat": 0.0, "is_disabled": 0, "rental_uris": {"ios": "https://dc.lft.to/lastmile_qr_scan", "android": "https://dc.lft.to/lastmile_qr_scan"}, "bike_id": "8fdc3aace4cfd82126574f85c3e65a22", "lat": 38.908466, "name": "8fdc3aace4cfd82126574f85c3e65a22", "lon": -77.02457666666666, "fusion_lon": 0.0}, {"is_reserved": 0, "type": "electric_scooter", "fusion_lat": 0.0, "is_disabled": 0, "rental_uris": {"ios": "https://dc.lft.to/lastmile_qr_scan", "android": "https://dc.lft.to/lastmile_qr_scan"}, "bike_id": "4233f52fc90296343ef35afa4ea693ee", "lat": 38.89477633333333, "name": "4233f52fc90296343ef35afa4ea693ee", "lon": -76.94870316666666, "fusion_lon": 0.0}, {"is_reserved": 0, "type": "electric_scooter", "fusion_lat": 0.0, "is_disabled": 0, "rental_uris": {"ios": "https://dc.lft.to/lastmile_qr_scan", "android": "https://dc.lft.to/lastmile_qr_scan"}, "bike_id": "c6d87b950d3a8b0bde9b6f2f5df06de6", "lat": 38.917573166666664, "name": "c6d87b950d3a8b0bde9b6f2f5df06de6", "lon": -77.00454533333334, "fusion_lon": 0.0}, {"is_reserved": 0, "type": "electric_scooter", "fusion_lat": 0.0, "is_disabled": 0, "rental_uris": {"ios": "https://dc.lft.to/lastmile_qr_scan", "android": "https://dc.lft.to/lastmile_qr_scan"}, "bike_id": "00fb37513fcd0cb176f4e319fcda510f", "lat": 38.8932715, "name": "00fb37513fcd0cb176f4e319fcda510f", "lon": -76.9392775, "fusion_lon": 0.0}, {"is_reserved": 0, "type": "electric_scooter", "fusion_lat": 0.0, "is_disabled": 0, "rental_uris": {"ios": "https://dc.lft.to/lastmile_qr_scan", "android": "https://dc.lft.to/lastmile_qr_scan"}, "bike_id": "4ea125d9328ca00b4d98f4ea1b044241", "lat": 38.92436883333333, "name": "4ea125d9328ca00b4d98f4ea1b044241", "lon": -77.04242883333333, "fusion_lon": 0.0}, {"is_reserved": 0, "type": "electric_scooter", "fusion_lat": 0.0, "is_disabled": 0, "rental_uris": {"ios": "https://dc.lft.to/lastmile_qr_scan", "android": "https://dc.lft.to/lastmile_qr_scan"}, "bike_id": "de0856c465cdc77208d680e32ed67a13", "lat": 38.905713166666665, "name": "de0856c465cdc77208d680e32ed67a13", "lon": -77.03116966666667, "fusion_lon": 0.0}, {"is_reserved": 0, "type": "electric_scooter", "fusion_lat": 0.0, "is_disabled": 0, "rental_uris": {"ios": "https://dc.lft.to/lastmile_qr_scan", "android": "https://dc.lft.to/lastmile_qr_scan"}, "bike_id": "134961f930e4e14ae7ae106e7753dd9a", "lat": 38.905623166666665, "name": "134961f930e4e14ae7ae106e7753dd9a", "lon": -77.02406533333334, "fusion_lon": 0.0}, {"is_reserved": 0, "type": "electric_bike", "fusion_lat": 0.0, "is_disabled": 0, "rental_uris": {"ios": "https://dc.lft.to/lastmile_qr_scan", "android": "https://dc.lft.to/lastmile_qr_scan"}, "bike_id": "bc713cd98282e4816dcb9804685d6a97", "lat": 39.005307, "name": "bc713cd98282e4816dcb9804685d6a97", "lon": -77.10403016666666, "fusion_lon": 0.0}, {"is_reserved": 0, "type": "electric_scooter", "fusion_lat": 0.0, "is_disabled": 0, "rental_uris": {"ios": "https://dc.lft.to/lastmile_qr_scan", "android": "https://dc.lft.to/lastmile_qr_scan"}, "bike_id": "b4a8d65e0804dc2888e0b7223124e5ca", "lat": 38.92970033333334, "name": "b4a8d65e0804dc2888e0b7223124e5ca", "lon": -77.02343033333334, "fusion_lon": 0.0}, {"is_reserved": 0, "type": "electric_scooter", "fusion_lat": 0.0, "is_disabled": 0, "rental_uris": {"ios": "https://dc.lft.to/lastmile_qr_scan", "android": "https://dc.lft.to/lastmile_qr_scan"}, "bike_id": "64c2644d0889596aed84b387bba4648b", "lat": 38.914680833333335, "name": "64c2644d0889596aed84b387bba4648b", "lon": -77.00927383333334, "fusion_lon": 0.0}, {"is_reserved": 0, "type": "electric_scooter", "fusion_lat": 0.0, "is_disabled": 0, "rental_uris": {"ios": "https://dc.lft.to/lastmile_qr_scan", "android": "https://dc.lft.to/lastmile_qr_scan"}, "bike_id": "09368d5f8e7464597dfbc406349af4ad", "lat": 38.8984745, "name": "09368d5f8e7464597dfbc406349af4ad", "lon": -76.9948435, "fusion_lon": 0.0}, {"is_reserved": 0, "type": "electric_scooter", "fusion_lat": 0.0, "is_disabled": 0, "rental_uris": {"ios": "https://dc.lft.to/lastmile_qr_scan", "android": "https://dc.lft.to/lastmile_qr_scan"}, "bike_id": "abd6af6d22872765aa33fe76d5eb6ff4", "lat": 38.91456133333333, "name": "abd6af6d22872765aa33fe76d5eb6ff4", "lon": -77.0229105, "fusion_lon": 0.0}, {"is_reserved": 0, "type": "electric_bike", "fusion_lat": 0.0, "is_disabled": 0, "rental_uris": {"ios": "https://dc.lft.to/lastmile_qr_scan", "android": "https://dc.lft.to/lastmile_qr_scan"}, "bike_id": "8471ff77f8f04b0841a74398796ed8a2", "lat": 38.86500516666667, "name": "8471ff77f8f04b0841a74398796ed8a2", "lon": -76.97314366666667, "fusion_lon": 0.0}, {"is_reserved": 0, "type": "electric_scooter", "fusion_lat": 0.0, "is_disabled": 0, "rental_uris": {"ios": "https://dc.lft.to/lastmile_qr_scan", "android": "https://dc.lft.to/lastmile_qr_scan"}, "bike_id": "c15c08b08af3b07ac45ef338a03db3b6", "lat": 38.919486666666664, "name": "c15c08b08af3b07ac45ef338a03db3b6", "lon": -77.024944, "fusion_lon": 0.0}, {"is_reserved": 0, "type": "electric_scooter", "fusion_lat": 0.0, "is_disabled": 0, "rental_uris": {"ios": "https://dc.lft.to/lastmile_qr_scan", "android": "https://dc.lft.to/lastmile_qr_scan"}, "bike_id": "6e1d7a5d2543a2e0cfd5ca8bdde96734", "lat": 38.878394166666666, "name": "6e1d7a5d2543a2e0cfd5ca8bdde96734", "lon": -77.00856483333334, "fusion_lon": 0.0}, {"is_reserved": 0, "type": "electric_bike", "fusion_lat": 0.0, "is_disabled": 0, "rental_uris": {"ios": "https://dc.lft.to/lastmile_qr_scan", "android": "https://dc.lft.to/lastmile_qr_scan"}, "bike_id": "d6f7ffa93ae7406cad363c20ed2f1ab8", "lat": 38.877381166666666, "name": "d6f7ffa93ae7406cad363c20ed2f1ab8", "lon": -77.14872283333334, "fusion_lon": 0.0}, {"is_reserved": 0, "type": "electric_scooter", "fusion_lat": 0.0, "is_disabled": 0, "rental_uris": {"ios": "https://dc.lft.to/lastmile_qr_scan", "android": "https://dc.lft.to/lastmile_qr_scan"}, "bike_id": "dd07b785d195cc1a1ae0e1cd9531d015", "lat": 38.885157166666666, "name": "dd07b785d195cc1a1ae0e1cd9531d015", "lon": -76.99609366666667, "fusion_lon": 0.0}, {"is_reserved": 0, "type": "electric_scooter", "fusion_lat": 0.0, "is_disabled": 0, "rental_uris": {"ios": "https://dc.lft.to/lastmile_qr_scan", "android": "https://dc.lft.to/lastmile_qr_scan"}, "bike_id": "39c41296447da9eb9cb81b86adc929a1", "lat": 38.904146, "name": "39c41296447da9eb9cb81b86adc929a1", "lon": -76.9852955, "fusion_lon": 0.0}, {"is_reserved": 0, "type": "electric_scooter", "fusion_lat": 0.0, "is_disabled": 0, "rental_uris": {"ios": "https://dc.lft.to/lastmile_qr_scan", "android": "https://dc.lft.to/lastmile_qr_scan"}, "bike_id": "a1b8c4a294dd814276fec47e181f283d", "lat": 38.871702166666665, "name": "a1b8c4a294dd814276fec47e181f283d", "lon": -77.00623566666667, "fusion_lon": 0.0}, {"is_reserved": 0, "type": "electric_scooter", "fusion_lat": 0.0, "is_disabled": 0, "rental_uris": {"ios": "https://dc.lft.to/lastmile_qr_scan", "android": "https://dc.lft.to/lastmile_qr_scan"}, "bike_id": "01b6fbcde66178152427b43957278ec1", "lat": 38.914824833333334, "name": "01b6fbcde66178152427b43957278ec1", "lon": -77.040812, "fusion_lon": 0.0}, {"is_reserved": 0, "type": "electric_scooter", "fusion_lat": 0.0, "is_disabled": 0, "rental_uris": {"ios": "https://dc.lft.to/lastmile_qr_scan", "android": "https://dc.lft.to/lastmile_qr_scan"}, "bike_id": "53a8d627bbad0ba848462f4a78426923", "lat": 38.905841333333335, "name": "53a8d627bbad0ba848462f4a78426923", "lon": -77.0627745, "fusion_lon": 0.0}, {"is_reserved": 0, "type": "electric_scooter", "fusion_lat": 0.0, "is_disabled": 0, "rental_uris": {"ios": "https://dc.lft.to/lastmile_qr_scan", "android": "https://dc.lft.to/lastmile_qr_scan"}, "bike_id": "f7f47020906d802529ee512f65b29b3c", "lat": 38.91560533333333, "name": "f7f47020906d802529ee512f65b29b3c", "lon": -77.03673283333333, "fusion_lon": 0.0}, {"is_reserved": 0, "type": "electric_scooter", "fusion_lat": 0.0, "is_disabled": 0, "rental_uris": {"ios": "https://dc.lft.to/lastmile_qr_scan", "android": "https://dc.lft.to/lastmile_qr_scan"}, "bike_id": "ec0b7add5a8a43555fb06e8d15abcffd", "lat": 38.899408333333334, "name": "ec0b7add5a8a43555fb06e8d15abcffd", "lon": -77.01451016666667, "fusion_lon": 0.0}, {"is_reserved": 0, "type": "electric_scooter", "fusion_lat": 0.0, "is_disabled": 0, "rental_uris": {"ios": "https://dc.lft.to/lastmile_qr_scan", "android": "https://dc.lft.to/lastmile_qr_scan"}, "bike_id": "bdc1e92a6f2361f69d912819e4f5256a", "lat": 38.92457566666667, "name": "bdc1e92a6f2361f69d912819e4f5256a", "lon": -77.03784133333333, "fusion_lon": 0.0}, {"is_reserved": 0, "type": "electric_bike", "fusion_lat": 0.0, "is_disabled": 0, "rental_uris": {"ios": "https://dc.lft.to/lastmile_qr_scan", "android": "https://dc.lft.to/lastmile_qr_scan"}, "bike_id": "1dcc15046962a2119962345f5d6c6c10", "lat": 38.99091833333333, "name": "1dcc15046962a2119962345f5d6c6c10", "lon": -76.99371783333333, "fusion_lon": 0.0}, {"is_reserved": 0, "type": "electric_scooter", "fusion_lat": 0.0, "is_disabled": 0, "rental_uris": {"ios": "https://dc.lft.to/lastmile_qr_scan", "android": "https://dc.lft.to/lastmile_qr_scan"}, "bike_id": "a5d42a1a7bf6aca9525524795492a969", "lat": 38.87919466666666, "name": "a5d42a1a7bf6aca9525524795492a969", "lon": -76.94476733333333, "fusion_lon": 0.0}, {"is_reserved": 0, "type": "electric_scooter", "fusion_lat": 0.0, "is_disabled": 0, "rental_uris": {"ios": "https://dc.lft.to/lastmile_qr_scan", "android": "https://dc.lft.to/lastmile_qr_scan"}, "bike_id": "8b7ca9ecb6381546c74cdfe2191229f0", "lat": 38.907817, "name": "8b7ca9ecb6381546c74cdfe2191229f0", "lon": -77.04516833333334, "fusion_lon": 0.0}, {"is_reserved": 0, "type": "electric_scooter", "fusion_lat": 0.0, "is_disabled": 0, "rental_uris": {"ios": "https://dc.lft.to/lastmile_qr_scan", "android": "https://dc.lft.to/lastmile_qr_scan"}, "bike_id": "bc0e62552a18da44501803cc7cd3bc8c", "lat": 38.914346, "name": "bc0e62552a18da44501803cc7cd3bc8c", "lon": -77.022907, "fusion_lon": 0.0}, {"is_reserved": 0, "type": "electric_bike", "fusion_lat": 0.0, "is_disabled": 0, "rental_uris": {"ios": "https://dc.lft.to/lastmile_qr_scan", "android": "https://dc.lft.to/lastmile_qr_scan"}, "bike_id": "7f48a828fa2e74be6b020ed72c805196", "lat": 38.854395833333335, "name": "7f48a828fa2e74be6b020ed72c805196", "lon": -76.97227216666667, "fusion_lon": 0.0}, {"is_reserved": 0, "type": "electric_scooter", "fusion_lat": 0.0, "is_disabled": 0, "rental_uris": {"ios": "https://dc.lft.to/lastmile_qr_scan", "android": "https://dc.lft.to/lastmile_qr_scan"}, "bike_id": "c667dbe6021182d4f4d50a31e2fadfd3", "lat": 38.90557066666667, "name": "c667dbe6021182d4f4d50a31e2fadfd3", "lon": -77.00560616666667, "fusion_lon": 0.0}, {"is_reserved": 0, "type": "electric_bike", "fusion_lat": 0.0, "is_disabled": 0, "rental_uris": {"ios": "https://dc.lft.to/lastmile_qr_scan", "android": "https://dc.lft.to/lastmile_qr_scan"}, "bike_id": "621fa36a6be90fe65c5c4017a4fba1ae", "lat": 38.866139833333335, "name": "621fa36a6be90fe65c5c4017a4fba1ae", "lon": -76.9899885, "fusion_lon": 0.0}, {"is_reserved": 0, "type": "electric_scooter", "fusion_lat": 0.0, "is_disabled": 0, "rental_uris": {"ios": "https://dc.lft.to/lastmile_qr_scan", "android": "https://dc.lft.to/lastmile_qr_scan"}, "bike_id": "d72834385a1a76cc8993e37de5557ba9", "lat": 38.906066333333335, "name": "d72834385a1a76cc8993e37de5557ba9", "lon": -76.98979183333333, "fusion_lon": 0.0}, {"is_reserved": 0, "type": "electric_scooter", "fusion_lat": 0.0, "is_disabled": 0, "rental_uris": {"ios": "https://dc.lft.to/lastmile_qr_scan", "android": "https://dc.lft.to/lastmile_qr_scan"}, "bike_id": "4529c572a5fa6b00693e423922dc4f4c", "lat": 38.894003833333336, "name": "4529c572a5fa6b00693e423922dc4f4c", "lon": -77.04998866666666, "fusion_lon": 0.0}, {"is_reserved": 0, "type": "electric_scooter", "fusion_lat": 0.0, "is_disabled": 0, "rental_uris": {"ios": "https://dc.lft.to/lastmile_qr_scan", "android": "https://dc.lft.to/lastmile_qr_scan"}, "bike_id": "7c358d4e5ea23f74e63bec0a4e4ccf1f", "lat": 38.920399, "name": "7c358d4e5ea23f74e63bec0a4e4ccf1f", "lon": -77.01679516666667, "fusion_lon": 0.0}, {"is_reserved": 0, "type": "electric_scooter", "fusion_lat": 0.0, "is_disabled": 0, "rental_uris": {"ios": "https://dc.lft.to/lastmile_qr_scan", "android": "https://dc.lft.to/lastmile_qr_scan"}, "bike_id": "86b97ba8fd222037304c842b09b8f274", "lat": 38.8995905, "name": "86b97ba8fd222037304c842b09b8f274", "lon": -77.04710333333334, "fusion_lon": 0.0}, {"is_reserved": 0, "type": "electric_scooter", "fusion_lat": 0.0, "is_disabled": 0, "rental_uris": {"ios": "https://dc.lft.to/lastmile_qr_scan", "android": "https://dc.lft.to/lastmile_qr_scan"}, "bike_id": "294c88162bebe8db38dbcd7e2aa0284f", "lat": 38.9054815, "name": "294c88162bebe8db38dbcd7e2aa0284f", "lon": -77.06267916666667, "fusion_lon": 0.0}, {"is_reserved": 0, "type": "electric_scooter", "fusion_lat": 0.0, "is_disabled": 0, "rental_uris": {"ios": "https://dc.lft.to/lastmile_qr_scan", "android": "https://dc.lft.to/lastmile_qr_scan"}, "bike_id": "fbd9d689ce22cbc583e6b615b6444ede", "lat": 38.92286033333333, "name": "fbd9d689ce22cbc583e6b615b6444ede", "lon": -77.01992516666667, "fusion_lon": 0.0}, {"is_reserved": 0, "type": "electric_scooter", "fusion_lat": 0.0, "is_disabled": 0, "rental_uris": {"ios": "https://dc.lft.to/lastmile_qr_scan", "android": "https://dc.lft.to/lastmile_qr_scan"}, "bike_id": "a17ccea1a1453795c2c97fcd82236122", "lat": 38.90477516666667, "name": "a17ccea1a1453795c2c97fcd82236122", "lon": -77.027973, "fusion_lon": 0.0}, {"is_reserved": 0, "type": "electric_scooter", "fusion_lat": 0.0, "is_disabled": 0, "rental_uris": {"ios": "https://dc.lft.to/lastmile_qr_scan", "android": "https://dc.lft.to/lastmile_qr_scan"}, "bike_id": "7744d333b6d38c5e50e79a31af67301f", "lat": 38.92830083333333, "name": "7744d333b6d38c5e50e79a31af67301f", "lon": -77.037077, "fusion_lon": 0.0}, {"is_reserved": 0, "type": "electric_scooter", "fusion_lat": 0.0, "is_disabled": 0, "rental_uris": {"ios": "https://dc.lft.to/lastmile_qr_scan", "android": "https://dc.lft.to/lastmile_qr_scan"}, "bike_id": "b0665685e1bbc7d1e77e8740053e730d", "lat": 38.87628266666667, "name": "b0665685e1bbc7d1e77e8740053e730d", "lon": -77.00962233333334, "fusion_lon": 0.0}, {"is_reserved": 0, "type": "electric_scooter", "fusion_lat": 0.0, "is_disabled": 0, "rental_uris": {"ios": "https://dc.lft.to/lastmile_qr_scan", "android": "https://dc.lft.to/lastmile_qr_scan"}, "bike_id": "6cbf7830205e29fd2af1f69f1407a35f", "lat": 38.881238833333335, "name": "6cbf7830205e29fd2af1f69f1407a35f", "lon": -76.99341133333333, "fusion_lon": 0.0}, {"is_reserved": 0, "type": "electric_scooter", "fusion_lat": 0.0, "is_disabled": 0, "rental_uris": {"ios": "https://dc.lft.to/lastmile_qr_scan", "android": "https://dc.lft.to/lastmile_qr_scan"}, "bike_id": "c1c44f0053a4198bb3654e0006565848", "lat": 38.902199333333336, "name": "c1c44f0053a4198bb3654e0006565848", "lon": -77.01794383333333, "fusion_lon": 0.0}, {"is_reserved": 0, "type": "electric_scooter", "fusion_lat": 0.0, "is_disabled": 0, "rental_uris": {"ios": "https://dc.lft.to/lastmile_qr_scan", "android": "https://dc.lft.to/lastmile_qr_scan"}, "bike_id": "4d6a4b4806c38f56b0b531f39307395d", "lat": 38.886568, "name": "4d6a4b4806c38f56b0b531f39307395d", "lon": -76.98560133333334, "fusion_lon": 0.0}, {"is_reserved": 0, "type": "electric_scooter", "fusion_lat": 0.0, "is_disabled": 0, "rental_uris": {"ios": "https://dc.lft.to/lastmile_qr_scan", "android": "https://dc.lft.to/lastmile_qr_scan"}, "bike_id": "c88be15d998464c67bec26f9a1f7aed3", "lat": 38.9059835, "name": "c88be15d998464c67bec26f9a1f7aed3", "lon": -77.021082, "fusion_lon": 0.0}, {"is_reserved": 0, "type": "electric_scooter", "fusion_lat": 0.0, "is_disabled": 0, "rental_uris": {"ios": "https://dc.lft.to/lastmile_qr_scan", "android": "https://dc.lft.to/lastmile_qr_scan"}, "bike_id": "c252c75b67ec9977b9de10d9aa99ce36", "lat": 38.8551195, "name": "c252c75b67ec9977b9de10d9aa99ce36", "lon": -76.991498, "fusion_lon": 0.0}, {"is_reserved": 0, "type": "electric_scooter", "fusion_lat": 0.0, "is_disabled": 0, "rental_uris": {"ios": "https://dc.lft.to/lastmile_qr_scan", "android": "https://dc.lft.to/lastmile_qr_scan"}, "bike_id": "8ded6c007a8d8446e061e8cb31707a86", "lat": 38.917123833333335, "name": "8ded6c007a8d8446e061e8cb31707a86", "lon": -77.03856866666666, "fusion_lon": 0.0}, {"is_reserved": 0, "type": "electric_scooter", "fusion_lat": 0.0, "is_disabled": 0, "rental_uris": {"ios": "https://dc.lft.to/lastmile_qr_scan", "android": "https://dc.lft.to/lastmile_qr_scan"}, "bike_id": "9ccfa3402b42c3068b355dc0e1e53d99", "lat": 38.90197216666667, "name": "9ccfa3402b42c3068b355dc0e1e53d99", "lon": -77.023715, "fusion_lon": 0.0}, {"is_reserved": 0, "type": "electric_scooter", "fusion_lat": 0.0, "is_disabled": 0, "rental_uris": {"ios": "https://dc.lft.to/lastmile_qr_scan", "android": "https://dc.lft.to/lastmile_qr_scan"}, "bike_id": "70b340e8e5c6405e13321b2b594c9d6a", "lat": 38.894694666666666, "name": "70b340e8e5c6405e13321b2b594c9d6a", "lon": -76.99357366666666, "fusion_lon": 0.0}, {"is_reserved": 0, "type": "electric_scooter", "fusion_lat": 0.0, "is_disabled": 0, "rental_uris": {"ios": "https://dc.lft.to/lastmile_qr_scan", "android": "https://dc.lft.to/lastmile_qr_scan"}, "bike_id": "819cc12fed7be4612af0c56e3534cda4", "lat": 38.934192, "name": "819cc12fed7be4612af0c56e3534cda4", "lon": -77.0441225, "fusion_lon": 0.0}, {"is_reserved": 0, "type": "electric_scooter", "fusion_lat": 0.0, "is_disabled": 0, "rental_uris": {"ios": "https://dc.lft.to/lastmile_qr_scan", "android": "https://dc.lft.to/lastmile_qr_scan"}, "bike_id": "dd7431e3b568319714fb86cdc771a0df", "lat": 38.922132500000004, "name": "dd7431e3b568319714fb86cdc771a0df", "lon": -77.032933, "fusion_lon": 0.0}, {"is_reserved": 0, "type": "electric_scooter", "fusion_lat": 0.0, "is_disabled": 0, "rental_uris": {"ios": "https://dc.lft.to/lastmile_qr_scan", "android": "https://dc.lft.to/lastmile_qr_scan"}, "bike_id": "3d7459670e7fbadba884cc624b17625d", "lat": 38.89831233333334, "name": "3d7459670e7fbadba884cc624b17625d", "lon": -76.94629466666666, "fusion_lon": 0.0}, {"is_reserved": 0, "type": "electric_scooter", "fusion_lat": 0.0, "is_disabled": 0, "rental_uris": {"ios": "https://dc.lft.to/lastmile_qr_scan", "android": "https://dc.lft.to/lastmile_qr_scan"}, "bike_id": "41ce0892386b41396a7650ea6c18fd3c", "lat": 38.898351166666664, "name": "41ce0892386b41396a7650ea6c18fd3c", "lon": -77.039127, "fusion_lon": 0.0}, {"is_reserved": 0, "type": "electric_scooter", "fusion_lat": 0.0, "is_disabled": 0, "rental_uris": {"ios": "https://dc.lft.to/lastmile_qr_scan", "android": "https://dc.lft.to/lastmile_qr_scan"}, "bike_id": "a5e27099d581a07a946e6b5f034763d9", "lat": 38.90502716666667, "name": "a5e27099d581a07a946e6b5f034763d9", "lon": -76.95190633333333, "fusion_lon": 0.0}, {"is_reserved": 0, "type": "electric_scooter", "fusion_lat": 0.0, "is_disabled": 0, "rental_uris": {"ios": "https://dc.lft.to/lastmile_qr_scan", "android": "https://dc.lft.to/lastmile_qr_scan"}, "bike_id": "4a0f79d8662a7059a4df1ea6e1380edd", "lat": 38.883632666666664, "name": "4a0f79d8662a7059a4df1ea6e1380edd", "lon": -76.9576745, "fusion_lon": 0.0}, {"is_reserved": 0, "type": "electric_scooter", "fusion_lat": 0.0, "is_disabled": 0, "rental_uris": {"ios": "https://dc.lft.to/lastmile_qr_scan", "android": "https://dc.lft.to/lastmile_qr_scan"}, "bike_id": "718717d8e6b74ca73bf4d030612a0067", "lat": 38.919409333333334, "name": "718717d8e6b74ca73bf4d030612a0067", "lon": -77.01381883333333, "fusion_lon": 0.0}, {"is_reserved": 0, "type": "electric_scooter", "fusion_lat": 0.0, "is_disabled": 0, "rental_uris": {"ios": "https://dc.lft.to/lastmile_qr_scan", "android": "https://dc.lft.to/lastmile_qr_scan"}, "bike_id": "06a61bc0494033bb6004f3541a4b3e95", "lat": 38.883012666666666, "name": "06a61bc0494033bb6004f3541a4b3e95", "lon": -76.9936915, "fusion_lon": 0.0}, {"is_reserved": 0, "type": "electric_scooter", "fusion_lat": 0.0, "is_disabled": 0, "rental_uris": {"ios": "https://dc.lft.to/lastmile_qr_scan", "android": "https://dc.lft.to/lastmile_qr_scan"}, "bike_id": "389eaf105333e98aa9b1627c5cc2ae16", "lat": 38.938431333333334, "name": "389eaf105333e98aa9b1627c5cc2ae16", "lon": -77.01952533333333, "fusion_lon": 0.0}, {"is_reserved": 0, "type": "electric_scooter", "fusion_lat": 0.0, "is_disabled": 0, "rental_uris": {"ios": "https://dc.lft.to/lastmile_qr_scan", "android": "https://dc.lft.to/lastmile_qr_scan"}, "bike_id": "321e40c5714e915c00a2e33b3ba4fc56", "lat": 38.8972415, "name": "321e40c5714e915c00a2e33b3ba4fc56", "lon": -77.01912333333334, "fusion_lon": 0.0}, {"is_reserved": 0, "type": "electric_scooter", "fusion_lat": 0.0, "is_disabled": 0, "rental_uris": {"ios": "https://dc.lft.to/lastmile_qr_scan", "android": "https://dc.lft.to/lastmile_qr_scan"}, "bike_id": "856a1e126dc2d66782ad3952a26c7934", "lat": 38.880804166666664, "name": "856a1e126dc2d66782ad3952a26c7934", "lon": -76.98504733333333, "fusion_lon": 0.0}, {"is_reserved": 0, "type": "electric_scooter", "fusion_lat": 0.0, "is_disabled": 0, "rental_uris": {"ios": "https://dc.lft.to/lastmile_qr_scan", "android": "https://dc.lft.to/lastmile_qr_scan"}, "bike_id": "ca2dcb181cdc05cff7767224b3839b77", "lat": 38.8966315, "name": "ca2dcb181cdc05cff7767224b3839b77", "lon": -76.93207933333333, "fusion_lon": 0.0}, {"is_reserved": 0, "type": "electric_bike", "fusion_lat": 0.0, "is_disabled": 0, "rental_uris": {"ios": "https://dc.lft.to/lastmile_qr_scan", "android": "https://dc.lft.to/lastmile_qr_scan"}, "bike_id": "936f21772cb6b6f34a1323872e967f8c", "lat": 38.860036, "name": "936f21772cb6b6f34a1323872e967f8c", "lon": -77.06520183333333, "fusion_lon": 0.0}, {"is_reserved": 0, "type": "electric_scooter", "fusion_lat": 0.0, "is_disabled": 0, "rental_uris": {"ios": "https://dc.lft.to/lastmile_qr_scan", "android": "https://dc.lft.to/lastmile_qr_scan"}, "bike_id": "74c5d1464911642a586e1fa64b76af05", "lat": 38.91692466666667, "name": "74c5d1464911642a586e1fa64b76af05", "lon": -77.00494516666667, "fusion_lon": 0.0}, {"is_reserved": 0, "type": "electric_bike", "fusion_lat": 0.0, "is_disabled": 0, "rental_uris": {"ios": "https://dc.lft.to/lastmile_qr_scan", "android": "https://dc.lft.to/lastmile_qr_scan"}, "bike_id": "08f42398d408311d4be3659b2a026298", "lat": 38.8052215, "name": "08f42398d408311d4be3659b2a026298", "lon": -77.0433615, "fusion_lon": 0.0}, {"is_reserved": 0, "type": "electric_bike", "fusion_lat": 0.0, "is_disabled": 0, "rental_uris": {"ios": "https://dc.lft.to/lastmile_qr_scan", "android": "https://dc.lft.to/lastmile_qr_scan"}, "bike_id": "2d7e83113e14ebde511e6af5a6df0574", "lat": 38.864386333333336, "name": "2d7e83113e14ebde511e6af5a6df0574", "lon": -76.969918, "fusion_lon": 0.0}, {"is_reserved": 0, "type": "electric_scooter", "fusion_lat": 0.0, "is_disabled": 0, "rental_uris": {"ios": "https://dc.lft.to/lastmile_qr_scan", "android": "https://dc.lft.to/lastmile_qr_scan"}, "bike_id": "0932a7c1819eb7776f9d6044fdb420a3", "lat": 38.9058065, "name": "0932a7c1819eb7776f9d6044fdb420a3", "lon": -77.00644066666666, "fusion_lon": 0.0}, {"is_reserved": 0, "type": "electric_scooter", "fusion_lat": 0.0, "is_disabled": 0, "rental_uris": {"ios": "https://dc.lft.to/lastmile_qr_scan", "android": "https://dc.lft.to/lastmile_qr_scan"}, "bike_id": "4968178a99733d01496602451476a83b", "lat": 38.87862616666666, "name": "4968178a99733d01496602451476a83b", "lon": -77.00686216666666, "fusion_lon": 0.0}, {"is_reserved": 0, "type": "electric_scooter", "fusion_lat": 0.0, "is_disabled": 0, "rental_uris": {"ios": "https://dc.lft.to/lastmile_qr_scan", "android": "https://dc.lft.to/lastmile_qr_scan"}, "bike_id": "0e8f39c99fa3896e20074e6b9b6959a3", "lat": 38.920975, "name": "0e8f39c99fa3896e20074e6b9b6959a3", "lon": -77.04697766666666, "fusion_lon": 0.0}, {"is_reserved": 0, "type": "electric_scooter", "fusion_lat": 0.0, "is_disabled": 0, "rental_uris": {"ios": "https://dc.lft.to/lastmile_qr_scan", "android": "https://dc.lft.to/lastmile_qr_scan"}, "bike_id": "65122ed1980e61b95260367a0281fd9d", "lat": 38.93084283333334, "name": "65122ed1980e61b95260367a0281fd9d", "lon": -77.02680383333333, "fusion_lon": 0.0}, {"is_reserved": 0, "type": "electric_scooter", "fusion_lat": 0.0, "is_disabled": 0, "rental_uris": {"ios": "https://dc.lft.to/lastmile_qr_scan", "android": "https://dc.lft.to/lastmile_qr_scan"}, "bike_id": "651669bc9649fb1eabac10ebbb38a6bb", "lat": 38.9154105, "name": "651669bc9649fb1eabac10ebbb38a6bb", "lon": -77.03850883333334, "fusion_lon": 0.0}, {"is_reserved": 0, "type": "electric_bike", "fusion_lat": 0.0, "is_disabled": 0, "rental_uris": {"ios": "https://dc.lft.to/lastmile_qr_scan", "android": "https://dc.lft.to/lastmile_qr_scan"}, "bike_id": "1754e82a060b6f619f7c67e37f5fa212", "lat": 38.9064385, "name": "1754e82a060b6f619f7c67e37f5fa212", "lon": -77.01178233333333, "fusion_lon": 0.0}, {"is_reserved": 0, "type": "electric_scooter", "fusion_lat": 0.0, "is_disabled": 0, "rental_uris": {"ios": "https://dc.lft.to/lastmile_qr_scan", "android": "https://dc.lft.to/lastmile_qr_scan"}, "bike_id": "7ec4acb5cd76d144a8cc657a1a1d242c", "lat": 38.873718, "name": "7ec4acb5cd76d144a8cc657a1a1d242c", "lon": -77.00129733333333, "fusion_lon": 0.0}, {"is_reserved": 0, "type": "electric_scooter", "fusion_lat": 0.0, "is_disabled": 0, "rental_uris": {"ios": "https://dc.lft.to/lastmile_qr_scan", "android": "https://dc.lft.to/lastmile_qr_scan"}, "bike_id": "27c437fbf50412aa2a9660b6e9b8b036", "lat": 38.879216666666665, "name": "27c437fbf50412aa2a9660b6e9b8b036", "lon": -77.01700916666667, "fusion_lon": 0.0}, {"is_reserved": 0, "type": "electric_scooter", "fusion_lat": 0.0, "is_disabled": 0, "rental_uris": {"ios": "https://dc.lft.to/lastmile_qr_scan", "android": "https://dc.lft.to/lastmile_qr_scan"}, "bike_id": "e6f6fafd24819c643d3cd2bc9a9a0303", "lat": 38.928507333333336, "name": "e6f6fafd24819c643d3cd2bc9a9a0303", "lon": -77.014046, "fusion_lon": 0.0}, {"is_reserved": 0, "type": "electric_scooter", "fusion_lat": 0.0, "is_disabled": 0, "rental_uris": {"ios": "https://dc.lft.to/lastmile_qr_scan", "android": "https://dc.lft.to/lastmile_qr_scan"}, "bike_id": "df3fb372702099ef673acdd6dc33c4cb", "lat": 38.932452, "name": "df3fb372702099ef673acdd6dc33c4cb", "lon": -77.03255683333333, "fusion_lon": 0.0}, {"is_reserved": 0, "type": "electric_scooter", "fusion_lat": 0.0, "is_disabled": 0, "rental_uris": {"ios": "https://dc.lft.to/lastmile_qr_scan", "android": "https://dc.lft.to/lastmile_qr_scan"}, "bike_id": "4fa362cf21500aeb64ab1b2e20c58ff5", "lat": 38.90415483333334, "name": "4fa362cf21500aeb64ab1b2e20c58ff5", "lon": -77.02960433333334, "fusion_lon": 0.0}, {"is_reserved": 0, "type": "electric_bike", "fusion_lat": 0.0, "is_disabled": 0, "rental_uris": {"ios": "https://dc.lft.to/lastmile_qr_scan", "android": "https://dc.lft.to/lastmile_qr_scan"}, "bike_id": "f4621266e1151fe59215bd2569caed53", "lat": 39.004508666666666, "name": "f4621266e1151fe59215bd2569caed53", "lon": -76.90118633333333, "fusion_lon": 0.0}, {"is_reserved": 0, "type": "electric_scooter", "fusion_lat": 0.0, "is_disabled": 0, "rental_uris": {"ios": "https://dc.lft.to/lastmile_qr_scan", "android": "https://dc.lft.to/lastmile_qr_scan"}, "bike_id": "a65e7c0fdaaec75b1c5091c59b6a0611", "lat": 38.876615, "name": "a65e7c0fdaaec75b1c5091c59b6a0611", "lon": -77.00083966666666, "fusion_lon": 0.0}, {"is_reserved": 0, "type": "electric_scooter", "fusion_lat": 0.0, "is_disabled": 0, "rental_uris": {"ios": "https://dc.lft.to/lastmile_qr_scan", "android": "https://dc.lft.to/lastmile_qr_scan"}, "bike_id": "2d72783cea420ee4458261e8cef64497", "lat": 38.9125865, "name": "2d72783cea420ee4458261e8cef64497", "lon": -77.04789883333333, "fusion_lon": 0.0}, {"is_reserved": 0, "type": "electric_bike", "fusion_lat": 0.0, "is_disabled": 0, "rental_uris": {"ios": "https://dc.lft.to/lastmile_qr_scan", "android": "https://dc.lft.to/lastmile_qr_scan"}, "bike_id": "7b485a748dcee55f26489e7248dd6b4d", "lat": 38.9503355, "name": "7b485a748dcee55f26489e7248dd6b4d", "lon": -77.01267316666667, "fusion_lon": 0.0}, {"is_reserved": 0, "type": "electric_scooter", "fusion_lat": 0.0, "is_disabled": 0, "rental_uris": {"ios": "https://dc.lft.to/lastmile_qr_scan", "android": "https://dc.lft.to/lastmile_qr_scan"}, "bike_id": "a5461925e5b0b850f863f832cedbeb79", "lat": 38.939694833333334, "name": "a5461925e5b0b850f863f832cedbeb79", "lon": -77.03255533333333, "fusion_lon": 0.0}, {"is_reserved": 0, "type": "electric_scooter", "fusion_lat": 0.0, "is_disabled": 0, "rental_uris": {"ios": "https://dc.lft.to/lastmile_qr_scan", "android": "https://dc.lft.to/lastmile_qr_scan"}, "bike_id": "d741e90058c5bd946cd903746ab29c5f", "lat": 38.93634333333333, "name": "d741e90058c5bd946cd903746ab29c5f", "lon": -77.02132583333334, "fusion_lon": 0.0}, {"is_reserved": 0, "type": "electric_bike", "fusion_lat": 0.0, "is_disabled": 0, "rental_uris": {"ios": "https://dc.lft.to/lastmile_qr_scan", "android": "https://dc.lft.to/lastmile_qr_scan"}, "bike_id": "c7ded3a01db9fdfe68257af9be4f85b9", "lat": 38.94164716666667, "name": "c7ded3a01db9fdfe68257af9be4f85b9", "lon": -76.99407983333333, "fusion_lon": 0.0}, {"is_reserved": 0, "type": "electric_scooter", "fusion_lat": 0.0, "is_disabled": 0, "rental_uris": {"ios": "https://dc.lft.to/lastmile_qr_scan", "android": "https://dc.lft.to/lastmile_qr_scan"}, "bike_id": "d789a241f4499e67dacae4afb2503578", "lat": 38.91238666666667, "name": "d789a241f4499e67dacae4afb2503578", "lon": -77.066078, "fusion_lon": 0.0}, {"is_reserved": 0, "type": "electric_scooter", "fusion_lat": 0.0, "is_disabled": 0, "rental_uris": {"ios": "https://dc.lft.to/lastmile_qr_scan", "android": "https://dc.lft.to/lastmile_qr_scan"}, "bike_id": "be791522786b39483d1144822858f0e5", "lat": 38.9397675, "name": "be791522786b39483d1144822858f0e5", "lon": -77.01912816666666, "fusion_lon": 0.0}, {"is_reserved": 0, "type": "electric_scooter", "fusion_lat": 0.0, "is_disabled": 0, "rental_uris": {"ios": "https://dc.lft.to/lastmile_qr_scan", "android": "https://dc.lft.to/lastmile_qr_scan"}, "bike_id": "28d9faca75c75cef7b62aab39e140e0f", "lat": 38.957336, "name": "28d9faca75c75cef7b62aab39e140e0f", "lon": -77.023217, "fusion_lon": 0.0}, {"is_reserved": 0, "type": "electric_scooter", "fusion_lat": 0.0, "is_disabled": 0, "rental_uris": {"ios": "https://dc.lft.to/lastmile_qr_scan", "android": "https://dc.lft.to/lastmile_qr_scan"}, "bike_id": "58adbc19dea6372af340b971da17c9c7", "lat": 38.92613133333333, "name": "58adbc19dea6372af340b971da17c9c7", "lon": -77.0216095, "fusion_lon": 0.0}, {"is_reserved": 0, "type": "electric_scooter", "fusion_lat": 0.0, "is_disabled": 0, "rental_uris": {"ios": "https://dc.lft.to/lastmile_qr_scan", "android": "https://dc.lft.to/lastmile_qr_scan"}, "bike_id": "d10ca49cf00d662d49311f423166d393", "lat": 38.923426666666664, "name": "d10ca49cf00d662d49311f423166d393", "lon": -77.03493083333333, "fusion_lon": 0.0}, {"is_reserved": 0, "type": "electric_scooter", "fusion_lat": 0.0, "is_disabled": 0, "rental_uris": {"ios": "https://dc.lft.to/lastmile_qr_scan", "android": "https://dc.lft.to/lastmile_qr_scan"}, "bike_id": "6317c3b71ca017d2309a9925ae8e4a09", "lat": 38.893597, "name": "6317c3b71ca017d2309a9925ae8e4a09", "lon": -77.04476316666667, "fusion_lon": 0.0}, {"is_reserved": 0, "type": "electric_scooter", "fusion_lat": 0.0, "is_disabled": 0, "rental_uris": {"ios": "https://dc.lft.to/lastmile_qr_scan", "android": "https://dc.lft.to/lastmile_qr_scan"}, "bike_id": "dde482169ade2df8450f036fa7a2ffcd", "lat": 38.9068955, "name": "dde482169ade2df8450f036fa7a2ffcd", "lon": -77.0099515, "fusion_lon": 0.0}, {"is_reserved": 0, "type": "electric_scooter", "fusion_lat": 0.0, "is_disabled": 0, "rental_uris": {"ios": "https://dc.lft.to/lastmile_qr_scan", "android": "https://dc.lft.to/lastmile_qr_scan"}, "bike_id": "dfff84c7b8e378f0456ec586a981819d", "lat": 38.901994333333334, "name": "dfff84c7b8e378f0456ec586a981819d", "lon": -77.0237125, "fusion_lon": 0.0}, {"is_reserved": 0, "type": "electric_scooter", "fusion_lat": 0.0, "is_disabled": 0, "rental_uris": {"ios": "https://dc.lft.to/lastmile_qr_scan", "android": "https://dc.lft.to/lastmile_qr_scan"}, "bike_id": "201faef6bc8a8acb44a39197760f1ed8", "lat": 38.902510666666664, "name": "201faef6bc8a8acb44a39197760f1ed8", "lon": -77.0179645, "fusion_lon": 0.0}, {"is_reserved": 0, "type": "electric_scooter", "fusion_lat": 0.0, "is_disabled": 0, "rental_uris": {"ios": "https://dc.lft.to/lastmile_qr_scan", "android": "https://dc.lft.to/lastmile_qr_scan"}, "bike_id": "5d3ac54156208cd3a94d9dbd389b5b14", "lat": 38.842788166666665, "name": "5d3ac54156208cd3a94d9dbd389b5b14", "lon": -76.98842933333333, "fusion_lon": 0.0}, {"is_reserved": 0, "type": "electric_scooter", "fusion_lat": 0.0, "is_disabled": 0, "rental_uris": {"ios": "https://dc.lft.to/lastmile_qr_scan", "android": "https://dc.lft.to/lastmile_qr_scan"}, "bike_id": "19ee369e15db0ec383047234f165f590", "lat": 38.903078666666666, "name": "19ee369e15db0ec383047234f165f590", "lon": -76.97796916666667, "fusion_lon": 0.0}, {"is_reserved": 0, "type": "electric_scooter", "fusion_lat": 0.0, "is_disabled": 0, "rental_uris": {"ios": "https://dc.lft.to/lastmile_qr_scan", "android": "https://dc.lft.to/lastmile_qr_scan"}, "bike_id": "1c75f57c7244c7ba9f4f38ceca62ae70", "lat": 38.90053866666667, "name": "1c75f57c7244c7ba9f4f38ceca62ae70", "lon": -76.99343683333333, "fusion_lon": 0.0}, {"is_reserved": 0, "type": "electric_scooter", "fusion_lat": 0.0, "is_disabled": 0, "rental_uris": {"ios": "https://dc.lft.to/lastmile_qr_scan", "android": "https://dc.lft.to/lastmile_qr_scan"}, "bike_id": "ceca7b50445588fc3455ef77fbd39590", "lat": 38.956434, "name": "ceca7b50445588fc3455ef77fbd39590", "lon": -77.028186, "fusion_lon": 0.0}, {"is_reserved": 0, "type": "electric_scooter", "fusion_lat": 0.0, "is_disabled": 0, "rental_uris": {"ios": "https://dc.lft.to/lastmile_qr_scan", "android": "https://dc.lft.to/lastmile_qr_scan"}, "bike_id": "846926f2bba863bfd1b33a28e40bb3da", "lat": 38.883705666666664, "name": "846926f2bba863bfd1b33a28e40bb3da", "lon": -76.99517633333333, "fusion_lon": 0.0}, {"is_reserved": 0, "type": "electric_scooter", "fusion_lat": 0.0, "is_disabled": 0, "rental_uris": {"ios": "https://dc.lft.to/lastmile_qr_scan", "android": "https://dc.lft.to/lastmile_qr_scan"}, "bike_id": "a7a294957e07308b268bcaf9c366985c", "lat": 38.90502133333333, "name": "a7a294957e07308b268bcaf9c366985c", "lon": -77.02954483333333, "fusion_lon": 0.0}, {"is_reserved": 0, "type": "electric_scooter", "fusion_lat": 0.0, "is_disabled": 0, "rental_uris": {"ios": "https://dc.lft.to/lastmile_qr_scan", "android": "https://dc.lft.to/lastmile_qr_scan"}, "bike_id": "8504a47ae047bfc478190164ad831c97", "lat": 38.90595066666667, "name": "8504a47ae047bfc478190164ad831c97", "lon": -77.06663066666667, "fusion_lon": 0.0}, {"is_reserved": 0, "type": "electric_scooter", "fusion_lat": 0.0, "is_disabled": 0, "rental_uris": {"ios": "https://dc.lft.to/lastmile_qr_scan", "android": "https://dc.lft.to/lastmile_qr_scan"}, "bike_id": "e3f9c4b6aa7ad618f3c2e1270742958c", "lat": 38.94640483333333, "name": "e3f9c4b6aa7ad618f3c2e1270742958c", "lon": -77.01746966666667, "fusion_lon": 0.0}, {"is_reserved": 0, "type": "electric_scooter", "fusion_lat": 0.0, "is_disabled": 0, "rental_uris": {"ios": "https://dc.lft.to/lastmile_qr_scan", "android": "https://dc.lft.to/lastmile_qr_scan"}, "bike_id": "be928a61e20fbf178f201f659cf47ce2", "lat": 38.90721216666667, "name": "be928a61e20fbf178f201f659cf47ce2", "lon": -77.03846766666666, "fusion_lon": 0.0}, {"is_reserved": 0, "type": "electric_scooter", "fusion_lat": 0.0, "is_disabled": 0, "rental_uris": {"ios": "https://dc.lft.to/lastmile_qr_scan", "android": "https://dc.lft.to/lastmile_qr_scan"}, "bike_id": "1d4ff6db2333da34d79b321b87f689e4", "lat": 38.90538516666667, "name": "1d4ff6db2333da34d79b321b87f689e4", "lon": -77.0580435, "fusion_lon": 0.0}, {"is_reserved": 0, "type": "electric_scooter", "fusion_lat": 0.0, "is_disabled": 0, "rental_uris": {"ios": "https://dc.lft.to/lastmile_qr_scan", "android": "https://dc.lft.to/lastmile_qr_scan"}, "bike_id": "50dc6fcbda4a4ad5f70a422b35aad00e", "lat": 38.92716183333334, "name": "50dc6fcbda4a4ad5f70a422b35aad00e", "lon": -77.02087766666666, "fusion_lon": 0.0}, {"is_reserved": 0, "type": "electric_scooter", "fusion_lat": 0.0, "is_disabled": 0, "rental_uris": {"ios": "https://dc.lft.to/lastmile_qr_scan", "android": "https://dc.lft.to/lastmile_qr_scan"}, "bike_id": "c82e237f4504aad383df68b1b05c1d5e", "lat": 38.8983275, "name": "c82e237f4504aad383df68b1b05c1d5e", "lon": -77.03911033333333, "fusion_lon": 0.0}, {"is_reserved": 0, "type": "electric_scooter", "fusion_lat": 0.0, "is_disabled": 0, "rental_uris": {"ios": "https://dc.lft.to/lastmile_qr_scan", "android": "https://dc.lft.to/lastmile_qr_scan"}, "bike_id": "c052890ebd38844fccc45e07c4950a20", "lat": 38.942713166666664, "name": "c052890ebd38844fccc45e07c4950a20", "lon": -77.029368, "fusion_lon": 0.0}, {"is_reserved": 0, "type": "electric_bike", "fusion_lat": 0.0, "is_disabled": 0, "rental_uris": {"ios": "https://dc.lft.to/lastmile_qr_scan", "android": "https://dc.lft.to/lastmile_qr_scan"}, "bike_id": "4e48e7d0fceb43076e71f002e71561e2", "lat": 38.918996166666666, "name": "4e48e7d0fceb43076e71f002e71561e2", "lon": -77.00059283333333, "fusion_lon": 0.0}, {"is_reserved": 0, "type": "electric_scooter", "fusion_lat": 0.0, "is_disabled": 0, "rental_uris": {"ios": "https://dc.lft.to/lastmile_qr_scan", "android": "https://dc.lft.to/lastmile_qr_scan"}, "bike_id": "93709bc82e735f876f6bc4e6aa9ffd7a", "lat": 38.92637366666666, "name": "93709bc82e735f876f6bc4e6aa9ffd7a", "lon": -77.03841783333333, "fusion_lon": 0.0}, {"is_reserved": 0, "type": "electric_scooter", "fusion_lat": 0.0, "is_disabled": 0, "rental_uris": {"ios": "https://dc.lft.to/lastmile_qr_scan", "android": "https://dc.lft.to/lastmile_qr_scan"}, "bike_id": "c23c82108f56a087e7108bc5d098d80b", "lat": 38.90407883333334, "name": "c23c82108f56a087e7108bc5d098d80b", "lon": -76.97332083333333, "fusion_lon": 0.0}, {"is_reserved": 0, "type": "electric_scooter", "fusion_lat": 0.0, "is_disabled": 0, "rental_uris": {"ios": "https://dc.lft.to/lastmile_qr_scan", "android": "https://dc.lft.to/lastmile_qr_scan"}, "bike_id": "6e0f456e2b3408416f76694a89c2274f", "lat": 38.905697333333336, "name": "6e0f456e2b3408416f76694a89c2274f", "lon": -77.02982616666667, "fusion_lon": 0.0}, {"is_reserved": 0, "type": "electric_scooter", "fusion_lat": 0.0, "is_disabled": 0, "rental_uris": {"ios": "https://dc.lft.to/lastmile_qr_scan", "android": "https://dc.lft.to/lastmile_qr_scan"}, "bike_id": "c6b7fb7d30c3182833759b6b2172698e", "lat": 38.91363366666667, "name": "c6b7fb7d30c3182833759b6b2172698e", "lon": -77.04480733333334, "fusion_lon": 0.0}, {"is_reserved": 0, "type": "electric_scooter", "fusion_lat": 0.0, "is_disabled": 0, "rental_uris": {"ios": "https://dc.lft.to/lastmile_qr_scan", "android": "https://dc.lft.to/lastmile_qr_scan"}, "bike_id": "847ee80cff7a87b090111d809c0528ea", "lat": 38.9027865, "name": "847ee80cff7a87b090111d809c0528ea", "lon": -77.04178883333333, "fusion_lon": 0.0}, {"is_reserved": 0, "type": "electric_scooter", "fusion_lat": 0.0, "is_disabled": 0, "rental_uris": {"ios": "https://dc.lft.to/lastmile_qr_scan", "android": "https://dc.lft.to/lastmile_qr_scan"}, "bike_id": "0deae7a62159ef43630c187a3e7a5d4c", "lat": 38.953728, "name": "0deae7a62159ef43630c187a3e7a5d4c", "lon": -77.00185766666667, "fusion_lon": 0.0}, {"is_reserved": 0, "type": "electric_scooter", "fusion_lat": 0.0, "is_disabled": 0, "rental_uris": {"ios": "https://dc.lft.to/lastmile_qr_scan", "android": "https://dc.lft.to/lastmile_qr_scan"}, "bike_id": "c9292b1898ca78b95bbc97c88ed874c5", "lat": 38.91264833333334, "name": "c9292b1898ca78b95bbc97c88ed874c5", "lon": -77.01437466666667, "fusion_lon": 0.0}, {"is_reserved": 0, "type": "electric_scooter", "fusion_lat": 0.0, "is_disabled": 0, "rental_uris": {"ios": "https://dc.lft.to/lastmile_qr_scan", "android": "https://dc.lft.to/lastmile_qr_scan"}, "bike_id": "44957b1592ead724a373e244df3edca7", "lat": 38.928734666666664, "name": "44957b1592ead724a373e244df3edca7", "lon": -77.03991683333334, "fusion_lon": 0.0}, {"is_reserved": 0, "type": "electric_scooter", "fusion_lat": 0.0, "is_disabled": 0, "rental_uris": {"ios": "https://dc.lft.to/lastmile_qr_scan", "android": "https://dc.lft.to/lastmile_qr_scan"}, "bike_id": "1284c782176a5b2c26504ebbc96f32a3", "lat": 38.9444625, "name": "1284c782176a5b2c26504ebbc96f32a3", "lon": -77.032791, "fusion_lon": 0.0}, {"is_reserved": 0, "type": "electric_scooter", "fusion_lat": 0.0, "is_disabled": 0, "rental_uris": {"ios": "https://dc.lft.to/lastmile_qr_scan", "android": "https://dc.lft.to/lastmile_qr_scan"}, "bike_id": "7f19c07a814a577e78b3078e322f4964", "lat": 38.9561365, "name": "7f19c07a814a577e78b3078e322f4964", "lon": -77.033114, "fusion_lon": 0.0}, {"is_reserved": 0, "type": "electric_scooter", "fusion_lat": 0.0, "is_disabled": 0, "rental_uris": {"ios": "https://dc.lft.to/lastmile_qr_scan", "android": "https://dc.lft.to/lastmile_qr_scan"}, "bike_id": "d1bbdc5dc614fbe3cd71238a883bbcd1", "lat": 38.904793166666664, "name": "d1bbdc5dc614fbe3cd71238a883bbcd1", "lon": -77.02714733333333, "fusion_lon": 0.0},