{"data": {"bikes": [{"rental_uris": {"ios": "https://dc.lft.to/lastmile_qr_scan", "android": "https://dc.lft.to/lastmile_qr_scan"}, "fusion_lon": 0.0, "type": "electric_scooter", "bike_id": "714e37d782a1e2180659a96c6f045f41", "name": "714e37d782a1e2180659a96c6f045f41", "lat": 38.907675, "is_disabled": 0, "lon": -77.03241083333333, "fusion_lat": 0.0, "is_reserved": 0}, {"rental_uris": {"ios": "https://dc.lft.to/lastmile_qr_scan", "android": "https://dc.lft.to/lastmile_qr_scan"}, "fusion_lon": 0.0, "type": "electric_scooter", "bike_id": "89a41836a71286c4a2db6fe9cb5db788", "name": "89a41836a71286c4a2db6fe9cb5db788", "lat": 38.903718166666664, "is_disabled": 0, "lon": -77.0434235, "fusion_lat": 0.0, "is_reserved": 0}, {"rental_uris": {"ios": "https://dc.lft.to/lastmile_qr_scan", "android": "https://dc.lft.to/lastmile_qr_scan"}, "fusion_lon": 0.0, "type": "electric_bike", "bike_id": "f60b392a0fa96ca30040412f9822586e", "name": "f60b392a0fa96ca30040412f9822586e", "lat": 38.992253166666664, "is_disabled": 0, "lon": -76.87774416666667, "fusion_lat": 0.0, "is_reserved": 0}, {"rental_uris": {"ios": "https://dc.lft.to/lastmile_qr_scan", "android": "https://dc.lft.to/lastmile_qr_scan"}, "fusion_lon": 0.0, "type": "electric_scooter", "bike_id": "9df81617678437056ed8bcb70d4a8664", "name": "9df81617678437056ed8bcb70d4a8664", "lat": 38.9072795, "is_disabled": 0, "lon": -77.02368533333333, "fusion_lat": 0.0, "is_reserved": 0}, {"rental_uris": {"ios": "https://dc.lft.to/lastmile_qr_scan", "android": "https://dc.lft.to/lastmile_qr_scan"}, "fusion_lon": 0.0, "type": "electric_scooter", "bike_id": "ccd0b5224d4fd7d4e85820f3570c1685", "name": "ccd0b5224d4fd7d4e85820f3570c1685", "lat": 38.892193166666665, "is_disabled": 0, "lon": -77.02218933333333, "fusion_lat": 0.0, "is_reserved": 0}, {"rental_uris": {"ios": "https://dc.lft.to/lastmile_qr_scan", "android": "https://dc.lft.to/lastmile_qr_scan"}, "fusion_lon": 0.0, "type": "electric_bike", "bike_id": "8c5657c8a4fe4159e763a1ef770b5a80", "name": "8c5657c8a4fe4159e763a1ef770b5a80", "lat": 38.888217166666664, "is_disabled": 0, "lon": -77.12739883333333, "fusion_lat": 0.0, "is_reserved": 0}, {"rental_uris": {"ios": "https://dc.lft.to/lastmile_qr_scan", "android": "https://dc.lft.to/lastmile_qr_scan"}, "fusion_lon": 0.0, "type": "electric_bike", "bike_id": "512db87b23766581e793460082419eb5", "name": "512db87b23766581e793460082419eb5", "lat": 38.97571033333333, "is_disabled": 0, "lon": -76.96404466666667, "fusion_lat": 0.0, "is_reserved": 0}, {"rental_uris": {"ios": "https://dc.lft.to/lastmile_qr_scan", "android": "https://dc.lft.to/lastmile_qr_scan"}, "fusion_lon": 0.0, "type": "electric_scooter", "bike_id": "f3b08e9f0a120ad1e776ec4b418c53b4", "name": "f3b08e9f0a120ad1e776ec4b418c53b4", "lat": 38.929001, "is_disabled": 0, "lon": -77.01650016666666, "fusion_lat": 0.0, "is_reserved": 0}, {"rental_uris": {"ios": "https://dc.lft.to/lastmile_qr_scan", "android": "https://dc.lft.to/lastmile_qr_scan"}, "fusion_lon": 0.0, "type": "electric_scooter", "bike_id": "30b45f86e7d96f8215fc709c75cdd737", "name": "30b45f86e7d96f8215fc709c75cdd737", "lat": 38.887421833333335, "is_disabled": 0, "lon": -77.0285845, "fusion_lat": 0.0, "is_reserved": 0}, {"rental_uris": {"ios": "https://dc.lft.to/lastmile_qr_scan", "android": "https://dc.lft.to/lastmile_qr_scan"}, "fusion_lon": 0.0, "type": "electric_bike", "bike_id": "a303b2ebfe3b281d1fda403928f34db8", "name": "a303b2ebfe3b281d1fda403928f34db8", "lat": 38.90775933333333, "is_disabled": 0, "lon": -77.0716295, "fusion_lat": 0.0, "is_reserved": 0}, {"rental_uris": {"ios": "https://dc.lft.to/lastmile_qr_scan", "android": "https://dc.lft.to/lastmile_qr_scan"}, "fusion_lon": 0.0, "type": "electric_bike", "bike_id": "a07bfa98c3dacb2135ea45ae9467ccc4", "name": "a07bfa98c3dacb2135ea45ae9467ccc4", "lat": 38.8896565, "is_disabled": 0, "lon": -76.94863533333333, "fusion_lat": 0.0, "is_reserved": 0}, {"rental_uris": {"ios": "https://dc.lft.to/lastmile_qr_scan", "android": "https://dc.lft.to/lastmile_qr_scan"}, "fusion_lon": 0.0, "type": "electric_scooter", "bike_id": "ea0c754475bbadd9a4dc0c400614646a", "name": "ea0c754475bbadd9a4dc0c400614646a", "lat": 38.93954683333333, "is_disabled": 0, "lon": -77.02777383333333, "fusion_lat": 0.0, "is_reserved": 0}, {"rental_uris": {"ios": "https://dc.lft.to/lastmile_qr_scan", "android": "https://dc.lft.to/lastmile_qr_scan"}, "fusion_lon": 0.0, "type": "electric_bike", "bike_id": "a62ef3cc619c0d25181f9fb7d86edc40", "name": "a62ef3cc619c0d25181f9fb7d86edc40", "lat": 38.892102666666666, "is_disabled": 0, "lon": -76.98555433333334, "fusion_lat": 0.0, "is_reserved": 0}, {"rental_uris": {"ios": "https://dc.lft.to/lastmile_qr_scan", "android": "https://dc.lft.to/lastmile_qr_scan"}, "fusion_lon": 0.0, "type": "electric_scooter", "bike_id": "71fb45a7e1ca9dad76f26ac98eb88b00", "name": "71fb45a7e1ca9dad76f26ac98eb88b00", "lat": 38.89729716666667, "is_disabled": 0, "lon": -77.00372283333333, "fusion_lat": 0.0, "is_reserved": 0}, {"rental_uris": {"ios": "https://dc.lft.to/lastmile_qr_scan", "android": "https://dc.lft.to/lastmile_qr_scan"}, "fusion_lon": 0.0, "type": "electric_bike", "bike_id": "b70665c9f6dfd5689dae61146ecf56c2", "name": "b70665c9f6dfd5689dae61146ecf56c2", "lat": 38.917060166666666, "is_disabled": 0, "lon": -77.22110016666667, "fusion_lat": 0.0, "is_reserved": 0}, {"rental_uris": {"ios": "https://dc.lft.to/lastmile_qr_scan", "android": "https://dc.lft.to/lastmile_qr_scan"}, "fusion_lon": 0.0, "type": "electric_scooter", "bike_id": "5a4e2795d502f272ed9cb565f43e71c0", "name": "5a4e2795d502f272ed9cb565f43e71c0", "lat": 38.87653233333333, "is_disabled": 0, "lon": -77.008224, "fusion_lat": 0.0, "is_reserved": 0}, {"rental_uris": {"ios": "https://dc.lft.to/lastmile_qr_scan", "android": "https://dc.lft.to/lastmile_qr_scan"}, "fusion_lon": 0.0, "type": "electric_scooter", "bike_id": "8b4a58929fb97e80a7bdae06c907b6c7", "name": "8b4a58929fb97e80a7bdae06c907b6c7", "lat": 38.9560545, "is_disabled": 0, "lon": -77.02797883333334, "fusion_lat": 0.0, "is_reserved": 0}, {"rental_uris": {"ios": "https://dc.lft.to/lastmile_qr_scan", "android": "https://dc.lft.to/lastmile_qr_scan"}, "fusion_lon": 0.0, "type": "electric_bike", "bike_id": "a51c8ac312271de928e09abe8e8d3297", "name": "a51c8ac312271de928e09abe8e8d3297", "lat": 38.936709, "is_disabled": 0, "lon": -76.9520745, "fusion_lat": 0.0, "is_reserved": 0}, {"rental_uris": {"ios": "https://dc.lft.to/lastmile_qr_scan", "android": "https://dc.lft.to/lastmile_qr_scan"}, "fusion_lon": 0.0, "type": "electric_scooter", "bike_id": "f26c24a485bcc657d69974a639cacd73", "name": "f26c24a485bcc657d69974a639cacd73", "lat": 38.86208466666667, "is_disabled": 0, "lon": -76.99470283333333, "fusion_lat": 0.0, "is_reserved": 0}, {"rental_uris": {"ios": "https://dc.lft.to/lastmile_qr_scan", "android": "https://dc.lft.to/lastmile_qr_scan"}, "fusion_lon": 0.0, "type": "electric_scooter", "bike_id": "ed93e811df528be6b4f74b1529768f6b", "name": "ed93e811df528be6b4f74b1529768f6b", "lat": 38.866571, "is_disabled": 0, "lon": -76.988844, "fusion_lat": 0.0, "is_reserved": 0}, {"rental_uris": {"ios": "https://dc.lft.to/lastmile_qr_scan", "android": "https://dc.lft.to/lastmile_qr_scan"}, "fusion_lon": 0.0, "type": "electric_bike", "bike_id": "8c6ffc3d06cf7aafd125af65e707bf98", "name": "8c6ffc3d06cf7aafd125af65e707bf98", "lat": 39.03880783333334, "is_disabled": 0, "lon": -77.10909433333333, "fusion_lat": 0.0, "is_reserved": 0}, {"rental_uris": {"ios": "https://dc.lft.to/lastmile_qr_scan", "android": "https://dc.lft.to/lastmile_qr_scan"}, "fusion_lon": 0.0, "type": "electric_scooter", "bike_id": "69b2e01d9d5c97d6ab4f349acac19fe8", "name": "69b2e01d9d5c97d6ab4f349acac19fe8", "lat": 38.901271333333334, "is_disabled": 0, "lon": -77.03251033333333, "fusion_lat": 0.0, "is_reserved": 0}, {"rental_uris": {"ios": "https://dc.lft.to/lastmile_qr_scan", "android": "https://dc.lft.to/lastmile_qr_scan"}, "fusion_lon": 0.0, "type": "electric_scooter", "bike_id": "3dc831085ce60cf260d32fde54988cf0", "name": "3dc831085ce60cf260d32fde54988cf0", "lat": 38.90972033333333, "is_disabled": 0, "lon": -77.03215433333334, "fusion_lat": 0.0, "is_reserved": 0}, {"rental_uris": {"ios": "https://dc.lft.to/lastmile_qr_scan", "android": "https://dc.lft.to/lastmile_qr_scan"}, "fusion_lon": 0.0, "type": "electric_scooter", "bike_id": "b2f6771e4e8f43763bb18220f6b9a357", "name": "b2f6771e4e8f43763bb18220f6b9a357", "lat": 38.876282, "is_disabled": 0, "lon": -76.9652685, "fusion_lat": 0.0, "is_reserved": 0}, {"rental_uris": {"ios": "https://dc.lft.to/lastmile_qr_scan", "android": "https://dc.lft.to/lastmile_qr_scan"}, "fusion_lon": 0.0, "type": "electric_bike", "bike_id": "0191a3c0a0536873988389c391b19b4b", "name": "0191a3c0a0536873988389c391b19b4b", "lat": 38.95087633333333, "is_disabled": 0, "lon": -76.9655985, "fusion_lat": 0.0, "is_reserved": 0}, {"rental_uris": {"ios": "https://dc.lft.to/lastmile_qr_scan", "android": "https://dc.lft.to/lastmile_qr_scan"}, "fusion_lon": 0.0, "type": "electric_scooter", "bike_id": "3d8280af1915d367762d5a9d200b42a2", "name": "3d8280af1915d367762d5a9d200b42a2", "lat": 38.9080415, "is_disabled": 0, "lon": -77.04095616666666, "fusion_lat": 0.0, "is_reserved": 0}, {"rental_uris": {"ios": "https://dc.lft.to/lastmile_qr_scan", "android": "https://dc.lft.to/lastmile_qr_scan"}, "fusion_lon": 0.0, "type": "electric_scooter", "bike_id": "cce376ae4d521205accc01ec52efbed5", "name": "cce376ae4d521205accc01ec52efbed5", "lat": 38.905650666666666, "is_disabled": 0, "lon": -77.04504433333334, "fusion_lat": 0.0, "is_reserved": 0}, {"rental_uris": {"ios": "https://dc.lft.to/lastmile_qr_scan", "android": "https://dc.lft.to/lastmile_qr_scan"}, "fusion_lon": 0.0, "type": "electric_scooter", "bike_id": "8990f068d7ed6bbce83fe79eb03e3216", "name": "8990f068d7ed6bbce83fe79eb03e3216", "lat": 38.91922366666667, "is_disabled": 0, "lon": -77.031724, "fusion_lat": 0.0, "is_reserved": 0}, {"rental_uris": {"ios": "https://dc.lft.to/lastmile_qr_scan", "android": "https://dc.lft.to/lastmile_qr_scan"}, "fusion_lon": 0.0, "type": "electric_scooter", "bike_id": "39ee18220d5a70ebf815c3d256379139", "name": "39ee18220d5a70ebf815c3d256379139", "lat": 38.90224766666667, "is_disabled": 0, "lon": -77.04285216666666, "fusion_lat": 0.0, "is_reserved": 0}, {"rental_uris": {"ios": "https://dc.lft.to/lastmile_qr_scan", "android": "https://dc.lft.to/lastmile_qr_scan"}, "fusion_lon": 0.0, "type": "electric_scooter", "bike_id": "6a59a5697e4e1022e22080fe069b6792", "name": "6a59a5697e4e1022e22080fe069b6792", "lat": 38.8910325, "is_disabled": 0, "lon": -77.0061235, "fusion_lat": 0.0, "is_reserved": 0}, {"rental_uris": {"ios": "https://dc.lft.to/lastmile_qr_scan", "android": "https://dc.lft.to/lastmile_qr_scan"}, "fusion_lon": 0.0, "type": "electric_bike", "bike_id": "9cb46fb0009027777729ef90da8b5185", "name": "9cb46fb0009027777729ef90da8b5185", "lat": 38.98502516666667, "is_disabled": 0, "lon": -76.9820655, "fusion_lat": 0.0, "is_reserved": 0}, {"rental_uris": {"ios": "https://dc.lft.to/lastmile_qr_scan", "android": "https://dc.lft.to/lastmile_qr_scan"}, "fusion_lon": 0.0, "type": "electric_scooter", "bike_id": "189aabf96edb54af9cb3274c09d3c802", "name": "189aabf96edb54af9cb3274c09d3c802", "lat": 38.8977, "is_disabled": 0, "lon": -77.01198316666667, "fusion_lat": 0.0, "is_reserved": 0}, {"rental_uris": {"ios": "https://dc.lft.to/lastmile_qr_scan", "android": "https://dc.lft.to/lastmile_qr_scan"}, "fusion_lon": 0.0, "type": "electric_scooter", "bike_id": "f0a2477cd43adcbe5dd502ddb996cc6b", "name": "f0a2477cd43adcbe5dd502ddb996cc6b", "lat": 38.89982033333333, "is_disabled": 0, "lon": -77.02959283333334, "fusion_lat": 0.0, "is_reserved": 0}, {"rental_uris": {"ios": "https://dc.lft.to/lastmile_qr_scan", "android": "https://dc.lft.to/lastmile_qr_scan"}, "fusion_lon": 0.0, "type": "electric_scooter", "bike_id": "96c4c46a722b2247e6ef1a12fe128df6", "name": "96c4c46a722b2247e6ef1a12fe128df6", "lat": 38.930905, "is_disabled": 0, "lon": -77.02511, "fusion_lat": 0.0, "is_reserved": 0}, {"rental_uris": {"ios": "https://dc.lft.to/lastmile_qr_scan", "android": "https://dc.lft.to/lastmile_qr_scan"}, "fusion_lon": 0.0, "type": "electric_scooter", "bike_id": "4100e5ccc11c1b2ecac406d29201392f", "name": "4100e5ccc11c1b2ecac406d29201392f", "lat": 38.90550283333334, "is_disabled": 0, "lon": -77.005675, "fusion_lat": 0.0, "is_reserved": 0}, {"rental_uris": {"ios": "https://dc.lft.to/lastmile_qr_scan", "android": "https://dc.lft.to/lastmile_qr_scan"}, "fusion_lon": 0.0, "type": "electric_scooter", "bike_id": "951aa9ca1847cce76de257be98a4ccb9", "name": "951aa9ca1847cce76de257be98a4ccb9", "lat": 38.90011616666666, "is_disabled": 0, "lon": -76.99590333333333, "fusion_lat": 0.0, "is_reserved": 0}, {"rental_uris": {"ios": "https://dc.lft.to/lastmile_qr_scan", "android": "https://dc.lft.to/lastmile_qr_scan"}, "fusion_lon": 0.0, "type": "electric_scooter", "bike_id": "960e104ac2f4c443d115e72e7c3c92db", "name": "960e104ac2f4c443d115e72e7c3c92db", "lat": 38.915486333333334, "is_disabled": 0, "lon": -77.01231883333334, "fusion_lat": 0.0, "is_reserved": 0}, {"rental_uris": {"ios": "https://dc.lft.to/lastmile_qr_scan", "android": "https://dc.lft.to/lastmile_qr_scan"}, "fusion_lon": 0.0, "type": "electric_bike", "bike_id": "e8ffac424806f6cdbb8a7db154fbc5a9", "name": "e8ffac424806f6cdbb8a7db154fbc5a9", "lat": 39.0959005, "is_disabled": 0, "lon": -77.14778983333333, "fusion_lat": 0.0, "is_reserved": 0}, {"rental_uris": {"ios": "https://dc.lft.to/lastmile_qr_scan", "android": "https://dc.lft.to/lastmile_qr_scan"}, "fusion_lon": 0.0, "type": "electric_scooter", "bike_id": "71321e41af947154a9d82d3f96e16f86", "name": "71321e41af947154a9d82d3f96e16f86", "lat": 38.89836233333333, "is_disabled": 0, "lon": -77.01947083333333, "fusion_lat": 0.0, "is_reserved": 0}, {"rental_uris": {"ios": "https://dc.lft.to/lastmile_qr_scan", "android": "https://dc.lft.to/lastmile_qr_scan"}, "fusion_lon": 0.0, "type": "electric_scooter", "bike_id": "0ca12cc95417007330b755f478cdee1b", "name": "0ca12cc95417007330b755f478cdee1b", "lat": 38.89508, "is_disabled": 0, "lon": -76.948849, "fusion_lat": 0.0, "is_reserved": 0}, {"rental_uris": {"ios": "https://dc.lft.to/lastmile_qr_scan", "android": "https://dc.lft.to/lastmile_qr_scan"}, "fusion_lon": 0.0, "type": "electric_scooter", "bike_id": "4c3b9b3788663fd5a4a587f86cd26aa0", "name": "4c3b9b3788663fd5a4a587f86cd26aa0", "lat": 38.89219933333333, "is_disabled": 0, "lon": -77.02265933333334, "fusion_lat": 0.0, "is_reserved": 0}, {"rental_uris": {"ios": "https://dc.lft.to/lastmile_qr_scan", "android": "https://dc.lft.to/lastmile_qr_scan"}, "fusion_lon": 0.0, "type": "electric_bike", "bike_id": "294c9b12bd0855f96d0f6ad25eef7fac", "name": "294c9b12bd0855f96d0f6ad25eef7fac", "lat": 38.99935516666667, "is_disabled": 0, "lon": -77.00119783333334, "fusion_lat": 0.0, "is_reserved": 0}, {"rental_uris": {"ios": "https://dc.lft.to/lastmile_qr_scan", "android": "https://dc.lft.to/lastmile_qr_scan"}, "fusion_lon": 0.0, "type": "electric_bike", "bike_id": "36fd254f38937e7e889be45e2158618f", "name": "36fd254f38937e7e889be45e2158618f", "lat": 38.855471666666666, "is_disabled": 0, "lon": -77.10718433333334, "fusion_lat": 0.0, "is_reserved": 0}, {"rental_uris": {"ios": "https://dc.lft.to/lastmile_qr_scan", "android": "https://dc.lft.to/lastmile_qr_scan"}, "fusion_lon": 0.0, "type": "electric_scooter", "bike_id": "a7f7cd63f963b89cb2db84f0e5a3fa15", "name": "a7f7cd63f963b89cb2db84f0e5a3fa15", "lat": 38.860330166666664, "is_disabled": 0, "lon": -76.9968395, "fusion_lat": 0.0, "is_reserved": 0}, {"rental_uris": {"ios": "https://dc.lft.to/lastmile_qr_scan", "android": "https://dc.lft.to/lastmile_qr_scan"}, "fusion_lon": 0.0, "type": "electric_bike", "bike_id": "df1129feb589c67a686c0617ffbc6eeb", "name": "df1129feb589c67a686c0617ffbc6eeb", "lat": 38.841915166666666, "is_disabled": 0, "lon": -77.07747333333333, "fusion_lat": 0.0, "is_reserved": 0}, {"rental_uris": {"ios": "https://dc.lft.to/lastmile_qr_scan", "android": "https://dc.lft.to/lastmile_qr_scan"}, "fusion_lon": 0.0, "type": "electric_scooter", "bike_id": "de244d08964e98f5bdca14de06a5b391", "name": "de244d08964e98f5bdca14de06a5b391", "lat": 38.89730016666667, "is_disabled": 0, "lon": -76.94704316666666, "fusion_lat": 0.0, "is_reserved": 0}, {"rental_uris": {"ios": "https://dc.lft.to/lastmile_qr_scan", "android": "https://dc.lft.to/lastmile_qr_scan"}, "fusion_lon": 0.0, "type": "electric_scooter", "bike_id": "5784389491c0a6742cf9a0fb6d0758fc", "name": "5784389491c0a6742cf9a0fb6d0758fc", "lat": 38.91259316666667, "is_disabled": 0, "lon": -77.01694466666666, "fusion_lat": 0.0, "is_reserved": 0}, {"rental_uris": {"ios": "https://dc.lft.to/lastmile_qr_scan", "android": "https://dc.lft.to/lastmile_qr_scan"}, "fusion_lon": 0.0, "type": "electric_scooter", "bike_id": "0d95b271ec1ec69cfdee41ea89b0a3e1", "name": "0d95b271ec1ec69cfdee41ea89b0a3e1", "lat": 38.940842833333335, "is_disabled": 0, "lon": -77.02729133333334, "fusion_lat": 0.0, "is_reserved": 0}, {"rental_uris": {"ios": "https://dc.lft.to/lastmile_qr_scan", "android": "https://dc.lft.to/lastmile_qr_scan"}, "fusion_lon": 0.0, "type": "electric_bike", "bike_id": "91bdb24c738a9677c52079b20c8496ef", "name": "91bdb24c738a9677c52079b20c8496ef", "lat": 38.96759983333333, "is_disabled": 0, "lon": -77.09161966666667, "fusion_lat": 0.0, "is_reserved": 0}, {"rental_uris": {"ios": "https://dc.lft.to/lastmile_qr_scan", "android": "https://dc.lft.to/lastmile_qr_scan"}, "fusion_lon": 0.0, "type": "electric_scooter", "bike_id": "ea20ee800743893338d702f08d175ea1", "name": "ea20ee800743893338d702f08d175ea1", "lat": 38.88889316666667, "is_disabled": 0, "lon": -77.01548016666666, "fusion_lat": 0.0, "is_reserved": 0}, {"rental_uris": {"ios": "https://dc.lft.to/lastmile_qr_scan", "android": "https://dc.lft.to/lastmile_qr_scan"}, "fusion_lon": 0.0, "type": "electric_scooter", "bike_id": "5f447ff2631040a5f4b7b35c84076b5e", "name": "5f447ff2631040a5f4b7b35c84076b5e", "lat": 38.892212666666666, "is_disabled": 0, "lon": -77.04658083333334, "fusion_lat": 0.0, "is_reserved": 0}, {"rental_uris": {"ios": "https://dc.lft.to/lastmile_qr_scan", "android": "https://dc.lft.to/lastmile_qr_scan"}, "fusion_lon": 0.0, "type": "electric_scooter", "bike_id": "9d3db0b3d335677d00932f4ef653b74c", "name": "9d3db0b3d335677d00932f4ef653b74c", "lat": 38.92205833333333, "is_disabled": 0, "lon": -77.04256116666667, "fusion_lat": 0.0, "is_reserved": 0}, {"rental_uris": {"ios": "https://dc.lft.to/lastmile_qr_scan", "android": "https://dc.lft.to/lastmile_qr_scan"}, "fusion_lon": 0.0, "type": "electric_bike", "bike_id": "437301338f5cae2e6e162d4f14e063d0", "name": "437301338f5cae2e6e162d4f14e063d0", "lat": 38.99894466666667, "is_disabled": 0, "lon": -77.02872533333333, "fusion_lat": 0.0, "is_reserved": 0}, {"rental_uris": {"ios": "https://dc.lft.to/lastmile_qr_scan", "android": "https://dc.lft.to/lastmile_qr_scan"}, "fusion_lon": 0.0, "type": "electric_scooter", "bike_id": "1c61e9f0cd65de35bcf3d7fb431c7f8c", "name": "1c61e9f0cd65de35bcf3d7fb431c7f8c", "lat": 38.901482666666666, "is_disabled": 0, "lon": -77.041679, "fusion_lat": 0.0, "is_reserved": 0}, {"rental_uris": {"ios": "https://dc.lft.to/lastmile_qr_scan", "android": "https://dc.lft.to/lastmile_qr_scan"}, "fusion_lon": 0.0, "type": "electric_scooter", "bike_id": "7bc72eb00e382326feb1d6d90ec1a146", "name": "7bc72eb00e382326feb1d6d90ec1a146", "lat": 38.85805966666667, "is_disabled": 0, "lon": -76.98651583333333, "fusion_lat": 0.0, "is_reserved": 0}, {"rental_uris": {"ios": "https://dc.lft.to/lastmile_qr_scan", "android": "https://dc.lft.to/lastmile_qr_scan"}, "fusion_lon": 0.0, "type": "electric_scooter", "bike_id": "6c0b584e625c27bfc9544a70e5c5d1d6", "name": "6c0b584e625c27bfc9544a70e5c5d1d6", "lat": 38.895157166666664, "is_disabled": 0, "lon": -77.02932333333334, "fusion_lat": 0.0, "is_reserved": 0}, {"rental_uris": {"ios": "https://dc.lft.to/lastmile_qr_scan", "android": "https://dc.lft.to/lastmile_qr_scan"}, "fusion_lon": 0.0, "type": "electric_scooter", "bike_id": "0f683a8e8c6d7cb0c58b9fecde541fcf", "name": "0f683a8e8c6d7cb0c58b9fecde541fcf", "lat": 38.90119216666667, "is_disabled": 0, "lon": -77.0119395, "fusion_lat": 0.0, "is_reserved": 0}, {"rental_uris": {"ios": "https://dc.lft.to/lastmile_qr_scan", "android": "https://dc.lft.to/lastmile_qr_scan"}, "fusion_lon": 0.0, "type": "electric_scooter", "bike_id": "fc4b72ec93d9827d33e48dfa15a958f3", "name": "fc4b72ec93d9827d33e48dfa15a958f3", "lat": 38.90071916666667, "is_disabled": 0, "lon": -77.03199466666666, "fusion_lat": 0.0, "is_reserved": 0}, {"rental_uris": {"ios": "https://dc.lft.to/lastmile_qr_scan", "android": "https://dc.lft.to/lastmile_qr_scan"}, "fusion_lon": 0.0, "type": "electric_scooter", "bike_id": "1edba71dd4eb2fcc3b4781ba6704bba7", "name": "1edba71dd4eb2fcc3b4781ba6704bba7", "lat": 38.90966983333333, "is_disabled": 0, "lon": -77.02178233333333, "fusion_lat": 0.0, "is_reserved": 0}, {"rental_uris": {"ios": "https://dc.lft.to/lastmile_qr_scan", "android": "https://dc.lft.to/lastmile_qr_scan"}, "fusion_lon": 0.0, "type": "electric_bike", "bike_id": "d75952203ee8c0940ae7d7e66f9389f3", "name": "d75952203ee8c0940ae7d7e66f9389f3", "lat": 38.868588333333335, "is_disabled": 0, "lon": -76.9165615, "fusion_lat": 0.0, "is_reserved": 0}, {"rental_uris": {"ios": "https://dc.lft.to/lastmile_qr_scan", "android": "https://dc.lft.to/lastmile_qr_scan"}, "fusion_lon": 0.0, "type": "electric_scooter", "bike_id": "bf8f3ed42d6b7a2df9207be2b672ba06", "name": "bf8f3ed42d6b7a2df9207be2b672ba06", "lat": 38.91418016666667, "is_disabled": 0, "lon": -77.03900016666667, "fusion_lat": 0.0, "is_reserved": 0}, {"rental_uris": {"ios": "https://dc.lft.to/lastmile_qr_scan", "android": "https://dc.lft.to/lastmile_qr_scan"}, "fusion_lon": 0.0, "type": "electric_bike", "bike_id": "c6eed098bbb883726d64ebb00e6e0d86", "name": "c6eed098bbb883726d64ebb00e6e0d86", "lat": 38.93189516666666, "is_disabled": 0, "lon": -77.2293945, "fusion_lat": 0.0, "is_reserved": 0}, {"rental_uris": {"ios": "https://dc.lft.to/lastmile_qr_scan", "android": "https://dc.lft.to/lastmile_qr_scan"}, "fusion_lon": 0.0, "type": "electric_scooter", "bike_id": "6c3b01816e92d76718605bf75b163761", "name": "6c3b01816e92d76718605bf75b163761", "lat": 38.88502916666667, "is_disabled": 0, "lon": -77.00562316666667, "fusion_lat": 0.0, "is_reserved": 0}, {"rental_uris": {"ios": "https://dc.lft.to/lastmile_qr_scan", "android": "https://dc.lft.to/lastmile_qr_scan"}, "fusion_lon": 0.0, "type": "electric_scooter", "bike_id": "06a08a7f68cbcd4de740d2375d3d85f7", "name": "06a08a7f68cbcd4de740d2375d3d85f7", "lat": 38.91750116666667, "is_disabled": 0, "lon": -77.02490366666666, "fusion_lat": 0.0, "is_reserved": 0}, {"rental_uris": {"ios": "https://dc.lft.to/lastmile_qr_scan", "android": "https://dc.lft.to/lastmile_qr_scan"}, "fusion_lon": 0.0, "type": "electric_bike", "bike_id": "c0b84eb5ee1c7b6c04b7603d3cd6a310", "name": "c0b84eb5ee1c7b6c04b7603d3cd6a310", "lat": 38.9924965, "is_disabled": 0, "lon": -77.04994316666667, "fusion_lat": 0.0, "is_reserved": 0}, {"rental_uris": {"ios": "https://dc.lft.to/lastmile_qr_scan", "android": "https://dc.lft.to/lastmile_qr_scan"}, "fusion_lon": 0.0, "type": "electric_scooter", "bike_id": "f31cb8ffcb47ae9d38684694bfa10e4d", "name": "f31cb8ffcb47ae9d38684694bfa10e4d", "lat": 38.920741, "is_disabled": 0, "lon": -77.023879, "fusion_lat": 0.0, "is_reserved": 0}, {"rental_uris": {"ios": "https://dc.lft.to/lastmile_qr_scan", "android": "https://dc.lft.to/lastmile_qr_scan"}, "fusion_lon": 0.0, "type": "electric_scooter", "bike_id": "e953d7be80ca79e29e8e4ef818b22271", "name": "e953d7be80ca79e29e8e4ef818b22271", "lat": 38.91017883333333, "is_disabled": 0, "lon": -77.0364215, "fusion_lat": 0.0, "is_reserved": 0}, {"rental_uris": {"ios": "https://dc.lft.to/lastmile_qr_scan", "android": "https://dc.lft.to/lastmile_qr_scan"}, "fusion_lon": 0.0, "type": "electric_scooter", "bike_id": "b536e50023aa728a8f7da648ca271df3", "name": "b536e50023aa728a8f7da648ca271df3", "lat": 38.907281, "is_disabled": 0, "lon": -77.0113145, "fusion_lat": 0.0, "is_reserved": 0}, {"rental_uris": {"ios": "https://dc.lft.to/lastmile_qr_scan", "android": "https://dc.lft.to/lastmile_qr_scan"}, "fusion_lon": 0.0, "type": "electric_scooter", "bike_id": "7178c850fc86ebbfb8b59dcf6a29f50f", "name": "7178c850fc86ebbfb8b59dcf6a29f50f", "lat": 38.915733, "is_disabled": 0, "lon": -77.02000683333333, "fusion_lat": 0.0, "is_reserved": 0}, {"rental_uris": {"ios": "https://dc.lft.to/lastmile_qr_scan", "android": "https://dc.lft.to/lastmile_qr_scan"}, "fusion_lon": 0.0, "type": "electric_scooter", "bike_id": "6134d2efdfecf644d5421b7967ea1202", "name": "6134d2efdfecf644d5421b7967ea1202", "lat": 38.891962666666664, "is_disabled": 0, "lon": -77.03174333333334, "fusion_lat": 0.0, "is_reserved": 0}, {"rental_uris": {"ios": "https://dc.lft.to/lastmile_qr_scan", "android": "https://dc.lft.to/lastmile_qr_scan"}, "fusion_lon": 0.0, "type": "electric_scooter", "bike_id": "e47b37b0e0b8cda0b8bbcadd0f0ac326", "name": "e47b37b0e0b8cda0b8bbcadd0f0ac326", "lat": 38.89217816666667, "is_disabled": 0, "lon": -77.0221875, "fusion_lat": 0.0, "is_reserved": 0}, {"rental_uris": {"ios": "https://dc.lft.to/lastmile_qr_scan", "android": "https://dc.lft.to/lastmile_qr_scan"}, "fusion_lon": 0.0, "type": "electric_scooter", "bike_id": "8563f6fce163d62e328272584f6eb75a", "name": "8563f6fce163d62e328272584f6eb75a", "lat": 38.9119985, "is_disabled": 0, "lon": -76.98485416666666, "fusion_lat": 0.0, "is_reserved": 0}, {"rental_uris": {"ios": "https://dc.lft.to/lastmile_qr_scan", "android": "https://dc.lft.to/lastmile_qr_scan"}, "fusion_lon": 0.0, "type": "electric_scooter", "bike_id": "66e4e410950af9cd9fcd84b03f91c716", "name": "66e4e410950af9cd9fcd84b03f91c716", "lat": 38.9067405, "is_disabled": 0, "lon": -77.03455083333333, "fusion_lat": 0.0, "is_reserved": 0}, {"rental_uris": {"ios": "https://dc.lft.to/lastmile_qr_scan", "android": "https://dc.lft.to/lastmile_qr_scan"}, "fusion_lon": 0.0, "type": "electric_scooter", "bike_id": "66bdd1d03f4c27df061d4106ea285cfc", "name": "66bdd1d03f4c27df061d4106ea285cfc", "lat": 38.9072735, "is_disabled": 0, "lon": -77.02369283333333, "fusion_lat": 0.0, "is_reserved": 0}, {"rental_uris": {"ios": "https://dc.lft.to/lastmile_qr_scan", "android": "https://dc.lft.to/lastmile_qr_scan"}, "fusion_lon": 0.0, "type": "electric_scooter", "bike_id": "9c1856905dd6c499d3eced394c76ea22", "name": "9c1856905dd6c499d3eced394c76ea22", "lat": 38.9173345, "is_disabled": 0, "lon": -76.99180333333334, "fusion_lat": 0.0, "is_reserved": 0}, {"rental_uris": {"ios": "https://dc.lft.to/lastmile_qr_scan", "android": "https://dc.lft.to/lastmile_qr_scan"}, "fusion_lon": 0.0, "type": "electric_scooter", "bike_id": "89764ea610c4fe97e09bf95596eef069", "name": "89764ea610c4fe97e09bf95596eef069", "lat": 38.917946666666666, "is_disabled": 0, "lon": -77.0344895, "fusion_lat": 0.0, "is_reserved": 0}, {"rental_uris": {"ios": "https://dc.lft.to/lastmile_qr_scan", "android": "https://dc.lft.to/lastmile_qr_scan"}, "fusion_lon": 0.0, "type": "electric_scooter", "bike_id": "3ef4c11a7b3220c412846b7bfa348618", "name": "3ef4c11a7b3220c412846b7bfa348618", "lat": 38.885703666666664, "is_disabled": 0, "lon": -77.00070683333334, "fusion_lat": 0.0, "is_reserved": 0}, {"rental_uris": {"ios": "https://dc.lft.to/lastmile_qr_scan", "android": "https://dc.lft.to/lastmile_qr_scan"}, "fusion_lon": 0.0, "type": "electric_scooter", "bike_id": "2e108849e74f191b5a7817bf938c1b7c", "name": "2e108849e74f191b5a7817bf938c1b7c", "lat": 38.900124166666664, "is_disabled": 0, "lon": -76.99592483333333, "fusion_lat": 0.0, "is_reserved": 0}, {"rental_uris": {"ios": "https://dc.lft.to/lastmile_qr_scan", "android": "https://dc.lft.to/lastmile_qr_scan"}, "fusion_lon": 0.0, "type": "electric_bike", "bike_id": "557b47999c4ee5853cc559310d7732b1", "name": "557b47999c4ee5853cc559310d7732b1", "lat": 38.970566833333336, "is_disabled": 0, "lon": -76.96061716666667, "fusion_lat": 0.0, "is_reserved": 0}, {"rental_uris": {"ios": "https://dc.lft.to/lastmile_qr_scan", "android": "https://dc.lft.to/lastmile_qr_scan"}, "fusion_lon": 0.0, "type": "electric_scooter", "bike_id": "708eed3e54ec2da2be8c8932899a2a58", "name": "708eed3e54ec2da2be8c8932899a2a58", "lat": 38.92166816666666, "is_disabled": 0, "lon": -77.04339133333333, "fusion_lat": 0.0, "is_reserved": 0}, {"rental_uris": {"ios": "https://dc.lft.to/lastmile_qr_scan", "android": "https://dc.lft.to/lastmile_qr_scan"}, "fusion_lon": 0.0, "type": "electric_bike", "bike_id": "7d82dfce6ac9acaf756c8ed7b46c3cd3", "name": "7d82dfce6ac9acaf756c8ed7b46c3cd3", "lat": 38.85790133333333, "is_disabled": 0, "lon": -77.09960216666667, "fusion_lat": 0.0, "is_reserved": 0}, {"rental_uris": {"ios": "https://dc.lft.to/lastmile_qr_scan", "android": "https://dc.lft.to/lastmile_qr_scan"}, "fusion_lon": 0.0, "type": "electric_scooter", "bike_id": "2f2c579964717065c9289873f86ced88", "name": "2f2c579964717065c9289873f86ced88", "lat": 38.934923833333336, "is_disabled": 0, "lon": -77.02410933333333, "fusion_lat": 0.0, "is_reserved": 0}, {"rental_uris": {"ios": "https://dc.lft.to/lastmile_qr_scan", "android": "https://dc.lft.to/lastmile_qr_scan"}, "fusion_lon": 0.0, "type": "electric_scooter", "bike_id": "693f6f8bf8405ca22c757567efe2ba31", "name": "693f6f8bf8405ca22c757567efe2ba31", "lat": 38.90199666666667, "is_disabled": 0, "lon": -77.0612175, "fusion_lat": 0.0, "is_reserved": 0}, {"rental_uris": {"ios": "https://dc.lft.to/lastmile_qr_scan", "android": "https://dc.lft.to/lastmile_qr_scan"}, "fusion_lon": 0.0, "type": "electric_scooter", "bike_id": "8001916db81d403de589d034b07278be", "name": "8001916db81d403de589d034b07278be", "lat": 38.913289166666665, "is_disabled": 0, "lon": -77.0325015, "fusion_lat": 0.0, "is_reserved": 0}, {"rental_uris": {"ios": "https://dc.lft.to/lastmile_qr_scan", "android": "https://dc.lft.to/lastmile_qr_scan"}, "fusion_lon": 0.0, "type": "electric_scooter", "bike_id": "ea4e981c5cc0f6413acbcf322ae61399", "name": "ea4e981c5cc0f6413acbcf322ae61399", "lat": 38.92652733333333, "is_disabled": 0, "lon": -77.037136, "fusion_lat": 0.0, "is_reserved": 0}, {"rental_uris": {"ios": "https://dc.lft.to/lastmile_qr_scan", "android": "https://dc.lft.to/lastmile_qr_scan"}, "fusion_lon": 0.0, "type": "electric_scooter", "bike_id": "7c81221f73d86ffa79e412bf20e495e0", "name": "7c81221f73d86ffa79e412bf20e495e0", "lat": 38.908361166666666, "is_disabled": 0, "lon": -77.03458483333333, "fusion_lat": 0.0, "is_reserved": 0}, {"rental_uris": {"ios": "https://dc.lft.to/lastmile_qr_scan", "android": "https://dc.lft.to/lastmile_qr_scan"}, "fusion_lon": 0.0, "type": "electric_scooter", "bike_id": "8fa377359e2ec87e374d2bc2cc20576e", "name": "8fa377359e2ec87e374d2bc2cc20576e", "lat": 38.896111833333336, "is_disabled": 0, "lon": -77.010842, "fusion_lat": 0.0, "is_reserved": 0}, {"rental_uris": {"ios": "https://dc.lft.to/lastmile_qr_scan", "android": "https://dc.lft.to/lastmile_qr_scan"}, "fusion_lon": 0.0, "type": "electric_scooter", "bike_id": "e83197b1195341d456825628f7466019", "name": "e83197b1195341d456825628f7466019", "lat": 38.962150333333334, "is_disabled": 0, "lon": -77.02806683333333, "fusion_lat": 0.0, "is_reserved": 0}, {"rental_uris": {"ios": "https://dc.lft.to/lastmile_qr_scan", "android": "https://dc.lft.to/lastmile_qr_scan"}, "fusion_lon": 0.0, "type": "electric_scooter", "bike_id": "240d890f78fc4216f842839b97895030", "name": "240d890f78fc4216f842839b97895030", "lat": 38.90243133333333, "is_disabled": 0, "lon": -77.0625855, "fusion_lat": 0.0, "is_reserved": 0}, {"rental_uris": {"ios": "https://dc.lft.to/lastmile_qr_scan", "android": "https://dc.lft.to/lastmile_qr_scan"}, "fusion_lon": 0.0, "type": "electric_scooter", "bike_id": "0175dd5f32e55f309eec3c7586a2efec", "name": "0175dd5f32e55f309eec3c7586a2efec", "lat": 38.91544783333333, "is_disabled": 0, "lon": -77.038476, "fusion_lat": 0.0, "is_reserved": 0}, {"rental_uris": {"ios": "https://dc.lft.to/lastmile_qr_scan", "android": "https://dc.lft.to/lastmile_qr_scan"}, "fusion_lon": 0.0, "type": "electric_scooter", "bike_id": "34500fe6b92234d8815c42bb2c725ee8", "name": "34500fe6b92234d8815c42bb2c725ee8", "lat": 38.92604883333333, "is_disabled": 0, "lon": -77.0215505, "fusion_lat": 0.0, "is_reserved": 0}, {"rental_uris": {"ios": "https://dc.lft.to/lastmile_qr_scan", "android": "https://dc.lft.to/lastmile_qr_scan"}, "fusion_lon": 0.0, "type": "electric_bike", "bike_id": "0791a409c502613b64117e4e34afaa5e", "name": "0791a409c502613b64117e4e34afaa5e", "lat": 38.96589933333333, "is_disabled": 0, "lon": -76.979595, "fusion_lat": 0.0, "is_reserved": 0}, {"rental_uris": {"ios": "https://dc.lft.to/lastmile_qr_scan", "android": "https://dc.lft.to/lastmile_qr_scan"}, "fusion_lon": 0.0, "type": "electric_scooter", "bike_id": "9f56b22c1531e8cd113a143fa92b9db5", "name": "9f56b22c1531e8cd113a143fa92b9db5", "lat": 38.90250133333333, "is_disabled": 0, "lon": -76.94623866666667, "fusion_lat": 0.0, "is_reserved": 0}, {"rental_uris": {"ios": "https://dc.lft.to/lastmile_qr_scan", "android": "https://dc.lft.to/lastmile_qr_scan"}, "fusion_lon": 0.0, "type": "electric_scooter", "bike_id": "a7b42660e68b981d29702c092576c460", "name": "a7b42660e68b981d29702c092576c460", "lat": 38.929795666666664, "is_disabled": 0, "lon": -77.05503616666667, "fusion_lat": 0.0, "is_reserved": 0}, {"rental_uris": {"ios": "https://dc.lft.to/lastmile_qr_scan", "android": "https://dc.lft.to/lastmile_qr_scan"}, "fusion_lon": 0.0, "type": "electric_scooter", "bike_id": "a50de8a750ea0666c50dfd3ddb9eb1e1", "name": "a50de8a750ea0666c50dfd3ddb9eb1e1", "lat": 38.918432333333335, "is_disabled": 0, "lon": -77.032209, "fusion_lat": 0.0, "is_reserved": 0}, {"rental_uris": {"ios": "https://dc.lft.to/lastmile_qr_scan", "android": "https://dc.lft.to/lastmile_qr_scan"}, "fusion_lon": 0.0, "type": "electric_scooter", "bike_id": "f30e250d7aca4e5932c2a321644f20e9", "name": "f30e250d7aca4e5932c2a321644f20e9", "lat": 38.9281545, "is_disabled": 0, "lon": -77.01406566666667, "fusion_lat": 0.0, "is_reserved": 0}, {"rental_uris": {"ios": "https://dc.lft.to/lastmile_qr_scan", "android": "https://dc.lft.to/lastmile_qr_scan"}, "fusion_lon": 0.0, "type": "electric_scooter", "bike_id": "815718bb39468d83a111d61359066781", "name": "815718bb39468d83a111d61359066781", "lat": 38.904610166666664, "is_disabled": 0, "lon": -77.01707166666667, "fusion_lat": 0.0, "is_reserved": 0}, {"rental_uris": {"ios": "https://dc.lft.to/lastmile_qr_scan", "android": "https://dc.lft.to/lastmile_qr_scan"}, "fusion_lon": 0.0, "type": "electric_scooter", "bike_id": "8137da33aad3dcb5bb3a54d587628856", "name": "8137da33aad3dcb5bb3a54d587628856", "lat": 38.863549166666665, "is_disabled": 0, "lon": -76.99068016666666, "fusion_lat": 0.0, "is_reserved": 0}, {"rental_uris": {"ios": "https://dc.lft.to/lastmile_qr_scan", "android": "https://dc.lft.to/lastmile_qr_scan"}, "fusion_lon": 0.0, "type": "electric_bike", "bike_id": "4bd586d5ca7da60626cd96cd1387030c", "name": "4bd586d5ca7da60626cd96cd1387030c", "lat": 38.9906285, "is_disabled": 0, "lon": -77.100274, "fusion_lat": 0.0, "is_reserved": 0}, {"rental_uris": {"ios": "https://dc.lft.to/lastmile_qr_scan", "android": "https://dc.lft.to/lastmile_qr_scan"}, "fusion_lon": 0.0, "type": "electric_scooter", "bike_id": "b5ed73377f55340f574b055af7e24929", "name": "b5ed73377f55340f574b055af7e24929", "lat": 38.91233016666666, "is_disabled": 0, "lon": -77.048695, "fusion_lat": 0.0, "is_reserved": 0}, {"rental_uris": {"ios": "https://dc.lft.to/lastmile_qr_scan", "android": "https://dc.lft.to/lastmile_qr_scan"}, "fusion_lon": 0.0, "type": "electric_scooter", "bike_id": "608e5091b7508e262b0a76824e800793", "name": "608e5091b7508e262b0a76824e800793", "lat": 38.917105666666664, "is_disabled": 0, "lon": -77.02577183333334, "fusion_lat": 0.0, "is_reserved": 0}, {"rental_uris": {"ios": "https://dc.lft.to/lastmile_qr_scan", "android": "https://dc.lft.to/lastmile_qr_scan"}, "fusion_lon": 0.0, "type": "electric_scooter", "bike_id": "61afe05ddcb7fdfc70cc29223bec0561", "name": "61afe05ddcb7fdfc70cc29223bec0561", "lat": 38.9046125, "is_disabled": 0, "lon": -77.02816033333333, "fusion_lat": 0.0, "is_reserved": 0}, {"rental_uris": {"ios": "https://dc.lft.to/lastmile_qr_scan", "android": "https://dc.lft.to/lastmile_qr_scan"}, "fusion_lon": 0.0, "type": "electric_bike", "bike_id": "fe274756ca3b9225ad7fc90b2fd9d064", "name": "fe274756ca3b9225ad7fc90b2fd9d064", "lat": 38.990892333333335, "is_disabled": 0, "lon": -76.8749435, "fusion_lat": 0.0, "is_reserved": 0}, {"rental_uris": {"ios": "https://dc.lft.to/lastmile_qr_scan", "android": "https://dc.lft.to/lastmile_qr_scan"}, "fusion_lon": 0.0, "type": "electric_scooter", "bike_id": "6ec858d4366246f865a22a072d285113", "name": "6ec858d4366246f865a22a072d285113", "lat": 38.8851395, "is_disabled": 0, "lon": -77.005644, "fusion_lat": 0.0, "is_reserved": 0}, {"rental_uris": {"ios": "https://dc.lft.to/lastmile_qr_scan", "android": "https://dc.lft.to/lastmile_qr_scan"}, "fusion_lon": 0.0, "type": "electric_scooter", "bike_id": "fe1016980edcef47f4e2861514685906", "name": "fe1016980edcef47f4e2861514685906", "lat": 38.904146, "is_disabled": 0, "lon": -77.02572483333333, "fusion_lat": 0.0, "is_reserved": 0}, {"rental_uris": {"ios": "https://dc.lft.to/lastmile_qr_scan", "android": "https://dc.lft.to/lastmile_qr_scan"}, "fusion_lon": 0.0, "type": "electric_scooter", "bike_id": "53e5f3e8a8db3a29baabe61e131415e9", "name": "53e5f3e8a8db3a29baabe61e131415e9", "lat": 38.902744, "is_disabled": 0, "lon": -77.04500166666666, "fusion_lat": 0.0, "is_reserved": 0}, {"rental_uris": {"ios": "https://dc.lft.to/lastmile_qr_scan", "android": "https://dc.lft.to/lastmile_qr_scan"}, "fusion_lon": 0.0, "type": "electric_scooter", "bike_id": "b3f354b4cd65f0099137fd2778b89b6a", "name": "b3f354b4cd65f0099137fd2778b89b6a", "lat": 38.9560045, "is_disabled": 0, "lon": -77.00981233333333, "fusion_lat": 0.0, "is_reserved": 0}, {"rental_uris": {"ios": "https://dc.lft.to/lastmile_qr_scan", "android": "https://dc.lft.to/lastmile_qr_scan"}, "fusion_lon": 0.0, "type": "electric_scooter", "bike_id": "7cfd58053b60b10d6db56dac7f15cdb5", "name": "7cfd58053b60b10d6db56dac7f15cdb5", "lat": 38.876971166666664, "is_disabled": 0, "lon": -77.01732333333334, "fusion_lat": 0.0, "is_reserved": 0}, {"rental_uris": {"ios": "https://dc.lft.to/lastmile_qr_scan", "android": "https://dc.lft.to/lastmile_qr_scan"}, "fusion_lon": 0.0, "type": "electric_bike", "bike_id": "32d88cbde07e39016356082820776bb5", "name": "32d88cbde07e39016356082820776bb5", "lat": 38.874958166666666, "is_disabled": 0, "lon": -77.04900433333333, "fusion_lat": 0.0, "is_reserved": 0}, {"rental_uris": {"ios": "https://dc.lft.to/lastmile_qr_scan", "android": "https://dc.lft.to/lastmile_qr_scan"}, "fusion_lon": 0.0, "type": "electric_scooter", "bike_id": "e585f22b0789b332b173e68b0100a404", "name": "e585f22b0789b332b173e68b0100a404", "lat": 38.898624166666664, "is_disabled": 0, "lon": -77.03361333333334, "fusion_lat": 0.0, "is_reserved": 0}, {"rental_uris": {"ios": "https://dc.lft.to/lastmile_qr_scan", "android": "https://dc.lft.to/lastmile_qr_scan"}, "fusion_lon": 0.0, "type": "electric_scooter", "bike_id": "72c51f08cb25c63132f36fd0bca9dfe8", "name": "72c51f08cb25c63132f36fd0bca9dfe8", "lat": 38.912245166666665, "is_disabled": 0, "lon": -77.0319405, "fusion_lat": 0.0, "is_reserved": 0}, {"rental_uris": {"ios": "https://dc.lft.to/lastmile_qr_scan", "android": "https://dc.lft.to/lastmile_qr_scan"}, "fusion_lon": 0.0, "type": "electric_scooter", "bike_id": "3fb869593c4e266bd469adb4712504cb", "name": "3fb869593c4e266bd469adb4712504cb", "lat": 38.905218166666664, "is_disabled": 0, "lon": -77.04989516666667, "fusion_lat": 0.0, "is_reserved": 0}, {"rental_uris": {"ios": "https://dc.lft.to/lastmile_qr_scan", "android": "https://dc.lft.to/lastmile_qr_scan"}, "fusion_lon": 0.0, "type": "electric_scooter", "bike_id": "4897d4930feffb95df6c22821f70d36d", "name": "4897d4930feffb95df6c22821f70d36d", "lat": 38.91885033333333, "is_disabled": 0, "lon": -77.04173166666666, "fusion_lat": 0.0, "is_reserved": 0}, {"rental_uris": {"ios": "https://dc.lft.to/lastmile_qr_scan", "android": "https://dc.lft.to/lastmile_qr_scan"}, "fusion_lon": 0.0, "type": "electric_scooter", "bike_id": "1a0ac51b52bbe4cf89d20ec2482c83a3", "name": "1a0ac51b52bbe4cf89d20ec2482c83a3", "lat": 38.904506, "is_disabled": 0, "lon": -77.03837166666666, "fusion_lat": 0.0, "is_reserved": 0}, {"rental_uris": {"ios": "https://dc.lft.to/lastmile_qr_scan", "android": "https://dc.lft.to/lastmile_qr_scan"}, "fusion_lon": 0.0, "type": "electric_scooter", "bike_id": "c0da691ce4e9c03e745f557fb2b116f4", "name": "c0da691ce4e9c03e745f557fb2b116f4", "lat": 38.909605, "is_disabled": 0, "lon": -77.03173416666667, "fusion_lat": 0.0, "is_reserved": 0}, {"rental_uris": {"ios": "https://dc.lft.to/lastmile_qr_scan", "android": "https://dc.lft.to/lastmile_qr_scan"}, "fusion_lon": 0.0, "type": "electric_scooter", "bike_id": "8471d787887fa6af9b9b51eb2cede8c6", "name": "8471d787887fa6af9b9b51eb2cede8c6", "lat": 38.905262, "is_disabled": 0, "lon": -77.05973733333333, "fusion_lat": 0.0, "is_reserved": 0}, {"rental_uris": {"ios": "https://dc.lft.to/lastmile_qr_scan", "android": "https://dc.lft.to/lastmile_qr_scan"}, "fusion_lon": 0.0, "type": "electric_scooter", "bike_id": "05a5d7538915ccb48e66ba5bce6ae096", "name": "05a5d7538915ccb48e66ba5bce6ae096", "lat": 38.903035, "is_disabled": 0, "lon": -77.0236395, "fusion_lat": 0.0, "is_reserved": 0}, {"rental_uris": {"ios": "https://dc.lft.to/lastmile_qr_scan", "android": "https://dc.lft.to/lastmile_qr_scan"}, "fusion_lon": 0.0, "type": "electric_scooter", "bike_id": "a980187931caf421ce9e4f79b9ef04d1", "name": "a980187931caf421ce9e4f79b9ef04d1", "lat": 38.916937833333336, "is_disabled": 0, "lon": -77.0399875, "fusion_lat": 0.0, "is_reserved": 0}, {"rental_uris": {"ios": "https://dc.lft.to/lastmile_qr_scan", "android": "https://dc.lft.to/lastmile_qr_scan"}, "fusion_lon": 0.0, "type": "electric_bike", "bike_id": "08a79d644419dacb683ee3d49cb0cfe2", "name": "08a79d644419dacb683ee3d49cb0cfe2", "lat": 38.946234, "is_disabled": 0, "lon": -76.93411233333333, "fusion_lat": 0.0, "is_reserved": 0}, {"rental_uris": {"ios": "https://dc.lft.to/lastmile_qr_scan", "android": "https://dc.lft.to/lastmile_qr_scan"}, "fusion_lon": 0.0, "type": "electric_scooter", "bike_id": "34dffc3559a93df3a2e823fc9657703b", "name": "34dffc3559a93df3a2e823fc9657703b", "lat": 38.91815366666667, "is_disabled": 0, "lon": -77.02475666666666, "fusion_lat": 0.0, "is_reserved": 0}, {"rental_uris": {"ios": "https://dc.lft.to/lastmile_qr_scan", "android": "https://dc.lft.to/lastmile_qr_scan"}, "fusion_lon": 0.0, "type": "electric_scooter", "bike_id": "c538009072e45ea6939fa48fa1fae52f", "name": "c538009072e45ea6939fa48fa1fae52f", "lat": 38.93240266666667, "is_disabled": 0, "lon": -77.03412816666666, "fusion_lat": 0.0, "is_reserved": 0}, {"rental_uris": {"ios": "https://dc.lft.to/lastmile_qr_scan", "android": "https://dc.lft.to/lastmile_qr_scan"}, "fusion_lon": 0.0, "type": "electric_scooter", "bike_id": "1735ba703f510225424aad6d692f96bf", "name": "1735ba703f510225424aad6d692f96bf", "lat": 38.93092466666667, "is_disabled": 0, "lon": -77.02473516666667, "fusion_lat": 0.0, "is_reserved": 0}, {"rental_uris": {"ios": "https://dc.lft.to/lastmile_qr_scan", "android": "https://dc.lft.to/lastmile_qr_scan"}, "fusion_lon": 0.0, "type": "electric_scooter", "bike_id": "a5cea6af4f1342d32867de7eba37778a", "name": "a5cea6af4f1342d32867de7eba37778a", "lat": 38.876292666666664, "is_disabled": 0, "lon": -77.0125855, "fusion_lat": 0.0, "is_reserved": 0}, {"rental_uris": {"ios": "https://dc.lft.to/lastmile_qr_scan", "android": "https://dc.lft.to/lastmile_qr_scan"}, "fusion_lon": 0.0, "type": "electric_scooter", "bike_id": "c673fae00a48b979ec0283510dd7114f", "name": "c673fae00a48b979ec0283510dd7114f", "lat": 38.908301, "is_disabled": 0, "lon": -77.04877966666666, "fusion_lat": 0.0, "is_reserved": 0}, {"rental_uris": {"ios": "https://dc.lft.to/lastmile_qr_scan", "android": "https://dc.lft.to/lastmile_qr_scan"}, "fusion_lon": 0.0, "type": "electric_scooter", "bike_id": "ee5280d311ecb8dd90993a3d82b06d0f", "name": "ee5280d311ecb8dd90993a3d82b06d0f", "lat": 38.953985833333334, "is_disabled": 0, "lon": -77.027501, "fusion_lat": 0.0, "is_reserved": 0}, {"rental_uris": {"ios": "https://dc.lft.to/lastmile_qr_scan", "android": "https://dc.lft.to/lastmile_qr_scan"}, "fusion_lon": 0.0, "type": "electric_scooter", "bike_id": "bfff1ed844da57d6cf6c05f829855b67", "name": "bfff1ed844da57d6cf6c05f829855b67", "lat": 38.902562333333336, "is_disabled": 0, "lon": -77.01803666666666, "fusion_lat": 0.0, "is_reserved": 0}, {"rental_uris": {"ios": "https://dc.lft.to/lastmile_qr_scan", "android": "https://dc.lft.to/lastmile_qr_scan"}, "fusion_lon": 0.0, "type": "electric_bike", "bike_id": "5e54d1bc73de89bddc36d4fdad747f71", "name": "5e54d1bc73de89bddc36d4fdad747f71", "lat": 38.857846333333335, "is_disabled": 0, "lon": -76.9875315, "fusion_lat": 0.0, "is_reserved": 0}, {"rental_uris": {"ios": "https://dc.lft.to/lastmile_qr_scan", "android": "https://dc.lft.to/lastmile_qr_scan"}, "fusion_lon": 0.0, "type": "electric_scooter", "bike_id": "0b7e98cb851de87ad1820bc9b1879c8d", "name": "0b7e98cb851de87ad1820bc9b1879c8d", "lat": 38.90982966666667, "is_disabled": 0, "lon": -77.03856533333334, "fusion_lat": 0.0, "is_reserved": 0}, {"rental_uris": {"ios": "https://dc.lft.to/lastmile_qr_scan", "android": "https://dc.lft.to/lastmile_qr_scan"}, "fusion_lon": 0.0, "type": "electric_scooter", "bike_id": "2ae617be651733d32325af4c7bb94582", "name": "2ae617be651733d32325af4c7bb94582", "lat": 38.887425666666665, "is_disabled": 0, "lon": -77.02570816666666, "fusion_lat": 0.0, "is_reserved": 0}, {"rental_uris": {"ios": "https://dc.lft.to/lastmile_qr_scan", "android": "https://dc.lft.to/lastmile_qr_scan"}, "fusion_lon": 0.0, "type": "electric_scooter", "bike_id": "285c94ed30ca285cf0f6f82e88676d90", "name": "285c94ed30ca285cf0f6f82e88676d90", "lat": 38.912160166666666, "is_disabled": 0, "lon": -77.02715916666666, "fusion_lat": 0.0, "is_reserved": 0}, {"rental_uris": {"ios": "https://dc.lft.to/lastmile_qr_scan", "android": "https://dc.lft.to/lastmile_qr_scan"}, "fusion_lon": 0.0, "type": "electric_scooter", "bike_id": "cf7e8352489668bff135c4145a2d7b7b", "name": "cf7e8352489668bff135c4145a2d7b7b", "lat": 38.907248333333335, "is_disabled": 0, "lon": -77.03985783333333, "fusion_lat": 0.0, "is_reserved": 0}, {"rental_uris": {"ios": "https://dc.lft.to/lastmile_qr_scan", "android": "https://dc.lft.to/lastmile_qr_scan"}, "fusion_lon": 0.0, "type": "electric_scooter", "bike_id": "1b247111ef9ce0f4ed62472158f7f827", "name": "1b247111ef9ce0f4ed62472158f7f827", "lat": 38.899119666666664, "is_disabled": 0, "lon": -76.93371133333333, "fusion_lat": 0.0, "is_reserved": 0}, {"rental_uris": {"ios": "https://dc.lft.to/lastmile_qr_scan", "android": "https://dc.lft.to/lastmile_qr_scan"}, "fusion_lon": 0.0, "type": "electric_scooter", "bike_id": "18db8b82ea979115bae9465af83cb55c", "name": "18db8b82ea979115bae9465af83cb55c", "lat": 38.90855666666667, "is_disabled": 0, "lon": -76.99802583333333, "fusion_lat": 0.0, "is_reserved": 0}, {"rental_uris": {"ios": "https://dc.lft.to/lastmile_qr_scan", "android": "https://dc.lft.to/lastmile_qr_scan"}, "fusion_lon": 0.0, "type": "electric_bike", "bike_id": "1a11c04a19ef4786505d0ded48e8ddf4", "name": "1a11c04a19ef4786505d0ded48e8ddf4", "lat": 38.9664895, "is_disabled": 0, "lon": -76.93020366666667, "fusion_lat": 0.0, "is_reserved": 0}, {"rental_uris": {"ios": "https://dc.lft.to/lastmile_qr_scan", "android": "https://dc.lft.to/lastmile_qr_scan"}, "fusion_lon": 0.0, "type": "electric_scooter", "bike_id": "d6368bda761ea02975b878adee0fcb59", "name": "d6368bda761ea02975b878adee0fcb59", "lat": 38.92051516666667, "is_disabled": 0, "lon": -77.02432583333334, "fusion_lat": 0.0, "is_reserved": 0}, {"rental_uris": {"ios": "https://dc.lft.to/lastmile_qr_scan", "android": "https://dc.lft.to/lastmile_qr_scan"}, "fusion_lon": 0.0, "type": "electric_scooter", "bike_id": "cb4d80dc6718a317f7d6cb42bdc79cc1", "name": "cb4d80dc6718a317f7d6cb42bdc79cc1", "lat": 38.95613633333333, "is_disabled": 0, "lon": -77.03281783333334, "fusion_lat": 0.0, "is_reserved": 0}, {"rental_uris": {"ios": "https://dc.lft.to/lastmile_qr_scan", "android": "https://dc.lft.to/lastmile_qr_scan"}, "fusion_lon": 0.0, "type": "electric_scooter", "bike_id": "0179878dda640c7ada79e19fba512d6e", "name": "0179878dda640c7ada79e19fba512d6e", "lat": 38.905622666666666, "is_disabled": 0, "lon": -77.02604816666667, "fusion_lat": 0.0, "is_reserved": 0}, {"rental_uris": {"ios": "https://dc.lft.to/lastmile_qr_scan", "android": "https://dc.lft.to/lastmile_qr_scan"}, "fusion_lon": 0.0, "type": "electric_scooter", "bike_id": "470392a42e2c2e1a034a40a5df442ae1", "name": "470392a42e2c2e1a034a40a5df442ae1", "lat": 38.896620666666664, "is_disabled": 0, "lon": -77.05039516666666, "fusion_lat": 0.0, "is_reserved": 0}, {"rental_uris": {"ios": "https://dc.lft.to/lastmile_qr_scan", "android": "https://dc.lft.to/lastmile_qr_scan"}, "fusion_lon": 0.0, "type": "electric_scooter", "bike_id": "5bf5125c34627afce118ed96fd85cca4", "name": "5bf5125c34627afce118ed96fd85cca4", "lat": 38.8991675, "is_disabled": 0, "lon": -77.03301516666667, "fusion_lat": 0.0, "is_reserved": 0}, {"rental_uris": {"ios": "https://dc.lft.to/lastmile_qr_scan", "android": "https://dc.lft.to/lastmile_qr_scan"}, "fusion_lon": 0.0, "type": "electric_scooter", "bike_id": "eed52be6a2ad6ec92dfb1a8a69666154", "name": "eed52be6a2ad6ec92dfb1a8a69666154", "lat": 38.9279005, "is_disabled": 0, "lon": -77.03111616666666, "fusion_lat": 0.0, "is_reserved": 0}, {"rental_uris": {"ios": "https://dc.lft.to/lastmile_qr_scan", "android": "https://dc.lft.to/lastmile_qr_scan"}, "fusion_lon": 0.0, "type": "electric_scooter", "bike_id": "b1ad2d6c1a054abec717cf368befcc89", "name": "b1ad2d6c1a054abec717cf368befcc89", "lat": 38.8971305, "is_disabled": 0, "lon": -77.0198225, "fusion_lat": 0.0, "is_reserved": 0}, {"rental_uris": {"ios": "https://dc.lft.to/lastmile_qr_scan", "android": "https://dc.lft.to/lastmile_qr_scan"}, "fusion_lon": 0.0, "type": "electric_scooter", "bike_id": "aef722bfef1bac83d3c6160d97f0eef3", "name": "aef722bfef1bac83d3c6160d97f0eef3", "lat": 38.91882866666667, "is_disabled": 0, "lon": -77.04171583333333, "fusion_lat": 0.0, "is_reserved": 0}, {"rental_uris": {"ios": "https://dc.lft.to/lastmile_qr_scan", "android": "https://dc.lft.to/lastmile_qr_scan"}, "fusion_lon": 0.0, "type": "electric_scooter", "bike_id": "b810d0e17963b5bcb8b8aac791c5271f", "name": "b810d0e17963b5bcb8b8aac791c5271f", "lat": 38.941840166666665, "is_disabled": 0, "lon": -77.03325333333333, "fusion_lat": 0.0, "is_reserved": 0}, {"rental_uris": {"ios": "https://dc.lft.to/lastmile_qr_scan", "android": "https://dc.lft.to/lastmile_qr_scan"}, "fusion_lon": 0.0, "type": "electric_scooter", "bike_id": "00bf1e0cc2d4fd4d487a8d031539f1a1", "name": "00bf1e0cc2d4fd4d487a8d031539f1a1", "lat": 38.903842166666664, "is_disabled": 0, "lon": -77.04501866666666, "fusion_lat": 0.0, "is_reserved": 0}, {"rental_uris": {"ios": "https://dc.lft.to/lastmile_qr_scan", "android": "https://dc.lft.to/lastmile_qr_scan"}, "fusion_lon": 0.0, "type": "electric_scooter", "bike_id": "e5f2bc02c00f1e8090130edab1f12d4d", "name": "e5f2bc02c00f1e8090130edab1f12d4d", "lat": 38.905328, "is_disabled": 0, "lon": -77.00548966666666, "fusion_lat": 0.0, "is_reserved": 0}, {"rental_uris": {"ios": "https://dc.lft.to/lastmile_qr_scan", "android": "https://dc.lft.to/lastmile_qr_scan"}, "fusion_lon": 0.0, "type": "electric_scooter", "bike_id": "e4ce819c5813026001ce21acd82a44fc", "name": "e4ce819c5813026001ce21acd82a44fc", "lat": 38.90124616666667, "is_disabled": 0, "lon": -77.0393985, "fusion_lat": 0.0, "is_reserved": 0}, {"rental_uris": {"ios": "https://dc.lft.to/lastmile_qr_scan", "android": "https://dc.lft.to/lastmile_qr_scan"}, "fusion_lon": 0.0, "type": "electric_bike", "bike_id": "5cd9356bf0376810d6cfeb83daca8e5e", "name": "5cd9356bf0376810d6cfeb83daca8e5e", "lat": 38.903883666666665, "is_disabled": 0, "lon": -77.034768, "fusion_lat": 0.0, "is_reserved": 0}, {"rental_uris": {"ios": "https://dc.lft.to/lastmile_qr_scan", "android": "https://dc.lft.to/lastmile_qr_scan"}, "fusion_lon": 0.0, "type": "electric_scooter", "bike_id": "23b8058873ac554d1b0ca4ded28a357e", "name": "23b8058873ac554d1b0ca4ded28a357e", "lat": 38.8986425, "is_disabled": 0, "lon": -77.0336265, "fusion_lat": 0.0, "is_reserved": 0}, {"rental_uris": {"ios": "https://dc.lft.to/lastmile_qr_scan", "android": "https://dc.lft.to/lastmile_qr_scan"}, "fusion_lon": 0.0, "type": "electric_scooter", "bike_id": "f858e9e010f54056c58a873d1b99ed76", "name": "f858e9e010f54056c58a873d1b99ed76", "lat": 38.9043195, "is_disabled": 0, "lon": -77.0514295, "fusion_lat": 0.0, "is_reserved": 0}, {"rental_uris": {"ios": "https://dc.lft.to/lastmile_qr_scan", "android": "https://dc.lft.to/lastmile_qr_scan"}, "fusion_lon": 0.0, "type": "electric_scooter", "bike_id": "563a8b147e83530f6a5533ad3898c075", "name": "563a8b147e83530f6a5533ad3898c075", "lat": 38.8714445, "is_disabled": 0, "lon": -76.97894833333334, "fusion_lat": 0.0, "is_reserved": 0}, {"rental_uris": {"ios": "https://dc.lft.to/lastmile_qr_scan", "android": "https://dc.lft.to/lastmile_qr_scan"}, "fusion_lon": 0.0, "type": "electric_bike", "bike_id": "a8ad9d9f02def54e038404cf3d3fee0e", "name": "a8ad9d9f02def54e038404cf3d3fee0e", "lat": 38.96925366666667, "is_disabled": 0, "lon": -77.02628616666667, "fusion_lat": 0.0, "is_reserved": 0}, {"rental_uris": {"ios": "https://dc.lft.to/lastmile_qr_scan", "android": "https://dc.lft.to/lastmile_qr_scan"}, "fusion_lon": 0.0, "type": "electric_bike", "bike_id": "4760d6fe53bf9c41731d66107e78c886", "name": "4760d6fe53bf9c41731d66107e78c886", "lat": 38.918579333333334, "is_disabled": 0, "lon": -76.96174316666666, "fusion_lat": 0.0, "is_reserved": 0}, {"rental_uris": {"ios": "https://dc.lft.to/lastmile_qr_scan", "android": "https://dc.lft.to/lastmile_qr_scan"}, "fusion_lon": 0.0, "type": "electric_scooter", "bike_id": "035540959f131ba62f89105a5eda8fd0", "name": "035540959f131ba62f89105a5eda8fd0", "lat": 38.887341166666666, "is_disabled": 0, "lon": -77.01524633333334, "fusion_lat": 0.0, "is_reserved": 0}, {"rental_uris": {"ios": "https://dc.lft.to/lastmile_qr_scan", "android": "https://dc.lft.to/lastmile_qr_scan"}, "fusion_lon": 0.0, "type": "electric_scooter", "bike_id": "dd6836881fe2df518f871d64a38f3a7f", "name": "dd6836881fe2df518f871d64a38f3a7f", "lat": 38.903532166666665, "is_disabled": 0, "lon": -77.03767916666666, "fusion_lat": 0.0, "is_reserved": 0}, {"rental_uris": {"ios": "https://dc.lft.to/lastmile_qr_scan", "android": "https://dc.lft.to/lastmile_qr_scan"}, "fusion_lon": 0.0, "type": "electric_scooter", "bike_id": "7a535936cd65740cc87878c80a353258", "name": "7a535936cd65740cc87878c80a353258", "lat": 38.900519333333335, "is_disabled": 0, "lon": -77.0006565, "fusion_lat": 0.0, "is_reserved": 0}, {"rental_uris": {"ios": "https://dc.lft.to/lastmile_qr_scan", "android": "https://dc.lft.to/lastmile_qr_scan"}, "fusion_lon": 0.0, "type": "electric_scooter", "bike_id": "31adff893b7f0de57ba8a637811d2421", "name": "31adff893b7f0de57ba8a637811d2421", "lat": 38.88659416666667, "is_disabled": 0, "lon": -77.03386983333333, "fusion_lat": 0.0, "is_reserved": 0}, {"rental_uris": {"ios": "https://dc.lft.to/lastmile_qr_scan", "android": "https://dc.lft.to/lastmile_qr_scan"}, "fusion_lon": 0.0, "type": "electric_bike", "bike_id": "46268152cffe929efc5a94db562664e3", "name": "46268152cffe929efc5a94db562664e3", "lat": 38.83688983333333, "is_disabled": 0, "lon": -77.0058835, "fusion_lat": 0.0, "is_reserved": 0}, {"rental_uris": {"ios": "https://dc.lft.to/lastmile_qr_scan", "android": "https://dc.lft.to/lastmile_qr_scan"}, "fusion_lon": 0.0, "type": "electric_scooter", "bike_id": "8e94651f7a245f68095946bdd1c3ba71", "name": "8e94651f7a245f68095946bdd1c3ba71", "lat": 38.935557833333334, "is_disabled": 0, "lon": -77.02963166666666, "fusion_lat": 0.0, "is_reserved": 0}, {"rental_uris": {"ios": "https://dc.lft.to/lastmile_qr_scan", "android": "https://dc.lft.to/lastmile_qr_scan"}, "fusion_lon": 0.0, "type": "electric_scooter", "bike_id": "ea4fea414b5c7b7c58354fd0f69aa77e", "name": "ea4fea414b5c7b7c58354fd0f69aa77e", "lat": 38.8921005, "is_disabled": 0, "lon": -76.98799700000001, "fusion_lat": 0.0, "is_reserved": 0}, {"rental_uris": {"ios": "https://dc.lft.to/lastmile_qr_scan", "android": "https://dc.lft.to/lastmile_qr_scan"}, "fusion_lon": 0.0, "type": "electric_scooter", "bike_id": "67c36e6f7e00bb2feae337188485bf09", "name": "67c36e6f7e00bb2feae337188485bf09", "lat": 38.90656083333333, "is_disabled": 0, "lon": -77.038673, "fusion_lat": 0.0, "is_reserved": 0}, {"rental_uris": {"ios": "https://dc.lft.to/lastmile_qr_scan", "android": "https://dc.lft.to/lastmile_qr_scan"}, "fusion_lon": 0.0, "type": "electric_scooter", "bike_id": "9b9adc611e2ab4f6949dc6bad75f4113", "name": "9b9adc611e2ab4f6949dc6bad75f4113", "lat": 38.907384, "is_disabled": 0, "lon": -77.03443616666667, "fusion_lat": 0.0, "is_reserved": 0}, {"rental_uris": {"ios": "https://dc.lft.to/lastmile_qr_scan", "android": "https://dc.lft.to/lastmile_qr_scan"}, "fusion_lon": 0.0, "type": "electric_scooter", "bike_id": "ed54dad6ba7f82340c4b4533c97d9c8f", "name": "ed54dad6ba7f82340c4b4533c97d9c8f", "lat": 38.90967583333333, "is_disabled": 0, "lon": -77.03143383333334, "fusion_lat": 0.0, "is_reserved": 0}, {"rental_uris": {"ios": "https://dc.lft.to/lastmile_qr_scan", "android": "https://dc.lft.to/lastmile_qr_scan"}, "fusion_lon": 0.0, "type": "electric_scooter", "bike_id": "ad156b462741c131e854f897e2e8802d", "name": "ad156b462741c131e854f897e2e8802d", "lat": 38.899113166666666, "is_disabled": 0, "lon": -76.93391583333333, "fusion_lat": 0.0, "is_reserved": 0}, {"rental_uris": {"ios": "https://dc.lft.to/lastmile_qr_scan", "android": "https://dc.lft.to/lastmile_qr_scan"}, "fusion_lon": 0.0, "type": "electric_scooter", "bike_id": "9bffe579178919ad484fb76df0491862", "name": "9bffe579178919ad484fb76df0491862", "lat": 38.92418, "is_disabled": 0, "lon": -77.05622183333334, "fusion_lat": 0.0, "is_reserved": 0}, {"rental_uris": {"ios": "https://dc.lft.to/lastmile_qr_scan", "android": "https://dc.lft.to/lastmile_qr_scan"}, "fusion_lon": 0.0, "type": "electric_scooter", "bike_id": "5d27c414c575756556cb98449341e164", "name": "5d27c414c575756556cb98449341e164", "lat": 38.89523633333334, "is_disabled": 0, "lon": -77.02412333333334, "fusion_lat": 0.0, "is_reserved": 0}, {"rental_uris": {"ios": "https://dc.lft.to/lastmile_qr_scan", "android": "https://dc.lft.to/lastmile_qr_scan"}, "fusion_lon": 0.0, "type": "electric_scooter", "bike_id": "f45f08a23a775ef01c006668a549f7f8", "name": "f45f08a23a775ef01c006668a549f7f8", "lat": 38.901815166666665, "is_disabled": 0, "lon": -77.02589366666666, "fusion_lat": 0.0, "is_reserved": 0}, {"rental_uris": {"ios": "https://dc.lft.to/lastmile_qr_scan", "android": "https://dc.lft.to/lastmile_qr_scan"}, "fusion_lon": 0.0, "type": "electric_bike", "bike_id": "7fb402d9f5d51a0db01ac9bf81661c22", "name": "7fb402d9f5d51a0db01ac9bf81661c22", "lat": 38.8821345, "is_disabled": 0, "lon": -77.11520366666667, "fusion_lat": 0.0, "is_reserved": 0}, {"rental_uris": {"ios": "https://dc.lft.to/lastmile_qr_scan", "android": "https://dc.lft.to/lastmile_qr_scan"}, "fusion_lon": 0.0, "type": "electric_scooter", "bike_id": "c0cb41944b5320c7b7156a7998af471b", "name": "c0cb41944b5320c7b7156a7998af471b", "lat": 38.9141615, "is_disabled": 0, "lon": -77.0399385, "fusion_lat": 0.0, "is_reserved": 0}, {"rental_uris": {"ios": "https://dc.lft.to/lastmile_qr_scan", "android": "https://dc.lft.to/lastmile_qr_scan"}, "fusion_lon": 0.0, "type": "electric_scooter", "bike_id": "a60678914e1ca8ebfbdb74cd22e40685", "name": "a60678914e1ca8ebfbdb74cd22e40685", "lat": 38.92861633333333, "is_disabled": 0, "lon": -77.03714116666667, "fusion_lat": 0.0, "is_reserved": 0}, {"rental_uris": {"ios": "https://dc.lft.to/lastmile_qr_scan", "android": "https://dc.lft.to/lastmile_qr_scan"}, "fusion_lon": 0.0, "type": "electric_scooter", "bike_id": "7d7004fb8694588038112bcfad364b36", "name": "7d7004fb8694588038112bcfad364b36", "lat": 38.90731733333333, "is_disabled": 0, "lon": -77.03451083333333, "fusion_lat": 0.0, "is_reserved": 0}, {"rental_uris": {"ios": "https://dc.lft.to/lastmile_qr_scan", "android": "https://dc.lft.to/lastmile_qr_scan"}, "fusion_lon": 0.0, "type": "electric_scooter", "bike_id": "e4d49530677d02e5526195879afc2a4d", "name": "e4d49530677d02e5526195879afc2a4d", "lat": 38.90729966666667, "is_disabled": 0, "lon": -77.0228425, "fusion_lat": 0.0, "is_reserved": 0}, {"rental_uris": {"ios": "https://dc.lft.to/lastmile_qr_scan", "android": "https://dc.lft.to/lastmile_qr_scan"}, "fusion_lon": 0.0, "type": "electric_scooter", "bike_id": "91af1f43eab2ac84a4797a87c0a6be1e", "name": "91af1f43eab2ac84a4797a87c0a6be1e", "lat": 38.9051005, "is_disabled": 0, "lon": -77.03453166666667, "fusion_lat": 0.0, "is_reserved": 0}, {"rental_uris": {"ios": "https://dc.lft.to/lastmile_qr_scan", "android": "https://dc.lft.to/lastmile_qr_scan"}, "fusion_lon": 0.0, "type": "electric_scooter", "bike_id": "92d936e61b55009e93df0f2e7d702573", "name": "92d936e61b55009e93df0f2e7d702573", "lat": 38.917045, "is_disabled": 0, "lon": -77.0272015, "fusion_lat": 0.0, "is_reserved": 0}, {"rental_uris": {"ios": "https://dc.lft.to/lastmile_qr_scan", "android": "https://dc.lft.to/lastmile_qr_scan"}, "fusion_lon": 0.0, "type": "electric_scooter", "bike_id": "021ae312d893ff9de86fc10530de5f50", "name": "021ae312d893ff9de86fc10530de5f50", "lat": 38.90137466666667, "is_disabled": 0, "lon": -77.03986833333333, "fusion_lat": 0.0, "is_reserved": 0}, {"rental_uris": {"ios": "https://dc.lft.to/lastmile_qr_scan", "android": "https://dc.lft.to/lastmile_qr_scan"}, "fusion_lon": 0.0, "type": "electric_scooter", "bike_id": "32b00471fe57a4425727d7b6bc80b0bb", "name": "32b00471fe57a4425727d7b6bc80b0bb", "lat": 38.8935055, "is_disabled": 0, "lon": -76.98469283333333, "fusion_lat": 0.0, "is_reserved": 0}, {"rental_uris": {"ios": "https://dc.lft.to/lastmile_qr_scan", "android": "https://dc.lft.to/lastmile_qr_scan"}, "fusion_lon": 0.0, "type": "electric_scooter", "bike_id": "8e7042d449849f834d74e20783bbb979", "name": "8e7042d449849f834d74e20783bbb979", "lat": 38.8922165, "is_disabled": 0, "lon": -77.03180783333333, "fusion_lat": 0.0, "is_reserved": 0}, {"rental_uris": {"ios": "https://dc.lft.to/lastmile_qr_scan", "android": "https://dc.lft.to/lastmile_qr_scan"}, "fusion_lon": 0.0, "type": "electric_scooter", "bike_id": "42a6cd9a105203a33c7211e07e520ee9", "name": "42a6cd9a105203a33c7211e07e520ee9", "lat": 38.887417666666664, "is_disabled": 0, "lon": -77.01529866666667, "fusion_lat": 0.0, "is_reserved": 0}, {"rental_uris": {"ios": "https://dc.lft.to/lastmile_qr_scan", "android": "https://dc.lft.to/lastmile_qr_scan"}, "fusion_lon": 0.0, "type": "electric_scooter", "bike_id": "9cc6295a6c5efeaca88b5006b5c7c05a", "name": "9cc6295a6c5efeaca88b5006b5c7c05a", "lat": 38.91813366666667, "is_disabled": 0, "lon": -77.02475083333333, "fusion_lat": 0.0, "is_reserved": 0}, {"rental_uris": {"ios": "https://dc.lft.to/lastmile_qr_scan", "android": "https://dc.lft.to/lastmile_qr_scan"}, "fusion_lon": 0.0, "type": "electric_bike", "bike_id": "6c01105c0d8acd2b4bde380cc775511a", "name": "6c01105c0d8acd2b4bde380cc775511a", "lat": 38.94554333333333, "is_disabled": 0, "lon": -77.0510795, "fusion_lat": 0.0, "is_reserved": 0}, {"rental_uris": {"ios": "https://dc.lft.to/lastmile_qr_scan", "android": "https://dc.lft.to/lastmile_qr_scan"}, "fusion_lon": 0.0, "type": "electric_scooter", "bike_id": "00a5fd1a8b3da05e3092067434b2ee4a", "name": "00a5fd1a8b3da05e3092067434b2ee4a", "lat": 38.905486333333336, "is_disabled": 0, "lon": -77.04441833333334, "fusion_lat": 0.0, "is_reserved": 0}, {"rental_uris": {"ios": "https://dc.lft.to/lastmile_qr_scan", "android": "https://dc.lft.to/lastmile_qr_scan"}, "fusion_lon": 0.0, "type": "electric_scooter", "bike_id": "715618185a7e425c38cfdbb86c601ef4", "name": "715618185a7e425c38cfdbb86c601ef4", "lat": 38.90008366666667, "is_disabled": 0, "lon": -77.0437045, "fusion_lat": 0.0, "is_reserved": 0}, {"rental_uris": {"ios": "https://dc.lft.to/lastmile_qr_scan", "android": "https://dc.lft.to/lastmile_qr_scan"}, "fusion_lon": 0.0, "type": "electric_scooter", "bike_id": "9c49564cfac27738a29266100786e896", "name": "9c49564cfac27738a29266100786e896", "lat": 38.92812683333333, "is_disabled": 0, "lon": -77.02349783333334, "fusion_lat": 0.0, "is_reserved": 0}, {"rental_uris": {"ios": "https://dc.lft.to/lastmile_qr_scan", "android": "https://dc.lft.to/lastmile_qr_scan"}, "fusion_lon": 0.0, "type": "electric_scooter", "bike_id": "462c687147f29a1d505c092d5ffdfbda", "name": "462c687147f29a1d505c092d5ffdfbda", "lat": 38.90632166666666, "is_disabled": 0, "lon": -77.034521, "fusion_lat": 0.0, "is_reserved": 0}, {"rental_uris": {"ios": "https://dc.lft.to/lastmile_qr_scan", "android": "https://dc.lft.to/lastmile_qr_scan"}, "fusion_lon": 0.0, "type": "electric_bike", "bike_id": "4bba2e2f20964d1803bd53562e9a6b51", "name": "4bba2e2f20964d1803bd53562e9a6b51", "lat": 38.9447195, "is_disabled": 0, "lon": -77.00645166666666, "fusion_lat": 0.0, "is_reserved": 0}, {"rental_uris": {"ios": "https://dc.lft.to/lastmile_qr_scan", "android": "https://dc.lft.to/lastmile_qr_scan"}, "fusion_lon": 0.0, "type": "electric_scooter", "bike_id": "ac853e3aabd9a67cf96f1d4270d519e5", "name": "ac853e3aabd9a67cf96f1d4270d519e5", "lat": 38.9216095, "is_disabled": 0, "lon": -76.994013, "fusion_lat": 0.0, "is_reserved": 0}, {"rental_uris": {"ios": "https://dc.lft.to/lastmile_qr_scan", "android": "https://dc.lft.to/lastmile_qr_scan"}, "fusion_lon": 0.0, "type": "electric_scooter", "bike_id": "7e9efe29547ce0f8dd17c441c3d573f1", "name": "7e9efe29547ce0f8dd17c441c3d573f1", "lat": 38.934268, "is_disabled": 0, "lon": -77.05838866666667, "fusion_lat": 0.0, "is_reserved": 0}, {"rental_uris": {"ios": "https://dc.lft.to/lastmile_qr_scan", "android": "https://dc.lft.to/lastmile_qr_scan"}, "fusion_lon": 0.0, "type": "electric_scooter", "bike_id": "507a14160aa4aab773b14f8c3443b11b", "name": "507a14160aa4aab773b14f8c3443b11b", "lat": 38.913320666666664, "is_disabled": 0, "lon": -77.04860316666667, "fusion_lat": 0.0, "is_reserved": 0}, {"rental_uris": {"ios": "https://dc.lft.to/lastmile_qr_scan", "android": "https://dc.lft.to/lastmile_qr_scan"}, "fusion_lon": 0.0, "type": "electric_scooter", "bike_id": "18c147d941211277c4be69d4b738a506", "name": "18c147d941211277c4be69d4b738a506", "lat": 38.9098935, "is_disabled": 0, "lon": -77.0320095, "fusion_lat": 0.0, "is_reserved": 0}, {"rental_uris": {"ios": "https://dc.lft.to/lastmile_qr_scan", "android": "https://dc.lft.to/lastmile_qr_scan"}, "fusion_lon": 0.0, "type": "electric_scooter", "bike_id": "d1a210febd33d8841039f71f68e05a1e", "name": "d1a210febd33d8841039f71f68e05a1e", "lat": 38.926565833333335, "is_disabled": 0, "lon": -77.0371195, "fusion_lat": 0.0, "is_reserved": 0}, {"rental_uris": {"ios": "https://dc.lft.to/lastmile_qr_scan", "android": "https://dc.lft.to/lastmile_qr_scan"}, "fusion_lon": 0.0, "type": "electric_scooter", "bike_id": "1603cab671a1aefbaa3e1356d5664c7f", "name": "1603cab671a1aefbaa3e1356d5664c7f", "lat": 38.86360283333333, "is_disabled": 0, "lon": -76.9905325, "fusion_lat": 0.0, "is_reserved": 0}, {"rental_uris": {"ios": "https://dc.lft.to/lastmile_qr_scan", "android": "https://dc.lft.to/lastmile_qr_scan"}, "fusion_lon": 0.0, "type": "electric_scooter", "bike_id": "e42c3f6317e3ff49702272bb7e6dce30", "name": "e42c3f6317e3ff49702272bb7e6dce30", "lat": 38.904298, "is_disabled": 0, "lon": -77.04366533333334, "fusion_lat": 0.0, "is_reserved": 0}, {"rental_uris": {"ios": "https://dc.lft.to/lastmile_qr_scan", "android": "https://dc.lft.to/lastmile_qr_scan"}, "fusion_lon": 0.0, "type": "electric_scooter", "bike_id": "15e05441cfae33f144805cf59a923c83", "name": "15e05441cfae33f144805cf59a923c83", "lat": 38.9024205, "is_disabled": 0, "lon": -77.02680783333334, "fusion_lat": 0.0, "is_reserved": 0}, {"rental_uris": {"ios": "https://dc.lft.to/lastmile_qr_scan", "android": "https://dc.lft.to/lastmile_qr_scan"}, "fusion_lon": 0.0, "type": "electric_scooter", "bike_id": "7a1b573405d237c9c2604db0b55fdff4", "name": "7a1b573405d237c9c2604db0b55fdff4", "lat": 38.9017465, "is_disabled": 0, "lon": -77.018777, "fusion_lat": 0.0, "is_reserved": 0}, {"rental_uris": {"ios": "https://dc.lft.to/lastmile_qr_scan", "android": "https://dc.lft.to/lastmile_qr_scan"}, "fusion_lon": 0.0, "type": "electric_scooter", "bike_id": "695fa1a6196eb6d6f97be575541e0493", "name": "695fa1a6196eb6d6f97be575541e0493", "lat": 38.898183, "is_disabled": 0, "lon": -77.03160533333333, "fusion_lat": 0.0, "is_reserved": 0}, {"rental_uris": {"ios": "https://dc.lft.to/lastmile_qr_scan", "android": "https://dc.lft.to/lastmile_qr_scan"}, "fusion_lon": 0.0, "type": "electric_scooter", "bike_id": "2c79b3547f45caa796b442617c2552a4", "name": "2c79b3547f45caa796b442617c2552a4", "lat": 38.92153283333333, "is_disabled": 0, "lon": -77.03862666666667, "fusion_lat": 0.0, "is_reserved": 0}, {"rental_uris": {"ios": "https://dc.lft.to/lastmile_qr_scan", "android": "https://dc.lft.to/lastmile_qr_scan"}, "fusion_lon": 0.0, "type": "electric_scooter", "bike_id": "0a53b6c9c358e56e42d8014ef06222a8", "name": "0a53b6c9c358e56e42d8014ef06222a8", "lat": 38.93112433333334, "is_disabled": 0, "lon": -77.01247216666667, "fusion_lat": 0.0, "is_reserved": 0}, {"rental_uris": {"ios": "https://dc.lft.to/lastmile_qr_scan", "android": "https://dc.lft.to/lastmile_qr_scan"}, "fusion_lon": 0.0, "type": "electric_scooter", "bike_id": "7fdcaea7c85261b7527bdd167708150f", "name": "7fdcaea7c85261b7527bdd167708150f", "lat": 38.947518333333335, "is_disabled": 0, "lon": -77.02979016666667, "fusion_lat": 0.0, "is_reserved": 0}, {"rental_uris": {"ios": "https://dc.lft.to/lastmile_qr_scan", "android": "https://dc.lft.to/lastmile_qr_scan"}, "fusion_lon": 0.0, "type": "electric_scooter", "bike_id": "7001e2d4b72553679d470ddc61923de9", "name": "7001e2d4b72553679d470ddc61923de9", "lat": 38.902484666666666, "is_disabled": 0, "lon": -77.034338, "fusion_lat": 0.0, "is_reserved": 0}, {"rental_uris": {"ios": "https://dc.lft.to/lastmile_qr_scan", "android": "https://dc.lft.to/lastmile_qr_scan"}, "fusion_lon": 0.0, "type": "electric_bike", "bike_id": "2faf9735f64aea48e494feeab86907bb", "name": "2faf9735f64aea48e494feeab86907bb", "lat": 38.86170633333333, "is_disabled": 0, "lon": -77.09061983333334, "fusion_lat": 0.0, "is_reserved": 0}, {"rental_uris": {"ios": "https://dc.lft.to/lastmile_qr_scan", "android": "https://dc.lft.to/lastmile_qr_scan"}, "fusion_lon": 0.0, "type": "electric_scooter", "bike_id": "343fcdb362505d6bd63cdd3f6e684060", "name": "343fcdb362505d6bd63cdd3f6e684060", "lat": 38.867105333333335, "is_disabled": 0, "lon": -76.98730566666667, "fusion_lat": 0.0, "is_reserved": 0}, {"rental_uris": {"ios": "https://dc.lft.to/lastmile_qr_scan", "android": "https://dc.lft.to/lastmile_qr_scan"}, "fusion_lon": 0.0, "type": "electric_scooter", "bike_id": "8f6f8d2e6d3386fcd69410c6e3650899", "name": "8f6f8d2e6d3386fcd69410c6e3650899", "lat": 38.91645033333333, "is_disabled": 0, "lon": -77.02238266666667, "fusion_lat": 0.0, "is_reserved": 0}, {"rental_uris": {"ios": "https://dc.lft.to/lastmile_qr_scan", "android": "https://dc.lft.to/lastmile_qr_scan"}, "fusion_lon": 0.0, "type": "electric_scooter", "bike_id": "dc4fb812931bd7b399e3c27bbba9ebe2", "name": "dc4fb812931bd7b399e3c27bbba9ebe2", "lat": 38.8933025, "is_disabled": 0, "lon": -77.05025866666666, "fusion_lat": 0.0, "is_reserved": 0}, {"rental_uris": {"ios": "https://dc.lft.to/lastmile_qr_scan", "android": "https://dc.lft.to/lastmile_qr_scan"}, "fusion_lon": 0.0, "type": "electric_scooter", "bike_id": "0330408a75c93951aef4ed551cb54b8e", "name": "0330408a75c93951aef4ed551cb54b8e", "lat": 38.86696283333333, "is_disabled": 0, "lon": -76.98709766666667, "fusion_lat": 0.0, "is_reserved": 0}, {"rental_uris": {"ios": "https://dc.lft.to/lastmile_qr_scan", "android": "https://dc.lft.to/lastmile_qr_scan"}, "fusion_lon": 0.0, "type": "electric_scooter", "bike_id": "253c06dd6d12df5252ebe2ab42da412d", "name": "253c06dd6d12df5252ebe2ab42da412d", "lat": 38.89836833333333, "is_disabled": 0, "lon": -76.94631716666666, "fusion_lat": 0.0, "is_reserved": 0}, {"rental_uris": {"ios": "https://dc.lft.to/lastmile_qr_scan", "android": "https://dc.lft.to/lastmile_qr_scan"}, "fusion_lon": 0.0, "type": "electric_scooter", "bike_id": "d700e0ba12df84610f832002995cf611", "name": "d700e0ba12df84610f832002995cf611", "lat": 38.95657883333333, "is_disabled": 0, "lon": -77.08369666666667, "fusion_lat": 0.0, "is_reserved": 0}, {"rental_uris": {"ios": "https://dc.lft.to/lastmile_qr_scan", "android": "https://dc.lft.to/lastmile_qr_scan"}, "fusion_lon": 0.0, "type": "electric_scooter", "bike_id": "8abf7199eb40245bbef86206a8b2068b", "name": "8abf7199eb40245bbef86206a8b2068b", "lat": 38.92246466666667, "is_disabled": 0, "lon": -77.041291, "fusion_lat": 0.0, "is_reserved": 0}, {"rental_uris": {"ios": "https://dc.lft.to/lastmile_qr_scan", "android": "https://dc.lft.to/lastmile_qr_scan"}, "fusion_lon": 0.0, "type": "electric_scooter", "bike_id": "5ae10cd0cdd2e951369393438e1d1ee7", "name": "5ae10cd0cdd2e951369393438e1d1ee7", "lat": 38.9038165, "is_disabled": 0, "lon": -77.03448483333334, "fusion_lat": 0.0, "is_reserved": 0}, {"rental_uris": {"ios": "https://dc.lft.to/lastmile_qr_scan", "android": "https://dc.lft.to/lastmile_qr_scan"}, "fusion_lon": 0.0, "type": "electric_scooter", "bike_id": "840ed4cbf120379b8e79e6dd9c476243", "name": "840ed4cbf120379b8e79e6dd9c476243", "lat": 38.936165, "is_disabled": 0, "lon": -77.03249716666667, "fusion_lat": 0.0, "is_reserved": 0}, {"rental_uris": {"ios": "https://dc.lft.to/lastmile_qr_scan", "android": "https://dc.lft.to/lastmile_qr_scan"}, "fusion_lon": 0.0, "type": "electric_bike", "bike_id": "b9f21bfd1d43e6678257b3c3a8eb2fdc", "name": "b9f21bfd1d43e6678257b3c3a8eb2fdc", "lat": 38.92641883333334, "is_disabled": 0, "lon": -77.02838816666667, "fusion_lat": 0.0, "is_reserved": 0}, {"rental_uris": {"ios": "https://dc.lft.to/lastmile_qr_scan", "android": "https://dc.lft.to/lastmile_qr_scan"}, "fusion_lon": 0.0, "type": "electric_scooter", "bike_id": "26bc263ae3691e3be7048c4170c614de", "name": "26bc263ae3691e3be7048c4170c614de", "lat": 38.906616166666666, "is_disabled": 0, "lon": -77.04335616666667, "fusion_lat": 0.0, "is_reserved": 0}, {"rental_uris": {"ios": "https://dc.lft.to/lastmile_qr_scan", "android": "https://dc.lft.to/lastmile_qr_scan"}, "fusion_lon": 0.0, "type": "electric_scooter", "bike_id": "2fd70bc3685f3b44bd2c4d2ca730c6d1", "name": "2fd70bc3685f3b44bd2c4d2ca730c6d1", "lat": 38.907371499999996, "is_disabled": 0, "lon": -77.03447583333333, "fusion_lat": 0.0, "is_reserved": 0}, {"rental_uris": {"ios": "https://dc.lft.to/lastmile_qr_scan", "android": "https://dc.lft.to/lastmile_qr_scan"}, "fusion_lon": 0.0, "type": "electric_bike", "bike_id": "2473b6957937152dd2df1642441bf2a0", "name": "2473b6957937152dd2df1642441bf2a0", "lat": 38.878815833333334, "is_disabled": 0, "lon": -77.02293116666667, "fusion_lat": 0.0, "is_reserved": 0}, {"rental_uris": {"ios": "https://dc.lft.to/lastmile_qr_scan", "android": "https://dc.lft.to/lastmile_qr_scan"}, "fusion_lon": 0.0, "type": "electric_scooter", "bike_id": "72d316f9c983de0b022d49a7ae6a0d25", "name": "72d316f9c983de0b022d49a7ae6a0d25", "lat": 38.89733433333333, "is_disabled": 0, "lon": -77.042372, "fusion_lat": 0.0, "is_reserved": 0}, {"rental_uris": {"ios": "https://dc.lft.to/lastmile_qr_scan", "android": "https://dc.lft.to/lastmile_qr_scan"}, "fusion_lon": 0.0, "type": "electric_scooter", "bike_id": "d2cf9b81dd13959eba365c08768446a7", "name": "d2cf9b81dd13959eba365c08768446a7", "lat": 38.91845566666667, "is_disabled": 0, "lon": -77.032037, "fusion_lat": 0.0, "is_reserved": 0}, {"rental_uris": {"ios": "https://dc.lft.to/lastmile_qr_scan", "android": "https://dc.lft.to/lastmile_qr_scan"}, "fusion_lon": 0.0, "type": "electric_scooter", "bike_id": "b1656a789115d3fea002ae3fdc5640f4", "name": "b1656a789115d3fea002ae3fdc5640f4", "lat": 38.89838266666667, "is_disabled": 0, "lon": -77.02916633333334, "fusion_lat": 0.0, "is_reserved": 0}, {"rental_uris": {"ios": "https://dc.lft.to/lastmile_qr_scan", "android": "https://dc.lft.to/lastmile_qr_scan"}, "fusion_lon": 0.0, "type": "electric_scooter", "bike_id": "d6c4b809b94b9071fce69fbacbcfe999", "name": "d6c4b809b94b9071fce69fbacbcfe999", "lat": 38.91688666666667, "is_disabled": 0, "lon": -77.0273455, "fusion_lat": 0.0, "is_reserved": 0}, {"rental_uris": {"ios": "https://dc.lft.to/lastmile_qr_scan", "android": "https://dc.lft.to/lastmile_qr_scan"}, "fusion_lon": 0.0, "type": "electric_bike", "bike_id": "ef8d056e698ec1d659d35c38bf4b05a0", "name": "ef8d056e698ec1d659d35c38bf4b05a0", "lat": 39.02495566666666, "is_disabled": 0, "lon": -77.12565966666666, "fusion_lat": 0.0, "is_reserved": 0}, {"rental_uris": {"ios": "https://dc.lft.to/lastmile_qr_scan", "android": "https://dc.lft.to/lastmile_qr_scan"}, "fusion_lon": 0.0, "type": "electric_scooter", "bike_id": "cde9ab0b1de3b098c23f05daf3ccf9c0", "name": "cde9ab0b1de3b098c23f05daf3ccf9c0", "lat": 38.943154, "is_disabled": 0, "lon": -77.06172833333333, "fusion_lat": 0.0, "is_reserved": 0}, {"rental_uris": {"ios": "https://dc.lft.to/lastmile_qr_scan", "android": "https://dc.lft.to/lastmile_qr_scan"}, "fusion_lon": 0.0, "type": "electric_scooter", "bike_id": "54642f1e6dd29a258f119e8ca8651a90", "name": "54642f1e6dd29a258f119e8ca8651a90", "lat": 38.916126, "is_disabled": 0, "lon": -77.03165633333333, "fusion_lat": 0.0, "is_reserved": 0}, {"rental_uris": {"ios": "https://dc.lft.to/lastmile_qr_scan", "android": "https://dc.lft.to/lastmile_qr_scan"}, "fusion_lon": 0.0, "type": "electric_scooter", "bike_id": "2d84a29b8bbf576e1154e0e405730280", "name": "2d84a29b8bbf576e1154e0e405730280", "lat": 38.89748816666667, "is_disabled": 0, "lon": -77.00360616666667, "fusion_lat": 0.0, "is_reserved": 0}, {"rental_uris": {"ios": "https://dc.lft.to/lastmile_qr_scan", "android": "https://dc.lft.to/lastmile_qr_scan"}, "fusion_lon": 0.0, "type": "electric_scooter", "bike_id": "ddad6919fdc516106c357138e46b7db6", "name": "ddad6919fdc516106c357138e46b7db6", "lat": 38.939302833333336, "is_disabled": 0, "lon": -77.07476833333334, "fusion_lat": 0.0, "is_reserved": 0}, {"rental_uris": {"ios": "https://dc.lft.to/lastmile_qr_scan", "android": "https://dc.lft.to/lastmile_qr_scan"}, "fusion_lon": 0.0, "type": "electric_scooter", "bike_id": "32d0f4cf20b7a27ad4e3ce26245f0e1f", "name": "32d0f4cf20b7a27ad4e3ce26245f0e1f", "lat": 38.92631516666667, "is_disabled": 0, "lon": -77.03505466666667, "fusion_lat": 0.0, "is_reserved": 0}, {"rental_uris": {"ios": "https://dc.lft.to/lastmile_qr_scan", "android": "https://dc.lft.to/lastmile_qr_scan"}, "fusion_lon": 0.0, "type": "electric_scooter", "bike_id": "d3b15de216ceae477248b733c3a5f877", "name": "d3b15de216ceae477248b733c3a5f877", "lat": 38.890123, "is_disabled": 0, "lon": -76.93834983333333, "fusion_lat": 0.0, "is_reserved": 0}, {"rental_uris": {"ios": "https://dc.lft.to/lastmile_qr_scan", "android": "https://dc.lft.to/lastmile_qr_scan"}, "fusion_lon": 0.0, "type": "electric_scooter", "bike_id": "f556aba620c739264f4b0ba0ff340a85", "name": "f556aba620c739264f4b0ba0ff340a85", "lat": 38.93086316666667, "is_disabled": 0, "lon": -77.03620933333333, "fusion_lat": 0.0, "is_reserved": 0}, {"rental_uris": {"ios": "https://dc.lft.to/lastmile_qr_scan", "android": "https://dc.lft.to/lastmile_qr_scan"}, "fusion_lon": 0.0, "type": "electric_scooter", "bike_id": "040b0ec72adf77157e884f6c9cdb2369", "name": "040b0ec72adf77157e884f6c9cdb2369", "lat": 38.9305645, "is_disabled": 0, "lon": -77.02958966666667, "fusion_lat": 0.0, "is_reserved": 0}, {"rental_uris": {"ios": "https://dc.lft.to/lastmile_qr_scan", "android": "https://dc.lft.to/lastmile_qr_scan"}, "fusion_lon": 0.0, "type": "electric_scooter", "bike_id": "c2f40efeedec2d71f06527d016a1807a", "name": "c2f40efeedec2d71f06527d016a1807a", "lat": 38.925767, "is_disabled": 0, "lon": -76.99493016666666, "fusion_lat": 0.0, "is_reserved": 0}, {"rental_uris": {"ios": "https://dc.lft.to/lastmile_qr_scan", "android": "https://dc.lft.to/lastmile_qr_scan"}, "fusion_lon": 0.0, "type": "electric_scooter", "bike_id": "aa10ce5183143aa32bdc8d9abdf6e69d", "name": "aa10ce5183143aa32bdc8d9abdf6e69d", "lat": 38.919667833333335, "is_disabled": 0, "lon": -77.04630683333333, "fusion_lat": 0.0, "is_reserved": 0}, {"rental_uris": {"ios": "https://dc.lft.to/lastmile_qr_scan", "android": "https://dc.lft.to/lastmile_qr_scan"}, "fusion_lon": 0.0, "type": "electric_scooter", "bike_id": "2995f99bc12d6394e418d1dfe54a5748", "name": "2995f99bc12d6394e418d1dfe54a5748", "lat": 38.90638533333333, "is_disabled": 0, "lon": -77.006038, "fusion_lat": 0.0, "is_reserved": 0}, {"rental_uris": {"ios": "https://dc.lft.to/lastmile_qr_scan", "android": "https://dc.lft.to/lastmile_qr_scan"}, "fusion_lon": 0.0, "type": "electric_scooter", "bike_id": "65fdbb64dd41e05054ca4684e95e84af", "name": "65fdbb64dd41e05054ca4684e95e84af", "lat": 38.899982, "is_disabled": 0, "lon": -76.92230066666667, "fusion_lat": 0.0, "is_reserved": 0}, {"rental_uris": {"ios": "https://dc.lft.to/lastmile_qr_scan", "android": "https://dc.lft.to/lastmile_qr_scan"}, "fusion_lon": 0.0, "type": "electric_scooter", "bike_id": "2b3ee769241e2912cc08cbfb10176a61", "name": "2b3ee769241e2912cc08cbfb10176a61", "lat": 38.899288166666665, "is_disabled": 0, "lon": -77.04023583333333, "fusion_lat": 0.0, "is_reserved": 0}, {"rental_uris": {"ios": "https://dc.lft.to/lastmile_qr_scan", "android": "https://dc.lft.to/lastmile_qr_scan"}, "fusion_lon": 0.0, "type": "electric_scooter", "bike_id": "a2e73feaf2ceb216175b495e33bdb5ef", "name": "a2e73feaf2ceb216175b495e33bdb5ef", "lat": 38.88300516666666, "is_disabled": 0, "lon": -76.94285383333333, "fusion_lat": 0.0, "is_reserved": 0}, {"rental_uris": {"ios": "https://dc.lft.to/lastmile_qr_scan", "android": "https://dc.lft.to/lastmile_qr_scan"}, "fusion_lon": 0.0, "type": "electric_scooter", "bike_id": "c2202538b22890d4c03d57b976f7a0d2", "name": "c2202538b22890d4c03d57b976f7a0d2", "lat": 38.918132166666666, "is_disabled": 0, "lon": -77.0415715, "fusion_lat": 0.0, "is_reserved": 0}, {"rental_uris": {"ios": "https://dc.lft.to/lastmile_qr_scan", "android": "https://dc.lft.to/lastmile_qr_scan"}, "fusion_lon": 0.0, "type": "electric_scooter", "bike_id": "5173bcda1c9066d7722c96b1c222b017", "name": "5173bcda1c9066d7722c96b1c222b017", "lat": 38.9207465, "is_disabled": 0, "lon": -77.02387883333333, "fusion_lat": 0.0, "is_reserved": 0}, {"rental_uris": {"ios": "https://dc.lft.to/lastmile_qr_scan", "android": "https://dc.lft.to/lastmile_qr_scan"}, "fusion_lon": 0.0, "type": "electric_scooter", "bike_id": "81db64e916229ce2a5059cf59189b3b8", "name": "81db64e916229ce2a5059cf59189b3b8", "lat": 38.926029, "is_disabled": 0, "lon": -77.021566, "fusion_lat": 0.0, "is_reserved": 0}, {"rental_uris": {"ios": "https://dc.lft.to/lastmile_qr_scan", "android": "https://dc.lft.to/lastmile_qr_scan"}, "fusion_lon": 0.0, "type": "electric_scooter", "bike_id": "ff747640d7b8185a1ecaf11d95886690", "name": "ff747640d7b8185a1ecaf11d95886690", "lat": 38.84880416666667, "is_disabled": 0, "lon": -77.00514666666666, "fusion_lat": 0.0, "is_reserved": 0}, {"rental_uris": {"ios": "https://dc.lft.to/lastmile_qr_scan", "android": "https://dc.lft.to/lastmile_qr_scan"}, "fusion_lon": 0.0, "type": "electric_scooter", "bike_id": "54809306a88660800768f4ec632218a0", "name": "54809306a88660800768f4ec632218a0", "lat": 38.877744, "is_disabled": 0, "lon": -77.01436666666666, "fusion_lat": 0.0, "is_reserved": 0}, {"rental_uris": {"ios": "https://dc.lft.to/lastmile_qr_scan", "android": "https://dc.lft.to/lastmile_qr_scan"}, "fusion_lon": 0.0, "type": "electric_bike", "bike_id": "5ed097a63685547cda4294d9c4ee74b8", "name": "5ed097a63685547cda4294d9c4ee74b8", "lat": 38.981327, "is_disabled": 0, "lon": -77.00764716666667, "fusion_lat": 0.0, "is_reserved": 0}, {"rental_uris": {"ios": "https://dc.lft.to/lastmile_qr_scan", "android": "https://dc.lft.to/lastmile_qr_scan"}, "fusion_lon": 0.0, "type": "electric_scooter", "bike_id": "40eb44245df9d0719c2fabf38cc9e5b0", "name": "40eb44245df9d0719c2fabf38cc9e5b0", "lat": 38.900511, "is_disabled": 0, "lon": -77.00751533333333, "fusion_lat": 0.0, "is_reserved": 0}, {"rental_uris": {"ios": "https://dc.lft.to/lastmile_qr_scan", "android": "https://dc.lft.to/lastmile_qr_scan"}, "fusion_lon": 0.0, "type": "electric_scooter", "bike_id": "b292a248f56d187bcd5fc6e094ba84ea", "name": "b292a248f56d187bcd5fc6e094ba84ea", "lat": 38.91866783333333, "is_disabled": 0, "lon": -77.0445425, "fusion_lat": 0.0, "is_reserved": 0}, {"rental_uris": {"ios": "https://dc.lft.to/lastmile_qr_scan", "android": "https://dc.lft.to/lastmile_qr_scan"}, "fusion_lon": 0.0, "type": "electric_scooter", "bike_id": "5a9048e926bc6f53f1c24f4a36163af4", "name": "5a9048e926bc6f53f1c24f4a36163af4", "lat": 38.90836766666666, "is_disabled": 0, "lon": -76.996982, "fusion_lat": 0.0, "is_reserved": 0}, {"rental_uris": {"ios": "https://dc.lft.to/lastmile_qr_scan", "android": "https://dc.lft.to/lastmile_qr_scan"}, "fusion_lon": 0.0, "type": "electric_scooter", "bike_id": "c533f5fc39dc5bc073b7177b018d04e2", "name": "c533f5fc39dc5bc073b7177b018d04e2", "lat": 38.9061325, "is_disabled": 0, "lon": -77.03948033333333, "fusion_lat": 0.0, "is_reserved": 0}, {"rental_uris": {"ios": "https://dc.lft.to/lastmile_qr_scan", "android": "https://dc.lft.to/lastmile_qr_scan"}, "fusion_lon": 0.0, "type": "electric_bike", "bike_id": "01beaf34f618b09bb2fee8bf82d335b9", "name": "01beaf34f618b09bb2fee8bf82d335b9", "lat": 38.8451595, "is_disabled": 0, "lon": -77.07795116666667, "fusion_lat": 0.0, "is_reserved": 0}, {"rental_uris": {"ios": "https://dc.lft.to/lastmile_qr_scan", "android": "https://dc.lft.to/lastmile_qr_scan"}, "fusion_lon": 0.0, "type": "electric_scooter", "bike_id": "faca9abc2e9ef7bcfe2f2955edac3a4d", "name": "faca9abc2e9ef7bcfe2f2955edac3a4d", "lat": 38.924726, "is_disabled": 0, "lon": -77.02982233333333, "fusion_lat": 0.0, "is_reserved": 0}, {"rental_uris": {"ios": "https://dc.lft.to/lastmile_qr_scan", "android": "https://dc.lft.to/lastmile_qr_scan"}, "fusion_lon": 0.0, "type": "electric_scooter", "bike_id": "277dc27a14feaa20dc5f8cf8241a1148", "name": "277dc27a14feaa20dc5f8cf8241a1148", "lat": 38.920533166666665, "is_disabled": 0, "lon": -77.02608716666667, "fusion_lat": 0.0, "is_reserved": 0}, {"rental_uris": {"ios": "https://dc.lft.to/lastmile_qr_scan", "android": "https://dc.lft.to/lastmile_qr_scan"}, "fusion_lon": 0.0, "type": "electric_scooter", "bike_id": "ff4d56b430e7eccb3f731a55c54f73fc", "name": "ff4d56b430e7eccb3f731a55c54f73fc", "lat": 38.89607616666667, "is_disabled": 0, "lon": -77.0280145, "fusion_lat": 0.0, "is_reserved": 0}, {"rental_uris": {"ios": "https://dc.lft.to/lastmile_qr_scan", "android": "https://dc.lft.to/lastmile_qr_scan"}, "fusion_lon": 0.0, "type": "electric_scooter", "bike_id": "0238f272896699ab87a8b7cf8ed17750", "name": "0238f272896699ab87a8b7cf8ed17750", "lat": 38.862089166666664, "is_disabled": 0, "lon": -76.99470983333333, "fusion_lat": 0.0, "is_reserved": 0}, {"rental_uris": {"ios": "https://dc.lft.to/lastmile_qr_scan", "android": "https://dc.lft.to/lastmile_qr_scan"}, "fusion_lon": 0.0, "type": "electric_scooter", "bike_id": "99aa2c39e27541c67ee2093cdab9427b", "name": "99aa2c39e27541c67ee2093cdab9427b", "lat": 38.9036305, "is_disabled": 0, "lon": -77.0626785, "fusion_lat": 0.0, "is_reserved": 0}, {"rental_uris": {"ios": "https://dc.lft.to/lastmile_qr_scan", "android": "https://dc.lft.to/lastmile_qr_scan"}, "fusion_lon": 0.0, "type": "electric_scooter", "bike_id": "d3e3c1c3012fc13797aef5c21fc8f223", "name": "d3e3c1c3012fc13797aef5c21fc8f223", "lat": 38.905717833333334, "is_disabled": 0, "lon": -77.00396033333334, "fusion_lat": 0.0, "is_reserved": 0}, {"rental_uris": {"ios": "https://dc.lft.to/lastmile_qr_scan", "android": "https://dc.lft.to/lastmile_qr_scan"}, "fusion_lon": 0.0, "type": "electric_scooter", "bike_id": "92bb9d74078fe1c175fa3e2fd925c345", "name": "92bb9d74078fe1c175fa3e2fd925c345", "lat": 38.91960666666667, "is_disabled": 0, "lon": -77.0317905, "fusion_lat": 0.0, "is_reserved": 0}, {"rental_uris": {"ios": "https://dc.lft.to/lastmile_qr_scan", "android": "https://dc.lft.to/lastmile_qr_scan"}, "fusion_lon": 0.0, "type": "electric_scooter", "bike_id": "edb764d086b6945f6c6d94c9fa42ad60", "name": "edb764d086b6945f6c6d94c9fa42ad60", "lat": 38.887043166666665, "is_disabled": 0, "lon": -77.01368233333334, "fusion_lat": 0.0, "is_reserved": 0}, {"rental_uris": {"ios": "https://dc.lft.to/lastmile_qr_scan", "android": "https://dc.lft.to/lastmile_qr_scan"}, "fusion_lon": 0.0, "type": "electric_scooter", "bike_id": "91ab8d26c4d69fb422b2a2ee992b5303", "name": "91ab8d26c4d69fb422b2a2ee992b5303", "lat": 38.9054885, "is_disabled": 0, "lon": -77.005538, "fusion_lat": 0.0, "is_reserved": 0}, {"rental_uris": {"ios": "https://dc.lft.to/lastmile_qr_scan", "android": "https://dc.lft.to/lastmile_qr_scan"}, "fusion_lon": 0.0, "type": "electric_scooter", "bike_id": "f119db5ea3b5c1477a6e02aa4cd6c052", "name": "f119db5ea3b5c1477a6e02aa4cd6c052", "lat": 38.90139, "is_disabled": 0, "lon": -77.01781216666667, "fusion_lat": 0.0, "is_reserved": 0}, {"rental_uris": {"ios": "https://dc.lft.to/lastmile_qr_scan", "android": "https://dc.lft.to/lastmile_qr_scan"}, "fusion_lon": 0.0, "type": "electric_scooter", "bike_id": "e4be4764e755c7760efea5d83e9570e3", "name": "e4be4764e755c7760efea5d83e9570e3", "lat": 38.9081905, "is_disabled": 0, "lon": -77.03936416666667, "fusion_lat": 0.0, "is_reserved": 0}, {"rental_uris": {"ios": "https://dc.lft.to/lastmile_qr_scan", "android": "https://dc.lft.to/lastmile_qr_scan"}, "fusion_lon": 0.0, "type": "electric_scooter", "bike_id": "8055c9f421ebe7d907d7262a1665ef9e", "name": "8055c9f421ebe7d907d7262a1665ef9e", "lat": 38.929064333333336, "is_disabled": 0, "lon": -77.0325365, "fusion_lat": 0.0, "is_reserved": 0}, {"rental_uris": {"ios": "https://dc.lft.to/lastmile_qr_scan", "android": "https://dc.lft.to/lastmile_qr_scan"}, "fusion_lon": 0.0, "type": "electric_scooter", "bike_id": "a1d58b266ff7ae622883130981f09ce7", "name": "a1d58b266ff7ae622883130981f09ce7", "lat": 38.9215365, "is_disabled": 0, "lon": -77.03456683333333, "fusion_lat": 0.0, "is_reserved": 0}, {"rental_uris": {"ios": "https://dc.lft.to/lastmile_qr_scan", "android": "https://dc.lft.to/lastmile_qr_scan"}, "fusion_lon": 0.0, "type": "electric_scooter", "bike_id": "4f64cdf77607ea7dba51f30b8cb26751", "name": "4f64cdf77607ea7dba51f30b8cb26751", "lat": 38.90459833333333, "is_disabled": 0, "lon": -77.048598, "fusion_lat": 0.0, "is_reserved": 0}, {"rental_uris": {"ios": "https://dc.lft.to/lastmile_qr_scan", "android": "https://dc.lft.to/lastmile_qr_scan"}, "fusion_lon": 0.0, "type": "electric_scooter", "bike_id": "d621ca2b5f7737a19d9ea5025586fad3", "name": "d621ca2b5f7737a19d9ea5025586fad3", "lat": 38.8874265, "is_disabled": 0, "lon": -76.99623433333333, "fusion_lat": 0.0, "is_reserved": 0}, {"rental_uris": {"ios": "https://dc.lft.to/lastmile_qr_scan", "android": "https://dc.lft.to/lastmile_qr_scan"}, "fusion_lon": 0.0, "type": "electric_scooter", "bike_id": "6cfcc38a1996a02d3e2c6df03a8aef92", "name": "6cfcc38a1996a02d3e2c6df03a8aef92", "lat": 38.903433166666666, "is_disabled": 0, "lon": -77.02508183333333, "fusion_lat": 0.0, "is_reserved": 0}, {"rental_uris": {"ios": "https://dc.lft.to/lastmile_qr_scan", "android": "https://dc.lft.to/lastmile_qr_scan"}, "fusion_lon": 0.0, "type": "electric_scooter", "bike_id": "68445f881555a835c8e39a6a0d780694", "name": "68445f881555a835c8e39a6a0d780694", "lat": 38.89704166666667, "is_disabled": 0, "lon": -76.94712433333333, "fusion_lat": 0.0, "is_reserved": 0}, {"rental_uris": {"ios": "https://dc.lft.to/lastmile_qr_scan", "android": "https://dc.lft.to/lastmile_qr_scan"}, "fusion_lon": 0.0, "type": "electric_scooter", "bike_id": "ca69d92eae1385e1d9c08c088e6826a4", "name": "ca69d92eae1385e1d9c08c088e6826a4", "lat": 38.876569333333336, "is_disabled": 0, "lon": -77.01736583333333, "fusion_lat": 0.0, "is_reserved": 0}, {"rental_uris": {"ios": "https://dc.lft.to/lastmile_qr_scan", "android": "https://dc.lft.to/lastmile_qr_scan"}, "fusion_lon": 0.0, "type": "electric_scooter", "bike_id": "31de4732e1215ba4dd7d2a0b173f5627", "name": "31de4732e1215ba4dd7d2a0b173f5627", "lat": 38.93169366666667, "is_disabled": 0, "lon": -77.03667616666667, "fusion_lat": 0.0, "is_reserved": 0}, {"rental_uris": {"ios": "https://dc.lft.to/lastmile_qr_scan", "android": "https://dc.lft.to/lastmile_qr_scan"}, "fusion_lon": 0.0, "type": "electric_scooter", "bike_id": "e4a32a97755ff38c86c6e2261e95e893", "name": "e4a32a97755ff38c86c6e2261e95e893", "lat": 38.895929, "is_disabled": 0, "lon": -77.02314283333334, "fusion_lat": 0.0, "is_reserved": 0}, {"rental_uris": {"ios": "https://dc.lft.to/lastmile_qr_scan", "android": "https://dc.lft.to/lastmile_qr_scan"}, "fusion_lon": 0.0, "type": "electric_scooter", "bike_id": "9233768b36907ab3b31d4fddb726da10", "name": "9233768b36907ab3b31d4fddb726da10", "lat": 38.902497, "is_disabled": 0, "lon": -76.99859066666667, "fusion_lat": 0.0, "is_reserved": 0}, {"rental_uris": {"ios": "https://dc.lft.to/lastmile_qr_scan", "android": "https://dc.lft.to/lastmile_qr_scan"}, "fusion_lon": 0.0, "type": "electric_scooter", "bike_id": "9904a990f8d918e7e7b32d1177ddb510", "name": "9904a990f8d918e7e7b32d1177ddb510", "lat": 38.885011, "is_disabled": 0, "lon": -77.0056495, "fusion_lat": 0.0, "is_reserved": 0}, {"rental_uris": {"ios": "https://dc.lft.to/lastmile_qr_scan", "android": "https://dc.lft.to/lastmile_qr_scan"}, "fusion_lon": 0.0, "type": "electric_scooter", "bike_id": "c54ab40e8b3963180751aa7dbcaf6cf8", "name": "c54ab40e8b3963180751aa7dbcaf6cf8", "lat": 38.900364333333336, "is_disabled": 0, "lon": -76.996386, "fusion_lat": 0.0, "is_reserved": 0}, {"rental_uris": {"ios": "https://dc.lft.to/lastmile_qr_scan", "android": "https://dc.lft.to/lastmile_qr_scan"}, "fusion_lon": 0.0, "type": "electric_bike", "bike_id": "ee9fa746684f5aa3f1a9fc9cf6931b1f", "name": "ee9fa746684f5aa3f1a9fc9cf6931b1f", "lat": 38.85834916666667, "is_disabled": 0, "lon": -76.9928395, "fusion_lat": 0.0, "is_reserved": 0}, {"rental_uris": {"ios": "https://dc.lft.to/lastmile_qr_scan", "android": "https://dc.lft.to/lastmile_qr_scan"}, "fusion_lon": 0.0, "type": "electric_scooter", "bike_id": "9dd1d3eb4ecb8f4b8cbdade6e90b4e6d", "name": "9dd1d3eb4ecb8f4b8cbdade6e90b4e6d", "lat": 38.8831735, "is_disabled": 0, "lon": -76.94942583333334, "fusion_lat": 0.0, "is_reserved": 0}, {"rental_uris": {"ios": "https://dc.lft.to/lastmile_qr_scan", "android": "https://dc.lft.to/lastmile_qr_scan"}, "fusion_lon": 0.0, "type": "electric_scooter", "bike_id": "b51bf16306498c1d7d310198de28576f", "name": "b51bf16306498c1d7d310198de28576f", "lat": 38.921130166666664, "is_disabled": 0, "lon": -77.04213283333333, "fusion_lat": 0.0, "is_reserved": 0}, {"rental_uris": {"ios": "https://dc.lft.to/lastmile_qr_scan", "android": "https://dc.lft.to/lastmile_qr_scan"}, "fusion_lon": 0.0, "type": "electric_scooter", "bike_id": "00d65ff60e70e1d404e5a7cfef86b00a", "name": "00d65ff60e70e1d404e5a7cfef86b00a", "lat": 38.9308615, "is_disabled": 0, "lon": -77.027924, "fusion_lat": 0.0, "is_reserved": 0}, {"rental_uris": {"ios": "https://dc.lft.to/lastmile_qr_scan", "android": "https://dc.lft.to/lastmile_qr_scan"}, "fusion_lon": 0.0, "type": "electric_scooter", "bike_id": "262449ac12313f319e8b046700bf8369", "name": "262449ac12313f319e8b046700bf8369", "lat": 38.884246, "is_disabled": 0, "lon": -77.02477266666666, "fusion_lat": 0.0, "is_reserved": 0}, {"rental_uris": {"ios": "https://dc.lft.to/lastmile_qr_scan", "android": "https://dc.lft.to/lastmile_qr_scan"}, "fusion_lon": 0.0, "type": "electric_bike", "bike_id": "048e9c743bd5c5a1bcdd514ccf7ab0eb", "name": "048e9c743bd5c5a1bcdd514ccf7ab0eb", "lat": 38.85282183333333, "is_disabled": 0, "lon": -76.981534, "fusion_lat": 0.0, "is_reserved": 0}, {"rental_uris": {"ios": "https://dc.lft.to/lastmile_qr_scan", "android": "https://dc.lft.to/lastmile_qr_scan"}, "fusion_lon": 0.0, "type": "electric_scooter", "bike_id": "f57f3bc6f8f4db780341c85ea6561f22", "name": "f57f3bc6f8f4db780341c85ea6561f22", "lat": 38.902528333333336, "is_disabled": 0, "lon": -77.05408233333333, "fusion_lat": 0.0, "is_reserved": 0}, {"rental_uris": {"ios": "https://dc.lft.to/lastmile_qr_scan", "android": "https://dc.lft.to/lastmile_qr_scan"}, "fusion_lon": 0.0, "type": "electric_scooter", "bike_id": "a6312a8c6952c0cfde767aa33dcc4f97", "name": "a6312a8c6952c0cfde767aa33dcc4f97", "lat": 38.895439, "is_disabled": 0, "lon": -77.01542, "fusion_lat": 0.0, "is_reserved": 0}, {"rental_uris": {"ios": "https://dc.lft.to/lastmile_qr_scan", "android": "https://dc.lft.to/lastmile_qr_scan"}, "fusion_lon": 0.0, "type": "electric_scooter", "bike_id": "b975af1cf41faae5a92ab49ea93e7e05", "name": "b975af1cf41faae5a92ab49ea93e7e05", "lat": 38.867102, "is_disabled": 0, "lon": -76.98730233333333, "fusion_lat": 0.0, "is_reserved": 0}, {"rental_uris": {"ios": "https://dc.lft.to/lastmile_qr_scan", "android": "https://dc.lft.to/lastmile_qr_scan"}, "fusion_lon": 0.0, "type": "electric_scooter", "bike_id": "4b82052e95d3261230bb77bad06589bc", "name": "4b82052e95d3261230bb77bad06589bc", "lat": 38.902640166666664, "is_disabled": 0, "lon": -77.02147333333333, "fusion_lat": 0.0, "is_reserved": 0}, {"rental_uris": {"ios": "https://dc.lft.to/lastmile_qr_scan", "android": "https://dc.lft.to/lastmile_qr_scan"}, "fusion_lon": 0.0, "type": "electric_scooter", "bike_id": "dbf874c96938e12081709f8bf7324e30", "name": "dbf874c96938e12081709f8bf7324e30", "lat": 38.91100933333333, "is_disabled": 0, "lon": -77.04496533333334, "fusion_lat": 0.0, "is_reserved": 0}, {"rental_uris": {"ios": "https://dc.lft.to/lastmile_qr_scan", "android": "https://dc.lft.to/lastmile_qr_scan"}, "fusion_lon": 0.0, "type": "electric_scooter", "bike_id": "007f019ab009dc9c082fd19dcc94e1ce", "name": "007f019ab009dc9c082fd19dcc94e1ce", "lat": 38.898779166666664, "is_disabled": 0, "lon": -77.04171316666667, "fusion_lat": 0.0, "is_reserved": 0}, {"rental_uris": {"ios": "https://dc.lft.to/lastmile_qr_scan", "android": "https://dc.lft.to/lastmile_qr_scan"}, "fusion_lon": 0.0, "type": "electric_scooter", "bike_id": "3c77716427185bd0fa12727197273007", "name": "3c77716427185bd0fa12727197273007", "lat": 38.902373, "is_disabled": 0, "lon": -77.03096666666667, "fusion_lat": 0.0, "is_reserved": 0}, {"rental_uris": {"ios": "https://dc.lft.to/lastmile_qr_scan", "android": "https://dc.lft.to/lastmile_qr_scan"}, "fusion_lon": 0.0, "type": "electric_scooter", "bike_id": "0f100ec6be032cdb710d8f94c7be7d91", "name": "0f100ec6be032cdb710d8f94c7be7d91", "lat": 38.88512766666667, "is_disabled": 0, "lon": -77.00565833333333, "fusion_lat": 0.0, "is_reserved": 0}, {"rental_uris": {"ios": "https://dc.lft.to/lastmile_qr_scan", "android": "https://dc.lft.to/lastmile_qr_scan"}, "fusion_lon": 0.0, "type": "electric_bike", "bike_id": "21fba0bee655dd43ca22cf5e044d86e7", "name": "21fba0bee655dd43ca22cf5e044d86e7", "lat": 39.00381333333333, "is_disabled": 0, "lon": -77.012901, "fusion_lat": 0.0, "is_reserved": 0}, {"rental_uris": {"ios": "https://dc.lft.to/lastmile_qr_scan", "android": "https://dc.lft.to/lastmile_qr_scan"}, "fusion_lon": 0.0, "type": "electric_scooter", "bike_id": "a6153ec2b80c358ee53fc413b2a3f437", "name": "a6153ec2b80c358ee53fc413b2a3f437", "lat": 38.9126935, "is_disabled": 0, "lon": -77.02226833333333, "fusion_lat": 0.0, "is_reserved": 0}, {"rental_uris": {"ios": "https://dc.lft.to/lastmile_qr_scan", "android": "https://dc.lft.to/lastmile_qr_scan"}, "fusion_lon": 0.0, "type": "electric_scooter", "bike_id": "bffbffc7ba8c53e233e819c6e2f966f3", "name": "bffbffc7ba8c53e233e819c6e2f966f3", "lat": 38.905870166666666, "is_disabled": 0, "lon": -77.02388366666666, "fusion_lat": 0.0, "is_reserved": 0}, {"rental_uris": {"ios": "https://dc.lft.to/lastmile_qr_scan", "android": "https://dc.lft.to/lastmile_qr_scan"},