{"data": {"bikes": [{"fusion_lon": 0.0, "name": "860549bd4647a0c9dc21d78f7681b88c", "rental_uris": {"android": "https://dc.lft.to/lastmile_qr_scan", "ios": "https://dc.lft.to/lastmile_qr_scan"}, "lat": 38.90071016666667, "bike_id": "860549bd4647a0c9dc21d78f7681b88c", "is_disabled": 0, "lon": -77.04928483333333, "is_reserved": 0, "fusion_lat": 0.0, "type": "electric_scooter"}, {"fusion_lon": 0.0, "name": "715ce42b1b072dc7ea189845081d637c", "rental_uris": {"android": "https://dc.lft.to/lastmile_qr_scan", "ios": "https://dc.lft.to/lastmile_qr_scan"}, "lat": 38.915097333333335, "bike_id": "715ce42b1b072dc7ea189845081d637c", "is_disabled": 0, "lon": -77.045069, "is_reserved": 0, "fusion_lat": 0.0, "type": "electric_scooter"}, {"fusion_lon": 0.0, "name": "20d33b70c7735c919e1b7d0b02d98972", "rental_uris": {"android": "https://dc.lft.to/lastmile_qr_scan", "ios": "https://dc.lft.to/lastmile_qr_scan"}, "lat": 38.924895166666666, "bike_id": "20d33b70c7735c919e1b7d0b02d98972", "is_disabled": 0, "lon": -77.0390215, "is_reserved": 0, "fusion_lat": 0.0, "type": "electric_scooter"}, {"fusion_lon": 0.0, "name": "8c223ff64c2fda307e6e1d0048b477a1", "rental_uris": {"android": "https://dc.lft.to/lastmile_qr_scan", "ios": "https://dc.lft.to/lastmile_qr_scan"}, "lat": 38.899750833333336, "bike_id": "8c223ff64c2fda307e6e1d0048b477a1", "is_disabled": 0, "lon": -77.04660616666666, "is_reserved": 0, "fusion_lat": 0.0, "type": "electric_scooter"}, {"fusion_lon": 0.0, "name": "52c146abba274d1b6f085dc547af37b2", "rental_uris": {"android": "https://dc.lft.to/lastmile_qr_scan", "ios": "https://dc.lft.to/lastmile_qr_scan"}, "lat": 38.95298483333333, "bike_id": "52c146abba274d1b6f085dc547af37b2", "is_disabled": 0, "lon": -77.02771283333334, "is_reserved": 0, "fusion_lat": 0.0, "type": "electric_scooter"}, {"fusion_lon": 0.0, "name": "a36dfb1e70e9c374d1cb14128d85da35", "rental_uris": {"android": "https://dc.lft.to/lastmile_qr_scan", "ios": "https://dc.lft.to/lastmile_qr_scan"}, "lat": 38.89769116666667, "bike_id": "a36dfb1e70e9c374d1cb14128d85da35", "is_disabled": 0, "lon": -77.01225483333333, "is_reserved": 0, "fusion_lat": 0.0, "type": "electric_scooter"}, {"fusion_lon": 0.0, "name": "5798462cb36be2bff6f75305d49e3b41", "rental_uris": {"android": "https://dc.lft.to/lastmile_qr_scan", "ios": "https://dc.lft.to/lastmile_qr_scan"}, "lat": 38.9052595, "bike_id": "5798462cb36be2bff6f75305d49e3b41", "is_disabled": 0, "lon": -77.0434105, "is_reserved": 0, "fusion_lat": 0.0, "type": "electric_scooter"}, {"fusion_lon": 0.0, "name": "e43c125093e60b3e821b4e5a0ec2517c", "rental_uris": {"android": "https://dc.lft.to/lastmile_qr_scan", "ios": "https://dc.lft.to/lastmile_qr_scan"}, "lat": 38.889905166666665, "bike_id": "e43c125093e60b3e821b4e5a0ec2517c", "is_disabled": 0, "lon": -76.99513183333333, "is_reserved": 0, "fusion_lat": 0.0, "type": "electric_scooter"}, {"fusion_lon": 0.0, "name": "fe03bb50be150cb9c0e2deacbab970b0", "rental_uris": {"android": "https://dc.lft.to/lastmile_qr_scan", "ios": "https://dc.lft.to/lastmile_qr_scan"}, "lat": 38.8959675, "bike_id": "fe03bb50be150cb9c0e2deacbab970b0", "is_disabled": 0, "lon": -76.96780466666667, "is_reserved": 0, "fusion_lat": 0.0, "type": "electric_bike"}, {"fusion_lon": 0.0, "name": "0b0a7627212cdbc9805d8ca33b4a5a29", "rental_uris": {"android": "https://dc.lft.to/lastmile_qr_scan", "ios": "https://dc.lft.to/lastmile_qr_scan"}, "lat": 38.93018283333333, "bike_id": "0b0a7627212cdbc9805d8ca33b4a5a29", "is_disabled": 0, "lon": -77.02323566666666, "is_reserved": 0, "fusion_lat": 0.0, "type": "electric_scooter"}, {"fusion_lon": 0.0, "name": "61104ec60f3e3ab5e4e74b1b01ce2e9c", "rental_uris": {"android": "https://dc.lft.to/lastmile_qr_scan", "ios": "https://dc.lft.to/lastmile_qr_scan"}, "lat": 38.8962175, "bike_id": "61104ec60f3e3ab5e4e74b1b01ce2e9c", "is_disabled": 0, "lon": -77.030414, "is_reserved": 0, "fusion_lat": 0.0, "type": "electric_scooter"}, {"fusion_lon": 0.0, "name": "9c7f792170a9d49e5a25b9f09b41ef6f", "rental_uris": {"android": "https://dc.lft.to/lastmile_qr_scan", "ios": "https://dc.lft.to/lastmile_qr_scan"}, "lat": 38.89824266666667, "bike_id": "9c7f792170a9d49e5a25b9f09b41ef6f", "is_disabled": 0, "lon": -77.02618233333334, "is_reserved": 0, "fusion_lat": 0.0, "type": "electric_scooter"}, {"fusion_lon": 0.0, "name": "116d34c76e6de5a621104f833f3f9bdd", "rental_uris": {"android": "https://dc.lft.to/lastmile_qr_scan", "ios": "https://dc.lft.to/lastmile_qr_scan"}, "lat": 38.90626966666667, "bike_id": "116d34c76e6de5a621104f833f3f9bdd", "is_disabled": 0, "lon": -77.02501333333333, "is_reserved": 0, "fusion_lat": 0.0, "type": "electric_scooter"}, {"fusion_lon": 0.0, "name": "c5dd7f02d30c14eb135ba59a08a00c97", "rental_uris": {"android": "https://dc.lft.to/lastmile_qr_scan", "ios": "https://dc.lft.to/lastmile_qr_scan"}, "lat": 38.908798166666664, "bike_id": "c5dd7f02d30c14eb135ba59a08a00c97", "is_disabled": 0, "lon": -77.00058783333333, "is_reserved": 0, "fusion_lat": 0.0, "type": "electric_scooter"}, {"fusion_lon": 0.0, "name": "13d670a1854eb8e62ff845976ff22f66", "rental_uris": {"android": "https://dc.lft.to/lastmile_qr_scan", "ios": "https://dc.lft.to/lastmile_qr_scan"}, "lat": 38.8904345, "bike_id": "13d670a1854eb8e62ff845976ff22f66", "is_disabled": 0, "lon": -76.9375195, "is_reserved": 0, "fusion_lat": 0.0, "type": "electric_scooter"}, {"fusion_lon": 0.0, "name": "021d786fb303df156c04bb3022a468d8", "rental_uris": {"android": "https://dc.lft.to/lastmile_qr_scan", "ios": "https://dc.lft.to/lastmile_qr_scan"}, "lat": 38.91581433333333, "bike_id": "021d786fb303df156c04bb3022a468d8", "is_disabled": 0, "lon": -77.0448585, "is_reserved": 0, "fusion_lat": 0.0, "type": "electric_scooter"}, {"fusion_lon": 0.0, "name": "3f87d1ed9fa450219eae00fa4d236def", "rental_uris": {"android": "https://dc.lft.to/lastmile_qr_scan", "ios": "https://dc.lft.to/lastmile_qr_scan"}, "lat": 38.921255, "bike_id": "3f87d1ed9fa450219eae00fa4d236def", "is_disabled": 0, "lon": -77.0181075, "is_reserved": 0, "fusion_lat": 0.0, "type": "electric_scooter"}, {"fusion_lon": 0.0, "name": "8ecb03ff226730f744dd6f04af709490", "rental_uris": {"android": "https://dc.lft.to/lastmile_qr_scan", "ios": "https://dc.lft.to/lastmile_qr_scan"}, "lat": 38.862554, "bike_id": "8ecb03ff226730f744dd6f04af709490", "is_disabled": 0, "lon": -76.99553333333333, "is_reserved": 0, "fusion_lat": 0.0, "type": "electric_scooter"}, {"fusion_lon": 0.0, "name": "1ddca958bef46172a34791a5648e25dc", "rental_uris": {"android": "https://dc.lft.to/lastmile_qr_scan", "ios": "https://dc.lft.to/lastmile_qr_scan"}, "lat": 38.924429, "bike_id": "1ddca958bef46172a34791a5648e25dc", "is_disabled": 0, "lon": -77.02154216666666, "is_reserved": 0, "fusion_lat": 0.0, "type": "electric_scooter"}, {"fusion_lon": 0.0, "name": "faafeaeca5ea60952671b49bf179667a", "rental_uris": {"android": "https://dc.lft.to/lastmile_qr_scan", "ios": "https://dc.lft.to/lastmile_qr_scan"}, "lat": 38.9603195, "bike_id": "faafeaeca5ea60952671b49bf179667a", "is_disabled": 0, "lon": -77.024266, "is_reserved": 0, "fusion_lat": 0.0, "type": "electric_scooter"}, {"fusion_lon": 0.0, "name": "db73f9d71a32f051539a8c52aea19f41", "rental_uris": {"android": "https://dc.lft.to/lastmile_qr_scan", "ios": "https://dc.lft.to/lastmile_qr_scan"}, "lat": 38.88235733333333, "bike_id": "db73f9d71a32f051539a8c52aea19f41", "is_disabled": 0, "lon": -76.99490833333333, "is_reserved": 0, "fusion_lat": 0.0, "type": "electric_scooter"}, {"fusion_lon": 0.0, "name": "935b27beab69df2916161308b60aff43", "rental_uris": {"android": "https://dc.lft.to/lastmile_qr_scan", "ios": "https://dc.lft.to/lastmile_qr_scan"}, "lat": 38.90730883333333, "bike_id": "935b27beab69df2916161308b60aff43", "is_disabled": 0, "lon": -77.00339466666667, "is_reserved": 0, "fusion_lat": 0.0, "type": "electric_bike"}, {"fusion_lon": 0.0, "name": "a3d83573d18b348adf50304e82b7622c", "rental_uris": {"android": "https://dc.lft.to/lastmile_qr_scan", "ios": "https://dc.lft.to/lastmile_qr_scan"}, "lat": 38.876993666666664, "bike_id": "a3d83573d18b348adf50304e82b7622c", "is_disabled": 0, "lon": -77.00745766666667, "is_reserved": 0, "fusion_lat": 0.0, "type": "electric_scooter"}, {"fusion_lon": 0.0, "name": "695b0be64b9515d7e0aeb186622b79ea", "rental_uris": {"android": "https://dc.lft.to/lastmile_qr_scan", "ios": "https://dc.lft.to/lastmile_qr_scan"}, "lat": 38.9331645, "bike_id": "695b0be64b9515d7e0aeb186622b79ea", "is_disabled": 0, "lon": -77.036187, "is_reserved": 0, "fusion_lat": 0.0, "type": "electric_scooter"}, {"fusion_lon": 0.0, "name": "bee7dcf6178f6c1e27c6616219d20045", "rental_uris": {"android": "https://dc.lft.to/lastmile_qr_scan", "ios": "https://dc.lft.to/lastmile_qr_scan"}, "lat": 38.91325833333333, "bike_id": "bee7dcf6178f6c1e27c6616219d20045", "is_disabled": 0, "lon": -77.0453895, "is_reserved": 0, "fusion_lat": 0.0, "type": "electric_scooter"}, {"fusion_lon": 0.0, "name": "f9ed0c7af2010c2a2ecee354bf1e576f", "rental_uris": {"android": "https://dc.lft.to/lastmile_qr_scan", "ios": "https://dc.lft.to/lastmile_qr_scan"}, "lat": 38.8922075, "bike_id": "f9ed0c7af2010c2a2ecee354bf1e576f", "is_disabled": 0, "lon": -77.04271166666666, "is_reserved": 0, "fusion_lat": 0.0, "type": "electric_scooter"}, {"fusion_lon": 0.0, "name": "0f354818cd8470da96e315bc77e0c1fc", "rental_uris": {"android": "https://dc.lft.to/lastmile_qr_scan", "ios": "https://dc.lft.to/lastmile_qr_scan"}, "lat": 38.94360266666666, "bike_id": "0f354818cd8470da96e315bc77e0c1fc", "is_disabled": 0, "lon": -77.06108966666666, "is_reserved": 0, "fusion_lat": 0.0, "type": "electric_scooter"}, {"fusion_lon": 0.0, "name": "5c94af04e6bbebb04feef95069dd81a1", "rental_uris": {"android": "https://dc.lft.to/lastmile_qr_scan", "ios": "https://dc.lft.to/lastmile_qr_scan"}, "lat": 38.91981783333333, "bike_id": "5c94af04e6bbebb04feef95069dd81a1", "is_disabled": 0, "lon": -77.02199183333333, "is_reserved": 0, "fusion_lat": 0.0, "type": "electric_scooter"}, {"fusion_lon": 0.0, "name": "eee9443688c70b75cd22dbdc88bfd8d0", "rental_uris": {"android": "https://dc.lft.to/lastmile_qr_scan", "ios": "https://dc.lft.to/lastmile_qr_scan"}, "lat": 38.92612733333333, "bike_id": "eee9443688c70b75cd22dbdc88bfd8d0", "is_disabled": 0, "lon": -77.0216335, "is_reserved": 0, "fusion_lat": 0.0, "type": "electric_scooter"}, {"fusion_lon": 0.0, "name": "6e1edd71829eaa8a301635de1a9804b7", "rental_uris": {"android": "https://dc.lft.to/lastmile_qr_scan", "ios": "https://dc.lft.to/lastmile_qr_scan"}, "lat": 38.924211666666665, "bike_id": "6e1edd71829eaa8a301635de1a9804b7", "is_disabled": 0, "lon": -77.020339, "is_reserved": 0, "fusion_lat": 0.0, "type": "electric_scooter"}, {"fusion_lon": 0.0, "name": "60d8aef9fed643eb7f8229843df47d11", "rental_uris": {"android": "https://dc.lft.to/lastmile_qr_scan", "ios": "https://dc.lft.to/lastmile_qr_scan"}, "lat": 38.895027666666664, "bike_id": "60d8aef9fed643eb7f8229843df47d11", "is_disabled": 0, "lon": -77.04636133333334, "is_reserved": 0, "fusion_lat": 0.0, "type": "electric_scooter"}, {"fusion_lon": 0.0, "name": "ef7e2306099d173743e396168c35b3f1", "rental_uris": {"android": "https://dc.lft.to/lastmile_qr_scan", "ios": "https://dc.lft.to/lastmile_qr_scan"}, "lat": 38.90277533333333, "bike_id": "ef7e2306099d173743e396168c35b3f1", "is_disabled": 0, "lon": -77.03206666666667, "is_reserved": 0, "fusion_lat": 0.0, "type": "electric_scooter"}, {"fusion_lon": 0.0, "name": "568457b775f7f869f6cd6b3838787a5e", "rental_uris": {"android": "https://dc.lft.to/lastmile_qr_scan", "ios": "https://dc.lft.to/lastmile_qr_scan"}, "lat": 38.957597666666665, "bike_id": "568457b775f7f869f6cd6b3838787a5e", "is_disabled": 0, "lon": -77.00916183333334, "is_reserved": 0, "fusion_lat": 0.0, "type": "electric_scooter"}, {"fusion_lon": 0.0, "name": "9f749209a0f2eafe40656f55d06b9867", "rental_uris": {"android": "https://dc.lft.to/lastmile_qr_scan", "ios": "https://dc.lft.to/lastmile_qr_scan"}, "lat": 38.90256983333333, "bike_id": "9f749209a0f2eafe40656f55d06b9867", "is_disabled": 0, "lon": -77.026993, "is_reserved": 0, "fusion_lat": 0.0, "type": "electric_scooter"}, {"fusion_lon": 0.0, "name": "872b9eb869a6048ab5e10995076b0e7c", "rental_uris": {"android": "https://dc.lft.to/lastmile_qr_scan", "ios": "https://dc.lft.to/lastmile_qr_scan"}, "lat": 38.9217155, "bike_id": "872b9eb869a6048ab5e10995076b0e7c", "is_disabled": 0, "lon": -77.026651, "is_reserved": 0, "fusion_lat": 0.0, "type": "electric_scooter"}, {"fusion_lon": 0.0, "name": "379a7eb72eb4fc2d5dc4376c4c54750d", "rental_uris": {"android": "https://dc.lft.to/lastmile_qr_scan", "ios": "https://dc.lft.to/lastmile_qr_scan"}, "lat": 38.911085, "bike_id": "379a7eb72eb4fc2d5dc4376c4c54750d", "is_disabled": 0, "lon": -77.0347755, "is_reserved": 0, "fusion_lat": 0.0, "type": "electric_scooter"}, {"fusion_lon": 0.0, "name": "922718bf02d81dc26ed0f1ef292776bc", "rental_uris": {"android": "https://dc.lft.to/lastmile_qr_scan", "ios": "https://dc.lft.to/lastmile_qr_scan"}, "lat": 38.956281833333335, "bike_id": "922718bf02d81dc26ed0f1ef292776bc", "is_disabled": 0, "lon": -77.03304083333333, "is_reserved": 0, "fusion_lat": 0.0, "type": "electric_scooter"}, {"fusion_lon": 0.0, "name": "754d54c036df9743ca4c850dd4dc9cbd", "rental_uris": {"android": "https://dc.lft.to/lastmile_qr_scan", "ios": "https://dc.lft.to/lastmile_qr_scan"}, "lat": 38.8875595, "bike_id": "754d54c036df9743ca4c850dd4dc9cbd", "is_disabled": 0, "lon": -77.0026635, "is_reserved": 0, "fusion_lat": 0.0, "type": "electric_scooter"}, {"fusion_lon": 0.0, "name": "c0400374148bf661fb0b78a6d4ec0ae0", "rental_uris": {"android": "https://dc.lft.to/lastmile_qr_scan", "ios": "https://dc.lft.to/lastmile_qr_scan"}, "lat": 38.925007666666666, "bike_id": "c0400374148bf661fb0b78a6d4ec0ae0", "is_disabled": 0, "lon": -77.00215933333334, "is_reserved": 0, "fusion_lat": 0.0, "type": "electric_scooter"}, {"fusion_lon": 0.0, "name": "8fec6c2332b47e653e0cca0334446b58", "rental_uris": {"android": "https://dc.lft.to/lastmile_qr_scan", "ios": "https://dc.lft.to/lastmile_qr_scan"}, "lat": 38.911360333333334, "bike_id": "8fec6c2332b47e653e0cca0334446b58", "is_disabled": 0, "lon": -77.0280855, "is_reserved": 0, "fusion_lat": 0.0, "type": "electric_scooter"}, {"fusion_lon": 0.0, "name": "74013d01f716f6a5fa09c913926434cf", "rental_uris": {"android": "https://dc.lft.to/lastmile_qr_scan", "ios": "https://dc.lft.to/lastmile_qr_scan"}, "lat": 38.9551505, "bike_id": "74013d01f716f6a5fa09c913926434cf", "is_disabled": 0, "lon": -77.01033166666667, "is_reserved": 0, "fusion_lat": 0.0, "type": "electric_scooter"}, {"fusion_lon": 0.0, "name": "bb7d22e0e44ad11230ffc045da8156cc", "rental_uris": {"android": "https://dc.lft.to/lastmile_qr_scan", "ios": "https://dc.lft.to/lastmile_qr_scan"}, "lat": 38.91506966666667, "bike_id": "bb7d22e0e44ad11230ffc045da8156cc", "is_disabled": 0, "lon": -77.00616816666667, "is_reserved": 0, "fusion_lat": 0.0, "type": "electric_scooter"}, {"fusion_lon": 0.0, "name": "453bf33191d86f3c001912d794092746", "rental_uris": {"android": "https://dc.lft.to/lastmile_qr_scan", "ios": "https://dc.lft.to/lastmile_qr_scan"}, "lat": 38.9103415, "bike_id": "453bf33191d86f3c001912d794092746", "is_disabled": 0, "lon": -77.06500833333334, "is_reserved": 0, "fusion_lat": 0.0, "type": "electric_scooter"}, {"fusion_lon": 0.0, "name": "f15f29b6bb38668372d1434acec58fbc", "rental_uris": {"android": "https://dc.lft.to/lastmile_qr_scan", "ios": "https://dc.lft.to/lastmile_qr_scan"}, "lat": 38.90082016666667, "bike_id": "f15f29b6bb38668372d1434acec58fbc", "is_disabled": 0, "lon": -77.018488, "is_reserved": 0, "fusion_lat": 0.0, "type": "electric_scooter"}, {"fusion_lon": 0.0, "name": "8c7d527b3c9c433a7f54dfc282e10593", "rental_uris": {"android": "https://dc.lft.to/lastmile_qr_scan", "ios": "https://dc.lft.to/lastmile_qr_scan"}, "lat": 39.08432166666667, "bike_id": "8c7d527b3c9c433a7f54dfc282e10593", "is_disabled": 0, "lon": -76.95143733333333, "is_reserved": 0, "fusion_lat": 0.0, "type": "electric_bike"}, {"fusion_lon": 0.0, "name": "19faf0da691976022558abbc4df44260", "rental_uris": {"android": "https://dc.lft.to/lastmile_qr_scan", "ios": "https://dc.lft.to/lastmile_qr_scan"}, "lat": 38.922509, "bike_id": "19faf0da691976022558abbc4df44260", "is_disabled": 0, "lon": -77.0194895, "is_reserved": 0, "fusion_lat": 0.0, "type": "electric_scooter"}, {"fusion_lon": 0.0, "name": "792c1bf683df42ed4fcdf976ed776db8", "rental_uris": {"android": "https://dc.lft.to/lastmile_qr_scan", "ios": "https://dc.lft.to/lastmile_qr_scan"}, "lat": 38.90739266666667, "bike_id": "792c1bf683df42ed4fcdf976ed776db8", "is_disabled": 0, "lon": -77.00738733333333, "is_reserved": 0, "fusion_lat": 0.0, "type": "electric_scooter"}, {"fusion_lon": 0.0, "name": "ffd11ebb213e4a5d737b5cdbebe72329", "rental_uris": {"android": "https://dc.lft.to/lastmile_qr_scan", "ios": "https://dc.lft.to/lastmile_qr_scan"}, "lat": 38.918557666666665, "bike_id": "ffd11ebb213e4a5d737b5cdbebe72329", "is_disabled": 0, "lon": -77.02525883333334, "is_reserved": 0, "fusion_lat": 0.0, "type": "electric_scooter"}, {"fusion_lon": 0.0, "name": "14b593b660742d65f1727e6c3884ea4c", "rental_uris": {"android": "https://dc.lft.to/lastmile_qr_scan", "ios": "https://dc.lft.to/lastmile_qr_scan"}, "lat": 38.9232665, "bike_id": "14b593b660742d65f1727e6c3884ea4c", "is_disabled": 0, "lon": -77.01954633333334, "is_reserved": 0, "fusion_lat": 0.0, "type": "electric_scooter"}, {"fusion_lon": 0.0, "name": "9bc41ecb7ccdd4bc25f96931051d21a0", "rental_uris": {"android": "https://dc.lft.to/lastmile_qr_scan", "ios": "https://dc.lft.to/lastmile_qr_scan"}, "lat": 38.919491, "bike_id": "9bc41ecb7ccdd4bc25f96931051d21a0", "is_disabled": 0, "lon": -77.02175783333334, "is_reserved": 0, "fusion_lat": 0.0, "type": "electric_scooter"}, {"fusion_lon": 0.0, "name": "1731139b776146e972febd7e762ff255", "rental_uris": {"android": "https://dc.lft.to/lastmile_qr_scan", "ios": "https://dc.lft.to/lastmile_qr_scan"}, "lat": 38.919270833333336, "bike_id": "1731139b776146e972febd7e762ff255", "is_disabled": 0, "lon": -77.00994066666667, "is_reserved": 0, "fusion_lat": 0.0, "type": "electric_scooter"}, {"fusion_lon": 0.0, "name": "464ab141f4c1376bdcdaeb34848afcac", "rental_uris": {"android": "https://dc.lft.to/lastmile_qr_scan", "ios": "https://dc.lft.to/lastmile_qr_scan"}, "lat": 38.92453233333333, "bike_id": "464ab141f4c1376bdcdaeb34848afcac", "is_disabled": 0, "lon": -77.02157183333334, "is_reserved": 0, "fusion_lat": 0.0, "type": "electric_scooter"}, {"fusion_lon": 0.0, "name": "05b7e767afe77819e9fb77ba9923ea9f", "rental_uris": {"android": "https://dc.lft.to/lastmile_qr_scan", "ios": "https://dc.lft.to/lastmile_qr_scan"}, "lat": 38.8866045, "bike_id": "05b7e767afe77819e9fb77ba9923ea9f", "is_disabled": 0, "lon": -76.93674916666667, "is_reserved": 0, "fusion_lat": 0.0, "type": "electric_scooter"}, {"fusion_lon": 0.0, "name": "62f0b5771b815620cbce4cd7713575c3", "rental_uris": {"android": "https://dc.lft.to/lastmile_qr_scan", "ios": "https://dc.lft.to/lastmile_qr_scan"}, "lat": 38.945380166666666, "bike_id": "62f0b5771b815620cbce4cd7713575c3", "is_disabled": 0, "lon": -77.34461566666667, "is_reserved": 0, "fusion_lat": 0.0, "type": "electric_bike"}, {"fusion_lon": 0.0, "name": "900f5988ee811863f4433af5a7bf76b3", "rental_uris": {"android": "https://dc.lft.to/lastmile_qr_scan", "ios": "https://dc.lft.to/lastmile_qr_scan"}, "lat": 38.92477566666667, "bike_id": "900f5988ee811863f4433af5a7bf76b3", "is_disabled": 0, "lon": -77.022129, "is_reserved": 0, "fusion_lat": 0.0, "type": "electric_scooter"}, {"fusion_lon": 0.0, "name": "adb6b7acbd1610af37800cbf0521e3c2", "rental_uris": {"android": "https://dc.lft.to/lastmile_qr_scan", "ios": "https://dc.lft.to/lastmile_qr_scan"}, "lat": 38.917250833333334, "bike_id": "adb6b7acbd1610af37800cbf0521e3c2", "is_disabled": 0, "lon": -77.06837933333334, "is_reserved": 0, "fusion_lat": 0.0, "type": "electric_scooter"}, {"fusion_lon": 0.0, "name": "b922624ddc26c29fe07ee9552a369dc2", "rental_uris": {"android": "https://dc.lft.to/lastmile_qr_scan", "ios": "https://dc.lft.to/lastmile_qr_scan"}, "lat": 38.9044175, "bike_id": "b922624ddc26c29fe07ee9552a369dc2", "is_disabled": 0, "lon": -77.04053383333333, "is_reserved": 0, "fusion_lat": 0.0, "type": "electric_scooter"}, {"fusion_lon": 0.0, "name": "389bea23f588adf3d04e269cc1f615d8", "rental_uris": {"android": "https://dc.lft.to/lastmile_qr_scan", "ios": "https://dc.lft.to/lastmile_qr_scan"}, "lat": 38.90845683333333, "bike_id": "389bea23f588adf3d04e269cc1f615d8", "is_disabled": 0, "lon": -77.04531783333333, "is_reserved": 0, "fusion_lat": 0.0, "type": "electric_scooter"}, {"fusion_lon": 0.0, "name": "2b6c3f42de14b9c97a2f08cafade5d48", "rental_uris": {"android": "https://dc.lft.to/lastmile_qr_scan", "ios": "https://dc.lft.to/lastmile_qr_scan"}, "lat": 38.915609, "bike_id": "2b6c3f42de14b9c97a2f08cafade5d48", "is_disabled": 0, "lon": -77.00700116666667, "is_reserved": 0, "fusion_lat": 0.0, "type": "electric_scooter"}, {"fusion_lon": 0.0, "name": "8b954707e6b9f78234c7be9559850a65", "rental_uris": {"android": "https://dc.lft.to/lastmile_qr_scan", "ios": "https://dc.lft.to/lastmile_qr_scan"}, "lat": 38.922912, "bike_id": "8b954707e6b9f78234c7be9559850a65", "is_disabled": 0, "lon": -77.01946633333333, "is_reserved": 0, "fusion_lat": 0.0, "type": "electric_scooter"}, {"fusion_lon": 0.0, "name": "cca10005efba0f8141ee53cb6eea084c", "rental_uris": {"android": "https://dc.lft.to/lastmile_qr_scan", "ios": "https://dc.lft.to/lastmile_qr_scan"}, "lat": 38.905063, "bike_id": "cca10005efba0f8141ee53cb6eea084c", "is_disabled": 0, "lon": -77.0295045, "is_reserved": 0, "fusion_lat": 0.0, "type": "electric_scooter"}, {"fusion_lon": 0.0, "name": "9b9f62f59830e0839c388ce46f4528f3", "rental_uris": {"android": "https://dc.lft.to/lastmile_qr_scan", "ios": "https://dc.lft.to/lastmile_qr_scan"}, "lat": 39.0072045, "bike_id": "9b9f62f59830e0839c388ce46f4528f3", "is_disabled": 0, "lon": -76.98140766666667, "is_reserved": 0, "fusion_lat": 0.0, "type": "electric_bike"}, {"fusion_lon": 0.0, "name": "7dee7e18e079103569c3d5b1cd0e793f", "rental_uris": {"android": "https://dc.lft.to/lastmile_qr_scan", "ios": "https://dc.lft.to/lastmile_qr_scan"}, "lat": 38.90288916666667, "bike_id": "7dee7e18e079103569c3d5b1cd0e793f", "is_disabled": 0, "lon": -77.04637133333334, "is_reserved": 0, "fusion_lat": 0.0, "type": "electric_scooter"}, {"fusion_lon": 0.0, "name": "288cd226a4f46280e1dcf7b2762f601f", "rental_uris": {"android": "https://dc.lft.to/lastmile_qr_scan", "ios": "https://dc.lft.to/lastmile_qr_scan"}, "lat": 38.908989166666665, "bike_id": "288cd226a4f46280e1dcf7b2762f601f", "is_disabled": 0, "lon": -77.03212633333334, "is_reserved": 0, "fusion_lat": 0.0, "type": "electric_scooter"}, {"fusion_lon": 0.0, "name": "2f945741fe7963fe9a83889dfceb8e11", "rental_uris": {"android": "https://dc.lft.to/lastmile_qr_scan", "ios": "https://dc.lft.to/lastmile_qr_scan"}, "lat": 38.92510933333333, "bike_id": "2f945741fe7963fe9a83889dfceb8e11", "is_disabled": 0, "lon": -77.0228035, "is_reserved": 0, "fusion_lat": 0.0, "type": "electric_scooter"}, {"fusion_lon": 0.0, "name": "4c836a259e1f48045c24836e44a13127", "rental_uris": {"android": "https://dc.lft.to/lastmile_qr_scan", "ios": "https://dc.lft.to/lastmile_qr_scan"}, "lat": 38.86719083333333, "bike_id": "4c836a259e1f48045c24836e44a13127", "is_disabled": 0, "lon": -77.01012866666666, "is_reserved": 0, "fusion_lat": 0.0, "type": "electric_scooter"}, {"fusion_lon": 0.0, "name": "e9548911cc4413d5240b25f59924b1c6", "rental_uris": {"android": "https://dc.lft.to/lastmile_qr_scan", "ios": "https://dc.lft.to/lastmile_qr_scan"}, "lat": 38.849044666666664, "bike_id": "e9548911cc4413d5240b25f59924b1c6", "is_disabled": 0, "lon": -77.078018, "is_reserved": 0, "fusion_lat": 0.0, "type": "electric_bike"}, {"fusion_lon": 0.0, "name": "3389cd4b218207509e2542f9d3e28690", "rental_uris": {"android": "https://dc.lft.to/lastmile_qr_scan", "ios": "https://dc.lft.to/lastmile_qr_scan"}, "lat": 38.90040116666667, "bike_id": "3389cd4b218207509e2542f9d3e28690", "is_disabled": 0, "lon": -77.0177185, "is_reserved": 0, "fusion_lat": 0.0, "type": "electric_scooter"}, {"fusion_lon": 0.0, "name": "05e8b7de457e8bd1630aa66e8a472d6e", "rental_uris": {"android": "https://dc.lft.to/lastmile_qr_scan", "ios": "https://dc.lft.to/lastmile_qr_scan"}, "lat": 38.924704166666665, "bike_id": "05e8b7de457e8bd1630aa66e8a472d6e", "is_disabled": 0, "lon": -77.035338, "is_reserved": 0, "fusion_lat": 0.0, "type": "electric_scooter"}, {"fusion_lon": 0.0, "name": "79f942e43f64149cdeba724ee5eb1d1f", "rental_uris": {"android": "https://dc.lft.to/lastmile_qr_scan", "ios": "https://dc.lft.to/lastmile_qr_scan"}, "lat": 38.87944933333333, "bike_id": "79f942e43f64149cdeba724ee5eb1d1f", "is_disabled": 0, "lon": -76.98377883333333, "is_reserved": 0, "fusion_lat": 0.0, "type": "electric_scooter"}, {"fusion_lon": 0.0, "name": "1357170c81b84fafa4596633af73a009", "rental_uris": {"android": "https://dc.lft.to/lastmile_qr_scan", "ios": "https://dc.lft.to/lastmile_qr_scan"}, "lat": 38.89462433333333, "bike_id": "1357170c81b84fafa4596633af73a009", "is_disabled": 0, "lon": -77.033783, "is_reserved": 0, "fusion_lat": 0.0, "type": "electric_scooter"}, {"fusion_lon": 0.0, "name": "dd9eabb12407aeeed3ea7b222aa7ee79", "rental_uris": {"android": "https://dc.lft.to/lastmile_qr_scan", "ios": "https://dc.lft.to/lastmile_qr_scan"}, "lat": 38.8374345, "bike_id": "dd9eabb12407aeeed3ea7b222aa7ee79", "is_disabled": 0, "lon": -76.99862466666667, "is_reserved": 0, "fusion_lat": 0.0, "type": "electric_scooter"}, {"fusion_lon": 0.0, "name": "773b346cc77b90d362af3dd2f3c8dd85", "rental_uris": {"android": "https://dc.lft.to/lastmile_qr_scan", "ios": "https://dc.lft.to/lastmile_qr_scan"}, "lat": 38.87677583333333, "bike_id": "773b346cc77b90d362af3dd2f3c8dd85", "is_disabled": 0, "lon": -77.0045125, "is_reserved": 0, "fusion_lat": 0.0, "type": "electric_scooter"}, {"fusion_lon": 0.0, "name": "1422633fd5759bed698fc5510a8c332c", "rental_uris": {"android": "https://dc.lft.to/lastmile_qr_scan", "ios": "https://dc.lft.to/lastmile_qr_scan"}, "lat": 38.9033695, "bike_id": "1422633fd5759bed698fc5510a8c332c", "is_disabled": 0, "lon": -76.97576183333334, "is_reserved": 0, "fusion_lat": 0.0, "type": "electric_scooter"}, {"fusion_lon": 0.0, "name": "59010a1bc3a2b1a558557a28e2ec2479", "rental_uris": {"android": "https://dc.lft.to/lastmile_qr_scan", "ios": "https://dc.lft.to/lastmile_qr_scan"}, "lat": 38.9637795, "bike_id": "59010a1bc3a2b1a558557a28e2ec2479", "is_disabled": 0, "lon": -76.9351885, "is_reserved": 0, "fusion_lat": 0.0, "type": "electric_bike"}, {"fusion_lon": 0.0, "name": "e6136724e6e14aa79357deb19918617a", "rental_uris": {"android": "https://dc.lft.to/lastmile_qr_scan", "ios": "https://dc.lft.to/lastmile_qr_scan"}, "lat": 38.8949125, "bike_id": "e6136724e6e14aa79357deb19918617a", "is_disabled": 0, "lon": -76.94893433333333, "is_reserved": 0, "fusion_lat": 0.0, "type": "electric_scooter"}, {"fusion_lon": 0.0, "name": "3ad88f2417fff89045e9ca07e996910b", "rental_uris": {"android": "https://dc.lft.to/lastmile_qr_scan", "ios": "https://dc.lft.to/lastmile_qr_scan"}, "lat": 38.883725166666665, "bike_id": "3ad88f2417fff89045e9ca07e996910b", "is_disabled": 0, "lon": -76.99517266666666, "is_reserved": 0, "fusion_lat": 0.0, "type": "electric_scooter"}, {"fusion_lon": 0.0, "name": "2064d604cab731ded966558b123b002f", "rental_uris": {"android": "https://dc.lft.to/lastmile_qr_scan", "ios": "https://dc.lft.to/lastmile_qr_scan"}, "lat": 38.90264716666667, "bike_id": "2064d604cab731ded966558b123b002f", "is_disabled": 0, "lon": -77.0312995, "is_reserved": 0, "fusion_lat": 0.0, "type": "electric_scooter"}, {"fusion_lon": 0.0, "name": "0a06f983ff651149fe55afe2846bec2d", "rental_uris": {"android": "https://dc.lft.to/lastmile_qr_scan", "ios": "https://dc.lft.to/lastmile_qr_scan"}, "lat": 38.917671, "bike_id": "0a06f983ff651149fe55afe2846bec2d", "is_disabled": 0, "lon": -77.04059016666666, "is_reserved": 0, "fusion_lat": 0.0, "type": "electric_scooter"}, {"fusion_lon": 0.0, "name": "f75c565770a7d4c65712382bd5615a94", "rental_uris": {"android": "https://dc.lft.to/lastmile_qr_scan", "ios": "https://dc.lft.to/lastmile_qr_scan"}, "lat": 38.8946925, "bike_id": "f75c565770a7d4c65712382bd5615a94", "is_disabled": 0, "lon": -76.99713233333334, "is_reserved": 0, "fusion_lat": 0.0, "type": "electric_scooter"}, {"fusion_lon": 0.0, "name": "e66ef045ff1e44778960de78b71cad17", "rental_uris": {"android": "https://dc.lft.to/lastmile_qr_scan", "ios": "https://dc.lft.to/lastmile_qr_scan"}, "lat": 38.89573683333333, "bike_id": "e66ef045ff1e44778960de78b71cad17", "is_disabled": 0, "lon": -77.00610983333333, "is_reserved": 0, "fusion_lat": 0.0, "type": "electric_scooter"}, {"fusion_lon": 0.0, "name": "c042c1187385b8ff82a8f17178f9457c", "rental_uris": {"android": "https://dc.lft.to/lastmile_qr_scan", "ios": "https://dc.lft.to/lastmile_qr_scan"}, "lat": 38.895466666666664, "bike_id": "c042c1187385b8ff82a8f17178f9457c", "is_disabled": 0, "lon": -76.9833695, "is_reserved": 0, "fusion_lat": 0.0, "type": "electric_scooter"}, {"fusion_lon": 0.0, "name": "0399362d935a7b91c06c65073d5b91c2", "rental_uris": {"android": "https://dc.lft.to/lastmile_qr_scan", "ios": "https://dc.lft.to/lastmile_qr_scan"}, "lat": 38.91430583333333, "bike_id": "0399362d935a7b91c06c65073d5b91c2", "is_disabled": 0, "lon": -77.0281345, "is_reserved": 0, "fusion_lat": 0.0, "type": "electric_scooter"}, {"fusion_lon": 0.0, "name": "1d45610ecd8df531ab5267488ac886c4", "rental_uris": {"android": "https://dc.lft.to/lastmile_qr_scan", "ios": "https://dc.lft.to/lastmile_qr_scan"}, "lat": 39.003796666666666, "bike_id": "1d45610ecd8df531ab5267488ac886c4", "is_disabled": 0, "lon": -77.01289633333333, "is_reserved": 0, "fusion_lat": 0.0, "type": "electric_bike"}, {"fusion_lon": 0.0, "name": "cb606862dfdd6a9754a51da3ddd76bb4", "rental_uris": {"android": "https://dc.lft.to/lastmile_qr_scan", "ios": "https://dc.lft.to/lastmile_qr_scan"}, "lat": 38.91121783333333, "bike_id": "cb606862dfdd6a9754a51da3ddd76bb4", "is_disabled": 0, "lon": -77.043777, "is_reserved": 0, "fusion_lat": 0.0, "type": "electric_scooter"}, {"fusion_lon": 0.0, "name": "e97c8159a048de468fe2087199ec0817", "rental_uris": {"android": "https://dc.lft.to/lastmile_qr_scan", "ios": "https://dc.lft.to/lastmile_qr_scan"}, "lat": 38.908945, "bike_id": "e97c8159a048de468fe2087199ec0817", "is_disabled": 0, "lon": -77.03840566666666, "is_reserved": 0, "fusion_lat": 0.0, "type": "electric_scooter"}, {"fusion_lon": 0.0, "name": "05b139f95028a39186966bcdc484c2ea", "rental_uris": {"android": "https://dc.lft.to/lastmile_qr_scan", "ios": "https://dc.lft.to/lastmile_qr_scan"}, "lat": 38.8976085, "bike_id": "05b139f95028a39186966bcdc484c2ea", "is_disabled": 0, "lon": -77.011869, "is_reserved": 0, "fusion_lat": 0.0, "type": "electric_scooter"}, {"fusion_lon": 0.0, "name": "abf71f42dfdfd3fb7d3c8fa50d321cf8", "rental_uris": {"android": "https://dc.lft.to/lastmile_qr_scan", "ios": "https://dc.lft.to/lastmile_qr_scan"}, "lat": 38.901517166666665, "bike_id": "abf71f42dfdfd3fb7d3c8fa50d321cf8", "is_disabled": 0, "lon": -77.051192, "is_reserved": 0, "fusion_lat": 0.0, "type": "electric_scooter"}, {"fusion_lon": 0.0, "name": "65d25bca5196a39f01bf78a108e448dd", "rental_uris": {"android": "https://dc.lft.to/lastmile_qr_scan", "ios": "https://dc.lft.to/lastmile_qr_scan"}, "lat": 38.89599333333334, "bike_id": "65d25bca5196a39f01bf78a108e448dd", "is_disabled": 0, "lon": -77.0278955, "is_reserved": 0, "fusion_lat": 0.0, "type": "electric_scooter"}, {"fusion_lon": 0.0, "name": "28026fb132bbbb1fcb303c350fca33a1", "rental_uris": {"android": "https://dc.lft.to/lastmile_qr_scan", "ios": "https://dc.lft.to/lastmile_qr_scan"}, "lat": 38.92325483333333, "bike_id": "28026fb132bbbb1fcb303c350fca33a1", "is_disabled": 0, "lon": -77.01954483333333, "is_reserved": 0, "fusion_lat": 0.0, "type": "electric_scooter"}, {"fusion_lon": 0.0, "name": "5706c45a562a30203379dcf7a9b337af", "rental_uris": {"android": "https://dc.lft.to/lastmile_qr_scan", "ios": "https://dc.lft.to/lastmile_qr_scan"}, "lat": 38.893924166666665, "bike_id": "5706c45a562a30203379dcf7a9b337af", "is_disabled": 0, "lon": -77.02199533333334, "is_reserved": 0, "fusion_lat": 0.0, "type": "electric_scooter"}, {"fusion_lon": 0.0, "name": "0320c176a67f41d424711f27c7e74256", "rental_uris": {"android": "https://dc.lft.to/lastmile_qr_scan", "ios": "https://dc.lft.to/lastmile_qr_scan"}, "lat": 38.91404766666667, "bike_id": "0320c176a67f41d424711f27c7e74256", "is_disabled": 0, "lon": -77.03257683333334, "is_reserved": 0, "fusion_lat": 0.0, "type": "electric_scooter"}, {"fusion_lon": 0.0, "name": "c98add942488e3438ca5727ef6117ec0", "rental_uris": {"android": "https://dc.lft.to/lastmile_qr_scan", "ios": "https://dc.lft.to/lastmile_qr_scan"}, "lat": 38.91313316666667, "bike_id": "c98add942488e3438ca5727ef6117ec0", "is_disabled": 0, "lon": -77.01510466666667, "is_reserved": 0, "fusion_lat": 0.0, "type": "electric_scooter"}, {"fusion_lon": 0.0, "name": "4b58abf0c72082c8e59a6616df1f4840", "rental_uris": {"android": "https://dc.lft.to/lastmile_qr_scan", "ios": "https://dc.lft.to/lastmile_qr_scan"}, "lat": 38.92470333333333, "bike_id": "4b58abf0c72082c8e59a6616df1f4840", "is_disabled": 0, "lon": -77.02202833333334, "is_reserved": 0, "fusion_lat": 0.0, "type": "electric_scooter"}, {"fusion_lon": 0.0, "name": "0f2dcf726ac0446c0c7dce3d1dc660c1", "rental_uris": {"android": "https://dc.lft.to/lastmile_qr_scan", "ios": "https://dc.lft.to/lastmile_qr_scan"}, "lat": 38.9090045, "bike_id": "0f2dcf726ac0446c0c7dce3d1dc660c1", "is_disabled": 0, "lon": -77.015273, "is_reserved": 0, "fusion_lat": 0.0, "type": "electric_scooter"}, {"fusion_lon": 0.0, "name": "8f0ca2e49193a4dbfb989567f746d7fe", "rental_uris": {"android": "https://dc.lft.to/lastmile_qr_scan", "ios": "https://dc.lft.to/lastmile_qr_scan"}, "lat": 38.895450333333336, "bike_id": "8f0ca2e49193a4dbfb989567f746d7fe", "is_disabled": 0, "lon": -76.92657466666667, "is_reserved": 0, "fusion_lat": 0.0, "type": "electric_scooter"}, {"fusion_lon": 0.0, "name": "fe6d63bac2d65e23d2eb3bdb42e58268", "rental_uris": {"android": "https://dc.lft.to/lastmile_qr_scan", "ios": "https://dc.lft.to/lastmile_qr_scan"}, "lat": 38.8734045, "bike_id": "fe6d63bac2d65e23d2eb3bdb42e58268", "is_disabled": 0, "lon": -76.99170366666667, "is_reserved": 0, "fusion_lat": 0.0, "type": "electric_scooter"}, {"fusion_lon": 0.0, "name": "e04767073dfca8289d028280f3e7387d", "rental_uris": {"android": "https://dc.lft.to/lastmile_qr_scan", "ios": "https://dc.lft.to/lastmile_qr_scan"}, "lat": 38.8973155, "bike_id": "e04767073dfca8289d028280f3e7387d", "is_disabled": 0, "lon": -77.0256405, "is_reserved": 0, "fusion_lat": 0.0, "type": "electric_scooter"}, {"fusion_lon": 0.0, "name": "892411c63d72fb9c8f841048159af544", "rental_uris": {"android": "https://dc.lft.to/lastmile_qr_scan", "ios": "https://dc.lft.to/lastmile_qr_scan"}, "lat": 38.8804145, "bike_id": "892411c63d72fb9c8f841048159af544", "is_disabled": 0, "lon": -77.00517716666667, "is_reserved": 0, "fusion_lat": 0.0, "type": "electric_scooter"}, {"fusion_lon": 0.0, "name": "d08050040ec474753cb09e208ea9db8b", "rental_uris": {"android": "https://dc.lft.to/lastmile_qr_scan", "ios": "https://dc.lft.to/lastmile_qr_scan"}, "lat": 38.92199433333333, "bike_id": "d08050040ec474753cb09e208ea9db8b", "is_disabled": 0, "lon": -76.98369383333333, "is_reserved": 0, "fusion_lat": 0.0, "type": "electric_scooter"}, {"fusion_lon": 0.0, "name": "ff11347a6ae26ceac1010aa8e33b8374", "rental_uris": {"android": "https://dc.lft.to/lastmile_qr_scan", "ios": "https://dc.lft.to/lastmile_qr_scan"}, "lat": 38.899467, "bike_id": "ff11347a6ae26ceac1010aa8e33b8374", "is_disabled": 0, "lon": -77.04499566666667, "is_reserved": 0, "fusion_lat": 0.0, "type": "electric_scooter"}, {"fusion_lon": 0.0, "name": "a06c0d0e08e75b145c2b7ade1c6a24d0", "rental_uris": {"android": "https://dc.lft.to/lastmile_qr_scan", "ios": "https://dc.lft.to/lastmile_qr_scan"}, "lat": 38.91665316666667, "bike_id": "a06c0d0e08e75b145c2b7ade1c6a24d0", "is_disabled": 0, "lon": -77.038504, "is_reserved": 0, "fusion_lat": 0.0, "type": "electric_scooter"}, {"fusion_lon": 0.0, "name": "daea7b04a0f116890618423e784bea74", "rental_uris": {"android": "https://dc.lft.to/lastmile_qr_scan", "ios": "https://dc.lft.to/lastmile_qr_scan"}, "lat": 38.9266535, "bike_id": "daea7b04a0f116890618423e784bea74", "is_disabled": 0, "lon": -77.0368535, "is_reserved": 0, "fusion_lat": 0.0, "type": "electric_bike"}, {"fusion_lon": 0.0, "name": "0e46646fa5c137e3f54e664791f1f2a7", "rental_uris": {"android": "https://dc.lft.to/lastmile_qr_scan", "ios": "https://dc.lft.to/lastmile_qr_scan"}, "lat": 38.91734816666666, "bike_id": "0e46646fa5c137e3f54e664791f1f2a7", "is_disabled": 0, "lon": -77.0320855, "is_reserved": 0, "fusion_lat": 0.0, "type": "electric_scooter"}, {"fusion_lon": 0.0, "name": "d36ef1a860b1eed286447eab5e37adcb", "rental_uris": {"android": "https://dc.lft.to/lastmile_qr_scan", "ios": "https://dc.lft.to/lastmile_qr_scan"}, "lat": 38.924934, "bike_id": "d36ef1a860b1eed286447eab5e37adcb", "is_disabled": 0, "lon": -77.0412465, "is_reserved": 0, "fusion_lat": 0.0, "type": "electric_scooter"}, {"fusion_lon": 0.0, "name": "9ccd42a9956c36942c5573c9f3822c1e", "rental_uris": {"android": "https://dc.lft.to/lastmile_qr_scan", "ios": "https://dc.lft.to/lastmile_qr_scan"}, "lat": 38.9028835, "bike_id": "9ccd42a9956c36942c5573c9f3822c1e", "is_disabled": 0, "lon": -77.03342533333333, "is_reserved": 0, "fusion_lat": 0.0, "type": "electric_scooter"}, {"fusion_lon": 0.0, "name": "d426dbda124bcc38e430aadbec7670a7", "rental_uris": {"android": "https://dc.lft.to/lastmile_qr_scan", "ios": "https://dc.lft.to/lastmile_qr_scan"}, "lat": 38.9410795, "bike_id": "d426dbda124bcc38e430aadbec7670a7", "is_disabled": 0, "lon": -77.06137716666667, "is_reserved": 0, "fusion_lat": 0.0, "type": "electric_scooter"}, {"fusion_lon": 0.0, "name": "bb9ed4b9f774a85afea437b1a745be69", "rental_uris": {"android": "https://dc.lft.to/lastmile_qr_scan", "ios": "https://dc.lft.to/lastmile_qr_scan"}, "lat": 38.94178733333333, "bike_id": "bb9ed4b9f774a85afea437b1a745be69", "is_disabled": 0, "lon": -77.03648983333333, "is_reserved": 0, "fusion_lat": 0.0, "type": "electric_scooter"}, {"fusion_lon": 0.0, "name": "e90fb47722401b34fe52ef7f4c00d84e", "rental_uris": {"android": "https://dc.lft.to/lastmile_qr_scan", "ios": "https://dc.lft.to/lastmile_qr_scan"}, "lat": 38.9279075, "bike_id": "e90fb47722401b34fe52ef7f4c00d84e", "is_disabled": 0, "lon": -77.03078583333334, "is_reserved": 0, "fusion_lat": 0.0, "type": "electric_scooter"}, {"fusion_lon": 0.0, "name": "558b5f69b820773f1cf9b89a35d14a2f", "rental_uris": {"android": "https://dc.lft.to/lastmile_qr_scan", "ios": "https://dc.lft.to/lastmile_qr_scan"}, "lat": 38.90895616666667, "bike_id": "558b5f69b820773f1cf9b89a35d14a2f", "is_disabled": 0, "lon": -77.07264833333333, "is_reserved": 0, "fusion_lat": 0.0, "type": "electric_scooter"}, {"fusion_lon": 0.0, "name": "54928c3884ef31eecd8aa8bcb226d74c", "rental_uris": {"android": "https://dc.lft.to/lastmile_qr_scan", "ios": "https://dc.lft.to/lastmile_qr_scan"}, "lat": 38.90962583333334, "bike_id": "54928c3884ef31eecd8aa8bcb226d74c", "is_disabled": 0, "lon": -77.03376566666667, "is_reserved": 0, "fusion_lat": 0.0, "type": "electric_scooter"}, {"fusion_lon": 0.0, "name": "f274e8ea299fbfa4cd1942bc54baedab", "rental_uris": {"android": "https://dc.lft.to/lastmile_qr_scan", "ios": "https://dc.lft.to/lastmile_qr_scan"}, "lat": 38.915569, "bike_id": "f274e8ea299fbfa4cd1942bc54baedab", "is_disabled": 0, "lon": -77.00720666666666, "is_reserved": 0, "fusion_lat": 0.0, "type": "electric_scooter"}, {"fusion_lon": 0.0, "name": "8daa7de1fe95379911a9c450de3cd454", "rental_uris": {"android": "https://dc.lft.to/lastmile_qr_scan", "ios": "https://dc.lft.to/lastmile_qr_scan"}, "lat": 38.8999545, "bike_id": "8daa7de1fe95379911a9c450de3cd454", "is_disabled": 0, "lon": -77.040938, "is_reserved": 0, "fusion_lat": 0.0, "type": "electric_scooter"}, {"fusion_lon": 0.0, "name": "2cb82b84a50a8f94ba6b1861b13ee165", "rental_uris": {"android": "https://dc.lft.to/lastmile_qr_scan", "ios": "https://dc.lft.to/lastmile_qr_scan"}, "lat": 38.9240445, "bike_id": "2cb82b84a50a8f94ba6b1861b13ee165", "is_disabled": 0, "lon": -77.02241716666667, "is_reserved": 0, "fusion_lat": 0.0, "type": "electric_scooter"}, {"fusion_lon": 0.0, "name": "bbc3172ee02ca47a0ec11cda9c776085", "rental_uris": {"android": "https://dc.lft.to/lastmile_qr_scan", "ios": "https://dc.lft.to/lastmile_qr_scan"}, "lat": 38.89605616666667, "bike_id": "bbc3172ee02ca47a0ec11cda9c776085", "is_disabled": 0, "lon": -77.021488, "is_reserved": 0, "fusion_lat": 0.0, "type": "electric_scooter"}, {"fusion_lon": 0.0, "name": "e63e65b2144f752e705927b69b935bca", "rental_uris": {"android": "https://dc.lft.to/lastmile_qr_scan", "ios": "https://dc.lft.to/lastmile_qr_scan"}, "lat": 38.893223, "bike_id": "e63e65b2144f752e705927b69b935bca", "is_disabled": 0, "lon": -76.93967666666667, "is_reserved": 0, "fusion_lat": 0.0, "type": "electric_scooter"}, {"fusion_lon": 0.0, "name": "ac0e2339e966ac60ad64a308ed073889", "rental_uris": {"android": "https://dc.lft.to/lastmile_qr_scan", "ios": "https://dc.lft.to/lastmile_qr_scan"}, "lat": 38.891968166666665, "bike_id": "ac0e2339e966ac60ad64a308ed073889", "is_disabled": 0, "lon": -76.993843, "is_reserved": 0, "fusion_lat": 0.0, "type": "electric_scooter"}, {"fusion_lon": 0.0, "name": "c8e33fa8062ff512f61b670879a25445", "rental_uris": {"android": "https://dc.lft.to/lastmile_qr_scan", "ios": "https://dc.lft.to/lastmile_qr_scan"}, "lat": 38.95629266666667, "bike_id": "c8e33fa8062ff512f61b670879a25445", "is_disabled": 0, "lon": -77.033052, "is_reserved": 0, "fusion_lat": 0.0, "type": "electric_scooter"}, {"fusion_lon": 0.0, "name": "aed37c4e3cab2504a22e52e8c03b732f", "rental_uris": {"android": "https://dc.lft.to/lastmile_qr_scan", "ios": "https://dc.lft.to/lastmile_qr_scan"}, "lat": 38.900409, "bike_id": "aed37c4e3cab2504a22e52e8c03b732f", "is_disabled": 0, "lon": -76.98833683333334, "is_reserved": 0, "fusion_lat": 0.0, "type": "electric_scooter"}, {"fusion_lon": 0.0, "name": "5c98680922dad1216a6c8dd19554a5ef", "rental_uris": {"android": "https://dc.lft.to/lastmile_qr_scan", "ios": "https://dc.lft.to/lastmile_qr_scan"}, "lat": 38.876598333333334, "bike_id": "5c98680922dad1216a6c8dd19554a5ef", "is_disabled": 0, "lon": -77.01580733333333, "is_reserved": 0, "fusion_lat": 0.0, "type": "electric_scooter"}, {"fusion_lon": 0.0, "name": "3ae60d615771638cff02c49801560030", "rental_uris": {"android": "https://dc.lft.to/lastmile_qr_scan", "ios": "https://dc.lft.to/lastmile_qr_scan"}, "lat": 38.923754833333334, "bike_id": "3ae60d615771638cff02c49801560030", "is_disabled": 0, "lon": -77.021272, "is_reserved": 0, "fusion_lat": 0.0, "type": "electric_scooter"}, {"fusion_lon": 0.0, "name": "bc567c98cd8de53f817fa1939a273323", "rental_uris": {"android": "https://dc.lft.to/lastmile_qr_scan", "ios": "https://dc.lft.to/lastmile_qr_scan"}, "lat": 38.847584499999996, "bike_id": "bc567c98cd8de53f817fa1939a273323", "is_disabled": 0, "lon": -77.05374733333333, "is_reserved": 0, "fusion_lat": 0.0, "type": "electric_bike"}, {"fusion_lon": 0.0, "name": "17074d67a8cf7b0c37ce7747fb70f102", "rental_uris": {"android": "https://dc.lft.to/lastmile_qr_scan", "ios": "https://dc.lft.to/lastmile_qr_scan"}, "lat": 38.91366466666667, "bike_id": "17074d67a8cf7b0c37ce7747fb70f102", "is_disabled": 0, "lon": -77.04492833333333, "is_reserved": 0, "fusion_lat": 0.0, "type": "electric_scooter"}, {"fusion_lon": 0.0, "name": "42742ed9dca6e692082cf4fcdaca1a1a", "rental_uris": {"android": "https://dc.lft.to/lastmile_qr_scan", "ios": "https://dc.lft.to/lastmile_qr_scan"}, "lat": 38.894905666666666, "bike_id": "42742ed9dca6e692082cf4fcdaca1a1a", "is_disabled": 0, "lon": -76.94893183333333, "is_reserved": 0, "fusion_lat": 0.0, "type": "electric_scooter"}, {"fusion_lon": 0.0, "name": "25976212cf0313f8a51f131689d969bc", "rental_uris": {"android": "https://dc.lft.to/lastmile_qr_scan", "ios": "https://dc.lft.to/lastmile_qr_scan"}, "lat": 38.89633966666667, "bike_id": "25976212cf0313f8a51f131689d969bc", "is_disabled": 0, "lon": -77.0321595, "is_reserved": 0, "fusion_lat": 0.0, "type": "electric_scooter"}, {"fusion_lon": 0.0, "name": "a7ad90491b87689f715fc12ffc1b4624", "rental_uris": {"android": "https://dc.lft.to/lastmile_qr_scan", "ios": "https://dc.lft.to/lastmile_qr_scan"}, "lat": 38.9434735, "bike_id": "a7ad90491b87689f715fc12ffc1b4624", "is_disabled": 0, "lon": -77.0613335, "is_reserved": 0, "fusion_lat": 0.0, "type": "electric_scooter"}, {"fusion_lon": 0.0, "name": "ccd89d419849854b6f8f99f2c0291d89", "rental_uris": {"android": "https://dc.lft.to/lastmile_qr_scan", "ios": "https://dc.lft.to/lastmile_qr_scan"}, "lat": 38.939819, "bike_id": "ccd89d419849854b6f8f99f2c0291d89", "is_disabled": 0, "lon": -77.02835066666667, "is_reserved": 0, "fusion_lat": 0.0, "type": "electric_scooter"}, {"fusion_lon": 0.0, "name": "c1d7859f60ff63408d2a129be810ce44", "rental_uris": {"android": "https://dc.lft.to/lastmile_qr_scan", "ios": "https://dc.lft.to/lastmile_qr_scan"}, "lat": 38.88869783333333, "bike_id": "c1d7859f60ff63408d2a129be810ce44", "is_disabled": 0, "lon": -77.03997966666667, "is_reserved": 0, "fusion_lat": 0.0, "type": "electric_scooter"}, {"fusion_lon": 0.0, "name": "8361dff49f6efc6b7e0dae2295a29cd3", "rental_uris": {"android": "https://dc.lft.to/lastmile_qr_scan", "ios": "https://dc.lft.to/lastmile_qr_scan"}, "lat": 38.897761, "bike_id": "8361dff49f6efc6b7e0dae2295a29cd3", "is_disabled": 0, "lon": -77.03172983333333, "is_reserved": 0, "fusion_lat": 0.0, "type": "electric_scooter"}, {"fusion_lon": 0.0, "name": "540ce5fc7ab5f964b1b812aa8d8105e8", "rental_uris": {"android": "https://dc.lft.to/lastmile_qr_scan", "ios": "https://dc.lft.to/lastmile_qr_scan"}, "lat": 38.915397666666664, "bike_id": "540ce5fc7ab5f964b1b812aa8d8105e8", "is_disabled": 0, "lon": -77.04429366666666, "is_reserved": 0, "fusion_lat": 0.0, "type": "electric_scooter"}, {"fusion_lon": 0.0, "name": "cf250391fd787ed4ab18e561a5b65c07", "rental_uris": {"android": "https://dc.lft.to/lastmile_qr_scan", "ios": "https://dc.lft.to/lastmile_qr_scan"}, "lat": 38.900170833333334, "bike_id": "cf250391fd787ed4ab18e561a5b65c07", "is_disabled": 0, "lon": -76.991717, "is_reserved": 0, "fusion_lat": 0.0, "type": "electric_scooter"}, {"fusion_lon": 0.0, "name": "a108baf423d5fa711c956f7743d3b219", "rental_uris": {"android": "https://dc.lft.to/lastmile_qr_scan", "ios": "https://dc.lft.to/lastmile_qr_scan"}, "lat": 38.90139516666667, "bike_id": "a108baf423d5fa711c956f7743d3b219", "is_disabled": 0, "lon": -76.989658, "is_reserved": 0, "fusion_lat": 0.0, "type": "electric_scooter"}, {"fusion_lon": 0.0, "name": "9463eee425f1067eb652e3a2a290629d", "rental_uris": {"android": "https://dc.lft.to/lastmile_qr_scan", "ios": "https://dc.lft.to/lastmile_qr_scan"}, "lat": 38.9039445, "bike_id": "9463eee425f1067eb652e3a2a290629d", "is_disabled": 0, "lon": -76.981107, "is_reserved": 0, "fusion_lat": 0.0, "type": "electric_scooter"}, {"fusion_lon": 0.0, "name": "2169a346f2920ee1953a49086a42cb36", "rental_uris": {"android": "https://dc.lft.to/lastmile_qr_scan", "ios": "https://dc.lft.to/lastmile_qr_scan"}, "lat": 38.89931983333334, "bike_id": "2169a346f2920ee1953a49086a42cb36", "is_disabled": 0, "lon": -77.0294675, "is_reserved": 0, "fusion_lat": 0.0, "type": "electric_scooter"}, {"fusion_lon": 0.0, "name": "c99bdc824740c6c8f6c300ddad42d87b", "rental_uris": {"android": "https://dc.lft.to/lastmile_qr_scan", "ios": "https://dc.lft.to/lastmile_qr_scan"}, "lat": 38.8862055, "bike_id": "c99bdc824740c6c8f6c300ddad42d87b", "is_disabled": 0, "lon": -77.03206483333334, "is_reserved": 0, "fusion_lat": 0.0, "type": "electric_scooter"}, {"fusion_lon": 0.0, "name": "61f4049256a6496871ea48997b6d7e31", "rental_uris": {"android": "https://dc.lft.to/lastmile_qr_scan", "ios": "https://dc.lft.to/lastmile_qr_scan"}, "lat": 38.92442466666667, "bike_id": "61f4049256a6496871ea48997b6d7e31", "is_disabled": 0, "lon": -77.040305, "is_reserved": 0, "fusion_lat": 0.0, "type": "electric_scooter"}, {"fusion_lon": 0.0, "name": "5d49eba335845034b55d8f4a2f51a1c0", "rental_uris": {"android": "https://dc.lft.to/lastmile_qr_scan", "ios": "https://dc.lft.to/lastmile_qr_scan"}, "lat": 38.93540333333333, "bike_id": "5d49eba335845034b55d8f4a2f51a1c0", "is_disabled": 0, "lon": -77.07304216666667, "is_reserved": 0, "fusion_lat": 0.0, "type": "electric_scooter"}, {"fusion_lon": 0.0, "name": "69d8397b6720de17f2da1fcbd318f9f7", "rental_uris": {"android": "https://dc.lft.to/lastmile_qr_scan", "ios": "https://dc.lft.to/lastmile_qr_scan"}, "lat": 38.89739466666666, "bike_id": "69d8397b6720de17f2da1fcbd318f9f7", "is_disabled": 0, "lon": -77.02494683333333, "is_reserved": 0, "fusion_lat": 0.0, "type": "electric_scooter"}, {"fusion_lon": 0.0, "name": "639db779dd139a28d7e160e7fedddecc", "rental_uris": {"android": "https://dc.lft.to/lastmile_qr_scan", "ios": "https://dc.lft.to/lastmile_qr_scan"}, "lat": 38.91921833333333, "bike_id": "639db779dd139a28d7e160e7fedddecc", "is_disabled": 0, "lon": -77.02479366666667, "is_reserved": 0, "fusion_lat": 0.0, "type": "electric_scooter"}, {"fusion_lon": 0.0, "name": "682a11f0cfbee26a36ba49ba7de29bdc", "rental_uris": {"android": "https://dc.lft.to/lastmile_qr_scan", "ios": "https://dc.lft.to/lastmile_qr_scan"}, "lat": 38.889031833333334, "bike_id": "682a11f0cfbee26a36ba49ba7de29bdc", "is_disabled": 0, "lon": -76.95216416666666, "is_reserved": 0, "fusion_lat": 0.0, "type": "electric_scooter"}, {"fusion_lon": 0.0, "name": "064af28e18fc7eebe6603035d473eae7", "rental_uris": {"android": "https://dc.lft.to/lastmile_qr_scan", "ios": "https://dc.lft.to/lastmile_qr_scan"}, "lat": 38.92434133333333, "bike_id": "064af28e18fc7eebe6603035d473eae7", "is_disabled": 0, "lon": -77.00318833333333, "is_reserved": 0, "fusion_lat": 0.0, "type": "electric_scooter"}, {"fusion_lon": 0.0, "name": "0fb8f51494d5be577d4687071e96d7bd", "rental_uris": {"android": "https://dc.lft.to/lastmile_qr_scan", "ios": "https://dc.lft.to/lastmile_qr_scan"}, "lat": 38.95601666666666, "bike_id": "0fb8f51494d5be577d4687071e96d7bd", "is_disabled": 0, "lon": -76.9647285, "is_reserved": 0, "fusion_lat": 0.0, "type": "electric_bike"}, {"fusion_lon": 0.0, "name": "8e8345dd00eef1bef9b2d8ae1719e8f7", "rental_uris": {"android": "https://dc.lft.to/lastmile_qr_scan", "ios": "https://dc.lft.to/lastmile_qr_scan"}, "lat": 38.905258, "bike_id": "8e8345dd00eef1bef9b2d8ae1719e8f7", "is_disabled": 0, "lon": -77.06097183333333, "is_reserved": 0, "fusion_lat": 0.0, "type": "electric_scooter"}, {"fusion_lon": 0.0, "name": "fc51f98446981f9a04f2dd32be5d9e2b", "rental_uris": {"android": "https://dc.lft.to/lastmile_qr_scan", "ios": "https://dc.lft.to/lastmile_qr_scan"}, "lat": 38.911293, "bike_id": "fc51f98446981f9a04f2dd32be5d9e2b", "is_disabled": 0, "lon": -77.04421866666667, "is_reserved": 0, "fusion_lat": 0.0, "type": "electric_scooter"}, {"fusion_lon": 0.0, "name": "ad52f33a9602c28e00ce8715cb8fcef8", "rental_uris": {"android": "https://dc.lft.to/lastmile_qr_scan", "ios": "https://dc.lft.to/lastmile_qr_scan"}, "lat": 38.923516, "bike_id": "ad52f33a9602c28e00ce8715cb8fcef8", "is_disabled": 0, "lon": -77.05434283333334, "is_reserved": 0, "fusion_lat": 0.0, "type": "electric_scooter"}, {"fusion_lon": 0.0, "name": "88f982817827f4e53894c72fdd2958a8", "rental_uris": {"android": "https://dc.lft.to/lastmile_qr_scan", "ios": "https://dc.lft.to/lastmile_qr_scan"}, "lat": 38.91665366666667, "bike_id": "88f982817827f4e53894c72fdd2958a8", "is_disabled": 0, "lon": -77.02804666666667, "is_reserved": 0, "fusion_lat": 0.0, "type": "electric_scooter"}, {"fusion_lon": 0.0, "name": "d26105518e97a0b4c2d37a7eddf8ae63", "rental_uris": {"android": "https://dc.lft.to/lastmile_qr_scan", "ios": "https://dc.lft.to/lastmile_qr_scan"}, "lat": 38.91907766666667, "bike_id": "d26105518e97a0b4c2d37a7eddf8ae63", "is_disabled": 0, "lon": -77.0319175, "is_reserved": 0, "fusion_lat": 0.0, "type": "electric_scooter"}, {"fusion_lon": 0.0, "name": "1982af4b475bc557b85d7ee8376b2755", "rental_uris": {"android": "https://dc.lft.to/lastmile_qr_scan", "ios": "https://dc.lft.to/lastmile_qr_scan"}, "lat": 38.8921955, "bike_id": "1982af4b475bc557b85d7ee8376b2755", "is_disabled": 0, "lon": -77.04635466666667, "is_reserved": 0, "fusion_lat": 0.0, "type": "electric_scooter"}, {"fusion_lon": 0.0, "name": "75ee4a182d0a3b9e8cc9e696348a9b60", "rental_uris": {"android": "https://dc.lft.to/lastmile_qr_scan", "ios": "https://dc.lft.to/lastmile_qr_scan"}, "lat": 38.887011333333334, "bike_id": "75ee4a182d0a3b9e8cc9e696348a9b60", "is_disabled": 0, "lon": -77.0217865, "is_reserved": 0, "fusion_lat": 0.0, "type": "electric_scooter"}, {"fusion_lon": 0.0, "name": "2a88ef2023cb96fe1b89ed48dbc8b537", "rental_uris": {"android": "https://dc.lft.to/lastmile_qr_scan", "ios": "https://dc.lft.to/lastmile_qr_scan"}, "lat": 38.9027195, "bike_id": "2a88ef2023cb96fe1b89ed48dbc8b537", "is_disabled": 0, "lon": -77.02692766666667, "is_reserved": 0, "fusion_lat": 0.0, "type": "electric_scooter"}, {"fusion_lon": 0.0, "name": "e55e2dd14ad36a607542124b03470859", "rental_uris": {"android": "https://dc.lft.to/lastmile_qr_scan", "ios": "https://dc.lft.to/lastmile_qr_scan"}, "lat": 38.8923065, "bike_id": "e55e2dd14ad36a607542124b03470859", "is_disabled": 0, "lon": -77.049978, "is_reserved": 0, "fusion_lat": 0.0, "type": "electric_scooter"}, {"fusion_lon": 0.0, "name": "6fd0c2e3010ad085241d503c33ce0c38", "rental_uris": {"android": "https://dc.lft.to/lastmile_qr_scan", "ios": "https://dc.lft.to/lastmile_qr_scan"}, "lat": 38.895938, "bike_id": "6fd0c2e3010ad085241d503c33ce0c38", "is_disabled": 0, "lon": -77.04805233333333, "is_reserved": 0, "fusion_lat": 0.0, "type": "electric_scooter"}, {"fusion_lon": 0.0, "name": "e563d56a7399a7d19e4e138548eae05d", "rental_uris": {"android": "https://dc.lft.to/lastmile_qr_scan", "ios": "https://dc.lft.to/lastmile_qr_scan"}, "lat": 38.91326, "bike_id": "e563d56a7399a7d19e4e138548eae05d", "is_disabled": 0, "lon": -77.04536283333333, "is_reserved": 0, "fusion_lat": 0.0, "type": "electric_scooter"}, {"fusion_lon": 0.0, "name": "718792adda997941ea190111728f7632", "rental_uris": {"android": "https://dc.lft.to/lastmile_qr_scan", "ios": "https://dc.lft.to/lastmile_qr_scan"}, "lat": 38.913993166666664, "bike_id": "718792adda997941ea190111728f7632", "is_disabled": 0, "lon": -77.04882866666667, "is_reserved": 0, "fusion_lat": 0.0, "type": "electric_scooter"}, {"fusion_lon": 0.0, "name": "f2a9be09c01c0562a588698f3e2884d6", "rental_uris": {"android": "https://dc.lft.to/lastmile_qr_scan", "ios": "https://dc.lft.to/lastmile_qr_scan"}, "lat": 38.8581275, "bike_id": "f2a9be09c01c0562a588698f3e2884d6", "is_disabled": 0, "lon": -76.98993466666667, "is_reserved": 0, "fusion_lat": 0.0, "type": "electric_scooter"}, {"fusion_lon": 0.0, "name": "80923d4c786a04ace23560a4bc947eb3", "rental_uris": {"android": "https://dc.lft.to/lastmile_qr_scan", "ios": "https://dc.lft.to/lastmile_qr_scan"}, "lat": 38.93528466666667, "bike_id": "80923d4c786a04ace23560a4bc947eb3", "is_disabled": 0, "lon": -77.03495566666666, "is_reserved": 0, "fusion_lat": 0.0, "type": "electric_scooter"}, {"fusion_lon": 0.0, "name": "1d1ca38b0a4db0e0ad67c4f1decb1821", "rental_uris": {"android": "https://dc.lft.to/lastmile_qr_scan", "ios": "https://dc.lft.to/lastmile_qr_scan"}, "lat": 38.917533166666665, "bike_id": "1d1ca38b0a4db0e0ad67c4f1decb1821", "is_disabled": 0, "lon": -77.02107366666667, "is_reserved": 0, "fusion_lat": 0.0, "type": "electric_scooter"}, {"fusion_lon": 0.0, "name": "ef2c558f1b65e07e769044a6a969a068", "rental_uris": {"android": "https://dc.lft.to/lastmile_qr_scan", "ios": "https://dc.lft.to/lastmile_qr_scan"}, "lat": 38.92565583333333, "bike_id": "ef2c558f1b65e07e769044a6a969a068", "is_disabled": 0, "lon": -76.9995685, "is_reserved": 0, "fusion_lat": 0.0, "type": "electric_scooter"}, {"fusion_lon": 0.0, "name": "f22e39af6f5c3a50e5d462417f16b177", "rental_uris": {"android": "https://dc.lft.to/lastmile_qr_scan", "ios": "https://dc.lft.to/lastmile_qr_scan"}, "lat": 38.911061333333336, "bike_id": "f22e39af6f5c3a50e5d462417f16b177", "is_disabled": 0, "lon": -77.02240233333333, "is_reserved": 0, "fusion_lat": 0.0, "type": "electric_scooter"}, {"fusion_lon": 0.0, "name": "4542dec2a577da3d296a59e53b9fa7cc", "rental_uris": {"android": "https://dc.lft.to/lastmile_qr_scan", "ios": "https://dc.lft.to/lastmile_qr_scan"}, "lat": 38.88120283333333, "bike_id": "4542dec2a577da3d296a59e53b9fa7cc", "is_disabled": 0, "lon": -76.99281283333333, "is_reserved": 0, "fusion_lat": 0.0, "type": "electric_scooter"}, {"fusion_lon": 0.0, "name": "f1514eb12c476cfecdd8616fe6ae3531", "rental_uris": {"android": "https://dc.lft.to/lastmile_qr_scan", "ios": "https://dc.lft.to/lastmile_qr_scan"}, "lat": 38.90973966666667, "bike_id": "f1514eb12c476cfecdd8616fe6ae3531", "is_disabled": 0, "lon": -77.03424633333333, "is_reserved": 0, "fusion_lat": 0.0, "type": "electric_scooter"}, {"fusion_lon": 0.0, "name": "8c0bc454ae1b094c75dc92bb341cbbb6", "rental_uris": {"android": "https://dc.lft.to/lastmile_qr_scan", "ios": "https://dc.lft.to/lastmile_qr_scan"}, "lat": 38.87474533333334, "bike_id": "8c0bc454ae1b094c75dc92bb341cbbb6", "is_disabled": 0, "lon": -76.96526116666666, "is_reserved": 0, "fusion_lat": 0.0, "type": "electric_bike"}, {"fusion_lon": 0.0, "name": "efbd7bf8a2af999e69ba8361c483e277", "rental_uris": {"android": "https://dc.lft.to/lastmile_qr_scan", "ios": "https://dc.lft.to/lastmile_qr_scan"}, "lat": 38.943973666666665, "bike_id": "efbd7bf8a2af999e69ba8361c483e277", "is_disabled": 0, "lon": -77.06358766666666, "is_reserved": 0, "fusion_lat": 0.0, "type": "electric_scooter"}, {"fusion_lon": 0.0, "name": "4f3ae9013378cb0dcf02305ead525fed", "rental_uris": {"android": "https://dc.lft.to/lastmile_qr_scan", "ios": "https://dc.lft.to/lastmile_qr_scan"}, "lat": 38.894826, "bike_id": "4f3ae9013378cb0dcf02305ead525fed", "is_disabled": 0, "lon": -76.995175, "is_reserved": 0, "fusion_lat": 0.0, "type": "electric_scooter"}, {"fusion_lon": 0.0, "name": "5f96b12e074bd886d7c47eaa818b8d3a", "rental_uris": {"android": "https://dc.lft.to/lastmile_qr_scan", "ios": "https://dc.lft.to/lastmile_qr_scan"}, "lat": 38.903874, "bike_id": "5f96b12e074bd886d7c47eaa818b8d3a", "is_disabled": 0, "lon": -77.00579933333333, "is_reserved": 0, "fusion_lat": 0.0, "type": "electric_scooter"}, {"fusion_lon": 0.0, "name": "14e9c364ac7a234cb9d28ee9fb981411", "rental_uris": {"android": "https://dc.lft.to/lastmile_qr_scan", "ios": "https://dc.lft.to/lastmile_qr_scan"}, "lat": 38.884399333333334, "bike_id": "14e9c364ac7a234cb9d28ee9fb981411", "is_disabled": 0, "lon": -76.95764833333334, "is_reserved": 0, "fusion_lat": 0.0, "type": "electric_scooter"}, {"fusion_lon": 0.0, "name": "c9a5c388d3c9bff648b21702aa7b9723", "rental_uris": {"android": "https://dc.lft.to/lastmile_qr_scan", "ios": "https://dc.lft.to/lastmile_qr_scan"}, "lat": 38.906281666666665, "bike_id": "c9a5c388d3c9bff648b21702aa7b9723", "is_disabled": 0, "lon": -77.02607666666667, "is_reserved": 0, "fusion_lat": 0.0, "type": "electric_scooter"}, {"fusion_lon": 0.0, "name": "eda433861956fdb1ae1af90a20dace13", "rental_uris": {"android": "https://dc.lft.to/lastmile_qr_scan", "ios": "https://dc.lft.to/lastmile_qr_scan"}, "lat": 38.876844166666665, "bike_id": "eda433861956fdb1ae1af90a20dace13", "is_disabled": 0, "lon": -77.0006155, "is_reserved": 0, "fusion_lat": 0.0, "type": "electric_scooter"}, {"fusion_lon": 0.0, "name": "46f515b9d969b1e814ddd06821ae1620", "rental_uris": {"android": "https://dc.lft.to/lastmile_qr_scan", "ios": "https://dc.lft.to/lastmile_qr_scan"}, "lat": 38.899088666666664, "bike_id": "46f515b9d969b1e814ddd06821ae1620", "is_disabled": 0, "lon": -77.0247015, "is_reserved": 0, "fusion_lat": 0.0, "type": "electric_scooter"}, {"fusion_lon": 0.0, "name": "26c3786e2fd9ed6add51e2cf3b9cc29e", "rental_uris": {"android": "https://dc.lft.to/lastmile_qr_scan", "ios": "https://dc.lft.to/lastmile_qr_scan"}, "lat": 38.87574633333333, "bike_id": "26c3786e2fd9ed6add51e2cf3b9cc29e", "is_disabled": 0, "lon": -77.0058395, "is_reserved": 0, "fusion_lat": 0.0, "type": "electric_scooter"}, {"fusion_lon": 0.0, "name": "45911fc972dea4eb2799226dac459dd9", "rental_uris": {"android": "https://dc.lft.to/lastmile_qr_scan", "ios": "https://dc.lft.to/lastmile_qr_scan"}, "lat": 38.832975, "bike_id": "45911fc972dea4eb2799226dac459dd9", "is_disabled": 0, "lon": -77.08410266666667, "is_reserved": 0, "fusion_lat": 0.0, "type": "electric_bike"}, {"fusion_lon": 0.0, "name": "a0c1d4c4fbb63977f0e69a39a545cae1", "rental_uris": {"android": "https://dc.lft.to/lastmile_qr_scan", "ios": "https://dc.lft.to/lastmile_qr_scan"}, "lat": 38.89675366666667, "bike_id": "a0c1d4c4fbb63977f0e69a39a545cae1", "is_disabled": 0, "lon": -77.02739016666666, "is_reserved": 0, "fusion_lat": 0.0, "type": "electric_scooter"}, {"fusion_lon": 0.0, "name": "d1f92487c4e7e3e480204ccba1d81800", "rental_uris": {"android": "https://dc.lft.to/lastmile_qr_scan", "ios": "https://dc.lft.to/lastmile_qr_scan"}, "lat": 38.905117, "bike_id": "d1f92487c4e7e3e480204ccba1d81800", "is_disabled": 0, "lon": -77.03644283333334, "is_reserved": 0, "fusion_lat": 0.0, "type": "electric_scooter"}, {"fusion_lon": 0.0, "name": "7054b02050ca4a7d457d7b7d6b91fd9e", "rental_uris": {"android": "https://dc.lft.to/lastmile_qr_scan", "ios": "https://dc.lft.to/lastmile_qr_scan"}, "lat": 38.88471966666667, "bike_id": "7054b02050ca4a7d457d7b7d6b91fd9e", "is_disabled": 0, "lon": -77.019761, "is_reserved": 0, "fusion_lat": 0.0, "type": "electric_scooter"}, {"fusion_lon": 0.0, "name": "0d65f2fdb9acb4d986891b4516a06b25", "rental_uris": {"android": "https://dc.lft.to/lastmile_qr_scan", "ios": "https://dc.lft.to/lastmile_qr_scan"}, "lat": 38.91214866666667, "bike_id": "0d65f2fdb9acb4d986891b4516a06b25", "is_disabled": 0, "lon": -77.07591716666667, "is_reserved": 0, "fusion_lat": 0.0, "type": "electric_scooter"}, {"fusion_lon": 0.0, "name": "6ecc457c4fd3d56062ed58b098b1f0ef", "rental_uris": {"android": "https://dc.lft.to/lastmile_qr_scan", "ios": "https://dc.lft.to/lastmile_qr_scan"}, "lat": 38.90720433333333, "bike_id": "6ecc457c4fd3d56062ed58b098b1f0ef", "is_disabled": 0, "lon": -77.02429516666666, "is_reserved": 0, "fusion_lat": 0.0, "type": "electric_scooter"}, {"fusion_lon": 0.0, "name": "107494b21c3200ea38cf1d5b7eab512f", "rental_uris": {"android": "https://dc.lft.to/lastmile_qr_scan", "ios": "https://dc.lft.to/lastmile_qr_scan"}, "lat": 38.91478866666667, "bike_id": "107494b21c3200ea38cf1d5b7eab512f", "is_disabled": 0, "lon": -77.03245616666666, "is_reserved": 0, "fusion_lat": 0.0, "type": "electric_scooter"}, {"fusion_lon": 0.0, "name": "d272f3dd8f1defb18925e22cb456b475", "rental_uris": {"android": "https://dc.lft.to/lastmile_qr_scan", "ios": "https://dc.lft.to/lastmile_qr_scan"}, "lat": 38.905748, "bike_id": "d272f3dd8f1defb18925e22cb456b475", "is_disabled": 0, "lon": -77.0406865, "is_reserved": 0, "fusion_lat": 0.0, "type": "electric_scooter"}, {"fusion_lon": 0.0, "name": "71fb4ae86e5954aaea98e611c99e03b6", "rental_uris": {"android": "https://dc.lft.to/lastmile_qr_scan", "ios": "https://dc.lft.to/lastmile_qr_scan"}, "lat": 38.922564333333334, "bike_id": "71fb4ae86e5954aaea98e611c99e03b6", "is_disabled": 0, "lon": -77.0193625, "is_reserved": 0, "fusion_lat": 0.0, "type": "electric_scooter"}, {"fusion_lon": 0.0, "name": "a6bb94005acc8a4ac1bf4d18ada2ae10", "rental_uris": {"android": "https://dc.lft.to/lastmile_qr_scan", "ios": "https://dc.lft.to/lastmile_qr_scan"}, "lat": 39.010931666666664, "bike_id": "a6bb94005acc8a4ac1bf4d18ada2ae10", "is_disabled": 0, "lon": -77.04954016666667, "is_reserved": 0, "fusion_lat": 0.0, "type": "electric_bike"}, {"fusion_lon": 0.0, "name": "2b7ed3ab1202abadf7eda880f192eaf1", "rental_uris": {"android": "https://dc.lft.to/lastmile_qr_scan", "ios": "https://dc.lft.to/lastmile_qr_scan"}, "lat": 38.9053375, "bike_id": "2b7ed3ab1202abadf7eda880f192eaf1", "is_disabled": 0, "lon": -77.02198633333333, "is_reserved": 0, "fusion_lat": 0.0, "type": "electric_scooter"}, {"fusion_lon": 0.0, "name": "35129a93a139809ecbd1a48ca35179cb", "rental_uris": {"android": "https://dc.lft.to/lastmile_qr_scan", "ios": "https://dc.lft.to/lastmile_qr_scan"}, "lat": 38.95543816666667, "bike_id": "35129a93a139809ecbd1a48ca35179cb", "is_disabled": 0, "lon": -77.0693425, "is_reserved": 0, "fusion_lat": 0.0, "type": "electric_bike"}, {"fusion_lon": 0.0, "name": "d4b0040d36bf465f620b9fd975fd10ac", "rental_uris": {"android": "https://dc.lft.to/lastmile_qr_scan", "ios": "https://dc.lft.to/lastmile_qr_scan"}, "lat": 38.93407633333333, "bike_id": "d4b0040d36bf465f620b9fd975fd10ac", "is_disabled": 0, "lon": -77.04548166666666, "is_reserved": 0, "fusion_lat": 0.0, "type": "electric_scooter"}, {"fusion_lon": 0.0, "name": "c6887d4b08a3ea68fe74c1f58942ef83", "rental_uris": {"android": "https://dc.lft.to/lastmile_qr_scan", "ios": "https://dc.lft.to/lastmile_qr_scan"}, "lat": 38.885011166666665, "bike_id": "c6887d4b08a3ea68fe74c1f58942ef83", "is_disabled": 0, "lon": -77.00219983333334, "is_reserved": 0, "fusion_lat": 0.0, "type": "electric_scooter"}, {"fusion_lon": 0.0, "name": "98ab0c33ac5e1ac5da40aab7228e90e2", "rental_uris": {"android": "https://dc.lft.to/lastmile_qr_scan", "ios": "https://dc.lft.to/lastmile_qr_scan"}, "lat": 38.9079545, "bike_id": "98ab0c33ac5e1ac5da40aab7228e90e2", "is_disabled": 0, "lon": -77.03185983333333, "is_reserved": 0, "fusion_lat": 0.0, "type": "electric_scooter"}, {"fusion_lon": 0.0, "name": "4e761db939f27b9e6422f6a711daaa56", "rental_uris": {"android": "https://dc.lft.to/lastmile_qr_scan", "ios": "https://dc.lft.to/lastmile_qr_scan"}, "lat": 38.88390483333333, "bike_id": "4e761db939f27b9e6422f6a711daaa56", "is_disabled": 0, "lon": -76.99493366666667, "is_reserved": 0, "fusion_lat": 0.0, "type": "electric_scooter"}, {"fusion_lon": 0.0, "name": "6418d1e5491ba536b8f354b178b368cb", "rental_uris": {"android": "https://dc.lft.to/lastmile_qr_scan", "ios": "https://dc.lft.to/lastmile_qr_scan"}, "lat": 38.922490833333335, "bike_id": "6418d1e5491ba536b8f354b178b368cb", "is_disabled": 0, "lon": -77.0307045, "is_reserved": 0, "fusion_lat": 0.0, "type": "electric_scooter"}, {"fusion_lon": 0.0, "name": "8e1586a7bda98c457a699ada9e7d7a50", "rental_uris": {"android": "https://dc.lft.to/lastmile_qr_scan", "ios": "https://dc.lft.to/lastmile_qr_scan"}, "lat": 38.8780305, "bike_id": "8e1586a7bda98c457a699ada9e7d7a50", "is_disabled": 0, "lon": -76.98821933333333, "is_reserved": 0, "fusion_lat": 0.0, "type": "electric_scooter"}, {"fusion_lon": 0.0, "name": "e3c0f619018c1faf9a118218666005be", "rental_uris": {"android": "https://dc.lft.to/lastmile_qr_scan", "ios": "https://dc.lft.to/lastmile_qr_scan"}, "lat": 38.88434083333333, "bike_id": "e3c0f619018c1faf9a118218666005be", "is_disabled": 0, "lon": -76.99728283333333, "is_reserved": 0, "fusion_lat": 0.0, "type": "electric_scooter"}, {"fusion_lon": 0.0, "name": "b7d5a9849c92422a6a7b377b8b43b083", "rental_uris": {"android": "https://dc.lft.to/lastmile_qr_scan", "ios": "https://dc.lft.to/lastmile_qr_scan"}, "lat": 38.884437, "bike_id": "b7d5a9849c92422a6a7b377b8b43b083", "is_disabled": 0, "lon": -76.957703, "is_reserved": 0, "fusion_lat": 0.0, "type": "electric_scooter"}, {"fusion_lon": 0.0, "name": "a3600b1bd604160c2d92813166186307", "rental_uris": {"android": "https://dc.lft.to/lastmile_qr_scan", "ios": "https://dc.lft.to/lastmile_qr_scan"}, "lat": 38.8652605, "bike_id": "a3600b1bd604160c2d92813166186307", "is_disabled": 0, "lon": -76.9690515, "is_reserved": 0, "fusion_lat": 0.0, "type": "electric_scooter"}, {"fusion_lon": 0.0, "name": "8516294b14713f384a1a3ad3357e1bb8", "rental_uris": {"android": "https://dc.lft.to/lastmile_qr_scan", "ios": "https://dc.lft.to/lastmile_qr_scan"}, "lat": 38.903076, "bike_id": "8516294b14713f384a1a3ad3357e1bb8", "is_disabled": 0, "lon": -76.9750075, "is_reserved": 0, "fusion_lat": 0.0, "type": "electric_scooter"}, {"fusion_lon": 0.0, "name": "98389fa7112dfef634075d7dc55a477c", "rental_uris": {"android": "https://dc.lft.to/lastmile_qr_scan", "ios": "https://dc.lft.to/lastmile_qr_scan"}, "lat": 38.90719766666667, "bike_id": "98389fa7112dfef634075d7dc55a477c", "is_disabled": 0, "lon": -77.050136, "is_reserved": 0, "fusion_lat": 0.0, "type": "electric_scooter"}, {"fusion_lon": 0.0, "name": "d380137c89d62d9a9074aab2f8e5473a", "rental_uris": {"android": "https://dc.lft.to/lastmile_qr_scan", "ios": "https://dc.lft.to/lastmile_qr_scan"}, "lat": 38.920874833333336, "bike_id": "d380137c89d62d9a9074aab2f8e5473a", "is_disabled": 0, "lon": -77.0221415, "is_reserved": 0, "fusion_lat": 0.0, "type": "electric_scooter"}, {"fusion_lon": 0.0, "name": "266f755550d18938a45acceeb9dd5deb", "rental_uris": {"android": "https://dc.lft.to/lastmile_qr_scan", "ios": "https://dc.lft.to/lastmile_qr_scan"}, "lat": 38.923030833333335, "bike_id": "266f755550d18938a45acceeb9dd5deb", "is_disabled": 0, "lon": -77.02344233333334, "is_reserved": 0, "fusion_lat": 0.0, "type": "electric_bike"}, {"fusion_lon": 0.0, "name": "09875150dcd2e76bf570a4d737496843", "rental_uris": {"android": "https://dc.lft.to/lastmile_qr_scan", "ios": "https://dc.lft.to/lastmile_qr_scan"}, "lat": 38.922417333333335, "bike_id": "09875150dcd2e76bf570a4d737496843", "is_disabled": 0, "lon": -77.03172183333334, "is_reserved": 0, "fusion_lat": 0.0, "type": "electric_scooter"}, {"fusion_lon": 0.0, "name": "06a9b749a561b22d005ebb0ec9a79cfd", "rental_uris": {"android": "https://dc.lft.to/lastmile_qr_scan", "ios": "https://dc.lft.to/lastmile_qr_scan"}, "lat": 38.91102733333334, "bike_id": "06a9b749a561b22d005ebb0ec9a79cfd", "is_disabled": 0, "lon": -77.002135, "is_reserved": 0, "fusion_lat": 0.0, "type": "electric_scooter"}, {"fusion_lon": 0.0, "name": "4dd70e6c1020aff279110cf1c28f9d5b", "rental_uris": {"android": "https://dc.lft.to/lastmile_qr_scan", "ios": "https://dc.lft.to/lastmile_qr_scan"}, "lat": 38.9328265, "bike_id": "4dd70e6c1020aff279110cf1c28f9d5b", "is_disabled": 0, "lon": -77.0353835, "is_reserved": 0, "fusion_lat": 0.0, "type": "electric_scooter"}, {"fusion_lon": 0.0, "name": "06507b37a464e718408d51d11dda735b", "rental_uris": {"android": "https://dc.lft.to/lastmile_qr_scan", "ios": "https://dc.lft.to/lastmile_qr_scan"}, "lat": 38.89828633333333, "bike_id": "06507b37a464e718408d51d11dda735b", "is_disabled": 0, "lon": -77.02380333333333, "is_reserved": 0, "fusion_lat": 0.0, "type": "electric_scooter"}, {"fusion_lon": 0.0, "name": "51770ae44c1fe012b7965737fae40441", "rental_uris": {"android": "https://dc.lft.to/lastmile_qr_scan", "ios": "https://dc.lft.to/lastmile_qr_scan"}, "lat": 38.91277633333333, "bike_id": "51770ae44c1fe012b7965737fae40441", "is_disabled": 0, "lon": -77.02243416666667, "is_reserved": 0, "fusion_lat": 0.0, "type": "electric_scooter"}, {"fusion_lon": 0.0, "name": "22b697b75b248f761b5c0128b8e4315d", "rental_uris": {"android": "https://dc.lft.to/lastmile_qr_scan", "ios": "https://dc.lft.to/lastmile_qr_scan"}, "lat": 38.9518425, "bike_id": "22b697b75b248f761b5c0128b8e4315d", "is_disabled": 0, "lon": -77.01266566666666, "is_reserved": 0, "fusion_lat": 0.0, "type": "electric_scooter"}, {"fusion_lon": 0.0, "name": "4da39a127f422adbc0c5e61021abe44b", "rental_uris": {"android": "https://dc.lft.to/lastmile_qr_scan", "ios": "https://dc.lft.to/lastmile_qr_scan"}, "lat": 38.915783166666664, "bike_id": "4da39a127f422adbc0c5e61021abe44b", "is_disabled": 0, "lon": -77.03655983333333, "is_reserved": 0, "fusion_lat": 0.0, "type": "electric_scooter"}, {"fusion_lon": 0.0, "name": "863ed0a71d29c14ef508cea2a3f166c6", "rental_uris": {"android": "https://dc.lft.to/lastmile_qr_scan", "ios": "https://dc.lft.to/lastmile_qr_scan"}, "lat": 38.913615666666665, "bike_id": "863ed0a71d29c14ef508cea2a3f166c6", "is_disabled": 0, "lon": -77.09187216666666, "is_reserved": 0, "fusion_lat": 0.0, "type": "electric_scooter"}, {"fusion_lon": 0.0, "name": "05fd8f6e8835c3f76ec42ffe8648e59a", "rental_uris": {"android": "https://dc.lft.to/lastmile_qr_scan", "ios": "https://dc.lft.to/lastmile_qr_scan"}, "lat": 38.922356666666666, "bike_id": "05fd8f6e8835c3f76ec42ffe8648e59a", "is_disabled": 0, "lon": -77.04247683333334, "is_reserved": 0, "fusion_lat": 0.0, "type": "electric_scooter"}, {"fusion_lon": 0.0, "name": "974fb365b980401c0b3506ef06194685", "rental_uris": {"android": "https://dc.lft.to/lastmile_qr_scan", "ios": "https://dc.lft.to/lastmile_qr_scan"}, "lat": 38.916738, "bike_id": "974fb365b980401c0b3506ef06194685", "is_disabled": 0, "lon": -77.04615333333334, "is_reserved": 0, "fusion_lat": 0.0, "type": "electric_scooter"}, {"fusion_lon": 0.0, "name": "e647717a4055089cdcf1acd67fddb919", "rental_uris": {"android": "https://dc.lft.to/lastmile_qr_scan", "ios": "https://dc.lft.to/lastmile_qr_scan"}, "lat": 38.917021166666665, "bike_id": "e647717a4055089cdcf1acd67fddb919", "is_disabled": 0, "lon": -77.04225533333333, "is_reserved": 0, "fusion_lat": 0.0, "type": "electric_scooter"}, {"fusion_lon": 0.0, "name": "605334672d52a471fc9b9580ed91209a", "rental_uris": {"android": "https://dc.lft.to/lastmile_qr_scan", "ios": "https://dc.lft.to/lastmile_qr_scan"}, "lat": 38.80682933333333, "bike_id": "605334672d52a471fc9b9580ed91209a", "is_disabled": 0, "lon": -77.13382733333333, "is_reserved": 0, "fusion_lat": 0.0, "type": "electric_bike"}, {"fusion_lon": 0.0, "name": "5ec576bc948312b95f338d832862b2be", "rental_uris": {"android": "https://dc.lft.to/lastmile_qr_scan", "ios": "https://dc.lft.to/lastmile_qr_scan"}, "lat": 38.91088333333333, "bike_id": "5ec576bc948312b95f338d832862b2be", "is_disabled": 0, "lon": -77.0440495, "is_reserved": 0, "fusion_lat": 0.0, "type": "electric_scooter"}, {"fusion_lon": 0.0, "name": "5a746214f64c0133e4dc62e020990f65", "rental_uris": {"android": "https://dc.lft.to/lastmile_qr_scan", "ios": "https://dc.lft.to/lastmile_qr_scan"}, "lat": 38.84716816666667, "bike_id": "5a746214f64c0133e4dc62e020990f65", "is_disabled": 0, "lon": -76.96816783333334, "is_reserved": 0, "fusion_lat": 0.0, "type": "electric_scooter"}, {"fusion_lon": 0.0, "name": "1c5919b769770593982434236d337c39", "rental_uris": {"android": "https://dc.lft.to/lastmile_qr_scan", "ios": "https://dc.lft.to/lastmile_qr_scan"}, "lat": 38.9640075, "bike_id": "1c5919b769770593982434236d337c39", "is_disabled": 0, "lon": -77.02762783333333, "is_reserved": 0, "fusion_lat": 0.0, "type": "electric_scooter"}, {"fusion_lon": 0.0, "name": "9a5b8d0d8e7bbf98893e07676e794581", "rental_uris": {"android": "https://dc.lft.to/lastmile_qr_scan", "ios": "https://dc.lft.to/lastmile_qr_scan"}, "lat": 38.93245866666667, "bike_id": "9a5b8d0d8e7bbf98893e07676e794581", "is_disabled": 0, "lon": -77.03283333333333, "is_reserved": 0, "fusion_lat": 0.0, "type": "electric_scooter"}, {"fusion_lon": 0.0, "name": "7b15feab35574a8651c77f36e2f0b377", "rental_uris": {"android": "https://dc.lft.to/lastmile_qr_scan", "ios": "https://dc.lft.to/lastmile_qr_scan"}, "lat": 38.89884266666667, "bike_id": "7b15feab35574a8651c77f36e2f0b377", "is_disabled": 0, "lon": -77.03282466666667, "is_reserved": 0, "fusion_lat": 0.0, "type": "electric_scooter"}, {"fusion_lon": 0.0, "name": "27d3244c46f8b49d640f3f4067f294d4", "rental_uris": {"android": "https://dc.lft.to/lastmile_qr_scan", "ios": "https://dc.lft.to/lastmile_qr_scan"}, "lat": 38.9036695, "bike_id": "27d3244c46f8b49d640f3f4067f294d4", "is_disabled": 0, "lon": -77.0177755, "is_reserved": 0, "fusion_lat": 0.0, "type": "electric_scooter"}, {"fusion_lon": 0.0, "name": "c7539a77bfb04d9ff5588dd174db170d", "rental_uris": {"android": "https://dc.lft.to/lastmile_qr_scan", "ios": "https://dc.lft.to/lastmile_qr_scan"}, "lat": 38.90030566666667, "bike_id": "c7539a77bfb04d9ff5588dd174db170d", "is_disabled": 0, "lon": -76.988264, "is_reserved": 0, "fusion_lat": 0.0, "type": "electric_scooter"}, {"fusion_lon": 0.0, "name": "264d670e2b7bddc3aef9bad7b29b879c", "rental_uris": {"android": "https://dc.lft.to/lastmile_qr_scan", "ios": "https://dc.lft.to/lastmile_qr_scan"}, "lat": 38.90992933333333, "bike_id": "264d670e2b7bddc3aef9bad7b29b879c", "is_disabled": 0, "lon": -77.008999, "is_reserved": 0, "fusion_lat": 0.0, "type": "electric_scooter"}, {"fusion_lon": 0.0, "name": "5e41c2165ebaa5bdbbb4e443adca7cdf", "rental_uris": {"android": "https://dc.lft.to/lastmile_qr_scan", "ios": "https://dc.lft.to/lastmile_qr_scan"}, "lat": 38.89242, "bike_id": "5e41c2165ebaa5bdbbb4e443adca7cdf", "is_disabled": 0, "lon": -77.03956716666667, "is_reserved": 0, "fusion_lat": 0.0, "type": "electric_scooter"}, {"fusion_lon": 0.0, "name": "e7dab9165af2201b045ddda577367cbf", "rental_uris": {"android": "https://dc.lft.to/lastmile_qr_scan", "ios": "https://dc.lft.to/lastmile_qr_scan"}, "lat": 38.91552566666667, "bike_id": "e7dab9165af2201b045ddda577367cbf", "is_disabled": 0, "lon": -77.0324935, "is_reserved": 0, "fusion_lat": 0.0, "type": "electric_scooter"}, {"fusion_lon": 0.0, "name": "f072d6734627a42d0ee2329947234030", "rental_uris": {"android": "https://dc.lft.to/lastmile_qr_scan", "ios": "https://dc.lft.to/lastmile_qr_scan"}, "lat": 38.88627433333333, "bike_id": "f072d6734627a42d0ee2329947234030", "is_disabled": 0, "lon": -76.99576883333333, "is_reserved": 0, "fusion_lat": 0.0, "type": "electric_scooter"}, {"fusion_lon": 0.0, "name": "433419dc838079bb286ee54d66f7f4f9", "rental_uris": {"android": "https://dc.lft.to/lastmile_qr_scan", "ios": "https://dc.lft.to/lastmile_qr_scan"}, "lat": 38.9086205, "bike_id": "433419dc838079bb286ee54d66f7f4f9", "is_disabled": 0, "lon": -77.08074266666667, "is_reserved": 0, "fusion_lat": 0.0, "type": "electric_bike"}, {"fusion_lon": 0.0, "name": "a1987b640d903e1a975aa63fa8366087", "rental_uris": {"android": "https://dc.lft.to/lastmile_qr_scan", "ios": "https://dc.lft.to/lastmile_qr_scan"}, "lat": 38.903162333333334, "bike_id": "a1987b640d903e1a975aa63fa8366087", "is_disabled": 0, "lon": -77.05169316666667, "is_reserved": 0, "fusion_lat": 0.0, "type": "electric_scooter"}, {"fusion_lon": 0.0, "name": "11b8cc66e5e3dc77059066fd78c62310", "rental_uris": {"android": "https://dc.lft.to/lastmile_qr_scan", "ios": "https://dc.lft.to/lastmile_qr_scan"}, "lat": 38.9246585, "bike_id": "11b8cc66e5e3dc77059066fd78c62310", "is_disabled": 0, "lon": -77.02710066666667, "is_reserved": 0, "fusion_lat": 0.0, "type": "electric_scooter"}, {"fusion_lon": 0.0, "name": "3543d0d503ea3806d358b67173ec6968", "rental_uris": {"android": "https://dc.lft.to/lastmile_qr_scan", "ios": "https://dc.lft.to/lastmile_qr_scan"}, "lat": 38.92229066666667, "bike_id": "3543d0d503ea3806d358b67173ec6968", "is_disabled": 0, "lon": -77.04307333333334, "is_reserved": 0, "fusion_lat": 0.0, "type": "electric_scooter"}, {"fusion_lon": 0.0, "name": "ec0af344776fe03bcf6bbb2c77de2987", "rental_uris": {"android": "https://dc.lft.to/lastmile_qr_scan", "ios": "https://dc.lft.to/lastmile_qr_scan"}, "lat": 38.907808333333335, "bike_id": "ec0af344776fe03bcf6bbb2c77de2987", "is_disabled": 0, "lon": -77.0183095, "is_reserved": 0, "fusion_lat": 0.0, "type": "electric_scooter"}, {"fusion_lon": 0.0, "name": "705fc4910312fd40785a43d27afe3018", "rental_uris": {"android": "https://dc.lft.to/lastmile_qr_scan", "ios": "https://dc.lft.to/lastmile_qr_scan"}, "lat": 38.91660866666667, "bike_id": "705fc4910312fd40785a43d27afe3018", "is_disabled": 0, "lon": -77.04389533333334, "is_reserved": 0, "fusion_lat": 0.0, "type": "electric_scooter"}, {"fusion_lon": 0.0, "name": "004201e2074ed2962718815bf782b635", "rental_uris": {"android": "https://dc.lft.to/lastmile_qr_scan", "ios": "https://dc.lft.to/lastmile_qr_scan"}, "lat": 38.918329, "bike_id": "004201e2074ed2962718815bf782b635", "is_disabled": 0, "lon": -77.05313983333333, "is_reserved": 0, "fusion_lat": 0.0, "type": "electric_scooter"}, {"fusion_lon": 0.0, "name": "16a948b2ee29c81fe6ea6b697c5ae5a3", "rental_uris": {"android": "https://dc.lft.to/lastmile_qr_scan", "ios": "https://dc.lft.to/lastmile_qr_scan"}, "lat": 38.89387466666667, "bike_id": "16a948b2ee29c81fe6ea6b697c5ae5a3", "is_disabled": 0, "lon": -77.02249716666667, "is_reserved": 0, "fusion_lat": 0.0, "type": "electric_scooter"}, {"fusion_lon": 0.0, "name": "49c1ebbe23ab0ec8dbf3c7c4bc4b1447", "rental_uris": {"android": "https://dc.lft.to/lastmile_qr_scan", "ios": "https://dc.lft.to/lastmile_qr_scan"}, "lat": 38.921885333333336, "bike_id": "49c1ebbe23ab0ec8dbf3c7c4bc4b1447", "is_disabled": 0, "lon": -76.99624366666667, "is_reserved": 0, "fusion_lat": 0.0, "type": "electric_scooter"}, {"fusion_lon": 0.0, "name": "feb72e3ad0becae032b39b47d5e93e24", "rental_uris": {"android": "https://dc.lft.to/lastmile_qr_scan", "ios": "https://dc.lft.to/lastmile_qr_scan"}, "lat": 38.908602, "bike_id": "feb72e3ad0becae032b39b47d5e93e24", "is_disabled": 0, "lon": -77.08076983333333, "is_reserved": 0, "fusion_lat": 0.0, "type": "electric_bike"}, {"fusion_lon": 0.0, "name": "edf343ab7a0996a9e9a246b3ac1f9e1a", "rental_uris": {"android": "https://dc.lft.to/lastmile_qr_scan", "ios": "https://dc.lft.to/lastmile_qr_scan"}, "lat": 38.8971755, "bike_id": "edf343ab7a0996a9e9a246b3ac1f9e1a", "is_disabled": 0, "lon": -77.03143316666667, "is_reserved": 0, "fusion_lat": 0.0, "type": "electric_scooter"}, {"fusion_lon": 0.0, "name": "db305822a61f7a455cb9306f782424bb", "rental_uris": {"android": "https://dc.lft.to/lastmile_qr_scan", "ios": "https://dc.lft.to/lastmile_qr_scan"}, "lat": 38.97559966666667, "bike_id": "db305822a61f7a455cb9306f782424bb", "is_disabled": 0, "lon": -77.027286, "is_reserved": 0, "fusion_lat": 0.0, "type": "electric_scooter"}, {"fusion_lon": 0.0, "name": "09a0188a94a4fe801bb954cd8c15d9fc", "rental_uris": {"android": "https://dc.lft.to/lastmile_qr_scan", "ios": "https://dc.lft.to/lastmile_qr_scan"}, "lat": 38.9005895, "bike_id": "09a0188a94a4fe801bb954cd8c15d9fc", "is_disabled": 0, "lon": -77.0490895, "is_reserved": 0, "fusion_lat": 0.0, "type": "electric_scooter"}, {"fusion_lon": 0.0, "name": "2fb4334ad79a569fb6c18cce895c75bc", "rental_uris": {"android": "https://dc.lft.to/lastmile_qr_scan", "ios": "https://dc.lft.to/lastmile_qr_scan"}, "lat": 38.908064, "bike_id": "2fb4334ad79a569fb6c18cce895c75bc", "is_disabled": 0, "lon": -77.084013, "is_reserved": 0, "fusion_lat": 0.0, "type": "electric_scooter"}, {"fusion_lon": 0.0, "name": "16f11faf70c1ea2beaa1e4733a2e2547", "rental_uris": {"android": "https://dc.lft.to/lastmile_qr_scan", "ios": "https://dc.lft.to/lastmile_qr_scan"}, "lat": 38.9725635, "bike_id": "16f11faf70c1ea2beaa1e4733a2e2547", "is_disabled": 0, "lon": -76.992775, "is_reserved": 0, "fusion_lat": 0.0, "type": "electric_bike"}, {"fusion_lon": 0.0, "name": "89e3384a8dd5fd36b944d8b31c184e90", "rental_uris": {"android": "https://dc.lft.to/lastmile_qr_scan", "ios": "https://dc.lft.to/lastmile_qr_scan"}, "lat": 38.9234685, "bike_id": "89e3384a8dd5fd36b944d8b31c184e90", "is_disabled": 0, "lon": -77.02102133333334, "is_reserved": 0, "fusion_lat": 0.0, "type": "electric_scooter"}, {"fusion_lon": 0.0, "name": "f189c1275582f67c7ab14e549111aa03", "rental_uris": {"android": "https://dc.lft.to/lastmile_qr_scan", "ios": "https://dc.lft.to/lastmile_qr_scan"}, "lat": 38.92233916666667, "bike_id": "f189c1275582f67c7ab14e549111aa03", "is_disabled": 0, "lon": -77.0211655, "is_reserved": 0, "fusion_lat": 0.0, "type": "electric_scooter"}, {"fusion_lon": 0.0, "name": "a833d8d4513a003f1d7babdeb4774bf2", "rental_uris": {"android": "https://dc.lft.to/lastmile_qr_scan", "ios": "https://dc.lft.to/lastmile_qr_scan"}, "lat": 38.9638365, "bike_id": "a833d8d4513a003f1d7babdeb4774bf2", "is_disabled": 0, "lon": -77.02956466666667, "is_reserved": 0, "fusion_lat": 0.0, "type": "electric_scooter"}, {"fusion_lon": 0.0, "name": "dca5b8738dcfcc9f9cd12e7a64696b3b", "rental_uris": {"android": "https://dc.lft.to/lastmile_qr_scan", "ios": "https://dc.lft.to/lastmile_qr_scan"}, "lat": 38.924286, "bike_id": "dca5b8738dcfcc9f9cd12e7a64696b3b", "is_disabled": 0, "lon": -77.0195785, "is_reserved": 0, "fusion_lat": 0.0, "type": "electric_scooter"}, {"fusion_lon": 0.0, "name": "b7927623c103a0212afb450db16118ea", "rental_uris": {"android": "https://dc.lft.to/lastmile_qr_scan", "ios": "https://dc.lft.to/lastmile_qr_scan"}, "lat": 38.921266833333334, "bike_id": "b7927623c103a0212afb450db16118ea", "is_disabled": 0, "lon": -77.04595466666666, "is_reserved": 0, "fusion_lat": 0.0, "type": "electric_scooter"}, {"fusion_lon": 0.0, "name": "0422b80d4713a00ecca58771f2a8c4c7", "rental_uris": {"android": "https://dc.lft.to/lastmile_qr_scan", "ios": "https://dc.lft.to/lastmile_qr_scan"}, "lat": 38.8942095, "bike_id": "0422b80d4713a00ecca58771f2a8c4c7", "is_disabled": 0, "lon": -76.9976915, "is_reserved": 0, "fusion_lat": 0.0, "type": "electric_scooter"}, {"fusion_lon": 0.0, "name": "aa050447f4a88ccf7d322ff3edb4489c", "rental_uris": {"android": "https://dc.lft.to/lastmile_qr_scan", "ios": "https://dc.lft.to/lastmile_qr_scan"}, "lat": 38.899375, "bike_id": "aa050447f4a88ccf7d322ff3edb4489c", "is_disabled": 0, "lon": -77.02962, "is_reserved": 0, "fusion_lat": 0.0, "type": "electric_scooter"}, {"fusion_lon": 0.0, "name": "b009eafb54a0243ff6cd6b07805d3370", "rental_uris": {"android": "https://dc.lft.to/lastmile_qr_scan", "ios": "https://dc.lft.to/lastmile_qr_scan"}, "lat": 38.902613, "bike_id": "b009eafb54a0243ff6cd6b07805d3370", "is_disabled": 0, "lon": -77.027603, "is_reserved": 0, "fusion_lat": 0.0, "type": "electric_scooter"}, {"fusion_lon": 0.0, "name": "a31627a534c5d80e20c9c25791497d65", "rental_uris": {"android": "https://dc.lft.to/lastmile_qr_scan", "ios": "https://dc.lft.to/lastmile_qr_scan"}, "lat": 38.8768825, "bike_id": "a31627a534c5d80e20c9c25791497d65", "is_disabled": 0, "lon": -77.0175365, "is_reserved": 0, "fusion_lat": 0.0, "type": "electric_scooter"}, {"fusion_lon": 0.0, "name": "74890892a46f75fda366b4bf4a11ca53", "rental_uris": {"android": "https://dc.lft.to/lastmile_qr_scan", "ios": "https://dc.lft.to/lastmile_qr_scan"}, "lat": 38.909972333333336, "bike_id": "74890892a46f75fda366b4bf4a11ca53", "is_disabled": 0, "lon": -77.04011166666666, "is_reserved": 0, "fusion_lat": 0.0, "type": "electric_scooter"}, {"fusion_lon": 0.0, "name": "243633c8aadc7d01e213a63198007f2d", "rental_uris": {"android": "https://dc.lft.to/lastmile_qr_scan", "ios": "https://dc.lft.to/lastmile_qr_scan"}, "lat": 38.9311075, "bike_id": "243633c8aadc7d01e213a63198007f2d", "is_disabled": 0, "lon": -77.035064, "is_reserved": 0, "fusion_lat": 0.0, "type": "electric_scooter"}, {"fusion_lon": 0.0, "name": "e9116d2c9aaab9eed4bbb00e86baa01e", "rental_uris": {"android": "https://dc.lft.to/lastmile_qr_scan", "ios": "https://dc.lft.to/lastmile_qr_scan"}, "lat": 38.892225833333335, "bike_id": "e9116d2c9aaab9eed4bbb00e86baa01e", "is_disabled": 0, "lon": -77.04465983333333, "is_reserved": 0, "fusion_lat": 0.0, "type": "electric_scooter"}, {"fusion_lon": 0.0, "name": "2a8107a5b7332c1e327a46983514051a", "rental_uris": {"android": "https://dc.lft.to/lastmile_qr_scan", "ios": "https://dc.lft.to/lastmile_qr_scan"}, "lat": 38.90778916666667, "bike_id": "2a8107a5b7332c1e327a46983514051a", "is_disabled": 0, "lon": -77.07028116666666, "is_reserved": 0, "fusion_lat": 0.0, "type": "electric_scooter"}, {"fusion_lon": 0.0, "name": "26b4237353282d437ab115d120aad77b", "rental_uris": {"android": "https://dc.lft.to/lastmile_qr_scan", "ios": "https://dc.lft.to/lastmile_qr_scan"}, "lat": 38.95466016666666, "bike_id": "26b4237353282d437ab115d120aad77b", "is_disabled": 0, "lon": -77.07010166666667, "is_reserved": 0, "fusion_lat": 0.0, "type": "electric_scooter"}, {"fusion_lon": 0.0, "name": "8eb00c8edf2571b89875baac2df2ae72", "rental_uris": {"android": "https://dc.lft.to/lastmile_qr_scan", "ios": "https://dc.lft.to/lastmile_qr_scan"}, "lat": 38.8937545, "bike_id": "8eb00c8edf2571b89875baac2df2ae72", "is_disabled": 0, "lon": -77.003479, "is_reserved": 0, "fusion_lat": 0.0, "type": "electric_scooter"}, {"fusion_lon": 0.0, "name": "eb573a92055a4df27a25d43bcecb1ec1", "rental_uris": {"android": "https://dc.lft.to/lastmile_qr_scan", "ios": "https://dc.lft.to/lastmile_qr_scan"}, "lat": 38.9132335, "bike_id": "eb573a92055a4df27a25d43bcecb1ec1", "is_disabled": 0, "lon": -77.01623216666667, "is_reserved": 0, "fusion_lat": 0.0, "type": "electric_scooter"}, {"fusion_lon": 0.0, "name": "61ea7da6a17998766b9310622eb1b4b4", "rental_uris": {"android": "https://dc.lft.to/lastmile_qr_scan", "ios": "https://dc.lft.to/lastmile_qr_scan"}, "lat": 38.9129095, "bike_id": "61ea7da6a17998766b9310622eb1b4b4", "is_disabled": 0, "lon": -76.98540983333334, "is_reserved": 0, "fusion_lat": 0.0, "type": "electric_scooter"}, {"fusion_lon": 0.0, "name": "a006c0d56bbfb2728b4856a366848e64", "rental_uris": {"android": "https://dc.lft.to/lastmile_qr_scan", "ios": "https://dc.lft.to/lastmile_qr_scan"}, "lat": 38.92478216666667, "bike_id": "a006c0d56bbfb2728b4856a366848e64", "is_disabled": 0, "lon": -77.02216216666666, "is_reserved": 0, "fusion_lat": 0.0, "type": "electric_scooter"}, {"fusion_lon": 0.0, "name": "1468bd5764568f7ffab5ddbbebed48cd", "rental_uris": {"android": "https://dc.lft.to/lastmile_qr_scan", "ios": "https://dc.lft.to/lastmile_qr_scan"}, "lat": 38.90142, "bike_id": "1468bd5764568f7ffab5ddbbebed48cd", "is_disabled": 0, "lon": -77.02937266666666, "is_reserved": 0, "fusion_lat": 0.0, "type": "electric_scooter"}, {"fusion_lon": 0.0, "name": "a10f7680459c9fe20b34846390e92f09", "rental_uris": {"android": "https://dc.lft.to/lastmile_qr_scan", "ios": "https://dc.lft.to/lastmile_qr_scan"}, "lat": 38.92569183333333, "bike_id": "a10f7680459c9fe20b34846390e92f09", "is_disabled": 0, "lon": -77.02136416666667, "is_reserved": 0, "fusion_lat": 0.0, "type": "electric_scooter"}, {"fusion_lon": 0.0, "name": "35aa00a0978fd98fdaa03b990af64266", "rental_uris": {"android": "https://dc.lft.to/lastmile_qr_scan", "ios": "https://dc.lft.to/lastmile_qr_scan"}, "lat": 38.955751666666664, "bike_id": "35aa00a0978fd98fdaa03b990af64266", "is_disabled": 0, "lon": -77.07011483333334, "is_reserved": 0, "fusion_lat": 0.0, "type": "electric_scooter"}, {"fusion_lon": 0.0, "name": "45bd80f31ad0e029373dca941bc95ce5", "rental_uris": {"android": "https://dc.lft.to/lastmile_qr_scan", "ios": "https://dc.lft.to/lastmile_qr_scan"}, "lat": 38.924590333333335, "bike_id": "45bd80f31ad0e029373dca941bc95ce5", "is_disabled": 0, "lon": -77.0576035, "is_reserved": 0, "fusion_lat": 0.0, "type": "electric_scooter"}, {"fusion_lon": 0.0, "name": "307e9a117a9a28ff9d53534757ca838a", "rental_uris": {"android": "https://dc.lft.to/lastmile_qr_scan", "ios": "https://dc.lft.to/lastmile_qr_scan"}, "lat": 38.910965, "bike_id": "307e9a117a9a28ff9d53534757ca838a", "is_disabled": 0, "lon": -77.04481983333334, "is_reserved": 0, "fusion_lat": 0.0, "type": "electric_scooter"}, {"fusion_lon": 0.0, "name": "f9722276d597d70631d7ed46088d580c", "rental_uris": {"android": "https://dc.lft.to/lastmile_qr_scan", "ios": "https://dc.lft.to/lastmile_qr_scan"}, "lat": 38.876617833333334, "bike_id": "f9722276d597d70631d7ed46088d580c", "is_disabled": 0, "lon": -77.011691, "is_reserved": 0, "fusion_lat": 0.0, "type": "electric_scooter"}, {"fusion_lon": 0.0, "name": "2c2e054e281f50941a0751a94ed6e7cd", "rental_uris": {"android": "https://dc.lft.to/lastmile_qr_scan", "ios": "https://dc.lft.to/lastmile_qr_scan"}, "lat": 38.876658166666665, "bike_id": "2c2e054e281f50941a0751a94ed6e7cd", "is_disabled": 0, "lon": -77.0055935, "is_reserved": 0, "fusion_lat": 0.0, "type": "electric_scooter"}, {"fusion_lon": 0.0, "name": "211ad5404e9b196cba4cb46d4c74de92", "rental_uris": {"android": "https://dc.lft.to/lastmile_qr_scan", "ios": "https://dc.lft.to/lastmile_qr_scan"}, "lat": 38.9025815, "bike_id": "211ad5404e9b196cba4cb46d4c74de92", "is_disabled": 0, "lon": -77.032634, "is_reserved": 0, "fusion_lat": 0.0, "type": "electric_scooter"}, {"fusion_lon": 0.0, "name": "881499d32f87d3b05834521596ac5626", "rental_uris": {"android": "https://dc.lft.to/lastmile_qr_scan", "ios": "https://dc.lft.to/lastmile_qr_scan"}, "lat": 38.910668666666666, "bike_id": "881499d32f87d3b05834521596ac5626", "is_disabled": 0, "lon": -77.00918566666667, "is_reserved": 0, "fusion_lat": 0.0, "type": "electric_scooter"}, {"fusion_lon": 0.0, "name": "ab7241cd693cffe271b0c93e28285805", "rental_uris": {"android": "https://dc.lft.to/lastmile_qr_scan", "ios": "https://dc.lft.to/lastmile_qr_scan"}, "lat": 38.956159166666666, "bike_id": "ab7241cd693cffe271b0c93e28285805", "is_disabled": 0, "lon": -77.03248666666667, "is_reserved": 0, "fusion_lat": 0.0, "type": "electric_scooter"}, {"fusion_lon": 0.0, "name": "150c2e66e8cbea4a18037739b7d550f4", "rental_uris": {"android": "https://dc.lft.to/lastmile_qr_scan", "ios": "https://dc.lft.to/lastmile_qr_scan"}, "lat": 38.93403133333333, "bike_id": "150c2e66e8cbea4a18037739b7d550f4", "is_disabled": 0, "lon": -77.03824316666666, "is_reserved": 0, "fusion_lat": 0.0, "type": "electric_scooter"}, {"fusion_lon": 0.0, "name": "679f14db8a69d35f2ac58a50aaf2acfa", "rental_uris": {"android": "https://dc.lft.to/lastmile_qr_scan", "ios": "https://dc.lft.to/lastmile_qr_scan"}, "lat": 38.958882, "bike_id": "679f14db8a69d35f2ac58a50aaf2acfa", "is_disabled": 0, "lon": -76.9704455, "is_reserved": 0, "fusion_lat": 0.0, "type": "electric_bike"}, {"fusion_lon": 0.0, "name": "fc291c2b97e0a2bcc83ca63d047e47a9", "rental_uris": {"android": "https://dc.lft.to/lastmile_qr_scan", "ios": "https://dc.lft.to/lastmile_qr_scan"}, "lat": 38.911062666666666, "bike_id": "fc291c2b97e0a2bcc83ca63d047e47a9", "is_disabled": 0, "lon": -77.03841616666666, "is_reserved": 0, "fusion_lat": 0.0, "type": "electric_scooter"}, {"fusion_lon": 0.0, "name": "b94ed8d48787361d31bd47b960ffb47a", "rental_uris": {"android": "https://dc.lft.to/lastmile_qr_scan", "ios": "https://dc.lft.to/lastmile_qr_scan"}, "lat": 38.930145, "bike_id": "b94ed8d48787361d31bd47b960ffb47a", "is_disabled": 0, "lon": -77.0618835, "is_reserved": 0, "fusion_lat": 0.0, "type": "electric_scooter"}, {"fusion_lon": 0.0, "name": "1de12ca1bc77328ca0f815da09dc7fca", "rental_uris": {"android": "https://dc.lft.to/lastmile_qr_scan", "ios": "https://dc.lft.to/lastmile_qr_scan"}, "lat": 38.912087666666665, "bike_id": "1de12ca1bc77328ca0f815da09dc7fca", "is_disabled": 0, "lon": -77.02194816666666, "is_reserved": 0, "fusion_lat": 0.0, "type": "electric_scooter"}, {"fusion_lon": 0.0, "name": "76d7e0c69b6efa3d287a4a43ff9bd9c0", "rental_uris": {"android": "https://dc.lft.to/lastmile_qr_scan", "ios": "https://dc.lft.to/lastmile_qr_scan"}, "lat": 38.926889833333334, "bike_id": "76d7e0c69b6efa3d287a4a43ff9bd9c0", "is_disabled": 0, "lon": -77.03238783333333, "is_reserved": 0, "fusion_lat": 0.0, "type": "electric_scooter"}, {"fusion_lon": 0.0, "name": "5128e50300036cd45e75bf6ee6b790e2", "rental_uris": {"android": "https://dc.lft.to/lastmile_qr_scan", "ios": "https://dc.lft.to/lastmile_qr_scan"}, "lat": 38.922596, "bike_id": "5128e50300036cd45e75bf6ee6b790e2", "is_disabled": 0, "lon": -77.01891733333333, "is_reserved": 0, "fusion_lat": 0.0, "type": "electric_scooter"}, {"fusion_lon": 0.0, "name": "b8d7100c5891b6a2bae276870aee7f3d", "rental_uris": {"android": "https://dc.lft.to/lastmile_qr_scan", "ios": "https://dc.lft.to/lastmile_qr_scan"}, "lat": 38.89221633333333, "bike_id": "b8d7100c5891b6a2bae276870aee7f3d", "is_disabled": 0, "lon": -77.04682933333333, "is_reserved": 0, "fusion_lat": 0.0, "type": "electric_scooter"}, {"fusion_lon": 0.0, "name": "3d7499634bbdd15ac42c8b5e5f1f018c", "rental_uris": {"android": "https://dc.lft.to/lastmile_qr_scan", "ios": "https://dc.lft.to/lastmile_qr_scan"}, "lat": 38.878893833333336, "bike_id": "3d7499634bbdd15ac42c8b5e5f1f018c", "is_disabled": 0, "lon": -77.02203366666667, "is_reserved": 0, "fusion_lat": 0.0, "type": "electric_scooter"}, {"fusion_lon": 0.0, "name": "39bf5b790cb5a333e896cbb6efc9cd68", "rental_uris": {"android": "https://dc.lft.to/lastmile_qr_scan", "ios": "https://dc.lft.to/lastmile_qr_scan"}, "lat": 38.89733016666667, "bike_id": "39bf5b790cb5a333e896cbb6efc9cd68", "is_disabled": 0, "lon": -77.026882, "is_reserved": 0, "fusion_lat": 0.0, "type": "electric_scooter"}, {"fusion_lon": 0.0, "name": "9b814c1b599d6227823752ae711e235f", "rental_uris": {"android": "https://dc.lft.to/lastmile_qr_scan", "ios": "https://dc.lft.to/lastmile_qr_scan"}, "lat": 38.897134333333334, "bike_id": "9b814c1b599d6227823752ae711e235f", "is_disabled": 0, "lon": -76.93913816666667, "is_reserved": 0, "fusion_lat": 0.0, "type": "electric_scooter"}, {"fusion_lon": 0.0, "name": "a9b85aa2682208c954427e3c7e11f999", "rental_uris": {"android": "https://dc.lft.to/lastmile_qr_scan", "ios": "https://dc.lft.to/lastmile_qr_scan"}, "lat": 38.88823033333333, "bike_id": "a9b85aa2682208c954427e3c7e11f999", "is_disabled": 0, "lon": -76.9770435, "is_reserved": 0, "fusion_lat": 0.0, "type": "electric_scooter"}, {"fusion_lon": 0.0, "name": "767f0feefc9721beb968937aadc8a94a", "rental_uris": {"android": "https://dc.lft.to/lastmile_qr_scan", "ios": "https://dc.lft.to/lastmile_qr_scan"}, "lat": 38.89512216666667, "bike_id": "767f0feefc9721beb968937aadc8a94a", "is_disabled": 0, "lon": -76.948865, "is_reserved": 0, "fusion_lat": 0.0, "type": "electric_scooter"}, {"fusion_lon": 0.0, "name": "f63746aa53baf901ba51b692ee24da1d", "rental_uris": {"android": "https://dc.lft.to/lastmile_qr_scan", "ios": "https://dc.lft.to/lastmile_qr_scan"}, "lat": 38.89358216666667, "bike_id": "f63746aa53baf901ba51b692ee24da1d", "is_disabled": 0, "lon": -77.04623916666667, "is_reserved": 0, "fusion_lat": 0.0, "type": "electric_scooter"}, {"fusion_lon": 0.0, "name": "6567f436a4b65614b83a11966a088617", "rental_uris": {"android": "https://dc.lft.to/lastmile_qr_scan", "ios": "https://dc.lft.to/lastmile_qr_scan"}, "lat": 38.9609645, "bike_id": "6567f436a4b65614b83a11966a088617", "is_disabled": 0, "lon": -77.0675235, "is_reserved": 0, "fusion_lat": 0.0, "type": "electric_scooter"}, {"fusion_lon": 0.0, "name": "2bad478bb7701f07940c170d620d8f3e", "rental_uris": {"android": "https://dc.lft.to/lastmile_qr_scan", "ios": "https://dc.lft.to/lastmile_qr_scan"}, "lat": 38.902344166666666, "bike_id": "2bad478bb7701f07940c170d620d8f3e", "is_disabled": 0, "lon": -77.03592233333333, "is_reserved": 0, "fusion_lat": 0.0, "type": "electric_scooter"}, {"fusion_lon": 0.0, "name": "de1a1f5540dcf6e61443d516ba40cac9", "rental_uris": {"android": "https://dc.lft.to/lastmile_qr_scan", "ios": "https://dc.lft.to/lastmile_qr_scan"}, "lat": 38.93508516666667, "bike_id": "de1a1f5540dcf6e61443d516ba40cac9", "is_disabled": 0, "lon": -77.033286, "is_reserved": 0, "fusion_lat": 0.0, "type": "electric_scooter"}, {"fusion_lon": 0.0, "name": "a11f07dbc0083711df63e382cbdfb4ac", "rental_uris": {"android": "https://dc.lft.to/lastmile_qr_scan", "ios": "https://dc.lft.to/lastmile_qr_scan"}, "lat": 38.902536166666664, "bike_id": "a11f07dbc0083711df63e382cbdfb4ac", "is_disabled": 0, "lon": -77.04573116666667, "is_reserved": 0, "fusion_lat": 0.0, "type": "electric_scooter"}, {"fusion_lon": 0.0, "name": "2b6d04ae47e2b5a57a27fdf2a6079697", "rental_uris": {"android": "https://dc.lft.to/lastmile_qr_scan", "ios": "https://dc.lft.to/lastmile_qr_scan"}, "lat": 38.95112133333333, "bike_id": "2b6d04ae47e2b5a57a27fdf2a6079697", "is_disabled": 0, "lon": -77.01312116666666, "is_reserved": 0, "fusion_lat": 0.0, "type": "electric_scooter"}, {"fusion_lon": 0.0, "name": "82ecf79f2cf6784beaba9d166fafca2f", "rental_uris": {"android": "https://dc.lft.to/lastmile_qr_scan", "ios": "https://dc.lft.to/lastmile_qr_scan"}, "lat": 38.92957966666667, "bike_id": "82ecf79f2cf6784beaba9d166fafca2f", "is_disabled": 0, "lon": -77.0114645, "is_reserved": 0, "fusion_lat": 0.0, "type": "electric_scooter"}, {"fusion_lon": 0.0, "name": "334fd6a0ad0a538d2e8ad84707f254ed", "rental_uris": {"android": "https://dc.lft.to/lastmile_qr_scan", "ios": "https://dc.lft.to/lastmile_qr_scan"}, "lat": 38.9432525, "bike_id": "334fd6a0ad0a538d2e8ad84707f254ed", "is_disabled": 0, "lon": -77.013119, "is_reserved": 0, "fusion_lat": 0.0, "type": "electric_scooter"}, {"fusion_lon": 0.0, "name": "365fffd05e9f481ca6d2920aba0c0176", "rental_uris": {"android": "https://dc.lft.to/lastmile_qr_scan", "ios": "https://dc.lft.to/lastmile_qr_scan"},