{"data": {"bikes": [{"bike_id": "c9ec015712c0600ed8e34579aecb1b0c", "is_reserved": 0, "fusion_lon": 0.0, "lat": 38.90664316666667, "is_disabled": 0, "name": "c9ec015712c0600ed8e34579aecb1b0c", "fusion_lat": 0.0, "rental_uris": {"ios": "https://dc.lft.to/lastmile_qr_scan", "android": "https://dc.lft.to/lastmile_qr_scan"}, "lon": -77.02707116666667, "type": "electric_scooter"}, {"bike_id": "8c83a816b1b55a6b8bc2a5d2a86ed560", "is_reserved": 0, "fusion_lon": 0.0, "lat": 38.922126666666664, "is_disabled": 0, "name": "8c83a816b1b55a6b8bc2a5d2a86ed560", "fusion_lat": 0.0, "rental_uris": {"ios": "https://dc.lft.to/lastmile_qr_scan", "android": "https://dc.lft.to/lastmile_qr_scan"}, "lon": -77.03654666666667, "type": "electric_scooter"}, {"bike_id": "f7c1d67803818b83cce5e3efcac81043", "is_reserved": 0, "fusion_lon": 0.0, "lat": 38.891665, "is_disabled": 0, "name": "f7c1d67803818b83cce5e3efcac81043", "fusion_lat": 0.0, "rental_uris": {"ios": "https://dc.lft.to/lastmile_qr_scan", "android": "https://dc.lft.to/lastmile_qr_scan"}, "lon": -77.0154575, "type": "electric_scooter"}, {"bike_id": "51f9e4f1f250dca26d335a312a4c2d12", "is_reserved": 0, "fusion_lon": 0.0, "lat": 38.90172, "is_disabled": 0, "name": "51f9e4f1f250dca26d335a312a4c2d12", "fusion_lat": 0.0, "rental_uris": {"ios": "https://dc.lft.to/lastmile_qr_scan", "android": "https://dc.lft.to/lastmile_qr_scan"}, "lon": -77.02486433333333, "type": "electric_scooter"}, {"bike_id": "0f2ca1f7962bcd0d4db36176a9d00f4b", "is_reserved": 0, "fusion_lon": 0.0, "lat": 38.876317666666665, "is_disabled": 0, "name": "0f2ca1f7962bcd0d4db36176a9d00f4b", "fusion_lat": 0.0, "rental_uris": {"ios": "https://dc.lft.to/lastmile_qr_scan", "android": "https://dc.lft.to/lastmile_qr_scan"}, "lon": -76.995902, "type": "electric_scooter"}, {"bike_id": "b87a804e2d3377a3b89c445557635f84", "is_reserved": 0, "fusion_lon": 0.0, "lat": 38.898075, "is_disabled": 0, "name": "b87a804e2d3377a3b89c445557635f84", "fusion_lat": 0.0, "rental_uris": {"ios": "https://dc.lft.to/lastmile_qr_scan", "android": "https://dc.lft.to/lastmile_qr_scan"}, "lon": -77.03324483333333, "type": "electric_scooter"}, {"bike_id": "35238ab9b58c9296bafd38b5e569fdf3", "is_reserved": 0, "fusion_lon": 0.0, "lat": 38.885449, "is_disabled": 0, "name": "35238ab9b58c9296bafd38b5e569fdf3", "fusion_lat": 0.0, "rental_uris": {"ios": "https://dc.lft.to/lastmile_qr_scan", "android": "https://dc.lft.to/lastmile_qr_scan"}, "lon": -77.11784266666666, "type": "electric_bike"}, {"bike_id": "96958d9d674be3d310d6c5a54abe52c7", "is_reserved": 0, "fusion_lon": 0.0, "lat": 38.93421883333333, "is_disabled": 0, "name": "96958d9d674be3d310d6c5a54abe52c7", "fusion_lat": 0.0, "rental_uris": {"ios": "https://dc.lft.to/lastmile_qr_scan", "android": "https://dc.lft.to/lastmile_qr_scan"}, "lon": -76.9650805, "type": "electric_scooter"}, {"bike_id": "650c9ab3a95db2673655973dbc429dbb", "is_reserved": 0, "fusion_lon": 0.0, "lat": 38.92377033333333, "is_disabled": 0, "name": "650c9ab3a95db2673655973dbc429dbb", "fusion_lat": 0.0, "rental_uris": {"ios": "https://dc.lft.to/lastmile_qr_scan", "android": "https://dc.lft.to/lastmile_qr_scan"}, "lon": -77.02742583333334, "type": "electric_bike"}, {"bike_id": "2794d22b8ed551f439113dadcd651bde", "is_reserved": 0, "fusion_lon": 0.0, "lat": 38.92554033333333, "is_disabled": 0, "name": "2794d22b8ed551f439113dadcd651bde", "fusion_lat": 0.0, "rental_uris": {"ios": "https://dc.lft.to/lastmile_qr_scan", "android": "https://dc.lft.to/lastmile_qr_scan"}, "lon": -77.057518, "type": "electric_bike"}, {"bike_id": "3d6505c1d3ffc9738aa74748a52e628c", "is_reserved": 0, "fusion_lon": 0.0, "lat": 38.919266666666665, "is_disabled": 0, "name": "3d6505c1d3ffc9738aa74748a52e628c", "fusion_lat": 0.0, "rental_uris": {"ios": "https://dc.lft.to/lastmile_qr_scan", "android": "https://dc.lft.to/lastmile_qr_scan"}, "lon": -77.0343035, "type": "electric_scooter"}, {"bike_id": "8bdfdf62ba4ca805031041b06213cd78", "is_reserved": 0, "fusion_lon": 0.0, "lat": 38.91303083333333, "is_disabled": 0, "name": "8bdfdf62ba4ca805031041b06213cd78", "fusion_lat": 0.0, "rental_uris": {"ios": "https://dc.lft.to/lastmile_qr_scan", "android": "https://dc.lft.to/lastmile_qr_scan"}, "lon": -77.082873, "type": "electric_bike"}, {"bike_id": "7f45638e433e0355d1df8070fede1540", "is_reserved": 0, "fusion_lon": 0.0, "lat": 38.9133045, "is_disabled": 0, "name": "7f45638e433e0355d1df8070fede1540", "fusion_lat": 0.0, "rental_uris": {"ios": "https://dc.lft.to/lastmile_qr_scan", "android": "https://dc.lft.to/lastmile_qr_scan"}, "lon": -77.04822216666666, "type": "electric_scooter"}, {"bike_id": "40cf434572b32cda1821252c3c3a5fde", "is_reserved": 0, "fusion_lon": 0.0, "lat": 38.92305066666667, "is_disabled": 0, "name": "40cf434572b32cda1821252c3c3a5fde", "fusion_lat": 0.0, "rental_uris": {"ios": "https://dc.lft.to/lastmile_qr_scan", "android": "https://dc.lft.to/lastmile_qr_scan"}, "lon": -77.04126866666667, "type": "electric_scooter"}, {"bike_id": "fa33566383d51535088a5051c190fe36", "is_reserved": 0, "fusion_lon": 0.0, "lat": 38.9002505, "is_disabled": 0, "name": "fa33566383d51535088a5051c190fe36", "fusion_lat": 0.0, "rental_uris": {"ios": "https://dc.lft.to/lastmile_qr_scan", "android": "https://dc.lft.to/lastmile_qr_scan"}, "lon": -77.00218466666666, "type": "electric_scooter"}, {"bike_id": "81ec1391df2b32cf80f4b4cb7b78c89f", "is_reserved": 0, "fusion_lon": 0.0, "lat": 38.87915866666667, "is_disabled": 0, "name": "81ec1391df2b32cf80f4b4cb7b78c89f", "fusion_lat": 0.0, "rental_uris": {"ios": "https://dc.lft.to/lastmile_qr_scan", "android": "https://dc.lft.to/lastmile_qr_scan"}, "lon": -76.99253866666666, "type": "electric_scooter"}, {"bike_id": "ba7c7f462d1c6d83188f7c50e76158bd", "is_reserved": 0, "fusion_lon": 0.0, "lat": 38.892448, "is_disabled": 0, "name": "ba7c7f462d1c6d83188f7c50e76158bd", "fusion_lat": 0.0, "rental_uris": {"ios": "https://dc.lft.to/lastmile_qr_scan", "android": "https://dc.lft.to/lastmile_qr_scan"}, "lon": -77.03962216666666, "type": "electric_scooter"}, {"bike_id": "28b98dcf81069d29e5cffefd9bae4c1d", "is_reserved": 0, "fusion_lon": 0.0, "lat": 38.9443705, "is_disabled": 0, "name": "28b98dcf81069d29e5cffefd9bae4c1d", "fusion_lat": 0.0, "rental_uris": {"ios": "https://dc.lft.to/lastmile_qr_scan", "android": "https://dc.lft.to/lastmile_qr_scan"}, "lon": -77.06350783333333, "type": "electric_scooter"}, {"bike_id": "10e97812f6dd36ff11472015fb5579d5", "is_reserved": 0, "fusion_lon": 0.0, "lat": 38.9228725, "is_disabled": 0, "name": "10e97812f6dd36ff11472015fb5579d5", "fusion_lat": 0.0, "rental_uris": {"ios": "https://dc.lft.to/lastmile_qr_scan", "android": "https://dc.lft.to/lastmile_qr_scan"}, "lon": -77.0413745, "type": "electric_scooter"}, {"bike_id": "3fe89027152674399a26f2c453c310e7", "is_reserved": 0, "fusion_lon": 0.0, "lat": 38.912475, "is_disabled": 0, "name": "3fe89027152674399a26f2c453c310e7", "fusion_lat": 0.0, "rental_uris": {"ios": "https://dc.lft.to/lastmile_qr_scan", "android": "https://dc.lft.to/lastmile_qr_scan"}, "lon": -77.0222655, "type": "electric_scooter"}, {"bike_id": "7063583b8d93ca3a29f8f10dcbb19879", "is_reserved": 0, "fusion_lon": 0.0, "lat": 38.91741483333333, "is_disabled": 0, "name": "7063583b8d93ca3a29f8f10dcbb19879", "fusion_lat": 0.0, "rental_uris": {"ios": "https://dc.lft.to/lastmile_qr_scan", "android": "https://dc.lft.to/lastmile_qr_scan"}, "lon": -77.0171305, "type": "electric_scooter"}, {"bike_id": "6713c0d9531e549f671704c271fa5676", "is_reserved": 0, "fusion_lon": 0.0, "lat": 38.90644566666667, "is_disabled": 0, "name": "6713c0d9531e549f671704c271fa5676", "fusion_lat": 0.0, "rental_uris": {"ios": "https://dc.lft.to/lastmile_qr_scan", "android": "https://dc.lft.to/lastmile_qr_scan"}, "lon": -77.03898583333333, "type": "electric_scooter"}, {"bike_id": "ed91e48ff970806c624accb836d02d3b", "is_reserved": 0, "fusion_lon": 0.0, "lat": 38.9385275, "is_disabled": 0, "name": "ed91e48ff970806c624accb836d02d3b", "fusion_lat": 0.0, "rental_uris": {"ios": "https://dc.lft.to/lastmile_qr_scan", "android": "https://dc.lft.to/lastmile_qr_scan"}, "lon": -77.024578, "type": "electric_scooter"}, {"bike_id": "ceb4652d73dd4f419cf6e9dc600cc0e3", "is_reserved": 0, "fusion_lon": 0.0, "lat": 38.909674833333334, "is_disabled": 0, "name": "ceb4652d73dd4f419cf6e9dc600cc0e3", "fusion_lat": 0.0, "rental_uris": {"ios": "https://dc.lft.to/lastmile_qr_scan", "android": "https://dc.lft.to/lastmile_qr_scan"}, "lon": -77.04030116666667, "type": "electric_scooter"}, {"bike_id": "b0d757b6e5c06ab61d35b18463ef8755", "is_reserved": 0, "fusion_lon": 0.0, "lat": 38.9573295, "is_disabled": 0, "name": "b0d757b6e5c06ab61d35b18463ef8755", "fusion_lat": 0.0, "rental_uris": {"ios": "https://dc.lft.to/lastmile_qr_scan", "android": "https://dc.lft.to/lastmile_qr_scan"}, "lon": -77.02391333333334, "type": "electric_scooter"}, {"bike_id": "45d82cf61dea289e2ce74eb548cd6bd9", "is_reserved": 0, "fusion_lon": 0.0, "lat": 38.91212766666666, "is_disabled": 0, "name": "45d82cf61dea289e2ce74eb548cd6bd9", "fusion_lat": 0.0, "rental_uris": {"ios": "https://dc.lft.to/lastmile_qr_scan", "android": "https://dc.lft.to/lastmile_qr_scan"}, "lon": -77.0280025, "type": "electric_scooter"}, {"bike_id": "c097275b54b9bdc63166ebd0ae3419df", "is_reserved": 0, "fusion_lon": 0.0, "lat": 38.91806366666667, "is_disabled": 0, "name": "c097275b54b9bdc63166ebd0ae3419df", "fusion_lat": 0.0, "rental_uris": {"ios": "https://dc.lft.to/lastmile_qr_scan", "android": "https://dc.lft.to/lastmile_qr_scan"}, "lon": -77.0364485, "type": "electric_scooter"}, {"bike_id": "0b04850520e0f611344c4920e76ae664", "is_reserved": 0, "fusion_lon": 0.0, "lat": 38.90372633333333, "is_disabled": 0, "name": "0b04850520e0f611344c4920e76ae664", "fusion_lat": 0.0, "rental_uris": {"ios": "https://dc.lft.to/lastmile_qr_scan", "android": "https://dc.lft.to/lastmile_qr_scan"}, "lon": -77.030023, "type": "electric_scooter"}, {"bike_id": "e04757c36e93c8e192027f41c1676f47", "is_reserved": 0, "fusion_lon": 0.0, "lat": 38.9126045, "is_disabled": 0, "name": "e04757c36e93c8e192027f41c1676f47", "fusion_lat": 0.0, "rental_uris": {"ios": "https://dc.lft.to/lastmile_qr_scan", "android": "https://dc.lft.to/lastmile_qr_scan"}, "lon": -77.02558966666666, "type": "electric_scooter"}, {"bike_id": "34abeed4cf1a536353970d079c693af6", "is_reserved": 0, "fusion_lon": 0.0, "lat": 38.91667733333333, "is_disabled": 0, "name": "34abeed4cf1a536353970d079c693af6", "fusion_lat": 0.0, "rental_uris": {"ios": "https://dc.lft.to/lastmile_qr_scan", "android": "https://dc.lft.to/lastmile_qr_scan"}, "lon": -77.02377466666667, "type": "electric_scooter"}, {"bike_id": "db43f4754be17f4a70a1ee95c5b7e356", "is_reserved": 0, "fusion_lon": 0.0, "lat": 38.897113833333336, "is_disabled": 0, "name": "db43f4754be17f4a70a1ee95c5b7e356", "fusion_lat": 0.0, "rental_uris": {"ios": "https://dc.lft.to/lastmile_qr_scan", "android": "https://dc.lft.to/lastmile_qr_scan"}, "lon": -77.048905, "type": "electric_scooter"}, {"bike_id": "72451ae3b4d24861224c16b70ba03296", "is_reserved": 0, "fusion_lon": 0.0, "lat": 38.916858500000004, "is_disabled": 0, "name": "72451ae3b4d24861224c16b70ba03296", "fusion_lat": 0.0, "rental_uris": {"ios": "https://dc.lft.to/lastmile_qr_scan", "android": "https://dc.lft.to/lastmile_qr_scan"}, "lon": -77.02304566666666, "type": "electric_scooter"}, {"bike_id": "67759b10c84fa1de618fd2217423e847", "is_reserved": 0, "fusion_lon": 0.0, "lat": 38.91677766666667, "is_disabled": 0, "name": "67759b10c84fa1de618fd2217423e847", "fusion_lat": 0.0, "rental_uris": {"ios": "https://dc.lft.to/lastmile_qr_scan", "android": "https://dc.lft.to/lastmile_qr_scan"}, "lon": -77.01216833333334, "type": "electric_scooter"}, {"bike_id": "ff0dfdc1591e6b136fd9b2abb570a418", "is_reserved": 0, "fusion_lon": 0.0, "lat": 38.909191, "is_disabled": 0, "name": "ff0dfdc1591e6b136fd9b2abb570a418", "fusion_lat": 0.0, "rental_uris": {"ios": "https://dc.lft.to/lastmile_qr_scan", "android": "https://dc.lft.to/lastmile_qr_scan"}, "lon": -77.08007983333333, "type": "electric_scooter"}, {"bike_id": "6fdb01b581f70d8c81cde70a9ea8c5a4", "is_reserved": 0, "fusion_lon": 0.0, "lat": 38.9140945, "is_disabled": 0, "name": "6fdb01b581f70d8c81cde70a9ea8c5a4", "fusion_lat": 0.0, "rental_uris": {"ios": "https://dc.lft.to/lastmile_qr_scan", "android": "https://dc.lft.to/lastmile_qr_scan"}, "lon": -77.04000683333334, "type": "electric_scooter"}, {"bike_id": "9f2a9accb5d58b8bef4356db3038d304", "is_reserved": 0, "fusion_lon": 0.0, "lat": 38.887359333333336, "is_disabled": 0, "name": "9f2a9accb5d58b8bef4356db3038d304", "fusion_lat": 0.0, "rental_uris": {"ios": "https://dc.lft.to/lastmile_qr_scan", "android": "https://dc.lft.to/lastmile_qr_scan"}, "lon": -77.01530033333333, "type": "electric_scooter"}, {"bike_id": "5c651ce7f05e98b7bcc75664ad771b07", "is_reserved": 0, "fusion_lon": 0.0, "lat": 38.920137, "is_disabled": 0, "name": "5c651ce7f05e98b7bcc75664ad771b07", "fusion_lat": 0.0, "rental_uris": {"ios": "https://dc.lft.to/lastmile_qr_scan", "android": "https://dc.lft.to/lastmile_qr_scan"}, "lon": -77.02807716666666, "type": "electric_scooter"}, {"bike_id": "68439a141c91887d3f6580644a7f4cb4", "is_reserved": 0, "fusion_lon": 0.0, "lat": 38.90586883333334, "is_disabled": 0, "name": "68439a141c91887d3f6580644a7f4cb4", "fusion_lat": 0.0, "rental_uris": {"ios": "https://dc.lft.to/lastmile_qr_scan", "android": "https://dc.lft.to/lastmile_qr_scan"}, "lon": -76.986218, "type": "electric_scooter"}, {"bike_id": "f77bac8db77b5ec600c044f027fd3bfe", "is_reserved": 0, "fusion_lon": 0.0, "lat": 38.89217133333333, "is_disabled": 0, "name": "f77bac8db77b5ec600c044f027fd3bfe", "fusion_lat": 0.0, "rental_uris": {"ios": "https://dc.lft.to/lastmile_qr_scan", "android": "https://dc.lft.to/lastmile_qr_scan"}, "lon": -77.1078195, "type": "electric_bike"}, {"bike_id": "bfd342eb0df15cd9beb9b8b149b3a791", "is_reserved": 0, "fusion_lon": 0.0, "lat": 38.9084455, "is_disabled": 0, "name": "bfd342eb0df15cd9beb9b8b149b3a791", "fusion_lat": 0.0, "rental_uris": {"ios": "https://dc.lft.to/lastmile_qr_scan", "android": "https://dc.lft.to/lastmile_qr_scan"}, "lon": -77.02729833333333, "type": "electric_scooter"}, {"bike_id": "6445dd0efd88a2d97eede56d1f1b3ae6", "is_reserved": 0, "fusion_lon": 0.0, "lat": 38.878549, "is_disabled": 0, "name": "6445dd0efd88a2d97eede56d1f1b3ae6", "fusion_lat": 0.0, "rental_uris": {"ios": "https://dc.lft.to/lastmile_qr_scan", "android": "https://dc.lft.to/lastmile_qr_scan"}, "lon": -77.02299033333334, "type": "electric_scooter"}, {"bike_id": "d6b2f6fd3e3eb0fc746a2ac956d721a4", "is_reserved": 0, "fusion_lon": 0.0, "lat": 39.0563375, "is_disabled": 0, "name": "d6b2f6fd3e3eb0fc746a2ac956d721a4", "fusion_lat": 0.0, "rental_uris": {"ios": "https://dc.lft.to/lastmile_qr_scan", "android": "https://dc.lft.to/lastmile_qr_scan"}, "lon": -77.12526966666667, "type": "electric_bike"}, {"bike_id": "810815d57116893221f585e9c1af6af4", "is_reserved": 0, "fusion_lon": 0.0, "lat": 38.91690366666667, "is_disabled": 0, "name": "810815d57116893221f585e9c1af6af4", "fusion_lat": 0.0, "rental_uris": {"ios": "https://dc.lft.to/lastmile_qr_scan", "android": "https://dc.lft.to/lastmile_qr_scan"}, "lon": -77.03218283333334, "type": "electric_scooter"}, {"bike_id": "a6eb95832e4c8fd7b4978d82420c0aab", "is_reserved": 0, "fusion_lon": 0.0, "lat": 38.923675833333334, "is_disabled": 0, "name": "a6eb95832e4c8fd7b4978d82420c0aab", "fusion_lat": 0.0, "rental_uris": {"ios": "https://dc.lft.to/lastmile_qr_scan", "android": "https://dc.lft.to/lastmile_qr_scan"}, "lon": -77.04133933333334, "type": "electric_scooter"}, {"bike_id": "81f9e998cde3d43aaabf50b77bc4cdb8", "is_reserved": 0, "fusion_lon": 0.0, "lat": 38.91031816666667, "is_disabled": 0, "name": "81f9e998cde3d43aaabf50b77bc4cdb8", "fusion_lat": 0.0, "rental_uris": {"ios": "https://dc.lft.to/lastmile_qr_scan", "android": "https://dc.lft.to/lastmile_qr_scan"}, "lon": -77.038392, "type": "electric_scooter"}, {"bike_id": "253edf20acbd9aeb3f376054912cccea", "is_reserved": 0, "fusion_lon": 0.0, "lat": 38.8960455, "is_disabled": 0, "name": "253edf20acbd9aeb3f376054912cccea", "fusion_lat": 0.0, "rental_uris": {"ios": "https://dc.lft.to/lastmile_qr_scan", "android": "https://dc.lft.to/lastmile_qr_scan"}, "lon": -77.03169533333333, "type": "electric_scooter"}, {"bike_id": "d259fda662140f7cf9ac15ec52949c8f", "is_reserved": 0, "fusion_lon": 0.0, "lat": 38.91917616666667, "is_disabled": 0, "name": "d259fda662140f7cf9ac15ec52949c8f", "fusion_lat": 0.0, "rental_uris": {"ios": "https://dc.lft.to/lastmile_qr_scan", "android": "https://dc.lft.to/lastmile_qr_scan"}, "lon": -77.02509066666667, "type": "electric_scooter"}, {"bike_id": "5dfba3b6694da307a14e1162c466201b", "is_reserved": 0, "fusion_lon": 0.0, "lat": 38.88509766666667, "is_disabled": 0, "name": "5dfba3b6694da307a14e1162c466201b", "fusion_lat": 0.0, "rental_uris": {"ios": "https://dc.lft.to/lastmile_qr_scan", "android": "https://dc.lft.to/lastmile_qr_scan"}, "lon": -77.00570133333333, "type": "electric_scooter"}, {"bike_id": "26a8e5616fad9f46fec335989dc231d6", "is_reserved": 0, "fusion_lon": 0.0, "lat": 38.8935825, "is_disabled": 0, "name": "26a8e5616fad9f46fec335989dc231d6", "fusion_lat": 0.0, "rental_uris": {"ios": "https://dc.lft.to/lastmile_qr_scan", "android": "https://dc.lft.to/lastmile_qr_scan"}, "lon": -77.03170016666667, "type": "electric_scooter"}, {"bike_id": "7d744fb445155d4bc00c666594fcb27f", "is_reserved": 0, "fusion_lon": 0.0, "lat": 38.8962165, "is_disabled": 0, "name": "7d744fb445155d4bc00c666594fcb27f", "fusion_lat": 0.0, "rental_uris": {"ios": "https://dc.lft.to/lastmile_qr_scan", "android": "https://dc.lft.to/lastmile_qr_scan"}, "lon": -76.998457, "type": "electric_scooter"}, {"bike_id": "6f10722e130ea32468fac1502d1f7e3e", "is_reserved": 0, "fusion_lon": 0.0, "lat": 38.925133333333335, "is_disabled": 0, "name": "6f10722e130ea32468fac1502d1f7e3e", "fusion_lat": 0.0, "rental_uris": {"ios": "https://dc.lft.to/lastmile_qr_scan", "android": "https://dc.lft.to/lastmile_qr_scan"}, "lon": -77.03854, "type": "electric_scooter"}, {"bike_id": "5682b694bbd0c18bfb22e69dda67a37a", "is_reserved": 0, "fusion_lon": 0.0, "lat": 38.9240235, "is_disabled": 0, "name": "5682b694bbd0c18bfb22e69dda67a37a", "fusion_lat": 0.0, "rental_uris": {"ios": "https://dc.lft.to/lastmile_qr_scan", "android": "https://dc.lft.to/lastmile_qr_scan"}, "lon": -77.02252133333333, "type": "electric_scooter"}, {"bike_id": "a14bb0faae3b4bfce1bcd22975fda29d", "is_reserved": 0, "fusion_lon": 0.0, "lat": 38.8919025, "is_disabled": 0, "name": "a14bb0faae3b4bfce1bcd22975fda29d", "fusion_lat": 0.0, "rental_uris": {"ios": "https://dc.lft.to/lastmile_qr_scan", "android": "https://dc.lft.to/lastmile_qr_scan"}, "lon": -77.02380266666667, "type": "electric_scooter"}, {"bike_id": "6a3d06bd7c0d7d0ebb8c1e6b30b1ef89", "is_reserved": 0, "fusion_lon": 0.0, "lat": 38.899092333333336, "is_disabled": 0, "name": "6a3d06bd7c0d7d0ebb8c1e6b30b1ef89", "fusion_lat": 0.0, "rental_uris": {"ios": "https://dc.lft.to/lastmile_qr_scan", "android": "https://dc.lft.to/lastmile_qr_scan"}, "lon": -76.933542, "type": "electric_scooter"}, {"bike_id": "0079073fd1bb48c3bdb841a5481ba13e", "is_reserved": 0, "fusion_lon": 0.0, "lat": 38.8749, "is_disabled": 0, "name": "0079073fd1bb48c3bdb841a5481ba13e", "fusion_lat": 0.0, "rental_uris": {"ios": "https://dc.lft.to/lastmile_qr_scan", "android": "https://dc.lft.to/lastmile_qr_scan"}, "lon": -76.9980135, "type": "electric_scooter"}, {"bike_id": "fc91527786ee92dfa9dc966c04aeb584", "is_reserved": 0, "fusion_lon": 0.0, "lat": 38.85814383333334, "is_disabled": 0, "name": "fc91527786ee92dfa9dc966c04aeb584", "fusion_lat": 0.0, "rental_uris": {"ios": "https://dc.lft.to/lastmile_qr_scan", "android": "https://dc.lft.to/lastmile_qr_scan"}, "lon": -76.98992266666667, "type": "electric_scooter"}, {"bike_id": "65d45bbd1dcb8845a1ac815d120b99aa", "is_reserved": 0, "fusion_lon": 0.0, "lat": 38.90370566666667, "is_disabled": 0, "name": "65d45bbd1dcb8845a1ac815d120b99aa", "fusion_lat": 0.0, "rental_uris": {"ios": "https://dc.lft.to/lastmile_qr_scan", "android": "https://dc.lft.to/lastmile_qr_scan"}, "lon": -77.0450875, "type": "electric_scooter"}, {"bike_id": "f44aa053a4f242b3de2e35ae2c7961c9", "is_reserved": 0, "fusion_lon": 0.0, "lat": 38.9032745, "is_disabled": 0, "name": "f44aa053a4f242b3de2e35ae2c7961c9", "fusion_lat": 0.0, "rental_uris": {"ios": "https://dc.lft.to/lastmile_qr_scan", "android": "https://dc.lft.to/lastmile_qr_scan"}, "lon": -77.04188466666666, "type": "electric_scooter"}, {"bike_id": "b355461db72c08faf727be489bc16105", "is_reserved": 0, "fusion_lon": 0.0, "lat": 38.90493983333333, "is_disabled": 0, "name": "b355461db72c08faf727be489bc16105", "fusion_lat": 0.0, "rental_uris": {"ios": "https://dc.lft.to/lastmile_qr_scan", "android": "https://dc.lft.to/lastmile_qr_scan"}, "lon": -77.06011983333333, "type": "electric_scooter"}, {"bike_id": "eaebab3d4692ef9330236a29301b518e", "is_reserved": 0, "fusion_lon": 0.0, "lat": 38.9401095, "is_disabled": 0, "name": "eaebab3d4692ef9330236a29301b518e", "fusion_lat": 0.0, "rental_uris": {"ios": "https://dc.lft.to/lastmile_qr_scan", "android": "https://dc.lft.to/lastmile_qr_scan"}, "lon": -77.07161133333334, "type": "electric_scooter"}, {"bike_id": "adc51bcb0a8addce328fa67a0206c345", "is_reserved": 0, "fusion_lon": 0.0, "lat": 38.9042255, "is_disabled": 0, "name": "adc51bcb0a8addce328fa67a0206c345", "fusion_lat": 0.0, "rental_uris": {"ios": "https://dc.lft.to/lastmile_qr_scan", "android": "https://dc.lft.to/lastmile_qr_scan"}, "lon": -77.04049283333333, "type": "electric_scooter"}, {"bike_id": "3a9b158787d3b1883cdf003659752add", "is_reserved": 0, "fusion_lon": 0.0, "lat": 38.88524866666667, "is_disabled": 0, "name": "3a9b158787d3b1883cdf003659752add", "fusion_lat": 0.0, "rental_uris": {"ios": "https://dc.lft.to/lastmile_qr_scan", "android": "https://dc.lft.to/lastmile_qr_scan"}, "lon": -77.03334433333333, "type": "electric_scooter"}, {"bike_id": "b9e0f787d2240c1f90ea9308578f8656", "is_reserved": 0, "fusion_lon": 0.0, "lat": 38.91968766666667, "is_disabled": 0, "name": "b9e0f787d2240c1f90ea9308578f8656", "fusion_lat": 0.0, "rental_uris": {"ios": "https://dc.lft.to/lastmile_qr_scan", "android": "https://dc.lft.to/lastmile_qr_scan"}, "lon": -77.04176983333333, "type": "electric_scooter"}, {"bike_id": "8c3cae6450b78fd48a9ef06f465054e4", "is_reserved": 0, "fusion_lon": 0.0, "lat": 38.82046916666667, "is_disabled": 0, "name": "8c3cae6450b78fd48a9ef06f465054e4", "fusion_lat": 0.0, "rental_uris": {"ios": "https://dc.lft.to/lastmile_qr_scan", "android": "https://dc.lft.to/lastmile_qr_scan"}, "lon": -77.05312133333334, "type": "electric_bike"}, {"bike_id": "70dcf25eb2dbf7a841f3b431da14ee5c", "is_reserved": 0, "fusion_lon": 0.0, "lat": 38.950702166666666, "is_disabled": 0, "name": "70dcf25eb2dbf7a841f3b431da14ee5c", "fusion_lat": 0.0, "rental_uris": {"ios": "https://dc.lft.to/lastmile_qr_scan", "android": "https://dc.lft.to/lastmile_qr_scan"}, "lon": -77.0119535, "type": "electric_bike"}, {"bike_id": "647bd606fe42a15fce38c1226045ea06", "is_reserved": 0, "fusion_lon": 0.0, "lat": 38.9171625, "is_disabled": 0, "name": "647bd606fe42a15fce38c1226045ea06", "fusion_lat": 0.0, "rental_uris": {"ios": "https://dc.lft.to/lastmile_qr_scan", "android": "https://dc.lft.to/lastmile_qr_scan"}, "lon": -77.02389216666667, "type": "electric_scooter"}, {"bike_id": "3ab4f69b33f53c894c6f27cd0fef4bc1", "is_reserved": 0, "fusion_lon": 0.0, "lat": 38.919851666666666, "is_disabled": 0, "name": "3ab4f69b33f53c894c6f27cd0fef4bc1", "fusion_lat": 0.0, "rental_uris": {"ios": "https://dc.lft.to/lastmile_qr_scan", "android": "https://dc.lft.to/lastmile_qr_scan"}, "lon": -76.97307916666666, "type": "electric_scooter"}, {"bike_id": "d811ec8b985bff9211c1eee6eac2f82d", "is_reserved": 0, "fusion_lon": 0.0, "lat": 38.91099616666666, "is_disabled": 0, "name": "d811ec8b985bff9211c1eee6eac2f82d", "fusion_lat": 0.0, "rental_uris": {"ios": "https://dc.lft.to/lastmile_qr_scan", "android": "https://dc.lft.to/lastmile_qr_scan"}, "lon": -76.99718266666666, "type": "electric_scooter"}, {"bike_id": "c8e624d23b40780f4ccd4964f5f7085e", "is_reserved": 0, "fusion_lon": 0.0, "lat": 38.88638683333333, "is_disabled": 0, "name": "c8e624d23b40780f4ccd4964f5f7085e", "fusion_lat": 0.0, "rental_uris": {"ios": "https://dc.lft.to/lastmile_qr_scan", "android": "https://dc.lft.to/lastmile_qr_scan"}, "lon": -77.021381, "type": "electric_scooter"}, {"bike_id": "3fbf1e76ca2455e970cb9bd85d240925", "is_reserved": 0, "fusion_lon": 0.0, "lat": 38.9042255, "is_disabled": 0, "name": "3fbf1e76ca2455e970cb9bd85d240925", "fusion_lat": 0.0, "rental_uris": {"ios": "https://dc.lft.to/lastmile_qr_scan", "android": "https://dc.lft.to/lastmile_qr_scan"}, "lon": -77.051598, "type": "electric_scooter"}, {"bike_id": "14812ec5d911f414291cd0ba2ac681bc", "is_reserved": 0, "fusion_lon": 0.0, "lat": 38.86690433333333, "is_disabled": 0, "name": "14812ec5d911f414291cd0ba2ac681bc", "fusion_lat": 0.0, "rental_uris": {"ios": "https://dc.lft.to/lastmile_qr_scan", "android": "https://dc.lft.to/lastmile_qr_scan"}, "lon": -76.987062, "type": "electric_scooter"}, {"bike_id": "858a6420389b95a8a457df2e9cd9c0e0", "is_reserved": 0, "fusion_lon": 0.0, "lat": 38.9162835, "is_disabled": 0, "name": "858a6420389b95a8a457df2e9cd9c0e0", "fusion_lat": 0.0, "rental_uris": {"ios": "https://dc.lft.to/lastmile_qr_scan", "android": "https://dc.lft.to/lastmile_qr_scan"}, "lon": -77.03207933333333, "type": "electric_scooter"}, {"bike_id": "0c683330a4ddc8961439ba0ea6f4b8e9", "is_reserved": 0, "fusion_lon": 0.0, "lat": 38.931027666666665, "is_disabled": 0, "name": "0c683330a4ddc8961439ba0ea6f4b8e9", "fusion_lat": 0.0, "rental_uris": {"ios": "https://dc.lft.to/lastmile_qr_scan", "android": "https://dc.lft.to/lastmile_qr_scan"}, "lon": -77.01849816666666, "type": "electric_scooter"}, {"bike_id": "d15c97510234af3baf215fdbb228e84a", "is_reserved": 0, "fusion_lon": 0.0, "lat": 38.91536966666666, "is_disabled": 0, "name": "d15c97510234af3baf215fdbb228e84a", "fusion_lat": 0.0, "rental_uris": {"ios": "https://dc.lft.to/lastmile_qr_scan", "android": "https://dc.lft.to/lastmile_qr_scan"}, "lon": -77.031987, "type": "electric_scooter"}, {"bike_id": "d4005d40d75e4651e3f6e1bd7d960411", "is_reserved": 0, "fusion_lon": 0.0, "lat": 38.88766283333333, "is_disabled": 0, "name": "d4005d40d75e4651e3f6e1bd7d960411", "fusion_lat": 0.0, "rental_uris": {"ios": "https://dc.lft.to/lastmile_qr_scan", "android": "https://dc.lft.to/lastmile_qr_scan"}, "lon": -77.02232366666667, "type": "electric_scooter"}, {"bike_id": "57f7279204ec69e47f3a6db6e659ba6a", "is_reserved": 0, "fusion_lon": 0.0, "lat": 38.88428583333334, "is_disabled": 0, "name": "57f7279204ec69e47f3a6db6e659ba6a", "fusion_lat": 0.0, "rental_uris": {"ios": "https://dc.lft.to/lastmile_qr_scan", "android": "https://dc.lft.to/lastmile_qr_scan"}, "lon": -76.95759033333333, "type": "electric_scooter"}, {"bike_id": "30058e1b4c47c37a5de37f3191318ca9", "is_reserved": 0, "fusion_lon": 0.0, "lat": 38.921977166666665, "is_disabled": 0, "name": "30058e1b4c47c37a5de37f3191318ca9", "fusion_lat": 0.0, "rental_uris": {"ios": "https://dc.lft.to/lastmile_qr_scan", "android": "https://dc.lft.to/lastmile_qr_scan"}, "lon": -77.02410533333334, "type": "electric_scooter"}, {"bike_id": "6ca82db161781013c4804253fc6e2661", "is_reserved": 0, "fusion_lon": 0.0, "lat": 38.900619, "is_disabled": 0, "name": "6ca82db161781013c4804253fc6e2661", "fusion_lat": 0.0, "rental_uris": {"ios": "https://dc.lft.to/lastmile_qr_scan", "android": "https://dc.lft.to/lastmile_qr_scan"}, "lon": -76.9338925, "type": "electric_scooter"}, {"bike_id": "9924c4ce2c837983f48af93a1f1a4f57", "is_reserved": 0, "fusion_lon": 0.0, "lat": 38.922855166666665, "is_disabled": 0, "name": "9924c4ce2c837983f48af93a1f1a4f57", "fusion_lat": 0.0, "rental_uris": {"ios": "https://dc.lft.to/lastmile_qr_scan", "android": "https://dc.lft.to/lastmile_qr_scan"}, "lon": -77.02065216666666, "type": "electric_scooter"}, {"bike_id": "196ebe8e07645c6d80c44b9999987218", "is_reserved": 0, "fusion_lon": 0.0, "lat": 38.99069516666667, "is_disabled": 0, "name": "196ebe8e07645c6d80c44b9999987218", "fusion_lat": 0.0, "rental_uris": {"ios": "https://dc.lft.to/lastmile_qr_scan", "android": "https://dc.lft.to/lastmile_qr_scan"}, "lon": -76.8747085, "type": "electric_bike"}, {"bike_id": "92b1f2495531612038f23ad019945851", "is_reserved": 0, "fusion_lon": 0.0, "lat": 38.909609833333334, "is_disabled": 0, "name": "92b1f2495531612038f23ad019945851", "fusion_lat": 0.0, "rental_uris": {"ios": "https://dc.lft.to/lastmile_qr_scan", "android": "https://dc.lft.to/lastmile_qr_scan"}, "lon": -77.03245166666666, "type": "electric_scooter"}, {"bike_id": "74afbc88a5572356d718aa76fc84ebae", "is_reserved": 0, "fusion_lon": 0.0, "lat": 38.883322166666666, "is_disabled": 0, "name": "74afbc88a5572356d718aa76fc84ebae", "fusion_lat": 0.0, "rental_uris": {"ios": "https://dc.lft.to/lastmile_qr_scan", "android": "https://dc.lft.to/lastmile_qr_scan"}, "lon": -77.0315285, "type": "electric_scooter"}, {"bike_id": "a77b098fe2f81fb9983d17d12455c1b6", "is_reserved": 0, "fusion_lon": 0.0, "lat": 38.911833666666666, "is_disabled": 0, "name": "a77b098fe2f81fb9983d17d12455c1b6", "fusion_lat": 0.0, "rental_uris": {"ios": "https://dc.lft.to/lastmile_qr_scan", "android": "https://dc.lft.to/lastmile_qr_scan"}, "lon": -77.03833533333334, "type": "electric_scooter"}, {"bike_id": "c802e1ec0ad6beeacbdbc837049ed42f", "is_reserved": 0, "fusion_lon": 0.0, "lat": 38.88989516666667, "is_disabled": 0, "name": "c802e1ec0ad6beeacbdbc837049ed42f", "fusion_lat": 0.0, "rental_uris": {"ios": "https://dc.lft.to/lastmile_qr_scan", "android": "https://dc.lft.to/lastmile_qr_scan"}, "lon": -77.003342, "type": "electric_scooter"}, {"bike_id": "28019c6960ef9c396ba1af4855fe3f5d", "is_reserved": 0, "fusion_lon": 0.0, "lat": 38.92344516666667, "is_disabled": 0, "name": "28019c6960ef9c396ba1af4855fe3f5d", "fusion_lat": 0.0, "rental_uris": {"ios": "https://dc.lft.to/lastmile_qr_scan", "android": "https://dc.lft.to/lastmile_qr_scan"}, "lon": -77.0189435, "type": "electric_scooter"}, {"bike_id": "54dc9f1554311e92ad83c6176f385e1b", "is_reserved": 0, "fusion_lon": 0.0, "lat": 38.870891, "is_disabled": 0, "name": "54dc9f1554311e92ad83c6176f385e1b", "fusion_lat": 0.0, "rental_uris": {"ios": "https://dc.lft.to/lastmile_qr_scan", "android": "https://dc.lft.to/lastmile_qr_scan"}, "lon": -77.01208616666666, "type": "electric_scooter"}, {"bike_id": "1dca6e0aa88d5345da4d300ca9827cb3", "is_reserved": 0, "fusion_lon": 0.0, "lat": 38.9057855, "is_disabled": 0, "name": "1dca6e0aa88d5345da4d300ca9827cb3", "fusion_lat": 0.0, "rental_uris": {"ios": "https://dc.lft.to/lastmile_qr_scan", "android": "https://dc.lft.to/lastmile_qr_scan"}, "lon": -77.06276666666666, "type": "electric_scooter"}, {"bike_id": "8b0132468843dbcbd6eaa6b17384dcf3", "is_reserved": 0, "fusion_lon": 0.0, "lat": 38.91880033333333, "is_disabled": 0, "name": "8b0132468843dbcbd6eaa6b17384dcf3", "fusion_lat": 0.0, "rental_uris": {"ios": "https://dc.lft.to/lastmile_qr_scan", "android": "https://dc.lft.to/lastmile_qr_scan"}, "lon": -77.04182966666667, "type": "electric_scooter"}, {"bike_id": "fb1bea4466969a1be189aa408c4477e0", "is_reserved": 0, "fusion_lon": 0.0, "lat": 38.89772833333333, "is_disabled": 0, "name": "fb1bea4466969a1be189aa408c4477e0", "fusion_lat": 0.0, "rental_uris": {"ios": "https://dc.lft.to/lastmile_qr_scan", "android": "https://dc.lft.to/lastmile_qr_scan"}, "lon": -77.0316735, "type": "electric_scooter"}, {"bike_id": "c63903f2ed0e0850456ba134e07431d5", "is_reserved": 0, "fusion_lon": 0.0, "lat": 38.927527833333336, "is_disabled": 0, "name": "c63903f2ed0e0850456ba134e07431d5", "fusion_lat": 0.0, "rental_uris": {"ios": "https://dc.lft.to/lastmile_qr_scan", "android": "https://dc.lft.to/lastmile_qr_scan"}, "lon": -76.97877233333334, "type": "electric_bike"}, {"bike_id": "32eca58c4d0a6fd213f937f4b638d863", "is_reserved": 0, "fusion_lon": 0.0, "lat": 38.906654, "is_disabled": 0, "name": "32eca58c4d0a6fd213f937f4b638d863", "fusion_lat": 0.0, "rental_uris": {"ios": "https://dc.lft.to/lastmile_qr_scan", "android": "https://dc.lft.to/lastmile_qr_scan"}, "lon": -77.02956833333333, "type": "electric_scooter"}, {"bike_id": "e151ce019ddfcb33ac035df293979d66", "is_reserved": 0, "fusion_lon": 0.0, "lat": 38.89887216666666, "is_disabled": 0, "name": "e151ce019ddfcb33ac035df293979d66", "fusion_lat": 0.0, "rental_uris": {"ios": "https://dc.lft.to/lastmile_qr_scan", "android": "https://dc.lft.to/lastmile_qr_scan"}, "lon": -77.040832, "type": "electric_scooter"}, {"bike_id": "efc0619c20a4d8e54b78e4596b85cff7", "is_reserved": 0, "fusion_lon": 0.0, "lat": 38.90576466666667, "is_disabled": 0, "name": "efc0619c20a4d8e54b78e4596b85cff7", "fusion_lat": 0.0, "rental_uris": {"ios": "https://dc.lft.to/lastmile_qr_scan", "android": "https://dc.lft.to/lastmile_qr_scan"}, "lon": -77.06527616666666, "type": "electric_scooter"}, {"bike_id": "38126b0bc735f20b724762a27a58191b", "is_reserved": 0, "fusion_lon": 0.0, "lat": 38.910071, "is_disabled": 0, "name": "38126b0bc735f20b724762a27a58191b", "fusion_lat": 0.0, "rental_uris": {"ios": "https://dc.lft.to/lastmile_qr_scan", "android": "https://dc.lft.to/lastmile_qr_scan"}, "lon": -76.99389016666666, "type": "electric_scooter"}, {"bike_id": "9db40b5a38f5e99cc50ba412c81791ca", "is_reserved": 0, "fusion_lon": 0.0, "lat": 38.86100866666666, "is_disabled": 0, "name": "9db40b5a38f5e99cc50ba412c81791ca", "fusion_lat": 0.0, "rental_uris": {"ios": "https://dc.lft.to/lastmile_qr_scan", "android": "https://dc.lft.to/lastmile_qr_scan"}, "lon": -76.98365583333333, "type": "electric_scooter"}, {"bike_id": "7a3bb48b9d034cf14f33b38e403e5900", "is_reserved": 0, "fusion_lon": 0.0, "lat": 38.9260905, "is_disabled": 0, "name": "7a3bb48b9d034cf14f33b38e403e5900", "fusion_lat": 0.0, "rental_uris": {"ios": "https://dc.lft.to/lastmile_qr_scan", "android": "https://dc.lft.to/lastmile_qr_scan"}, "lon": -77.039637, "type": "electric_scooter"}, {"bike_id": "f2a4d69c2d432d3a5f3a4e4ed93c856b", "is_reserved": 0, "fusion_lon": 0.0, "lat": 38.904610166666664, "is_disabled": 0, "name": "f2a4d69c2d432d3a5f3a4e4ed93c856b", "fusion_lat": 0.0, "rental_uris": {"ios": "https://dc.lft.to/lastmile_qr_scan", "android": "https://dc.lft.to/lastmile_qr_scan"}, "lon": -76.99499816666666, "type": "electric_scooter"}, {"bike_id": "55d2076af0675d08adfe5c848629b924", "is_reserved": 0, "fusion_lon": 0.0, "lat": 38.874546333333335, "is_disabled": 0, "name": "55d2076af0675d08adfe5c848629b924", "fusion_lat": 0.0, "rental_uris": {"ios": "https://dc.lft.to/lastmile_qr_scan", "android": "https://dc.lft.to/lastmile_qr_scan"}, "lon": -77.00311683333334, "type": "electric_scooter"}, {"bike_id": "c4250c5b8c58ca71ae38ee6f3871744b", "is_reserved": 0, "fusion_lon": 0.0, "lat": 38.968196166666665, "is_disabled": 0, "name": "c4250c5b8c58ca71ae38ee6f3871744b", "fusion_lat": 0.0, "rental_uris": {"ios": "https://dc.lft.to/lastmile_qr_scan", "android": "https://dc.lft.to/lastmile_qr_scan"}, "lon": -77.01787616666667, "type": "electric_scooter"}, {"bike_id": "f32fdec49c0030c926ab07e4551b59c1", "is_reserved": 0, "fusion_lon": 0.0, "lat": 38.90502816666667, "is_disabled": 0, "name": "f32fdec49c0030c926ab07e4551b59c1", "fusion_lat": 0.0, "rental_uris": {"ios": "https://dc.lft.to/lastmile_qr_scan", "android": "https://dc.lft.to/lastmile_qr_scan"}, "lon": -77.050423, "type": "electric_scooter"}, {"bike_id": "cf972e0cc14cf298ae9bd0ef24cee641", "is_reserved": 0, "fusion_lon": 0.0, "lat": 38.92488983333333, "is_disabled": 0, "name": "cf972e0cc14cf298ae9bd0ef24cee641", "fusion_lat": 0.0, "rental_uris": {"ios": "https://dc.lft.to/lastmile_qr_scan", "android": "https://dc.lft.to/lastmile_qr_scan"}, "lon": -77.02272866666667, "type": "electric_scooter"}, {"bike_id": "0721dacf15a2ffb4f675e45ffb7a270f", "is_reserved": 0, "fusion_lon": 0.0, "lat": 38.86952566666667, "is_disabled": 0, "name": "0721dacf15a2ffb4f675e45ffb7a270f", "fusion_lat": 0.0, "rental_uris": {"ios": "https://dc.lft.to/lastmile_qr_scan", "android": "https://dc.lft.to/lastmile_qr_scan"}, "lon": -77.013766, "type": "electric_scooter"}, {"bike_id": "11a3a0dd4d6106cf60ac68db2668fa75", "is_reserved": 0, "fusion_lon": 0.0, "lat": 38.90255666666667, "is_disabled": 0, "name": "11a3a0dd4d6106cf60ac68db2668fa75", "fusion_lat": 0.0, "rental_uris": {"ios": "https://dc.lft.to/lastmile_qr_scan", "android": "https://dc.lft.to/lastmile_qr_scan"}, "lon": -77.06014566666667, "type": "electric_scooter"}, {"bike_id": "dfca440409d31873f74a8902d092cf70", "is_reserved": 0, "fusion_lon": 0.0, "lat": 38.8644925, "is_disabled": 0, "name": "dfca440409d31873f74a8902d092cf70", "fusion_lat": 0.0, "rental_uris": {"ios": "https://dc.lft.to/lastmile_qr_scan", "android": "https://dc.lft.to/lastmile_qr_scan"}, "lon": -76.97349216666667, "type": "electric_scooter"}, {"bike_id": "ffe61a569d5a56315782dbd15b6b87a9", "is_reserved": 0, "fusion_lon": 0.0, "lat": 38.892202, "is_disabled": 0, "name": "ffe61a569d5a56315782dbd15b6b87a9", "fusion_lat": 0.0, "rental_uris": {"ios": "https://dc.lft.to/lastmile_qr_scan", "android": "https://dc.lft.to/lastmile_qr_scan"}, "lon": -77.02648666666667, "type": "electric_scooter"}, {"bike_id": "f0eed29bc0d8c53761ef1b7d847b5767", "is_reserved": 0, "fusion_lon": 0.0, "lat": 38.92612883333334, "is_disabled": 0, "name": "f0eed29bc0d8c53761ef1b7d847b5767", "fusion_lat": 0.0, "rental_uris": {"ios": "https://dc.lft.to/lastmile_qr_scan", "android": "https://dc.lft.to/lastmile_qr_scan"}, "lon": -77.03789416666666, "type": "electric_scooter"}, {"bike_id": "0d1d5b84c64ee135f37e9649cf6e24e2", "is_reserved": 0, "fusion_lon": 0.0, "lat": 38.915614833333336, "is_disabled": 0, "name": "0d1d5b84c64ee135f37e9649cf6e24e2", "fusion_lat": 0.0, "rental_uris": {"ios": "https://dc.lft.to/lastmile_qr_scan", "android": "https://dc.lft.to/lastmile_qr_scan"}, "lon": -77.03154266666667, "type": "electric_scooter"}, {"bike_id": "6800bae10dedf77f2808a4711ae73387", "is_reserved": 0, "fusion_lon": 0.0, "lat": 38.921746, "is_disabled": 0, "name": "6800bae10dedf77f2808a4711ae73387", "fusion_lat": 0.0, "rental_uris": {"ios": "https://dc.lft.to/lastmile_qr_scan", "android": "https://dc.lft.to/lastmile_qr_scan"}, "lon": -76.99793183333334, "type": "electric_scooter"}, {"bike_id": "afbea780e35719f43e9adae909a981c3", "is_reserved": 0, "fusion_lon": 0.0, "lat": 38.91665283333333, "is_disabled": 0, "name": "afbea780e35719f43e9adae909a981c3", "fusion_lat": 0.0, "rental_uris": {"ios": "https://dc.lft.to/lastmile_qr_scan", "android": "https://dc.lft.to/lastmile_qr_scan"}, "lon": -77.02959933333334, "type": "electric_scooter"}, {"bike_id": "94609726c7757b4e79b08d0ca52243e4", "is_reserved": 0, "fusion_lon": 0.0, "lat": 38.82253866666667, "is_disabled": 0, "name": "94609726c7757b4e79b08d0ca52243e4", "fusion_lat": 0.0, "rental_uris": {"ios": "https://dc.lft.to/lastmile_qr_scan", "android": "https://dc.lft.to/lastmile_qr_scan"}, "lon": -77.0055805, "type": "electric_bike"}, {"bike_id": "d6bdb792f0e4f33cdd2d720b33372d37", "is_reserved": 0, "fusion_lon": 0.0, "lat": 38.91106533333333, "is_disabled": 0, "name": "d6bdb792f0e4f33cdd2d720b33372d37", "fusion_lat": 0.0, "rental_uris": {"ios": "https://dc.lft.to/lastmile_qr_scan", "android": "https://dc.lft.to/lastmile_qr_scan"}, "lon": -77.02413516666667, "type": "electric_scooter"}, {"bike_id": "8a9df7811774ece039dc58366abb4760", "is_reserved": 0, "fusion_lon": 0.0, "lat": 38.874729333333335, "is_disabled": 0, "name": "8a9df7811774ece039dc58366abb4760", "fusion_lat": 0.0, "rental_uris": {"ios": "https://dc.lft.to/lastmile_qr_scan", "android": "https://dc.lft.to/lastmile_qr_scan"}, "lon": -77.0107175, "type": "electric_scooter"}, {"bike_id": "958d686ed77fe7d90666f1ea34161b31", "is_reserved": 0, "fusion_lon": 0.0, "lat": 38.8962655, "is_disabled": 0, "name": "958d686ed77fe7d90666f1ea34161b31", "fusion_lat": 0.0, "rental_uris": {"ios": "https://dc.lft.to/lastmile_qr_scan", "android": "https://dc.lft.to/lastmile_qr_scan"}, "lon": -77.03956133333334, "type": "electric_scooter"}, {"bike_id": "456900f0b3089f58743e75dc22bd3303", "is_reserved": 0, "fusion_lon": 0.0, "lat": 38.90603483333334, "is_disabled": 0, "name": "456900f0b3089f58743e75dc22bd3303", "fusion_lat": 0.0, "rental_uris": {"ios": "https://dc.lft.to/lastmile_qr_scan", "android": "https://dc.lft.to/lastmile_qr_scan"}, "lon": -77.04015966666667, "type": "electric_scooter"}, {"bike_id": "78d35283fa4155f58a5df0d75779a399", "is_reserved": 0, "fusion_lon": 0.0, "lat": 38.933432, "is_disabled": 0, "name": "78d35283fa4155f58a5df0d75779a399", "fusion_lat": 0.0, "rental_uris": {"ios": "https://dc.lft.to/lastmile_qr_scan", "android": "https://dc.lft.to/lastmile_qr_scan"}, "lon": -77.05709633333333, "type": "electric_scooter"}, {"bike_id": "a7987bde017d1dba9146a66d1bd2eb80", "is_reserved": 0, "fusion_lon": 0.0, "lat": 38.916442833333335, "is_disabled": 0, "name": "a7987bde017d1dba9146a66d1bd2eb80", "fusion_lat": 0.0, "rental_uris": {"ios": "https://dc.lft.to/lastmile_qr_scan", "android": "https://dc.lft.to/lastmile_qr_scan"}, "lon": -77.04775816666667, "type": "electric_scooter"}, {"bike_id": "2357ac1d8168c4ad1f20aa30026ba2f5", "is_reserved": 0, "fusion_lon": 0.0, "lat": 38.908091666666664, "is_disabled": 0, "name": "2357ac1d8168c4ad1f20aa30026ba2f5", "fusion_lat": 0.0, "rental_uris": {"ios": "https://dc.lft.to/lastmile_qr_scan", "android": "https://dc.lft.to/lastmile_qr_scan"}, "lon": -76.99837433333333, "type": "electric_scooter"}, {"bike_id": "93f5eeeab766a172140a4fb60c46ffcb", "is_reserved": 0, "fusion_lon": 0.0, "lat": 38.89452983333334, "is_disabled": 0, "name": "93f5eeeab766a172140a4fb60c46ffcb", "fusion_lat": 0.0, "rental_uris": {"ios": "https://dc.lft.to/lastmile_qr_scan", "android": "https://dc.lft.to/lastmile_qr_scan"}, "lon": -76.97037166666667, "type": "electric_bike"}, {"bike_id": "61c2af28384773a37aa367793e69977e", "is_reserved": 0, "fusion_lon": 0.0, "lat": 38.89252666666667, "is_disabled": 0, "name": "61c2af28384773a37aa367793e69977e", "fusion_lat": 0.0, "rental_uris": {"ios": "https://dc.lft.to/lastmile_qr_scan", "android": "https://dc.lft.to/lastmile_qr_scan"}, "lon": -76.941561, "type": "electric_scooter"}, {"bike_id": "143aac3c80cf944b28dbcc21439b4f6a", "is_reserved": 0, "fusion_lon": 0.0, "lat": 38.90735566666667, "is_disabled": 0, "name": "143aac3c80cf944b28dbcc21439b4f6a", "fusion_lat": 0.0, "rental_uris": {"ios": "https://dc.lft.to/lastmile_qr_scan", "android": "https://dc.lft.to/lastmile_qr_scan"}, "lon": -76.98650183333334, "type": "electric_scooter"}, {"bike_id": "101524291c05beeadc03e666918a9f56", "is_reserved": 0, "fusion_lon": 0.0, "lat": 38.9014215, "is_disabled": 0, "name": "101524291c05beeadc03e666918a9f56", "fusion_lat": 0.0, "rental_uris": {"ios": "https://dc.lft.to/lastmile_qr_scan", "android": "https://dc.lft.to/lastmile_qr_scan"}, "lon": -77.0447085, "type": "electric_scooter"}, {"bike_id": "03a77b0278eaa917ce6b742bc6af6563", "is_reserved": 0, "fusion_lon": 0.0, "lat": 38.91264183333333, "is_disabled": 0, "name": "03a77b0278eaa917ce6b742bc6af6563", "fusion_lat": 0.0, "rental_uris": {"ios": "https://dc.lft.to/lastmile_qr_scan", "android": "https://dc.lft.to/lastmile_qr_scan"}, "lon": -77.02275216666666, "type": "electric_scooter"}, {"bike_id": "9d1a507b1ae4c21131e63264b712c85c", "is_reserved": 0, "fusion_lon": 0.0, "lat": 38.912540166666666, "is_disabled": 0, "name": "9d1a507b1ae4c21131e63264b712c85c", "fusion_lat": 0.0, "rental_uris": {"ios": "https://dc.lft.to/lastmile_qr_scan", "android": "https://dc.lft.to/lastmile_qr_scan"}, "lon": -77.04443016666667, "type": "electric_scooter"}, {"bike_id": "8d1e5036fbc91c47935abe0965cce851", "is_reserved": 0, "fusion_lon": 0.0, "lat": 38.923723833333334, "is_disabled": 0, "name": "8d1e5036fbc91c47935abe0965cce851", "fusion_lat": 0.0, "rental_uris": {"ios": "https://dc.lft.to/lastmile_qr_scan", "android": "https://dc.lft.to/lastmile_qr_scan"}, "lon": -77.03547783333333, "type": "electric_scooter"}, {"bike_id": "56bf43578dbfa6d9d9c884c38ce9f33f", "is_reserved": 0, "fusion_lon": 0.0, "lat": 38.928426333333334, "is_disabled": 0, "name": "56bf43578dbfa6d9d9c884c38ce9f33f", "fusion_lat": 0.0, "rental_uris": {"ios": "https://dc.lft.to/lastmile_qr_scan", "android": "https://dc.lft.to/lastmile_qr_scan"}, "lon": -77.054305, "type": "electric_scooter"}, {"bike_id": "764a8b34f688501a2ad10cc481a2aa05", "is_reserved": 0, "fusion_lon": 0.0, "lat": 38.884861, "is_disabled": 0, "name": "764a8b34f688501a2ad10cc481a2aa05", "fusion_lat": 0.0, "rental_uris": {"ios": "https://dc.lft.to/lastmile_qr_scan", "android": "https://dc.lft.to/lastmile_qr_scan"}, "lon": -77.00891233333333, "type": "electric_scooter"}, {"bike_id": "d197f17288dc829d8a183ca5bca271cf", "is_reserved": 0, "fusion_lon": 0.0, "lat": 38.892440666666666, "is_disabled": 0, "name": "d197f17288dc829d8a183ca5bca271cf", "fusion_lat": 0.0, "rental_uris": {"ios": "https://dc.lft.to/lastmile_qr_scan", "android": "https://dc.lft.to/lastmile_qr_scan"}, "lon": -77.039585, "type": "electric_scooter"}, {"bike_id": "ad66eb58a97b7baa24059174b96f64a5", "is_reserved": 0, "fusion_lon": 0.0, "lat": 38.92329733333333, "is_disabled": 0, "name": "ad66eb58a97b7baa24059174b96f64a5", "fusion_lat": 0.0, "rental_uris": {"ios": "https://dc.lft.to/lastmile_qr_scan", "android": "https://dc.lft.to/lastmile_qr_scan"}, "lon": -77.041412, "type": "electric_scooter"}, {"bike_id": "b6d0073910711cbcdac62fabdb616440", "is_reserved": 0, "fusion_lon": 0.0, "lat": 38.92314866666667, "is_disabled": 0, "name": "b6d0073910711cbcdac62fabdb616440", "fusion_lat": 0.0, "rental_uris": {"ios": "https://dc.lft.to/lastmile_qr_scan", "android": "https://dc.lft.to/lastmile_qr_scan"}, "lon": -77.04763066666666, "type": "electric_scooter"}, {"bike_id": "dbd535527954bba41b6ac9cbec54eb4c", "is_reserved": 0, "fusion_lon": 0.0, "lat": 38.8616235, "is_disabled": 0, "name": "dbd535527954bba41b6ac9cbec54eb4c", "fusion_lat": 0.0, "rental_uris": {"ios": "https://dc.lft.to/lastmile_qr_scan", "android": "https://dc.lft.to/lastmile_qr_scan"}, "lon": -76.95070633333333, "type": "electric_bike"}, {"bike_id": "e91dfb002f2b34a6075dd46b1ac39488", "is_reserved": 0, "fusion_lon": 0.0, "lat": 38.896089333333336, "is_disabled": 0, "name": "e91dfb002f2b34a6075dd46b1ac39488", "fusion_lat": 0.0, "rental_uris": {"ios": "https://dc.lft.to/lastmile_qr_scan", "android": "https://dc.lft.to/lastmile_qr_scan"}, "lon": -77.04790466666667, "type": "electric_scooter"}, {"bike_id": "cbf42215d41014ae958240a24d6fc9bc", "is_reserved": 0, "fusion_lon": 0.0, "lat": 38.92453166666667, "is_disabled": 0, "name": "cbf42215d41014ae958240a24d6fc9bc", "fusion_lat": 0.0, "rental_uris": {"ios": "https://dc.lft.to/lastmile_qr_scan", "android": "https://dc.lft.to/lastmile_qr_scan"}, "lon": -77.04101466666667, "type": "electric_scooter"}, {"bike_id": "41cccac2988cd7cace1343452b9d8da0", "is_reserved": 0, "fusion_lon": 0.0, "lat": 38.903127, "is_disabled": 0, "name": "41cccac2988cd7cace1343452b9d8da0", "fusion_lat": 0.0, "rental_uris": {"ios": "https://dc.lft.to/lastmile_qr_scan", "android": "https://dc.lft.to/lastmile_qr_scan"}, "lon": -77.06609183333333, "type": "electric_scooter"}, {"bike_id": "593ab06f1141b2da7c56f44b23874a02", "is_reserved": 0, "fusion_lon": 0.0, "lat": 38.95550466666667, "is_disabled": 0, "name": "593ab06f1141b2da7c56f44b23874a02", "fusion_lat": 0.0, "rental_uris": {"ios": "https://dc.lft.to/lastmile_qr_scan", "android": "https://dc.lft.to/lastmile_qr_scan"}, "lon": -76.93533733333334, "type": "electric_bike"}, {"bike_id": "a0d30bdf47c73cc11438d14c4f7fe7ed", "is_reserved": 0, "fusion_lon": 0.0, "lat": 38.904329, "is_disabled": 0, "name": "a0d30bdf47c73cc11438d14c4f7fe7ed", "fusion_lat": 0.0, "rental_uris": {"ios": "https://dc.lft.to/lastmile_qr_scan", "android": "https://dc.lft.to/lastmile_qr_scan"}, "lon": -77.0485205, "type": "electric_scooter"}, {"bike_id": "8477c6fac2b556fc1c430e657deacf96", "is_reserved": 0, "fusion_lon": 0.0, "lat": 38.898047, "is_disabled": 0, "name": "8477c6fac2b556fc1c430e657deacf96", "fusion_lat": 0.0, "rental_uris": {"ios": "https://dc.lft.to/lastmile_qr_scan", "android": "https://dc.lft.to/lastmile_qr_scan"}, "lon": -77.03295183333333, "type": "electric_scooter"}, {"bike_id": "b47be4faf6547dc691c959073dcfe029", "is_reserved": 0, "fusion_lon": 0.0, "lat": 38.9059825, "is_disabled": 0, "name": "b47be4faf6547dc691c959073dcfe029", "fusion_lat": 0.0, "rental_uris": {"ios": "https://dc.lft.to/lastmile_qr_scan", "android": "https://dc.lft.to/lastmile_qr_scan"}, "lon": -77.01329066666666, "type": "electric_scooter"}, {"bike_id": "35e8765cdae955514d6dfc5ecf2374d7", "is_reserved": 0, "fusion_lon": 0.0, "lat": 38.8428885, "is_disabled": 0, "name": "35e8765cdae955514d6dfc5ecf2374d7", "fusion_lat": 0.0, "rental_uris": {"ios": "https://dc.lft.to/lastmile_qr_scan", "android": "https://dc.lft.to/lastmile_qr_scan"}, "lon": -76.99952016666667, "type": "electric_scooter"}, {"bike_id": "5b1e061579572a98f0dc43a92913b00d", "is_reserved": 0, "fusion_lon": 0.0, "lat": 38.9201355, "is_disabled": 0, "name": "5b1e061579572a98f0dc43a92913b00d", "fusion_lat": 0.0, "rental_uris": {"ios": "https://dc.lft.to/lastmile_qr_scan", "android": "https://dc.lft.to/lastmile_qr_scan"}, "lon": -77.03983683333334, "type": "electric_scooter"}, {"bike_id": "4bc146e57e6aeba2946d15091d02c2b2", "is_reserved": 0, "fusion_lon": 0.0, "lat": 38.91920116666667, "is_disabled": 0, "name": "4bc146e57e6aeba2946d15091d02c2b2", "fusion_lat": 0.0, "rental_uris": {"ios": "https://dc.lft.to/lastmile_qr_scan", "android": "https://dc.lft.to/lastmile_qr_scan"}, "lon": -77.031998, "type": "electric_scooter"}, {"bike_id": "3029e26473e70e8fe4c7c4666b852be9", "is_reserved": 0, "fusion_lon": 0.0, "lat": 38.86342666666667, "is_disabled": 0, "name": "3029e26473e70e8fe4c7c4666b852be9", "fusion_lat": 0.0, "rental_uris": {"ios": "https://dc.lft.to/lastmile_qr_scan", "android": "https://dc.lft.to/lastmile_qr_scan"}, "lon": -76.9900265, "type": "electric_scooter"}, {"bike_id": "fa4ba9acbccbd4f30c382fd31007f248", "is_reserved": 0, "fusion_lon": 0.0, "lat": 38.93711483333333, "is_disabled": 0, "name": "fa4ba9acbccbd4f30c382fd31007f248", "fusion_lat": 0.0, "rental_uris": {"ios": "https://dc.lft.to/lastmile_qr_scan", "android": "https://dc.lft.to/lastmile_qr_scan"}, "lon": -77.03271616666666, "type": "electric_scooter"}, {"bike_id": "3e8eb5d8c63aacc0659df7440bc0777d", "is_reserved": 0, "fusion_lon": 0.0, "lat": 38.900867166666664, "is_disabled": 0, "name": "3e8eb5d8c63aacc0659df7440bc0777d", "fusion_lat": 0.0, "rental_uris": {"ios": "https://dc.lft.to/lastmile_qr_scan", "android": "https://dc.lft.to/lastmile_qr_scan"}, "lon": -77.05738466666666, "type": "electric_bike"}, {"bike_id": "7fd95f2637c96593e6e12d062965c2b0", "is_reserved": 0, "fusion_lon": 0.0, "lat": 38.933976666666666, "is_disabled": 0, "name": "7fd95f2637c96593e6e12d062965c2b0", "fusion_lat": 0.0, "rental_uris": {"ios": "https://dc.lft.to/lastmile_qr_scan", "android": "https://dc.lft.to/lastmile_qr_scan"}, "lon": -77.03884666666667, "type": "electric_scooter"}, {"bike_id": "ce76f9a35a03cde1280381f791dbe45d", "is_reserved": 0, "fusion_lon": 0.0, "lat": 38.91763483333333, "is_disabled": 0, "name": "ce76f9a35a03cde1280381f791dbe45d", "fusion_lat": 0.0, "rental_uris": {"ios": "https://dc.lft.to/lastmile_qr_scan", "android": "https://dc.lft.to/lastmile_qr_scan"}, "lon": -77.02286483333333, "type": "electric_scooter"}, {"bike_id": "1f20f350f7358c69f0259891c86aff3c", "is_reserved": 0, "fusion_lon": 0.0, "lat": 38.878147166666665, "is_disabled": 0, "name": "1f20f350f7358c69f0259891c86aff3c", "fusion_lat": 0.0, "rental_uris": {"ios": "https://dc.lft.to/lastmile_qr_scan", "android": "https://dc.lft.to/lastmile_qr_scan"}, "lon": -77.0063025, "type": "electric_scooter"}, {"bike_id": "29f7b7fbfd8adb260d1db6ef998f6ca5", "is_reserved": 0, "fusion_lon": 0.0, "lat": 38.92901083333334, "is_disabled": 0, "name": "29f7b7fbfd8adb260d1db6ef998f6ca5", "fusion_lat": 0.0, "rental_uris": {"ios": "https://dc.lft.to/lastmile_qr_scan", "android": "https://dc.lft.to/lastmile_qr_scan"}, "lon": -77.03216466666667, "type": "electric_scooter"}, {"bike_id": "69fe58884a49dac90970a9c971de4611", "is_reserved": 0, "fusion_lon": 0.0, "lat": 38.9095775, "is_disabled": 0, "name": "69fe58884a49dac90970a9c971de4611", "fusion_lat": 0.0, "rental_uris": {"ios": "https://dc.lft.to/lastmile_qr_scan", "android": "https://dc.lft.to/lastmile_qr_scan"}, "lon": -77.04813966666667, "type": "electric_scooter"}, {"bike_id": "c226841e07c1bbf880f1a497bda89413", "is_reserved": 0, "fusion_lon": 0.0, "lat": 38.86183483333333, "is_disabled": 0, "name": "c226841e07c1bbf880f1a497bda89413", "fusion_lat": 0.0, "rental_uris": {"ios": "https://dc.lft.to/lastmile_qr_scan", "android": "https://dc.lft.to/lastmile_qr_scan"}, "lon": -76.99449983333334, "type": "electric_scooter"}, {"bike_id": "58ddd2cf58431b816ec71ee5b641bc3d", "is_reserved": 0, "fusion_lon": 0.0, "lat": 38.898173666666665, "is_disabled": 0, "name": "58ddd2cf58431b816ec71ee5b641bc3d", "fusion_lat": 0.0, "rental_uris": {"ios": "https://dc.lft.to/lastmile_qr_scan", "android": "https://dc.lft.to/lastmile_qr_scan"}, "lon": -77.00907116666667, "type": "electric_scooter"}, {"bike_id": "c6ca508e109ecd62425f2eca66572a90", "is_reserved": 0, "fusion_lon": 0.0, "lat": 38.917970333333336, "is_disabled": 0, "name": "c6ca508e109ecd62425f2eca66572a90", "fusion_lat": 0.0, "rental_uris": {"ios": "https://dc.lft.to/lastmile_qr_scan", "android": "https://dc.lft.to/lastmile_qr_scan"}, "lon": -77.03435433333334, "type": "electric_scooter"}, {"bike_id": "1b9af49d1d38f6392ae80fc556e979a7", "is_reserved": 0, "fusion_lon": 0.0, "lat": 38.911462666666665, "is_disabled": 0, "name": "1b9af49d1d38f6392ae80fc556e979a7", "fusion_lat": 0.0, "rental_uris": {"ios": "https://dc.lft.to/lastmile_qr_scan", "android": "https://dc.lft.to/lastmile_qr_scan"}, "lon": -77.02694133333334, "type": "electric_scooter"}, {"bike_id": "8e63c12e958e2e343562c529fa253579", "is_reserved": 0, "fusion_lon": 0.0, "lat": 38.918124, "is_disabled": 0, "name": "8e63c12e958e2e343562c529fa253579", "fusion_lat": 0.0, "rental_uris": {"ios": "https://dc.lft.to/lastmile_qr_scan", "android": "https://dc.lft.to/lastmile_qr_scan"}, "lon": -77.02477766666667, "type": "electric_scooter"}, {"bike_id": "526ec13dbacc9db0c87fe7199d3d27d4", "is_reserved": 0, "fusion_lon": 0.0, "lat": 38.9224745, "is_disabled": 0, "name": "526ec13dbacc9db0c87fe7199d3d27d4", "fusion_lat": 0.0, "rental_uris": {"ios": "https://dc.lft.to/lastmile_qr_scan", "android": "https://dc.lft.to/lastmile_qr_scan"}, "lon": -77.04137966666667, "type": "electric_scooter"}, {"bike_id": "678df2dd5cc22d6d7a09fa4f0a8ebfae", "is_reserved": 0, "fusion_lon": 0.0, "lat": 38.8708005, "is_disabled": 0, "name": "678df2dd5cc22d6d7a09fa4f0a8ebfae", "fusion_lat": 0.0, "rental_uris": {"ios": "https://dc.lft.to/lastmile_qr_scan", "android": "https://dc.lft.to/lastmile_qr_scan"}, "lon": -77.012142, "type": "electric_scooter"}, {"bike_id": "b182dd626874aaf01d7bba76da37bed8", "is_reserved": 0, "fusion_lon": 0.0, "lat": 38.896033333333335, "is_disabled": 0, "name": "b182dd626874aaf01d7bba76da37bed8", "fusion_lat": 0.0, "rental_uris": {"ios": "https://dc.lft.to/lastmile_qr_scan", "android": "https://dc.lft.to/lastmile_qr_scan"}, "lon": -77.04241083333334, "type": "electric_scooter"}, {"bike_id": "5702246d9f29d06cd688d715c47095b5", "is_reserved": 0, "fusion_lon": 0.0, "lat": 38.937164, "is_disabled": 0, "name": "5702246d9f29d06cd688d715c47095b5", "fusion_lat": 0.0, "rental_uris": {"ios": "https://dc.lft.to/lastmile_qr_scan", "android": "https://dc.lft.to/lastmile_qr_scan"}, "lon": -77.02445833333333, "type": "electric_scooter"}, {"bike_id": "a9b90cae9eca8c842a6ecd92560967d9", "is_reserved": 0, "fusion_lon": 0.0, "lat": 38.905535666666665, "is_disabled": 0, "name": "a9b90cae9eca8c842a6ecd92560967d9", "fusion_lat": 0.0, "rental_uris": {"ios": "https://dc.lft.to/lastmile_qr_scan", "android": "https://dc.lft.to/lastmile_qr_scan"}, "lon": -77.0221425, "type": "electric_scooter"}, {"bike_id": "1ada691d2d2d93610b6012fcd1baba82", "is_reserved": 0, "fusion_lon": 0.0, "lat": 38.923023666666666, "is_disabled": 0, "name": "1ada691d2d2d93610b6012fcd1baba82", "fusion_lat": 0.0, "rental_uris": {"ios": "https://dc.lft.to/lastmile_qr_scan", "android": "https://dc.lft.to/lastmile_qr_scan"}, "lon": -77.0423355, "type": "electric_scooter"}, {"bike_id": "283f6ce69ba6a73212c0fb4d2b12aab6", "is_reserved": 0, "fusion_lon": 0.0, "lat": 38.898948, "is_disabled": 0, "name": "283f6ce69ba6a73212c0fb4d2b12aab6", "fusion_lat": 0.0, "rental_uris": {"ios": "https://dc.lft.to/lastmile_qr_scan", "android": "https://dc.lft.to/lastmile_qr_scan"}, "lon": -77.00358833333334, "type": "electric_scooter"}, {"bike_id": "454f43448422c2963c2ce0c12eaab95e", "is_reserved": 0, "fusion_lon": 0.0, "lat": 38.933900333333334, "is_disabled": 0, "name": "454f43448422c2963c2ce0c12eaab95e", "fusion_lat": 0.0, "rental_uris": {"ios": "https://dc.lft.to/lastmile_qr_scan", "android": "https://dc.lft.to/lastmile_qr_scan"}, "lon": -77.02061666666667, "type": "electric_scooter"}, {"bike_id": "6ab19945e51a9ebe3742b3393a9fb0de", "is_reserved": 0, "fusion_lon": 0.0, "lat": 38.96148616666667, "is_disabled": 0, "name": "6ab19945e51a9ebe3742b3393a9fb0de", "fusion_lat": 0.0, "rental_uris": {"ios": "https://dc.lft.to/lastmile_qr_scan", "android": "https://dc.lft.to/lastmile_qr_scan"}, "lon": -76.997732, "type": "electric_scooter"}, {"bike_id": "32e985f376c31555687b782c68323269", "is_reserved": 0, "fusion_lon": 0.0, "lat": 38.924699333333336, "is_disabled": 0, "name": "32e985f376c31555687b782c68323269", "fusion_lat": 0.0, "rental_uris": {"ios": "https://dc.lft.to/lastmile_qr_scan", "android": "https://dc.lft.to/lastmile_qr_scan"}, "lon": -77.03201533333333, "type": "electric_scooter"}, {"bike_id": "8a0af03cc2686884ed104cc58098fb08", "is_reserved": 0, "fusion_lon": 0.0, "lat": 38.94043216666667, "is_disabled": 0, "name": "8a0af03cc2686884ed104cc58098fb08", "fusion_lat": 0.0, "rental_uris": {"ios": "https://dc.lft.to/lastmile_qr_scan", "android": "https://dc.lft.to/lastmile_qr_scan"}, "lon": -77.029773, "type": "electric_scooter"}, {"bike_id": "820f788ba1670c3dd7cf2e531f2e5886", "is_reserved": 0, "fusion_lon": 0.0, "lat": 38.853198666666664, "is_disabled": 0, "name": "820f788ba1670c3dd7cf2e531f2e5886", "fusion_lat": 0.0, "rental_uris": {"ios": "https://dc.lft.to/lastmile_qr_scan", "android": "https://dc.lft.to/lastmile_qr_scan"}, "lon": -76.98003316666667, "type": "electric_scooter"}, {"bike_id": "f63143445761aeb0409d0722cd1f8da4", "is_reserved": 0, "fusion_lon": 0.0, "lat": 38.92220283333333, "is_disabled": 0, "name": "f63143445761aeb0409d0722cd1f8da4", "fusion_lat": 0.0, "rental_uris": {"ios": "https://dc.lft.to/lastmile_qr_scan", "android": "https://dc.lft.to/lastmile_qr_scan"}, "lon": -77.04311566666667, "type": "electric_scooter"}, {"bike_id": "a5257f5aa822778b8cb0e202e382343d", "is_reserved": 0, "fusion_lon": 0.0, "lat": 38.97081716666667, "is_disabled": 0, "name": "a5257f5aa822778b8cb0e202e382343d", "fusion_lat": 0.0, "rental_uris": {"ios": "https://dc.lft.to/lastmile_qr_scan", "android": "https://dc.lft.to/lastmile_qr_scan"}, "lon": -77.06969083333334, "type": "electric_bike"}, {"bike_id": "67b6f0b6f1f49fd5baf6e43ea6a8a842", "is_reserved": 0, "fusion_lon": 0.0, "lat": 38.925868333333334, "is_disabled": 0, "name": "67b6f0b6f1f49fd5baf6e43ea6a8a842", "fusion_lat": 0.0, "rental_uris": {"ios": "https://dc.lft.to/lastmile_qr_scan", "android": "https://dc.lft.to/lastmile_qr_scan"}, "lon": -77.0048275, "type": "electric_scooter"}, {"bike_id": "a01eac8cb0ea50976ba275eafdf6a877", "is_reserved": 0, "fusion_lon": 0.0, "lat": 38.9250235, "is_disabled": 0, "name": "a01eac8cb0ea50976ba275eafdf6a877", "fusion_lat": 0.0, "rental_uris": {"ios": "https://dc.lft.to/lastmile_qr_scan", "android": "https://dc.lft.to/lastmile_qr_scan"}, "lon": -77.03892566666667, "type": "electric_scooter"}, {"bike_id": "50d6f020ef1ac9be541624be7afa6064", "is_reserved": 0, "fusion_lon": 0.0, "lat": 38.90019566666667, "is_disabled": 0, "name": "50d6f020ef1ac9be541624be7afa6064", "fusion_lat": 0.0, "rental_uris": {"ios": "https://dc.lft.to/lastmile_qr_scan", "android": "https://dc.lft.to/lastmile_qr_scan"}, "lon": -77.00203316666666, "type": "electric_scooter"}, {"bike_id": "7db9d7c0dacfe99ceb26e69f41b0adc6", "is_reserved": 0, "fusion_lon": 0.0, "lat": 38.87959583333333, "is_disabled": 0, "name": "7db9d7c0dacfe99ceb26e69f41b0adc6", "fusion_lat": 0.0, "rental_uris": {"ios": "https://dc.lft.to/lastmile_qr_scan", "android": "https://dc.lft.to/lastmile_qr_scan"}, "lon": -77.010126, "type": "electric_bike"}, {"bike_id": "23efb83bceaf38a1dc41e6f68680ca7f", "is_reserved": 0, "fusion_lon": 0.0, "lat": 38.8958785, "is_disabled": 0, "name": "23efb83bceaf38a1dc41e6f68680ca7f", "fusion_lat": 0.0, "rental_uris": {"ios": "https://dc.lft.to/lastmile_qr_scan", "android": "https://dc.lft.to/lastmile_qr_scan"}, "lon": -77.02576883333333, "type": "electric_scooter"}, {"bike_id": "6c7eb6bcdc4b8614354d6f588e0c7052", "is_reserved": 0, "fusion_lon": 0.0, "lat": 38.89874566666667, "is_disabled": 0, "name": "6c7eb6bcdc4b8614354d6f588e0c7052", "fusion_lat": 0.0, "rental_uris": {"ios": "https://dc.lft.to/lastmile_qr_scan", "android": "https://dc.lft.to/lastmile_qr_scan"}, "lon": -76.93185716666666, "type": "electric_scooter"}, {"bike_id": "b012b163420d41e731adaff9bec56f52", "is_reserved": 0, "fusion_lon": 0.0, "lat": 38.856973333333336, "is_disabled": 0, "name": "b012b163420d41e731adaff9bec56f52", "fusion_lat": 0.0, "rental_uris": {"ios": "https://dc.lft.to/lastmile_qr_scan", "android": "https://dc.lft.to/lastmile_qr_scan"}, "lon": -76.9895625, "type": "electric_scooter"}, {"bike_id": "086583811f6ce634803f9e0d891c8bd4", "is_reserved": 0, "fusion_lon": 0.0, "lat": 38.9030135, "is_disabled": 0, "name": "086583811f6ce634803f9e0d891c8bd4", "fusion_lat": 0.0, "rental_uris": {"ios": "https://dc.lft.to/lastmile_qr_scan", "android": "https://dc.lft.to/lastmile_qr_scan"}, "lon": -76.97811316666667, "type": "electric_scooter"}, {"bike_id": "5da0ffa503d0e9b9ffa288f487e8dae4", "is_reserved": 0, "fusion_lon": 0.0, "lat": 38.88493783333333, "is_disabled": 0, "name": "5da0ffa503d0e9b9ffa288f487e8dae4", "fusion_lat": 0.0, "rental_uris": {"ios": "https://dc.lft.to/lastmile_qr_scan", "android": "https://dc.lft.to/lastmile_qr_scan"}, "lon": -77.01554116666667, "type": "electric_scooter"}, {"bike_id": "b51059471c015c3cc1da76678d8ce39c", "is_reserved": 0, "fusion_lon": 0.0, "lat": 38.893405, "is_disabled": 0, "name": "b51059471c015c3cc1da76678d8ce39c", "fusion_lat": 0.0, "rental_uris": {"ios": "https://dc.lft.to/lastmile_qr_scan", "android": "https://dc.lft.to/lastmile_qr_scan"}, "lon": -76.984536, "type": "electric_scooter"}, {"bike_id": "55757b8a4e31b03106e0bd463665f640", "is_reserved": 0, "fusion_lon": 0.0, "lat": 38.91329983333333, "is_disabled": 0, "name": "55757b8a4e31b03106e0bd463665f640", "fusion_lat": 0.0, "rental_uris": {"ios": "https://dc.lft.to/lastmile_qr_scan", "android": "https://dc.lft.to/lastmile_qr_scan"}, "lon": -77.04873483333333, "type": "electric_scooter"}, {"bike_id": "05c08eef2754803dfaf6670009a6e2eb", "is_reserved": 0, "fusion_lon": 0.0, "lat": 38.90241016666667, "is_disabled": 0, "name": "05c08eef2754803dfaf6670009a6e2eb", "fusion_lat": 0.0, "rental_uris": {"ios": "https://dc.lft.to/lastmile_qr_scan", "android": "https://dc.lft.to/lastmile_qr_scan"}, "lon": -77.039634, "type": "electric_scooter"}, {"bike_id": "df30efaec1bbf7c85d1cb9831fbefbb3", "is_reserved": 0, "fusion_lon": 0.0, "lat": 38.9248245, "is_disabled": 0, "name": "df30efaec1bbf7c85d1cb9831fbefbb3", "fusion_lat": 0.0, "rental_uris": {"ios": "https://dc.lft.to/lastmile_qr_scan", "android": "https://dc.lft.to/lastmile_qr_scan"}, "lon": -77.02142183333333, "type": "electric_scooter"}, {"bike_id": "fce00f0c829015de4be9bf2fb79122b1", "is_reserved": 0, "fusion_lon": 0.0, "lat": 38.9182655, "is_disabled": 0, "name": "fce00f0c829015de4be9bf2fb79122b1", "fusion_lat": 0.0, "rental_uris": {"ios": "https://dc.lft.to/lastmile_qr_scan", "android": "https://dc.lft.to/lastmile_qr_scan"}, "lon": -77.04156616666667, "type": "electric_scooter"}, {"bike_id": "16bc0ea08ccd6640e66219a80b7a9b30", "is_reserved": 0, "fusion_lon": 0.0, "lat": 38.899915, "is_disabled": 0, "name": "16bc0ea08ccd6640e66219a80b7a9b30", "fusion_lat": 0.0, "rental_uris": {"ios": "https://dc.lft.to/lastmile_qr_scan", "android": "https://dc.lft.to/lastmile_qr_scan"}, "lon": -77.0404455, "type": "electric_scooter"}, {"bike_id": "f503322c8c492355e64978b591a0fd3d", "is_reserved": 0, "fusion_lon": 0.0, "lat": 38.84420933333333, "is_disabled": 0, "name": "f503322c8c492355e64978b591a0fd3d", "fusion_lat": 0.0, "rental_uris": {"ios": "https://dc.lft.to/lastmile_qr_scan", "android": "https://dc.lft.to/lastmile_qr_scan"}, "lon": -76.99780433333333, "type": "electric_scooter"}, {"bike_id": "b576e8bb53d96002e69dd3215d8ef5c1", "is_reserved": 0, "fusion_lon": 0.0, "lat": 38.915432, "is_disabled": 0, "name": "b576e8bb53d96002e69dd3215d8ef5c1", "fusion_lat": 0.0, "rental_uris": {"ios": "https://dc.lft.to/lastmile_qr_scan", "android": "https://dc.lft.to/lastmile_qr_scan"}, "lon": -77.02155666666667, "type": "electric_scooter"}, {"bike_id": "9ab031728cb7ff6b12fc3c301c33976a", "is_reserved": 0, "fusion_lon": 0.0, "lat": 38.902628166666666, "is_disabled": 0, "name": "9ab031728cb7ff6b12fc3c301c33976a", "fusion_lat": 0.0, "rental_uris": {"ios": "https://dc.lft.to/lastmile_qr_scan", "android": "https://dc.lft.to/lastmile_qr_scan"}, "lon": -77.04022966666666, "type": "electric_scooter"}, {"bike_id": "ef72d22322fb6d7ecbd846f43e9dd7b1", "is_reserved": 0, "fusion_lon": 0.0, "lat": 38.91928516666667, "is_disabled": 0, "name": "ef72d22322fb6d7ecbd846f43e9dd7b1", "fusion_lat": 0.0, "rental_uris": {"ios": "https://dc.lft.to/lastmile_qr_scan", "android": "https://dc.lft.to/lastmile_qr_scan"}, "lon": -77.04499466666667, "type": "electric_scooter"}, {"bike_id": "ec2fcecded8f78e9d083825104bc4125", "is_reserved": 0, "fusion_lon": 0.0, "lat": 38.90247316666667, "is_disabled": 0, "name": "ec2fcecded8f78e9d083825104bc4125", "fusion_lat": 0.0, "rental_uris": {"ios": "https://dc.lft.to/lastmile_qr_scan", "android": "https://dc.lft.to/lastmile_qr_scan"}, "lon": -77.02694183333334, "type": "electric_scooter"}, {"bike_id": "3e1b83b4fd926796debc41f33a509f96", "is_reserved": 0, "fusion_lon": 0.0, "lat": 38.891822833333336, "is_disabled": 0, "name": "3e1b83b4fd926796debc41f33a509f96", "fusion_lat": 0.0, "rental_uris": {"ios": "https://dc.lft.to/lastmile_qr_scan", "android": "https://dc.lft.to/lastmile_qr_scan"}, "lon": -77.12264333333333, "type": "electric_bike"}, {"bike_id": "329dfa0c80810363d1cadb473fc84782", "is_reserved": 0, "fusion_lon": 0.0, "lat": 38.935123833333336, "is_disabled": 0, "name": "329dfa0c80810363d1cadb473fc84782", "fusion_lat": 0.0, "rental_uris": {"ios": "https://dc.lft.to/lastmile_qr_scan", "android": "https://dc.lft.to/lastmile_qr_scan"}, "lon": -77.05816816666666, "type": "electric_scooter"}, {"bike_id": "0fc2cffde0468c925320c6ec17c3b54b", "is_reserved": 0, "fusion_lon": 0.0, "lat": 38.89016433333333, "is_disabled": 0, "name": "0fc2cffde0468c925320c6ec17c3b54b", "fusion_lat": 0.0, "rental_uris": {"ios": "https://dc.lft.to/lastmile_qr_scan", "android": "https://dc.lft.to/lastmile_qr_scan"}, "lon": -76.94115016666666, "type": "electric_scooter"}, {"bike_id": "2d8ed2f6a74f79a3e3b6404166238db8", "is_reserved": 0, "fusion_lon": 0.0, "lat": 38.924770333333335, "is_disabled": 0, "name": "2d8ed2f6a74f79a3e3b6404166238db8", "fusion_lat": 0.0, "rental_uris": {"ios": "https://dc.lft.to/lastmile_qr_scan", "android": "https://dc.lft.to/lastmile_qr_scan"}, "lon": -77.05209316666667, "type": "electric_scooter"}, {"bike_id": "8ffa5fdc05b9676ca00a161befb4a44d", "is_reserved": 0, "fusion_lon": 0.0, "lat": 38.940893333333335, "is_disabled": 0, "name": "8ffa5fdc05b9676ca00a161befb4a44d", "fusion_lat": 0.0, "rental_uris": {"ios": "https://dc.lft.to/lastmile_qr_scan", "android": "https://dc.lft.to/lastmile_qr_scan"}, "lon": -77.02545816666667, "type": "electric_scooter"}, {"bike_id": "b68ba5b6e1d43705aabef1bd09e4fe74", "is_reserved": 0, "fusion_lon": 0.0, "lat": 38.9286995, "is_disabled": 0, "name": "b68ba5b6e1d43705aabef1bd09e4fe74", "fusion_lat": 0.0, "rental_uris": {"ios": "https://dc.lft.to/lastmile_qr_scan", "android": "https://dc.lft.to/lastmile_qr_scan"}, "lon": -77.033182, "type": "electric_scooter"}, {"bike_id": "6868a5edc9295e4b08558bc2d20204d9", "is_reserved": 0, "fusion_lon": 0.0, "lat": 38.909496833333336, "is_disabled": 0, "name": "6868a5edc9295e4b08558bc2d20204d9", "fusion_lat": 0.0, "rental_uris": {"ios": "https://dc.lft.to/lastmile_qr_scan", "android": "https://dc.lft.to/lastmile_qr_scan"}, "lon": -77.0483025, "type": "electric_scooter"}, {"bike_id": "0b7296e7da1f7a26e58f5a621c543e96", "is_reserved": 0, "fusion_lon": 0.0, "lat": 38.907183, "is_disabled": 0, "name": "0b7296e7da1f7a26e58f5a621c543e96", "fusion_lat": 0.0, "rental_uris": {"ios": "https://dc.lft.to/lastmile_qr_scan", "android": "https://dc.lft.to/lastmile_qr_scan"}, "lon": -76.9979935, "type": "electric_scooter"}, {"bike_id": "6dc98bc046f7b34668f8cce985dee49d", "is_reserved": 0, "fusion_lon": 0.0, "lat": 38.92899966666667, "is_disabled": 0, "name": "6dc98bc046f7b34668f8cce985dee49d", "fusion_lat": 0.0, "rental_uris": {"ios": "https://dc.lft.to/lastmile_qr_scan", "android": "https://dc.lft.to/lastmile_qr_scan"}, "lon": -77.03220733333333, "type": "electric_scooter"}, {"bike_id": "05ea4252e8247bb9e88ad8c72ffae67f", "is_reserved": 0, "fusion_lon": 0.0, "lat": 38.9359525, "is_disabled": 0, "name": "05ea4252e8247bb9e88ad8c72ffae67f", "fusion_lat": 0.0, "rental_uris": {"ios": "https://dc.lft.to/lastmile_qr_scan", "android": "https://dc.lft.to/lastmile_qr_scan"}, "lon": -77.023321, "type": "electric_scooter"}, {"bike_id": "ae4f3e862d2a3bb309d49b589a0d35b3", "is_reserved": 0, "fusion_lon": 0.0, "lat": 38.88290466666667, "is_disabled": 0, "name": "ae4f3e862d2a3bb309d49b589a0d35b3", "fusion_lat": 0.0, "rental_uris": {"ios": "https://dc.lft.to/lastmile_qr_scan", "android": "https://dc.lft.to/lastmile_qr_scan"}, "lon": -76.99146583333334, "type": "electric_scooter"}, {"bike_id": "735665cbc654b90b2d35f5c22ddf044a", "is_reserved": 0, "fusion_lon": 0.0, "lat": 38.85806983333333, "is_disabled": 0, "name": "735665cbc654b90b2d35f5c22ddf044a", "fusion_lat": 0.0, "rental_uris": {"ios": "https://dc.lft.to/lastmile_qr_scan", "android": "https://dc.lft.to/lastmile_qr_scan"}, "lon": -76.98655, "type": "electric_scooter"}, {"bike_id": "f7089b5d57088e692c2ddc6513980210", "is_reserved": 0, "fusion_lon": 0.0, "lat": 38.934095, "is_disabled": 0, "name": "f7089b5d57088e692c2ddc6513980210", "fusion_lat": 0.0, "rental_uris": {"ios": "https://dc.lft.to/lastmile_qr_scan", "android": "https://dc.lft.to/lastmile_qr_scan"}, "lon": -77.03405833333333, "type": "electric_scooter"}, {"bike_id": "a1b34ce14d3823c20df41f3467e94fd7", "is_reserved": 0, "fusion_lon": 0.0, "lat": 38.90275333333334, "is_disabled": 0, "name": "a1b34ce14d3823c20df41f3467e94fd7", "fusion_lat": 0.0, "rental_uris": {"ios": "https://dc.lft.to/lastmile_qr_scan", "android": "https://dc.lft.to/lastmile_qr_scan"}, "lon": -77.04125966666666, "type": "electric_scooter"}, {"bike_id": "b279b61dc2de3cb1ddb8421ad8e30c1d", "is_reserved": 0, "fusion_lon": 0.0, "lat": 38.90369116666667, "is_disabled": 0, "name": "b279b61dc2de3cb1ddb8421ad8e30c1d", "fusion_lat": 0.0, "rental_uris": {"ios": "https://dc.lft.to/lastmile_qr_scan", "android": "https://dc.lft.to/lastmile_qr_scan"}, "lon": -77.03988966666667, "type": "electric_scooter"}, {"bike_id": "bad9059bc71453448bc116ab45aef43b", "is_reserved": 0, "fusion_lon": 0.0, "lat": 38.8953195, "is_disabled": 0, "name": "bad9059bc71453448bc116ab45aef43b", "fusion_lat": 0.0, "rental_uris": {"ios": "https://dc.lft.to/lastmile_qr_scan", "android": "https://dc.lft.to/lastmile_qr_scan"}, "lon": -76.98067883333333, "type": "electric_scooter"}, {"bike_id": "7f4a811d5706e63ca6c62e3c0d4d3ecd", "is_reserved": 0, "fusion_lon": 0.0, "lat": 38.96697, "is_disabled": 0, "name": "7f4a811d5706e63ca6c62e3c0d4d3ecd", "fusion_lat": 0.0, "rental_uris": {"ios": "https://dc.lft.to/lastmile_qr_scan", "android": "https://dc.lft.to/lastmile_qr_scan"}, "lon": -77.102252, "type": "electric_bike"}, {"bike_id": "36484b1fa13a887de2d1fbdee57e333f", "is_reserved": 0, "fusion_lon": 0.0, "lat": 38.8961735, "is_disabled": 0, "name": "36484b1fa13a887de2d1fbdee57e333f", "fusion_lat": 0.0, "rental_uris": {"ios": "https://dc.lft.to/lastmile_qr_scan", "android": "https://dc.lft.to/lastmile_qr_scan"}, "lon": -76.9957215, "type": "electric_scooter"}, {"bike_id": "5f96232c133b9f83eec63928e5a68274", "is_reserved": 0, "fusion_lon": 0.0, "lat": 38.90956033333333, "is_disabled": 0, "name": "5f96232c133b9f83eec63928e5a68274", "fusion_lat": 0.0, "rental_uris": {"ios": "https://dc.lft.to/lastmile_qr_scan", "android": "https://dc.lft.to/lastmile_qr_scan"}, "lon": -77.0332865, "type": "electric_scooter"}, {"bike_id": "910e07de7d86989db61deca4b62d5506", "is_reserved": 0, "fusion_lon": 0.0, "lat": 38.898039833333335, "is_disabled": 0, "name": "910e07de7d86989db61deca4b62d5506", "fusion_lat": 0.0, "rental_uris": {"ios": "https://dc.lft.to/lastmile_qr_scan", "android": "https://dc.lft.to/lastmile_qr_scan"}, "lon": -77.02682633333333, "type": "electric_scooter"}, {"bike_id": "cf9f595279543212c6f34c539cc331b6", "is_reserved": 0, "fusion_lon": 0.0, "lat": 38.90091666666667, "is_disabled": 0, "name": "cf9f595279543212c6f34c539cc331b6", "fusion_lat": 0.0, "rental_uris": {"ios": "https://dc.lft.to/lastmile_qr_scan", "android": "https://dc.lft.to/lastmile_qr_scan"}, "lon": -77.04372383333333, "type": "electric_scooter"}, {"bike_id": "75d6d457971d35f26a18d28e0e92b551", "is_reserved": 0, "fusion_lon": 0.0, "lat": 38.9035775, "is_disabled": 0, "name": "75d6d457971d35f26a18d28e0e92b551", "fusion_lat": 0.0, "rental_uris": {"ios": "https://dc.lft.to/lastmile_qr_scan", "android": "https://dc.lft.to/lastmile_qr_scan"}, "lon": -77.04185733333334, "type": "electric_scooter"}, {"bike_id": "73bdce85c607ac3f96cdf396c04db0cc", "is_reserved": 0, "fusion_lon": 0.0, "lat": 38.861576666666664, "is_disabled": 0, "name": "73bdce85c607ac3f96cdf396c04db0cc", "fusion_lat": 0.0, "rental_uris": {"ios": "https://dc.lft.to/lastmile_qr_scan", "android": "https://dc.lft.to/lastmile_qr_scan"}, "lon": -77.13096683333333, "type": "electric_bike"}, {"bike_id": "0a23e6d7eed956573ae0c18dd0bc9e6f", "is_reserved": 0, "fusion_lon": 0.0, "lat": 38.903650999999996, "is_disabled": 0, "name": "0a23e6d7eed956573ae0c18dd0bc9e6f", "fusion_lat": 0.0, "rental_uris": {"ios": "https://dc.lft.to/lastmile_qr_scan", "android": "https://dc.lft.to/lastmile_qr_scan"}, "lon": -77.03427983333333, "type": "electric_scooter"}, {"bike_id": "070b0d1013fe3941580f727019824d9c", "is_reserved": 0, "fusion_lon": 0.0, "lat": 38.94514066666667, "is_disabled": 0, "name": "070b0d1013fe3941580f727019824d9c", "fusion_lat": 0.0, "rental_uris": {"ios": "https://dc.lft.to/lastmile_qr_scan", "android": "https://dc.lft.to/lastmile_qr_scan"}, "lon": -77.02982966666667, "type": "electric_scooter"}, {"bike_id": "5ab5c0cff1117aaa25807d2554945bd6", "is_reserved": 0, "fusion_lon": 0.0, "lat": 38.8800635, "is_disabled": 0, "name": "5ab5c0cff1117aaa25807d2554945bd6", "fusion_lat": 0.0, "rental_uris": {"ios": "https://dc.lft.to/lastmile_qr_scan", "android": "https://dc.lft.to/lastmile_qr_scan"}, "lon": -76.93127633333333, "type": "electric_scooter"}, {"bike_id": "da3e9871ad29be0aec54d317495cb791", "is_reserved": 0, "fusion_lon": 0.0, "lat": 38.92083066666667, "is_disabled": 0, "name": "da3e9871ad29be0aec54d317495cb791", "fusion_lat": 0.0, "rental_uris": {"ios": "https://dc.lft.to/lastmile_qr_scan", "android": "https://dc.lft.to/lastmile_qr_scan"}, "lon": -77.042045, "type": "electric_scooter"}, {"bike_id": "320ed1c1fcf8e0abfab48af3b00e90ae", "is_reserved": 0, "fusion_lon": 0.0, "lat": 38.9010275, "is_disabled": 0, "name": "320ed1c1fcf8e0abfab48af3b00e90ae", "fusion_lat": 0.0, "rental_uris": {"ios": "https://dc.lft.to/lastmile_qr_scan", "android": "https://dc.lft.to/lastmile_qr_scan"}, "lon": -77.04363466666666, "type": "electric_scooter"}, {"bike_id": "f2f5b8e6c41db56cad59849bfd238547", "is_reserved": 0, "fusion_lon": 0.0, "lat": 38.90835766666667, "is_disabled": 0, "name": "f2f5b8e6c41db56cad59849bfd238547", "fusion_lat": 0.0, "rental_uris": {"ios": "https://dc.lft.to/lastmile_qr_scan", "android": "https://dc.lft.to/lastmile_qr_scan"}, "lon": -77.03345666666667, "type": "electric_scooter"}, {"bike_id": "c89a770e6f4ed400f4bcd7e8b8e03d83", "is_reserved": 0, "fusion_lon": 0.0, "lat": 38.896998833333335, "is_disabled": 0, "name": "c89a770e6f4ed400f4bcd7e8b8e03d83", "fusion_lat": 0.0, "rental_uris": {"ios": "https://dc.lft.to/lastmile_qr_scan", "android": "https://dc.lft.to/lastmile_qr_scan"}, "lon": -76.91771283333334, "type": "electric_scooter"}, {"bike_id": "5a07b78548ae3c29864588c5174395f4", "is_reserved": 0, "fusion_lon": 0.0, "lat": 38.90437716666667, "is_disabled": 0, "name": "5a07b78548ae3c29864588c5174395f4", "fusion_lat": 0.0, "rental_uris": {"ios": "https://dc.lft.to/lastmile_qr_scan", "android": "https://dc.lft.to/lastmile_qr_scan"}, "lon": -77.0436245, "type": "electric_scooter"}, {"bike_id": "d64e8090c4e51f55d6f5231fa1b98096", "is_reserved": 0, "fusion_lon": 0.0, "lat": 38.93010783333333, "is_disabled": 0, "name": "d64e8090c4e51f55d6f5231fa1b98096", "fusion_lat": 0.0, "rental_uris": {"ios": "https://dc.lft.to/lastmile_qr_scan", "android": "https://dc.lft.to/lastmile_qr_scan"}, "lon": -77.0619005, "type": "electric_scooter"}, {"bike_id": "9bb1b2743808b08295b73d40c0010e7d", "is_reserved": 0, "fusion_lon": 0.0, "lat": 38.88478516666667, "is_disabled": 0, "name": "9bb1b2743808b08295b73d40c0010e7d", "fusion_lat": 0.0, "rental_uris": {"ios": "https://dc.lft.to/lastmile_qr_scan", "android": "https://dc.lft.to/lastmile_qr_scan"}, "lon": -77.033552, "type": "electric_scooter"}, {"bike_id": "8e2f1acb61f86588448d87cc1f6ed308", "is_reserved": 0, "fusion_lon": 0.0, "lat": 38.89237283333333, "is_disabled": 0, "name": "8e2f1acb61f86588448d87cc1f6ed308", "fusion_lat": 0.0, "rental_uris": {"ios": "https://dc.lft.to/lastmile_qr_scan", "android": "https://dc.lft.to/lastmile_qr_scan"}, "lon": -77.0395645, "type": "electric_scooter"}, {"bike_id": "b644f0dfeff9edb3089416fa22c131c4", "is_reserved": 0, "fusion_lon": 0.0, "lat": 38.89957416666667, "is_disabled": 0, "name": "b644f0dfeff9edb3089416fa22c131c4", "fusion_lat": 0.0, "rental_uris": {"ios": "https://dc.lft.to/lastmile_qr_scan", "android": "https://dc.lft.to/lastmile_qr_scan"}, "lon": -77.0472335, "type": "electric_scooter"}, {"bike_id": "96c75248f32964f3d6bacdd8766c5031", "is_reserved": 0, "fusion_lon": 0.0, "lat": 38.916846166666666, "is_disabled": 0, "name": "96c75248f32964f3d6bacdd8766c5031", "fusion_lat": 0.0, "rental_uris": {"ios": "https://dc.lft.to/lastmile_qr_scan", "android": "https://dc.lft.to/lastmile_qr_scan"}, "lon": -77.02297066666667, "type": "electric_scooter"}, {"bike_id": "89e2fd87a43e41edd32c81b1cfcb854f", "is_reserved": 0, "fusion_lon": 0.0, "lat": 38.92511366666667, "is_disabled": 0, "name": "89e2fd87a43e41edd32c81b1cfcb854f", "fusion_lat": 0.0, "rental_uris": {"ios": "https://dc.lft.to/lastmile_qr_scan", "android": "https://dc.lft.to/lastmile_qr_scan"}, "lon": -77.051304, "type": "electric_scooter"}, {"bike_id": "1495b74c79c62c88c01eed59e067ea8b", "is_reserved": 0, "fusion_lon": 0.0, "lat": 38.90489183333333, "is_disabled": 0, "name": "1495b74c79c62c88c01eed59e067ea8b", "fusion_lat": 0.0, "rental_uris": {"ios": "https://dc.lft.to/lastmile_qr_scan", "android": "https://dc.lft.to/lastmile_qr_scan"}, "lon": -77.04357166666667, "type": "electric_scooter"}, {"bike_id": "0e4ca890d6106c61005aae581f3f3c43", "is_reserved": 0, "fusion_lon": 0.0, "lat": 38.88427683333333, "is_disabled": 0, "name": "0e4ca890d6106c61005aae581f3f3c43", "fusion_lat": 0.0, "rental_uris": {"ios": "https://dc.lft.to/lastmile_qr_scan", "android": "https://dc.lft.to/lastmile_qr_scan"}, "lon": -77.023726, "type": "electric_scooter"}, {"bike_id": "67ca9e55a17735a1a0e086d31e3addfd", "is_reserved": 0, "fusion_lon": 0.0, "lat": 38.82727766666667, "is_disabled": 0, "name": "67ca9e55a17735a1a0e086d31e3addfd", "fusion_lat": 0.0, "rental_uris": {"ios": "https://dc.lft.to/lastmile_qr_scan", "android": "https://dc.lft.to/lastmile_qr_scan"}, "lon": -77.008647, "type": "electric_bike"}, {"bike_id": "05070962358edc35037b8baf22eeac8a", "is_reserved": 0, "fusion_lon": 0.0, "lat": 38.886594, "is_disabled": 0, "name": "05070962358edc35037b8baf22eeac8a", "fusion_lat": 0.0, "rental_uris": {"ios": "https://dc.lft.to/lastmile_qr_scan", "android": "https://dc.lft.to/lastmile_qr_scan"}, "lon": -77.03391316666666, "type": "electric_scooter"}, {"bike_id": "9e0585426536a957103b4cab1438334e", "is_reserved": 0, "fusion_lon": 0.0, "lat": 38.89554716666667, "is_disabled": 0, "name": "9e0585426536a957103b4cab1438334e", "fusion_lat": 0.0, "rental_uris": {"ios": "https://dc.lft.to/lastmile_qr_scan", "android": "https://dc.lft.to/lastmile_qr_scan"}, "lon": -76.93365416666667, "type": "electric_scooter"}, {"bike_id": "1cefbf7fba5b7416469085e0eafc9045", "is_reserved": 0, "fusion_lon": 0.0, "lat": 38.91876883333333, "is_disabled": 0, "name": "1cefbf7fba5b7416469085e0eafc9045", "fusion_lat": 0.0, "rental_uris": {"ios": "https://dc.lft.to/lastmile_qr_scan", "android": "https://dc.lft.to/lastmile_qr_scan"}, "lon": -77.01595616666667, "type": "electric_scooter"}, {"bike_id": "eaa75c1d9840b1756fc70a0e5464359b", "is_reserved": 0, "fusion_lon": 0.0, "lat": 38.871083, "is_disabled": 0, "name": "eaa75c1d9840b1756fc70a0e5464359b", "fusion_lat": 0.0, "rental_uris": {"ios": "https://dc.lft.to/lastmile_qr_scan", "android": "https://dc.lft.to/lastmile_qr_scan"}, "lon": -77.00755, "type": "electric_scooter"}, {"bike_id": "3e4da77e6580d0e1deb18065845a1a22", "is_reserved": 0, "fusion_lon": 0.0, "lat": 38.920694166666664, "is_disabled": 0, "name": "3e4da77e6580d0e1deb18065845a1a22", "fusion_lat": 0.0, "rental_uris": {"ios": "https://dc.lft.to/lastmile_qr_scan", "android": "https://dc.lft.to/lastmile_qr_scan"}, "lon": -77.04688416666667, "type": "electric_scooter"}, {"bike_id": "9116436bd3549cdad8b8bd318ae823d6", "is_reserved": 0, "fusion_lon": 0.0, "lat": 38.8805675, "is_disabled": 0, "name": "9116436bd3549cdad8b8bd318ae823d6", "fusion_lat": 0.0, "rental_uris": {"ios": "https://dc.lft.to/lastmile_qr_scan", "android": "https://dc.lft.to/lastmile_qr_scan"}, "lon": -77.08640583333333, "type": "electric_bike"}, {"bike_id": "59d1b336cce37d17e8dbc1c7c3174c16", "is_reserved": 0, "fusion_lon": 0.0, "lat": 38.90265183333333, "is_disabled": 0, "name": "59d1b336cce37d17e8dbc1c7c3174c16", "fusion_lat": 0.0, "rental_uris": {"ios": "https://dc.lft.to/lastmile_qr_scan", "android": "https://dc.lft.to/lastmile_qr_scan"}, "lon": -77.03967366666667, "type": "electric_scooter"}, {"bike_id": "ca4c1e0c2ca0db22980d2950091f8b06", "is_reserved": 0, "fusion_lon": 0.0, "lat": 38.93261966666667, "is_disabled": 0, "name": "ca4c1e0c2ca0db22980d2950091f8b06", "fusion_lat": 0.0, "rental_uris": {"ios": "https://dc.lft.to/lastmile_qr_scan", "android": "https://dc.lft.to/lastmile_qr_scan"}, "lon": -77.034905, "type": "electric_scooter"}, {"bike_id": "968525abf54302c0e1a5480b949195c2", "is_reserved": 0, "fusion_lon": 0.0, "lat": 38.9020735, "is_disabled": 0, "name": "968525abf54302c0e1a5480b949195c2", "fusion_lat": 0.0, "rental_uris": {"ios": "https://dc.lft.to/lastmile_qr_scan", "android": "https://dc.lft.to/lastmile_qr_scan"}, "lon": -77.04630383333334, "type": "electric_scooter"}, {"bike_id": "b8619e7dabe55acbf799f699639ecd56", "is_reserved": 0, "fusion_lon": 0.0, "lat": 38.850587833333336, "is_disabled": 0, "name": "b8619e7dabe55acbf799f699639ecd56", "fusion_lat": 0.0, "rental_uris": {"ios": "https://dc.lft.to/lastmile_qr_scan", "android": "https://dc.lft.to/lastmile_qr_scan"}, "lon": -76.9733275, "type": "electric_bike"}, {"bike_id": "184d3b1ffe1d1f3d3f7967e6cbabf113", "is_reserved": 0, "fusion_lon": 0.0, "lat": 38.89226583333333, "is_disabled": 0, "name": "184d3b1ffe1d1f3d3f7967e6cbabf113", "fusion_lat": 0.0, "rental_uris": {"ios": "https://dc.lft.to/lastmile_qr_scan", "android": "https://dc.lft.to/lastmile_qr_scan"}, "lon": -77.02385633333333, "type": "electric_scooter"}, {"bike_id": "6da87b4670d4afe2411d87ddd2938bc4", "is_reserved": 0, "fusion_lon": 0.0, "lat": 38.92065616666667, "is_disabled": 0, "name": "6da87b4670d4afe2411d87ddd2938bc4", "fusion_lat": 0.0, "rental_uris": {"ios": "https://dc.lft.to/lastmile_qr_scan", "android": "https://dc.lft.to/lastmile_qr_scan"}, "lon": -77.043805, "type": "electric_scooter"}, {"bike_id": "a91a3ca9393b020a566b69e5fbd8873b", "is_reserved": 0, "fusion_lon": 0.0, "lat": 38.92875033333333, "is_disabled": 0, "name": "a91a3ca9393b020a566b69e5fbd8873b", "fusion_lat": 0.0, "rental_uris": {"ios": "https://dc.lft.to/lastmile_qr_scan", "android": "https://dc.lft.to/lastmile_qr_scan"}, "lon": -77.03687766666667, "type": "electric_scooter"}, {"bike_id": "406e9161b74e587d90a3f411d7d1031c", "is_reserved": 0, "fusion_lon": 0.0, "lat": 38.848115, "is_disabled": 0, "name": "406e9161b74e587d90a3f411d7d1031c", "fusion_lat": 0.0, "rental_uris": {"ios": "https://dc.lft.to/lastmile_qr_scan", "android": "https://dc.lft.to/lastmile_qr_scan"}, "lon": -76.97845866666667, "type": "electric_bike"}, {"bike_id": "96990463d9a0277a47e11239af843022", "is_reserved": 0, "fusion_lon": 0.0, "lat": 38.94014933333333, "is_disabled": 0, "name": "96990463d9a0277a47e11239af843022", "fusion_lat": 0.0, "rental_uris": {"ios": "https://dc.lft.to/lastmile_qr_scan", "android": "https://dc.lft.to/lastmile_qr_scan"}, "lon": -77.07177416666667, "type": "electric_scooter"}, {"bike_id": "2b266dbe0226e772d662dedd235b8011", "is_reserved": 0, "fusion_lon": 0.0, "lat": 38.882214, "is_disabled": 0, "name": "2b266dbe0226e772d662dedd235b8011", "fusion_lat": 0.0, "rental_uris": {"ios": "https://dc.lft.to/lastmile_qr_scan", "android": "https://dc.lft.to/lastmile_qr_scan"}, "lon": -76.926612, "type": "electric_scooter"}, {"bike_id": "bfbfb964ac0064caf7c06adb91d66d87", "is_reserved": 0, "fusion_lon": 0.0, "lat": 38.89875816666667, "is_disabled": 0, "name": "bfbfb964ac0064caf7c06adb91d66d87", "fusion_lat": 0.0, "rental_uris": {"ios": "https://dc.lft.to/lastmile_qr_scan", "android": "https://dc.lft.to/lastmile_qr_scan"}, "lon": -76.93161066666667, "type": "electric_scooter"}, {"bike_id": "d836a50e515c898415fa9e36b47f6076", "is_reserved": 0, "fusion_lon": 0.0, "lat": 38.924912, "is_disabled": 0, "name": "d836a50e515c898415fa9e36b47f6076", "fusion_lat": 0.0, "rental_uris": {"ios": "https://dc.lft.to/lastmile_qr_scan", "android": "https://dc.lft.to/lastmile_qr_scan"}, "lon": -77.00893283333333, "type": "electric_scooter"}, {"bike_id": "481669c259b15df52ca6e82b87771ac8", "is_reserved": 0, "fusion_lon": 0.0, "lat": 38.934244666666665, "is_disabled": 0, "name": "481669c259b15df52ca6e82b87771ac8", "fusion_lat": 0.0, "rental_uris": {"ios": "https://dc.lft.to/lastmile_qr_scan", "android": "https://dc.lft.to/lastmile_qr_scan"}, "lon": -77.03447066666666, "type": "electric_scooter"}, {"bike_id": "4589e59d7507c21db617acfc20ac4573", "is_reserved": 0, "fusion_lon": 0.0, "lat": 38.90023733333334, "is_disabled": 0, "name": "4589e59d7507c21db617acfc20ac4573", "fusion_lat": 0.0, "rental_uris": {"ios": "https://dc.lft.to/lastmile_qr_scan", "android": "https://dc.lft.to/lastmile_qr_scan"}, "lon": -76.998741, "type": "electric_scooter"}, {"bike_id": "320679b440de0704f8941c448696e118", "is_reserved": 0, "fusion_lon": 0.0, "lat": 38.9052205, "is_disabled": 0, "name": "320679b440de0704f8941c448696e118", "fusion_lat": 0.0, "rental_uris": {"ios": "https://dc.lft.to/lastmile_qr_scan", "android": "https://dc.lft.to/lastmile_qr_scan"}, "lon": -77.04365416666667, "type": "electric_scooter"}, {"bike_id": "25290e0da205c84b725b206ab5ec29a0", "is_reserved": 0, "fusion_lon": 0.0, "lat": 38.8866675, "is_disabled": 0, "name": "25290e0da205c84b725b206ab5ec29a0", "fusion_lat": 0.0, "rental_uris": {"ios": "https://dc.lft.to/lastmile_qr_scan", "android": "https://dc.lft.to/lastmile_qr_scan"}, "lon": -77.00156616666666, "type": "electric_bike"}, {"bike_id": "9e69da847e612e18ad72eb0ee0ec5edc", "is_reserved": 0, "fusion_lon": 0.0, "lat": 38.9616995, "is_disabled": 0, "name": "9e69da847e612e18ad72eb0ee0ec5edc", "fusion_lat": 0.0, "rental_uris": {"ios": "https://dc.lft.to/lastmile_qr_scan", "android": "https://dc.lft.to/lastmile_qr_scan"}, "lon": -76.99592733333333, "type": "electric_bike"}, {"bike_id": "0f85f9498d231639742af31d7b51792f", "is_reserved": 0, "fusion_lon": 0.0, "lat": 38.986547333333334, "is_disabled": 0, "name": "0f85f9498d231639742af31d7b51792f", "fusion_lat": 0.0, "rental_uris": {"ios": "https://dc.lft.to/lastmile_qr_scan", "android": "https://dc.lft.to/lastmile_qr_scan"}, "lon": -77.0560945, "type": "electric_bike"}, {"bike_id": "25ce37a5d021e3e8ac246d2832e50278", "is_reserved": 0, "fusion_lon": 0.0, "lat": 38.911709333333334, "is_disabled": 0, "name": "25ce37a5d021e3e8ac246d2832e50278", "fusion_lat": 0.0, "rental_uris": {"ios": "https://dc.lft.to/lastmile_qr_scan", "android": "https://dc.lft.to/lastmile_qr_scan"}, "lon": -77.068322, "type": "electric_scooter"}, {"bike_id": "07fbea64e0e6fd8f7c574ab55ac70774", "is_reserved": 0, "fusion_lon": 0.0, "lat": 38.90311766666667, "is_disabled": 0, "name": "07fbea64e0e6fd8f7c574ab55ac70774", "fusion_lat": 0.0, "rental_uris": {"ios": "https://dc.lft.to/lastmile_qr_scan", "android": "https://dc.lft.to/lastmile_qr_scan"}, "lon": -77.04324283333334, "type": "electric_scooter"}, {"bike_id": "71b5670975bccbf55d7e1e0c5ce9cbd3", "is_reserved": 0, "fusion_lon": 0.0, "lat": 38.9023685, "is_disabled": 0, "name": "71b5670975bccbf55d7e1e0c5ce9cbd3", "fusion_lat": 0.0, "rental_uris": {"ios": "https://dc.lft.to/lastmile_qr_scan", "android": "https://dc.lft.to/lastmile_qr_scan"}, "lon": -77.01824216666667, "type": "electric_scooter"}, {"bike_id": "af12c9750f16a73d1dc2a8a39a750aac", "is_reserved": 0, "fusion_lon": 0.0, "lat": 38.885294333333334, "is_disabled": 0, "name": "af12c9750f16a73d1dc2a8a39a750aac", "fusion_lat": 0.0, "rental_uris": {"ios": "https://dc.lft.to/lastmile_qr_scan", "android": "https://dc.lft.to/lastmile_qr_scan"}, "lon": -76.99829066666666, "type": "electric_scooter"}, {"bike_id": "66b2a528e62c0cd0147595b0fd2fd1bf", "is_reserved": 0, "fusion_lon": 0.0, "lat": 38.8720575, "is_disabled": 0, "name": "66b2a528e62c0cd0147595b0fd2fd1bf", "fusion_lat": 0.0, "rental_uris": {"ios": "https://dc.lft.to/lastmile_qr_scan", "android": "https://dc.lft.to/lastmile_qr_scan"}, "lon": -77.00579066666667, "type": "electric_scooter"}, {"bike_id": "bfd0958a64b5e8231b93e3096379048f", "is_reserved": 0, "fusion_lon": 0.0, "lat": 38.92110616666667, "is_disabled": 0, "name": "bfd0958a64b5e8231b93e3096379048f", "fusion_lat": 0.0, "rental_uris": {"ios": "https://dc.lft.to/lastmile_qr_scan", "android": "https://dc.lft.to/lastmile_qr_scan"}, "lon": -77.04590433333334, "type": "electric_scooter"}, {"bike_id": "6f767d25ad0f6f4a8f38290a9b1c2ffa", "is_reserved": 0, "fusion_lon": 0.0, "lat": 38.84413083333333, "is_disabled": 0, "name": "6f767d25ad0f6f4a8f38290a9b1c2ffa", "fusion_lat": 0.0, "rental_uris": {"ios": "https://dc.lft.to/lastmile_qr_scan", "android": "https://dc.lft.to/lastmile_qr_scan"}, "lon": -76.99781866666666, "type": "electric_scooter"}, {"bike_id": "9e06880745298ecbdeb00255849088e4", "is_reserved": 0, "fusion_lon": 0.0, "lat": 38.869176833333334, "is_disabled": 0, "name": "9e06880745298ecbdeb00255849088e4", "fusion_lat": 0.0, "rental_uris": {"ios": "https://dc.lft.to/lastmile_qr_scan", "android": "https://dc.lft.to/lastmile_qr_scan"}, "lon": -76.98299666666666, "type": "electric_scooter"}, {"bike_id": "6c8459b93d0e8d54ca282f5b842e938c", "is_reserved": 0, "fusion_lon": 0.0, "lat": 38.903601, "is_disabled": 0, "name": "6c8459b93d0e8d54ca282f5b842e938c", "fusion_lat": 0.0, "rental_uris": {"ios": "https://dc.lft.to/lastmile_qr_scan", "android": "https://dc.lft.to/lastmile_qr_scan"}, "lon": -77.0300725, "type": "electric_scooter"}, {"bike_id": "7ba63695404975fb1a7a3575a710a8e6", "is_reserved": 0, "fusion_lon": 0.0, "lat": 38.8849925, "is_disabled": 0, "name": "7ba63695404975fb1a7a3575a710a8e6", "fusion_lat": 0.0, "rental_uris": {"ios": "https://dc.lft.to/lastmile_qr_scan", "android": "https://dc.lft.to/lastmile_qr_scan"}, "lon": -77.00566416666666, "type": "electric_scooter"}, {"bike_id": "a00ff983eacd731c3d3382de2cbde6ff", "is_reserved": 0, "fusion_lon": 0.0, "lat": 38.8898795, "is_disabled": 0, "name": "a00ff983eacd731c3d3382de2cbde6ff", "fusion_lat": 0.0, "rental_uris": {"ios": "https://dc.lft.to/lastmile_qr_scan", "android": "https://dc.lft.to/lastmile_qr_scan"}, "lon": -76.94708866666667, "type": "electric_scooter"}, {"bike_id": "4bd2e5fdd419fcae2c549108c6cd7310", "is_reserved": 0, "fusion_lon": 0.0, "lat": 38.941999333333335, "is_disabled": 0, "name": "4bd2e5fdd419fcae2c549108c6cd7310", "fusion_lat": 0.0, "rental_uris": {"ios": "https://dc.lft.to/lastmile_qr_scan", "android": "https://dc.lft.to/lastmile_qr_scan"}, "lon": -77.01829983333333, "type": "electric_bike"}, {"bike_id": "6e261a8950775f73db48c3d79983b533", "is_reserved": 0, "fusion_lon": 0.0, "lat": 38.86457083333333, "is_disabled": 0, "name": "6e261a8950775f73db48c3d79983b533", "fusion_lat": 0.0, "rental_uris": {"ios": "https://dc.lft.to/lastmile_qr_scan", "android": "https://dc.lft.to/lastmile_qr_scan"}, "lon": -76.98244316666667, "type": "electric_scooter"}, {"bike_id": "3099c320d722b8e1a5a1916164325e7b", "is_reserved": 0, "fusion_lon": 0.0, "lat": 38.92435116666667, "is_disabled": 0, "name": "3099c320d722b8e1a5a1916164325e7b", "fusion_lat": 0.0, "rental_uris": {"ios": "https://dc.lft.to/lastmile_qr_scan", "android": "https://dc.lft.to/lastmile_qr_scan"}, "lon": -77.02038466666667, "type": "electric_scooter"}, {"bike_id": "8d42584b3da9c88e02f065183f987be8", "is_reserved": 0, "fusion_lon": 0.0, "lat": 38.91687983333333, "is_disabled": 0, "name": "8d42584b3da9c88e02f065183f987be8", "fusion_lat": 0.0, "rental_uris": {"ios": "https://dc.lft.to/lastmile_qr_scan", "android": "https://dc.lft.to/lastmile_qr_scan"}, "lon": -77.034862, "type": "electric_scooter"}, {"bike_id": "3c6b90b6db11416b2868d73106c19f15", "is_reserved": 0, "fusion_lon": 0.0, "lat": 38.90922533333333, "is_disabled": 0, "name": "3c6b90b6db11416b2868d73106c19f15", "fusion_lat": 0.0, "rental_uris": {"ios": "https://dc.lft.to/lastmile_qr_scan", "android": "https://dc.lft.to/lastmile_qr_scan"}, "lon": -77.04381133333334, "type": "electric_scooter"}, {"bike_id": "e35ea2099381549c1b4624346a9f6c56", "is_reserved": 0, "fusion_lon": 0.0, "lat": 38.83232316666667, "is_disabled": 0, "name": "e35ea2099381549c1b4624346a9f6c56", "fusion_lat": 0.0, "rental_uris": {"ios": "https://dc.lft.to/lastmile_qr_scan", "android": "https://dc.lft.to/lastmile_qr_scan"}, "lon": -76.94626, "type": "electric_bike"}, {"bike_id": "2dc38e03088f4f6b70315a2aa54a5858", "is_reserved": 0, "fusion_lon": 0.0, "lat": 38.9451225, "is_disabled": 0, "name": "2dc38e03088f4f6b70315a2aa54a5858", "fusion_lat": 0.0, "rental_uris": {"ios": "https://dc.lft.to/lastmile_qr_scan", "android": "https://dc.lft.to/lastmile_qr_scan"}, "lon": -77.03356183333334, "type": "electric_scooter"}, {"bike_id": "a60d30871b6603008508ab92d0618ee3", "is_reserved": 0, "fusion_lon": 0.0, "lat": 38.90791, "is_disabled": 0, "name": "a60d30871b6603008508ab92d0618ee3", "fusion_lat": 0.0, "rental_uris": {"ios": "https://dc.lft.to/lastmile_qr_scan", "android": "https://dc.lft.to/lastmile_qr_scan"}, "lon": -77.0487365, "type": "electric_scooter"}, {"bike_id": "c12c155c0ab9a931d889e26043d435c2", "is_reserved": 0, "fusion_lon": 0.0, "lat": 38.91416133333333, "is_disabled": 0, "name": "c12c155c0ab9a931d889e26043d435c2", "fusion_lat": 0.0, "rental_uris": {"ios": "https://dc.lft.to/lastmile_qr_scan", "android": "https://dc.lft.to/lastmile_qr_scan"}, "lon": -77.03173566666666, "type": "electric_scooter"}, {"bike_id": "54628c8638c51309e221578ed89182a6", "is_reserved": 0, "fusion_lon": 0.0, "lat": 38.925455, "is_disabled": 0, "name": "54628c8638c51309e221578ed89182a6", "fusion_lat": 0.0, "rental_uris": {"ios": "https://dc.lft.to/lastmile_qr_scan", "android": "https://dc.lft.to/lastmile_qr_scan"}, "lon": -77.03355983333333, "type": "electric_scooter"}, {"bike_id": "a7e5bacdce233a13c7a00078e3741d2e", "is_reserved": 0, "fusion_lon": 0.0, "lat": 38.915778833333334, "is_disabled": 0, "name": "a7e5bacdce233a13c7a00078e3741d2e", "fusion_lat": 0.0, "rental_uris": {"ios": "https://dc.lft.to/lastmile_qr_scan", "android": "https://dc.lft.to/lastmile_qr_scan"}, "lon": -77.04701816666666, "type": "electric_scooter"}, {"bike_id": "673e3ba8d2565d84c038e918850096e3", "is_reserved": 0, "fusion_lon": 0.0, "lat": 38.97880216666667, "is_disabled": 0, "name": "673e3ba8d2565d84c038e918850096e3", "fusion_lat": 0.0, "rental_uris": {"ios": "https://dc.lft.to/lastmile_qr_scan", "android": "https://dc.lft.to/lastmile_qr_scan"}, "lon": -77.02550366666667, "type": "electric_scooter"}, {"bike_id": "d6e025f0526dcf4d80a700367f661f66", "is_reserved": 0, "fusion_lon": 0.0, "lat": 38.926989666666664, "is_disabled": 0, "name": "d6e025f0526dcf4d80a700367f661f66", "fusion_lat": 0.0, "rental_uris": {"ios": "https://dc.lft.to/lastmile_qr_scan", "android": "https://dc.lft.to/lastmile_qr_scan"}, "lon": -77.04052433333334, "type": "electric_scooter"}, {"bike_id": "6ec1693ccaa4570f482466547b47c80c", "is_reserved": 0, "fusion_lon": 0.0, "lat": 38.90128716666667, "is_disabled": 0, "name": "6ec1693ccaa4570f482466547b47c80c", "fusion_lat": 0.0, "rental_uris": {"ios": "https://dc.lft.to/lastmile_qr_scan", "android": "https://dc.lft.to/lastmile_qr_scan"}, "lon": -76.9971355, "type": "electric_scooter"}, {"bike_id": "4fd5ff9d8271502624e2fb0e8f996102", "is_reserved": 0, "fusion_lon": 0.0, "lat": 38.8921615, "is_disabled": 0, "name": "4fd5ff9d8271502624e2fb0e8f996102", "fusion_lat": 0.0, "rental_uris": {"ios": "https://dc.lft.to/lastmile_qr_scan", "android": "https://dc.lft.to/lastmile_qr_scan"}, "lon": -77.048698, "type": "electric_scooter"}, {"bike_id": "d54b9112bcd347525efb2c97357142c5", "is_reserved": 0, "fusion_lon": 0.0, "lat": 38.91156933333333, "is_disabled": 0, "name": "d54b9112bcd347525efb2c97357142c5", "fusion_lat": 0.0, "rental_uris": {"ios": "https://dc.lft.to/lastmile_qr_scan", "android": "https://dc.lft.to/lastmile_qr_scan"}, "lon": -76.98660266666667, "type": "electric_scooter"}, {"bike_id": "42e19e41de25069cb336d3f55b67a299", "is_reserved": 0, "fusion_lon": 0.0, "lat": 38.9443545, "is_disabled": 0, "name": "42e19e41de25069cb336d3f55b67a299", "fusion_lat": 0.0, "rental_uris": {"ios": "https://dc.lft.to/lastmile_qr_scan", "android": "https://dc.lft.to/lastmile_qr_scan"}, "lon": -77.0635485, "type": "electric_scooter"}, {"bike_id": "a16d12319cae442d556d19d4b2222b09", "is_reserved": 0, "fusion_lon": 0.0, "lat": 38.9051245, "is_disabled": 0, "name": "a16d12319cae442d556d19d4b2222b09", "fusion_lat": 0.0, "rental_uris": {"ios": "https://dc.lft.to/lastmile_qr_scan", "android": "https://dc.lft.to/lastmile_qr_scan"}, "lon": -77.06527283333334, "type": "electric_scooter"}, {"bike_id": "0d12217b1a54410d5b8b2b1a83d84e5a", "is_reserved": 0, "fusion_lon": 0.0, "lat": 38.891945166666666, "is_disabled": 0, "name": "0d12217b1a54410d5b8b2b1a83d84e5a", "fusion_lat": 0.0, "rental_uris": {"ios": "https://dc.lft.to/lastmile_qr_scan", "android": "https://dc.lft.to/lastmile_qr_scan"}, "lon": -77.02242733333334, "type": "electric_scooter"}, {"bike_id": "5db56065ca5c84ef881c9fcc4dde4dc1", "is_reserved": 0, "fusion_lon": 0.0, "lat": 38.922643, "is_disabled": 0, "name": "5db56065ca5c84ef881c9fcc4dde4dc1", "fusion_lat": 0.0, "rental_uris": {"ios": "https://dc.lft.to/lastmile_qr_scan", "android": "https://dc.lft.to/lastmile_qr_scan"}, "lon": -77.01825316666667, "type": "electric_scooter"},