{"data": {"bikes": [{"bike_id": "f0e140335a9128ed3a733b065ae0a3f7", "is_reserved": 0, "fusion_lon": 0.0, "lat": 38.959221666666664, "is_disabled": 0, "name": "f0e140335a9128ed3a733b065ae0a3f7", "fusion_lat": 0.0, "rental_uris": {"ios": "https://dc.lft.to/lastmile_qr_scan", "android": "https://dc.lft.to/lastmile_qr_scan"}, "lon": -77.031157, "type": "electric_bike"}, {"bike_id": "95936871032c3aec84e3c51571709418", "is_reserved": 0, "fusion_lon": 0.0, "lat": 38.91703366666667, "is_disabled": 0, "name": "95936871032c3aec84e3c51571709418", "fusion_lat": 0.0, "rental_uris": {"ios": "https://dc.lft.to/lastmile_qr_scan", "android": "https://dc.lft.to/lastmile_qr_scan"}, "lon": -77.02896433333333, "type": "electric_scooter"}, {"bike_id": "f9debf5279685b4d837878f07a45fd75", "is_reserved": 0, "fusion_lon": 0.0, "lat": 38.915364333333336, "is_disabled": 0, "name": "f9debf5279685b4d837878f07a45fd75", "fusion_lat": 0.0, "rental_uris": {"ios": "https://dc.lft.to/lastmile_qr_scan", "android": "https://dc.lft.to/lastmile_qr_scan"}, "lon": -77.023463, "type": "electric_scooter"}, {"bike_id": "35c005cdf0a3b542a3721954985607c1", "is_reserved": 0, "fusion_lon": 0.0, "lat": 38.91003283333333, "is_disabled": 0, "name": "35c005cdf0a3b542a3721954985607c1", "fusion_lat": 0.0, "rental_uris": {"ios": "https://dc.lft.to/lastmile_qr_scan", "android": "https://dc.lft.to/lastmile_qr_scan"}, "lon": -77.02096433333334, "type": "electric_scooter"}, {"bike_id": "c7af1740811f1b6f9eb0d7a3f5af2b57", "is_reserved": 0, "fusion_lon": 0.0, "lat": 38.90525683333333, "is_disabled": 0, "name": "c7af1740811f1b6f9eb0d7a3f5af2b57", "fusion_lat": 0.0, "rental_uris": {"ios": "https://dc.lft.to/lastmile_qr_scan", "android": "https://dc.lft.to/lastmile_qr_scan"}, "lon": -77.05013133333334, "type": "electric_scooter"}, {"bike_id": "534be464250c9fbecb991cc7f7f4a78c", "is_reserved": 0, "fusion_lon": 0.0, "lat": 38.9949935, "is_disabled": 0, "name": "534be464250c9fbecb991cc7f7f4a78c", "fusion_lat": 0.0, "rental_uris": {"ios": "https://dc.lft.to/lastmile_qr_scan", "android": "https://dc.lft.to/lastmile_qr_scan"}, "lon": -77.02882283333334, "type": "electric_bike"}, {"bike_id": "33fd6327053e9bb7cfda930a0933f2b4", "is_reserved": 0, "fusion_lon": 0.0, "lat": 38.90423833333333, "is_disabled": 0, "name": "33fd6327053e9bb7cfda930a0933f2b4", "fusion_lat": 0.0, "rental_uris": {"ios": "https://dc.lft.to/lastmile_qr_scan", "android": "https://dc.lft.to/lastmile_qr_scan"}, "lon": -77.03998866666667, "type": "electric_scooter"}, {"bike_id": "4f1bd35f6cc266f05bbc265880c2212d", "is_reserved": 0, "fusion_lon": 0.0, "lat": 38.91617, "is_disabled": 0, "name": "4f1bd35f6cc266f05bbc265880c2212d", "fusion_lat": 0.0, "rental_uris": {"ios": "https://dc.lft.to/lastmile_qr_scan", "android": "https://dc.lft.to/lastmile_qr_scan"}, "lon": -77.03646966666666, "type": "electric_scooter"}, {"bike_id": "55d89a2739eb6bac1e0949e8b30ac58e", "is_reserved": 0, "fusion_lon": 0.0, "lat": 38.902301, "is_disabled": 0, "name": "55d89a2739eb6bac1e0949e8b30ac58e", "fusion_lat": 0.0, "rental_uris": {"ios": "https://dc.lft.to/lastmile_qr_scan", "android": "https://dc.lft.to/lastmile_qr_scan"}, "lon": -77.0197415, "type": "electric_scooter"}, {"bike_id": "d0d2ec5c0510dd8ad471273ad0921092", "is_reserved": 0, "fusion_lon": 0.0, "lat": 38.9244375, "is_disabled": 0, "name": "d0d2ec5c0510dd8ad471273ad0921092", "fusion_lat": 0.0, "rental_uris": {"ios": "https://dc.lft.to/lastmile_qr_scan", "android": "https://dc.lft.to/lastmile_qr_scan"}, "lon": -77.03375883333334, "type": "electric_scooter"}, {"bike_id": "df158ff376826c915ceea134001db9eb", "is_reserved": 0, "fusion_lon": 0.0, "lat": 38.904213166666665, "is_disabled": 0, "name": "df158ff376826c915ceea134001db9eb", "fusion_lat": 0.0, "rental_uris": {"ios": "https://dc.lft.to/lastmile_qr_scan", "android": "https://dc.lft.to/lastmile_qr_scan"}, "lon": -77.04662933333333, "type": "electric_scooter"}, {"bike_id": "75276f45d78821e945ef50673e23a111", "is_reserved": 0, "fusion_lon": 0.0, "lat": 38.87480883333333, "is_disabled": 0, "name": "75276f45d78821e945ef50673e23a111", "fusion_lat": 0.0, "rental_uris": {"ios": "https://dc.lft.to/lastmile_qr_scan", "android": "https://dc.lft.to/lastmile_qr_scan"}, "lon": -76.96524416666666, "type": "electric_bike"}, {"bike_id": "e4c7151574988dba6a03857fef4dc7b1", "is_reserved": 0, "fusion_lon": 0.0, "lat": 38.90191466666667, "is_disabled": 0, "name": "e4c7151574988dba6a03857fef4dc7b1", "fusion_lat": 0.0, "rental_uris": {"ios": "https://dc.lft.to/lastmile_qr_scan", "android": "https://dc.lft.to/lastmile_qr_scan"}, "lon": -77.03960616666667, "type": "electric_scooter"}, {"bike_id": "fcede9e78fe1d10094717f75c66712e1", "is_reserved": 0, "fusion_lon": 0.0, "lat": 38.89738633333333, "is_disabled": 0, "name": "fcede9e78fe1d10094717f75c66712e1", "fusion_lat": 0.0, "rental_uris": {"ios": "https://dc.lft.to/lastmile_qr_scan", "android": "https://dc.lft.to/lastmile_qr_scan"}, "lon": -76.94727333333333, "type": "electric_scooter"}, {"bike_id": "06def8860e6d02658ae19ec758b5769e", "is_reserved": 0, "fusion_lon": 0.0, "lat": 38.895223, "is_disabled": 0, "name": "06def8860e6d02658ae19ec758b5769e", "fusion_lat": 0.0, "rental_uris": {"ios": "https://dc.lft.to/lastmile_qr_scan", "android": "https://dc.lft.to/lastmile_qr_scan"}, "lon": -77.02939116666667, "type": "electric_scooter"}, {"bike_id": "d03ee38995cfe1e234d600f510c60412", "is_reserved": 0, "fusion_lon": 0.0, "lat": 38.971741333333334, "is_disabled": 0, "name": "d03ee38995cfe1e234d600f510c60412", "fusion_lat": 0.0, "rental_uris": {"ios": "https://dc.lft.to/lastmile_qr_scan", "android": "https://dc.lft.to/lastmile_qr_scan"}, "lon": -77.02696483333334, "type": "electric_scooter"}, {"bike_id": "ce436d22bdfb8eade9aa174e3686ebee", "is_reserved": 0, "fusion_lon": 0.0, "lat": 38.934037833333335, "is_disabled": 0, "name": "ce436d22bdfb8eade9aa174e3686ebee", "fusion_lat": 0.0, "rental_uris": {"ios": "https://dc.lft.to/lastmile_qr_scan", "android": "https://dc.lft.to/lastmile_qr_scan"}, "lon": -77.038908, "type": "electric_scooter"}, {"bike_id": "96b55c8e1dc0a034e621c6a657b8a900", "is_reserved": 0, "fusion_lon": 0.0, "lat": 38.883325666666664, "is_disabled": 0, "name": "96b55c8e1dc0a034e621c6a657b8a900", "fusion_lat": 0.0, "rental_uris": {"ios": "https://dc.lft.to/lastmile_qr_scan", "android": "https://dc.lft.to/lastmile_qr_scan"}, "lon": -77.00523783333334, "type": "electric_scooter"}, {"bike_id": "ba8b6b88701c2f7e465277e610ab666d", "is_reserved": 0, "fusion_lon": 0.0, "lat": 38.8848825, "is_disabled": 0, "name": "ba8b6b88701c2f7e465277e610ab666d", "fusion_lat": 0.0, "rental_uris": {"ios": "https://dc.lft.to/lastmile_qr_scan", "android": "https://dc.lft.to/lastmile_qr_scan"}, "lon": -77.00721833333333, "type": "electric_scooter"}, {"bike_id": "6949ea48dd7589ad4ab442792f022603", "is_reserved": 0, "fusion_lon": 0.0, "lat": 38.9037245, "is_disabled": 0, "name": "6949ea48dd7589ad4ab442792f022603", "fusion_lat": 0.0, "rental_uris": {"ios": "https://dc.lft.to/lastmile_qr_scan", "android": "https://dc.lft.to/lastmile_qr_scan"}, "lon": -77.031861, "type": "electric_scooter"}, {"bike_id": "47356d894458decc20e4c0bcda2c52d8", "is_reserved": 0, "fusion_lon": 0.0, "lat": 38.930874, "is_disabled": 0, "name": "47356d894458decc20e4c0bcda2c52d8", "fusion_lat": 0.0, "rental_uris": {"ios": "https://dc.lft.to/lastmile_qr_scan", "android": "https://dc.lft.to/lastmile_qr_scan"}, "lon": -77.02664766666666, "type": "electric_scooter"}, {"bike_id": "ffa10897cdcdd6e15fdfb468800b7969", "is_reserved": 0, "fusion_lon": 0.0, "lat": 38.929581166666665, "is_disabled": 0, "name": "ffa10897cdcdd6e15fdfb468800b7969", "fusion_lat": 0.0, "rental_uris": {"ios": "https://dc.lft.to/lastmile_qr_scan", "android": "https://dc.lft.to/lastmile_qr_scan"}, "lon": -77.05508, "type": "electric_scooter"}, {"bike_id": "285c220e8d83f2c70d532f564de8ffb8", "is_reserved": 0, "fusion_lon": 0.0, "lat": 38.959069166666666, "is_disabled": 0, "name": "285c220e8d83f2c70d532f564de8ffb8", "fusion_lat": 0.0, "rental_uris": {"ios": "https://dc.lft.to/lastmile_qr_scan", "android": "https://dc.lft.to/lastmile_qr_scan"}, "lon": -77.080775, "type": "electric_scooter"}, {"bike_id": "f42d6295aaec8b6a61693e1524ac6a67", "is_reserved": 0, "fusion_lon": 0.0, "lat": 38.902040666666664, "is_disabled": 0, "name": "f42d6295aaec8b6a61693e1524ac6a67", "fusion_lat": 0.0, "rental_uris": {"ios": "https://dc.lft.to/lastmile_qr_scan", "android": "https://dc.lft.to/lastmile_qr_scan"}, "lon": -77.02174783333334, "type": "electric_scooter"}, {"bike_id": "c4fb0d854854db3da60fb6b75d20b80b", "is_reserved": 0, "fusion_lon": 0.0, "lat": 38.86265233333334, "is_disabled": 0, "name": "c4fb0d854854db3da60fb6b75d20b80b", "fusion_lat": 0.0, "rental_uris": {"ios": "https://dc.lft.to/lastmile_qr_scan", "android": "https://dc.lft.to/lastmile_qr_scan"}, "lon": -76.98146366666667, "type": "electric_scooter"}, {"bike_id": "d4a2884ccdc07c58ca6861a2ea77d71a", "is_reserved": 0, "fusion_lon": 0.0, "lat": 38.918071833333336, "is_disabled": 0, "name": "d4a2884ccdc07c58ca6861a2ea77d71a", "fusion_lat": 0.0, "rental_uris": {"ios": "https://dc.lft.to/lastmile_qr_scan", "android": "https://dc.lft.to/lastmile_qr_scan"}, "lon": -77.0343995, "type": "electric_scooter"}, {"bike_id": "067dcc85e6589a74881072f52836f5c6", "is_reserved": 0, "fusion_lon": 0.0, "lat": 38.90971366666667, "is_disabled": 0, "name": "067dcc85e6589a74881072f52836f5c6", "fusion_lat": 0.0, "rental_uris": {"ios": "https://dc.lft.to/lastmile_qr_scan", "android": "https://dc.lft.to/lastmile_qr_scan"}, "lon": -77.03867016666666, "type": "electric_scooter"}, {"bike_id": "56df763c5f0ebbc79b5d101f45d2e916", "is_reserved": 0, "fusion_lon": 0.0, "lat": 38.9397845, "is_disabled": 0, "name": "56df763c5f0ebbc79b5d101f45d2e916", "fusion_lat": 0.0, "rental_uris": {"ios": "https://dc.lft.to/lastmile_qr_scan", "android": "https://dc.lft.to/lastmile_qr_scan"}, "lon": -77.02896966666667, "type": "electric_scooter"}, {"bike_id": "67688e3baa54f7026764f04d09606a97", "is_reserved": 0, "fusion_lon": 0.0, "lat": 38.892238666666664, "is_disabled": 0, "name": "67688e3baa54f7026764f04d09606a97", "fusion_lat": 0.0, "rental_uris": {"ios": "https://dc.lft.to/lastmile_qr_scan", "android": "https://dc.lft.to/lastmile_qr_scan"}, "lon": -77.03218983333333, "type": "electric_scooter"}, {"bike_id": "7070d30fb636dc83c8691fe83d2ba2f9", "is_reserved": 0, "fusion_lon": 0.0, "lat": 38.92445883333333, "is_disabled": 0, "name": "7070d30fb636dc83c8691fe83d2ba2f9", "fusion_lat": 0.0, "rental_uris": {"ios": "https://dc.lft.to/lastmile_qr_scan", "android": "https://dc.lft.to/lastmile_qr_scan"}, "lon": -77.034009, "type": "electric_scooter"}, {"bike_id": "4e3bfb1f93592dbb9e05cfb622bdf65f", "is_reserved": 0, "fusion_lon": 0.0, "lat": 38.920507666666666, "is_disabled": 0, "name": "4e3bfb1f93592dbb9e05cfb622bdf65f", "fusion_lat": 0.0, "rental_uris": {"ios": "https://dc.lft.to/lastmile_qr_scan", "android": "https://dc.lft.to/lastmile_qr_scan"}, "lon": -77.03391783333333, "type": "electric_scooter"}, {"bike_id": "8c869308aabfd81aed5ec5117d1f8e07", "is_reserved": 0, "fusion_lon": 0.0, "lat": 38.907686, "is_disabled": 0, "name": "8c869308aabfd81aed5ec5117d1f8e07", "fusion_lat": 0.0, "rental_uris": {"ios": "https://dc.lft.to/lastmile_qr_scan", "android": "https://dc.lft.to/lastmile_qr_scan"}, "lon": -77.069141, "type": "electric_scooter"}, {"bike_id": "9a5d6a8901150cf140bb9ee7e21f218d", "is_reserved": 0, "fusion_lon": 0.0, "lat": 38.88771333333333, "is_disabled": 0, "name": "9a5d6a8901150cf140bb9ee7e21f218d", "fusion_lat": 0.0, "rental_uris": {"ios": "https://dc.lft.to/lastmile_qr_scan", "android": "https://dc.lft.to/lastmile_qr_scan"}, "lon": -77.02231966666666, "type": "electric_scooter"}, {"bike_id": "f313f4ac5c308b9cc3756f95095ceee8", "is_reserved": 0, "fusion_lon": 0.0, "lat": 38.92664533333333, "is_disabled": 0, "name": "f313f4ac5c308b9cc3756f95095ceee8", "fusion_lat": 0.0, "rental_uris": {"ios": "https://dc.lft.to/lastmile_qr_scan", "android": "https://dc.lft.to/lastmile_qr_scan"}, "lon": -77.0148015, "type": "electric_scooter"}, {"bike_id": "c81b07ca89ad3884b8ddc20ecf328e45", "is_reserved": 0, "fusion_lon": 0.0, "lat": 38.86697316666667, "is_disabled": 0, "name": "c81b07ca89ad3884b8ddc20ecf328e45", "fusion_lat": 0.0, "rental_uris": {"ios": "https://dc.lft.to/lastmile_qr_scan", "android": "https://dc.lft.to/lastmile_qr_scan"}, "lon": -76.9871445, "type": "electric_scooter"}, {"bike_id": "8d2129508c7d774ab5b0c18c8d6c85fe", "is_reserved": 0, "fusion_lon": 0.0, "lat": 38.99940083333333, "is_disabled": 0, "name": "8d2129508c7d774ab5b0c18c8d6c85fe", "fusion_lat": 0.0, "rental_uris": {"ios": "https://dc.lft.to/lastmile_qr_scan", "android": "https://dc.lft.to/lastmile_qr_scan"}, "lon": -77.0176665, "type": "electric_bike"}, {"bike_id": "5fab203518e17fa91721a1f3f926c316", "is_reserved": 0, "fusion_lon": 0.0, "lat": 38.899551333333335, "is_disabled": 0, "name": "5fab203518e17fa91721a1f3f926c316", "fusion_lat": 0.0, "rental_uris": {"ios": "https://dc.lft.to/lastmile_qr_scan", "android": "https://dc.lft.to/lastmile_qr_scan"}, "lon": -77.03171566666667, "type": "electric_scooter"}, {"bike_id": "a7e1f34c5fba197fab0a6c4d9f0ac479", "is_reserved": 0, "fusion_lon": 0.0, "lat": 38.91921383333333, "is_disabled": 0, "name": "a7e1f34c5fba197fab0a6c4d9f0ac479", "fusion_lat": 0.0, "rental_uris": {"ios": "https://dc.lft.to/lastmile_qr_scan", "android": "https://dc.lft.to/lastmile_qr_scan"}, "lon": -77.03267716666667, "type": "electric_scooter"}, {"bike_id": "11729d17ee727b389be4161e541fb268", "is_reserved": 0, "fusion_lon": 0.0, "lat": 38.89887433333333, "is_disabled": 0, "name": "11729d17ee727b389be4161e541fb268", "fusion_lat": 0.0, "rental_uris": {"ios": "https://dc.lft.to/lastmile_qr_scan", "android": "https://dc.lft.to/lastmile_qr_scan"}, "lon": -77.03279116666667, "type": "electric_scooter"}, {"bike_id": "7ccbfd466d97cceaaf507403d61b23dc", "is_reserved": 0, "fusion_lon": 0.0, "lat": 38.893582, "is_disabled": 0, "name": "7ccbfd466d97cceaaf507403d61b23dc", "fusion_lat": 0.0, "rental_uris": {"ios": "https://dc.lft.to/lastmile_qr_scan", "android": "https://dc.lft.to/lastmile_qr_scan"}, "lon": -77.00335633333333, "type": "electric_scooter"}, {"bike_id": "2c140765e7835bd691784402b9927dce", "is_reserved": 0, "fusion_lon": 0.0, "lat": 38.966176, "is_disabled": 0, "name": "2c140765e7835bd691784402b9927dce", "fusion_lat": 0.0, "rental_uris": {"ios": "https://dc.lft.to/lastmile_qr_scan", "android": "https://dc.lft.to/lastmile_qr_scan"}, "lon": -76.94424416666666, "type": "electric_bike"}, {"bike_id": "7d819cb8f81833ac0f7deacd5593c615", "is_reserved": 0, "fusion_lon": 0.0, "lat": 38.9030105, "is_disabled": 0, "name": "7d819cb8f81833ac0f7deacd5593c615", "fusion_lat": 0.0, "rental_uris": {"ios": "https://dc.lft.to/lastmile_qr_scan", "android": "https://dc.lft.to/lastmile_qr_scan"}, "lon": -77.034539, "type": "electric_scooter"}, {"bike_id": "a928427de6bc820138fe2102bd8e99e5", "is_reserved": 0, "fusion_lon": 0.0, "lat": 38.892245, "is_disabled": 0, "name": "a928427de6bc820138fe2102bd8e99e5", "fusion_lat": 0.0, "rental_uris": {"ios": "https://dc.lft.to/lastmile_qr_scan", "android": "https://dc.lft.to/lastmile_qr_scan"}, "lon": -77.02620083333333, "type": "electric_scooter"}, {"bike_id": "6b32a884b6e898cb27d929b62aeadcad", "is_reserved": 0, "fusion_lon": 0.0, "lat": 38.90380533333333, "is_disabled": 0, "name": "6b32a884b6e898cb27d929b62aeadcad", "fusion_lat": 0.0, "rental_uris": {"ios": "https://dc.lft.to/lastmile_qr_scan", "android": "https://dc.lft.to/lastmile_qr_scan"}, "lon": -77.0385955, "type": "electric_scooter"}, {"bike_id": "3affc35c504738f10572884a94a1dadc", "is_reserved": 0, "fusion_lon": 0.0, "lat": 38.953556666666664, "is_disabled": 0, "name": "3affc35c504738f10572884a94a1dadc", "fusion_lat": 0.0, "rental_uris": {"ios": "https://dc.lft.to/lastmile_qr_scan", "android": "https://dc.lft.to/lastmile_qr_scan"}, "lon": -76.9809245, "type": "electric_bike"}, {"bike_id": "2d3bf9136141d7d43bbe49ea212edb3c", "is_reserved": 0, "fusion_lon": 0.0, "lat": 38.90528183333333, "is_disabled": 0, "name": "2d3bf9136141d7d43bbe49ea212edb3c", "fusion_lat": 0.0, "rental_uris": {"ios": "https://dc.lft.to/lastmile_qr_scan", "android": "https://dc.lft.to/lastmile_qr_scan"}, "lon": -77.059673, "type": "electric_scooter"}, {"bike_id": "ff4f0c20e87830251662dea03583ca7a", "is_reserved": 0, "fusion_lon": 0.0, "lat": 38.871469166666664, "is_disabled": 0, "name": "ff4f0c20e87830251662dea03583ca7a", "fusion_lat": 0.0, "rental_uris": {"ios": "https://dc.lft.to/lastmile_qr_scan", "android": "https://dc.lft.to/lastmile_qr_scan"}, "lon": -76.93668616666666, "type": "electric_bike"}, {"bike_id": "7e0376833d50711487f09489b5355246", "is_reserved": 0, "fusion_lon": 0.0, "lat": 38.893967, "is_disabled": 0, "name": "7e0376833d50711487f09489b5355246", "fusion_lat": 0.0, "rental_uris": {"ios": "https://dc.lft.to/lastmile_qr_scan", "android": "https://dc.lft.to/lastmile_qr_scan"}, "lon": -76.9936735, "type": "electric_scooter"}, {"bike_id": "eef133319386d43c6f250f2f63ec40c5", "is_reserved": 0, "fusion_lon": 0.0, "lat": 38.88454516666667, "is_disabled": 0, "name": "eef133319386d43c6f250f2f63ec40c5", "fusion_lat": 0.0, "rental_uris": {"ios": "https://dc.lft.to/lastmile_qr_scan", "android": "https://dc.lft.to/lastmile_qr_scan"}, "lon": -77.00574766666666, "type": "electric_scooter"}, {"bike_id": "69a7b6d5ab7e36237dce4b6dec9dc7ae", "is_reserved": 0, "fusion_lon": 0.0, "lat": 38.9427385, "is_disabled": 0, "name": "69a7b6d5ab7e36237dce4b6dec9dc7ae", "fusion_lat": 0.0, "rental_uris": {"ios": "https://dc.lft.to/lastmile_qr_scan", "android": "https://dc.lft.to/lastmile_qr_scan"}, "lon": -76.980746, "type": "electric_bike"}, {"bike_id": "7b79c82f25f2b1c11ba11e5277436af3", "is_reserved": 0, "fusion_lon": 0.0, "lat": 38.87653816666667, "is_disabled": 0, "name": "7b79c82f25f2b1c11ba11e5277436af3", "fusion_lat": 0.0, "rental_uris": {"ios": "https://dc.lft.to/lastmile_qr_scan", "android": "https://dc.lft.to/lastmile_qr_scan"}, "lon": -77.00066883333334, "type": "electric_scooter"}, {"bike_id": "ccc7da10692affa9e7bbd29e56cf3c5a", "is_reserved": 0, "fusion_lon": 0.0, "lat": 38.897625, "is_disabled": 0, "name": "ccc7da10692affa9e7bbd29e56cf3c5a", "fusion_lat": 0.0, "rental_uris": {"ios": "https://dc.lft.to/lastmile_qr_scan", "android": "https://dc.lft.to/lastmile_qr_scan"}, "lon": -77.03356316666667, "type": "electric_scooter"}, {"bike_id": "c49cda881acc676f7dd93a3e05014059", "is_reserved": 0, "fusion_lon": 0.0, "lat": 38.906456666666664, "is_disabled": 0, "name": "c49cda881acc676f7dd93a3e05014059", "fusion_lat": 0.0, "rental_uris": {"ios": "https://dc.lft.to/lastmile_qr_scan", "android": "https://dc.lft.to/lastmile_qr_scan"}, "lon": -77.0059395, "type": "electric_scooter"}, {"bike_id": "4260d08000fa1fd7b3a92b143d1ab780", "is_reserved": 0, "fusion_lon": 0.0, "lat": 38.89252666666667, "is_disabled": 0, "name": "4260d08000fa1fd7b3a92b143d1ab780", "fusion_lat": 0.0, "rental_uris": {"ios": "https://dc.lft.to/lastmile_qr_scan", "android": "https://dc.lft.to/lastmile_qr_scan"}, "lon": -76.9434195, "type": "electric_scooter"}, {"bike_id": "9a5a9c2ea9d93cd0103a9da41bc34bcc", "is_reserved": 0, "fusion_lon": 0.0, "lat": 38.903986, "is_disabled": 0, "name": "9a5a9c2ea9d93cd0103a9da41bc34bcc", "fusion_lat": 0.0, "rental_uris": {"ios": "https://dc.lft.to/lastmile_qr_scan", "android": "https://dc.lft.to/lastmile_qr_scan"}, "lon": -77.03856683333333, "type": "electric_scooter"}, {"bike_id": "aff1cd32f697ca15d75feeb1a5683d32", "is_reserved": 0, "fusion_lon": 0.0, "lat": 38.934495166666665, "is_disabled": 0, "name": "aff1cd32f697ca15d75feeb1a5683d32", "fusion_lat": 0.0, "rental_uris": {"ios": "https://dc.lft.to/lastmile_qr_scan", "android": "https://dc.lft.to/lastmile_qr_scan"}, "lon": -77.07231533333334, "type": "electric_scooter"}, {"bike_id": "2b92c4d2bb81c5171a3643741fa48710", "is_reserved": 0, "fusion_lon": 0.0, "lat": 38.91723483333333, "is_disabled": 0, "name": "2b92c4d2bb81c5171a3643741fa48710", "fusion_lat": 0.0, "rental_uris": {"ios": "https://dc.lft.to/lastmile_qr_scan", "android": "https://dc.lft.to/lastmile_qr_scan"}, "lon": -77.029784, "type": "electric_scooter"}, {"bike_id": "d93e6b1a5abbea498c7437a41c545857", "is_reserved": 0, "fusion_lon": 0.0, "lat": 38.894709, "is_disabled": 0, "name": "d93e6b1a5abbea498c7437a41c545857", "fusion_lat": 0.0, "rental_uris": {"ios": "https://dc.lft.to/lastmile_qr_scan", "android": "https://dc.lft.to/lastmile_qr_scan"}, "lon": -77.01753816666667, "type": "electric_scooter"}, {"bike_id": "67c9ea5a1f51a0395d2eab551f6dabce", "is_reserved": 0, "fusion_lon": 0.0, "lat": 38.93861583333333, "is_disabled": 0, "name": "67c9ea5a1f51a0395d2eab551f6dabce", "fusion_lat": 0.0, "rental_uris": {"ios": "https://dc.lft.to/lastmile_qr_scan", "android": "https://dc.lft.to/lastmile_qr_scan"}, "lon": -77.02648566666667, "type": "electric_scooter"}, {"bike_id": "525642d13bb1c8021fa831271e58dfa5", "is_reserved": 0, "fusion_lon": 0.0, "lat": 38.89604583333333, "is_disabled": 0, "name": "525642d13bb1c8021fa831271e58dfa5", "fusion_lat": 0.0, "rental_uris": {"ios": "https://dc.lft.to/lastmile_qr_scan", "android": "https://dc.lft.to/lastmile_qr_scan"}, "lon": -77.044579, "type": "electric_scooter"}, {"bike_id": "d91b25d0e3ab8fd30e45e019a60fc9ef", "is_reserved": 0, "fusion_lon": 0.0, "lat": 38.891958333333335, "is_disabled": 0, "name": "d91b25d0e3ab8fd30e45e019a60fc9ef", "fusion_lat": 0.0, "rental_uris": {"ios": "https://dc.lft.to/lastmile_qr_scan", "android": "https://dc.lft.to/lastmile_qr_scan"}, "lon": -77.02837133333334, "type": "electric_scooter"}, {"bike_id": "c7c17812b4ee26b7187a2bfc64ed373d", "is_reserved": 0, "fusion_lon": 0.0, "lat": 38.88317383333333, "is_disabled": 0, "name": "c7c17812b4ee26b7187a2bfc64ed373d", "fusion_lat": 0.0, "rental_uris": {"ios": "https://dc.lft.to/lastmile_qr_scan", "android": "https://dc.lft.to/lastmile_qr_scan"}, "lon": -77.00940133333333, "type": "electric_scooter"}, {"bike_id": "702db947de030ade5809c9f69d0a06b6", "is_reserved": 0, "fusion_lon": 0.0, "lat": 38.90566783333333, "is_disabled": 0, "name": "702db947de030ade5809c9f69d0a06b6", "fusion_lat": 0.0, "rental_uris": {"ios": "https://dc.lft.to/lastmile_qr_scan", "android": "https://dc.lft.to/lastmile_qr_scan"}, "lon": -77.038289, "type": "electric_scooter"}, {"bike_id": "b6d693b0dd8057c078e71f55e6fa1876", "is_reserved": 0, "fusion_lon": 0.0, "lat": 38.8873935, "is_disabled": 0, "name": "b6d693b0dd8057c078e71f55e6fa1876", "fusion_lat": 0.0, "rental_uris": {"ios": "https://dc.lft.to/lastmile_qr_scan", "android": "https://dc.lft.to/lastmile_qr_scan"}, "lon": -77.01536966666667, "type": "electric_scooter"}, {"bike_id": "1beb4ed05755b73dd21d572b2dce0551", "is_reserved": 0, "fusion_lon": 0.0, "lat": 38.903304166666665, "is_disabled": 0, "name": "1beb4ed05755b73dd21d572b2dce0551", "fusion_lat": 0.0, "rental_uris": {"ios": "https://dc.lft.to/lastmile_qr_scan", "android": "https://dc.lft.to/lastmile_qr_scan"}, "lon": -77.037773, "type": "electric_scooter"}, {"bike_id": "b651181cf667b41fe5a85a438a2dacc4", "is_reserved": 0, "fusion_lon": 0.0, "lat": 38.897820333333335, "is_disabled": 0, "name": "b651181cf667b41fe5a85a438a2dacc4", "fusion_lat": 0.0, "rental_uris": {"ios": "https://dc.lft.to/lastmile_qr_scan", "android": "https://dc.lft.to/lastmile_qr_scan"}, "lon": -77.007241, "type": "electric_scooter"}, {"bike_id": "e5c93ac885354ec7eb0a8904288895c9", "is_reserved": 0, "fusion_lon": 0.0, "lat": 38.9061265, "is_disabled": 0, "name": "e5c93ac885354ec7eb0a8904288895c9", "fusion_lat": 0.0, "rental_uris": {"ios": "https://dc.lft.to/lastmile_qr_scan", "android": "https://dc.lft.to/lastmile_qr_scan"}, "lon": -77.03960316666667, "type": "electric_scooter"}, {"bike_id": "d26e26ae326bba2d0c67effa7f25470f", "is_reserved": 0, "fusion_lon": 0.0, "lat": 38.902786666666664, "is_disabled": 0, "name": "d26e26ae326bba2d0c67effa7f25470f", "fusion_lat": 0.0, "rental_uris": {"ios": "https://dc.lft.to/lastmile_qr_scan", "android": "https://dc.lft.to/lastmile_qr_scan"}, "lon": -77.03844233333334, "type": "electric_scooter"}, {"bike_id": "8ad5315a0e400031f644aea9eb66a248", "is_reserved": 0, "fusion_lon": 0.0, "lat": 38.93892233333333, "is_disabled": 0, "name": "8ad5315a0e400031f644aea9eb66a248", "fusion_lat": 0.0, "rental_uris": {"ios": "https://dc.lft.to/lastmile_qr_scan", "android": "https://dc.lft.to/lastmile_qr_scan"}, "lon": -77.03351966666666, "type": "electric_scooter"}, {"bike_id": "bc4b40842f4f9dfd9baa1342182ef7cf", "is_reserved": 0, "fusion_lon": 0.0, "lat": 38.920399833333335, "is_disabled": 0, "name": "bc4b40842f4f9dfd9baa1342182ef7cf", "fusion_lat": 0.0, "rental_uris": {"ios": "https://dc.lft.to/lastmile_qr_scan", "android": "https://dc.lft.to/lastmile_qr_scan"}, "lon": -76.97908766666667, "type": "electric_scooter"}, {"bike_id": "8e7ccf3b93bfb7838ddbc0c12745c596", "is_reserved": 0, "fusion_lon": 0.0, "lat": 38.9397735, "is_disabled": 0, "name": "8e7ccf3b93bfb7838ddbc0c12745c596", "fusion_lat": 0.0, "rental_uris": {"ios": "https://dc.lft.to/lastmile_qr_scan", "android": "https://dc.lft.to/lastmile_qr_scan"}, "lon": -77.0302925, "type": "electric_scooter"}, {"bike_id": "de71a5bf170b1db5d76a10602a0646b6", "is_reserved": 0, "fusion_lon": 0.0, "lat": 38.9215015, "is_disabled": 0, "name": "de71a5bf170b1db5d76a10602a0646b6", "fusion_lat": 0.0, "rental_uris": {"ios": "https://dc.lft.to/lastmile_qr_scan", "android": "https://dc.lft.to/lastmile_qr_scan"}, "lon": -77.0353085, "type": "electric_scooter"}, {"bike_id": "28671c56c77e1612e0522e5c3c7eac45", "is_reserved": 0, "fusion_lon": 0.0, "lat": 38.89910066666667, "is_disabled": 0, "name": "28671c56c77e1612e0522e5c3c7eac45", "fusion_lat": 0.0, "rental_uris": {"ios": "https://dc.lft.to/lastmile_qr_scan", "android": "https://dc.lft.to/lastmile_qr_scan"}, "lon": -77.04661466666667, "type": "electric_scooter"}, {"bike_id": "14edc85c1ed520cda4b63528874325fe", "is_reserved": 0, "fusion_lon": 0.0, "lat": 38.884944833333336, "is_disabled": 0, "name": "14edc85c1ed520cda4b63528874325fe", "fusion_lat": 0.0, "rental_uris": {"ios": "https://dc.lft.to/lastmile_qr_scan", "android": "https://dc.lft.to/lastmile_qr_scan"}, "lon": -77.00714783333333, "type": "electric_scooter"}, {"bike_id": "3128b6836a5434c4c79ae12d3285ed7c", "is_reserved": 0, "fusion_lon": 0.0, "lat": 38.91848516666667, "is_disabled": 0, "name": "3128b6836a5434c4c79ae12d3285ed7c", "fusion_lat": 0.0, "rental_uris": {"ios": "https://dc.lft.to/lastmile_qr_scan", "android": "https://dc.lft.to/lastmile_qr_scan"}, "lon": -77.02308133333334, "type": "electric_scooter"}, {"bike_id": "438eed76187cc4676779aa5e03587548", "is_reserved": 0, "fusion_lon": 0.0, "lat": 38.90334383333333, "is_disabled": 0, "name": "438eed76187cc4676779aa5e03587548", "fusion_lat": 0.0, "rental_uris": {"ios": "https://dc.lft.to/lastmile_qr_scan", "android": "https://dc.lft.to/lastmile_qr_scan"}, "lon": -77.046504, "type": "electric_scooter"}, {"bike_id": "d3507a593a9bfd3624ee6d21f5075da7", "is_reserved": 0, "fusion_lon": 0.0, "lat": 38.88507283333333, "is_disabled": 0, "name": "d3507a593a9bfd3624ee6d21f5075da7", "fusion_lat": 0.0, "rental_uris": {"ios": "https://dc.lft.to/lastmile_qr_scan", "android": "https://dc.lft.to/lastmile_qr_scan"}, "lon": -77.00564883333334, "type": "electric_scooter"}, {"bike_id": "b461e4e26dca23d2155a745d259ef7f0", "is_reserved": 0, "fusion_lon": 0.0, "lat": 38.89803533333333, "is_disabled": 0, "name": "b461e4e26dca23d2155a745d259ef7f0", "fusion_lat": 0.0, "rental_uris": {"ios": "https://dc.lft.to/lastmile_qr_scan", "android": "https://dc.lft.to/lastmile_qr_scan"}, "lon": -77.02958883333334, "type": "electric_scooter"}, {"bike_id": "5551fafbfdaafeccc0bea65cbbdc50dd", "is_reserved": 0, "fusion_lon": 0.0, "lat": 38.885768666666664, "is_disabled": 0, "name": "5551fafbfdaafeccc0bea65cbbdc50dd", "fusion_lat": 0.0, "rental_uris": {"ios": "https://dc.lft.to/lastmile_qr_scan", "android": "https://dc.lft.to/lastmile_qr_scan"}, "lon": -77.01542683333334, "type": "electric_scooter"}, {"bike_id": "eadc44a778221d8f32b23c6983a0779c", "is_reserved": 0, "fusion_lon": 0.0, "lat": 38.9043235, "is_disabled": 0, "name": "eadc44a778221d8f32b23c6983a0779c", "fusion_lat": 0.0, "rental_uris": {"ios": "https://dc.lft.to/lastmile_qr_scan", "android": "https://dc.lft.to/lastmile_qr_scan"}, "lon": -77.02888483333334, "type": "electric_scooter"}, {"bike_id": "540f837574ffd7e9981156516e6baf17", "is_reserved": 0, "fusion_lon": 0.0, "lat": 38.92568516666667, "is_disabled": 0, "name": "540f837574ffd7e9981156516e6baf17", "fusion_lat": 0.0, "rental_uris": {"ios": "https://dc.lft.to/lastmile_qr_scan", "android": "https://dc.lft.to/lastmile_qr_scan"}, "lon": -77.03917566666667, "type": "electric_scooter"}, {"bike_id": "e055a9a1788c19126130449d12808486", "is_reserved": 0, "fusion_lon": 0.0, "lat": 38.9279645, "is_disabled": 0, "name": "e055a9a1788c19126130449d12808486", "fusion_lat": 0.0, "rental_uris": {"ios": "https://dc.lft.to/lastmile_qr_scan", "android": "https://dc.lft.to/lastmile_qr_scan"}, "lon": -77.05533366666667, "type": "electric_scooter"}, {"bike_id": "b86285a5ba31e8a481af096ebe75baed", "is_reserved": 0, "fusion_lon": 0.0, "lat": 38.89846416666666, "is_disabled": 0, "name": "b86285a5ba31e8a481af096ebe75baed", "fusion_lat": 0.0, "rental_uris": {"ios": "https://dc.lft.to/lastmile_qr_scan", "android": "https://dc.lft.to/lastmile_qr_scan"}, "lon": -77.0327485, "type": "electric_scooter"}, {"bike_id": "5a405e522c13cae035fad1f3c06d7c20", "is_reserved": 0, "fusion_lon": 0.0, "lat": 38.9159285, "is_disabled": 0, "name": "5a405e522c13cae035fad1f3c06d7c20", "fusion_lat": 0.0, "rental_uris": {"ios": "https://dc.lft.to/lastmile_qr_scan", "android": "https://dc.lft.to/lastmile_qr_scan"}, "lon": -76.98380966666667, "type": "electric_scooter"}, {"bike_id": "60be14ed8368580cb1203f261656702d", "is_reserved": 0, "fusion_lon": 0.0, "lat": 38.89771283333333, "is_disabled": 0, "name": "60be14ed8368580cb1203f261656702d", "fusion_lat": 0.0, "rental_uris": {"ios": "https://dc.lft.to/lastmile_qr_scan", "android": "https://dc.lft.to/lastmile_qr_scan"}, "lon": -77.03010366666666, "type": "electric_scooter"}, {"bike_id": "3e6deb5db46db24f452ec98188152005", "is_reserved": 0, "fusion_lon": 0.0, "lat": 38.925627666666664, "is_disabled": 0, "name": "3e6deb5db46db24f452ec98188152005", "fusion_lat": 0.0, "rental_uris": {"ios": "https://dc.lft.to/lastmile_qr_scan", "android": "https://dc.lft.to/lastmile_qr_scan"}, "lon": -77.03909833333333, "type": "electric_scooter"}, {"bike_id": "b763906d510d8fccdf831fcc3fd6c22e", "is_reserved": 0, "fusion_lon": 0.0, "lat": 38.90288916666667, "is_disabled": 0, "name": "b763906d510d8fccdf831fcc3fd6c22e", "fusion_lat": 0.0, "rental_uris": {"ios": "https://dc.lft.to/lastmile_qr_scan", "android": "https://dc.lft.to/lastmile_qr_scan"}, "lon": -77.039339, "type": "electric_scooter"}, {"bike_id": "fbbe75ec85a409b8d75e73da0054f064", "is_reserved": 0, "fusion_lon": 0.0, "lat": 38.88320733333333, "is_disabled": 0, "name": "fbbe75ec85a409b8d75e73da0054f064", "fusion_lat": 0.0, "rental_uris": {"ios": "https://dc.lft.to/lastmile_qr_scan", "android": "https://dc.lft.to/lastmile_qr_scan"}, "lon": -77.01752966666666, "type": "electric_scooter"}, {"bike_id": "a4c79120af236c2176992f005fda7ae2", "is_reserved": 0, "fusion_lon": 0.0, "lat": 38.9170535, "is_disabled": 0, "name": "a4c79120af236c2176992f005fda7ae2", "fusion_lat": 0.0, "rental_uris": {"ios": "https://dc.lft.to/lastmile_qr_scan", "android": "https://dc.lft.to/lastmile_qr_scan"}, "lon": -77.0310675, "type": "electric_scooter"}, {"bike_id": "6977115909ea574b40b71ea3b13a1405", "is_reserved": 0, "fusion_lon": 0.0, "lat": 38.9200925, "is_disabled": 0, "name": "6977115909ea574b40b71ea3b13a1405", "fusion_lat": 0.0, "rental_uris": {"ios": "https://dc.lft.to/lastmile_qr_scan", "android": "https://dc.lft.to/lastmile_qr_scan"}, "lon": -77.03784133333333, "type": "electric_scooter"}, {"bike_id": "28345ed2a43e6a0891d81193a6974f92", "is_reserved": 0, "fusion_lon": 0.0, "lat": 38.88430983333333, "is_disabled": 0, "name": "28345ed2a43e6a0891d81193a6974f92", "fusion_lat": 0.0, "rental_uris": {"ios": "https://dc.lft.to/lastmile_qr_scan", "android": "https://dc.lft.to/lastmile_qr_scan"}, "lon": -76.95753483333333, "type": "electric_scooter"}, {"bike_id": "a4b280107645454cd04265d70f1c2187", "is_reserved": 0, "fusion_lon": 0.0, "lat": 38.91351683333333, "is_disabled": 0, "name": "a4b280107645454cd04265d70f1c2187", "fusion_lat": 0.0, "rental_uris": {"ios": "https://dc.lft.to/lastmile_qr_scan", "android": "https://dc.lft.to/lastmile_qr_scan"}, "lon": -77.043521, "type": "electric_scooter"}, {"bike_id": "a003b229b311c935016d2d8846e86962", "is_reserved": 0, "fusion_lon": 0.0, "lat": 38.88770383333333, "is_disabled": 0, "name": "a003b229b311c935016d2d8846e86962", "fusion_lat": 0.0, "rental_uris": {"ios": "https://dc.lft.to/lastmile_qr_scan", "android": "https://dc.lft.to/lastmile_qr_scan"}, "lon": -77.022295, "type": "electric_scooter"}, {"bike_id": "dc654f909377be2a6b13d16a224a2bbf", "is_reserved": 0, "fusion_lon": 0.0, "lat": 38.9036315, "is_disabled": 0, "name": "dc654f909377be2a6b13d16a224a2bbf", "fusion_lat": 0.0, "rental_uris": {"ios": "https://dc.lft.to/lastmile_qr_scan", "android": "https://dc.lft.to/lastmile_qr_scan"}, "lon": -77.03312283333334, "type": "electric_scooter"}, {"bike_id": "690c4a882b60795d1f8597adf1b2b45c", "is_reserved": 0, "fusion_lon": 0.0, "lat": 38.90060583333333, "is_disabled": 0, "name": "690c4a882b60795d1f8597adf1b2b45c", "fusion_lat": 0.0, "rental_uris": {"ios": "https://dc.lft.to/lastmile_qr_scan", "android": "https://dc.lft.to/lastmile_qr_scan"}, "lon": -76.93387733333333, "type": "electric_scooter"}, {"bike_id": "a96de78a4c3db685aa6eaabfa7eae777", "is_reserved": 0, "fusion_lon": 0.0, "lat": 38.9907615, "is_disabled": 0, "name": "a96de78a4c3db685aa6eaabfa7eae777", "fusion_lat": 0.0, "rental_uris": {"ios": "https://dc.lft.to/lastmile_qr_scan", "android": "https://dc.lft.to/lastmile_qr_scan"}, "lon": -76.8747215, "type": "electric_bike"}, {"bike_id": "6a470447fb133375f7f425bfaab32a5f", "is_reserved": 0, "fusion_lon": 0.0, "lat": 38.90568283333333, "is_disabled": 0, "name": "6a470447fb133375f7f425bfaab32a5f", "fusion_lat": 0.0, "rental_uris": {"ios": "https://dc.lft.to/lastmile_qr_scan", "android": "https://dc.lft.to/lastmile_qr_scan"}, "lon": -77.0346825, "type": "electric_scooter"}, {"bike_id": "50c51347b99c953cd80a02358cdd1f67", "is_reserved": 0, "fusion_lon": 0.0, "lat": 38.86703083333333, "is_disabled": 0, "name": "50c51347b99c953cd80a02358cdd1f67", "fusion_lat": 0.0, "rental_uris": {"ios": "https://dc.lft.to/lastmile_qr_scan", "android": "https://dc.lft.to/lastmile_qr_scan"}, "lon": -76.98713133333334, "type": "electric_scooter"}, {"bike_id": "66804f63cf3f614836f5407b94349762", "is_reserved": 0, "fusion_lon": 0.0, "lat": 38.9311, "is_disabled": 0, "name": "66804f63cf3f614836f5407b94349762", "fusion_lat": 0.0, "rental_uris": {"ios": "https://dc.lft.to/lastmile_qr_scan", "android": "https://dc.lft.to/lastmile_qr_scan"}, "lon": -77.018512, "type": "electric_scooter"}, {"bike_id": "d78e0a487743503d31e773b5745ef2fd", "is_reserved": 0, "fusion_lon": 0.0, "lat": 38.92778033333333, "is_disabled": 0, "name": "d78e0a487743503d31e773b5745ef2fd", "fusion_lat": 0.0, "rental_uris": {"ios": "https://dc.lft.to/lastmile_qr_scan", "android": "https://dc.lft.to/lastmile_qr_scan"}, "lon": -77.02786166666667, "type": "electric_scooter"}, {"bike_id": "90ba9668f4283fb3a49d644c8ffc7470", "is_reserved": 0, "fusion_lon": 0.0, "lat": 38.9229415, "is_disabled": 0, "name": "90ba9668f4283fb3a49d644c8ffc7470", "fusion_lat": 0.0, "rental_uris": {"ios": "https://dc.lft.to/lastmile_qr_scan", "android": "https://dc.lft.to/lastmile_qr_scan"}, "lon": -77.02082, "type": "electric_scooter"}, {"bike_id": "b44d8ef6c63b7643e9efa9aa3925a234", "is_reserved": 0, "fusion_lon": 0.0, "lat": 38.91329116666667, "is_disabled": 0, "name": "b44d8ef6c63b7643e9efa9aa3925a234", "fusion_lat": 0.0, "rental_uris": {"ios": "https://dc.lft.to/lastmile_qr_scan", "android": "https://dc.lft.to/lastmile_qr_scan"}, "lon": -77.03046516666667, "type": "electric_scooter"}, {"bike_id": "7982fad8ae4f5b4eb6f813ffb8e6ee56", "is_reserved": 0, "fusion_lon": 0.0, "lat": 38.905350166666665, "is_disabled": 0, "name": "7982fad8ae4f5b4eb6f813ffb8e6ee56", "fusion_lat": 0.0, "rental_uris": {"ios": "https://dc.lft.to/lastmile_qr_scan", "android": "https://dc.lft.to/lastmile_qr_scan"}, "lon": -76.99810266666667, "type": "electric_bike"}, {"bike_id": "228dc24d9c5c6956cb698d7840e4fd13", "is_reserved": 0, "fusion_lon": 0.0, "lat": 38.907457666666666, "is_disabled": 0, "name": "228dc24d9c5c6956cb698d7840e4fd13", "fusion_lat": 0.0, "rental_uris": {"ios": "https://dc.lft.to/lastmile_qr_scan", "android": "https://dc.lft.to/lastmile_qr_scan"}, "lon": -77.03472866666667, "type": "electric_scooter"}, {"bike_id": "12da8227f8567d63007d8a0e9be0ee11", "is_reserved": 0, "fusion_lon": 0.0, "lat": 38.90022583333333, "is_disabled": 0, "name": "12da8227f8567d63007d8a0e9be0ee11", "fusion_lat": 0.0, "rental_uris": {"ios": "https://dc.lft.to/lastmile_qr_scan", "android": "https://dc.lft.to/lastmile_qr_scan"}, "lon": -77.02601133333333, "type": "electric_scooter"}, {"bike_id": "df81ee1e2f241510a65f15dd5114cf79", "is_reserved": 0, "fusion_lon": 0.0, "lat": 38.891998666666666, "is_disabled": 0, "name": "df81ee1e2f241510a65f15dd5114cf79", "fusion_lat": 0.0, "rental_uris": {"ios": "https://dc.lft.to/lastmile_qr_scan", "android": "https://dc.lft.to/lastmile_qr_scan"}, "lon": -77.02380966666666, "type": "electric_scooter"}, {"bike_id": "279df97e7478d0e9252f9fc6c11b533c", "is_reserved": 0, "fusion_lon": 0.0, "lat": 38.872579, "is_disabled": 0, "name": "279df97e7478d0e9252f9fc6c11b533c", "fusion_lat": 0.0, "rental_uris": {"ios": "https://dc.lft.to/lastmile_qr_scan", "android": "https://dc.lft.to/lastmile_qr_scan"}, "lon": -76.97909583333333, "type": "electric_bike"}, {"bike_id": "a559b3060c1e4021903ded7e2fefbf49", "is_reserved": 0, "fusion_lon": 0.0, "lat": 38.888917666666664, "is_disabled": 0, "name": "a559b3060c1e4021903ded7e2fefbf49", "fusion_lat": 0.0, "rental_uris": {"ios": "https://dc.lft.to/lastmile_qr_scan", "android": "https://dc.lft.to/lastmile_qr_scan"}, "lon": -77.01554316666666, "type": "electric_scooter"}, {"bike_id": "6bf81c9ad815d32c73cfc560d3cbeff6", "is_reserved": 0, "fusion_lon": 0.0, "lat": 38.921513, "is_disabled": 0, "name": "6bf81c9ad815d32c73cfc560d3cbeff6", "fusion_lat": 0.0, "rental_uris": {"ios": "https://dc.lft.to/lastmile_qr_scan", "android": "https://dc.lft.to/lastmile_qr_scan"}, "lon": -77.035322, "type": "electric_scooter"}, {"bike_id": "561d6e70a0e58ff7572cbd7900dffa4f", "is_reserved": 0, "fusion_lon": 0.0, "lat": 38.900028666666664, "is_disabled": 0, "name": "561d6e70a0e58ff7572cbd7900dffa4f", "fusion_lat": 0.0, "rental_uris": {"ios": "https://dc.lft.to/lastmile_qr_scan", "android": "https://dc.lft.to/lastmile_qr_scan"}, "lon": -76.99773833333333, "type": "electric_scooter"}, {"bike_id": "ce95313dbd553c2d7da3fe701472066f", "is_reserved": 0, "fusion_lon": 0.0, "lat": 39.094612, "is_disabled": 0, "name": "ce95313dbd553c2d7da3fe701472066f", "fusion_lat": 0.0, "rental_uris": {"ios": "https://dc.lft.to/lastmile_qr_scan", "android": "https://dc.lft.to/lastmile_qr_scan"}, "lon": -77.14994766666666, "type": "electric_bike"}, {"bike_id": "d2868d336e3248438256a51934fcc7b0", "is_reserved": 0, "fusion_lon": 0.0, "lat": 38.89844333333333, "is_disabled": 0, "name": "d2868d336e3248438256a51934fcc7b0", "fusion_lat": 0.0, "rental_uris": {"ios": "https://dc.lft.to/lastmile_qr_scan", "android": "https://dc.lft.to/lastmile_qr_scan"}, "lon": -76.94480633333333, "type": "electric_scooter"}, {"bike_id": "5824eeb05a44f176639aa241c5cd0738", "is_reserved": 0, "fusion_lon": 0.0, "lat": 38.90366266666667, "is_disabled": 0, "name": "5824eeb05a44f176639aa241c5cd0738", "fusion_lat": 0.0, "rental_uris": {"ios": "https://dc.lft.to/lastmile_qr_scan", "android": "https://dc.lft.to/lastmile_qr_scan"}, "lon": -77.04518416666667, "type": "electric_scooter"}, {"bike_id": "c5e762f98e9a3a45f7081593e37c2f30", "is_reserved": 0, "fusion_lon": 0.0, "lat": 38.82786333333333, "is_disabled": 0, "name": "c5e762f98e9a3a45f7081593e37c2f30", "fusion_lat": 0.0, "rental_uris": {"ios": "https://dc.lft.to/lastmile_qr_scan", "android": "https://dc.lft.to/lastmile_qr_scan"}, "lon": -77.00902216666667, "type": "electric_bike"}, {"bike_id": "a6916c4bebd16ac461a8388baea116f4", "is_reserved": 0, "fusion_lon": 0.0, "lat": 38.86933, "is_disabled": 0, "name": "a6916c4bebd16ac461a8388baea116f4", "fusion_lat": 0.0, "rental_uris": {"ios": "https://dc.lft.to/lastmile_qr_scan", "android": "https://dc.lft.to/lastmile_qr_scan"}, "lon": -76.96015583333333, "type": "electric_bike"}, {"bike_id": "c4ee948fad0f1ca26a9515c08608f4f6", "is_reserved": 0, "fusion_lon": 0.0, "lat": 38.92485633333333, "is_disabled": 0, "name": "c4ee948fad0f1ca26a9515c08608f4f6", "fusion_lat": 0.0, "rental_uris": {"ios": "https://dc.lft.to/lastmile_qr_scan", "android": "https://dc.lft.to/lastmile_qr_scan"}, "lon": -77.02845933333333, "type": "electric_scooter"}, {"bike_id": "fff00b0b059a69ba30d872595ec30595", "is_reserved": 0, "fusion_lon": 0.0, "lat": 38.913761666666666, "is_disabled": 0, "name": "fff00b0b059a69ba30d872595ec30595", "fusion_lat": 0.0, "rental_uris": {"ios": "https://dc.lft.to/lastmile_qr_scan", "android": "https://dc.lft.to/lastmile_qr_scan"}, "lon": -77.008277, "type": "electric_scooter"}, {"bike_id": "716cfa119331daad1efe2287a6e12587", "is_reserved": 0, "fusion_lon": 0.0, "lat": 38.90384533333334, "is_disabled": 0, "name": "716cfa119331daad1efe2287a6e12587", "fusion_lat": 0.0, "rental_uris": {"ios": "https://dc.lft.to/lastmile_qr_scan", "android": "https://dc.lft.to/lastmile_qr_scan"}, "lon": -77.03202266666666, "type": "electric_scooter"}, {"bike_id": "d6123c33bd14357a70dfc6249d07dceb", "is_reserved": 0, "fusion_lon": 0.0, "lat": 38.9518445, "is_disabled": 0, "name": "d6123c33bd14357a70dfc6249d07dceb", "fusion_lat": 0.0, "rental_uris": {"ios": "https://dc.lft.to/lastmile_qr_scan", "android": "https://dc.lft.to/lastmile_qr_scan"}, "lon": -76.93544666666666, "type": "electric_bike"}, {"bike_id": "5c3483f48895e2f4b61fb55a42c5deaa", "is_reserved": 0, "fusion_lon": 0.0, "lat": 38.91260316666666, "is_disabled": 0, "name": "5c3483f48895e2f4b61fb55a42c5deaa", "fusion_lat": 0.0, "rental_uris": {"ios": "https://dc.lft.to/lastmile_qr_scan", "android": "https://dc.lft.to/lastmile_qr_scan"}, "lon": -77.03625933333333, "type": "electric_scooter"}, {"bike_id": "66c37529d138a5052bcf252bccb11509", "is_reserved": 0, "fusion_lon": 0.0, "lat": 38.88597716666666, "is_disabled": 0, "name": "66c37529d138a5052bcf252bccb11509", "fusion_lat": 0.0, "rental_uris": {"ios": "https://dc.lft.to/lastmile_qr_scan", "android": "https://dc.lft.to/lastmile_qr_scan"}, "lon": -77.017668, "type": "electric_scooter"}, {"bike_id": "ad156c737f6419464ea37e627dc78897", "is_reserved": 0, "fusion_lon": 0.0, "lat": 38.863674333333336, "is_disabled": 0, "name": "ad156c737f6419464ea37e627dc78897", "fusion_lat": 0.0, "rental_uris": {"ios": "https://dc.lft.to/lastmile_qr_scan", "android": "https://dc.lft.to/lastmile_qr_scan"}, "lon": -76.99044983333333, "type": "electric_scooter"}, {"bike_id": "d8f476ee67d3462fa39f2baf2259c292", "is_reserved": 0, "fusion_lon": 0.0, "lat": 38.90258983333333, "is_disabled": 0, "name": "d8f476ee67d3462fa39f2baf2259c292", "fusion_lat": 0.0, "rental_uris": {"ios": "https://dc.lft.to/lastmile_qr_scan", "android": "https://dc.lft.to/lastmile_qr_scan"}, "lon": -77.0171985, "type": "electric_scooter"}, {"bike_id": "a86955b17c1ea1d59bc1c3609e978886", "is_reserved": 0, "fusion_lon": 0.0, "lat": 38.905512, "is_disabled": 0, "name": "a86955b17c1ea1d59bc1c3609e978886", "fusion_lat": 0.0, "rental_uris": {"ios": "https://dc.lft.to/lastmile_qr_scan", "android": "https://dc.lft.to/lastmile_qr_scan"}, "lon": -77.00297833333333, "type": "electric_scooter"}, {"bike_id": "45b458294dab312791f13a81f06d9db2", "is_reserved": 0, "fusion_lon": 0.0, "lat": 38.88756816666667, "is_disabled": 0, "name": "45b458294dab312791f13a81f06d9db2", "fusion_lat": 0.0, "rental_uris": {"ios": "https://dc.lft.to/lastmile_qr_scan", "android": "https://dc.lft.to/lastmile_qr_scan"}, "lon": -77.02859616666667, "type": "electric_scooter"}, {"bike_id": "0e86019c4d2fd723140f675b9552122f", "is_reserved": 0, "fusion_lon": 0.0, "lat": 38.90532866666667, "is_disabled": 0, "name": "0e86019c4d2fd723140f675b9552122f", "fusion_lat": 0.0, "rental_uris": {"ios": "https://dc.lft.to/lastmile_qr_scan", "android": "https://dc.lft.to/lastmile_qr_scan"}, "lon": -77.05015083333333, "type": "electric_scooter"}, {"bike_id": "ca3a23f986e7766d5861caf5c50d571f", "is_reserved": 0, "fusion_lon": 0.0, "lat": 38.9038565, "is_disabled": 0, "name": "ca3a23f986e7766d5861caf5c50d571f", "fusion_lat": 0.0, "rental_uris": {"ios": "https://dc.lft.to/lastmile_qr_scan", "android": "https://dc.lft.to/lastmile_qr_scan"}, "lon": -77.04201516666667, "type": "electric_scooter"}, {"bike_id": "4ddffc1665db05462c7bf3272c272548", "is_reserved": 0, "fusion_lon": 0.0, "lat": 38.8990495, "is_disabled": 0, "name": "4ddffc1665db05462c7bf3272c272548", "fusion_lat": 0.0, "rental_uris": {"ios": "https://dc.lft.to/lastmile_qr_scan", "android": "https://dc.lft.to/lastmile_qr_scan"}, "lon": -76.93350633333333, "type": "electric_scooter"}, {"bike_id": "e2a9f7d46defe04b1ebd409056a42da1", "is_reserved": 0, "fusion_lon": 0.0, "lat": 38.874965, "is_disabled": 0, "name": "e2a9f7d46defe04b1ebd409056a42da1", "fusion_lat": 0.0, "rental_uris": {"ios": "https://dc.lft.to/lastmile_qr_scan", "android": "https://dc.lft.to/lastmile_qr_scan"}, "lon": -76.99794966666667, "type": "electric_scooter"}, {"bike_id": "27badd8669089ef16cc4f3a7061dbb26", "is_reserved": 0, "fusion_lon": 0.0, "lat": 38.8624185, "is_disabled": 0, "name": "27badd8669089ef16cc4f3a7061dbb26", "fusion_lat": 0.0, "rental_uris": {"ios": "https://dc.lft.to/lastmile_qr_scan", "android": "https://dc.lft.to/lastmile_qr_scan"}, "lon": -76.99494283333334, "type": "electric_scooter"}, {"bike_id": "030bff025b39c21f8af160b8373cd75c", "is_reserved": 0, "fusion_lon": 0.0, "lat": 38.9401205, "is_disabled": 0, "name": "030bff025b39c21f8af160b8373cd75c", "fusion_lat": 0.0, "rental_uris": {"ios": "https://dc.lft.to/lastmile_qr_scan", "android": "https://dc.lft.to/lastmile_qr_scan"}, "lon": -77.0717205, "type": "electric_scooter"}, {"bike_id": "5ab3cd33c15ef36b20f078a9f7f1d7a8", "is_reserved": 0, "fusion_lon": 0.0, "lat": 38.90372166666667, "is_disabled": 0, "name": "5ab3cd33c15ef36b20f078a9f7f1d7a8", "fusion_lat": 0.0, "rental_uris": {"ios": "https://dc.lft.to/lastmile_qr_scan", "android": "https://dc.lft.to/lastmile_qr_scan"}, "lon": -77.04499466666667, "type": "electric_scooter"}, {"bike_id": "5178e8d886b1866d404128607c12db74", "is_reserved": 0, "fusion_lon": 0.0, "lat": 38.891951166666665, "is_disabled": 0, "name": "5178e8d886b1866d404128607c12db74", "fusion_lat": 0.0, "rental_uris": {"ios": "https://dc.lft.to/lastmile_qr_scan", "android": "https://dc.lft.to/lastmile_qr_scan"}, "lon": -77.02378433333334, "type": "electric_scooter"}, {"bike_id": "37edb415ed7b9a0d02d591453b1ce209", "is_reserved": 0, "fusion_lon": 0.0, "lat": 38.903043833333335, "is_disabled": 0, "name": "37edb415ed7b9a0d02d591453b1ce209", "fusion_lat": 0.0, "rental_uris": {"ios": "https://dc.lft.to/lastmile_qr_scan", "android": "https://dc.lft.to/lastmile_qr_scan"}, "lon": -77.02217416666667, "type": "electric_scooter"}, {"bike_id": "3c416fadfa4b308c99b5c3c4bdfd354f", "is_reserved": 0, "fusion_lon": 0.0, "lat": 38.89218416666667, "is_disabled": 0, "name": "3c416fadfa4b308c99b5c3c4bdfd354f", "fusion_lat": 0.0, "rental_uris": {"ios": "https://dc.lft.to/lastmile_qr_scan", "android": "https://dc.lft.to/lastmile_qr_scan"}, "lon": -77.03214666666666, "type": "electric_scooter"}, {"bike_id": "1bb54b0c2187b368be160bed60651eee", "is_reserved": 0, "fusion_lon": 0.0, "lat": 38.951023166666666, "is_disabled": 0, "name": "1bb54b0c2187b368be160bed60651eee", "fusion_lat": 0.0, "rental_uris": {"ios": "https://dc.lft.to/lastmile_qr_scan", "android": "https://dc.lft.to/lastmile_qr_scan"}, "lon": -77.01576983333334, "type": "electric_scooter"}, {"bike_id": "cd51742962340a8588cf698b84639ae5", "is_reserved": 0, "fusion_lon": 0.0, "lat": 38.85062533333333, "is_disabled": 0, "name": "cd51742962340a8588cf698b84639ae5", "fusion_lat": 0.0, "rental_uris": {"ios": "https://dc.lft.to/lastmile_qr_scan", "android": "https://dc.lft.to/lastmile_qr_scan"}, "lon": -76.97333183333333, "type": "electric_bike"}, {"bike_id": "3ba9703a0f615d3f12e95146b2b6df96", "is_reserved": 0, "fusion_lon": 0.0, "lat": 38.90781366666667, "is_disabled": 0, "name": "3ba9703a0f615d3f12e95146b2b6df96", "fusion_lat": 0.0, "rental_uris": {"ios": "https://dc.lft.to/lastmile_qr_scan", "android": "https://dc.lft.to/lastmile_qr_scan"}, "lon": -77.038587, "type": "electric_scooter"}, {"bike_id": "62d1dc4e333f07d78ecbad9d6470ae08", "is_reserved": 0, "fusion_lon": 0.0, "lat": 38.917107, "is_disabled": 0, "name": "62d1dc4e333f07d78ecbad9d6470ae08", "fusion_lat": 0.0, "rental_uris": {"ios": "https://dc.lft.to/lastmile_qr_scan", "android": "https://dc.lft.to/lastmile_qr_scan"}, "lon": -77.04007133333333, "type": "electric_scooter"}, {"bike_id": "1c86b27a49fb7a14373227ddbc2181b2", "is_reserved": 0, "fusion_lon": 0.0, "lat": 38.93199666666667, "is_disabled": 0, "name": "1c86b27a49fb7a14373227ddbc2181b2", "fusion_lat": 0.0, "rental_uris": {"ios": "https://dc.lft.to/lastmile_qr_scan", "android": "https://dc.lft.to/lastmile_qr_scan"}, "lon": -77.03850833333334, "type": "electric_scooter"}, {"bike_id": "85eb87ed030b4cb44f32f080cc958c85", "is_reserved": 0, "fusion_lon": 0.0, "lat": 38.899743666666666, "is_disabled": 0, "name": "85eb87ed030b4cb44f32f080cc958c85", "fusion_lat": 0.0, "rental_uris": {"ios": "https://dc.lft.to/lastmile_qr_scan", "android": "https://dc.lft.to/lastmile_qr_scan"}, "lon": -77.02703916666667, "type": "electric_scooter"}, {"bike_id": "2957bfc121cd8c3eda46b17b02b79b46", "is_reserved": 0, "fusion_lon": 0.0, "lat": 38.9021245, "is_disabled": 0, "name": "2957bfc121cd8c3eda46b17b02b79b46", "fusion_lat": 0.0, "rental_uris": {"ios": "https://dc.lft.to/lastmile_qr_scan", "android": "https://dc.lft.to/lastmile_qr_scan"}, "lon": -77.04640066666667, "type": "electric_scooter"}, {"bike_id": "fa40814a93115342fd4201ff5a30e468", "is_reserved": 0, "fusion_lon": 0.0, "lat": 38.896125, "is_disabled": 0, "name": "fa40814a93115342fd4201ff5a30e468", "fusion_lat": 0.0, "rental_uris": {"ios": "https://dc.lft.to/lastmile_qr_scan", "android": "https://dc.lft.to/lastmile_qr_scan"}, "lon": -77.04490133333333, "type": "electric_scooter"}, {"bike_id": "b37ea4e17dc4c551e17f6ecf11b1731d", "is_reserved": 0, "fusion_lon": 0.0, "lat": 38.90374516666667, "is_disabled": 0, "name": "b37ea4e17dc4c551e17f6ecf11b1731d", "fusion_lat": 0.0, "rental_uris": {"ios": "https://dc.lft.to/lastmile_qr_scan", "android": "https://dc.lft.to/lastmile_qr_scan"}, "lon": -77.04020266666667, "type": "electric_scooter"}, {"bike_id": "1e2abc977a9eccdb3dae3409618493e5", "is_reserved": 0, "fusion_lon": 0.0, "lat": 38.92887866666667, "is_disabled": 0, "name": "1e2abc977a9eccdb3dae3409618493e5", "fusion_lat": 0.0, "rental_uris": {"ios": "https://dc.lft.to/lastmile_qr_scan", "android": "https://dc.lft.to/lastmile_qr_scan"}, "lon": -77.03308866666667, "type": "electric_scooter"}, {"bike_id": "5b826c01806d039ac2f4e179128c6514", "is_reserved": 0, "fusion_lon": 0.0, "lat": 38.94011916666667, "is_disabled": 0, "name": "5b826c01806d039ac2f4e179128c6514", "fusion_lat": 0.0, "rental_uris": {"ios": "https://dc.lft.to/lastmile_qr_scan", "android": "https://dc.lft.to/lastmile_qr_scan"}, "lon": -77.07171, "type": "electric_scooter"}, {"bike_id": "1c2da9a1d083bdd71cb89662bf3057ea", "is_reserved": 0, "fusion_lon": 0.0, "lat": 38.90360716666667, "is_disabled": 0, "name": "1c2da9a1d083bdd71cb89662bf3057ea", "fusion_lat": 0.0, "rental_uris": {"ios": "https://dc.lft.to/lastmile_qr_scan", "android": "https://dc.lft.to/lastmile_qr_scan"}, "lon": -77.045192, "type": "electric_scooter"}, {"bike_id": "64ecee0cdfdd8077e27ffef780c0ae2e", "is_reserved": 0, "fusion_lon": 0.0, "lat": 38.898080666666665, "is_disabled": 0, "name": "64ecee0cdfdd8077e27ffef780c0ae2e", "fusion_lat": 0.0, "rental_uris": {"ios": "https://dc.lft.to/lastmile_qr_scan", "android": "https://dc.lft.to/lastmile_qr_scan"}, "lon": -77.00595916666667, "type": "electric_bike"}, {"bike_id": "d2a60f6629121dcff77be7defadf3b67", "is_reserved": 0, "fusion_lon": 0.0, "lat": 38.923358666666665, "is_disabled": 0, "name": "d2a60f6629121dcff77be7defadf3b67", "fusion_lat": 0.0, "rental_uris": {"ios": "https://dc.lft.to/lastmile_qr_scan", "android": "https://dc.lft.to/lastmile_qr_scan"}, "lon": -77.03790833333333, "type": "electric_scooter"}, {"bike_id": "fd156867a41df49bf35aa51b6523f1df", "is_reserved": 0, "fusion_lon": 0.0, "lat": 38.90398316666667, "is_disabled": 0, "name": "fd156867a41df49bf35aa51b6523f1df", "fusion_lat": 0.0, "rental_uris": {"ios": "https://dc.lft.to/lastmile_qr_scan", "android": "https://dc.lft.to/lastmile_qr_scan"}, "lon": -77.06292683333334, "type": "electric_scooter"}, {"bike_id": "bc876f81cd43a88587d53d7d38481379", "is_reserved": 0, "fusion_lon": 0.0, "lat": 38.91684466666667, "is_disabled": 0, "name": "bc876f81cd43a88587d53d7d38481379", "fusion_lat": 0.0, "rental_uris": {"ios": "https://dc.lft.to/lastmile_qr_scan", "android": "https://dc.lft.to/lastmile_qr_scan"}, "lon": -77.02949266666667, "type": "electric_scooter"}, {"bike_id": "07398cc7fa95dfa64487da55f65ad2fd", "is_reserved": 0, "fusion_lon": 0.0, "lat": 38.9189875, "is_disabled": 0, "name": "07398cc7fa95dfa64487da55f65ad2fd", "fusion_lat": 0.0, "rental_uris": {"ios": "https://dc.lft.to/lastmile_qr_scan", "android": "https://dc.lft.to/lastmile_qr_scan"}, "lon": -77.03910116666667, "type": "electric_scooter"}, {"bike_id": "ed47b0cabc8df1bca3c5975181fdaab8", "is_reserved": 0, "fusion_lon": 0.0, "lat": 38.9038945, "is_disabled": 0, "name": "ed47b0cabc8df1bca3c5975181fdaab8", "fusion_lat": 0.0, "rental_uris": {"ios": "https://dc.lft.to/lastmile_qr_scan", "android": "https://dc.lft.to/lastmile_qr_scan"}, "lon": -77.04451433333334, "type": "electric_scooter"}, {"bike_id": "db1805da24362792441f12ae8e506b3f", "is_reserved": 0, "fusion_lon": 0.0, "lat": 38.949713833333334, "is_disabled": 0, "name": "db1805da24362792441f12ae8e506b3f", "fusion_lat": 0.0, "rental_uris": {"ios": "https://dc.lft.to/lastmile_qr_scan", "android": "https://dc.lft.to/lastmile_qr_scan"}, "lon": -77.078921, "type": "electric_scooter"}, {"bike_id": "c1f6e36f64e4cdc0447a67471911fcab", "is_reserved": 0, "fusion_lon": 0.0, "lat": 38.896118333333334, "is_disabled": 0, "name": "c1f6e36f64e4cdc0447a67471911fcab", "fusion_lat": 0.0, "rental_uris": {"ios": "https://dc.lft.to/lastmile_qr_scan", "android": "https://dc.lft.to/lastmile_qr_scan"}, "lon": -76.9557615, "type": "electric_scooter"}, {"bike_id": "996ba43f31b9f779163d5d385748e5ff", "is_reserved": 0, "fusion_lon": 0.0, "lat": 38.899016, "is_disabled": 0, "name": "996ba43f31b9f779163d5d385748e5ff", "fusion_lat": 0.0, "rental_uris": {"ios": "https://dc.lft.to/lastmile_qr_scan", "android": "https://dc.lft.to/lastmile_qr_scan"}, "lon": -77.03963283333333, "type": "electric_scooter"}, {"bike_id": "d693834b15165cfe1cd409ac6cadc950", "is_reserved": 0, "fusion_lon": 0.0, "lat": 38.92369733333334, "is_disabled": 0, "name": "d693834b15165cfe1cd409ac6cadc950", "fusion_lat": 0.0, "rental_uris": {"ios": "https://dc.lft.to/lastmile_qr_scan", "android": "https://dc.lft.to/lastmile_qr_scan"}, "lon": -77.03097633333333, "type": "electric_scooter"}, {"bike_id": "cf3fe479ee1f5655a260f455818ae981", "is_reserved": 0, "fusion_lon": 0.0, "lat": 38.921677833333334, "is_disabled": 0, "name": "cf3fe479ee1f5655a260f455818ae981", "fusion_lat": 0.0, "rental_uris": {"ios": "https://dc.lft.to/lastmile_qr_scan", "android": "https://dc.lft.to/lastmile_qr_scan"}, "lon": -77.04221916666667, "type": "electric_scooter"}, {"bike_id": "4763ee6148f213f590cb003fd80d5729", "is_reserved": 0, "fusion_lon": 0.0, "lat": 38.918721833333336, "is_disabled": 0, "name": "4763ee6148f213f590cb003fd80d5729", "fusion_lat": 0.0, "rental_uris": {"ios": "https://dc.lft.to/lastmile_qr_scan", "android": "https://dc.lft.to/lastmile_qr_scan"}, "lon": -77.04374316666667, "type": "electric_scooter"}, {"bike_id": "dc0a6fa50ce21f54ede6cd9ae12953ae", "is_reserved": 0, "fusion_lon": 0.0, "lat": 38.905761, "is_disabled": 0, "name": "dc0a6fa50ce21f54ede6cd9ae12953ae", "fusion_lat": 0.0, "rental_uris": {"ios": "https://dc.lft.to/lastmile_qr_scan", "android": "https://dc.lft.to/lastmile_qr_scan"}, "lon": -77.0220715, "type": "electric_scooter"}, {"bike_id": "356e995f1725cefb7b1e23a597c12514", "is_reserved": 0, "fusion_lon": 0.0, "lat": 38.892214333333335, "is_disabled": 0, "name": "356e995f1725cefb7b1e23a597c12514", "fusion_lat": 0.0, "rental_uris": {"ios": "https://dc.lft.to/lastmile_qr_scan", "android": "https://dc.lft.to/lastmile_qr_scan"}, "lon": -77.03980666666666, "type": "electric_scooter"}, {"bike_id": "38652c8c2b813de48403ed837f177dd6", "is_reserved": 0, "fusion_lon": 0.0, "lat": 38.936040166666665, "is_disabled": 0, "name": "38652c8c2b813de48403ed837f177dd6", "fusion_lat": 0.0, "rental_uris": {"ios": "https://dc.lft.to/lastmile_qr_scan", "android": "https://dc.lft.to/lastmile_qr_scan"}, "lon": -77.05587833333334, "type": "electric_scooter"}, {"bike_id": "8395f19f0fee06bf61e67a20e716b783", "is_reserved": 0, "fusion_lon": 0.0, "lat": 38.89837033333333, "is_disabled": 0, "name": "8395f19f0fee06bf61e67a20e716b783", "fusion_lat": 0.0, "rental_uris": {"ios": "https://dc.lft.to/lastmile_qr_scan", "android": "https://dc.lft.to/lastmile_qr_scan"}, "lon": -77.04340116666667, "type": "electric_scooter"}, {"bike_id": "a841e672fa980516259c51deef5cde0e", "is_reserved": 0, "fusion_lon": 0.0, "lat": 38.94070516666667, "is_disabled": 0, "name": "a841e672fa980516259c51deef5cde0e", "fusion_lat": 0.0, "rental_uris": {"ios": "https://dc.lft.to/lastmile_qr_scan", "android": "https://dc.lft.to/lastmile_qr_scan"}, "lon": -76.99462233333334, "type": "electric_scooter"}, {"bike_id": "6ccca67f66a400d16f73fa1343ba07a8", "is_reserved": 0, "fusion_lon": 0.0, "lat": 38.91573566666667, "is_disabled": 0, "name": "6ccca67f66a400d16f73fa1343ba07a8", "fusion_lat": 0.0, "rental_uris": {"ios": "https://dc.lft.to/lastmile_qr_scan", "android": "https://dc.lft.to/lastmile_qr_scan"}, "lon": -77.03850933333334, "type": "electric_scooter"}, {"bike_id": "b409d1279a9fa4af3e6d39c7dd7d7aad", "is_reserved": 0, "fusion_lon": 0.0, "lat": 38.92237866666667, "is_disabled": 0, "name": "b409d1279a9fa4af3e6d39c7dd7d7aad", "fusion_lat": 0.0, "rental_uris": {"ios": "https://dc.lft.to/lastmile_qr_scan", "android": "https://dc.lft.to/lastmile_qr_scan"}, "lon": -77.03371633333333, "type": "electric_scooter"}, {"bike_id": "7baa1b41c88ae94051160095ea3f9e77", "is_reserved": 0, "fusion_lon": 0.0, "lat": 38.903491833333334, "is_disabled": 0, "name": "7baa1b41c88ae94051160095ea3f9e77", "fusion_lat": 0.0, "rental_uris": {"ios": "https://dc.lft.to/lastmile_qr_scan", "android": "https://dc.lft.to/lastmile_qr_scan"}, "lon": -77.03767133333334, "type": "electric_scooter"}, {"bike_id": "d5c7d189d4c72261d86b87f8bec6bbe3", "is_reserved": 0, "fusion_lon": 0.0, "lat": 38.9159315, "is_disabled": 0, "name": "d5c7d189d4c72261d86b87f8bec6bbe3", "fusion_lat": 0.0, "rental_uris": {"ios": "https://dc.lft.to/lastmile_qr_scan", "android": "https://dc.lft.to/lastmile_qr_scan"}, "lon": -77.04463616666666, "type": "electric_scooter"}, {"bike_id": "968590e2214a48feb828fd9fad0b58cb", "is_reserved": 0, "fusion_lon": 0.0, "lat": 38.909579, "is_disabled": 0, "name": "968590e2214a48feb828fd9fad0b58cb", "fusion_lat": 0.0, "rental_uris": {"ios": "https://dc.lft.to/lastmile_qr_scan", "android": "https://dc.lft.to/lastmile_qr_scan"}, "lon": -77.03162916666666, "type": "electric_scooter"}, {"bike_id": "4ce4157b7e75e55c0ec989a00eee447b", "is_reserved": 0, "fusion_lon": 0.0, "lat": 38.91503566666667, "is_disabled": 0, "name": "4ce4157b7e75e55c0ec989a00eee447b", "fusion_lat": 0.0, "rental_uris": {"ios": "https://dc.lft.to/lastmile_qr_scan", "android": "https://dc.lft.to/lastmile_qr_scan"}, "lon": -77.04167533333333, "type": "electric_scooter"}, {"bike_id": "a0f200abed26e24e96c4c3e7c1c3091a", "is_reserved": 0, "fusion_lon": 0.0, "lat": 38.8919455, "is_disabled": 0, "name": "a0f200abed26e24e96c4c3e7c1c3091a", "fusion_lat": 0.0, "rental_uris": {"ios": "https://dc.lft.to/lastmile_qr_scan", "android": "https://dc.lft.to/lastmile_qr_scan"}, "lon": -77.02218716666667, "type": "electric_scooter"}, {"bike_id": "12667974cb725b08f137d57a753773a3", "is_reserved": 0, "fusion_lon": 0.0, "lat": 38.891984666666666, "is_disabled": 0, "name": "12667974cb725b08f137d57a753773a3", "fusion_lat": 0.0, "rental_uris": {"ios": "https://dc.lft.to/lastmile_qr_scan", "android": "https://dc.lft.to/lastmile_qr_scan"}, "lon": -77.0237885, "type": "electric_scooter"}, {"bike_id": "1c365af4672708ecacc8d1621ba9adb8", "is_reserved": 0, "fusion_lon": 0.0, "lat": 38.9055215, "is_disabled": 0, "name": "1c365af4672708ecacc8d1621ba9adb8", "fusion_lat": 0.0, "rental_uris": {"ios": "https://dc.lft.to/lastmile_qr_scan", "android": "https://dc.lft.to/lastmile_qr_scan"}, "lon": -77.0383155, "type": "electric_scooter"}, {"bike_id": "0a73a975c281acbe5bd8f45179703a61", "is_reserved": 0, "fusion_lon": 0.0, "lat": 38.922679333333335, "is_disabled": 0, "name": "0a73a975c281acbe5bd8f45179703a61", "fusion_lat": 0.0, "rental_uris": {"ios": "https://dc.lft.to/lastmile_qr_scan", "android": "https://dc.lft.to/lastmile_qr_scan"}, "lon": -77.01820733333334, "type": "electric_scooter"}, {"bike_id": "550bb435bfa90783e3a30fca04e87b16", "is_reserved": 0, "fusion_lon": 0.0, "lat": 38.905319666666664, "is_disabled": 0, "name": "550bb435bfa90783e3a30fca04e87b16", "fusion_lat": 0.0, "rental_uris": {"ios": "https://dc.lft.to/lastmile_qr_scan", "android": "https://dc.lft.to/lastmile_qr_scan"}, "lon": -77.065222, "type": "electric_scooter"}, {"bike_id": "13930dd562c8d2c391c6ff9391f5c8a7", "is_reserved": 0, "fusion_lon": 0.0, "lat": 38.891942666666665, "is_disabled": 0, "name": "13930dd562c8d2c391c6ff9391f5c8a7", "fusion_lat": 0.0, "rental_uris": {"ios": "https://dc.lft.to/lastmile_qr_scan", "android": "https://dc.lft.to/lastmile_qr_scan"}, "lon": -77.02217816666666, "type": "electric_scooter"}, {"bike_id": "edf00af8734b4a6e37b6cda6ccfb2f9a", "is_reserved": 0, "fusion_lon": 0.0, "lat": 38.892224166666665, "is_disabled": 0, "name": "edf00af8734b4a6e37b6cda6ccfb2f9a", "fusion_lat": 0.0, "rental_uris": {"ios": "https://dc.lft.to/lastmile_qr_scan", "android": "https://dc.lft.to/lastmile_qr_scan"}, "lon": -77.04867433333334, "type": "electric_scooter"}, {"bike_id": "ad1a4216eb3515736e279974416f8552", "is_reserved": 0, "fusion_lon": 0.0, "lat": 38.90132166666667, "is_disabled": 0, "name": "ad1a4216eb3515736e279974416f8552", "fusion_lat": 0.0, "rental_uris": {"ios": "https://dc.lft.to/lastmile_qr_scan", "android": "https://dc.lft.to/lastmile_qr_scan"}, "lon": -76.99711733333334, "type": "electric_scooter"}, {"bike_id": "375876c88f3649ea5c8857c2f79dd52b", "is_reserved": 0, "fusion_lon": 0.0, "lat": 38.92711216666667, "is_disabled": 0, "name": "375876c88f3649ea5c8857c2f79dd52b", "fusion_lat": 0.0, "rental_uris": {"ios": "https://dc.lft.to/lastmile_qr_scan", "android": "https://dc.lft.to/lastmile_qr_scan"}, "lon": -77.0405205, "type": "electric_scooter"}, {"bike_id": "b0e3761f46043200986d33c6d1078d2f", "is_reserved": 0, "fusion_lon": 0.0, "lat": 38.911689333333335, "is_disabled": 0, "name": "b0e3761f46043200986d33c6d1078d2f", "fusion_lat": 0.0, "rental_uris": {"ios": "https://dc.lft.to/lastmile_qr_scan", "android": "https://dc.lft.to/lastmile_qr_scan"}, "lon": -76.9865175, "type": "electric_scooter"}, {"bike_id": "cbc35ac68d485235e2554ecb883fa3fb", "is_reserved": 0, "fusion_lon": 0.0, "lat": 38.95923333333333, "is_disabled": 0, "name": "cbc35ac68d485235e2554ecb883fa3fb", "fusion_lat": 0.0, "rental_uris": {"ios": "https://dc.lft.to/lastmile_qr_scan", "android": "https://dc.lft.to/lastmile_qr_scan"}, "lon": -77.03324383333333, "type": "electric_scooter"}, {"bike_id": "1373f3fe18bc25f0fd18c1b6622f6fed", "is_reserved": 0, "fusion_lon": 0.0, "lat": 38.903875, "is_disabled": 0, "name": "1373f3fe18bc25f0fd18c1b6622f6fed", "fusion_lat": 0.0, "rental_uris": {"ios": "https://dc.lft.to/lastmile_qr_scan", "android": "https://dc.lft.to/lastmile_qr_scan"}, "lon": -77.04372283333333, "type": "electric_scooter"}, {"bike_id": "fec8c71f4778901930c4feba0a756519", "is_reserved": 0, "fusion_lon": 0.0, "lat": 38.865597, "is_disabled": 0, "name": "fec8c71f4778901930c4feba0a756519", "fusion_lat": 0.0, "rental_uris": {"ios": "https://dc.lft.to/lastmile_qr_scan", "android": "https://dc.lft.to/lastmile_qr_scan"}, "lon": -76.98948966666667, "type": "electric_scooter"}, {"bike_id": "55e5a07704844cf63b4cc7d9509dd1fa", "is_reserved": 0, "fusion_lon": 0.0, "lat": 38.916801166666666, "is_disabled": 0, "name": "55e5a07704844cf63b4cc7d9509dd1fa", "fusion_lat": 0.0, "rental_uris": {"ios": "https://dc.lft.to/lastmile_qr_scan", "android": "https://dc.lft.to/lastmile_qr_scan"}, "lon": -77.02968266666667, "type": "electric_scooter"}, {"bike_id": "a38cf52f125fdf5cbe51aa0b47ca39ee", "is_reserved": 0, "fusion_lon": 0.0, "lat": 38.90349116666667, "is_disabled": 0, "name": "a38cf52f125fdf5cbe51aa0b47ca39ee", "fusion_lat": 0.0, "rental_uris": {"ios": "https://dc.lft.to/lastmile_qr_scan", "android": "https://dc.lft.to/lastmile_qr_scan"}, "lon": -77.05139516666667, "type": "electric_bike"}, {"bike_id": "f632744d1b3b0954f35d388c1b1549ff", "is_reserved": 0, "fusion_lon": 0.0, "lat": 38.915951, "is_disabled": 0, "name": "f632744d1b3b0954f35d388c1b1549ff", "fusion_lat": 0.0, "rental_uris": {"ios": "https://dc.lft.to/lastmile_qr_scan", "android": "https://dc.lft.to/lastmile_qr_scan"}, "lon": -77.04156, "type": "electric_scooter"}, {"bike_id": "d7b3f56e195b445deec2c14ed0c3348b", "is_reserved": 0, "fusion_lon": 0.0, "lat": 38.9167965, "is_disabled": 0, "name": "d7b3f56e195b445deec2c14ed0c3348b", "fusion_lat": 0.0, "rental_uris": {"ios": "https://dc.lft.to/lastmile_qr_scan", "android": "https://dc.lft.to/lastmile_qr_scan"}, "lon": -77.03685016666667, "type": "electric_scooter"}, {"bike_id": "24f2e37c75bb22c5c99ef713c810b6cd", "is_reserved": 0, "fusion_lon": 0.0, "lat": 38.902609, "is_disabled": 0, "name": "24f2e37c75bb22c5c99ef713c810b6cd", "fusion_lat": 0.0, "rental_uris": {"ios": "https://dc.lft.to/lastmile_qr_scan", "android": "https://dc.lft.to/lastmile_qr_scan"}, "lon": -77.03077516666667, "type": "electric_scooter"}, {"bike_id": "57fff0eb3d758a0be0b7cb4658155dc9", "is_reserved": 0, "fusion_lon": 0.0, "lat": 38.903586, "is_disabled": 0, "name": "57fff0eb3d758a0be0b7cb4658155dc9", "fusion_lat": 0.0, "rental_uris": {"ios": "https://dc.lft.to/lastmile_qr_scan", "android": "https://dc.lft.to/lastmile_qr_scan"}, "lon": -77.04530233333334, "type": "electric_scooter"}, {"bike_id": "d91f3e3e5222d0fb2976b910ac2ab302", "is_reserved": 0, "fusion_lon": 0.0, "lat": 38.81307416666667, "is_disabled": 0, "name": "d91f3e3e5222d0fb2976b910ac2ab302", "fusion_lat": 0.0, "rental_uris": {"ios": "https://dc.lft.to/lastmile_qr_scan", "android": "https://dc.lft.to/lastmile_qr_scan"}, "lon": -77.05093966666666, "type": "electric_bike"}, {"bike_id": "8d0f76d531e578ecc18ee650039520a2", "is_reserved": 0, "fusion_lon": 0.0, "lat": 38.892114166666666, "is_disabled": 0, "name": "8d0f76d531e578ecc18ee650039520a2", "fusion_lat": 0.0, "rental_uris": {"ios": "https://dc.lft.to/lastmile_qr_scan", "android": "https://dc.lft.to/lastmile_qr_scan"}, "lon": -77.02574733333333, "type": "electric_scooter"}, {"bike_id": "2fd12b5d0ddb772c383046e77a2bcdd2", "is_reserved": 0, "fusion_lon": 0.0, "lat": 38.92854633333334, "is_disabled": 0, "name": "2fd12b5d0ddb772c383046e77a2bcdd2", "fusion_lat": 0.0, "rental_uris": {"ios": "https://dc.lft.to/lastmile_qr_scan", "android": "https://dc.lft.to/lastmile_qr_scan"}, "lon": -76.98937666666667, "type": "electric_bike"}, {"bike_id": "3123ac0203946b94ecaaf698c1305028", "is_reserved": 0, "fusion_lon": 0.0, "lat": 38.92177366666667, "is_disabled": 0, "name": "3123ac0203946b94ecaaf698c1305028", "fusion_lat": 0.0, "rental_uris": {"ios": "https://dc.lft.to/lastmile_qr_scan", "android": "https://dc.lft.to/lastmile_qr_scan"}, "lon": -77.02544066666667, "type": "electric_scooter"}, {"bike_id": "f362f54c957375398d4df53afa3dbed2", "is_reserved": 0, "fusion_lon": 0.0, "lat": 38.91327583333333, "is_disabled": 0, "name": "f362f54c957375398d4df53afa3dbed2", "fusion_lat": 0.0, "rental_uris": {"ios": "https://dc.lft.to/lastmile_qr_scan", "android": "https://dc.lft.to/lastmile_qr_scan"}, "lon": -77.032715, "type": "electric_scooter"}, {"bike_id": "f3768d271ec88e50d2867604ec6146e6", "is_reserved": 0, "fusion_lon": 0.0, "lat": 38.92116983333333, "is_disabled": 0, "name": "f3768d271ec88e50d2867604ec6146e6", "fusion_lat": 0.0, "rental_uris": {"ios": "https://dc.lft.to/lastmile_qr_scan", "android": "https://dc.lft.to/lastmile_qr_scan"}, "lon": -77.01771883333333, "type": "electric_scooter"}, {"bike_id": "b7107932752927bb510c0f39fb84dda1", "is_reserved": 0, "fusion_lon": 0.0, "lat": 38.93987166666667, "is_disabled": 0, "name": "b7107932752927bb510c0f39fb84dda1", "fusion_lat": 0.0, "rental_uris": {"ios": "https://dc.lft.to/lastmile_qr_scan", "android": "https://dc.lft.to/lastmile_qr_scan"}, "lon": -77.02888416666667, "type": "electric_scooter"}, {"bike_id": "ca5fba804738678ccce44dfa2b77e5fe", "is_reserved": 0, "fusion_lon": 0.0, "lat": 38.907812, "is_disabled": 0, "name": "ca5fba804738678ccce44dfa2b77e5fe", "fusion_lat": 0.0, "rental_uris": {"ios": "https://dc.lft.to/lastmile_qr_scan", "android": "https://dc.lft.to/lastmile_qr_scan"}, "lon": -77.04263866666666, "type": "electric_scooter"}, {"bike_id": "48dfdb6ef33e7a32ccc7da16612ffc65", "is_reserved": 0, "fusion_lon": 0.0, "lat": 38.9181585, "is_disabled": 0, "name": "48dfdb6ef33e7a32ccc7da16612ffc65", "fusion_lat": 0.0, "rental_uris": {"ios": "https://dc.lft.to/lastmile_qr_scan", "android": "https://dc.lft.to/lastmile_qr_scan"}, "lon": -77.03299916666667, "type": "electric_scooter"}, {"bike_id": "6f628d1dfb20991d5eb79bc309e61907", "is_reserved": 0, "fusion_lon": 0.0, "lat": 38.9366545, "is_disabled": 0, "name": "6f628d1dfb20991d5eb79bc309e61907", "fusion_lat": 0.0, "rental_uris": {"ios": "https://dc.lft.to/lastmile_qr_scan", "android": "https://dc.lft.to/lastmile_qr_scan"}, "lon": -77.05934233333333, "type": "electric_scooter"}, {"bike_id": "a6aa8c97631134ff1c0ecdafbd5a5ba9", "is_reserved": 0, "fusion_lon": 0.0, "lat": 38.859592166666665, "is_disabled": 0, "name": "a6aa8c97631134ff1c0ecdafbd5a5ba9", "fusion_lat": 0.0, "rental_uris": {"ios": "https://dc.lft.to/lastmile_qr_scan", "android": "https://dc.lft.to/lastmile_qr_scan"}, "lon": -76.99110216666666, "type": "electric_scooter"}, {"bike_id": "add41d9c0d99b2abdbbf19067e148f85", "is_reserved": 0, "fusion_lon": 0.0, "lat": 38.9225215, "is_disabled": 0, "name": "add41d9c0d99b2abdbbf19067e148f85", "fusion_lat": 0.0, "rental_uris": {"ios": "https://dc.lft.to/lastmile_qr_scan", "android": "https://dc.lft.to/lastmile_qr_scan"}, "lon": -77.0296695, "type": "electric_scooter"}, {"bike_id": "b1fba83c1310ce79ebb17a0f694bb3a1", "is_reserved": 0, "fusion_lon": 0.0, "lat": 38.90012633333333, "is_disabled": 0, "name": "b1fba83c1310ce79ebb17a0f694bb3a1", "fusion_lat": 0.0, "rental_uris": {"ios": "https://dc.lft.to/lastmile_qr_scan", "android": "https://dc.lft.to/lastmile_qr_scan"}, "lon": -77.04652483333334, "type": "electric_scooter"}, {"bike_id": "195d5cb2ae08231d31ff040f9c49eda8", "is_reserved": 0, "fusion_lon": 0.0, "lat": 38.89216033333334, "is_disabled": 0, "name": "195d5cb2ae08231d31ff040f9c49eda8", "fusion_lat": 0.0, "rental_uris": {"ios": "https://dc.lft.to/lastmile_qr_scan", "android": "https://dc.lft.to/lastmile_qr_scan"}, "lon": -77.043639, "type": "electric_scooter"}, {"bike_id": "13698db4b9c7468afd20672ff5f96886", "is_reserved": 0, "fusion_lon": 0.0, "lat": 38.9444305, "is_disabled": 0, "name": "13698db4b9c7468afd20672ff5f96886", "fusion_lat": 0.0, "rental_uris": {"ios": "https://dc.lft.to/lastmile_qr_scan", "android": "https://dc.lft.to/lastmile_qr_scan"}, "lon": -77.06407733333333, "type": "electric_scooter"}, {"bike_id": "09e231ec8d0a47176ba351120f5965dc", "is_reserved": 0, "fusion_lon": 0.0, "lat": 38.882362666666666, "is_disabled": 0, "name": "09e231ec8d0a47176ba351120f5965dc", "fusion_lat": 0.0, "rental_uris": {"ios": "https://dc.lft.to/lastmile_qr_scan", "android": "https://dc.lft.to/lastmile_qr_scan"}, "lon": -76.990056, "type": "electric_scooter"}, {"bike_id": "025e09d5c548f5cf882dea773f225044", "is_reserved": 0, "fusion_lon": 0.0, "lat": 38.84425683333333, "is_disabled": 0, "name": "025e09d5c548f5cf882dea773f225044", "fusion_lat": 0.0, "rental_uris": {"ios": "https://dc.lft.to/lastmile_qr_scan", "android": "https://dc.lft.to/lastmile_qr_scan"}, "lon": -76.99777716666667, "type": "electric_scooter"}, {"bike_id": "ebc7abc7cb661021ad038895f55e965e", "is_reserved": 0, "fusion_lon": 0.0, "lat": 38.912553, "is_disabled": 0, "name": "ebc7abc7cb661021ad038895f55e965e", "fusion_lat": 0.0, "rental_uris": {"ios": "https://dc.lft.to/lastmile_qr_scan", "android": "https://dc.lft.to/lastmile_qr_scan"}, "lon": -77.01442616666667, "type": "electric_scooter"}, {"bike_id": "3dfc02f83cf53a7e71c903d999a4441b", "is_reserved": 0, "fusion_lon": 0.0, "lat": 38.86559466666667, "is_disabled": 0, "name": "3dfc02f83cf53a7e71c903d999a4441b", "fusion_lat": 0.0, "rental_uris": {"ios": "https://dc.lft.to/lastmile_qr_scan", "android": "https://dc.lft.to/lastmile_qr_scan"}, "lon": -76.9895305, "type": "electric_scooter"}, {"bike_id": "1a264aad409827361ea321861c2cb4ba", "is_reserved": 0, "fusion_lon": 0.0, "lat": 38.907442, "is_disabled": 0, "name": "1a264aad409827361ea321861c2cb4ba", "fusion_lat": 0.0, "rental_uris": {"ios": "https://dc.lft.to/lastmile_qr_scan", "android": "https://dc.lft.to/lastmile_qr_scan"}, "lon": -77.03469766666667, "type": "electric_scooter"}, {"bike_id": "4f628f39c2d0af15b3dca55cceafd769", "is_reserved": 0, "fusion_lon": 0.0, "lat": 38.91730583333333, "is_disabled": 0, "name": "4f628f39c2d0af15b3dca55cceafd769", "fusion_lat": 0.0, "rental_uris": {"ios": "https://dc.lft.to/lastmile_qr_scan", "android": "https://dc.lft.to/lastmile_qr_scan"}, "lon": -77.04090016666666, "type": "electric_scooter"}, {"bike_id": "251582c7400921e3eb9cdafd2e031c74", "is_reserved": 0, "fusion_lon": 0.0, "lat": 38.898306833333336, "is_disabled": 0, "name": "251582c7400921e3eb9cdafd2e031c74", "fusion_lat": 0.0, "rental_uris": {"ios": "https://dc.lft.to/lastmile_qr_scan", "android": "https://dc.lft.to/lastmile_qr_scan"}, "lon": -76.94634116666667, "type": "electric_scooter"}, {"bike_id": "76c99e50566a564cf075dbf0cdd365a8", "is_reserved": 0, "fusion_lon": 0.0, "lat": 38.914924666666664, "is_disabled": 0, "name": "76c99e50566a564cf075dbf0cdd365a8", "fusion_lat": 0.0, "rental_uris": {"ios": "https://dc.lft.to/lastmile_qr_scan", "android": "https://dc.lft.to/lastmile_qr_scan"}, "lon": -77.01859366666666, "type": "electric_scooter"}, {"bike_id": "3e3b43f6bc1ae940aeace549ab73366c", "is_reserved": 0, "fusion_lon": 0.0, "lat": 38.9060075, "is_disabled": 0, "name": "3e3b43f6bc1ae940aeace549ab73366c", "fusion_lat": 0.0, "rental_uris": {"ios": "https://dc.lft.to/lastmile_qr_scan", "android": "https://dc.lft.to/lastmile_qr_scan"}, "lon": -77.06304283333333, "type": "electric_scooter"}, {"bike_id": "212e70aee3dfe18b81eb908d68e4dc24", "is_reserved": 0, "fusion_lon": 0.0, "lat": 38.913957833333335, "is_disabled": 0, "name": "212e70aee3dfe18b81eb908d68e4dc24", "fusion_lat": 0.0, "rental_uris": {"ios": "https://dc.lft.to/lastmile_qr_scan", "android": "https://dc.lft.to/lastmile_qr_scan"}, "lon": -77.01696016666666, "type": "electric_scooter"}, {"bike_id": "45a8962a864b9ac6ff0a64dbd501b6ca", "is_reserved": 0, "fusion_lon": 0.0, "lat": 38.89831366666667, "is_disabled": 0, "name": "45a8962a864b9ac6ff0a64dbd501b6ca", "fusion_lat": 0.0, "rental_uris": {"ios": "https://dc.lft.to/lastmile_qr_scan", "android": "https://dc.lft.to/lastmile_qr_scan"}, "lon": -77.03346933333333, "type": "electric_scooter"}, {"bike_id": "5ddbb625503dbbf6bc6f1021c28f2ae8", "is_reserved": 0, "fusion_lon": 0.0, "lat": 38.8921675, "is_disabled": 0, "name": "5ddbb625503dbbf6bc6f1021c28f2ae8", "fusion_lat": 0.0, "rental_uris": {"ios": "https://dc.lft.to/lastmile_qr_scan", "android": "https://dc.lft.to/lastmile_qr_scan"}, "lon": -77.04502633333334, "type": "electric_scooter"}, {"bike_id": "eb414e6dcfad24d8a2f724f4245f90ab", "is_reserved": 0, "fusion_lon": 0.0, "lat": 38.902446, "is_disabled": 0, "name": "eb414e6dcfad24d8a2f724f4245f90ab", "fusion_lat": 0.0, "rental_uris": {"ios": "https://dc.lft.to/lastmile_qr_scan", "android": "https://dc.lft.to/lastmile_qr_scan"}, "lon": -77.03149566666667, "type": "electric_scooter"}, {"bike_id": "5c2c813091578bbc83571adcee6e5cd8", "is_reserved": 0, "fusion_lon": 0.0, "lat": 38.973286, "is_disabled": 0, "name": "5c2c813091578bbc83571adcee6e5cd8", "fusion_lat": 0.0, "rental_uris": {"ios": "https://dc.lft.to/lastmile_qr_scan", "android": "https://dc.lft.to/lastmile_qr_scan"}, "lon": -77.02147716666667, "type": "electric_bike"}, {"bike_id": "b6adcc03b367ab586696c1572a8dfd24", "is_reserved": 0, "fusion_lon": 0.0, "lat": 38.897195833333335, "is_disabled": 0, "name": "b6adcc03b367ab586696c1572a8dfd24", "fusion_lat": 0.0, "rental_uris": {"ios": "https://dc.lft.to/lastmile_qr_scan", "android": "https://dc.lft.to/lastmile_qr_scan"}, "lon": -77.02707633333333, "type": "electric_scooter"}, {"bike_id": "59c59e9c36a81923b55ceff22b63f290", "is_reserved": 0, "fusion_lon": 0.0, "lat": 38.945534, "is_disabled": 0, "name": "59c59e9c36a81923b55ceff22b63f290", "fusion_lat": 0.0, "rental_uris": {"ios": "https://dc.lft.to/lastmile_qr_scan", "android": "https://dc.lft.to/lastmile_qr_scan"}, "lon": -76.8953895, "type": "electric_bike"}, {"bike_id": "42e9459b69ead7e0f3cc9d2abf9b8b9e", "is_reserved": 0, "fusion_lon": 0.0, "lat": 38.86175883333333, "is_disabled": 0, "name": "42e9459b69ead7e0f3cc9d2abf9b8b9e", "fusion_lat": 0.0, "rental_uris": {"ios": "https://dc.lft.to/lastmile_qr_scan", "android": "https://dc.lft.to/lastmile_qr_scan"}, "lon": -76.96911683333333, "type": "electric_scooter"}, {"bike_id": "ee77d33996a6b44b5c8cd06785429876", "is_reserved": 0, "fusion_lon": 0.0, "lat": 38.917061333333336, "is_disabled": 0, "name": "ee77d33996a6b44b5c8cd06785429876", "fusion_lat": 0.0, "rental_uris": {"ios": "https://dc.lft.to/lastmile_qr_scan", "android": "https://dc.lft.to/lastmile_qr_scan"}, "lon": -77.02265433333334, "type": "electric_scooter"}, {"bike_id": "322495d78df774e6321f98375567d9e5", "is_reserved": 0, "fusion_lon": 0.0, "lat": 38.904989666666665, "is_disabled": 0, "name": "322495d78df774e6321f98375567d9e5", "fusion_lat": 0.0, "rental_uris": {"ios": "https://dc.lft.to/lastmile_qr_scan", "android": "https://dc.lft.to/lastmile_qr_scan"}, "lon": -77.0072075, "type": "electric_scooter"}, {"bike_id": "a1762c03b8f76900d71d2269dac2c2fe", "is_reserved": 0, "fusion_lon": 0.0, "lat": 38.90392116666666, "is_disabled": 0, "name": "a1762c03b8f76900d71d2269dac2c2fe", "fusion_lat": 0.0, "rental_uris": {"ios": "https://dc.lft.to/lastmile_qr_scan", "android": "https://dc.lft.to/lastmile_qr_scan"}, "lon": -77.0437335, "type": "electric_scooter"}, {"bike_id": "2b9b8c679e55871113cac39a69a516e3", "is_reserved": 0, "fusion_lon": 0.0, "lat": 38.928656, "is_disabled": 0, "name": "2b9b8c679e55871113cac39a69a516e3", "fusion_lat": 0.0, "rental_uris": {"ios": "https://dc.lft.to/lastmile_qr_scan", "android": "https://dc.lft.to/lastmile_qr_scan"}, "lon": -77.027299, "type": "electric_scooter"}, {"bike_id": "935c1470f8764985755b2b59cec61721", "is_reserved": 0, "fusion_lon": 0.0, "lat": 38.973270666666664, "is_disabled": 0, "name": "935c1470f8764985755b2b59cec61721", "fusion_lat": 0.0, "rental_uris": {"ios": "https://dc.lft.to/lastmile_qr_scan", "android": "https://dc.lft.to/lastmile_qr_scan"}, "lon": -77.02152283333334, "type": "electric_bike"}, {"bike_id": "049a647458ae02cd9e7425a936abefcc", "is_reserved": 0, "fusion_lon": 0.0, "lat": 38.9170785, "is_disabled": 0, "name": "049a647458ae02cd9e7425a936abefcc", "fusion_lat": 0.0, "rental_uris": {"ios": "https://dc.lft.to/lastmile_qr_scan", "android": "https://dc.lft.to/lastmile_qr_scan"}, "lon": -77.030039, "type": "electric_scooter"}, {"bike_id": "68814185e11ff65aadb849bb7cc360ad", "is_reserved": 0, "fusion_lon": 0.0, "lat": 38.89682783333333, "is_disabled": 0, "name": "68814185e11ff65aadb849bb7cc360ad", "fusion_lat": 0.0, "rental_uris": {"ios": "https://dc.lft.to/lastmile_qr_scan", "android": "https://dc.lft.to/lastmile_qr_scan"}, "lon": -77.011991, "type": "electric_scooter"}, {"bike_id": "dbff577fbcd802218bd6e3f0f4174945", "is_reserved": 0, "fusion_lon": 0.0, "lat": 38.92213, "is_disabled": 0, "name": "dbff577fbcd802218bd6e3f0f4174945", "fusion_lat": 0.0, "rental_uris": {"ios": "https://dc.lft.to/lastmile_qr_scan", "android": "https://dc.lft.to/lastmile_qr_scan"}, "lon": -77.04249033333333, "type": "electric_scooter"}, {"bike_id": "6c4d2e7cfaf96cd2f94fe96309541671", "is_reserved": 0, "fusion_lon": 0.0, "lat": 38.903257833333335, "is_disabled": 0, "name": "6c4d2e7cfaf96cd2f94fe96309541671", "fusion_lat": 0.0, "rental_uris": {"ios": "https://dc.lft.to/lastmile_qr_scan", "android": "https://dc.lft.to/lastmile_qr_scan"}, "lon": -77.03835583333333, "type": "electric_scooter"}, {"bike_id": "c81b936ba6833f463e096b7571ce0e62", "is_reserved": 0, "fusion_lon": 0.0, "lat": 38.91104683333333, "is_disabled": 0, "name": "c81b936ba6833f463e096b7571ce0e62", "fusion_lat": 0.0, "rental_uris": {"ios": "https://dc.lft.to/lastmile_qr_scan", "android": "https://dc.lft.to/lastmile_qr_scan"}, "lon": -77.003563, "type": "electric_scooter"}, {"bike_id": "a794e4cea8b043cf5d0f90af9f82130f", "is_reserved": 0, "fusion_lon": 0.0, "lat": 38.9001125, "is_disabled": 0, "name": "a794e4cea8b043cf5d0f90af9f82130f", "fusion_lat": 0.0, "rental_uris": {"ios": "https://dc.lft.to/lastmile_qr_scan", "android": "https://dc.lft.to/lastmile_qr_scan"}, "lon": -76.99787966666666, "type": "electric_scooter"}, {"bike_id": "319fcba73be286e4072db2097c95ac6a", "is_reserved": 0, "fusion_lon": 0.0, "lat": 38.958864, "is_disabled": 0, "name": "319fcba73be286e4072db2097c95ac6a", "fusion_lat": 0.0, "rental_uris": {"ios": "https://dc.lft.to/lastmile_qr_scan", "android": "https://dc.lft.to/lastmile_qr_scan"}, "lon": -76.92485316666667, "type": "electric_bike"}, {"bike_id": "ee370f98d5e65d03c5bfda994f177363", "is_reserved": 0, "fusion_lon": 0.0, "lat": 38.9120495, "is_disabled": 0, "name": "ee370f98d5e65d03c5bfda994f177363", "fusion_lat": 0.0, "rental_uris": {"ios": "https://dc.lft.to/lastmile_qr_scan", "android": "https://dc.lft.to/lastmile_qr_scan"}, "lon": -77.02956766666667, "type": "electric_scooter"}, {"bike_id": "11e0019c9f45b46fbce6266905c16b0d", "is_reserved": 0, "fusion_lon": 0.0, "lat": 38.91564833333333, "is_disabled": 0, "name": "11e0019c9f45b46fbce6266905c16b0d", "fusion_lat": 0.0, "rental_uris": {"ios": "https://dc.lft.to/lastmile_qr_scan", "android": "https://dc.lft.to/lastmile_qr_scan"}, "lon": -77.033733, "type": "electric_scooter"}, {"bike_id": "ce572ec139938fb4875dcffd5d315b10", "is_reserved": 0, "fusion_lon": 0.0, "lat": 38.90657783333333, "is_disabled": 0, "name": "ce572ec139938fb4875dcffd5d315b10", "fusion_lat": 0.0, "rental_uris": {"ios": "https://dc.lft.to/lastmile_qr_scan", "android": "https://dc.lft.to/lastmile_qr_scan"}, "lon": -77.0098285, "type": "electric_scooter"}, {"bike_id": "b0f7d694e0b0c03201a782cac6e5daf7", "is_reserved": 0, "fusion_lon": 0.0, "lat": 38.90278766666667, "is_disabled": 0, "name": "b0f7d694e0b0c03201a782cac6e5daf7", "fusion_lat": 0.0, "rental_uris": {"ios": "https://dc.lft.to/lastmile_qr_scan", "android": "https://dc.lft.to/lastmile_qr_scan"}, "lon": -77.03846216666666, "type": "electric_scooter"}, {"bike_id": "e53d7d06f385366b626d81a78a400dae", "is_reserved": 0, "fusion_lon": 0.0, "lat": 38.90250533333333, "is_disabled": 0, "name": "e53d7d06f385366b626d81a78a400dae", "fusion_lat": 0.0, "rental_uris": {"ios": "https://dc.lft.to/lastmile_qr_scan", "android": "https://dc.lft.to/lastmile_qr_scan"}, "lon": -77.03955566666667, "type": "electric_scooter"}, {"bike_id": "55655aedfda36cb077979a2288d00da3", "is_reserved": 0, "fusion_lon": 0.0, "lat": 38.90368016666667, "is_disabled": 0, "name": "55655aedfda36cb077979a2288d00da3", "fusion_lat": 0.0, "rental_uris": {"ios": "https://dc.lft.to/lastmile_qr_scan", "android": "https://dc.lft.to/lastmile_qr_scan"}, "lon": -77.04518216666666, "type": "electric_scooter"}, {"bike_id": "b64bc77eec781b2635da9e79bddfc389", "is_reserved": 0, "fusion_lon": 0.0, "lat": 38.890101, "is_disabled": 0, "name": "b64bc77eec781b2635da9e79bddfc389", "fusion_lat": 0.0, "rental_uris": {"ios": "https://dc.lft.to/lastmile_qr_scan", "android": "https://dc.lft.to/lastmile_qr_scan"}, "lon": -76.9374685, "type": "electric_scooter"}, {"bike_id": "0ce8d570d1115c712504f49701c3f6c3", "is_reserved": 0, "fusion_lon": 0.0, "lat": 38.84587166666667, "is_disabled": 0, "name": "0ce8d570d1115c712504f49701c3f6c3", "fusion_lat": 0.0, "rental_uris": {"ios": "https://dc.lft.to/lastmile_qr_scan", "android": "https://dc.lft.to/lastmile_qr_scan"}, "lon": -76.98160266666666, "type": "electric_scooter"}, {"bike_id": "b811cee067fba83a2e78d1e94ab7e993", "is_reserved": 0, "fusion_lon": 0.0, "lat": 38.93515766666667, "is_disabled": 0, "name": "b811cee067fba83a2e78d1e94ab7e993", "fusion_lat": 0.0, "rental_uris": {"ios": "https://dc.lft.to/lastmile_qr_scan", "android": "https://dc.lft.to/lastmile_qr_scan"}, "lon": -77.03297366666666, "type": "electric_scooter"}, {"bike_id": "8629b9bca98e6e3426f75f22a63a0d7b", "is_reserved": 0, "fusion_lon": 0.0, "lat": 38.90522333333333, "is_disabled": 0, "name": "8629b9bca98e6e3426f75f22a63a0d7b", "fusion_lat": 0.0, "rental_uris": {"ios": "https://dc.lft.to/lastmile_qr_scan", "android": "https://dc.lft.to/lastmile_qr_scan"}, "lon": -77.05013283333334, "type": "electric_scooter"}, {"bike_id": "37532863b81a64b3ffe88ff61bc403e8", "is_reserved": 0, "fusion_lon": 0.0, "lat": 38.9161175, "is_disabled": 0, "name": "37532863b81a64b3ffe88ff61bc403e8", "fusion_lat": 0.0, "rental_uris": {"ios": "https://dc.lft.to/lastmile_qr_scan", "android": "https://dc.lft.to/lastmile_qr_scan"}, "lon": -77.02302033333333, "type": "electric_scooter"}, {"bike_id": "1c935aef86c45c51afa3af946a83b17b", "is_reserved": 0, "fusion_lon": 0.0, "lat": 38.892222, "is_disabled": 0, "name": "1c935aef86c45c51afa3af946a83b17b", "fusion_lat": 0.0, "rental_uris": {"ios": "https://dc.lft.to/lastmile_qr_scan", "android": "https://dc.lft.to/lastmile_qr_scan"}, "lon": -77.03220466666667, "type": "electric_scooter"}, {"bike_id": "4e34259ada7a68463ac7e511f3ce8f10", "is_reserved": 0, "fusion_lon": 0.0, "lat": 38.92399916666667, "is_disabled": 0, "name": "4e34259ada7a68463ac7e511f3ce8f10", "fusion_lat": 0.0, "rental_uris": {"ios": "https://dc.lft.to/lastmile_qr_scan", "android": "https://dc.lft.to/lastmile_qr_scan"}, "lon": -77.01961766666666, "type": "electric_scooter"}, {"bike_id": "00730a2137c1b15e1ac355148213c26a", "is_reserved": 0, "fusion_lon": 0.0, "lat": 38.88675116666667, "is_disabled": 0, "name": "00730a2137c1b15e1ac355148213c26a", "fusion_lat": 0.0, "rental_uris": {"ios": "https://dc.lft.to/lastmile_qr_scan", "android": "https://dc.lft.to/lastmile_qr_scan"}, "lon": -77.01370266666666, "type": "electric_scooter"}, {"bike_id": "b4de10ae3bf41d04d3f7c5ee1375ed75", "is_reserved": 0, "fusion_lon": 0.0, "lat": 38.903750333333335, "is_disabled": 0, "name": "b4de10ae3bf41d04d3f7c5ee1375ed75", "fusion_lat": 0.0, "rental_uris": {"ios": "https://dc.lft.to/lastmile_qr_scan", "android": "https://dc.lft.to/lastmile_qr_scan"}, "lon": -77.04190366666667, "type": "electric_scooter"}, {"bike_id": "7cbf631a46c0c298a5053ace7e4373e5", "is_reserved": 0, "fusion_lon": 0.0, "lat": 38.932357833333334, "is_disabled": 0, "name": "7cbf631a46c0c298a5053ace7e4373e5", "fusion_lat": 0.0, "rental_uris": {"ios": "https://dc.lft.to/lastmile_qr_scan", "android": "https://dc.lft.to/lastmile_qr_scan"}, "lon": -77.03891966666667, "type": "electric_scooter"}, {"bike_id": "a7d60423e70282209d5e230be013cf8e", "is_reserved": 0, "fusion_lon": 0.0, "lat": 38.908560666666666, "is_disabled": 0, "name": "a7d60423e70282209d5e230be013cf8e", "fusion_lat": 0.0, "rental_uris": {"ios": "https://dc.lft.to/lastmile_qr_scan", "android": "https://dc.lft.to/lastmile_qr_scan"}, "lon": -77.0272975, "type": "electric_scooter"}, {"bike_id": "627c19fca3308c3d686158d5f1aad05a", "is_reserved": 0, "fusion_lon": 0.0, "lat": 38.9148345, "is_disabled": 0, "name": "627c19fca3308c3d686158d5f1aad05a", "fusion_lat": 0.0, "rental_uris": {"ios": "https://dc.lft.to/lastmile_qr_scan", "android": "https://dc.lft.to/lastmile_qr_scan"}, "lon": -77.03768666666667, "type": "electric_scooter"}, {"bike_id": "d517c36e1f65b80f11305b21e13c1b39", "is_reserved": 0, "fusion_lon": 0.0, "lat": 38.93392933333333, "is_disabled": 0, "name": "d517c36e1f65b80f11305b21e13c1b39", "fusion_lat": 0.0, "rental_uris": {"ios": "https://dc.lft.to/lastmile_qr_scan", "android": "https://dc.lft.to/lastmile_qr_scan"}, "lon": -77.03582783333333, "type": "electric_scooter"}, {"bike_id": "4066851bbe9cd8ebe56b22a937aa3d45", "is_reserved": 0, "fusion_lon": 0.0, "lat": 38.91264366666667, "is_disabled": 0, "name": "4066851bbe9cd8ebe56b22a937aa3d45", "fusion_lat": 0.0, "rental_uris": {"ios": "https://dc.lft.to/lastmile_qr_scan", "android": "https://dc.lft.to/lastmile_qr_scan"}, "lon": -77.025626, "type": "electric_scooter"}, {"bike_id": "5c82c0e804c0b53dce060244ba362b3b", "is_reserved": 0, "fusion_lon": 0.0, "lat": 38.909156833333334, "is_disabled": 0, "name": "5c82c0e804c0b53dce060244ba362b3b", "fusion_lat": 0.0, "rental_uris": {"ios": "https://dc.lft.to/lastmile_qr_scan", "android": "https://dc.lft.to/lastmile_qr_scan"}, "lon": -77.00921983333333, "type": "electric_scooter"}, {"bike_id": "c8fe15cc7d803821ee9f81c7758d99cd", "is_reserved": 0, "fusion_lon": 0.0, "lat": 38.892294166666666, "is_disabled": 0, "name": "c8fe15cc7d803821ee9f81c7758d99cd", "fusion_lat": 0.0, "rental_uris": {"ios": "https://dc.lft.to/lastmile_qr_scan", "android": "https://dc.lft.to/lastmile_qr_scan"}, "lon": -77.02204833333333, "type": "electric_scooter"}, {"bike_id": "ec09590fe07e8eefd3db2a604e57999a", "is_reserved": 0, "fusion_lon": 0.0, "lat": 38.892209, "is_disabled": 0, "name": "ec09590fe07e8eefd3db2a604e57999a", "fusion_lat": 0.0, "rental_uris": {"ios": "https://dc.lft.to/lastmile_qr_scan", "android": "https://dc.lft.to/lastmile_qr_scan"}, "lon": -77.03215483333334, "type": "electric_scooter"}, {"bike_id": "b8b885f8ec2fa89804270eff961668b5", "is_reserved": 0, "fusion_lon": 0.0, "lat": 38.920221833333336, "is_disabled": 0, "name": "b8b885f8ec2fa89804270eff961668b5", "fusion_lat": 0.0, "rental_uris": {"ios": "https://dc.lft.to/lastmile_qr_scan", "android": "https://dc.lft.to/lastmile_qr_scan"}, "lon": -77.027994, "type": "electric_scooter"}, {"bike_id": "77a74a2f74df5a6a806205565550b076", "is_reserved": 0, "fusion_lon": 0.0, "lat": 38.90915833333333, "is_disabled": 0, "name": "77a74a2f74df5a6a806205565550b076", "fusion_lat": 0.0, "rental_uris": {"ios": "https://dc.lft.to/lastmile_qr_scan", "android": "https://dc.lft.to/lastmile_qr_scan"}, "lon": -77.08006983333334, "type": "electric_scooter"}, {"bike_id": "7a59eed762123987b763a31687d6a7a6", "is_reserved": 0, "fusion_lon": 0.0, "lat": 38.90363683333333, "is_disabled": 0, "name": "7a59eed762123987b763a31687d6a7a6", "fusion_lat": 0.0, "rental_uris": {"ios": "https://dc.lft.to/lastmile_qr_scan", "android": "https://dc.lft.to/lastmile_qr_scan"}, "lon": -77.03757033333333, "type": "electric_scooter"}, {"bike_id": "a2f967ae17f739e8af8f31eaa2e2e567", "is_reserved": 0, "fusion_lon": 0.0, "lat": 38.89217216666667, "is_disabled": 0, "name": "a2f967ae17f739e8af8f31eaa2e2e567", "fusion_lat": 0.0, "rental_uris": {"ios": "https://dc.lft.to/lastmile_qr_scan", "android": "https://dc.lft.to/lastmile_qr_scan"}, "lon": -77.107803, "type": "electric_bike"}, {"bike_id": "7335d62a5b0cff65fac9261d22405d75", "is_reserved": 0, "fusion_lon": 0.0, "lat": 38.89625783333334, "is_disabled": 0, "name": "7335d62a5b0cff65fac9261d22405d75", "fusion_lat": 0.0, "rental_uris": {"ios": "https://dc.lft.to/lastmile_qr_scan", "android": "https://dc.lft.to/lastmile_qr_scan"}, "lon": -77.048072, "type": "electric_scooter"}, {"bike_id": "621a444a6f6e426aa79642055b1e7d6a", "is_reserved": 0, "fusion_lon": 0.0, "lat": 38.90447133333333, "is_disabled": 0, "name": "621a444a6f6e426aa79642055b1e7d6a", "fusion_lat": 0.0, "rental_uris": {"ios": "https://dc.lft.to/lastmile_qr_scan", "android": "https://dc.lft.to/lastmile_qr_scan"}, "lon": -76.98882833333333, "type": "electric_scooter"}, {"bike_id": "6cd5ce5c21833db6f4986a93a17db0d3", "is_reserved": 0, "fusion_lon": 0.0, "lat": 38.95931, "is_disabled": 0, "name": "6cd5ce5c21833db6f4986a93a17db0d3", "fusion_lat": 0.0, "rental_uris": {"ios": "https://dc.lft.to/lastmile_qr_scan", "android": "https://dc.lft.to/lastmile_qr_scan"}, "lon": -77.03119333333333, "type": "electric_scooter"}, {"bike_id": "1d95c8336c254cf1c3ea4d351e44343d", "is_reserved": 0, "fusion_lon": 0.0, "lat": 38.896087333333334, "is_disabled": 0, "name": "1d95c8336c254cf1c3ea4d351e44343d", "fusion_lat": 0.0, "rental_uris": {"ios": "https://dc.lft.to/lastmile_qr_scan", "android": "https://dc.lft.to/lastmile_qr_scan"}, "lon": -77.04792783333333, "type": "electric_scooter"}, {"bike_id": "68895278a35bc241c1406a5a6f61785d", "is_reserved": 0, "fusion_lon": 0.0, "lat": 38.8922085, "is_disabled": 0, "name": "68895278a35bc241c1406a5a6f61785d", "fusion_lat": 0.0, "rental_uris": {"ios": "https://dc.lft.to/lastmile_qr_scan", "android": "https://dc.lft.to/lastmile_qr_scan"}, "lon": -77.02625683333333, "type": "electric_scooter"}, {"bike_id": "202a06d17e43442f220dfd41d120d8ac", "is_reserved": 0, "fusion_lon": 0.0, "lat": 38.8850225, "is_disabled": 0, "name": "202a06d17e43442f220dfd41d120d8ac", "fusion_lat": 0.0, "rental_uris": {"ios": "https://dc.lft.to/lastmile_qr_scan", "android": "https://dc.lft.to/lastmile_qr_scan"}, "lon": -77.00565566666667, "type": "electric_scooter"}, {"bike_id": "f9a7f5c0024ccb11ef928fecc3ed7994", "is_reserved": 0, "fusion_lon": 0.0, "lat": 38.91959766666667, "is_disabled": 0, "name": "f9a7f5c0024ccb11ef928fecc3ed7994", "fusion_lat": 0.0, "rental_uris": {"ios": "https://dc.lft.to/lastmile_qr_scan", "android": "https://dc.lft.to/lastmile_qr_scan"}, "lon": -77.0147935, "type": "electric_scooter"}, {"bike_id": "03f31485c4d3f62da8588cbf3147c14d", "is_reserved": 0, "fusion_lon": 0.0, "lat": 38.905019333333335, "is_disabled": 0, "name": "03f31485c4d3f62da8588cbf3147c14d", "fusion_lat": 0.0, "rental_uris": {"ios": "https://dc.lft.to/lastmile_qr_scan", "android": "https://dc.lft.to/lastmile_qr_scan"}, "lon": -76.99018833333334, "type": "electric_scooter"}, {"bike_id": "51200df0a7ddfd07a7a400010df7df18", "is_reserved": 0, "fusion_lon": 0.0, "lat": 38.904750166666666, "is_disabled": 0, "name": "51200df0a7ddfd07a7a400010df7df18", "fusion_lat": 0.0, "rental_uris": {"ios": "https://dc.lft.to/lastmile_qr_scan", "android": "https://dc.lft.to/lastmile_qr_scan"}, "lon": -77.04664116666666, "type": "electric_scooter"}, {"bike_id": "3e82c1302a981c42b0bcab465ceb89fa", "is_reserved": 0, "fusion_lon": 0.0, "lat": 38.904252, "is_disabled": 0, "name": "3e82c1302a981c42b0bcab465ceb89fa", "fusion_lat": 0.0, "rental_uris": {"ios": "https://dc.lft.to/lastmile_qr_scan", "android": "https://dc.lft.to/lastmile_qr_scan"}, "lon": -77.03267516666666, "type": "electric_scooter"}, {"bike_id": "dbb3a757ddf613ede021467bb6267f58", "is_reserved": 0, "fusion_lon": 0.0, "lat": 38.904544, "is_disabled": 0, "name": "dbb3a757ddf613ede021467bb6267f58", "fusion_lat": 0.0, "rental_uris": {"ios": "https://dc.lft.to/lastmile_qr_scan", "android": "https://dc.lft.to/lastmile_qr_scan"}, "lon": -77.0346975, "type": "electric_scooter"}, {"bike_id": "692c558e6f4167c84128889af553c0be", "is_reserved": 0, "fusion_lon": 0.0, "lat": 38.892214333333335, "is_disabled": 0, "name": "692c558e6f4167c84128889af553c0be", "fusion_lat": 0.0, "rental_uris": {"ios": "https://dc.lft.to/lastmile_qr_scan", "android": "https://dc.lft.to/lastmile_qr_scan"}, "lon": -77.04650416666667, "type": "electric_scooter"}, {"bike_id": "1b4cfb5e4d3b7d632a49d677324c54fc", "is_reserved": 0, "fusion_lon": 0.0, "lat": 38.917030833333335, "is_disabled": 0, "name": "1b4cfb5e4d3b7d632a49d677324c54fc", "fusion_lat": 0.0, "rental_uris": {"ios": "https://dc.lft.to/lastmile_qr_scan", "android": "https://dc.lft.to/lastmile_qr_scan"}, "lon": -77.026306, "type": "electric_scooter"}, {"bike_id": "baae85a753ef9e6d4d4d9e64daad8f99", "is_reserved": 0, "fusion_lon": 0.0, "lat": 38.891928, "is_disabled": 0, "name": "baae85a753ef9e6d4d4d9e64daad8f99", "fusion_lat": 0.0, "rental_uris": {"ios": "https://dc.lft.to/lastmile_qr_scan", "android": "https://dc.lft.to/lastmile_qr_scan"}, "lon": -77.028382, "type": "electric_scooter"}, {"bike_id": "4c528cbe7bffa3bccafe76d01b5c4894", "is_reserved": 0, "fusion_lon": 0.0, "lat": 38.905638, "is_disabled": 0, "name": "4c528cbe7bffa3bccafe76d01b5c4894", "fusion_lat": 0.0, "rental_uris": {"ios": "https://dc.lft.to/lastmile_qr_scan", "android": "https://dc.lft.to/lastmile_qr_scan"}, "lon": -77.03440533333334, "type": "electric_scooter"}, {"bike_id": "05ff10c0eace8de5de5a3bf7d818f75d", "is_reserved": 0, "fusion_lon": 0.0, "lat": 38.90967116666667, "is_disabled": 0, "name": "05ff10c0eace8de5de5a3bf7d818f75d", "fusion_lat": 0.0, "rental_uris": {"ios": "https://dc.lft.to/lastmile_qr_scan", "android": "https://dc.lft.to/lastmile_qr_scan"}, "lon": -77.045135, "type": "electric_scooter"}, {"bike_id": "82b2dac46c62baa597bbf754c82802ad", "is_reserved": 0, "fusion_lon": 0.0, "lat": 38.933601833333334, "is_disabled": 0, "name": "82b2dac46c62baa597bbf754c82802ad", "fusion_lat": 0.0, "rental_uris": {"ios": "https://dc.lft.to/lastmile_qr_scan", "android": "https://dc.lft.to/lastmile_qr_scan"}, "lon": -77.069396, "type": "electric_scooter"}, {"bike_id": "979cef623178409e5c596e33a1330498", "is_reserved": 0, "fusion_lon": 0.0, "lat": 38.89902133333333, "is_disabled": 0, "name": "979cef623178409e5c596e33a1330498", "fusion_lat": 0.0, "rental_uris": {"ios": "https://dc.lft.to/lastmile_qr_scan", "android": "https://dc.lft.to/lastmile_qr_scan"}, "lon": -77.03933233333333, "type": "electric_scooter"}, {"bike_id": "c4ee59d02cd17bd59abc6c40ded2fc06", "is_reserved": 0, "fusion_lon": 0.0, "lat": 38.921018, "is_disabled": 0, "name": "c4ee59d02cd17bd59abc6c40ded2fc06", "fusion_lat": 0.0, "rental_uris": {"ios": "https://dc.lft.to/lastmile_qr_scan", "android": "https://dc.lft.to/lastmile_qr_scan"}, "lon": -77.0633725, "type": "electric_scooter"}, {"bike_id": "7de0360cb28cbb4bad50916781514e41", "is_reserved": 0, "fusion_lon": 0.0, "lat": 38.9027435, "is_disabled": 0, "name": "7de0360cb28cbb4bad50916781514e41", "fusion_lat": 0.0, "rental_uris": {"ios": "https://dc.lft.to/lastmile_qr_scan", "android": "https://dc.lft.to/lastmile_qr_scan"}, "lon": -77.03847233333333, "type": "electric_scooter"}, {"bike_id": "2a61b2ce6e65d055bf164a82170c93a0", "is_reserved": 0, "fusion_lon": 0.0, "lat": 38.8922125, "is_disabled": 0, "name": "2a61b2ce6e65d055bf164a82170c93a0", "fusion_lat": 0.0, "rental_uris": {"ios": "https://dc.lft.to/lastmile_qr_scan", "android": "https://dc.lft.to/lastmile_qr_scan"}, "lon": -77.04506566666667, "type": "electric_scooter"}, {"bike_id": "881ed1662ce88ddc9596c0dadfc28691", "is_reserved": 0, "fusion_lon": 0.0, "lat": 38.90978633333334, "is_disabled": 0, "name": "881ed1662ce88ddc9596c0dadfc28691", "fusion_lat": 0.0, "rental_uris": {"ios": "https://dc.lft.to/lastmile_qr_scan", "android": "https://dc.lft.to/lastmile_qr_scan"}, "lon": -77.0487015, "type": "electric_scooter"},