{"data": {"bikes": [{"bike_id": "7caaa2307648ef0b05701e6f70111bab", "is_reserved": 0, "fusion_lon": 0.0, "lat": 38.90667033333333, "is_disabled": 0, "name": "7caaa2307648ef0b05701e6f70111bab", "fusion_lat": 0.0, "rental_uris": {"ios": "https://dc.lft.to/lastmile_qr_scan", "android": "https://dc.lft.to/lastmile_qr_scan"}, "lon": -76.9996135, "type": "electric_bike"}, {"bike_id": "c4ab3dc0dc5c446c5cc8b82df9868e30", "is_reserved": 0, "fusion_lon": 0.0, "lat": 38.92409466666667, "is_disabled": 0, "name": "c4ab3dc0dc5c446c5cc8b82df9868e30", "fusion_lat": 0.0, "rental_uris": {"ios": "https://dc.lft.to/lastmile_qr_scan", "android": "https://dc.lft.to/lastmile_qr_scan"}, "lon": -77.05167683333333, "type": "electric_scooter"}, {"bike_id": "51cd68586d38ac22b1e21ef125b731e0", "is_reserved": 0, "fusion_lon": 0.0, "lat": 38.82449616666667, "is_disabled": 0, "name": "51cd68586d38ac22b1e21ef125b731e0", "fusion_lat": 0.0, "rental_uris": {"ios": "https://dc.lft.to/lastmile_qr_scan", "android": "https://dc.lft.to/lastmile_qr_scan"}, "lon": -77.0704095, "type": "electric_bike"}, {"bike_id": "441b9eaa9431d4cb5a3a2592a245a6ed", "is_reserved": 0, "fusion_lon": 0.0, "lat": 38.88005966666667, "is_disabled": 0, "name": "441b9eaa9431d4cb5a3a2592a245a6ed", "fusion_lat": 0.0, "rental_uris": {"ios": "https://dc.lft.to/lastmile_qr_scan", "android": "https://dc.lft.to/lastmile_qr_scan"}, "lon": -76.91596183333333, "type": "electric_bike"}, {"bike_id": "72e0285c29ab6d0858d13587aee771ff", "is_reserved": 0, "fusion_lon": 0.0, "lat": 38.8902375, "is_disabled": 0, "name": "72e0285c29ab6d0858d13587aee771ff", "fusion_lat": 0.0, "rental_uris": {"ios": "https://dc.lft.to/lastmile_qr_scan", "android": "https://dc.lft.to/lastmile_qr_scan"}, "lon": -76.9368695, "type": "electric_scooter"}, {"bike_id": "0f1b60cbc74f24c44face532e620120a", "is_reserved": 0, "fusion_lon": 0.0, "lat": 38.9333085, "is_disabled": 0, "name": "0f1b60cbc74f24c44face532e620120a", "fusion_lat": 0.0, "rental_uris": {"ios": "https://dc.lft.to/lastmile_qr_scan", "android": "https://dc.lft.to/lastmile_qr_scan"}, "lon": -77.04204816666666, "type": "electric_bike"}, {"bike_id": "a223d0128ae150a429a966a893fff132", "is_reserved": 0, "fusion_lon": 0.0, "lat": 38.922365, "is_disabled": 0, "name": "a223d0128ae150a429a966a893fff132", "fusion_lat": 0.0, "rental_uris": {"ios": "https://dc.lft.to/lastmile_qr_scan", "android": "https://dc.lft.to/lastmile_qr_scan"}, "lon": -77.04136533333333, "type": "electric_scooter"}, {"bike_id": "1f1a3aa400cf7738bb3d0581913a2c08", "is_reserved": 0, "fusion_lon": 0.0, "lat": 38.897846, "is_disabled": 0, "name": "1f1a3aa400cf7738bb3d0581913a2c08", "fusion_lat": 0.0, "rental_uris": {"ios": "https://dc.lft.to/lastmile_qr_scan", "android": "https://dc.lft.to/lastmile_qr_scan"}, "lon": -77.007614, "type": "electric_bike"}, {"bike_id": "b1192d4a88f1271fe4692860bac2a142", "is_reserved": 0, "fusion_lon": 0.0, "lat": 38.908607, "is_disabled": 0, "name": "b1192d4a88f1271fe4692860bac2a142", "fusion_lat": 0.0, "rental_uris": {"ios": "https://dc.lft.to/lastmile_qr_scan", "android": "https://dc.lft.to/lastmile_qr_scan"}, "lon": -77.027263, "type": "electric_scooter"}, {"bike_id": "5a1efd7c1553a0b5c5749e75f49afbf2", "is_reserved": 0, "fusion_lon": 0.0, "lat": 38.955539, "is_disabled": 0, "name": "5a1efd7c1553a0b5c5749e75f49afbf2", "fusion_lat": 0.0, "rental_uris": {"ios": "https://dc.lft.to/lastmile_qr_scan", "android": "https://dc.lft.to/lastmile_qr_scan"}, "lon": -76.9400935, "type": "electric_bike"}, {"bike_id": "1f30f20660f3bf80e5cabc6389619677", "is_reserved": 0, "fusion_lon": 0.0, "lat": 38.91998916666667, "is_disabled": 0, "name": "1f30f20660f3bf80e5cabc6389619677", "fusion_lat": 0.0, "rental_uris": {"ios": "https://dc.lft.to/lastmile_qr_scan", "android": "https://dc.lft.to/lastmile_qr_scan"}, "lon": -77.04167833333334, "type": "electric_scooter"}, {"bike_id": "ecea49d7c07151dbbb84952ef0c065be", "is_reserved": 0, "fusion_lon": 0.0, "lat": 38.909075, "is_disabled": 0, "name": "ecea49d7c07151dbbb84952ef0c065be", "fusion_lat": 0.0, "rental_uris": {"ios": "https://dc.lft.to/lastmile_qr_scan", "android": "https://dc.lft.to/lastmile_qr_scan"}, "lon": -77.086257, "type": "electric_scooter"}, {"bike_id": "d98e8cace1c35061c0c8d09f73808753", "is_reserved": 0, "fusion_lon": 0.0, "lat": 38.902691, "is_disabled": 0, "name": "d98e8cace1c35061c0c8d09f73808753", "fusion_lat": 0.0, "rental_uris": {"ios": "https://dc.lft.to/lastmile_qr_scan", "android": "https://dc.lft.to/lastmile_qr_scan"}, "lon": -77.03673916666666, "type": "electric_scooter"}, {"bike_id": "044b58e2724b5c772c7e0ef91a1e8740", "is_reserved": 0, "fusion_lon": 0.0, "lat": 38.918608, "is_disabled": 0, "name": "044b58e2724b5c772c7e0ef91a1e8740", "fusion_lat": 0.0, "rental_uris": {"ios": "https://dc.lft.to/lastmile_qr_scan", "android": "https://dc.lft.to/lastmile_qr_scan"}, "lon": -76.96090133333334, "type": "electric_bike"}, {"bike_id": "5a4439975d7364c122fab23988654bfc", "is_reserved": 0, "fusion_lon": 0.0, "lat": 38.89228716666667, "is_disabled": 0, "name": "5a4439975d7364c122fab23988654bfc", "fusion_lat": 0.0, "rental_uris": {"ios": "https://dc.lft.to/lastmile_qr_scan", "android": "https://dc.lft.to/lastmile_qr_scan"}, "lon": -77.03213083333333, "type": "electric_scooter"}, {"bike_id": "02e64af64002b14e3a7bdf1e1ac5fa85", "is_reserved": 0, "fusion_lon": 0.0, "lat": 38.90360016666666, "is_disabled": 0, "name": "02e64af64002b14e3a7bdf1e1ac5fa85", "fusion_lat": 0.0, "rental_uris": {"ios": "https://dc.lft.to/lastmile_qr_scan", "android": "https://dc.lft.to/lastmile_qr_scan"}, "lon": -77.039222, "type": "electric_scooter"}, {"bike_id": "9db9219fc231eaf2917093feea527a79", "is_reserved": 0, "fusion_lon": 0.0, "lat": 38.917240666666665, "is_disabled": 0, "name": "9db9219fc231eaf2917093feea527a79", "fusion_lat": 0.0, "rental_uris": {"ios": "https://dc.lft.to/lastmile_qr_scan", "android": "https://dc.lft.to/lastmile_qr_scan"}, "lon": -77.0383975, "type": "electric_scooter"}, {"bike_id": "b5b457b0011551bba9c1a8a36d120787", "is_reserved": 0, "fusion_lon": 0.0, "lat": 38.925167333333334, "is_disabled": 0, "name": "b5b457b0011551bba9c1a8a36d120787", "fusion_lat": 0.0, "rental_uris": {"ios": "https://dc.lft.to/lastmile_qr_scan", "android": "https://dc.lft.to/lastmile_qr_scan"}, "lon": -77.001721, "type": "electric_scooter"}, {"bike_id": "d822d2531dcb14b4cf4568a9705e8213", "is_reserved": 0, "fusion_lon": 0.0, "lat": 38.920306, "is_disabled": 0, "name": "d822d2531dcb14b4cf4568a9705e8213", "fusion_lat": 0.0, "rental_uris": {"ios": "https://dc.lft.to/lastmile_qr_scan", "android": "https://dc.lft.to/lastmile_qr_scan"}, "lon": -77.03862633333334, "type": "electric_scooter"}, {"bike_id": "6a1dc1ac51b847c00831af7af133fc71", "is_reserved": 0, "fusion_lon": 0.0, "lat": 38.8821175, "is_disabled": 0, "name": "6a1dc1ac51b847c00831af7af133fc71", "fusion_lat": 0.0, "rental_uris": {"ios": "https://dc.lft.to/lastmile_qr_scan", "android": "https://dc.lft.to/lastmile_qr_scan"}, "lon": -76.92698233333333, "type": "electric_scooter"}, {"bike_id": "42cb853b5efbce244878e8f8bd0441dc", "is_reserved": 0, "fusion_lon": 0.0, "lat": 38.90613666666667, "is_disabled": 0, "name": "42cb853b5efbce244878e8f8bd0441dc", "fusion_lat": 0.0, "rental_uris": {"ios": "https://dc.lft.to/lastmile_qr_scan", "android": "https://dc.lft.to/lastmile_qr_scan"}, "lon": -77.07489333333334, "type": "electric_scooter"}, {"bike_id": "7297f1ef21d221de5b029c7cff254fbb", "is_reserved": 0, "fusion_lon": 0.0, "lat": 38.896092833333334, "is_disabled": 0, "name": "7297f1ef21d221de5b029c7cff254fbb", "fusion_lat": 0.0, "rental_uris": {"ios": "https://dc.lft.to/lastmile_qr_scan", "android": "https://dc.lft.to/lastmile_qr_scan"}, "lon": -77.00927983333334, "type": "electric_scooter"}, {"bike_id": "e99b3cafa81cf814a3d1754097ce7ccb", "is_reserved": 0, "fusion_lon": 0.0, "lat": 38.923666, "is_disabled": 0, "name": "e99b3cafa81cf814a3d1754097ce7ccb", "fusion_lat": 0.0, "rental_uris": {"ios": "https://dc.lft.to/lastmile_qr_scan", "android": "https://dc.lft.to/lastmile_qr_scan"}, "lon": -77.058394, "type": "electric_scooter"}, {"bike_id": "56d1e13e2a38c7fa4e5ae198f77b91fc", "is_reserved": 0, "fusion_lon": 0.0, "lat": 38.925056833333336, "is_disabled": 0, "name": "56d1e13e2a38c7fa4e5ae198f77b91fc", "fusion_lat": 0.0, "rental_uris": {"ios": "https://dc.lft.to/lastmile_qr_scan", "android": "https://dc.lft.to/lastmile_qr_scan"}, "lon": -77.03326266666667, "type": "electric_scooter"}, {"bike_id": "6417489e6c196fc9cbf2c4e746aeb130", "is_reserved": 0, "fusion_lon": 0.0, "lat": 39.05195283333333, "is_disabled": 0, "name": "6417489e6c196fc9cbf2c4e746aeb130", "fusion_lat": 0.0, "rental_uris": {"ios": "https://dc.lft.to/lastmile_qr_scan", "android": "https://dc.lft.to/lastmile_qr_scan"}, "lon": -77.10919916666667, "type": "electric_bike"}, {"bike_id": "c5c2f172b804f367269c214ef72d11b2", "is_reserved": 0, "fusion_lon": 0.0, "lat": 38.9012115, "is_disabled": 0, "name": "c5c2f172b804f367269c214ef72d11b2", "fusion_lat": 0.0, "rental_uris": {"ios": "https://dc.lft.to/lastmile_qr_scan", "android": "https://dc.lft.to/lastmile_qr_scan"}, "lon": -77.042337, "type": "electric_scooter"}, {"bike_id": "13b0e389f2e6596af0a1f4c468e53795", "is_reserved": 0, "fusion_lon": 0.0, "lat": 38.91466716666667, "is_disabled": 0, "name": "13b0e389f2e6596af0a1f4c468e53795", "fusion_lat": 0.0, "rental_uris": {"ios": "https://dc.lft.to/lastmile_qr_scan", "android": "https://dc.lft.to/lastmile_qr_scan"}, "lon": -77.031959, "type": "electric_scooter"}, {"bike_id": "c97355e862d7741e531b74bc657443f8", "is_reserved": 0, "fusion_lon": 0.0, "lat": 38.91549666666667, "is_disabled": 0, "name": "c97355e862d7741e531b74bc657443f8", "fusion_lat": 0.0, "rental_uris": {"ios": "https://dc.lft.to/lastmile_qr_scan", "android": "https://dc.lft.to/lastmile_qr_scan"}, "lon": -77.039352, "type": "electric_scooter"}, {"bike_id": "8280bdc2572ea6876cd83ee7a3dba544", "is_reserved": 0, "fusion_lon": 0.0, "lat": 38.8665885, "is_disabled": 0, "name": "8280bdc2572ea6876cd83ee7a3dba544", "fusion_lat": 0.0, "rental_uris": {"ios": "https://dc.lft.to/lastmile_qr_scan", "android": "https://dc.lft.to/lastmile_qr_scan"}, "lon": -76.98881316666666, "type": "electric_scooter"}, {"bike_id": "28c29ddb09a5967a751bc7002aaad594", "is_reserved": 0, "fusion_lon": 0.0, "lat": 38.91418683333333, "is_disabled": 0, "name": "28c29ddb09a5967a751bc7002aaad594", "fusion_lat": 0.0, "rental_uris": {"ios": "https://dc.lft.to/lastmile_qr_scan", "android": "https://dc.lft.to/lastmile_qr_scan"}, "lon": -77.04143983333333, "type": "electric_scooter"}, {"bike_id": "472e0e82dfaebbb7d9d37ee60c351ef2", "is_reserved": 0, "fusion_lon": 0.0, "lat": 38.93329933333333, "is_disabled": 0, "name": "472e0e82dfaebbb7d9d37ee60c351ef2", "fusion_lat": 0.0, "rental_uris": {"ios": "https://dc.lft.to/lastmile_qr_scan", "android": "https://dc.lft.to/lastmile_qr_scan"}, "lon": -77.032683, "type": "electric_scooter"}, {"bike_id": "d40d4db8921e188cd2237f23463c6834", "is_reserved": 0, "fusion_lon": 0.0, "lat": 38.915559333333334, "is_disabled": 0, "name": "d40d4db8921e188cd2237f23463c6834", "fusion_lat": 0.0, "rental_uris": {"ios": "https://dc.lft.to/lastmile_qr_scan", "android": "https://dc.lft.to/lastmile_qr_scan"}, "lon": -77.031751, "type": "electric_scooter"}, {"bike_id": "cd6b74f9cc12030133ccf0c4465c10ab", "is_reserved": 0, "fusion_lon": 0.0, "lat": 38.8922645, "is_disabled": 0, "name": "cd6b74f9cc12030133ccf0c4465c10ab", "fusion_lat": 0.0, "rental_uris": {"ios": "https://dc.lft.to/lastmile_qr_scan", "android": "https://dc.lft.to/lastmile_qr_scan"}, "lon": -77.04338616666666, "type": "electric_scooter"}, {"bike_id": "1f27bc7bbb65b3f6fcff113d9521ff28", "is_reserved": 0, "fusion_lon": 0.0, "lat": 38.89651633333333, "is_disabled": 0, "name": "1f27bc7bbb65b3f6fcff113d9521ff28", "fusion_lat": 0.0, "rental_uris": {"ios": "https://dc.lft.to/lastmile_qr_scan", "android": "https://dc.lft.to/lastmile_qr_scan"}, "lon": -77.02963616666666, "type": "electric_scooter"}, {"bike_id": "7a358022e935ee1aa24e36c899435f64", "is_reserved": 0, "fusion_lon": 0.0, "lat": 38.919673, "is_disabled": 0, "name": "7a358022e935ee1aa24e36c899435f64", "fusion_lat": 0.0, "rental_uris": {"ios": "https://dc.lft.to/lastmile_qr_scan", "android": "https://dc.lft.to/lastmile_qr_scan"}, "lon": -77.00108266666666, "type": "electric_scooter"}, {"bike_id": "698de40b9780dfe8479c98d8d8460d4f", "is_reserved": 0, "fusion_lon": 0.0, "lat": 38.923447833333334, "is_disabled": 0, "name": "698de40b9780dfe8479c98d8d8460d4f", "fusion_lat": 0.0, "rental_uris": {"ios": "https://dc.lft.to/lastmile_qr_scan", "android": "https://dc.lft.to/lastmile_qr_scan"}, "lon": -77.01897066666666, "type": "electric_scooter"}, {"bike_id": "b4fa6eb3fe73c67924ad7195e1f2fde3", "is_reserved": 0, "fusion_lon": 0.0, "lat": 38.9058495, "is_disabled": 0, "name": "b4fa6eb3fe73c67924ad7195e1f2fde3", "fusion_lat": 0.0, "rental_uris": {"ios": "https://dc.lft.to/lastmile_qr_scan", "android": "https://dc.lft.to/lastmile_qr_scan"}, "lon": -77.06517983333333, "type": "electric_scooter"}, {"bike_id": "11a04d6d26ca0e732602450c01a19317", "is_reserved": 0, "fusion_lon": 0.0, "lat": 38.9415065, "is_disabled": 0, "name": "11a04d6d26ca0e732602450c01a19317", "fusion_lat": 0.0, "rental_uris": {"ios": "https://dc.lft.to/lastmile_qr_scan", "android": "https://dc.lft.to/lastmile_qr_scan"}, "lon": -77.00196266666667, "type": "electric_bike"}, {"bike_id": "57e99b0dd1120ae4da02374a99556854", "is_reserved": 0, "fusion_lon": 0.0, "lat": 38.920504333333334, "is_disabled": 0, "name": "57e99b0dd1120ae4da02374a99556854", "fusion_lat": 0.0, "rental_uris": {"ios": "https://dc.lft.to/lastmile_qr_scan", "android": "https://dc.lft.to/lastmile_qr_scan"}, "lon": -77.03390916666666, "type": "electric_scooter"}, {"bike_id": "0f1cd8f6f0b73303dd4a68acadcdef42", "is_reserved": 0, "fusion_lon": 0.0, "lat": 38.92333333333333, "is_disabled": 0, "name": "0f1cd8f6f0b73303dd4a68acadcdef42", "fusion_lat": 0.0, "rental_uris": {"ios": "https://dc.lft.to/lastmile_qr_scan", "android": "https://dc.lft.to/lastmile_qr_scan"}, "lon": -77.04393833333333, "type": "electric_scooter"}, {"bike_id": "8aa4d03d732c1ee90c55812c63d4dbdd", "is_reserved": 0, "fusion_lon": 0.0, "lat": 38.905116666666665, "is_disabled": 0, "name": "8aa4d03d732c1ee90c55812c63d4dbdd", "fusion_lat": 0.0, "rental_uris": {"ios": "https://dc.lft.to/lastmile_qr_scan", "android": "https://dc.lft.to/lastmile_qr_scan"}, "lon": -77.063875, "type": "electric_scooter"}, {"bike_id": "23584538fd23966dd5853dae1ab73746", "is_reserved": 0, "fusion_lon": 0.0, "lat": 38.920679, "is_disabled": 0, "name": "23584538fd23966dd5853dae1ab73746", "fusion_lat": 0.0, "rental_uris": {"ios": "https://dc.lft.to/lastmile_qr_scan", "android": "https://dc.lft.to/lastmile_qr_scan"}, "lon": -76.97800866666667, "type": "electric_scooter"}, {"bike_id": "9212316e06e3673e6fc35c7d0748331e", "is_reserved": 0, "fusion_lon": 0.0, "lat": 38.9231805, "is_disabled": 0, "name": "9212316e06e3673e6fc35c7d0748331e", "fusion_lat": 0.0, "rental_uris": {"ios": "https://dc.lft.to/lastmile_qr_scan", "android": "https://dc.lft.to/lastmile_qr_scan"}, "lon": -77.03863, "type": "electric_scooter"}, {"bike_id": "13cb5c3c0d80bd1b656c09c43230d4b6", "is_reserved": 0, "fusion_lon": 0.0, "lat": 38.91270633333333, "is_disabled": 0, "name": "13cb5c3c0d80bd1b656c09c43230d4b6", "fusion_lat": 0.0, "rental_uris": {"ios": "https://dc.lft.to/lastmile_qr_scan", "android": "https://dc.lft.to/lastmile_qr_scan"}, "lon": -77.02209016666667, "type": "electric_scooter"}, {"bike_id": "5c597f0c8709f743e58bc04feb555367", "is_reserved": 0, "fusion_lon": 0.0, "lat": 38.905593333333336, "is_disabled": 0, "name": "5c597f0c8709f743e58bc04feb555367", "fusion_lat": 0.0, "rental_uris": {"ios": "https://dc.lft.to/lastmile_qr_scan", "android": "https://dc.lft.to/lastmile_qr_scan"}, "lon": -77.036343, "type": "electric_scooter"}, {"bike_id": "d4152420388135ca65c7e9be95cf4cc6", "is_reserved": 0, "fusion_lon": 0.0, "lat": 38.926307, "is_disabled": 0, "name": "d4152420388135ca65c7e9be95cf4cc6", "fusion_lat": 0.0, "rental_uris": {"ios": "https://dc.lft.to/lastmile_qr_scan", "android": "https://dc.lft.to/lastmile_qr_scan"}, "lon": -77.035115, "type": "electric_scooter"}, {"bike_id": "ef80ffdfac9102f9f27fb9b1da2f8d21", "is_reserved": 0, "fusion_lon": 0.0, "lat": 38.957877333333336, "is_disabled": 0, "name": "ef80ffdfac9102f9f27fb9b1da2f8d21", "fusion_lat": 0.0, "rental_uris": {"ios": "https://dc.lft.to/lastmile_qr_scan", "android": "https://dc.lft.to/lastmile_qr_scan"}, "lon": -77.0276005, "type": "electric_bike"}, {"bike_id": "2fa2059a1a9cc76affa5f925bfb7655b", "is_reserved": 0, "fusion_lon": 0.0, "lat": 38.9187435, "is_disabled": 0, "name": "2fa2059a1a9cc76affa5f925bfb7655b", "fusion_lat": 0.0, "rental_uris": {"ios": "https://dc.lft.to/lastmile_qr_scan", "android": "https://dc.lft.to/lastmile_qr_scan"}, "lon": -77.04458433333333, "type": "electric_scooter"}, {"bike_id": "56a94a021227a1911c0c6c0718c5df96", "is_reserved": 0, "fusion_lon": 0.0, "lat": 38.890590833333334, "is_disabled": 0, "name": "56a94a021227a1911c0c6c0718c5df96", "fusion_lat": 0.0, "rental_uris": {"ios": "https://dc.lft.to/lastmile_qr_scan", "android": "https://dc.lft.to/lastmile_qr_scan"}, "lon": -77.02303633333334, "type": "electric_scooter"}, {"bike_id": "93b52bd4f3bc64f85fc380c89c686043", "is_reserved": 0, "fusion_lon": 0.0, "lat": 38.884374666666666, "is_disabled": 0, "name": "93b52bd4f3bc64f85fc380c89c686043", "fusion_lat": 0.0, "rental_uris": {"ios": "https://dc.lft.to/lastmile_qr_scan", "android": "https://dc.lft.to/lastmile_qr_scan"}, "lon": -76.9575565, "type": "electric_scooter"}, {"bike_id": "b1c09457b9c4f47d52b2ae50ad6898b5", "is_reserved": 0, "fusion_lon": 0.0, "lat": 38.918434166666664, "is_disabled": 0, "name": "b1c09457b9c4f47d52b2ae50ad6898b5", "fusion_lat": 0.0, "rental_uris": {"ios": "https://dc.lft.to/lastmile_qr_scan", "android": "https://dc.lft.to/lastmile_qr_scan"}, "lon": -77.03896183333333, "type": "electric_scooter"}, {"bike_id": "7ca329febdf0e6f856ce4a2a1f9b48ca", "is_reserved": 0, "fusion_lon": 0.0, "lat": 38.900079166666664, "is_disabled": 0, "name": "7ca329febdf0e6f856ce4a2a1f9b48ca", "fusion_lat": 0.0, "rental_uris": {"ios": "https://dc.lft.to/lastmile_qr_scan", "android": "https://dc.lft.to/lastmile_qr_scan"}, "lon": -76.997847, "type": "electric_scooter"}, {"bike_id": "9c9018ad61154b2e77618a868db33265", "is_reserved": 0, "fusion_lon": 0.0, "lat": 38.91216083333333, "is_disabled": 0, "name": "9c9018ad61154b2e77618a868db33265", "fusion_lat": 0.0, "rental_uris": {"ios": "https://dc.lft.to/lastmile_qr_scan", "android": "https://dc.lft.to/lastmile_qr_scan"}, "lon": -77.02798916666667, "type": "electric_scooter"}, {"bike_id": "fb92c4cb82fc93cff40d22366a48f7e5", "is_reserved": 0, "fusion_lon": 0.0, "lat": 38.965030666666664, "is_disabled": 0, "name": "fb92c4cb82fc93cff40d22366a48f7e5", "fusion_lat": 0.0, "rental_uris": {"ios": "https://dc.lft.to/lastmile_qr_scan", "android": "https://dc.lft.to/lastmile_qr_scan"}, "lon": -77.0648575, "type": "electric_bike"}, {"bike_id": "cf649e943825af96dc09ff86a12f82b6", "is_reserved": 0, "fusion_lon": 0.0, "lat": 38.899229166666665, "is_disabled": 0, "name": "cf649e943825af96dc09ff86a12f82b6", "fusion_lat": 0.0, "rental_uris": {"ios": "https://dc.lft.to/lastmile_qr_scan", "android": "https://dc.lft.to/lastmile_qr_scan"}, "lon": -77.03906483333333, "type": "electric_scooter"}, {"bike_id": "601caa5c24256d14f1979ce5f03d4867", "is_reserved": 0, "fusion_lon": 0.0, "lat": 38.8982325, "is_disabled": 0, "name": "601caa5c24256d14f1979ce5f03d4867", "fusion_lat": 0.0, "rental_uris": {"ios": "https://dc.lft.to/lastmile_qr_scan", "android": "https://dc.lft.to/lastmile_qr_scan"}, "lon": -77.01158383333333, "type": "electric_scooter"}, {"bike_id": "4cb8178ff2f27e39fbcddf3480eb71c3", "is_reserved": 0, "fusion_lon": 0.0, "lat": 38.9177405, "is_disabled": 0, "name": "4cb8178ff2f27e39fbcddf3480eb71c3", "fusion_lat": 0.0, "rental_uris": {"ios": "https://dc.lft.to/lastmile_qr_scan", "android": "https://dc.lft.to/lastmile_qr_scan"}, "lon": -77.0149435, "type": "electric_scooter"}, {"bike_id": "94bd78bb29af669b6b350ee96ee8742c", "is_reserved": 0, "fusion_lon": 0.0, "lat": 38.931459833333335, "is_disabled": 0, "name": "94bd78bb29af669b6b350ee96ee8742c", "fusion_lat": 0.0, "rental_uris": {"ios": "https://dc.lft.to/lastmile_qr_scan", "android": "https://dc.lft.to/lastmile_qr_scan"}, "lon": -77.05706883333333, "type": "electric_scooter"}, {"bike_id": "aeba4afde60c79daeb5d10eada7ec7ce", "is_reserved": 0, "fusion_lon": 0.0, "lat": 38.934573, "is_disabled": 0, "name": "aeba4afde60c79daeb5d10eada7ec7ce", "fusion_lat": 0.0, "rental_uris": {"ios": "https://dc.lft.to/lastmile_qr_scan", "android": "https://dc.lft.to/lastmile_qr_scan"}, "lon": -77.072391, "type": "electric_scooter"}, {"bike_id": "b88f923e21f07b8f3c55fc9672865b14", "is_reserved": 0, "fusion_lon": 0.0, "lat": 38.90967333333333, "is_disabled": 0, "name": "b88f923e21f07b8f3c55fc9672865b14", "fusion_lat": 0.0, "rental_uris": {"ios": "https://dc.lft.to/lastmile_qr_scan", "android": "https://dc.lft.to/lastmile_qr_scan"}, "lon": -77.0418705, "type": "electric_scooter"}, {"bike_id": "3962e71663e1154dd33589a84bf01362", "is_reserved": 0, "fusion_lon": 0.0, "lat": 38.883136, "is_disabled": 0, "name": "3962e71663e1154dd33589a84bf01362", "fusion_lat": 0.0, "rental_uris": {"ios": "https://dc.lft.to/lastmile_qr_scan", "android": "https://dc.lft.to/lastmile_qr_scan"}, "lon": -77.00936316666666, "type": "electric_scooter"}, {"bike_id": "1948116cb2b066ab1de26eff0fecb37b", "is_reserved": 0, "fusion_lon": 0.0, "lat": 38.9182435, "is_disabled": 0, "name": "1948116cb2b066ab1de26eff0fecb37b", "fusion_lat": 0.0, "rental_uris": {"ios": "https://dc.lft.to/lastmile_qr_scan", "android": "https://dc.lft.to/lastmile_qr_scan"}, "lon": -77.01014833333333, "type": "electric_scooter"}, {"bike_id": "c0585aa5041a535d70f12285648b2341", "is_reserved": 0, "fusion_lon": 0.0, "lat": 38.90529433333333, "is_disabled": 0, "name": "c0585aa5041a535d70f12285648b2341", "fusion_lat": 0.0, "rental_uris": {"ios": "https://dc.lft.to/lastmile_qr_scan", "android": "https://dc.lft.to/lastmile_qr_scan"}, "lon": -77.05971283333334, "type": "electric_scooter"}, {"bike_id": "d6cb68a17fcee5ac62cecab728a0ab12", "is_reserved": 0, "fusion_lon": 0.0, "lat": 38.902729, "is_disabled": 0, "name": "d6cb68a17fcee5ac62cecab728a0ab12", "fusion_lat": 0.0, "rental_uris": {"ios": "https://dc.lft.to/lastmile_qr_scan", "android": "https://dc.lft.to/lastmile_qr_scan"}, "lon": -77.033508, "type": "electric_scooter"}, {"bike_id": "4f9f5d9b4a22dc405da2e244ed4c84f6", "is_reserved": 0, "fusion_lon": 0.0, "lat": 38.90514183333333, "is_disabled": 0, "name": "4f9f5d9b4a22dc405da2e244ed4c84f6", "fusion_lat": 0.0, "rental_uris": {"ios": "https://dc.lft.to/lastmile_qr_scan", "android": "https://dc.lft.to/lastmile_qr_scan"}, "lon": -77.052867, "type": "electric_scooter"}, {"bike_id": "865fa5779eeab8adb395018ec3699929", "is_reserved": 0, "fusion_lon": 0.0, "lat": 38.8845375, "is_disabled": 0, "name": "865fa5779eeab8adb395018ec3699929", "fusion_lat": 0.0, "rental_uris": {"ios": "https://dc.lft.to/lastmile_qr_scan", "android": "https://dc.lft.to/lastmile_qr_scan"}, "lon": -77.00566, "type": "electric_scooter"}, {"bike_id": "7cece5ea57a87e50cca49ead829c71d5", "is_reserved": 0, "fusion_lon": 0.0, "lat": 38.89400366666667, "is_disabled": 0, "name": "7cece5ea57a87e50cca49ead829c71d5", "fusion_lat": 0.0, "rental_uris": {"ios": "https://dc.lft.to/lastmile_qr_scan", "android": "https://dc.lft.to/lastmile_qr_scan"}, "lon": -76.9936485, "type": "electric_scooter"}, {"bike_id": "d4b1b650c4884b002e9cd44cf6c93387", "is_reserved": 0, "fusion_lon": 0.0, "lat": 38.94272266666667, "is_disabled": 0, "name": "d4b1b650c4884b002e9cd44cf6c93387", "fusion_lat": 0.0, "rental_uris": {"ios": "https://dc.lft.to/lastmile_qr_scan", "android": "https://dc.lft.to/lastmile_qr_scan"}, "lon": -76.98071833333333, "type": "electric_bike"}, {"bike_id": "bdc5cf744d10da3079e65ef3cc83ce3d", "is_reserved": 0, "fusion_lon": 0.0, "lat": 38.87147916666667, "is_disabled": 0, "name": "bdc5cf744d10da3079e65ef3cc83ce3d", "fusion_lat": 0.0, "rental_uris": {"ios": "https://dc.lft.to/lastmile_qr_scan", "android": "https://dc.lft.to/lastmile_qr_scan"}, "lon": -76.93666816666666, "type": "electric_bike"}, {"bike_id": "1b0df4cc19346f9288f131da947fb111", "is_reserved": 0, "fusion_lon": 0.0, "lat": 38.8925595, "is_disabled": 0, "name": "1b0df4cc19346f9288f131da947fb111", "fusion_lat": 0.0, "rental_uris": {"ios": "https://dc.lft.to/lastmile_qr_scan", "android": "https://dc.lft.to/lastmile_qr_scan"}, "lon": -76.9433685, "type": "electric_scooter"}, {"bike_id": "8031ff9f8eeffa09446aa02ecad43e1e", "is_reserved": 0, "fusion_lon": 0.0, "lat": 38.92744483333333, "is_disabled": 0, "name": "8031ff9f8eeffa09446aa02ecad43e1e", "fusion_lat": 0.0, "rental_uris": {"ios": "https://dc.lft.to/lastmile_qr_scan", "android": "https://dc.lft.to/lastmile_qr_scan"}, "lon": -77.02424216666667, "type": "electric_scooter"}, {"bike_id": "7d62f7557e04e8a94f08339e875efbf7", "is_reserved": 0, "fusion_lon": 0.0, "lat": 38.908171333333335, "is_disabled": 0, "name": "7d62f7557e04e8a94f08339e875efbf7", "fusion_lat": 0.0, "rental_uris": {"ios": "https://dc.lft.to/lastmile_qr_scan", "android": "https://dc.lft.to/lastmile_qr_scan"}, "lon": -77.043247, "type": "electric_scooter"}, {"bike_id": "1dbaff4c7750d6b748a889dc35aef737", "is_reserved": 0, "fusion_lon": 0.0, "lat": 38.90235783333333, "is_disabled": 0, "name": "1dbaff4c7750d6b748a889dc35aef737", "fusion_lat": 0.0, "rental_uris": {"ios": "https://dc.lft.to/lastmile_qr_scan", "android": "https://dc.lft.to/lastmile_qr_scan"}, "lon": -77.01926033333334, "type": "electric_scooter"}, {"bike_id": "204042d0a6f46965d01cbc22a0cc48da", "is_reserved": 0, "fusion_lon": 0.0, "lat": 38.91794983333333, "is_disabled": 0, "name": "204042d0a6f46965d01cbc22a0cc48da", "fusion_lat": 0.0, "rental_uris": {"ios": "https://dc.lft.to/lastmile_qr_scan", "android": "https://dc.lft.to/lastmile_qr_scan"}, "lon": -77.03452733333333, "type": "electric_scooter"}, {"bike_id": "001ea0c6eee348559edeb41546344561", "is_reserved": 0, "fusion_lon": 0.0, "lat": 38.957747499999996, "is_disabled": 0, "name": "001ea0c6eee348559edeb41546344561", "fusion_lat": 0.0, "rental_uris": {"ios": "https://dc.lft.to/lastmile_qr_scan", "android": "https://dc.lft.to/lastmile_qr_scan"}, "lon": -77.01154, "type": "electric_bike"}, {"bike_id": "412cecf4047c25e5dd26840c1d4e52fb", "is_reserved": 0, "fusion_lon": 0.0, "lat": 38.91117533333333, "is_disabled": 0, "name": "412cecf4047c25e5dd26840c1d4e52fb", "fusion_lat": 0.0, "rental_uris": {"ios": "https://dc.lft.to/lastmile_qr_scan", "android": "https://dc.lft.to/lastmile_qr_scan"}, "lon": -77.03836066666666, "type": "electric_scooter"}, {"bike_id": "025bcfc80890b81f7177e3aeed196f92", "is_reserved": 0, "fusion_lon": 0.0, "lat": 38.89614616666667, "is_disabled": 0, "name": "025bcfc80890b81f7177e3aeed196f92", "fusion_lat": 0.0, "rental_uris": {"ios": "https://dc.lft.to/lastmile_qr_scan", "android": "https://dc.lft.to/lastmile_qr_scan"}, "lon": -77.04466866666667, "type": "electric_scooter"}, {"bike_id": "7b2c40b8e328b1ce488df98b21754b58", "is_reserved": 0, "fusion_lon": 0.0, "lat": 38.92163333333333, "is_disabled": 0, "name": "7b2c40b8e328b1ce488df98b21754b58", "fusion_lat": 0.0, "rental_uris": {"ios": "https://dc.lft.to/lastmile_qr_scan", "android": "https://dc.lft.to/lastmile_qr_scan"}, "lon": -77.04697116666667, "type": "electric_scooter"}, {"bike_id": "65712f0acfaf5d591afa698260e43456", "is_reserved": 0, "fusion_lon": 0.0, "lat": 38.95634, "is_disabled": 0, "name": "65712f0acfaf5d591afa698260e43456", "fusion_lat": 0.0, "rental_uris": {"ios": "https://dc.lft.to/lastmile_qr_scan", "android": "https://dc.lft.to/lastmile_qr_scan"}, "lon": -77.02782716666667, "type": "electric_scooter"}, {"bike_id": "a3c07b0b85e733d9927b22625221df89", "is_reserved": 0, "fusion_lon": 0.0, "lat": 38.90873883333333, "is_disabled": 0, "name": "a3c07b0b85e733d9927b22625221df89", "fusion_lat": 0.0, "rental_uris": {"ios": "https://dc.lft.to/lastmile_qr_scan", "android": "https://dc.lft.to/lastmile_qr_scan"}, "lon": -77.03288633333334, "type": "electric_scooter"}, {"bike_id": "bea1898caec2887bba5e03cd976533f4", "is_reserved": 0, "fusion_lon": 0.0, "lat": 38.845783, "is_disabled": 0, "name": "bea1898caec2887bba5e03cd976533f4", "fusion_lat": 0.0, "rental_uris": {"ios": "https://dc.lft.to/lastmile_qr_scan", "android": "https://dc.lft.to/lastmile_qr_scan"}, "lon": -77.09619083333334, "type": "electric_bike"}, {"bike_id": "e34a40073441d9bda16dcf5823246fbe", "is_reserved": 0, "fusion_lon": 0.0, "lat": 38.929617666666665, "is_disabled": 0, "name": "e34a40073441d9bda16dcf5823246fbe", "fusion_lat": 0.0, "rental_uris": {"ios": "https://dc.lft.to/lastmile_qr_scan", "android": "https://dc.lft.to/lastmile_qr_scan"}, "lon": -77.0114955, "type": "electric_scooter"}, {"bike_id": "f4d718513ec42017e65d5530f595ce33", "is_reserved": 0, "fusion_lon": 0.0, "lat": 38.918013, "is_disabled": 0, "name": "f4d718513ec42017e65d5530f595ce33", "fusion_lat": 0.0, "rental_uris": {"ios": "https://dc.lft.to/lastmile_qr_scan", "android": "https://dc.lft.to/lastmile_qr_scan"}, "lon": -77.03454716666667, "type": "electric_scooter"}, {"bike_id": "eeca3ed177bba18e5ae55cf3b54a548b", "is_reserved": 0, "fusion_lon": 0.0, "lat": 38.9052895, "is_disabled": 0, "name": "eeca3ed177bba18e5ae55cf3b54a548b", "fusion_lat": 0.0, "rental_uris": {"ios": "https://dc.lft.to/lastmile_qr_scan", "android": "https://dc.lft.to/lastmile_qr_scan"}, "lon": -77.057588, "type": "electric_scooter"}, {"bike_id": "baf9aa3e833465108f5367b958440ff4", "is_reserved": 0, "fusion_lon": 0.0, "lat": 38.86371783333333, "is_disabled": 0, "name": "baf9aa3e833465108f5367b958440ff4", "fusion_lat": 0.0, "rental_uris": {"ios": "https://dc.lft.to/lastmile_qr_scan", "android": "https://dc.lft.to/lastmile_qr_scan"}, "lon": -77.01364216666667, "type": "electric_scooter"}, {"bike_id": "85c7fd403dafcb90851aeb526270fd8f", "is_reserved": 0, "fusion_lon": 0.0, "lat": 38.917365833333335, "is_disabled": 0, "name": "85c7fd403dafcb90851aeb526270fd8f", "fusion_lat": 0.0, "rental_uris": {"ios": "https://dc.lft.to/lastmile_qr_scan", "android": "https://dc.lft.to/lastmile_qr_scan"}, "lon": -77.01028666666667, "type": "electric_scooter"}, {"bike_id": "3b6c65f77c09ec553609fc98e186310b", "is_reserved": 0, "fusion_lon": 0.0, "lat": 38.9140645, "is_disabled": 0, "name": "3b6c65f77c09ec553609fc98e186310b", "fusion_lat": 0.0, "rental_uris": {"ios": "https://dc.lft.to/lastmile_qr_scan", "android": "https://dc.lft.to/lastmile_qr_scan"}, "lon": -77.00156366666667, "type": "electric_scooter"}, {"bike_id": "0d910743a7f1da8191b69557e925ddc8", "is_reserved": 0, "fusion_lon": 0.0, "lat": 38.900924, "is_disabled": 0, "name": "0d910743a7f1da8191b69557e925ddc8", "fusion_lat": 0.0, "rental_uris": {"ios": "https://dc.lft.to/lastmile_qr_scan", "android": "https://dc.lft.to/lastmile_qr_scan"}, "lon": -77.0242815, "type": "electric_scooter"}, {"bike_id": "6c50bb756631e7db77129e7c41bb96aa", "is_reserved": 0, "fusion_lon": 0.0, "lat": 38.91569966666667, "is_disabled": 0, "name": "6c50bb756631e7db77129e7c41bb96aa", "fusion_lat": 0.0, "rental_uris": {"ios": "https://dc.lft.to/lastmile_qr_scan", "android": "https://dc.lft.to/lastmile_qr_scan"}, "lon": -77.02287083333333, "type": "electric_scooter"}, {"bike_id": "98a69398a01563676a931f6ed35abf98", "is_reserved": 0, "fusion_lon": 0.0, "lat": 38.92080766666667, "is_disabled": 0, "name": "98a69398a01563676a931f6ed35abf98", "fusion_lat": 0.0, "rental_uris": {"ios": "https://dc.lft.to/lastmile_qr_scan", "android": "https://dc.lft.to/lastmile_qr_scan"}, "lon": -77.02434666666667, "type": "electric_scooter"}, {"bike_id": "889f9fb5b24e9b5adde8fa4f8aa44256", "is_reserved": 0, "fusion_lon": 0.0, "lat": 38.91720683333333, "is_disabled": 0, "name": "889f9fb5b24e9b5adde8fa4f8aa44256", "fusion_lat": 0.0, "rental_uris": {"ios": "https://dc.lft.to/lastmile_qr_scan", "android": "https://dc.lft.to/lastmile_qr_scan"}, "lon": -77.0383945, "type": "electric_scooter"}, {"bike_id": "fc9ba9b1085ba43d7d4e81e6e34a4ca3", "is_reserved": 0, "fusion_lon": 0.0, "lat": 38.9439535, "is_disabled": 0, "name": "fc9ba9b1085ba43d7d4e81e6e34a4ca3", "fusion_lat": 0.0, "rental_uris": {"ios": "https://dc.lft.to/lastmile_qr_scan", "android": "https://dc.lft.to/lastmile_qr_scan"}, "lon": -77.03889466666666, "type": "electric_scooter"}, {"bike_id": "86d3094c3eadafde136d513eea4b955c", "is_reserved": 0, "fusion_lon": 0.0, "lat": 38.89878916666667, "is_disabled": 0, "name": "86d3094c3eadafde136d513eea4b955c", "fusion_lat": 0.0, "rental_uris": {"ios": "https://dc.lft.to/lastmile_qr_scan", "android": "https://dc.lft.to/lastmile_qr_scan"}, "lon": -76.93161683333334, "type": "electric_scooter"}, {"bike_id": "f6b59f576c854a5e945cecb405a1bf24", "is_reserved": 0, "fusion_lon": 0.0, "lat": 38.909679833333335, "is_disabled": 0, "name": "f6b59f576c854a5e945cecb405a1bf24", "fusion_lat": 0.0, "rental_uris": {"ios": "https://dc.lft.to/lastmile_qr_scan", "android": "https://dc.lft.to/lastmile_qr_scan"}, "lon": -77.02724766666667, "type": "electric_scooter"}, {"bike_id": "41ee08f48542bd5ca071ecb324ed05e8", "is_reserved": 0, "fusion_lon": 0.0, "lat": 38.914201, "is_disabled": 0, "name": "41ee08f48542bd5ca071ecb324ed05e8", "fusion_lat": 0.0, "rental_uris": {"ios": "https://dc.lft.to/lastmile_qr_scan", "android": "https://dc.lft.to/lastmile_qr_scan"}, "lon": -77.0390905, "type": "electric_scooter"}, {"bike_id": "5302a52a6fb0b9fc7584712ff5d00f5c", "is_reserved": 0, "fusion_lon": 0.0, "lat": 38.925788833333336, "is_disabled": 0, "name": "5302a52a6fb0b9fc7584712ff5d00f5c", "fusion_lat": 0.0, "rental_uris": {"ios": "https://dc.lft.to/lastmile_qr_scan", "android": "https://dc.lft.to/lastmile_qr_scan"}, "lon": -77.025703, "type": "electric_scooter"}, {"bike_id": "ffbbd68e98fb490d781ff9723477b0e7", "is_reserved": 0, "fusion_lon": 0.0, "lat": 38.917681333333334, "is_disabled": 0, "name": "ffbbd68e98fb490d781ff9723477b0e7", "fusion_lat": 0.0, "rental_uris": {"ios": "https://dc.lft.to/lastmile_qr_scan", "android": "https://dc.lft.to/lastmile_qr_scan"}, "lon": -77.02313666666667, "type": "electric_scooter"}, {"bike_id": "0ffa07de5c1bd1e3dd6491bf5199df73", "is_reserved": 0, "fusion_lon": 0.0, "lat": 38.924498, "is_disabled": 0, "name": "0ffa07de5c1bd1e3dd6491bf5199df73", "fusion_lat": 0.0, "rental_uris": {"ios": "https://dc.lft.to/lastmile_qr_scan", "android": "https://dc.lft.to/lastmile_qr_scan"}, "lon": -76.99331316666667, "type": "electric_scooter"}, {"bike_id": "6b64f042d1af9abb814d8887a43a3f9f", "is_reserved": 0, "fusion_lon": 0.0, "lat": 38.901326833333336, "is_disabled": 0, "name": "6b64f042d1af9abb814d8887a43a3f9f", "fusion_lat": 0.0, "rental_uris": {"ios": "https://dc.lft.to/lastmile_qr_scan", "android": "https://dc.lft.to/lastmile_qr_scan"}, "lon": -77.04349566666667, "type": "electric_scooter"}, {"bike_id": "c66464492aab1ed5bd51aacd0a781576", "is_reserved": 0, "fusion_lon": 0.0, "lat": 38.9593105, "is_disabled": 0, "name": "c66464492aab1ed5bd51aacd0a781576", "fusion_lat": 0.0, "rental_uris": {"ios": "https://dc.lft.to/lastmile_qr_scan", "android": "https://dc.lft.to/lastmile_qr_scan"}, "lon": -76.92534983333333, "type": "electric_bike"}, {"bike_id": "93a92de5d7af6fe6e7bc7b5bcc3c6b43", "is_reserved": 0, "fusion_lon": 0.0, "lat": 38.8696335, "is_disabled": 0, "name": "93a92de5d7af6fe6e7bc7b5bcc3c6b43", "fusion_lat": 0.0, "rental_uris": {"ios": "https://dc.lft.to/lastmile_qr_scan", "android": "https://dc.lft.to/lastmile_qr_scan"}, "lon": -77.01376966666666, "type": "electric_scooter"}, {"bike_id": "103578d08235aed2d27e17213eb41c15", "is_reserved": 0, "fusion_lon": 0.0, "lat": 38.92436516666667, "is_disabled": 0, "name": "103578d08235aed2d27e17213eb41c15", "fusion_lat": 0.0, "rental_uris": {"ios": "https://dc.lft.to/lastmile_qr_scan", "android": "https://dc.lft.to/lastmile_qr_scan"}, "lon": -77.04238183333334, "type": "electric_scooter"}, {"bike_id": "a49b3980c7ab3cf6d08dc05333bea594", "is_reserved": 0, "fusion_lon": 0.0, "lat": 38.90281183333333, "is_disabled": 0, "name": "a49b3980c7ab3cf6d08dc05333bea594", "fusion_lat": 0.0, "rental_uris": {"ios": "https://dc.lft.to/lastmile_qr_scan", "android": "https://dc.lft.to/lastmile_qr_scan"}, "lon": -77.038341, "type": "electric_scooter"}, {"bike_id": "b12476603fd967e6f4df5be8066afeaf", "is_reserved": 0, "fusion_lon": 0.0, "lat": 38.90768966666667, "is_disabled": 0, "name": "b12476603fd967e6f4df5be8066afeaf", "fusion_lat": 0.0, "rental_uris": {"ios": "https://dc.lft.to/lastmile_qr_scan", "android": "https://dc.lft.to/lastmile_qr_scan"}, "lon": -77.03192983333334, "type": "electric_scooter"}, {"bike_id": "6ed2bacb2b1238a4a3f3355b700e8874", "is_reserved": 0, "fusion_lon": 0.0, "lat": 38.897342333333334, "is_disabled": 0, "name": "6ed2bacb2b1238a4a3f3355b700e8874", "fusion_lat": 0.0, "rental_uris": {"ios": "https://dc.lft.to/lastmile_qr_scan", "android": "https://dc.lft.to/lastmile_qr_scan"}, "lon": -77.026962, "type": "electric_scooter"}, {"bike_id": "cd6885adf16573c3dd5074935984be45", "is_reserved": 0, "fusion_lon": 0.0, "lat": 38.90692633333333, "is_disabled": 0, "name": "cd6885adf16573c3dd5074935984be45", "fusion_lat": 0.0, "rental_uris": {"ios": "https://dc.lft.to/lastmile_qr_scan", "android": "https://dc.lft.to/lastmile_qr_scan"}, "lon": -77.04415383333334, "type": "electric_scooter"}, {"bike_id": "5dab9968db368e710be4e927b52bcebb", "is_reserved": 0, "fusion_lon": 0.0, "lat": 38.9104425, "is_disabled": 0, "name": "5dab9968db368e710be4e927b52bcebb", "fusion_lat": 0.0, "rental_uris": {"ios": "https://dc.lft.to/lastmile_qr_scan", "android": "https://dc.lft.to/lastmile_qr_scan"}, "lon": -77.0363375, "type": "electric_scooter"}, {"bike_id": "884795989a59c5be766cfc1852e72372", "is_reserved": 0, "fusion_lon": 0.0, "lat": 38.95882833333334, "is_disabled": 0, "name": "884795989a59c5be766cfc1852e72372", "fusion_lat": 0.0, "rental_uris": {"ios": "https://dc.lft.to/lastmile_qr_scan", "android": "https://dc.lft.to/lastmile_qr_scan"}, "lon": -76.97042333333333, "type": "electric_bike"}, {"bike_id": "7dda0214766a86cda3c9196de373eed8", "is_reserved": 0, "fusion_lon": 0.0, "lat": 38.920103833333336, "is_disabled": 0, "name": "7dda0214766a86cda3c9196de373eed8", "fusion_lat": 0.0, "rental_uris": {"ios": "https://dc.lft.to/lastmile_qr_scan", "android": "https://dc.lft.to/lastmile_qr_scan"}, "lon": -77.03773083333333, "type": "electric_scooter"}, {"bike_id": "741eabb586045f4d66df1682ba7abfc4", "is_reserved": 0, "fusion_lon": 0.0, "lat": 38.895965333333336, "is_disabled": 0, "name": "741eabb586045f4d66df1682ba7abfc4", "fusion_lat": 0.0, "rental_uris": {"ios": "https://dc.lft.to/lastmile_qr_scan", "android": "https://dc.lft.to/lastmile_qr_scan"}, "lon": -77.028322, "type": "electric_scooter"}, {"bike_id": "4a13555244637b4540ee5e59362cec77", "is_reserved": 0, "fusion_lon": 0.0, "lat": 38.92246516666667, "is_disabled": 0, "name": "4a13555244637b4540ee5e59362cec77", "fusion_lat": 0.0, "rental_uris": {"ios": "https://dc.lft.to/lastmile_qr_scan", "android": "https://dc.lft.to/lastmile_qr_scan"}, "lon": -77.03068883333333, "type": "electric_scooter"}, {"bike_id": "f30a81ba204380bf2b9628a0c6195175", "is_reserved": 0, "fusion_lon": 0.0, "lat": 38.905998, "is_disabled": 0, "name": "f30a81ba204380bf2b9628a0c6195175", "fusion_lat": 0.0, "rental_uris": {"ios": "https://dc.lft.to/lastmile_qr_scan", "android": "https://dc.lft.to/lastmile_qr_scan"}, "lon": -77.01323333333333, "type": "electric_scooter"}, {"bike_id": "b3d5c308214bd02df648f620dadb602d", "is_reserved": 0, "fusion_lon": 0.0, "lat": 38.8962465, "is_disabled": 0, "name": "b3d5c308214bd02df648f620dadb602d", "fusion_lat": 0.0, "rental_uris": {"ios": "https://dc.lft.to/lastmile_qr_scan", "android": "https://dc.lft.to/lastmile_qr_scan"}, "lon": -76.99843733333333, "type": "electric_scooter"}, {"bike_id": "b26275d40ae85771824fb51a51b84879", "is_reserved": 0, "fusion_lon": 0.0, "lat": 38.904880666666664, "is_disabled": 0, "name": "b26275d40ae85771824fb51a51b84879", "fusion_lat": 0.0, "rental_uris": {"ios": "https://dc.lft.to/lastmile_qr_scan", "android": "https://dc.lft.to/lastmile_qr_scan"}, "lon": -77.043676, "type": "electric_scooter"}, {"bike_id": "f5e890b3d756fb76b38ea22148766bb5", "is_reserved": 0, "fusion_lon": 0.0, "lat": 38.92650716666667, "is_disabled": 0, "name": "f5e890b3d756fb76b38ea22148766bb5", "fusion_lat": 0.0, "rental_uris": {"ios": "https://dc.lft.to/lastmile_qr_scan", "android": "https://dc.lft.to/lastmile_qr_scan"}, "lon": -77.03841, "type": "electric_scooter"}, {"bike_id": "1a1eff166273af7b540d4c441921566e", "is_reserved": 0, "fusion_lon": 0.0, "lat": 38.9075085, "is_disabled": 0, "name": "1a1eff166273af7b540d4c441921566e", "fusion_lat": 0.0, "rental_uris": {"ios": "https://dc.lft.to/lastmile_qr_scan", "android": "https://dc.lft.to/lastmile_qr_scan"}, "lon": -77.00353733333333, "type": "electric_scooter"}, {"bike_id": "25cc30663ed05f4354444ae71de4d3c8", "is_reserved": 0, "fusion_lon": 0.0, "lat": 38.89194083333334, "is_disabled": 0, "name": "25cc30663ed05f4354444ae71de4d3c8", "fusion_lat": 0.0, "rental_uris": {"ios": "https://dc.lft.to/lastmile_qr_scan", "android": "https://dc.lft.to/lastmile_qr_scan"}, "lon": -77.02981383333334, "type": "electric_scooter"}, {"bike_id": "a8671f55f4cc3022eb1c252b281ff574", "is_reserved": 0, "fusion_lon": 0.0, "lat": 38.898142166666666, "is_disabled": 0, "name": "a8671f55f4cc3022eb1c252b281ff574", "fusion_lat": 0.0, "rental_uris": {"ios": "https://dc.lft.to/lastmile_qr_scan", "android": "https://dc.lft.to/lastmile_qr_scan"}, "lon": -77.03306233333333, "type": "electric_scooter"}, {"bike_id": "a7b5823ed15d0432c6baa0c388f6494d", "is_reserved": 0, "fusion_lon": 0.0, "lat": 38.908488166666665, "is_disabled": 0, "name": "a7b5823ed15d0432c6baa0c388f6494d", "fusion_lat": 0.0, "rental_uris": {"ios": "https://dc.lft.to/lastmile_qr_scan", "android": "https://dc.lft.to/lastmile_qr_scan"}, "lon": -77.04424466666667, "type": "electric_scooter"}, {"bike_id": "10cde2c1772d802bcb2579870b501f4a", "is_reserved": 0, "fusion_lon": 0.0, "lat": 38.88999183333333, "is_disabled": 0, "name": "10cde2c1772d802bcb2579870b501f4a", "fusion_lat": 0.0, "rental_uris": {"ios": "https://dc.lft.to/lastmile_qr_scan", "android": "https://dc.lft.to/lastmile_qr_scan"}, "lon": -77.04898316666667, "type": "electric_scooter"}, {"bike_id": "03d859b5d2ea18e39114a480e8c84adf", "is_reserved": 0, "fusion_lon": 0.0, "lat": 38.89387333333333, "is_disabled": 0, "name": "03d859b5d2ea18e39114a480e8c84adf", "fusion_lat": 0.0, "rental_uris": {"ios": "https://dc.lft.to/lastmile_qr_scan", "android": "https://dc.lft.to/lastmile_qr_scan"}, "lon": -77.02253883333333, "type": "electric_bike"}, {"bike_id": "51adeb22d7abe234c1124b9f735eae28", "is_reserved": 0, "fusion_lon": 0.0, "lat": 38.932505166666665, "is_disabled": 0, "name": "51adeb22d7abe234c1124b9f735eae28", "fusion_lat": 0.0, "rental_uris": {"ios": "https://dc.lft.to/lastmile_qr_scan", "android": "https://dc.lft.to/lastmile_qr_scan"}, "lon": -77.03272383333334, "type": "electric_scooter"}, {"bike_id": "756602ee94022fb7851180d5723c9e9c", "is_reserved": 0, "fusion_lon": 0.0, "lat": 38.902743666666666, "is_disabled": 0, "name": "756602ee94022fb7851180d5723c9e9c", "fusion_lat": 0.0, "rental_uris": {"ios": "https://dc.lft.to/lastmile_qr_scan", "android": "https://dc.lft.to/lastmile_qr_scan"}, "lon": -77.059199, "type": "electric_scooter"}, {"bike_id": "6d77cd65983ba62c58cb5ee1a67102b1", "is_reserved": 0, "fusion_lon": 0.0, "lat": 38.922465, "is_disabled": 0, "name": "6d77cd65983ba62c58cb5ee1a67102b1", "fusion_lat": 0.0, "rental_uris": {"ios": "https://dc.lft.to/lastmile_qr_scan", "android": "https://dc.lft.to/lastmile_qr_scan"}, "lon": -77.010009, "type": "electric_scooter"}, {"bike_id": "d540d96b20a5dc843dfb32cd4cf3ffb3", "is_reserved": 0, "fusion_lon": 0.0, "lat": 38.90683583333333, "is_disabled": 0, "name": "d540d96b20a5dc843dfb32cd4cf3ffb3", "fusion_lat": 0.0, "rental_uris": {"ios": "https://dc.lft.to/lastmile_qr_scan", "android": "https://dc.lft.to/lastmile_qr_scan"}, "lon": -77.013492, "type": "electric_scooter"}, {"bike_id": "95070788bb555b21cfc5eff014a7c355", "is_reserved": 0, "fusion_lon": 0.0, "lat": 38.891867166666664, "is_disabled": 0, "name": "95070788bb555b21cfc5eff014a7c355", "fusion_lat": 0.0, "rental_uris": {"ios": "https://dc.lft.to/lastmile_qr_scan", "android": "https://dc.lft.to/lastmile_qr_scan"}, "lon": -77.0023935, "type": "electric_bike"}, {"bike_id": "103e495a12c8da2300fbec4a398b59d4", "is_reserved": 0, "fusion_lon": 0.0, "lat": 38.86904, "is_disabled": 0, "name": "103e495a12c8da2300fbec4a398b59d4", "fusion_lat": 0.0, "rental_uris": {"ios": "https://dc.lft.to/lastmile_qr_scan", "android": "https://dc.lft.to/lastmile_qr_scan"}, "lon": -77.13191766666667, "type": "electric_bike"}, {"bike_id": "87b40e0bd93452d79563b46d8bd0ccc2", "is_reserved": 0, "fusion_lon": 0.0, "lat": 38.90718116666667, "is_disabled": 0, "name": "87b40e0bd93452d79563b46d8bd0ccc2", "fusion_lat": 0.0, "rental_uris": {"ios": "https://dc.lft.to/lastmile_qr_scan", "android": "https://dc.lft.to/lastmile_qr_scan"}, "lon": -77.0435495, "type": "electric_scooter"}, {"bike_id": "d78efe4a517f5d4ecb3da92cbbc4c878", "is_reserved": 0, "fusion_lon": 0.0, "lat": 38.9290435, "is_disabled": 0, "name": "d78efe4a517f5d4ecb3da92cbbc4c878", "fusion_lat": 0.0, "rental_uris": {"ios": "https://dc.lft.to/lastmile_qr_scan", "android": "https://dc.lft.to/lastmile_qr_scan"}, "lon": -77.03164883333334, "type": "electric_scooter"}, {"bike_id": "3ab06fe9ff6ce8b2ee3f1f4134c1926a", "is_reserved": 0, "fusion_lon": 0.0, "lat": 38.918020166666665, "is_disabled": 0, "name": "3ab06fe9ff6ce8b2ee3f1f4134c1926a", "fusion_lat": 0.0, "rental_uris": {"ios": "https://dc.lft.to/lastmile_qr_scan", "android": "https://dc.lft.to/lastmile_qr_scan"}, "lon": -77.0317415, "type": "electric_scooter"}, {"bike_id": "ee92cfa4472fbf2049c36fd741cf4316", "is_reserved": 0, "fusion_lon": 0.0, "lat": 38.916783333333335, "is_disabled": 0, "name": "ee92cfa4472fbf2049c36fd741cf4316", "fusion_lat": 0.0, "rental_uris": {"ios": "https://dc.lft.to/lastmile_qr_scan", "android": "https://dc.lft.to/lastmile_qr_scan"}, "lon": -77.0297215, "type": "electric_scooter"}, {"bike_id": "91c1842598ff71bc1bf5363bfd41f996", "is_reserved": 0, "fusion_lon": 0.0, "lat": 38.91862833333333, "is_disabled": 0, "name": "91c1842598ff71bc1bf5363bfd41f996", "fusion_lat": 0.0, "rental_uris": {"ios": "https://dc.lft.to/lastmile_qr_scan", "android": "https://dc.lft.to/lastmile_qr_scan"}, "lon": -77.03660316666667, "type": "electric_scooter"}, {"bike_id": "1342363be44789bda2806059aaf91d3c", "is_reserved": 0, "fusion_lon": 0.0, "lat": 38.919641, "is_disabled": 0, "name": "1342363be44789bda2806059aaf91d3c", "fusion_lat": 0.0, "rental_uris": {"ios": "https://dc.lft.to/lastmile_qr_scan", "android": "https://dc.lft.to/lastmile_qr_scan"}, "lon": -77.03200633333333, "type": "electric_scooter"}, {"bike_id": "655b95442abc4d45946502d2e3983f47", "is_reserved": 0, "fusion_lon": 0.0, "lat": 38.93199933333333, "is_disabled": 0, "name": "655b95442abc4d45946502d2e3983f47", "fusion_lat": 0.0, "rental_uris": {"ios": "https://dc.lft.to/lastmile_qr_scan", "android": "https://dc.lft.to/lastmile_qr_scan"}, "lon": -77.03856266666666, "type": "electric_scooter"}, {"bike_id": "d52a37e4c698578d5c353f0e8e8dc9b4", "is_reserved": 0, "fusion_lon": 0.0, "lat": 38.895285333333334, "is_disabled": 0, "name": "d52a37e4c698578d5c353f0e8e8dc9b4", "fusion_lat": 0.0, "rental_uris": {"ios": "https://dc.lft.to/lastmile_qr_scan", "android": "https://dc.lft.to/lastmile_qr_scan"}, "lon": -77.03348383333334, "type": "electric_scooter"}, {"bike_id": "bd33e9dc950ec92edac0080a98a3b25e", "is_reserved": 0, "fusion_lon": 0.0, "lat": 38.9089425, "is_disabled": 0, "name": "bd33e9dc950ec92edac0080a98a3b25e", "fusion_lat": 0.0, "rental_uris": {"ios": "https://dc.lft.to/lastmile_qr_scan", "android": "https://dc.lft.to/lastmile_qr_scan"}, "lon": -77.041488, "type": "electric_scooter"}, {"bike_id": "f16174bb8f1b6cd83fb16677252d1378", "is_reserved": 0, "fusion_lon": 0.0, "lat": 38.899638333333336, "is_disabled": 0, "name": "f16174bb8f1b6cd83fb16677252d1378", "fusion_lat": 0.0, "rental_uris": {"ios": "https://dc.lft.to/lastmile_qr_scan", "android": "https://dc.lft.to/lastmile_qr_scan"}, "lon": -76.986784, "type": "electric_bike"}, {"bike_id": "54329c74e6df7fbfbf55ed398c3d999e", "is_reserved": 0, "fusion_lon": 0.0, "lat": 38.9140615, "is_disabled": 0, "name": "54329c74e6df7fbfbf55ed398c3d999e", "fusion_lat": 0.0, "rental_uris": {"ios": "https://dc.lft.to/lastmile_qr_scan", "android": "https://dc.lft.to/lastmile_qr_scan"}, "lon": -77.045637, "type": "electric_scooter"}, {"bike_id": "77c0848647c71694edd84565d7603d27", "is_reserved": 0, "fusion_lon": 0.0, "lat": 38.92445633333333, "is_disabled": 0, "name": "77c0848647c71694edd84565d7603d27", "fusion_lat": 0.0, "rental_uris": {"ios": "https://dc.lft.to/lastmile_qr_scan", "android": "https://dc.lft.to/lastmile_qr_scan"}, "lon": -77.02036816666667, "type": "electric_scooter"}, {"bike_id": "2b4b584aa899499a97f500b8bdf3c2bb", "is_reserved": 0, "fusion_lon": 0.0, "lat": 38.9409365, "is_disabled": 0, "name": "2b4b584aa899499a97f500b8bdf3c2bb", "fusion_lat": 0.0, "rental_uris": {"ios": "https://dc.lft.to/lastmile_qr_scan", "android": "https://dc.lft.to/lastmile_qr_scan"}, "lon": -77.03280783333334, "type": "electric_scooter"}, {"bike_id": "7afcd784cee665deadb13c801ad4584e", "is_reserved": 0, "fusion_lon": 0.0, "lat": 38.92451783333333, "is_disabled": 0, "name": "7afcd784cee665deadb13c801ad4584e", "fusion_lat": 0.0, "rental_uris": {"ios": "https://dc.lft.to/lastmile_qr_scan", "android": "https://dc.lft.to/lastmile_qr_scan"}, "lon": -77.033652, "type": "electric_scooter"}, {"bike_id": "3f9b8fa86765304171fd8edf67fbf149", "is_reserved": 0, "fusion_lon": 0.0, "lat": 38.972334000000004, "is_disabled": 0, "name": "3f9b8fa86765304171fd8edf67fbf149", "fusion_lat": 0.0, "rental_uris": {"ios": "https://dc.lft.to/lastmile_qr_scan", "android": "https://dc.lft.to/lastmile_qr_scan"}, "lon": -77.027131, "type": "electric_scooter"}, {"bike_id": "0ec1f4ee5101bef27dea52d9d053cef4", "is_reserved": 0, "fusion_lon": 0.0, "lat": 38.90793766666667, "is_disabled": 0, "name": "0ec1f4ee5101bef27dea52d9d053cef4", "fusion_lat": 0.0, "rental_uris": {"ios": "https://dc.lft.to/lastmile_qr_scan", "android": "https://dc.lft.to/lastmile_qr_scan"}, "lon": -77.04872466666667, "type": "electric_scooter"}, {"bike_id": "7141651d6280a35ad43555788c1fc414", "is_reserved": 0, "fusion_lon": 0.0, "lat": 38.86425416666667, "is_disabled": 0, "name": "7141651d6280a35ad43555788c1fc414", "fusion_lat": 0.0, "rental_uris": {"ios": "https://dc.lft.to/lastmile_qr_scan", "android": "https://dc.lft.to/lastmile_qr_scan"}, "lon": -76.97453016666667, "type": "electric_scooter"}, {"bike_id": "b4a00fae4bbd40930abacbc5cd295f0c", "is_reserved": 0, "fusion_lon": 0.0, "lat": 38.8940445, "is_disabled": 0, "name": "b4a00fae4bbd40930abacbc5cd295f0c", "fusion_lat": 0.0, "rental_uris": {"ios": "https://dc.lft.to/lastmile_qr_scan", "android": "https://dc.lft.to/lastmile_qr_scan"}, "lon": -76.9480175, "type": "electric_scooter"}, {"bike_id": "e263105f30eecc4d543be3e2f51b4d58", "is_reserved": 0, "fusion_lon": 0.0, "lat": 38.864137, "is_disabled": 0, "name": "e263105f30eecc4d543be3e2f51b4d58", "fusion_lat": 0.0, "rental_uris": {"ios": "https://dc.lft.to/lastmile_qr_scan", "android": "https://dc.lft.to/lastmile_qr_scan"}, "lon": -76.98045833333333, "type": "electric_scooter"}, {"bike_id": "6e420813c64c59c06ef670b25bdcd577", "is_reserved": 0, "fusion_lon": 0.0, "lat": 38.91914966666667, "is_disabled": 0, "name": "6e420813c64c59c06ef670b25bdcd577", "fusion_lat": 0.0, "rental_uris": {"ios": "https://dc.lft.to/lastmile_qr_scan", "android": "https://dc.lft.to/lastmile_qr_scan"}, "lon": -77.0261815, "type": "electric_scooter"}, {"bike_id": "91fe48cc295eeb6f68cb5b871a2f2d0c", "is_reserved": 0, "fusion_lon": 0.0, "lat": 38.899975833333336, "is_disabled": 0, "name": "91fe48cc295eeb6f68cb5b871a2f2d0c", "fusion_lat": 0.0, "rental_uris": {"ios": "https://dc.lft.to/lastmile_qr_scan", "android": "https://dc.lft.to/lastmile_qr_scan"}, "lon": -76.99498483333333, "type": "electric_scooter"}, {"bike_id": "829353401f8b919cc6600361ebfea572", "is_reserved": 0, "fusion_lon": 0.0, "lat": 38.93377183333333, "is_disabled": 0, "name": "829353401f8b919cc6600361ebfea572", "fusion_lat": 0.0, "rental_uris": {"ios": "https://dc.lft.to/lastmile_qr_scan", "android": "https://dc.lft.to/lastmile_qr_scan"}, "lon": -77.0346625, "type": "electric_scooter"}, {"bike_id": "a33de9fa5c7bb9988ca6a430da94cc4a", "is_reserved": 0, "fusion_lon": 0.0, "lat": 38.917260166666665, "is_disabled": 0, "name": "a33de9fa5c7bb9988ca6a430da94cc4a", "fusion_lat": 0.0, "rental_uris": {"ios": "https://dc.lft.to/lastmile_qr_scan", "android": "https://dc.lft.to/lastmile_qr_scan"}, "lon": -77.06836383333334, "type": "electric_scooter"}, {"bike_id": "1ec5778beabdaf6e1cefeb60db87fc56", "is_reserved": 0, "fusion_lon": 0.0, "lat": 38.939031, "is_disabled": 0, "name": "1ec5778beabdaf6e1cefeb60db87fc56", "fusion_lat": 0.0, "rental_uris": {"ios": "https://dc.lft.to/lastmile_qr_scan", "android": "https://dc.lft.to/lastmile_qr_scan"}, "lon": -77.077284, "type": "electric_scooter"}, {"bike_id": "db64db4b788877e942b866d1a6290fc4", "is_reserved": 0, "fusion_lon": 0.0, "lat": 38.89473983333333, "is_disabled": 0, "name": "db64db4b788877e942b866d1a6290fc4", "fusion_lat": 0.0, "rental_uris": {"ios": "https://dc.lft.to/lastmile_qr_scan", "android": "https://dc.lft.to/lastmile_qr_scan"}, "lon": -77.03050083333333, "type": "electric_scooter"}, {"bike_id": "3ed88a7c89989bb8c60f14da81043388", "is_reserved": 0, "fusion_lon": 0.0, "lat": 38.8762745, "is_disabled": 0, "name": "3ed88a7c89989bb8c60f14da81043388", "fusion_lat": 0.0, "rental_uris": {"ios": "https://dc.lft.to/lastmile_qr_scan", "android": "https://dc.lft.to/lastmile_qr_scan"}, "lon": -77.00047316666667, "type": "electric_scooter"}, {"bike_id": "5234b8ce62e551940d341ca037895369", "is_reserved": 0, "fusion_lon": 0.0, "lat": 38.94834916666667, "is_disabled": 0, "name": "5234b8ce62e551940d341ca037895369", "fusion_lat": 0.0, "rental_uris": {"ios": "https://dc.lft.to/lastmile_qr_scan", "android": "https://dc.lft.to/lastmile_qr_scan"}, "lon": -77.03896933333333, "type": "electric_bike"}, {"bike_id": "b214be2cefbc5719af835709fa38bc96", "is_reserved": 0, "fusion_lon": 0.0, "lat": 38.906013, "is_disabled": 0, "name": "b214be2cefbc5719af835709fa38bc96", "fusion_lat": 0.0, "rental_uris": {"ios": "https://dc.lft.to/lastmile_qr_scan", "android": "https://dc.lft.to/lastmile_qr_scan"}, "lon": -77.04031116666667, "type": "electric_scooter"}, {"bike_id": "c4390038f1238c28468e437b887e904e", "is_reserved": 0, "fusion_lon": 0.0, "lat": 38.92848, "is_disabled": 0, "name": "c4390038f1238c28468e437b887e904e", "fusion_lat": 0.0, "rental_uris": {"ios": "https://dc.lft.to/lastmile_qr_scan", "android": "https://dc.lft.to/lastmile_qr_scan"}, "lon": -77.03738116666666, "type": "electric_scooter"}, {"bike_id": "32c5dab9ba9372f29759f0ba8bff6dc7", "is_reserved": 0, "fusion_lon": 0.0, "lat": 38.8975475, "is_disabled": 0, "name": "32c5dab9ba9372f29759f0ba8bff6dc7", "fusion_lat": 0.0, "rental_uris": {"ios": "https://dc.lft.to/lastmile_qr_scan", "android": "https://dc.lft.to/lastmile_qr_scan"}, "lon": -77.02685633333333, "type": "electric_scooter"}, {"bike_id": "63d3a851498bcd24a7a3ce33dd51a375", "is_reserved": 0, "fusion_lon": 0.0, "lat": 38.934491333333334, "is_disabled": 0, "name": "63d3a851498bcd24a7a3ce33dd51a375", "fusion_lat": 0.0, "rental_uris": {"ios": "https://dc.lft.to/lastmile_qr_scan", "android": "https://dc.lft.to/lastmile_qr_scan"}, "lon": -77.02840683333334, "type": "electric_scooter"}, {"bike_id": "22153836d284319021f3147d82fd04ea", "is_reserved": 0, "fusion_lon": 0.0, "lat": 38.907246, "is_disabled": 0, "name": "22153836d284319021f3147d82fd04ea", "fusion_lat": 0.0, "rental_uris": {"ios": "https://dc.lft.to/lastmile_qr_scan", "android": "https://dc.lft.to/lastmile_qr_scan"}, "lon": -77.0298405, "type": "electric_scooter"}, {"bike_id": "ac620937e76c4646e05719d5db68cfa5", "is_reserved": 0, "fusion_lon": 0.0, "lat": 38.930926166666666, "is_disabled": 0, "name": "ac620937e76c4646e05719d5db68cfa5", "fusion_lat": 0.0, "rental_uris": {"ios": "https://dc.lft.to/lastmile_qr_scan", "android": "https://dc.lft.to/lastmile_qr_scan"}, "lon": -77.03477383333333, "type": "electric_scooter"}, {"bike_id": "236af69b632f57243f05e9ef972d79ef", "is_reserved": 0, "fusion_lon": 0.0, "lat": 38.88501266666667, "is_disabled": 0, "name": "236af69b632f57243f05e9ef972d79ef", "fusion_lat": 0.0, "rental_uris": {"ios": "https://dc.lft.to/lastmile_qr_scan", "android": "https://dc.lft.to/lastmile_qr_scan"}, "lon": -77.0056895, "type": "electric_scooter"}, {"bike_id": "dc9ac8af5f01196aaea9954d186de64b", "is_reserved": 0, "fusion_lon": 0.0, "lat": 38.9234845, "is_disabled": 0, "name": "dc9ac8af5f01196aaea9954d186de64b", "fusion_lat": 0.0, "rental_uris": {"ios": "https://dc.lft.to/lastmile_qr_scan", "android": "https://dc.lft.to/lastmile_qr_scan"}, "lon": -77.04344316666666, "type": "electric_scooter"}, {"bike_id": "02aa5fb1c8b20286a01d05a456f3af7f", "is_reserved": 0, "fusion_lon": 0.0, "lat": 38.883289, "is_disabled": 0, "name": "02aa5fb1c8b20286a01d05a456f3af7f", "fusion_lat": 0.0, "rental_uris": {"ios": "https://dc.lft.to/lastmile_qr_scan", "android": "https://dc.lft.to/lastmile_qr_scan"}, "lon": -77.01775533333333, "type": "electric_scooter"}, {"bike_id": "8bc2535ab7ca46b95aefbf8f11a69a0b", "is_reserved": 0, "fusion_lon": 0.0, "lat": 38.919369, "is_disabled": 0, "name": "8bc2535ab7ca46b95aefbf8f11a69a0b", "fusion_lat": 0.0, "rental_uris": {"ios": "https://dc.lft.to/lastmile_qr_scan", "android": "https://dc.lft.to/lastmile_qr_scan"}, "lon": -77.02501916666667, "type": "electric_scooter"}, {"bike_id": "3ce480a6b3006394754f3098b7384331", "is_reserved": 0, "fusion_lon": 0.0, "lat": 38.930644, "is_disabled": 0, "name": "3ce480a6b3006394754f3098b7384331", "fusion_lat": 0.0, "rental_uris": {"ios": "https://dc.lft.to/lastmile_qr_scan", "android": "https://dc.lft.to/lastmile_qr_scan"}, "lon": -77.03190066666667, "type": "electric_scooter"}, {"bike_id": "2b9a0833bb78248bdf98267786a3f2ba", "is_reserved": 0, "fusion_lon": 0.0, "lat": 38.900277833333334, "is_disabled": 0, "name": "2b9a0833bb78248bdf98267786a3f2ba", "fusion_lat": 0.0, "rental_uris": {"ios": "https://dc.lft.to/lastmile_qr_scan", "android": "https://dc.lft.to/lastmile_qr_scan"}, "lon": -76.99537283333333, "type": "electric_scooter"}, {"bike_id": "2a1e9461977f42778bd3040da6d37f50", "is_reserved": 0, "fusion_lon": 0.0, "lat": 38.86720833333333, "is_disabled": 0, "name": "2a1e9461977f42778bd3040da6d37f50", "fusion_lat": 0.0, "rental_uris": {"ios": "https://dc.lft.to/lastmile_qr_scan", "android": "https://dc.lft.to/lastmile_qr_scan"}, "lon": -76.98776316666667, "type": "electric_scooter"}, {"bike_id": "8a2ca2c6d5979e7bed9a0bf8304622ea", "is_reserved": 0, "fusion_lon": 0.0, "lat": 38.936372666666664, "is_disabled": 0, "name": "8a2ca2c6d5979e7bed9a0bf8304622ea", "fusion_lat": 0.0, "rental_uris": {"ios": "https://dc.lft.to/lastmile_qr_scan", "android": "https://dc.lft.to/lastmile_qr_scan"}, "lon": -77.03632716666667, "type": "electric_scooter"}, {"bike_id": "3a825a36054bcbb3454b9496daf831c5", "is_reserved": 0, "fusion_lon": 0.0, "lat": 38.92478766666667, "is_disabled": 0, "name": "3a825a36054bcbb3454b9496daf831c5", "fusion_lat": 0.0, "rental_uris": {"ios": "https://dc.lft.to/lastmile_qr_scan", "android": "https://dc.lft.to/lastmile_qr_scan"}, "lon": -77.03769133333333, "type": "electric_scooter"}, {"bike_id": "d4eff321008f5a496116609d609b00dd", "is_reserved": 0, "fusion_lon": 0.0, "lat": 38.89774883333333, "is_disabled": 0, "name": "d4eff321008f5a496116609d609b00dd", "fusion_lat": 0.0, "rental_uris": {"ios": "https://dc.lft.to/lastmile_qr_scan", "android": "https://dc.lft.to/lastmile_qr_scan"}, "lon": -76.90432616666666, "type": "electric_bike"}, {"bike_id": "7479888b8e2b9b25063ac2b772e8b219", "is_reserved": 0, "fusion_lon": 0.0, "lat": 38.91843166666666, "is_disabled": 0, "name": "7479888b8e2b9b25063ac2b772e8b219", "fusion_lat": 0.0, "rental_uris": {"ios": "https://dc.lft.to/lastmile_qr_scan", "android": "https://dc.lft.to/lastmile_qr_scan"}, "lon": -77.03902583333333, "type": "electric_scooter"}, {"bike_id": "5ca0bb1db4e2e1f616fbc114b613f02c", "is_reserved": 0, "fusion_lon": 0.0, "lat": 38.89933633333333, "is_disabled": 0, "name": "5ca0bb1db4e2e1f616fbc114b613f02c", "fusion_lat": 0.0, "rental_uris": {"ios": "https://dc.lft.to/lastmile_qr_scan", "android": "https://dc.lft.to/lastmile_qr_scan"}, "lon": -77.03194166666667, "type": "electric_scooter"}, {"bike_id": "2609d8d6f7e5258dce2eae4a7c328545", "is_reserved": 0, "fusion_lon": 0.0, "lat": 38.8979985, "is_disabled": 0, "name": "2609d8d6f7e5258dce2eae4a7c328545", "fusion_lat": 0.0, "rental_uris": {"ios": "https://dc.lft.to/lastmile_qr_scan", "android": "https://dc.lft.to/lastmile_qr_scan"}, "lon": -76.9916115, "type": "electric_scooter"}, {"bike_id": "47b13bed4d180479a16ef32eba2c09ec", "is_reserved": 0, "fusion_lon": 0.0, "lat": 38.9369865, "is_disabled": 0, "name": "47b13bed4d180479a16ef32eba2c09ec", "fusion_lat": 0.0, "rental_uris": {"ios": "https://dc.lft.to/lastmile_qr_scan", "android": "https://dc.lft.to/lastmile_qr_scan"}, "lon": -77.02980266666667, "type": "electric_bike"}, {"bike_id": "b534eababae91f6219a3c7cf763c31f0", "is_reserved": 0, "fusion_lon": 0.0, "lat": 38.917405, "is_disabled": 0, "name": "b534eababae91f6219a3c7cf763c31f0", "fusion_lat": 0.0, "rental_uris": {"ios": "https://dc.lft.to/lastmile_qr_scan", "android": "https://dc.lft.to/lastmile_qr_scan"}, "lon": -77.04412116666667, "type": "electric_scooter"}, {"bike_id": "7ec216cce6b3e9055b0f2f3c8cd13e87", "is_reserved": 0, "fusion_lon": 0.0, "lat": 38.919813166666664, "is_disabled": 0, "name": "7ec216cce6b3e9055b0f2f3c8cd13e87", "fusion_lat": 0.0, "rental_uris": {"ios": "https://dc.lft.to/lastmile_qr_scan", "android": "https://dc.lft.to/lastmile_qr_scan"}, "lon": -77.04436816666667, "type": "electric_scooter"}, {"bike_id": "f2e81ab28ba908d73c7561e4e63e6860", "is_reserved": 0, "fusion_lon": 0.0, "lat": 38.898503, "is_disabled": 0, "name": "f2e81ab28ba908d73c7561e4e63e6860", "fusion_lat": 0.0, "rental_uris": {"ios": "https://dc.lft.to/lastmile_qr_scan", "android": "https://dc.lft.to/lastmile_qr_scan"}, "lon": -77.03201666666666, "type": "electric_scooter"}, {"bike_id": "219748c6c53b64c5bed7408c6466de1f", "is_reserved": 0, "fusion_lon": 0.0, "lat": 38.8828145, "is_disabled": 0, "name": "219748c6c53b64c5bed7408c6466de1f", "fusion_lat": 0.0, "rental_uris": {"ios": "https://dc.lft.to/lastmile_qr_scan", "android": "https://dc.lft.to/lastmile_qr_scan"}, "lon": -76.98611333333334, "type": "electric_scooter"}, {"bike_id": "9e12264ed72d33e4e8b39332d4495a8c", "is_reserved": 0, "fusion_lon": 0.0, "lat": 38.88859383333333, "is_disabled": 0, "name": "9e12264ed72d33e4e8b39332d4495a8c", "fusion_lat": 0.0, "rental_uris": {"ios": "https://dc.lft.to/lastmile_qr_scan", "android": "https://dc.lft.to/lastmile_qr_scan"}, "lon": -77.03248316666667, "type": "electric_bike"}, {"bike_id": "6370486acf9be0292ebbb40cd4092cdb", "is_reserved": 0, "fusion_lon": 0.0, "lat": 38.9024005, "is_disabled": 0, "name": "6370486acf9be0292ebbb40cd4092cdb", "fusion_lat": 0.0, "rental_uris": {"ios": "https://dc.lft.to/lastmile_qr_scan", "android": "https://dc.lft.to/lastmile_qr_scan"}, "lon": -77.00197883333334, "type": "electric_scooter"}, {"bike_id": "4769e77ee9e14325115741e1167996b9", "is_reserved": 0, "fusion_lon": 0.0, "lat": 38.91334966666667, "is_disabled": 0, "name": "4769e77ee9e14325115741e1167996b9", "fusion_lat": 0.0, "rental_uris": {"ios": "https://dc.lft.to/lastmile_qr_scan", "android": "https://dc.lft.to/lastmile_qr_scan"}, "lon": -77.048164, "type": "electric_scooter"}, {"bike_id": "9d07ac9b1505ce00ba771b147c0a288e", "is_reserved": 0, "fusion_lon": 0.0, "lat": 38.90391533333333, "is_disabled": 0, "name": "9d07ac9b1505ce00ba771b147c0a288e", "fusion_lat": 0.0, "rental_uris": {"ios": "https://dc.lft.to/lastmile_qr_scan", "android": "https://dc.lft.to/lastmile_qr_scan"}, "lon": -77.04439183333334, "type": "electric_scooter"}, {"bike_id": "94bfd7c9766ff188955e943c5501ddf7", "is_reserved": 0, "fusion_lon": 0.0, "lat": 38.90002783333333, "is_disabled": 0, "name": "94bfd7c9766ff188955e943c5501ddf7", "fusion_lat": 0.0, "rental_uris": {"ios": "https://dc.lft.to/lastmile_qr_scan", "android": "https://dc.lft.to/lastmile_qr_scan"}, "lon": -77.03314366666666, "type": "electric_scooter"}, {"bike_id": "3d57fa2a7c4cef8508c74a9d8750f905", "is_reserved": 0, "fusion_lon": 0.0, "lat": 38.9418005, "is_disabled": 0, "name": "3d57fa2a7c4cef8508c74a9d8750f905", "fusion_lat": 0.0, "rental_uris": {"ios": "https://dc.lft.to/lastmile_qr_scan", "android": "https://dc.lft.to/lastmile_qr_scan"}, "lon": -77.03656066666667, "type": "electric_scooter"}, {"bike_id": "421d00bd1fcdc121563b485d837a4251", "is_reserved": 0, "fusion_lon": 0.0, "lat": 38.8799105, "is_disabled": 0, "name": "421d00bd1fcdc121563b485d837a4251", "fusion_lat": 0.0, "rental_uris": {"ios": "https://dc.lft.to/lastmile_qr_scan", "android": "https://dc.lft.to/lastmile_qr_scan"}, "lon": -76.91593983333334, "type": "electric_bike"}, {"bike_id": "592d63a2f76667c8971c8df5ea310480", "is_reserved": 0, "fusion_lon": 0.0, "lat": 38.909613666666665, "is_disabled": 0, "name": "592d63a2f76667c8971c8df5ea310480", "fusion_lat": 0.0, "rental_uris": {"ios": "https://dc.lft.to/lastmile_qr_scan", "android": "https://dc.lft.to/lastmile_qr_scan"}, "lon": -77.03166683333333, "type": "electric_scooter"}, {"bike_id": "ed5a7f65cf6069d3162d88c7c7979f45", "is_reserved": 0, "fusion_lon": 0.0, "lat": 38.92225833333333, "is_disabled": 0, "name": "ed5a7f65cf6069d3162d88c7c7979f45", "fusion_lat": 0.0, "rental_uris": {"ios": "https://dc.lft.to/lastmile_qr_scan", "android": "https://dc.lft.to/lastmile_qr_scan"}, "lon": -77.03355716666667, "type": "electric_scooter"}, {"bike_id": "e0002dd905b0fa8ae1d72d74b29ebe98", "is_reserved": 0, "fusion_lon": 0.0, "lat": 38.91872883333333, "is_disabled": 0, "name": "e0002dd905b0fa8ae1d72d74b29ebe98", "fusion_lat": 0.0, "rental_uris": {"ios": "https://dc.lft.to/lastmile_qr_scan", "android": "https://dc.lft.to/lastmile_qr_scan"}, "lon": -77.04382716666667, "type": "electric_scooter"}, {"bike_id": "a28ab60a4ad012965b324e8de49997f1", "is_reserved": 0, "fusion_lon": 0.0, "lat": 38.90155466666667, "is_disabled": 0, "name": "a28ab60a4ad012965b324e8de49997f1", "fusion_lat": 0.0, "rental_uris": {"ios": "https://dc.lft.to/lastmile_qr_scan", "android": "https://dc.lft.to/lastmile_qr_scan"}, "lon": -76.93062983333333, "type": "electric_scooter"}, {"bike_id": "ae02711fe5b7b139116088044d8a856b", "is_reserved": 0, "fusion_lon": 0.0, "lat": 38.9182655, "is_disabled": 0, "name": "ae02711fe5b7b139116088044d8a856b", "fusion_lat": 0.0, "rental_uris": {"ios": "https://dc.lft.to/lastmile_qr_scan", "android": "https://dc.lft.to/lastmile_qr_scan"}, "lon": -77.04170616666667, "type": "electric_scooter"}, {"bike_id": "45f1e52c4fca1f71ad46772d8bd7febe", "is_reserved": 0, "fusion_lon": 0.0, "lat": 38.91592883333333, "is_disabled": 0, "name": "45f1e52c4fca1f71ad46772d8bd7febe", "fusion_lat": 0.0, "rental_uris": {"ios": "https://dc.lft.to/lastmile_qr_scan", "android": "https://dc.lft.to/lastmile_qr_scan"}, "lon": -77.04465533333334, "type": "electric_scooter"}, {"bike_id": "ce88e7057adf058e327b73af5b902d26", "is_reserved": 0, "fusion_lon": 0.0, "lat": 38.918268833333336, "is_disabled": 0, "name": "ce88e7057adf058e327b73af5b902d26", "fusion_lat": 0.0, "rental_uris": {"ios": "https://dc.lft.to/lastmile_qr_scan", "android": "https://dc.lft.to/lastmile_qr_scan"}, "lon": -77.04172383333334, "type": "electric_scooter"}, {"bike_id": "ecb1b3e7f31b590828c96544c80a0f71", "is_reserved": 0, "fusion_lon": 0.0, "lat": 38.9406765, "is_disabled": 0, "name": "ecb1b3e7f31b590828c96544c80a0f71", "fusion_lat": 0.0, "rental_uris": {"ios": "https://dc.lft.to/lastmile_qr_scan", "android": "https://dc.lft.to/lastmile_qr_scan"}, "lon": -76.9945645, "type": "electric_scooter"}, {"bike_id": "b7e69111a0ed075faf39acd4348a0f8e", "is_reserved": 0, "fusion_lon": 0.0, "lat": 38.918538, "is_disabled": 0, "name": "b7e69111a0ed075faf39acd4348a0f8e", "fusion_lat": 0.0, "rental_uris": {"ios": "https://dc.lft.to/lastmile_qr_scan", "android": "https://dc.lft.to/lastmile_qr_scan"}, "lon": -76.96558216666666, "type": "electric_scooter"}, {"bike_id": "8cb2edb8a3f5c3e24401158d5b73ce3f", "is_reserved": 0, "fusion_lon": 0.0, "lat": 38.926906, "is_disabled": 0, "name": "8cb2edb8a3f5c3e24401158d5b73ce3f", "fusion_lat": 0.0, "rental_uris": {"ios": "https://dc.lft.to/lastmile_qr_scan", "android": "https://dc.lft.to/lastmile_qr_scan"}, "lon": -77.09558516666667, "type": "electric_scooter"}, {"bike_id": "9ca6d3fd20406777c5326ff4d62f98a1", "is_reserved": 0, "fusion_lon": 0.0, "lat": 38.91569833333333, "is_disabled": 0, "name": "9ca6d3fd20406777c5326ff4d62f98a1", "fusion_lat": 0.0, "rental_uris": {"ios": "https://dc.lft.to/lastmile_qr_scan", "android": "https://dc.lft.to/lastmile_qr_scan"}, "lon": -77.03850083333333, "type": "electric_scooter"}, {"bike_id": "421bc369e44717b084af7c2b4e12b581", "is_reserved": 0, "fusion_lon": 0.0, "lat": 38.94190566666666, "is_disabled": 0, "name": "421bc369e44717b084af7c2b4e12b581", "fusion_lat": 0.0, "rental_uris": {"ios": "https://dc.lft.to/lastmile_qr_scan", "android": "https://dc.lft.to/lastmile_qr_scan"}, "lon": -77.0170515, "type": "electric_scooter"}, {"bike_id": "c76eba5b951b03c8b63fe07be3a390ca", "is_reserved": 0, "fusion_lon": 0.0, "lat": 38.902410333333336, "is_disabled": 0, "name": "c76eba5b951b03c8b63fe07be3a390ca", "fusion_lat": 0.0, "rental_uris": {"ios": "https://dc.lft.to/lastmile_qr_scan", "android": "https://dc.lft.to/lastmile_qr_scan"}, "lon": -76.974127, "type": "electric_scooter"}, {"bike_id": "33701188aefe68fb3e3547d0b133c375", "is_reserved": 0, "fusion_lon": 0.0, "lat": 38.8980235, "is_disabled": 0, "name": "33701188aefe68fb3e3547d0b133c375", "fusion_lat": 0.0, "rental_uris": {"ios": "https://dc.lft.to/lastmile_qr_scan", "android": "https://dc.lft.to/lastmile_qr_scan"}, "lon": -77.00606666666667, "type": "electric_bike"}, {"bike_id": "0e8c9ef9d7578ee3ef6b462d27d689d0", "is_reserved": 0, "fusion_lon": 0.0, "lat": 38.91588316666667, "is_disabled": 0, "name": "0e8c9ef9d7578ee3ef6b462d27d689d0", "fusion_lat": 0.0, "rental_uris": {"ios": "https://dc.lft.to/lastmile_qr_scan", "android": "https://dc.lft.to/lastmile_qr_scan"}, "lon": -77.04171883333333, "type": "electric_scooter"}, {"bike_id": "b5ba9dd360c3b4df3b754fae535d88e9", "is_reserved": 0, "fusion_lon": 0.0, "lat": 38.96759866666667, "is_disabled": 0, "name": "b5ba9dd360c3b4df3b754fae535d88e9", "fusion_lat": 0.0, "rental_uris": {"ios": "https://dc.lft.to/lastmile_qr_scan", "android": "https://dc.lft.to/lastmile_qr_scan"}, "lon": -77.09160366666667, "type": "electric_bike"}, {"bike_id": "f5e6892a51dce6927b1cfc1e949497d8", "is_reserved": 0, "fusion_lon": 0.0, "lat": 38.937539, "is_disabled": 0, "name": "f5e6892a51dce6927b1cfc1e949497d8", "fusion_lat": 0.0, "rental_uris": {"ios": "https://dc.lft.to/lastmile_qr_scan", "android": "https://dc.lft.to/lastmile_qr_scan"}, "lon": -77.03573233333333, "type": "electric_scooter"}, {"bike_id": "d0dded4f4e1df72e6a128475c530278c", "is_reserved": 0, "fusion_lon": 0.0, "lat": 38.9057105, "is_disabled": 0, "name": "d0dded4f4e1df72e6a128475c530278c", "fusion_lat": 0.0, "rental_uris": {"ios": "https://dc.lft.to/lastmile_qr_scan", "android": "https://dc.lft.to/lastmile_qr_scan"}, "lon": -77.01507483333333, "type": "electric_scooter"}, {"bike_id": "a914775e90239a8a2337bc22570a7f58", "is_reserved": 0, "fusion_lon": 0.0, "lat": 38.900038, "is_disabled": 0, "name": "a914775e90239a8a2337bc22570a7f58", "fusion_lat": 0.0, "rental_uris": {"ios": "https://dc.lft.to/lastmile_qr_scan", "android": "https://dc.lft.to/lastmile_qr_scan"}, "lon": -77.043936, "type": "electric_scooter"}, {"bike_id": "444cc03d00abf6b7a79baec86eaf07dc", "is_reserved": 0, "fusion_lon": 0.0, "lat": 38.9075535, "is_disabled": 0, "name": "444cc03d00abf6b7a79baec86eaf07dc", "fusion_lat": 0.0, "rental_uris": {"ios": "https://dc.lft.to/lastmile_qr_scan", "android": "https://dc.lft.to/lastmile_qr_scan"}, "lon": -77.03601683333333, "type": "electric_scooter"}, {"bike_id": "bc6272bc15430c200e2dd486a8493d77", "is_reserved": 0, "fusion_lon": 0.0, "lat": 38.91721833333333, "is_disabled": 0, "name": "bc6272bc15430c200e2dd486a8493d77", "fusion_lat": 0.0, "rental_uris": {"ios": "https://dc.lft.to/lastmile_qr_scan", "android": "https://dc.lft.to/lastmile_qr_scan"}, "lon": -77.03657933333334, "type": "electric_scooter"}, {"bike_id": "3864af3f32830ea0f2f740550fc229e1", "is_reserved": 0, "fusion_lon": 0.0, "lat": 38.90958216666667, "is_disabled": 0, "name": "3864af3f32830ea0f2f740550fc229e1", "fusion_lat": 0.0, "rental_uris": {"ios": "https://dc.lft.to/lastmile_qr_scan", "android": "https://dc.lft.to/lastmile_qr_scan"}, "lon": -76.98468633333333, "type": "electric_scooter"}, {"bike_id": "90d6c0091cb5c981af8b0c9da8380fac", "is_reserved": 0, "fusion_lon": 0.0, "lat": 38.86161283333333, "is_disabled": 0, "name": "90d6c0091cb5c981af8b0c9da8380fac", "fusion_lat": 0.0, "rental_uris": {"ios": "https://dc.lft.to/lastmile_qr_scan", "android": "https://dc.lft.to/lastmile_qr_scan"}, "lon": -77.13095283333334, "type": "electric_bike"}, {"bike_id": "5bca593dd6606c176ec5f8be0c1a1f1f", "is_reserved": 0, "fusion_lon": 0.0, "lat": 38.8918185, "is_disabled": 0, "name": "5bca593dd6606c176ec5f8be0c1a1f1f", "fusion_lat": 0.0, "rental_uris": {"ios": "https://dc.lft.to/lastmile_qr_scan", "android": "https://dc.lft.to/lastmile_qr_scan"}, "lon": -77.01529566666666, "type": "electric_scooter"}, {"bike_id": "fd8aec02d27fa56b152471933358f396", "is_reserved": 0, "fusion_lon": 0.0, "lat": 38.909672, "is_disabled": 0, "name": "fd8aec02d27fa56b152471933358f396", "fusion_lat": 0.0, "rental_uris": {"ios": "https://dc.lft.to/lastmile_qr_scan", "android": "https://dc.lft.to/lastmile_qr_scan"}, "lon": -77.02720216666667, "type": "electric_scooter"}, {"bike_id": "f90d654c72eb1037e346e889e1f649a1", "is_reserved": 0, "fusion_lon": 0.0, "lat": 38.901606666666666, "is_disabled": 0, "name": "f90d654c72eb1037e346e889e1f649a1", "fusion_lat": 0.0, "rental_uris": {"ios": "https://dc.lft.to/lastmile_qr_scan", "android": "https://dc.lft.to/lastmile_qr_scan"}, "lon": -77.0264725, "type": "electric_scooter"}, {"bike_id": "81601233f63ae7233fa52d27ab50a369", "is_reserved": 0, "fusion_lon": 0.0, "lat": 38.89378383333333, "is_disabled": 0, "name": "81601233f63ae7233fa52d27ab50a369", "fusion_lat": 0.0, "rental_uris": {"ios": "https://dc.lft.to/lastmile_qr_scan", "android": "https://dc.lft.to/lastmile_qr_scan"}, "lon": -76.94983083333334, "type": "electric_scooter"}, {"bike_id": "da9fedcbedc3eb6af0a4f2f17b334517", "is_reserved": 0, "fusion_lon": 0.0, "lat": 38.926894833333336, "is_disabled": 0, "name": "da9fedcbedc3eb6af0a4f2f17b334517", "fusion_lat": 0.0, "rental_uris": {"ios": "https://dc.lft.to/lastmile_qr_scan", "android": "https://dc.lft.to/lastmile_qr_scan"}, "lon": -77.015711, "type": "electric_scooter"}, {"bike_id": "309583a5510f88151a9a435888b3b973", "is_reserved": 0, "fusion_lon": 0.0, "lat": 38.925374166666664, "is_disabled": 0, "name": "309583a5510f88151a9a435888b3b973", "fusion_lat": 0.0, "rental_uris": {"ios": "https://dc.lft.to/lastmile_qr_scan", "android": "https://dc.lft.to/lastmile_qr_scan"}, "lon": -77.03527116666666, "type": "electric_scooter"}, {"bike_id": "848a406e04fcb21d5519d1a70c1fe19a", "is_reserved": 0, "fusion_lon": 0.0, "lat": 38.93533516666667, "is_disabled": 0, "name": "848a406e04fcb21d5519d1a70c1fe19a", "fusion_lat": 0.0, "rental_uris": {"ios": "https://dc.lft.to/lastmile_qr_scan", "android": "https://dc.lft.to/lastmile_qr_scan"}, "lon": -77.02352483333334, "type": "electric_scooter"}, {"bike_id": "0a824b42cbd762dadecb9f2e01b04ff6", "is_reserved": 0, "fusion_lon": 0.0, "lat": 38.91835066666667, "is_disabled": 0, "name": "0a824b42cbd762dadecb9f2e01b04ff6", "fusion_lat": 0.0, "rental_uris": {"ios": "https://dc.lft.to/lastmile_qr_scan", "android": "https://dc.lft.to/lastmile_qr_scan"}, "lon": -77.03216216666667, "type": "electric_scooter"}, {"bike_id": "d56ce5ddffa8d49c62337ca168db4cd4", "is_reserved": 0, "fusion_lon": 0.0, "lat": 38.9272875, "is_disabled": 0, "name": "d56ce5ddffa8d49c62337ca168db4cd4", "fusion_lat": 0.0, "rental_uris": {"ios": "https://dc.lft.to/lastmile_qr_scan", "android": "https://dc.lft.to/lastmile_qr_scan"}, "lon": -77.02264283333334, "type": "electric_bike"}, {"bike_id": "b2a1c2b66d8f499f3f8df193ec62daac", "is_reserved": 0, "fusion_lon": 0.0, "lat": 38.917265666666665, "is_disabled": 0, "name": "b2a1c2b66d8f499f3f8df193ec62daac", "fusion_lat": 0.0, "rental_uris": {"ios": "https://dc.lft.to/lastmile_qr_scan", "android": "https://dc.lft.to/lastmile_qr_scan"}, "lon": -77.033438, "type": "electric_scooter"}, {"bike_id": "613a02535184e1be437af73e9aa200d2", "is_reserved": 0, "fusion_lon": 0.0, "lat": 38.8748285, "is_disabled": 0, "name": "613a02535184e1be437af73e9aa200d2", "fusion_lat": 0.0, "rental_uris": {"ios": "https://dc.lft.to/lastmile_qr_scan", "android": "https://dc.lft.to/lastmile_qr_scan"}, "lon": -76.96523266666667, "type": "electric_bike"}, {"bike_id": "dcbca364d383335909f36ca074e2e5b8", "is_reserved": 0, "fusion_lon": 0.0, "lat": 38.915410333333334, "is_disabled": 0, "name": "dcbca364d383335909f36ca074e2e5b8", "fusion_lat": 0.0, "rental_uris": {"ios": "https://dc.lft.to/lastmile_qr_scan", "android": "https://dc.lft.to/lastmile_qr_scan"}, "lon": -77.03795983333333, "type": "electric_scooter"}, {"bike_id": "6d2d42b2a8f99cfcd6d9267eac16e102", "is_reserved": 0, "fusion_lon": 0.0, "lat": 38.909996, "is_disabled": 0, "name": "6d2d42b2a8f99cfcd6d9267eac16e102", "fusion_lat": 0.0, "rental_uris": {"ios": "https://dc.lft.to/lastmile_qr_scan", "android": "https://dc.lft.to/lastmile_qr_scan"}, "lon": -77.0210505, "type": "electric_scooter"}, {"bike_id": "5fc3071183a890e3d58f43e08ebc6371", "is_reserved": 0, "fusion_lon": 0.0, "lat": 38.9155055, "is_disabled": 0, "name": "5fc3071183a890e3d58f43e08ebc6371", "fusion_lat": 0.0, "rental_uris": {"ios": "https://dc.lft.to/lastmile_qr_scan", "android": "https://dc.lft.to/lastmile_qr_scan"}, "lon": -77.02342616666667, "type": "electric_scooter"}, {"bike_id": "e6ce0db50e2d7187691d1de458a41a01", "is_reserved": 0, "fusion_lon": 0.0, "lat": 38.966182333333336, "is_disabled": 0, "name": "e6ce0db50e2d7187691d1de458a41a01", "fusion_lat": 0.0, "rental_uris": {"ios": "https://dc.lft.to/lastmile_qr_scan", "android": "https://dc.lft.to/lastmile_qr_scan"}, "lon": -77.03429466666667, "type": "electric_bike"}, {"bike_id": "112a758167c914f41fbdf9fdfa8faf57", "is_reserved": 0, "fusion_lon": 0.0, "lat": 38.905673666666665, "is_disabled": 0, "name": "112a758167c914f41fbdf9fdfa8faf57", "fusion_lat": 0.0, "rental_uris": {"ios": "https://dc.lft.to/lastmile_qr_scan", "android": "https://dc.lft.to/lastmile_qr_scan"}, "lon": -77.04195766666666, "type": "electric_scooter"}, {"bike_id": "d76e742be533af709740d27785dffe6e", "is_reserved": 0, "fusion_lon": 0.0, "lat": 38.9028225, "is_disabled": 0, "name": "d76e742be533af709740d27785dffe6e", "fusion_lat": 0.0, "rental_uris": {"ios": "https://dc.lft.to/lastmile_qr_scan", "android": "https://dc.lft.to/lastmile_qr_scan"}, "lon": -77.06102, "type": "electric_scooter"}, {"bike_id": "eb3e113eb983431cec9be7962e9210bf", "is_reserved": 0, "fusion_lon": 0.0, "lat": 38.91402, "is_disabled": 0, "name": "eb3e113eb983431cec9be7962e9210bf", "fusion_lat": 0.0, "rental_uris": {"ios": "https://dc.lft.to/lastmile_qr_scan", "android": "https://dc.lft.to/lastmile_qr_scan"}, "lon": -77.04140083333333, "type": "electric_scooter"}, {"bike_id": "fd2b6f7a8d720483d124f66f1de1de40", "is_reserved": 0, "fusion_lon": 0.0, "lat": 38.91376133333333, "is_disabled": 0, "name": "fd2b6f7a8d720483d124f66f1de1de40", "fusion_lat": 0.0, "rental_uris": {"ios": "https://dc.lft.to/lastmile_qr_scan", "android": "https://dc.lft.to/lastmile_qr_scan"}, "lon": -77.019973, "type": "electric_scooter"}, {"bike_id": "085e5e3ef576f9bc603208b592b43839", "is_reserved": 0, "fusion_lon": 0.0, "lat": 38.842934166666666, "is_disabled": 0, "name": "085e5e3ef576f9bc603208b592b43839", "fusion_lat": 0.0, "rental_uris": {"ios": "https://dc.lft.to/lastmile_qr_scan", "android": "https://dc.lft.to/lastmile_qr_scan"}, "lon": -76.99950749999999, "type": "electric_scooter"}, {"bike_id": "1dc72eefb7a1dc08e412aa7688d196a7", "is_reserved": 0, "fusion_lon": 0.0, "lat": 38.898317166666665, "is_disabled": 0, "name": "1dc72eefb7a1dc08e412aa7688d196a7", "fusion_lat": 0.0, "rental_uris": {"ios": "https://dc.lft.to/lastmile_qr_scan", "android": "https://dc.lft.to/lastmile_qr_scan"}, "lon": -77.00751066666666, "type": "electric_scooter"}, {"bike_id": "f45670c5aeefea5109761312f7fd386c", "is_reserved": 0, "fusion_lon": 0.0, "lat": 38.913865, "is_disabled": 0, "name": "f45670c5aeefea5109761312f7fd386c", "fusion_lat": 0.0, "rental_uris": {"ios": "https://dc.lft.to/lastmile_qr_scan", "android": "https://dc.lft.to/lastmile_qr_scan"}, "lon": -77.01795783333333, "type": "electric_scooter"}, {"bike_id": "812b5f4c4c0811d87f7ebbec75aa43ef", "is_reserved": 0, "fusion_lon": 0.0, "lat": 38.91806483333333, "is_disabled": 0, "name": "812b5f4c4c0811d87f7ebbec75aa43ef", "fusion_lat": 0.0, "rental_uris": {"ios": "https://dc.lft.to/lastmile_qr_scan", "android": "https://dc.lft.to/lastmile_qr_scan"}, "lon": -77.03433816666667, "type": "electric_scooter"}, {"bike_id": "447bb0fd48cfecde63c9a0742b66d9fe", "is_reserved": 0, "fusion_lon": 0.0, "lat": 38.92953116666666, "is_disabled": 0, "name": "447bb0fd48cfecde63c9a0742b66d9fe", "fusion_lat": 0.0, "rental_uris": {"ios": "https://dc.lft.to/lastmile_qr_scan", "android": "https://dc.lft.to/lastmile_qr_scan"}, "lon": -77.04399883333333, "type": "electric_scooter"}, {"bike_id": "395a35069695625f9ea5ef52c7bf5871", "is_reserved": 0, "fusion_lon": 0.0, "lat": 38.917127, "is_disabled": 0, "name": "395a35069695625f9ea5ef52c7bf5871", "fusion_lat": 0.0, "rental_uris": {"ios": "https://dc.lft.to/lastmile_qr_scan", "android": "https://dc.lft.to/lastmile_qr_scan"}, "lon": -77.012171, "type": "electric_scooter"}, {"bike_id": "dbf630df878fd2e62eafb00b3cd6c79f", "is_reserved": 0, "fusion_lon": 0.0, "lat": 38.90141216666667, "is_disabled": 0, "name": "dbf630df878fd2e62eafb00b3cd6c79f", "fusion_lat": 0.0, "rental_uris": {"ios": "https://dc.lft.to/lastmile_qr_scan", "android": "https://dc.lft.to/lastmile_qr_scan"}, "lon": -77.03320066666667, "type": "electric_scooter"}, {"bike_id": "ceb55802ad79bb7ecb03b026f5ed57cf", "is_reserved": 0, "fusion_lon": 0.0, "lat": 38.93201966666667, "is_disabled": 0, "name": "ceb55802ad79bb7ecb03b026f5ed57cf", "fusion_lat": 0.0, "rental_uris": {"ios": "https://dc.lft.to/lastmile_qr_scan", "android": "https://dc.lft.to/lastmile_qr_scan"}, "lon": -77.038711, "type": "electric_scooter"}, {"bike_id": "47879033d156932aeaa7db2f095bb1c8", "is_reserved": 0, "fusion_lon": 0.0, "lat": 38.9441065, "is_disabled": 0, "name": "47879033d156932aeaa7db2f095bb1c8", "fusion_lat": 0.0, "rental_uris": {"ios": "https://dc.lft.to/lastmile_qr_scan", "android": "https://dc.lft.to/lastmile_qr_scan"}, "lon": -77.05524566666666, "type": "electric_scooter"}, {"bike_id": "f9f88771d8f84578458422b603150b71", "is_reserved": 0, "fusion_lon": 0.0, "lat": 38.802278, "is_disabled": 0, "name": "f9f88771d8f84578458422b603150b71", "fusion_lat": 0.0, "rental_uris": {"ios": "https://dc.lft.to/lastmile_qr_scan", "android": "https://dc.lft.to/lastmile_qr_scan"}, "lon": -77.07915633333333, "type": "electric_bike"}, {"bike_id": "eefd94584c618acee867969bf67863d0", "is_reserved": 0, "fusion_lon": 0.0, "lat": 38.90725783333333, "is_disabled": 0, "name": "eefd94584c618acee867969bf67863d0", "fusion_lat": 0.0, "rental_uris": {"ios": "https://dc.lft.to/lastmile_qr_scan", "android": "https://dc.lft.to/lastmile_qr_scan"}, "lon": -77.02980066666667, "type": "electric_scooter"}, {"bike_id": "0f3f25ca7843a4c1c4d6f29ab1185028", "is_reserved": 0, "fusion_lon": 0.0, "lat": 38.90685766666667, "is_disabled": 0, "name": "0f3f25ca7843a4c1c4d6f29ab1185028", "fusion_lat": 0.0, "rental_uris": {"ios": "https://dc.lft.to/lastmile_qr_scan", "android": "https://dc.lft.to/lastmile_qr_scan"}, "lon": -76.95187816666666, "type": "electric_bike"}, {"bike_id": "4913464a0979e0c16ffe4b6679b47325", "is_reserved": 0, "fusion_lon": 0.0, "lat": 38.9033855, "is_disabled": 0, "name": "4913464a0979e0c16ffe4b6679b47325", "fusion_lat": 0.0, "rental_uris": {"ios": "https://dc.lft.to/lastmile_qr_scan", "android": "https://dc.lft.to/lastmile_qr_scan"}, "lon": -77.06655316666667, "type": "electric_scooter"}, {"bike_id": "b8d125c7bdec6f86fd02ddc1451c65b1", "is_reserved": 0, "fusion_lon": 0.0, "lat": 38.9102655, "is_disabled": 0, "name": "b8d125c7bdec6f86fd02ddc1451c65b1", "fusion_lat": 0.0, "rental_uris": {"ios": "https://dc.lft.to/lastmile_qr_scan", "android": "https://dc.lft.to/lastmile_qr_scan"}, "lon": -77.04809716666666, "type": "electric_scooter"}, {"bike_id": "1019279f0a4167186f4e57b6dab67027", "is_reserved": 0, "fusion_lon": 0.0, "lat": 38.9289625, "is_disabled": 0, "name": "1019279f0a4167186f4e57b6dab67027", "fusion_lat": 0.0, "rental_uris": {"ios": "https://dc.lft.to/lastmile_qr_scan", "android": "https://dc.lft.to/lastmile_qr_scan"}, "lon": -77.05458899999999, "type": "electric_scooter"}, {"bike_id": "1b88d205a6dbc8a4afc00b2b47692c08", "is_reserved": 0, "fusion_lon": 0.0, "lat": 38.856367666666664, "is_disabled": 0, "name": "1b88d205a6dbc8a4afc00b2b47692c08", "fusion_lat": 0.0, "rental_uris": {"ios": "https://dc.lft.to/lastmile_qr_scan", "android": "https://dc.lft.to/lastmile_qr_scan"}, "lon": -76.97452416666667, "type": "electric_scooter"}, {"bike_id": "f6812ac8c260ac38293472e06fbbb6f0", "is_reserved": 0, "fusion_lon": 0.0, "lat": 38.9036005, "is_disabled": 0, "name": "f6812ac8c260ac38293472e06fbbb6f0", "fusion_lat": 0.0, "rental_uris": {"ios": "https://dc.lft.to/lastmile_qr_scan", "android": "https://dc.lft.to/lastmile_qr_scan"}, "lon": -77.01103016666667, "type": "electric_scooter"}, {"bike_id": "d5e87dd339c007aa3cb832b1ecfeaa1f", "is_reserved": 0, "fusion_lon": 0.0, "lat": 38.941754, "is_disabled": 0, "name": "d5e87dd339c007aa3cb832b1ecfeaa1f", "fusion_lat": 0.0, "rental_uris": {"ios": "https://dc.lft.to/lastmile_qr_scan", "android": "https://dc.lft.to/lastmile_qr_scan"}, "lon": -77.04133583333333, "type": "electric_scooter"}, {"bike_id": "8e92683c257bd24d84cb1fbc42c274c0", "is_reserved": 0, "fusion_lon": 0.0, "lat": 38.807444333333336, "is_disabled": 0, "name": "8e92683c257bd24d84cb1fbc42c274c0", "fusion_lat": 0.0, "rental_uris": {"ios": "https://dc.lft.to/lastmile_qr_scan", "android": "https://dc.lft.to/lastmile_qr_scan"}, "lon": -77.09425716666667, "type": "electric_bike"}, {"bike_id": "3baea99ce8f172453529cdb0770f41d2", "is_reserved": 0, "fusion_lon": 0.0, "lat": 38.956241166666665, "is_disabled": 0, "name": "3baea99ce8f172453529cdb0770f41d2", "fusion_lat": 0.0, "rental_uris": {"ios": "https://dc.lft.to/lastmile_qr_scan", "android": "https://dc.lft.to/lastmile_qr_scan"}, "lon": -76.96659066666666, "type": "electric_bike"}, {"bike_id": "f111a0d661c875092f376f29f5e963a3", "is_reserved": 0, "fusion_lon": 0.0, "lat": 38.898774333333336, "is_disabled": 0, "name": "f111a0d661c875092f376f29f5e963a3", "fusion_lat": 0.0, "rental_uris": {"ios": "https://dc.lft.to/lastmile_qr_scan", "android": "https://dc.lft.to/lastmile_qr_scan"}, "lon": -76.93160416666667, "type": "electric_scooter"}, {"bike_id": "3f959402f1ce03a6274a24e41ebecc87", "is_reserved": 0, "fusion_lon": 0.0, "lat": 38.9213925, "is_disabled": 0, "name": "3f959402f1ce03a6274a24e41ebecc87", "fusion_lat": 0.0, "rental_uris": {"ios": "https://dc.lft.to/lastmile_qr_scan", "android": "https://dc.lft.to/lastmile_qr_scan"}, "lon": -77.03490733333334, "type": "electric_scooter"}, {"bike_id": "2ccd412d043b763e506bf7e964d802be", "is_reserved": 0, "fusion_lon": 0.0, "lat": 38.9071915, "is_disabled": 0, "name": "2ccd412d043b763e506bf7e964d802be", "fusion_lat": 0.0, "rental_uris": {"ios": "https://dc.lft.to/lastmile_qr_scan", "android": "https://dc.lft.to/lastmile_qr_scan"}, "lon": -77.0388025, "type": "electric_scooter"}, {"bike_id": "00aaa8e5569c09584ce75b7055a68f5f", "is_reserved": 0, "fusion_lon": 0.0, "lat": 38.91628133333333, "is_disabled": 0, "name": "00aaa8e5569c09584ce75b7055a68f5f", "fusion_lat": 0.0, "rental_uris": {"ios": "https://dc.lft.to/lastmile_qr_scan", "android": "https://dc.lft.to/lastmile_qr_scan"}, "lon": -77.032051, "type": "electric_scooter"}, {"bike_id": "3d7210a52643556c4a328439bd657d5e", "is_reserved": 0, "fusion_lon": 0.0, "lat": 38.90972266666667, "is_disabled": 0, "name": "3d7210a52643556c4a328439bd657d5e", "fusion_lat": 0.0, "rental_uris": {"ios": "https://dc.lft.to/lastmile_qr_scan", "android": "https://dc.lft.to/lastmile_qr_scan"}, "lon": -77.03865633333334, "type": "electric_scooter"}, {"bike_id": "afbe55446058a69e85cb04f7f9659e36", "is_reserved": 0, "fusion_lon": 0.0, "lat": 38.94325333333333, "is_disabled": 0, "name": "afbe55446058a69e85cb04f7f9659e36", "fusion_lat": 0.0, "rental_uris": {"ios": "https://dc.lft.to/lastmile_qr_scan", "android": "https://dc.lft.to/lastmile_qr_scan"}, "lon": -77.0738665, "type": "electric_scooter"}, {"bike_id": "40b6b09bae1258185ed25aa2ca98d02c", "is_reserved": 0, "fusion_lon": 0.0, "lat": 38.908509, "is_disabled": 0, "name": "40b6b09bae1258185ed25aa2ca98d02c", "fusion_lat": 0.0, "rental_uris": {"ios": "https://dc.lft.to/lastmile_qr_scan", "android": "https://dc.lft.to/lastmile_qr_scan"}, "lon": -77.02054583333333, "type": "electric_scooter"}, {"bike_id": "93ec3774082a78d8a9cf11fb8f354dac", "is_reserved": 0, "fusion_lon": 0.0, "lat": 38.91492983333333, "is_disabled": 0, "name": "93ec3774082a78d8a9cf11fb8f354dac", "fusion_lat": 0.0, "rental_uris": {"ios": "https://dc.lft.to/lastmile_qr_scan", "android": "https://dc.lft.to/lastmile_qr_scan"}, "lon": -77.02694216666667, "type": "electric_scooter"}, {"bike_id": "2dd2dda7bf77b97c34d87c44167f1f86", "is_reserved": 0, "fusion_lon": 0.0, "lat": 38.917863833333335, "is_disabled": 0, "name": "2dd2dda7bf77b97c34d87c44167f1f86", "fusion_lat": 0.0, "rental_uris": {"ios": "https://dc.lft.to/lastmile_qr_scan", "android": "https://dc.lft.to/lastmile_qr_scan"}, "lon": -77.0230215, "type": "electric_scooter"}, {"bike_id": "07bf680a29fb27a318b7656261cd3593", "is_reserved": 0, "fusion_lon": 0.0, "lat": 38.91881566666667, "is_disabled": 0, "name": "07bf680a29fb27a318b7656261cd3593", "fusion_lat": 0.0, "rental_uris": {"ios": "https://dc.lft.to/lastmile_qr_scan", "android": "https://dc.lft.to/lastmile_qr_scan"}, "lon": -76.97140116666667, "type": "electric_scooter"}, {"bike_id": "3b12229772980186a3b1ce9f92075753", "is_reserved": 0, "fusion_lon": 0.0, "lat": 38.90981083333333, "is_disabled": 0, "name": "3b12229772980186a3b1ce9f92075753", "fusion_lat": 0.0, "rental_uris": {"ios": "https://dc.lft.to/lastmile_qr_scan", "android": "https://dc.lft.to/lastmile_qr_scan"}, "lon": -77.06709566666666, "type": "electric_scooter"}, {"bike_id": "50afdb8f4c588f04e335729625635843", "is_reserved": 0, "fusion_lon": 0.0, "lat": 38.9492825, "is_disabled": 0, "name": "50afdb8f4c588f04e335729625635843", "fusion_lat": 0.0, "rental_uris": {"ios": "https://dc.lft.to/lastmile_qr_scan", "android": "https://dc.lft.to/lastmile_qr_scan"}, "lon": -77.01936733333334, "type": "electric_scooter"}, {"bike_id": "c396c33f3d2db2e2d45a42af138b392d", "is_reserved": 0, "fusion_lon": 0.0, "lat": 38.93116, "is_disabled": 0, "name": "c396c33f3d2db2e2d45a42af138b392d", "fusion_lat": 0.0, "rental_uris": {"ios": "https://dc.lft.to/lastmile_qr_scan", "android": "https://dc.lft.to/lastmile_qr_scan"}, "lon": -77.02097633333334, "type": "electric_scooter"}, {"bike_id": "141cd684931cc9e906b1bfd68998ad86", "is_reserved": 0, "fusion_lon": 0.0, "lat": 38.883182, "is_disabled": 0, "name": "141cd684931cc9e906b1bfd68998ad86", "fusion_lat": 0.0, "rental_uris": {"ios": "https://dc.lft.to/lastmile_qr_scan", "android": "https://dc.lft.to/lastmile_qr_scan"}, "lon": -77.01778566666667, "type": "electric_scooter"}, {"bike_id": "c9bcb84e4032339ff81500f7563c29fa", "is_reserved": 0, "fusion_lon": 0.0, "lat": 38.9328295, "is_disabled": 0, "name": "c9bcb84e4032339ff81500f7563c29fa", "fusion_lat": 0.0, "rental_uris": {"ios": "https://dc.lft.to/lastmile_qr_scan", "android": "https://dc.lft.to/lastmile_qr_scan"}, "lon": -77.02971266666667, "type": "electric_scooter"}, {"bike_id": "84c35ebe5d64441c46114cb18a2c8ed7", "is_reserved": 0, "fusion_lon": 0.0, "lat": 39.056345, "is_disabled": 0, "name": "84c35ebe5d64441c46114cb18a2c8ed7", "fusion_lat": 0.0, "rental_uris": {"ios": "https://dc.lft.to/lastmile_qr_scan", "android": "https://dc.lft.to/lastmile_qr_scan"}, "lon": -77.125274, "type": "electric_bike"}, {"bike_id": "67171a6dbcf8f15551484cfe317d1f9e", "is_reserved": 0, "fusion_lon": 0.0, "lat": 38.9271105, "is_disabled": 0, "name": "67171a6dbcf8f15551484cfe317d1f9e", "fusion_lat": 0.0, "rental_uris": {"ios": "https://dc.lft.to/lastmile_qr_scan", "android": "https://dc.lft.to/lastmile_qr_scan"}, "lon": -77.020946, "type": "electric_scooter"}, {"bike_id": "bb18b92f75aa1110bdb16d5ba2dd59fb", "is_reserved": 0, "fusion_lon": 0.0, "lat": 38.90266466666667, "is_disabled": 0, "name": "bb18b92f75aa1110bdb16d5ba2dd59fb", "fusion_lat": 0.0, "rental_uris": {"ios": "https://dc.lft.to/lastmile_qr_scan", "android": "https://dc.lft.to/lastmile_qr_scan"}, "lon": -77.0032615, "type": "electric_scooter"}, {"bike_id": "14a769b5949d0126dca6879c64078df7", "is_reserved": 0, "fusion_lon": 0.0, "lat": 38.917247833333334, "is_disabled": 0, "name": "14a769b5949d0126dca6879c64078df7", "fusion_lat": 0.0, "rental_uris": {"ios": "https://dc.lft.to/lastmile_qr_scan", "android": "https://dc.lft.to/lastmile_qr_scan"}, "lon": -77.03658166666666, "type": "electric_scooter"}, {"bike_id": "e50ca92b4d16f9ba6206f8af4e120ae8", "is_reserved": 0, "fusion_lon": 0.0, "lat": 38.868314, "is_disabled": 0, "name": "e50ca92b4d16f9ba6206f8af4e120ae8", "fusion_lat": 0.0, "rental_uris": {"ios": "https://dc.lft.to/lastmile_qr_scan", "android": "https://dc.lft.to/lastmile_qr_scan"}, "lon": -76.9861195, "type": "electric_scooter"}, {"bike_id": "f8577e3b46e80e541a073b09d9e849e2", "is_reserved": 0, "fusion_lon": 0.0, "lat": 38.88536116666667, "is_disabled": 0, "name": "f8577e3b46e80e541a073b09d9e849e2", "fusion_lat": 0.0, "rental_uris": {"ios": "https://dc.lft.to/lastmile_qr_scan", "android": "https://dc.lft.to/lastmile_qr_scan"}, "lon": -77.0057595, "type": "electric_scooter"}, {"bike_id": "ec774c6b8fd929e4b91c56d1fcb2c0ba", "is_reserved": 0, "fusion_lon": 0.0, "lat": 38.898483166666665, "is_disabled": 0, "name": "ec774c6b8fd929e4b91c56d1fcb2c0ba", "fusion_lat": 0.0, "rental_uris": {"ios": "https://dc.lft.to/lastmile_qr_scan", "android": "https://dc.lft.to/lastmile_qr_scan"}, "lon": -76.98169366666667, "type": "electric_scooter"}, {"bike_id": "36992aa2e563430ef719f9fddba5ac2b", "is_reserved": 0, "fusion_lon": 0.0, "lat": 38.902068166666666, "is_disabled": 0, "name": "36992aa2e563430ef719f9fddba5ac2b", "fusion_lat": 0.0, "rental_uris": {"ios": "https://dc.lft.to/lastmile_qr_scan", "android": "https://dc.lft.to/lastmile_qr_scan"}, "lon": -77.02327633333333, "type": "electric_scooter"}, {"bike_id": "d34fe1c2eecfea9b5aa0a2df23b08346", "is_reserved": 0, "fusion_lon": 0.0, "lat": 38.907049, "is_disabled": 0, "name": "d34fe1c2eecfea9b5aa0a2df23b08346", "fusion_lat": 0.0, "rental_uris": {"ios": "https://dc.lft.to/lastmile_qr_scan", "android": "https://dc.lft.to/lastmile_qr_scan"}, "lon": -76.98697916666667, "type": "electric_scooter"}, {"bike_id": "7cb4403bcc2da1ac685aef318532b843", "is_reserved": 0, "fusion_lon": 0.0, "lat": 38.90857533333333, "is_disabled": 0, "name": "7cb4403bcc2da1ac685aef318532b843", "fusion_lat": 0.0, "rental_uris": {"ios": "https://dc.lft.to/lastmile_qr_scan", "android": "https://dc.lft.to/lastmile_qr_scan"}, "lon": -77.03184866666666, "type": "electric_scooter"}, {"bike_id": "740c61234c05ca4ecc62dd22a4e0dfde", "is_reserved": 0, "fusion_lon": 0.0, "lat": 38.9056545, "is_disabled": 0, "name": "740c61234c05ca4ecc62dd22a4e0dfde", "fusion_lat": 0.0, "rental_uris": {"ios": "https://dc.lft.to/lastmile_qr_scan", "android": "https://dc.lft.to/lastmile_qr_scan"}, "lon": -77.04469816666666, "type": "electric_scooter"}, {"bike_id": "c6498aa4eab0a15b20af72f455dd6f35", "is_reserved": 0, "fusion_lon": 0.0, "lat": 38.900268, "is_disabled": 0, "name": "c6498aa4eab0a15b20af72f455dd6f35", "fusion_lat": 0.0, "rental_uris": {"ios": "https://dc.lft.to/lastmile_qr_scan", "android": "https://dc.lft.to/lastmile_qr_scan"}, "lon": -76.98704466666666, "type": "electric_scooter"}, {"bike_id": "38dddb0e21270d21c765095ca06fd890", "is_reserved": 0, "fusion_lon": 0.0, "lat": 38.880832166666664, "is_disabled": 0, "name": "38dddb0e21270d21c765095ca06fd890", "fusion_lat": 0.0, "rental_uris": {"ios": "https://dc.lft.to/lastmile_qr_scan", "android": "https://dc.lft.to/lastmile_qr_scan"}, "lon": -76.98536516666667, "type": "electric_scooter"}, {"bike_id": "f4ba2eafbbaabe9ef06420f5ab215782", "is_reserved": 0, "fusion_lon": 0.0, "lat": 38.9003745, "is_disabled": 0, "name": "f4ba2eafbbaabe9ef06420f5ab215782", "fusion_lat": 0.0, "rental_uris": {"ios": "https://dc.lft.to/lastmile_qr_scan", "android": "https://dc.lft.to/lastmile_qr_scan"}, "lon": -76.99524183333334, "type": "electric_scooter"}, {"bike_id": "92d2da7b577348771ff7e73df886ca37", "is_reserved": 0, "fusion_lon": 0.0, "lat": 38.885995, "is_disabled": 0, "name": "92d2da7b577348771ff7e73df886ca37", "fusion_lat": 0.0, "rental_uris": {"ios": "https://dc.lft.to/lastmile_qr_scan", "android": "https://dc.lft.to/lastmile_qr_scan"}, "lon": -77.00569216666666, "type": "electric_scooter"}, {"bike_id": "0d27f83e67511a0d741bde476e6ac346", "is_reserved": 0, "fusion_lon": 0.0, "lat": 38.81048633333333, "is_disabled": 0, "name": "0d27f83e67511a0d741bde476e6ac346", "fusion_lat": 0.0, "rental_uris": {"ios": "https://dc.lft.to/lastmile_qr_scan", "android": "https://dc.lft.to/lastmile_qr_scan"}, "lon": -77.08514233333334, "type": "electric_bike"}, {"bike_id": "9e2744d38a0750c6dd3a3952179d9d17", "is_reserved": 0, "fusion_lon": 0.0, "lat": 38.911758666666664, "is_disabled": 0, "name": "9e2744d38a0750c6dd3a3952179d9d17", "fusion_lat": 0.0, "rental_uris": {"ios": "https://dc.lft.to/lastmile_qr_scan", "android": "https://dc.lft.to/lastmile_qr_scan"}, "lon": -77.00299716666666, "type": "electric_bike"}, {"bike_id": "f3b3559704206601f0670e40762a2a78", "is_reserved": 0, "fusion_lon": 0.0, "lat": 38.844248, "is_disabled": 0, "name": "f3b3559704206601f0670e40762a2a78", "fusion_lat": 0.0, "rental_uris": {"ios": "https://dc.lft.to/lastmile_qr_scan", "android": "https://dc.lft.to/lastmile_qr_scan"}, "lon": -76.99774516666666, "type": "electric_scooter"}, {"bike_id": "60e6163c3c6abe17297b1b12179621b3", "is_reserved": 0, "fusion_lon": 0.0, "lat": 38.89222016666667, "is_disabled": 0, "name": "60e6163c3c6abe17297b1b12179621b3", "fusion_lat": 0.0, "rental_uris": {"ios": "https://dc.lft.to/lastmile_qr_scan", "android": "https://dc.lft.to/lastmile_qr_scan"}, "lon": -77.04860916666667, "type": "electric_scooter"}, {"bike_id": "e60b9381ef47e48682f422b6234cd90c", "is_reserved": 0, "fusion_lon": 0.0, "lat": 38.85438533333333, "is_disabled": 0, "name": "e60b9381ef47e48682f422b6234cd90c", "fusion_lat": 0.0, "rental_uris": {"ios": "https://dc.lft.to/lastmile_qr_scan", "android": "https://dc.lft.to/lastmile_qr_scan"}, "lon": -76.90968783333334, "type": "electric_bike"}, {"bike_id": "ef5b99fff859d73fadf7ad84f6a84f89", "is_reserved": 0, "fusion_lon": 0.0, "lat": 38.929070333333335, "is_disabled": 0, "name": "ef5b99fff859d73fadf7ad84f6a84f89", "fusion_lat": 0.0, "rental_uris": {"ios": "https://dc.lft.to/lastmile_qr_scan", "android": "https://dc.lft.to/lastmile_qr_scan"},