{"data": {"bikes": [{"is_disabled": 0, "is_reserved": 0, "fusion_lat": 0.0, "lat": 38.922173666666666, "fusion_lon": 0.0, "rental_uris": {"ios": "https://dc.lft.to/lastmile_qr_scan", "android": "https://dc.lft.to/lastmile_qr_scan"}, "lon": -77.03299266666667, "bike_id": "ae548d5220fdd57291cc1720979118c4", "type": "electric_scooter", "name": "ae548d5220fdd57291cc1720979118c4"}, {"is_disabled": 0, "is_reserved": 0, "fusion_lat": 0.0, "lat": 38.90472466666667, "fusion_lon": 0.0, "rental_uris": {"ios": "https://dc.lft.to/lastmile_qr_scan", "android": "https://dc.lft.to/lastmile_qr_scan"}, "lon": -76.95045316666666, "bike_id": "c06cd72a6877e3064b9082a7f556246e", "type": "electric_scooter", "name": "c06cd72a6877e3064b9082a7f556246e"}, {"is_disabled": 0, "is_reserved": 0, "fusion_lat": 0.0, "lat": 38.897035833333334, "fusion_lon": 0.0, "rental_uris": {"ios": "https://dc.lft.to/lastmile_qr_scan", "android": "https://dc.lft.to/lastmile_qr_scan"}, "lon": -77.04875283333334, "bike_id": "c00957d8a7f0237a26c1f3070fb018a6", "type": "electric_scooter", "name": "c00957d8a7f0237a26c1f3070fb018a6"}, {"is_disabled": 0, "is_reserved": 0, "fusion_lat": 0.0, "lat": 38.91830866666667, "fusion_lon": 0.0, "rental_uris": {"ios": "https://dc.lft.to/lastmile_qr_scan", "android": "https://dc.lft.to/lastmile_qr_scan"}, "lon": -77.0245555, "bike_id": "404580bc4f1eaa21ebbe89c63c931815", "type": "electric_scooter", "name": "404580bc4f1eaa21ebbe89c63c931815"}, {"is_disabled": 0, "is_reserved": 0, "fusion_lat": 0.0, "lat": 38.924375, "fusion_lon": 0.0, "rental_uris": {"ios": "https://dc.lft.to/lastmile_qr_scan", "android": "https://dc.lft.to/lastmile_qr_scan"}, "lon": -77.02991683333333, "bike_id": "825b16265a03e07717242b248f702f49", "type": "electric_scooter", "name": "825b16265a03e07717242b248f702f49"}, {"is_disabled": 0, "is_reserved": 0, "fusion_lat": 0.0, "lat": 38.92788633333333, "fusion_lon": 0.0, "rental_uris": {"ios": "https://dc.lft.to/lastmile_qr_scan", "android": "https://dc.lft.to/lastmile_qr_scan"}, "lon": -77.02723666666667, "bike_id": "ffbee3321fb072843f35e3770a315656", "type": "electric_scooter", "name": "ffbee3321fb072843f35e3770a315656"}, {"is_disabled": 0, "is_reserved": 0, "fusion_lat": 0.0, "lat": 38.8551345, "fusion_lon": 0.0, "rental_uris": {"ios": "https://dc.lft.to/lastmile_qr_scan", "android": "https://dc.lft.to/lastmile_qr_scan"}, "lon": -76.99151483333333, "bike_id": "433ee3b2667120d0d7a8122c8c497947", "type": "electric_scooter", "name": "433ee3b2667120d0d7a8122c8c497947"}, {"is_disabled": 0, "is_reserved": 0, "fusion_lat": 0.0, "lat": 38.910779, "fusion_lon": 0.0, "rental_uris": {"ios": "https://dc.lft.to/lastmile_qr_scan", "android": "https://dc.lft.to/lastmile_qr_scan"}, "lon": -77.02193866666667, "bike_id": "9fada09f2282e9bf6770c943cce889f9", "type": "electric_scooter", "name": "9fada09f2282e9bf6770c943cce889f9"}, {"is_disabled": 0, "is_reserved": 0, "fusion_lat": 0.0, "lat": 38.91608516666667, "fusion_lon": 0.0, "rental_uris": {"ios": "https://dc.lft.to/lastmile_qr_scan", "android": "https://dc.lft.to/lastmile_qr_scan"}, "lon": -77.0385335, "bike_id": "68d8bc3221bc30dda3fa1279340afa31", "type": "electric_scooter", "name": "68d8bc3221bc30dda3fa1279340afa31"}, {"is_disabled": 0, "is_reserved": 0, "fusion_lat": 0.0, "lat": 38.914449, "fusion_lon": 0.0, "rental_uris": {"ios": "https://dc.lft.to/lastmile_qr_scan", "android": "https://dc.lft.to/lastmile_qr_scan"}, "lon": -77.02291333333334, "bike_id": "8ed1edb48b4586923b764312735ebee5", "type": "electric_scooter", "name": "8ed1edb48b4586923b764312735ebee5"}, {"is_disabled": 0, "is_reserved": 0, "fusion_lat": 0.0, "lat": 38.924886, "fusion_lon": 0.0, "rental_uris": {"ios": "https://dc.lft.to/lastmile_qr_scan", "android": "https://dc.lft.to/lastmile_qr_scan"}, "lon": -77.02701233333333, "bike_id": "b0779a3cf209d27fe66595bdbf19aa46", "type": "electric_scooter", "name": "b0779a3cf209d27fe66595bdbf19aa46"}, {"is_disabled": 0, "is_reserved": 0, "fusion_lat": 0.0, "lat": 38.87577533333334, "fusion_lon": 0.0, "rental_uris": {"ios": "https://dc.lft.to/lastmile_qr_scan", "android": "https://dc.lft.to/lastmile_qr_scan"}, "lon": -77.234095, "bike_id": "8c0a54e1475eea85f1ca19c7a9f4fb33", "type": "electric_bike", "name": "8c0a54e1475eea85f1ca19c7a9f4fb33"}, {"is_disabled": 0, "is_reserved": 0, "fusion_lat": 0.0, "lat": 38.880456, "fusion_lon": 0.0, "rental_uris": {"ios": "https://dc.lft.to/lastmile_qr_scan", "android": "https://dc.lft.to/lastmile_qr_scan"}, "lon": -76.9272555, "bike_id": "1b5085c144d8d89de33a4fe5392d8b30", "type": "electric_scooter", "name": "1b5085c144d8d89de33a4fe5392d8b30"}, {"is_disabled": 0, "is_reserved": 0, "fusion_lat": 0.0, "lat": 38.917843833333336, "fusion_lon": 0.0, "rental_uris": {"ios": "https://dc.lft.to/lastmile_qr_scan", "android": "https://dc.lft.to/lastmile_qr_scan"}, "lon": -77.03207633333334, "bike_id": "76371c71aaf58eff61b92944f7293357", "type": "electric_scooter", "name": "76371c71aaf58eff61b92944f7293357"}, {"is_disabled": 0, "is_reserved": 0, "fusion_lat": 0.0, "lat": 38.876336, "fusion_lon": 0.0, "rental_uris": {"ios": "https://dc.lft.to/lastmile_qr_scan", "android": "https://dc.lft.to/lastmile_qr_scan"}, "lon": -77.009546, "bike_id": "dbb20d416cb3e996bdbd81ff9411ee4d", "type": "electric_scooter", "name": "dbb20d416cb3e996bdbd81ff9411ee4d"}, {"is_disabled": 0, "is_reserved": 0, "fusion_lat": 0.0, "lat": 38.87069, "fusion_lon": 0.0, "rental_uris": {"ios": "https://dc.lft.to/lastmile_qr_scan", "android": "https://dc.lft.to/lastmile_qr_scan"}, "lon": -76.9813335, "bike_id": "983d51146e55433ca4c14c73336466b6", "type": "electric_scooter", "name": "983d51146e55433ca4c14c73336466b6"}, {"is_disabled": 0, "is_reserved": 0, "fusion_lat": 0.0, "lat": 38.907384666666665, "fusion_lon": 0.0, "rental_uris": {"ios": "https://dc.lft.to/lastmile_qr_scan", "android": "https://dc.lft.to/lastmile_qr_scan"}, "lon": -77.02319983333334, "bike_id": "fd735b09453a61bc52fb19eeb8a669e9", "type": "electric_scooter", "name": "fd735b09453a61bc52fb19eeb8a669e9"}, {"is_disabled": 0, "is_reserved": 0, "fusion_lat": 0.0, "lat": 38.88520316666666, "fusion_lon": 0.0, "rental_uris": {"ios": "https://dc.lft.to/lastmile_qr_scan", "android": "https://dc.lft.to/lastmile_qr_scan"}, "lon": -77.02822166666667, "bike_id": "5c4159979b7299b64fe9842c5367771e", "type": "electric_scooter", "name": "5c4159979b7299b64fe9842c5367771e"}, {"is_disabled": 0, "is_reserved": 0, "fusion_lat": 0.0, "lat": 38.91784616666666, "fusion_lon": 0.0, "rental_uris": {"ios": "https://dc.lft.to/lastmile_qr_scan", "android": "https://dc.lft.to/lastmile_qr_scan"}, "lon": -77.03223066666666, "bike_id": "85dc6528b4a842ae4b14a493272b481c", "type": "electric_scooter", "name": "85dc6528b4a842ae4b14a493272b481c"}, {"is_disabled": 0, "is_reserved": 0, "fusion_lat": 0.0, "lat": 38.9141495, "fusion_lon": 0.0, "rental_uris": {"ios": "https://dc.lft.to/lastmile_qr_scan", "android": "https://dc.lft.to/lastmile_qr_scan"}, "lon": -77.0330035, "bike_id": "834889f99420c6599073db026036aae6", "type": "electric_scooter", "name": "834889f99420c6599073db026036aae6"}, {"is_disabled": 0, "is_reserved": 0, "fusion_lat": 0.0, "lat": 38.8933615, "fusion_lon": 0.0, "rental_uris": {"ios": "https://dc.lft.to/lastmile_qr_scan", "android": "https://dc.lft.to/lastmile_qr_scan"}, "lon": -76.92891366666667, "bike_id": "c95f612dccdaf5f1484c9321be7f6ba8", "type": "electric_scooter", "name": "c95f612dccdaf5f1484c9321be7f6ba8"}, {"is_disabled": 0, "is_reserved": 0, "fusion_lat": 0.0, "lat": 38.9300205, "fusion_lon": 0.0, "rental_uris": {"ios": "https://dc.lft.to/lastmile_qr_scan", "android": "https://dc.lft.to/lastmile_qr_scan"}, "lon": -77.03800883333334, "bike_id": "8844ac0c7ce61812434d4299d384c8b3", "type": "electric_scooter", "name": "8844ac0c7ce61812434d4299d384c8b3"}, {"is_disabled": 0, "is_reserved": 0, "fusion_lat": 0.0, "lat": 38.918820833333335, "fusion_lon": 0.0, "rental_uris": {"ios": "https://dc.lft.to/lastmile_qr_scan", "android": "https://dc.lft.to/lastmile_qr_scan"}, "lon": -77.04176033333333, "bike_id": "8176e3ea22444c42fa24cdde3ab4bff3", "type": "electric_scooter", "name": "8176e3ea22444c42fa24cdde3ab4bff3"}, {"is_disabled": 0, "is_reserved": 0, "fusion_lat": 0.0, "lat": 38.95072483333333, "fusion_lon": 0.0, "rental_uris": {"ios": "https://dc.lft.to/lastmile_qr_scan", "android": "https://dc.lft.to/lastmile_qr_scan"}, "lon": -76.99603033333334, "bike_id": "2a2e1058ce222e30bc4ab0c06fa5fb39", "type": "electric_bike", "name": "2a2e1058ce222e30bc4ab0c06fa5fb39"}, {"is_disabled": 0, "is_reserved": 0, "fusion_lat": 0.0, "lat": 38.9533285, "fusion_lon": 0.0, "rental_uris": {"ios": "https://dc.lft.to/lastmile_qr_scan", "android": "https://dc.lft.to/lastmile_qr_scan"}, "lon": -76.98256066666667, "bike_id": "00182a8ad930449324ec754ca961a1a4", "type": "electric_bike", "name": "00182a8ad930449324ec754ca961a1a4"}, {"is_disabled": 0, "is_reserved": 0, "fusion_lat": 0.0, "lat": 38.881426, "fusion_lon": 0.0, "rental_uris": {"ios": "https://dc.lft.to/lastmile_qr_scan", "android": "https://dc.lft.to/lastmile_qr_scan"}, "lon": -77.01296383333333, "bike_id": "155662fca4aa8faf42a17b6cc3052984", "type": "electric_scooter", "name": "155662fca4aa8faf42a17b6cc3052984"}, {"is_disabled": 0, "is_reserved": 0, "fusion_lat": 0.0, "lat": 38.9145505, "fusion_lon": 0.0, "rental_uris": {"ios": "https://dc.lft.to/lastmile_qr_scan", "android": "https://dc.lft.to/lastmile_qr_scan"}, "lon": -77.00890516666666, "bike_id": "4e7a1d4c316bd6ffee96e5cb53e948df", "type": "electric_scooter", "name": "4e7a1d4c316bd6ffee96e5cb53e948df"}, {"is_disabled": 0, "is_reserved": 0, "fusion_lat": 0.0, "lat": 38.9222675, "fusion_lon": 0.0, "rental_uris": {"ios": "https://dc.lft.to/lastmile_qr_scan", "android": "https://dc.lft.to/lastmile_qr_scan"}, "lon": -77.0389635, "bike_id": "b93fa4033cff10b6303ab33edc9972cb", "type": "electric_scooter", "name": "b93fa4033cff10b6303ab33edc9972cb"}, {"is_disabled": 0, "is_reserved": 0, "fusion_lat": 0.0, "lat": 38.9057305, "fusion_lon": 0.0, "rental_uris": {"ios": "https://dc.lft.to/lastmile_qr_scan", "android": "https://dc.lft.to/lastmile_qr_scan"}, "lon": -77.02768483333334, "bike_id": "96b376ed2e72f271fb9efec56bc848eb", "type": "electric_scooter", "name": "96b376ed2e72f271fb9efec56bc848eb"}, {"is_disabled": 0, "is_reserved": 0, "fusion_lat": 0.0, "lat": 38.89641316666667, "fusion_lon": 0.0, "rental_uris": {"ios": "https://dc.lft.to/lastmile_qr_scan", "android": "https://dc.lft.to/lastmile_qr_scan"}, "lon": -76.93928883333334, "bike_id": "480a74326606d3799621ff2f190bb616", "type": "electric_scooter", "name": "480a74326606d3799621ff2f190bb616"}, {"is_disabled": 0, "is_reserved": 0, "fusion_lat": 0.0, "lat": 38.9193275, "fusion_lon": 0.0, "rental_uris": {"ios": "https://dc.lft.to/lastmile_qr_scan", "android": "https://dc.lft.to/lastmile_qr_scan"}, "lon": -77.03432283333333, "bike_id": "18dceaea7be2972a09f767e0d124ed28", "type": "electric_scooter", "name": "18dceaea7be2972a09f767e0d124ed28"}, {"is_disabled": 0, "is_reserved": 0, "fusion_lat": 0.0, "lat": 38.92143516666667, "fusion_lon": 0.0, "rental_uris": {"ios": "https://dc.lft.to/lastmile_qr_scan", "android": "https://dc.lft.to/lastmile_qr_scan"}, "lon": -77.03507083333334, "bike_id": "d59dd9ef5c3ce4f24addcc2d2a6e7809", "type": "electric_scooter", "name": "d59dd9ef5c3ce4f24addcc2d2a6e7809"}, {"is_disabled": 0, "is_reserved": 0, "fusion_lat": 0.0, "lat": 38.8982575, "fusion_lon": 0.0, "rental_uris": {"ios": "https://dc.lft.to/lastmile_qr_scan", "android": "https://dc.lft.to/lastmile_qr_scan"}, "lon": -77.04652816666666, "bike_id": "a8057a673e6faa95e86f11d5162659f5", "type": "electric_scooter", "name": "a8057a673e6faa95e86f11d5162659f5"}, {"is_disabled": 0, "is_reserved": 0, "fusion_lat": 0.0, "lat": 38.897451333333336, "fusion_lon": 0.0, "rental_uris": {"ios": "https://dc.lft.to/lastmile_qr_scan", "android": "https://dc.lft.to/lastmile_qr_scan"}, "lon": -77.05484833333334, "bike_id": "92d5b9e695212b2e144c689e554850cf", "type": "electric_scooter", "name": "92d5b9e695212b2e144c689e554850cf"}, {"is_disabled": 0, "is_reserved": 0, "fusion_lat": 0.0, "lat": 38.90962583333334, "fusion_lon": 0.0, "rental_uris": {"ios": "https://dc.lft.to/lastmile_qr_scan", "android": "https://dc.lft.to/lastmile_qr_scan"}, "lon": -77.02218933333333, "bike_id": "ffad23da471e6a8b01875edd6f73cac0", "type": "electric_scooter", "name": "ffad23da471e6a8b01875edd6f73cac0"}, {"is_disabled": 0, "is_reserved": 0, "fusion_lat": 0.0, "lat": 38.931037, "fusion_lon": 0.0, "rental_uris": {"ios": "https://dc.lft.to/lastmile_qr_scan", "android": "https://dc.lft.to/lastmile_qr_scan"}, "lon": -77.02664916666667, "bike_id": "28a83fcf889304e785d9296360805f41", "type": "electric_scooter", "name": "28a83fcf889304e785d9296360805f41"}, {"is_disabled": 0, "is_reserved": 0, "fusion_lat": 0.0, "lat": 39.000015833333336, "fusion_lon": 0.0, "rental_uris": {"ios": "https://dc.lft.to/lastmile_qr_scan", "android": "https://dc.lft.to/lastmile_qr_scan"}, "lon": -76.918058, "bike_id": "ff1d9d107fd6ad68d5bbb88c75cfd556", "type": "electric_bike", "name": "ff1d9d107fd6ad68d5bbb88c75cfd556"}, {"is_disabled": 0, "is_reserved": 0, "fusion_lat": 0.0, "lat": 38.896753333333336, "fusion_lon": 0.0, "rental_uris": {"ios": "https://dc.lft.to/lastmile_qr_scan", "android": "https://dc.lft.to/lastmile_qr_scan"}, "lon": -77.0490735, "bike_id": "b707eb132c23732c029a8017ad6ad653", "type": "electric_scooter", "name": "b707eb132c23732c029a8017ad6ad653"}, {"is_disabled": 0, "is_reserved": 0, "fusion_lat": 0.0, "lat": 38.893635333333336, "fusion_lon": 0.0, "rental_uris": {"ios": "https://dc.lft.to/lastmile_qr_scan", "android": "https://dc.lft.to/lastmile_qr_scan"}, "lon": -76.94107466666667, "bike_id": "5879d2c8c6be1028deaaa86c8d33fa8a", "type": "electric_scooter", "name": "5879d2c8c6be1028deaaa86c8d33fa8a"}, {"is_disabled": 0, "is_reserved": 0, "fusion_lat": 0.0, "lat": 38.937039666666664, "fusion_lon": 0.0, "rental_uris": {"ios": "https://dc.lft.to/lastmile_qr_scan", "android": "https://dc.lft.to/lastmile_qr_scan"}, "lon": -77.05599816666667, "bike_id": "df66f3af5ab8f3a97933bfb2293cdfa0", "type": "electric_scooter", "name": "df66f3af5ab8f3a97933bfb2293cdfa0"}, {"is_disabled": 0, "is_reserved": 0, "fusion_lat": 0.0, "lat": 38.89984166666667, "fusion_lon": 0.0, "rental_uris": {"ios": "https://dc.lft.to/lastmile_qr_scan", "android": "https://dc.lft.to/lastmile_qr_scan"}, "lon": -77.009309, "bike_id": "f24bd691bfbb684681058cc8e419313a", "type": "electric_scooter", "name": "f24bd691bfbb684681058cc8e419313a"}, {"is_disabled": 0, "is_reserved": 0, "fusion_lat": 0.0, "lat": 38.8667695, "fusion_lon": 0.0, "rental_uris": {"ios": "https://dc.lft.to/lastmile_qr_scan", "android": "https://dc.lft.to/lastmile_qr_scan"}, "lon": -77.0109165, "bike_id": "02c9d87da751182916a7e40ce7e1c62e", "type": "electric_scooter", "name": "02c9d87da751182916a7e40ce7e1c62e"}, {"is_disabled": 0, "is_reserved": 0, "fusion_lat": 0.0, "lat": 38.88526816666667, "fusion_lon": 0.0, "rental_uris": {"ios": "https://dc.lft.to/lastmile_qr_scan", "android": "https://dc.lft.to/lastmile_qr_scan"}, "lon": -76.99801866666667, "bike_id": "e605f0d334ded5efa5fca71bbe43cd44", "type": "electric_scooter", "name": "e605f0d334ded5efa5fca71bbe43cd44"}, {"is_disabled": 0, "is_reserved": 0, "fusion_lat": 0.0, "lat": 38.91663633333334, "fusion_lon": 0.0, "rental_uris": {"ios": "https://dc.lft.to/lastmile_qr_scan", "android": "https://dc.lft.to/lastmile_qr_scan"}, "lon": -77.02392083333334, "bike_id": "2829425c0d609a887d8bf6eb444bbfee", "type": "electric_scooter", "name": "2829425c0d609a887d8bf6eb444bbfee"}, {"is_disabled": 0, "is_reserved": 0, "fusion_lat": 0.0, "lat": 38.965324833333334, "fusion_lon": 0.0, "rental_uris": {"ios": "https://dc.lft.to/lastmile_qr_scan", "android": "https://dc.lft.to/lastmile_qr_scan"}, "lon": -77.03413183333333, "bike_id": "821b1832da74107ac7d16d8c435cb6df", "type": "electric_bike", "name": "821b1832da74107ac7d16d8c435cb6df"}, {"is_disabled": 0, "is_reserved": 0, "fusion_lat": 0.0, "lat": 38.871757833333334, "fusion_lon": 0.0, "rental_uris": {"ios": "https://dc.lft.to/lastmile_qr_scan", "android": "https://dc.lft.to/lastmile_qr_scan"}, "lon": -77.2339525, "bike_id": "f33b35116d9f127be54b228023d639d0", "type": "electric_bike", "name": "f33b35116d9f127be54b228023d639d0"}, {"is_disabled": 0, "is_reserved": 0, "fusion_lat": 0.0, "lat": 38.9026195, "fusion_lon": 0.0, "rental_uris": {"ios": "https://dc.lft.to/lastmile_qr_scan", "android": "https://dc.lft.to/lastmile_qr_scan"}, "lon": -77.026393, "bike_id": "a4ecf0a00f349d1eba50f1e4ddbcdfd8", "type": "electric_scooter", "name": "a4ecf0a00f349d1eba50f1e4ddbcdfd8"}, {"is_disabled": 0, "is_reserved": 0, "fusion_lat": 0.0, "lat": 38.901923333333336, "fusion_lon": 0.0, "rental_uris": {"ios": "https://dc.lft.to/lastmile_qr_scan", "android": "https://dc.lft.to/lastmile_qr_scan"}, "lon": -77.04875416666667, "bike_id": "afee9ca11ae69576e3ee7f3e229981dc", "type": "electric_scooter", "name": "afee9ca11ae69576e3ee7f3e229981dc"}, {"is_disabled": 0, "is_reserved": 0, "fusion_lat": 0.0, "lat": 38.9327215, "fusion_lon": 0.0, "rental_uris": {"ios": "https://dc.lft.to/lastmile_qr_scan", "android": "https://dc.lft.to/lastmile_qr_scan"}, "lon": -77.03483733333333, "bike_id": "7aa8802222390ae9eb3c123d50a47e0c", "type": "electric_scooter", "name": "7aa8802222390ae9eb3c123d50a47e0c"}, {"is_disabled": 0, "is_reserved": 0, "fusion_lat": 0.0, "lat": 38.80741666666667, "fusion_lon": 0.0, "rental_uris": {"ios": "https://dc.lft.to/lastmile_qr_scan", "android": "https://dc.lft.to/lastmile_qr_scan"}, "lon": -77.096863, "bike_id": "21f672256a43406f0eb5ef7d283d67f0", "type": "electric_bike", "name": "21f672256a43406f0eb5ef7d283d67f0"}, {"is_disabled": 0, "is_reserved": 0, "fusion_lat": 0.0, "lat": 38.919179166666666, "fusion_lon": 0.0, "rental_uris": {"ios": "https://dc.lft.to/lastmile_qr_scan", "android": "https://dc.lft.to/lastmile_qr_scan"}, "lon": -77.03313516666667, "bike_id": "afd1542111ceb57c3299b3e8b6cf97b6", "type": "electric_scooter", "name": "afd1542111ceb57c3299b3e8b6cf97b6"}, {"is_disabled": 0, "is_reserved": 0, "fusion_lat": 0.0, "lat": 38.921091833333335, "fusion_lon": 0.0, "rental_uris": {"ios": "https://dc.lft.to/lastmile_qr_scan", "android": "https://dc.lft.to/lastmile_qr_scan"}, "lon": -77.04173916666667, "bike_id": "aba4adede37cbb82bbb3367fc04867aa", "type": "electric_scooter", "name": "aba4adede37cbb82bbb3367fc04867aa"}, {"is_disabled": 0, "is_reserved": 0, "fusion_lat": 0.0, "lat": 38.902498333333334, "fusion_lon": 0.0, "rental_uris": {"ios": "https://dc.lft.to/lastmile_qr_scan", "android": "https://dc.lft.to/lastmile_qr_scan"}, "lon": -77.00775666666667, "bike_id": "04442626db3d56fd8f354ca4148db064", "type": "electric_scooter", "name": "04442626db3d56fd8f354ca4148db064"}, {"is_disabled": 0, "is_reserved": 0, "fusion_lat": 0.0, "lat": 38.87633316666667, "fusion_lon": 0.0, "rental_uris": {"ios": "https://dc.lft.to/lastmile_qr_scan", "android": "https://dc.lft.to/lastmile_qr_scan"}, "lon": -77.009572, "bike_id": "8da03266f56d0e432900928995478d29", "type": "electric_scooter", "name": "8da03266f56d0e432900928995478d29"}, {"is_disabled": 0, "is_reserved": 0, "fusion_lat": 0.0, "lat": 38.885752833333335, "fusion_lon": 0.0, "rental_uris": {"ios": "https://dc.lft.to/lastmile_qr_scan", "android": "https://dc.lft.to/lastmile_qr_scan"}, "lon": -77.01212166666667, "bike_id": "0aa92f9e2dd4a2a8c29fadb77c73962b", "type": "electric_scooter", "name": "0aa92f9e2dd4a2a8c29fadb77c73962b"}, {"is_disabled": 0, "is_reserved": 0, "fusion_lat": 0.0, "lat": 38.931885333333334, "fusion_lon": 0.0, "rental_uris": {"ios": "https://dc.lft.to/lastmile_qr_scan", "android": "https://dc.lft.to/lastmile_qr_scan"}, "lon": -77.03452333333334, "bike_id": "1be29738f4545466cd3a6fc84adf57a6", "type": "electric_scooter", "name": "1be29738f4545466cd3a6fc84adf57a6"}, {"is_disabled": 0, "is_reserved": 0, "fusion_lat": 0.0, "lat": 38.91057466666667, "fusion_lon": 0.0, "rental_uris": {"ios": "https://dc.lft.to/lastmile_qr_scan", "android": "https://dc.lft.to/lastmile_qr_scan"}, "lon": -77.02305983333333, "bike_id": "54566ecdd34dece972d6432b3a00b12b", "type": "electric_scooter", "name": "54566ecdd34dece972d6432b3a00b12b"}, {"is_disabled": 0, "is_reserved": 0, "fusion_lat": 0.0, "lat": 38.921636, "fusion_lon": 0.0, "rental_uris": {"ios": "https://dc.lft.to/lastmile_qr_scan", "android": "https://dc.lft.to/lastmile_qr_scan"}, "lon": -77.03268483333333, "bike_id": "c71ad9fd62a165b73323c2049dba04ac", "type": "electric_scooter", "name": "c71ad9fd62a165b73323c2049dba04ac"}, {"is_disabled": 0, "is_reserved": 0, "fusion_lat": 0.0, "lat": 38.92815983333333, "fusion_lon": 0.0, "rental_uris": {"ios": "https://dc.lft.to/lastmile_qr_scan", "android": "https://dc.lft.to/lastmile_qr_scan"}, "lon": -77.0435295, "bike_id": "92185ebbfc43d7f32d51166b3e18e119", "type": "electric_scooter", "name": "92185ebbfc43d7f32d51166b3e18e119"}, {"is_disabled": 0, "is_reserved": 0, "fusion_lat": 0.0, "lat": 38.892224, "fusion_lon": 0.0, "rental_uris": {"ios": "https://dc.lft.to/lastmile_qr_scan", "android": "https://dc.lft.to/lastmile_qr_scan"}, "lon": -77.0334235, "bike_id": "6a2e1e717219c1ea78b536861f7b74b9", "type": "electric_scooter", "name": "6a2e1e717219c1ea78b536861f7b74b9"}, {"is_disabled": 0, "is_reserved": 0, "fusion_lat": 0.0, "lat": 38.92147766666667, "fusion_lon": 0.0, "rental_uris": {"ios": "https://dc.lft.to/lastmile_qr_scan", "android": "https://dc.lft.to/lastmile_qr_scan"}, "lon": -77.03507183333333, "bike_id": "d3e463bebb678e40895ce07f91f2b4ae", "type": "electric_scooter", "name": "d3e463bebb678e40895ce07f91f2b4ae"}, {"is_disabled": 0, "is_reserved": 0, "fusion_lat": 0.0, "lat": 38.9188495, "fusion_lon": 0.0, "rental_uris": {"ios": "https://dc.lft.to/lastmile_qr_scan", "android": "https://dc.lft.to/lastmile_qr_scan"}, "lon": -77.041779, "bike_id": "205a023e325ceab5e1b7d8e31d9e4339", "type": "electric_scooter", "name": "205a023e325ceab5e1b7d8e31d9e4339"}, {"is_disabled": 0, "is_reserved": 0, "fusion_lat": 0.0, "lat": 38.914810833333334, "fusion_lon": 0.0, "rental_uris": {"ios": "https://dc.lft.to/lastmile_qr_scan", "android": "https://dc.lft.to/lastmile_qr_scan"}, "lon": -77.042916, "bike_id": "5b9fdfeb2d027fb408feb14352b084d7", "type": "electric_scooter", "name": "5b9fdfeb2d027fb408feb14352b084d7"}, {"is_disabled": 0, "is_reserved": 0, "fusion_lat": 0.0, "lat": 38.827616, "fusion_lon": 0.0, "rental_uris": {"ios": "https://dc.lft.to/lastmile_qr_scan", "android": "https://dc.lft.to/lastmile_qr_scan"}, "lon": -77.05033016666667, "bike_id": "602c8a76b3ea7530a73ae34b1579b6c3", "type": "electric_bike", "name": "602c8a76b3ea7530a73ae34b1579b6c3"}, {"is_disabled": 0, "is_reserved": 0, "fusion_lat": 0.0, "lat": 38.91997633333333, "fusion_lon": 0.0, "rental_uris": {"ios": "https://dc.lft.to/lastmile_qr_scan", "android": "https://dc.lft.to/lastmile_qr_scan"}, "lon": -77.03217, "bike_id": "0a7306741298f8e0722283fe1aabcaeb", "type": "electric_scooter", "name": "0a7306741298f8e0722283fe1aabcaeb"}, {"is_disabled": 0, "is_reserved": 0, "fusion_lat": 0.0, "lat": 38.92220316666667, "fusion_lon": 0.0, "rental_uris": {"ios": "https://dc.lft.to/lastmile_qr_scan", "android": "https://dc.lft.to/lastmile_qr_scan"}, "lon": -77.074404, "bike_id": "393ce2b17956fc6f544b0fe38c9fd6a9", "type": "electric_scooter", "name": "393ce2b17956fc6f544b0fe38c9fd6a9"}, {"is_disabled": 0, "is_reserved": 0, "fusion_lat": 0.0, "lat": 38.90585933333333, "fusion_lon": 0.0, "rental_uris": {"ios": "https://dc.lft.to/lastmile_qr_scan", "android": "https://dc.lft.to/lastmile_qr_scan"}, "lon": -77.016157, "bike_id": "2896d196bafe95f5c76d13491d4c7241", "type": "electric_scooter", "name": "2896d196bafe95f5c76d13491d4c7241"}, {"is_disabled": 0, "is_reserved": 0, "fusion_lat": 0.0, "lat": 38.884385333333334, "fusion_lon": 0.0, "rental_uris": {"ios": "https://dc.lft.to/lastmile_qr_scan", "android": "https://dc.lft.to/lastmile_qr_scan"}, "lon": -77.0252685, "bike_id": "298568949f09d58942ecfbe5a2237294", "type": "electric_scooter", "name": "298568949f09d58942ecfbe5a2237294"}, {"is_disabled": 0, "is_reserved": 0, "fusion_lat": 0.0, "lat": 38.921420166666664, "fusion_lon": 0.0, "rental_uris": {"ios": "https://dc.lft.to/lastmile_qr_scan", "android": "https://dc.lft.to/lastmile_qr_scan"}, "lon": -77.04561866666667, "bike_id": "f1daf326536a972db61bb32af6f16f9e", "type": "electric_scooter", "name": "f1daf326536a972db61bb32af6f16f9e"}, {"is_disabled": 0, "is_reserved": 0, "fusion_lat": 0.0, "lat": 38.90439083333333, "fusion_lon": 0.0, "rental_uris": {"ios": "https://dc.lft.to/lastmile_qr_scan", "android": "https://dc.lft.to/lastmile_qr_scan"}, "lon": -77.0311255, "bike_id": "cb4a45ea421e153e65ee6af3c38baa21", "type": "electric_scooter", "name": "cb4a45ea421e153e65ee6af3c38baa21"}, {"is_disabled": 0, "is_reserved": 0, "fusion_lat": 0.0, "lat": 38.90543733333333, "fusion_lon": 0.0, "rental_uris": {"ios": "https://dc.lft.to/lastmile_qr_scan", "android": "https://dc.lft.to/lastmile_qr_scan"}, "lon": -77.007146, "bike_id": "896bede0dfb77b64b248ae3c3ea15ecc", "type": "electric_scooter", "name": "896bede0dfb77b64b248ae3c3ea15ecc"}, {"is_disabled": 0, "is_reserved": 0, "fusion_lat": 0.0, "lat": 38.9112695, "fusion_lon": 0.0, "rental_uris": {"ios": "https://dc.lft.to/lastmile_qr_scan", "android": "https://dc.lft.to/lastmile_qr_scan"}, "lon": -76.997438, "bike_id": "1fc976f14098054271fb15e338a5ae26", "type": "electric_scooter", "name": "1fc976f14098054271fb15e338a5ae26"}, {"is_disabled": 0, "is_reserved": 0, "fusion_lat": 0.0, "lat": 38.910761, "fusion_lon": 0.0, "rental_uris": {"ios": "https://dc.lft.to/lastmile_qr_scan", "android": "https://dc.lft.to/lastmile_qr_scan"}, "lon": -77.02200316666666, "bike_id": "8d755ec75097eedfec3cc3a009f7c0e1", "type": "electric_scooter", "name": "8d755ec75097eedfec3cc3a009f7c0e1"}, {"is_disabled": 0, "is_reserved": 0, "fusion_lat": 0.0, "lat": 38.905035166666664, "fusion_lon": 0.0, "rental_uris": {"ios": "https://dc.lft.to/lastmile_qr_scan", "android": "https://dc.lft.to/lastmile_qr_scan"}, "lon": -77.0613195, "bike_id": "7e2d81831ef17de4f9e669bd002ea19b", "type": "electric_scooter", "name": "7e2d81831ef17de4f9e669bd002ea19b"}, {"is_disabled": 0, "is_reserved": 0, "fusion_lat": 0.0, "lat": 38.967806833333334, "fusion_lon": 0.0, "rental_uris": {"ios": "https://dc.lft.to/lastmile_qr_scan", "android": "https://dc.lft.to/lastmile_qr_scan"}, "lon": -76.99648633333334, "bike_id": "f0c2c0171c629b2aff56f0cad80cf3f4", "type": "electric_bike", "name": "f0c2c0171c629b2aff56f0cad80cf3f4"}, {"is_disabled": 0, "is_reserved": 0, "fusion_lat": 0.0, "lat": 38.931331666666665, "fusion_lon": 0.0, "rental_uris": {"ios": "https://dc.lft.to/lastmile_qr_scan", "android": "https://dc.lft.to/lastmile_qr_scan"}, "lon": -77.0234955, "bike_id": "0cd0cdb8b4c3e107e2163851e881472c", "type": "electric_scooter", "name": "0cd0cdb8b4c3e107e2163851e881472c"}, {"is_disabled": 0, "is_reserved": 0, "fusion_lat": 0.0, "lat": 38.8942565, "fusion_lon": 0.0, "rental_uris": {"ios": "https://dc.lft.to/lastmile_qr_scan", "android": "https://dc.lft.to/lastmile_qr_scan"}, "lon": -77.01075283333333, "bike_id": "25aaa5fc9541c56c87b37ba435794106", "type": "electric_scooter", "name": "25aaa5fc9541c56c87b37ba435794106"}, {"is_disabled": 0, "is_reserved": 0, "fusion_lat": 0.0, "lat": 38.900064666666665, "fusion_lon": 0.0, "rental_uris": {"ios": "https://dc.lft.to/lastmile_qr_scan", "android": "https://dc.lft.to/lastmile_qr_scan"}, "lon": -76.97988966666666, "bike_id": "e34f1479527ce486d23579622012c06c", "type": "electric_scooter", "name": "e34f1479527ce486d23579622012c06c"}, {"is_disabled": 0, "is_reserved": 0, "fusion_lat": 0.0, "lat": 38.91053333333333, "fusion_lon": 0.0, "rental_uris": {"ios": "https://dc.lft.to/lastmile_qr_scan", "android": "https://dc.lft.to/lastmile_qr_scan"}, "lon": -77.022001, "bike_id": "a6a6a5a0ed5d1442eee5dbc1cd07728e", "type": "electric_scooter", "name": "a6a6a5a0ed5d1442eee5dbc1cd07728e"}, {"is_disabled": 0, "is_reserved": 0, "fusion_lat": 0.0, "lat": 38.901153, "fusion_lon": 0.0, "rental_uris": {"ios": "https://dc.lft.to/lastmile_qr_scan", "android": "https://dc.lft.to/lastmile_qr_scan"}, "lon": -77.04994216666667, "bike_id": "9ffe7554b1240c5f5381c872ebefeaef", "type": "electric_scooter", "name": "9ffe7554b1240c5f5381c872ebefeaef"}, {"is_disabled": 0, "is_reserved": 0, "fusion_lat": 0.0, "lat": 38.915706666666665, "fusion_lon": 0.0, "rental_uris": {"ios": "https://dc.lft.to/lastmile_qr_scan", "android": "https://dc.lft.to/lastmile_qr_scan"}, "lon": -77.0318615, "bike_id": "4e4fef8eba29628c9528739cb47f60b4", "type": "electric_scooter", "name": "4e4fef8eba29628c9528739cb47f60b4"}, {"is_disabled": 0, "is_reserved": 0, "fusion_lat": 0.0, "lat": 38.912683333333334, "fusion_lon": 0.0, "rental_uris": {"ios": "https://dc.lft.to/lastmile_qr_scan", "android": "https://dc.lft.to/lastmile_qr_scan"}, "lon": -77.03034016666666, "bike_id": "fb20a42044ff616ae3ebfda0eaf45e80", "type": "electric_scooter", "name": "fb20a42044ff616ae3ebfda0eaf45e80"}, {"is_disabled": 0, "is_reserved": 0, "fusion_lat": 0.0, "lat": 38.922435666666665, "fusion_lon": 0.0, "rental_uris": {"ios": "https://dc.lft.to/lastmile_qr_scan", "android": "https://dc.lft.to/lastmile_qr_scan"}, "lon": -77.04023316666667, "bike_id": "7ed7fb06cd0c8024e603cd928b92810c", "type": "electric_scooter", "name": "7ed7fb06cd0c8024e603cd928b92810c"}, {"is_disabled": 0, "is_reserved": 0, "fusion_lat": 0.0, "lat": 38.9006735, "fusion_lon": 0.0, "rental_uris": {"ios": "https://dc.lft.to/lastmile_qr_scan", "android": "https://dc.lft.to/lastmile_qr_scan"}, "lon": -77.00663816666666, "bike_id": "834fcbafd2327e17955b325a0ced28ed", "type": "electric_scooter", "name": "834fcbafd2327e17955b325a0ced28ed"}, {"is_disabled": 0, "is_reserved": 0, "fusion_lat": 0.0, "lat": 38.902587, "fusion_lon": 0.0, "rental_uris": {"ios": "https://dc.lft.to/lastmile_qr_scan", "android": "https://dc.lft.to/lastmile_qr_scan"}, "lon": -77.01844083333333, "bike_id": "dfcddd5e44897ed8a03938f8d4e93c53", "type": "electric_scooter", "name": "dfcddd5e44897ed8a03938f8d4e93c53"}, {"is_disabled": 0, "is_reserved": 0, "fusion_lat": 0.0, "lat": 38.956356166666666, "fusion_lon": 0.0, "rental_uris": {"ios": "https://dc.lft.to/lastmile_qr_scan", "android": "https://dc.lft.to/lastmile_qr_scan"}, "lon": -77.02212466666667, "bike_id": "e84f606e7b15758cc733a795f395e91d", "type": "electric_scooter", "name": "e84f606e7b15758cc733a795f395e91d"}, {"is_disabled": 0, "is_reserved": 0, "fusion_lat": 0.0, "lat": 38.9515145, "fusion_lon": 0.0, "rental_uris": {"ios": "https://dc.lft.to/lastmile_qr_scan", "android": "https://dc.lft.to/lastmile_qr_scan"}, "lon": -77.01865233333334, "bike_id": "b39b9415e41cf3bc24196720f3b51e5f", "type": "electric_scooter", "name": "b39b9415e41cf3bc24196720f3b51e5f"}, {"is_disabled": 0, "is_reserved": 0, "fusion_lat": 0.0, "lat": 38.923617, "fusion_lon": 0.0, "rental_uris": {"ios": "https://dc.lft.to/lastmile_qr_scan", "android": "https://dc.lft.to/lastmile_qr_scan"}, "lon": -77.05243133333333, "bike_id": "2988e2269529bd4bb3ea5e538fcb267e", "type": "electric_scooter", "name": "2988e2269529bd4bb3ea5e538fcb267e"}, {"is_disabled": 0, "is_reserved": 0, "fusion_lat": 0.0, "lat": 38.92075966666667, "fusion_lon": 0.0, "rental_uris": {"ios": "https://dc.lft.to/lastmile_qr_scan", "android": "https://dc.lft.to/lastmile_qr_scan"}, "lon": -77.02428933333333, "bike_id": "b5e181e2ac9d505aef546a1989a1e72f", "type": "electric_scooter", "name": "b5e181e2ac9d505aef546a1989a1e72f"}, {"is_disabled": 0, "is_reserved": 0, "fusion_lat": 0.0, "lat": 38.9171965, "fusion_lon": 0.0, "rental_uris": {"ios": "https://dc.lft.to/lastmile_qr_scan", "android": "https://dc.lft.to/lastmile_qr_scan"}, "lon": -77.03861066666667, "bike_id": "e208ba2eeac6baf7350daf08c63b9eb1", "type": "electric_scooter", "name": "e208ba2eeac6baf7350daf08c63b9eb1"}, {"is_disabled": 0, "is_reserved": 0, "fusion_lat": 0.0, "lat": 38.918257833333335, "fusion_lon": 0.0, "rental_uris": {"ios": "https://dc.lft.to/lastmile_qr_scan", "android": "https://dc.lft.to/lastmile_qr_scan"}, "lon": -77.01214366666666, "bike_id": "5826ca50faa20cc8e477bc722d4edfa7", "type": "electric_scooter", "name": "5826ca50faa20cc8e477bc722d4edfa7"}, {"is_disabled": 0, "is_reserved": 0, "fusion_lat": 0.0, "lat": 38.899058333333336, "fusion_lon": 0.0, "rental_uris": {"ios": "https://dc.lft.to/lastmile_qr_scan", "android": "https://dc.lft.to/lastmile_qr_scan"}, "lon": -77.0501315, "bike_id": "a795ad1f599fbef0e951da67cc5525b0", "type": "electric_scooter", "name": "a795ad1f599fbef0e951da67cc5525b0"}, {"is_disabled": 0, "is_reserved": 0, "fusion_lat": 0.0, "lat": 38.9308355, "fusion_lon": 0.0, "rental_uris": {"ios": "https://dc.lft.to/lastmile_qr_scan", "android": "https://dc.lft.to/lastmile_qr_scan"}, "lon": -77.02006816666666, "bike_id": "42f7400d9fd675a024b1055b57ab486a", "type": "electric_scooter", "name": "42f7400d9fd675a024b1055b57ab486a"}, {"is_disabled": 0, "is_reserved": 0, "fusion_lat": 0.0, "lat": 38.899721, "fusion_lon": 0.0, "rental_uris": {"ios": "https://dc.lft.to/lastmile_qr_scan", "android": "https://dc.lft.to/lastmile_qr_scan"}, "lon": -77.01602483333333, "bike_id": "d3f602576224dfdf3204325e90712750", "type": "electric_scooter", "name": "d3f602576224dfdf3204325e90712750"}, {"is_disabled": 0, "is_reserved": 0, "fusion_lat": 0.0, "lat": 38.827727833333334, "fusion_lon": 0.0, "rental_uris": {"ios": "https://dc.lft.to/lastmile_qr_scan", "android": "https://dc.lft.to/lastmile_qr_scan"}, "lon": -77.0601245, "bike_id": "6a7bdd3cccd9070f0faa16fcc91441df", "type": "electric_bike", "name": "6a7bdd3cccd9070f0faa16fcc91441df"}, {"is_disabled": 0, "is_reserved": 0, "fusion_lat": 0.0, "lat": 38.933498, "fusion_lon": 0.0, "rental_uris": {"ios": "https://dc.lft.to/lastmile_qr_scan", "android": "https://dc.lft.to/lastmile_qr_scan"}, "lon": -77.06045766666666, "bike_id": "91737569e410a8251f5eec023ab11f9f", "type": "electric_scooter", "name": "91737569e410a8251f5eec023ab11f9f"}, {"is_disabled": 0, "is_reserved": 0, "fusion_lat": 0.0, "lat": 39.026476, "fusion_lon": 0.0, "rental_uris": {"ios": "https://dc.lft.to/lastmile_qr_scan", "android": "https://dc.lft.to/lastmile_qr_scan"}, "lon": -77.0368485, "bike_id": "acef86b91000b48912a913e764b3747f", "type": "electric_bike", "name": "acef86b91000b48912a913e764b3747f"}, {"is_disabled": 0, "is_reserved": 0, "fusion_lat": 0.0, "lat": 38.91417333333333, "fusion_lon": 0.0, "rental_uris": {"ios": "https://dc.lft.to/lastmile_qr_scan", "android": "https://dc.lft.to/lastmile_qr_scan"}, "lon": -77.05211683333333, "bike_id": "26cd2b0243a0c1aba5c4467c3fb4c643", "type": "electric_scooter", "name": "26cd2b0243a0c1aba5c4467c3fb4c643"}, {"is_disabled": 0, "is_reserved": 0, "fusion_lat": 0.0, "lat": 38.94331616666667, "fusion_lon": 0.0, "rental_uris": {"ios": "https://dc.lft.to/lastmile_qr_scan", "android": "https://dc.lft.to/lastmile_qr_scan"}, "lon": -77.02691516666667, "bike_id": "f2f4d960baa3ba383cbb5af67d465724", "type": "electric_scooter", "name": "f2f4d960baa3ba383cbb5af67d465724"}, {"is_disabled": 0, "is_reserved": 0, "fusion_lat": 0.0, "lat": 38.8862325, "fusion_lon": 0.0, "rental_uris": {"ios": "https://dc.lft.to/lastmile_qr_scan", "android": "https://dc.lft.to/lastmile_qr_scan"}, "lon": -76.9263505, "bike_id": "98023916f666112fea70de36ce2dc58e", "type": "electric_scooter", "name": "98023916f666112fea70de36ce2dc58e"}, {"is_disabled": 0, "is_reserved": 0, "fusion_lat": 0.0, "lat": 38.896930166666664, "fusion_lon": 0.0, "rental_uris": {"ios": "https://dc.lft.to/lastmile_qr_scan", "android": "https://dc.lft.to/lastmile_qr_scan"}, "lon": -77.02415716666667, "bike_id": "38dde6e3c95bf3e3428dbe00ac0bfbff", "type": "electric_bike", "name": "38dde6e3c95bf3e3428dbe00ac0bfbff"}, {"is_disabled": 0, "is_reserved": 0, "fusion_lat": 0.0, "lat": 38.901465333333334, "fusion_lon": 0.0, "rental_uris": {"ios": "https://dc.lft.to/lastmile_qr_scan", "android": "https://dc.lft.to/lastmile_qr_scan"}, "lon": -76.97405933333333, "bike_id": "87769ed278b0f98ada5110bf7dd761cb", "type": "electric_scooter", "name": "87769ed278b0f98ada5110bf7dd761cb"}, {"is_disabled": 0, "is_reserved": 0, "fusion_lat": 0.0, "lat": 38.927596666666666, "fusion_lon": 0.0, "rental_uris": {"ios": "https://dc.lft.to/lastmile_qr_scan", "android": "https://dc.lft.to/lastmile_qr_scan"}, "lon": -77.0526565, "bike_id": "8dada08b81e49ef404d25db93a90ff7f", "type": "electric_scooter", "name": "8dada08b81e49ef404d25db93a90ff7f"}, {"is_disabled": 0, "is_reserved": 0, "fusion_lat": 0.0, "lat": 38.905136666666664, "fusion_lon": 0.0, "rental_uris": {"ios": "https://dc.lft.to/lastmile_qr_scan", "android": "https://dc.lft.to/lastmile_qr_scan"}, "lon": -76.952013, "bike_id": "f8dc584fcd30bc2dab71a96289d97767", "type": "electric_scooter", "name": "f8dc584fcd30bc2dab71a96289d97767"}, {"is_disabled": 0, "is_reserved": 0, "fusion_lat": 0.0, "lat": 38.916652166666665, "fusion_lon": 0.0, "rental_uris": {"ios": "https://dc.lft.to/lastmile_qr_scan", "android": "https://dc.lft.to/lastmile_qr_scan"}, "lon": -77.04701133333333, "bike_id": "b0d26e474a1878401ad5a31b67ab954f", "type": "electric_bike", "name": "b0d26e474a1878401ad5a31b67ab954f"}, {"is_disabled": 0, "is_reserved": 0, "fusion_lat": 0.0, "lat": 38.955924, "fusion_lon": 0.0, "rental_uris": {"ios": "https://dc.lft.to/lastmile_qr_scan", "android": "https://dc.lft.to/lastmile_qr_scan"}, "lon": -77.017882, "bike_id": "9214d03cd82ad4cd5385d21b247b2f98", "type": "electric_scooter", "name": "9214d03cd82ad4cd5385d21b247b2f98"}, {"is_disabled": 0, "is_reserved": 0, "fusion_lat": 0.0, "lat": 38.92257516666667, "fusion_lon": 0.0, "rental_uris": {"ios": "https://dc.lft.to/lastmile_qr_scan", "android": "https://dc.lft.to/lastmile_qr_scan"}, "lon": -77.03661566666666, "bike_id": "a6e27178102672f39d76fd1768714a5e", "type": "electric_scooter", "name": "a6e27178102672f39d76fd1768714a5e"}, {"is_disabled": 0, "is_reserved": 0, "fusion_lat": 0.0, "lat": 38.92198666666667, "fusion_lon": 0.0, "rental_uris": {"ios": "https://dc.lft.to/lastmile_qr_scan", "android": "https://dc.lft.to/lastmile_qr_scan"}, "lon": -77.0204565, "bike_id": "ab28ff0c53c0cd627ef2d8b2ab2dae22", "type": "electric_scooter", "name": "ab28ff0c53c0cd627ef2d8b2ab2dae22"}, {"is_disabled": 0, "is_reserved": 0, "fusion_lat": 0.0, "lat": 38.895180833333335, "fusion_lon": 0.0, "rental_uris": {"ios": "https://dc.lft.to/lastmile_qr_scan", "android": "https://dc.lft.to/lastmile_qr_scan"}, "lon": -76.98107516666667, "bike_id": "aa1ae13e831b0c7cbd40ca8f26c0c97e", "type": "electric_scooter", "name": "aa1ae13e831b0c7cbd40ca8f26c0c97e"}, {"is_disabled": 0, "is_reserved": 0, "fusion_lat": 0.0, "lat": 38.920518666666666, "fusion_lon": 0.0, "rental_uris": {"ios": "https://dc.lft.to/lastmile_qr_scan", "android": "https://dc.lft.to/lastmile_qr_scan"}, "lon": -77.03128416666667, "bike_id": "d3194ade6927c6efc9b49b9a5e898d4f", "type": "electric_scooter", "name": "d3194ade6927c6efc9b49b9a5e898d4f"}, {"is_disabled": 0, "is_reserved": 0, "fusion_lat": 0.0, "lat": 38.938742166666664, "fusion_lon": 0.0, "rental_uris": {"ios": "https://dc.lft.to/lastmile_qr_scan", "android": "https://dc.lft.to/lastmile_qr_scan"}, "lon": -77.03043383333333, "bike_id": "bf5b86b53fc3c59adf2445e9d8915890", "type": "electric_scooter", "name": "bf5b86b53fc3c59adf2445e9d8915890"}, {"is_disabled": 0, "is_reserved": 0, "fusion_lat": 0.0, "lat": 38.9150675, "fusion_lon": 0.0, "rental_uris": {"ios": "https://dc.lft.to/lastmile_qr_scan", "android": "https://dc.lft.to/lastmile_qr_scan"}, "lon": -76.98358566666667, "bike_id": "288a1bf75e7c8ccac6dd91525c186dc0", "type": "electric_scooter", "name": "288a1bf75e7c8ccac6dd91525c186dc0"}, {"is_disabled": 0, "is_reserved": 0, "fusion_lat": 0.0, "lat": 38.95185433333333, "fusion_lon": 0.0, "rental_uris": {"ios": "https://dc.lft.to/lastmile_qr_scan", "android": "https://dc.lft.to/lastmile_qr_scan"}, "lon": -77.0261565, "bike_id": "e7aba1f2a5ac5978fc06fa6f24439ff7", "type": "electric_scooter", "name": "e7aba1f2a5ac5978fc06fa6f24439ff7"}, {"is_disabled": 0, "is_reserved": 0, "fusion_lat": 0.0, "lat": 38.889749333333334, "fusion_lon": 0.0, "rental_uris": {"ios": "https://dc.lft.to/lastmile_qr_scan", "android": "https://dc.lft.to/lastmile_qr_scan"}, "lon": -76.9861295, "bike_id": "0a7a37561f0d35816dedacea7ac14101", "type": "electric_scooter", "name": "0a7a37561f0d35816dedacea7ac14101"}, {"is_disabled": 0, "is_reserved": 0, "fusion_lat": 0.0, "lat": 38.898633333333336, "fusion_lon": 0.0, "rental_uris": {"ios": "https://dc.lft.to/lastmile_qr_scan", "android": "https://dc.lft.to/lastmile_qr_scan"}, "lon": -76.94648883333333, "bike_id": "263ace688e1de8b90c2f5e7fb26fc39e", "type": "electric_scooter", "name": "263ace688e1de8b90c2f5e7fb26fc39e"}, {"is_disabled": 0, "is_reserved": 0, "fusion_lat": 0.0, "lat": 38.8966915, "fusion_lon": 0.0, "rental_uris": {"ios": "https://dc.lft.to/lastmile_qr_scan", "android": "https://dc.lft.to/lastmile_qr_scan"}, "lon": -77.05103233333334, "bike_id": "aefbd1b899b322e41ddedabfd4fcb341", "type": "electric_scooter", "name": "aefbd1b899b322e41ddedabfd4fcb341"}, {"is_disabled": 0, "is_reserved": 0, "fusion_lat": 0.0, "lat": 38.924806, "fusion_lon": 0.0, "rental_uris": {"ios": "https://dc.lft.to/lastmile_qr_scan", "android": "https://dc.lft.to/lastmile_qr_scan"}, "lon": -77.0510925, "bike_id": "80ed1900b399b8f92c8b9da4d37ae11a", "type": "electric_scooter", "name": "80ed1900b399b8f92c8b9da4d37ae11a"}, {"is_disabled": 0, "is_reserved": 0, "fusion_lat": 0.0, "lat": 38.89818666666667, "fusion_lon": 0.0, "rental_uris": {"ios": "https://dc.lft.to/lastmile_qr_scan", "android": "https://dc.lft.to/lastmile_qr_scan"}, "lon": -77.00218083333333, "bike_id": "27e3665bb99886dba03e857cec7d3405", "type": "electric_scooter", "name": "27e3665bb99886dba03e857cec7d3405"}, {"is_disabled": 0, "is_reserved": 0, "fusion_lat": 0.0, "lat": 38.8983445, "fusion_lon": 0.0, "rental_uris": {"ios": "https://dc.lft.to/lastmile_qr_scan", "android": "https://dc.lft.to/lastmile_qr_scan"}, "lon": -76.946354, "bike_id": "0c66efc3cdc24a49594d239e24693066", "type": "electric_scooter", "name": "0c66efc3cdc24a49594d239e24693066"}, {"is_disabled": 0, "is_reserved": 0, "fusion_lat": 0.0, "lat": 38.91407183333333, "fusion_lon": 0.0, "rental_uris": {"ios": "https://dc.lft.to/lastmile_qr_scan", "android": "https://dc.lft.to/lastmile_qr_scan"}, "lon": -77.012239, "bike_id": "d28867c1b6ee21902899391ed9bf5a57", "type": "electric_scooter", "name": "d28867c1b6ee21902899391ed9bf5a57"}, {"is_disabled": 0, "is_reserved": 0, "fusion_lat": 0.0, "lat": 38.870740166666664, "fusion_lon": 0.0, "rental_uris": {"ios": "https://dc.lft.to/lastmile_qr_scan", "android": "https://dc.lft.to/lastmile_qr_scan"}, "lon": -76.979475, "bike_id": "900299fd0f96ab6307409435ef2c47d6", "type": "electric_scooter", "name": "900299fd0f96ab6307409435ef2c47d6"}, {"is_disabled": 0, "is_reserved": 0, "fusion_lat": 0.0, "lat": 38.94229033333333, "fusion_lon": 0.0, "rental_uris": {"ios": "https://dc.lft.to/lastmile_qr_scan", "android": "https://dc.lft.to/lastmile_qr_scan"}, "lon": -77.01439466666666, "bike_id": "9ea14e485d1ee14f38ae34eaf3340325", "type": "electric_scooter", "name": "9ea14e485d1ee14f38ae34eaf3340325"}, {"is_disabled": 0, "is_reserved": 0, "fusion_lat": 0.0, "lat": 38.89849866666667, "fusion_lon": 0.0, "rental_uris": {"ios": "https://dc.lft.to/lastmile_qr_scan", "android": "https://dc.lft.to/lastmile_qr_scan"}, "lon": -76.92748983333334, "bike_id": "b8d9b9f65668d6f224693c7e4321bc15", "type": "electric_scooter", "name": "b8d9b9f65668d6f224693c7e4321bc15"}, {"is_disabled": 0, "is_reserved": 0, "fusion_lat": 0.0, "lat": 38.93630366666667, "fusion_lon": 0.0, "rental_uris": {"ios": "https://dc.lft.to/lastmile_qr_scan", "android": "https://dc.lft.to/lastmile_qr_scan"}, "lon": -77.036847, "bike_id": "d85329e00b814822f0db663f72cfa644", "type": "electric_scooter", "name": "d85329e00b814822f0db663f72cfa644"}, {"is_disabled": 0, "is_reserved": 0, "fusion_lat": 0.0, "lat": 38.890574666666666, "fusion_lon": 0.0, "rental_uris": {"ios": "https://dc.lft.to/lastmile_qr_scan", "android": "https://dc.lft.to/lastmile_qr_scan"}, "lon": -77.02666966666666, "bike_id": "3cc38c72bbd1d4f69bcc6e2a5cc918a2", "type": "electric_bike", "name": "3cc38c72bbd1d4f69bcc6e2a5cc918a2"}, {"is_disabled": 0, "is_reserved": 0, "fusion_lat": 0.0, "lat": 38.93117683333333, "fusion_lon": 0.0, "rental_uris": {"ios": "https://dc.lft.to/lastmile_qr_scan", "android": "https://dc.lft.to/lastmile_qr_scan"}, "lon": -77.02138933333333, "bike_id": "a10d67e6dcbf7ae2c1aeaafe8b0d5b7f", "type": "electric_scooter", "name": "a10d67e6dcbf7ae2c1aeaafe8b0d5b7f"}, {"is_disabled": 0, "is_reserved": 0, "fusion_lat": 0.0, "lat": 38.904386333333335, "fusion_lon": 0.0, "rental_uris": {"ios": "https://dc.lft.to/lastmile_qr_scan", "android": "https://dc.lft.to/lastmile_qr_scan"}, "lon": -76.97232733333334, "bike_id": "3a73596488b6c0959a843681029991d8", "type": "electric_bike", "name": "3a73596488b6c0959a843681029991d8"}, {"is_disabled": 0, "is_reserved": 0, "fusion_lat": 0.0, "lat": 38.832989833333336, "fusion_lon": 0.0, "rental_uris": {"ios": "https://dc.lft.to/lastmile_qr_scan", "android": "https://dc.lft.to/lastmile_qr_scan"}, "lon": -77.08407816666667, "bike_id": "d2d6300b1e628ee0a331678454fe31fb", "type": "electric_bike", "name": "d2d6300b1e628ee0a331678454fe31fb"}, {"is_disabled": 0, "is_reserved": 0, "fusion_lat": 0.0, "lat": 38.9072, "fusion_lon": 0.0, "rental_uris": {"ios": "https://dc.lft.to/lastmile_qr_scan", "android": "https://dc.lft.to/lastmile_qr_scan"}, "lon": -77.04645, "bike_id": "880f14ab5c03ba40ee347cbc53e46c9c", "type": "electric_scooter", "name": "880f14ab5c03ba40ee347cbc53e46c9c"}, {"is_disabled": 0, "is_reserved": 0, "fusion_lat": 0.0, "lat": 38.90440533333334, "fusion_lon": 0.0, "rental_uris": {"ios": "https://dc.lft.to/lastmile_qr_scan", "android": "https://dc.lft.to/lastmile_qr_scan"}, "lon": -77.0284505, "bike_id": "8e79f25188411f20af98d41512e6a5eb", "type": "electric_scooter", "name": "8e79f25188411f20af98d41512e6a5eb"}, {"is_disabled": 0, "is_reserved": 0, "fusion_lat": 0.0, "lat": 38.9188175, "fusion_lon": 0.0, "rental_uris": {"ios": "https://dc.lft.to/lastmile_qr_scan", "android": "https://dc.lft.to/lastmile_qr_scan"}, "lon": -77.03647183333334, "bike_id": "cb83b002cabeaac7949cee3e3bb86f29", "type": "electric_scooter", "name": "cb83b002cabeaac7949cee3e3bb86f29"}, {"is_disabled": 0, "is_reserved": 0, "fusion_lat": 0.0, "lat": 38.92242816666667, "fusion_lon": 0.0, "rental_uris": {"ios": "https://dc.lft.to/lastmile_qr_scan", "android": "https://dc.lft.to/lastmile_qr_scan"}, "lon": -77.02266433333334, "bike_id": "da241ddb498d0b850883360efdf6ee3c", "type": "electric_scooter", "name": "da241ddb498d0b850883360efdf6ee3c"}, {"is_disabled": 0, "is_reserved": 0, "fusion_lat": 0.0, "lat": 38.90895066666667, "fusion_lon": 0.0, "rental_uris": {"ios": "https://dc.lft.to/lastmile_qr_scan", "android": "https://dc.lft.to/lastmile_qr_scan"}, "lon": -76.99777683333333, "bike_id": "187d050c68310e8ad4a979ed77e9712a", "type": "electric_scooter", "name": "187d050c68310e8ad4a979ed77e9712a"}, {"is_disabled": 0, "is_reserved": 0, "fusion_lat": 0.0, "lat": 38.887639166666666, "fusion_lon": 0.0, "rental_uris": {"ios": "https://dc.lft.to/lastmile_qr_scan", "android": "https://dc.lft.to/lastmile_qr_scan"}, "lon": -77.15658016666667, "bike_id": "2fadf36a23fe4450e26fcbce79241bbc", "type": "electric_bike", "name": "2fadf36a23fe4450e26fcbce79241bbc"}, {"is_disabled": 0, "is_reserved": 0, "fusion_lat": 0.0, "lat": 38.895014, "fusion_lon": 0.0, "rental_uris": {"ios": "https://dc.lft.to/lastmile_qr_scan", "android": "https://dc.lft.to/lastmile_qr_scan"}, "lon": -77.02581333333333, "bike_id": "69db16705bab312ae82e58851bcb49c9", "type": "electric_scooter", "name": "69db16705bab312ae82e58851bcb49c9"}, {"is_disabled": 0, "is_reserved": 0, "fusion_lat": 0.0, "lat": 38.92994383333333, "fusion_lon": 0.0, "rental_uris": {"ios": "https://dc.lft.to/lastmile_qr_scan", "android": "https://dc.lft.to/lastmile_qr_scan"}, "lon": -77.03474466666667, "bike_id": "57fd4ebd57c07208c5ed1222483296e1", "type": "electric_scooter", "name": "57fd4ebd57c07208c5ed1222483296e1"}, {"is_disabled": 0, "is_reserved": 0, "fusion_lat": 0.0, "lat": 38.917332333333334, "fusion_lon": 0.0, "rental_uris": {"ios": "https://dc.lft.to/lastmile_qr_scan", "android": "https://dc.lft.to/lastmile_qr_scan"}, "lon": -77.022979, "bike_id": "21293f7e74ebac001bdb280cee4389d5", "type": "electric_scooter", "name": "21293f7e74ebac001bdb280cee4389d5"}, {"is_disabled": 0, "is_reserved": 0, "fusion_lat": 0.0, "lat": 38.8953795, "fusion_lon": 0.0, "rental_uris": {"ios": "https://dc.lft.to/lastmile_qr_scan", "android": "https://dc.lft.to/lastmile_qr_scan"}, "lon": -77.02696233333333, "bike_id": "d06378e4c20283cdf1eded5f5c26e206", "type": "electric_scooter", "name": "d06378e4c20283cdf1eded5f5c26e206"}, {"is_disabled": 0, "is_reserved": 0, "fusion_lat": 0.0, "lat": 38.90232816666666, "fusion_lon": 0.0, "rental_uris": {"ios": "https://dc.lft.to/lastmile_qr_scan", "android": "https://dc.lft.to/lastmile_qr_scan"}, "lon": -77.05342383333333, "bike_id": "f482c63459f289e1a3d23c2c6e166b0d", "type": "electric_scooter", "name": "f482c63459f289e1a3d23c2c6e166b0d"}, {"is_disabled": 0, "is_reserved": 0, "fusion_lat": 0.0, "lat": 38.89230583333333, "fusion_lon": 0.0, "rental_uris": {"ios": "https://dc.lft.to/lastmile_qr_scan", "android": "https://dc.lft.to/lastmile_qr_scan"}, "lon": -77.029672, "bike_id": "6a3cff49487d3c66392f86726d934eb0", "type": "electric_scooter", "name": "6a3cff49487d3c66392f86726d934eb0"}, {"is_disabled": 0, "is_reserved": 0, "fusion_lat": 0.0, "lat": 38.928583333333336, "fusion_lon": 0.0, "rental_uris": {"ios": "https://dc.lft.to/lastmile_qr_scan", "android": "https://dc.lft.to/lastmile_qr_scan"}, "lon": -77.02879783333333, "bike_id": "c8af1bba24534c23cc27e8adc60e9b3a", "type": "electric_scooter", "name": "c8af1bba24534c23cc27e8adc60e9b3a"}, {"is_disabled": 0, "is_reserved": 0, "fusion_lat": 0.0, "lat": 38.93608033333334, "fusion_lon": 0.0, "rental_uris": {"ios": "https://dc.lft.to/lastmile_qr_scan", "android": "https://dc.lft.to/lastmile_qr_scan"}, "lon": -77.03883866666666, "bike_id": "7a8666f4a9794200baaba91a9451bf3b", "type": "electric_scooter", "name": "7a8666f4a9794200baaba91a9451bf3b"}, {"is_disabled": 0, "is_reserved": 0, "fusion_lat": 0.0, "lat": 38.842817333333336, "fusion_lon": 0.0, "rental_uris": {"ios": "https://dc.lft.to/lastmile_qr_scan", "android": "https://dc.lft.to/lastmile_qr_scan"}, "lon": -76.988412, "bike_id": "993a9c88e767decd967ee6a2d8c6a76b", "type": "electric_bike", "name": "993a9c88e767decd967ee6a2d8c6a76b"}, {"is_disabled": 0, "is_reserved": 0, "fusion_lat": 0.0, "lat": 38.917724666666665, "fusion_lon": 0.0, "rental_uris": {"ios": "https://dc.lft.to/lastmile_qr_scan", "android": "https://dc.lft.to/lastmile_qr_scan"}, "lon": -77.02296, "bike_id": "f310586237453db2945ec7ea3f6e9dbb", "type": "electric_scooter", "name": "f310586237453db2945ec7ea3f6e9dbb"}, {"is_disabled": 0, "is_reserved": 0, "fusion_lat": 0.0, "lat": 38.93417016666667, "fusion_lon": 0.0, "rental_uris": {"ios": "https://dc.lft.to/lastmile_qr_scan", "android": "https://dc.lft.to/lastmile_qr_scan"}, "lon": -77.04279283333334, "bike_id": "70e7b4a148982907b4dfeb6de9544743", "type": "electric_scooter", "name": "70e7b4a148982907b4dfeb6de9544743"}, {"is_disabled": 0, "is_reserved": 0, "fusion_lat": 0.0, "lat": 38.89993783333333, "fusion_lon": 0.0, "rental_uris": {"ios": "https://dc.lft.to/lastmile_qr_scan", "android": "https://dc.lft.to/lastmile_qr_scan"}, "lon": -77.021725, "bike_id": "e1380d3aae87d5c669982e152dbece3b", "type": "electric_scooter", "name": "e1380d3aae87d5c669982e152dbece3b"}, {"is_disabled": 0, "is_reserved": 0, "fusion_lat": 0.0, "lat": 38.93675483333333, "fusion_lon": 0.0, "rental_uris": {"ios": "https://dc.lft.to/lastmile_qr_scan", "android": "https://dc.lft.to/lastmile_qr_scan"}, "lon": -77.02284866666666, "bike_id": "9e1a1430469589b53a413d2a7ecfde26", "type": "electric_scooter", "name": "9e1a1430469589b53a413d2a7ecfde26"}, {"is_disabled": 0, "is_reserved": 0, "fusion_lat": 0.0, "lat": 38.91118566666667, "fusion_lon": 0.0, "rental_uris": {"ios": "https://dc.lft.to/lastmile_qr_scan", "android": "https://dc.lft.to/lastmile_qr_scan"}, "lon": -77.04405766666666, "bike_id": "c60ce3bd6f59a48e62d8b5b1f0102b5d", "type": "electric_scooter", "name": "c60ce3bd6f59a48e62d8b5b1f0102b5d"}, {"is_disabled": 0, "is_reserved": 0, "fusion_lat": 0.0, "lat": 38.926611, "fusion_lon": 0.0, "rental_uris": {"ios": "https://dc.lft.to/lastmile_qr_scan", "android": "https://dc.lft.to/lastmile_qr_scan"}, "lon": -77.05204466666666, "bike_id": "97e264b7bde347d43c728bf7d1d792a1", "type": "electric_scooter", "name": "97e264b7bde347d43c728bf7d1d792a1"}, {"is_disabled": 0, "is_reserved": 0, "fusion_lat": 0.0, "lat": 38.9050495, "fusion_lon": 0.0, "rental_uris": {"ios": "https://dc.lft.to/lastmile_qr_scan", "android": "https://dc.lft.to/lastmile_qr_scan"}, "lon": -76.95185, "bike_id": "99cbb59d753c88d38749976700f623de", "type": "electric_scooter", "name": "99cbb59d753c88d38749976700f623de"}, {"is_disabled": 0, "is_reserved": 0, "fusion_lat": 0.0, "lat": 38.874657666666664, "fusion_lon": 0.0, "rental_uris": {"ios": "https://dc.lft.to/lastmile_qr_scan", "android": "https://dc.lft.to/lastmile_qr_scan"}, "lon": -77.00936466666667, "bike_id": "98085bb5e52d0b26c3c1d7e1cf3453de", "type": "electric_scooter", "name": "98085bb5e52d0b26c3c1d7e1cf3453de"}, {"is_disabled": 0, "is_reserved": 0, "fusion_lat": 0.0, "lat": 38.86015916666667, "fusion_lon": 0.0, "rental_uris": {"ios": "https://dc.lft.to/lastmile_qr_scan", "android": "https://dc.lft.to/lastmile_qr_scan"}, "lon": -77.06529483333334, "bike_id": "1985ba873e506be45cc4d6126118183e", "type": "electric_bike", "name": "1985ba873e506be45cc4d6126118183e"}, {"is_disabled": 0, "is_reserved": 0, "fusion_lat": 0.0, "lat": 38.89223466666667, "fusion_lon": 0.0, "rental_uris": {"ios": "https://dc.lft.to/lastmile_qr_scan", "android": "https://dc.lft.to/lastmile_qr_scan"}, "lon": -77.02777166666667, "bike_id": "43e1662d1c4c4a2bcf3699277c47d112", "type": "electric_scooter", "name": "43e1662d1c4c4a2bcf3699277c47d112"}, {"is_disabled": 0, "is_reserved": 0, "fusion_lat": 0.0, "lat": 38.88543416666667, "fusion_lon": 0.0, "rental_uris": {"ios": "https://dc.lft.to/lastmile_qr_scan", "android": "https://dc.lft.to/lastmile_qr_scan"}, "lon": -76.959765, "bike_id": "52f59f5911dbfebf37402e8b0b7e6cb7", "type": "electric_scooter", "name": "52f59f5911dbfebf37402e8b0b7e6cb7"}, {"is_disabled": 0, "is_reserved": 0, "fusion_lat": 0.0, "lat": 38.8830335, "fusion_lon": 0.0, "rental_uris": {"ios": "https://dc.lft.to/lastmile_qr_scan", "android": "https://dc.lft.to/lastmile_qr_scan"}, "lon": -77.0089935, "bike_id": "8f2a7401704269eb6859f716f6dba9cc", "type": "electric_scooter", "name": "8f2a7401704269eb6859f716f6dba9cc"}, {"is_disabled": 0, "is_reserved": 0, "fusion_lat": 0.0, "lat": 38.91809633333333, "fusion_lon": 0.0, "rental_uris": {"ios": "https://dc.lft.to/lastmile_qr_scan", "android": "https://dc.lft.to/lastmile_qr_scan"}, "lon": -77.02494966666667, "bike_id": "a24373a58513ecca74116cce27683b1a", "type": "electric_scooter", "name": "a24373a58513ecca74116cce27683b1a"}, {"is_disabled": 0, "is_reserved": 0, "fusion_lat": 0.0, "lat": 38.8967175, "fusion_lon": 0.0, "rental_uris": {"ios": "https://dc.lft.to/lastmile_qr_scan", "android": "https://dc.lft.to/lastmile_qr_scan"}, "lon": -76.93208316666667, "bike_id": "b82a1e4b466afb0909b25e2e3ae3bd9c", "type": "electric_scooter", "name": "b82a1e4b466afb0909b25e2e3ae3bd9c"}, {"is_disabled": 0, "is_reserved": 0, "fusion_lat": 0.0, "lat": 38.93535716666667, "fusion_lon": 0.0, "rental_uris": {"ios": "https://dc.lft.to/lastmile_qr_scan", "android": "https://dc.lft.to/lastmile_qr_scan"}, "lon": -77.0235355, "bike_id": "0e22692299185f59c6a281bd8e2072e6", "type": "electric_scooter", "name": "0e22692299185f59c6a281bd8e2072e6"}, {"is_disabled": 0, "is_reserved": 0, "fusion_lat": 0.0, "lat": 38.91998483333333, "fusion_lon": 0.0, "rental_uris": {"ios": "https://dc.lft.to/lastmile_qr_scan", "android": "https://dc.lft.to/lastmile_qr_scan"}, "lon": -77.02172033333333, "bike_id": "06e150837f4b477fab41254a373a4547", "type": "electric_scooter", "name": "06e150837f4b477fab41254a373a4547"}, {"is_disabled": 0, "is_reserved": 0, "fusion_lat": 0.0, "lat": 38.919434833333334, "fusion_lon": 0.0, "rental_uris": {"ios": "https://dc.lft.to/lastmile_qr_scan", "android": "https://dc.lft.to/lastmile_qr_scan"}, "lon": -77.01390166666667, "bike_id": "389c7e7dd7f3623eb5ae4121f309ad99", "type": "electric_scooter", "name": "389c7e7dd7f3623eb5ae4121f309ad99"}, {"is_disabled": 0, "is_reserved": 0, "fusion_lat": 0.0, "lat": 38.913253166666664, "fusion_lon": 0.0, "rental_uris": {"ios": "https://dc.lft.to/lastmile_qr_scan", "android": "https://dc.lft.to/lastmile_qr_scan"}, "lon": -77.03126083333333, "bike_id": "395b2146dfc55f84fd926bc09cae6339", "type": "electric_scooter", "name": "395b2146dfc55f84fd926bc09cae6339"}, {"is_disabled": 0, "is_reserved": 0, "fusion_lat": 0.0, "lat": 38.94723233333333, "fusion_lon": 0.0, "rental_uris": {"ios": "https://dc.lft.to/lastmile_qr_scan", "android": "https://dc.lft.to/lastmile_qr_scan"}, "lon": -77.02358833333334, "bike_id": "2e938fbfa976ddd264d568ed4efd1e98", "type": "electric_scooter", "name": "2e938fbfa976ddd264d568ed4efd1e98"}, {"is_disabled": 0, "is_reserved": 0, "fusion_lat": 0.0, "lat": 38.9120575, "fusion_lon": 0.0, "rental_uris": {"ios": "https://dc.lft.to/lastmile_qr_scan", "android": "https://dc.lft.to/lastmile_qr_scan"}, "lon": -77.002235, "bike_id": "b2ab3cfb93f07ab424f721a422843207", "type": "electric_scooter", "name": "b2ab3cfb93f07ab424f721a422843207"}, {"is_disabled": 0, "is_reserved": 0, "fusion_lat": 0.0, "lat": 38.92053933333333, "fusion_lon": 0.0, "rental_uris": {"ios": "https://dc.lft.to/lastmile_qr_scan", "android": "https://dc.lft.to/lastmile_qr_scan"}, "lon": -77.03384066666666, "bike_id": "60be2f286d1ab3ff487414deb31f2549", "type": "electric_scooter", "name": "60be2f286d1ab3ff487414deb31f2549"}, {"is_disabled": 0, "is_reserved": 0, "fusion_lat": 0.0, "lat": 38.901912, "fusion_lon": 0.0, "rental_uris": {"ios": "https://dc.lft.to/lastmile_qr_scan", "android": "https://dc.lft.to/lastmile_qr_scan"}, "lon": -77.0508565, "bike_id": "bc3da35b5391e03dd1afd8fccd1d3f30", "type": "electric_scooter", "name": "bc3da35b5391e03dd1afd8fccd1d3f30"}, {"is_disabled": 0, "is_reserved": 0, "fusion_lat": 0.0, "lat": 38.919110333333336, "fusion_lon": 0.0, "rental_uris": {"ios": "https://dc.lft.to/lastmile_qr_scan", "android": "https://dc.lft.to/lastmile_qr_scan"}, "lon": -77.03446766666667, "bike_id": "074c947d798074674ba7d1962ffca57e", "type": "electric_scooter", "name": "074c947d798074674ba7d1962ffca57e"}, {"is_disabled": 0, "is_reserved": 0, "fusion_lat": 0.0, "lat": 38.92422366666667, "fusion_lon": 0.0, "rental_uris": {"ios": "https://dc.lft.to/lastmile_qr_scan", "android": "https://dc.lft.to/lastmile_qr_scan"}, "lon": -77.02295166666667, "bike_id": "76a21df30026154cb26506db2cf6acc6", "type": "electric_scooter", "name": "76a21df30026154cb26506db2cf6acc6"}, {"is_disabled": 0, "is_reserved": 0, "fusion_lat": 0.0, "lat": 38.90387333333334, "fusion_lon": 0.0, "rental_uris": {"ios": "https://dc.lft.to/lastmile_qr_scan", "android": "https://dc.lft.to/lastmile_qr_scan"}, "lon": -77.016934, "bike_id": "ee7ba0ab4e41331ff8c9e089b34bc7f5", "type": "electric_scooter", "name": "ee7ba0ab4e41331ff8c9e089b34bc7f5"}, {"is_disabled": 0, "is_reserved": 0, "fusion_lat": 0.0, "lat": 38.91819733333333, "fusion_lon": 0.0, "rental_uris": {"ios": "https://dc.lft.to/lastmile_qr_scan", "android": "https://dc.lft.to/lastmile_qr_scan"}, "lon": -77.025257, "bike_id": "17895c0bd9179055281b8471690c759c", "type": "electric_scooter", "name": "17895c0bd9179055281b8471690c759c"}, {"is_disabled": 0, "is_reserved": 0, "fusion_lat": 0.0, "lat": 38.92592166666667, "fusion_lon": 0.0, "rental_uris": {"ios": "https://dc.lft.to/lastmile_qr_scan", "android": "https://dc.lft.to/lastmile_qr_scan"}, "lon": -77.02501583333333, "bike_id": "7a9e4d2cb3fd447aa60da8cdeb3f4241", "type": "electric_scooter", "name": "7a9e4d2cb3fd447aa60da8cdeb3f4241"}, {"is_disabled": 0, "is_reserved": 0, "fusion_lat": 0.0, "lat": 38.92655083333333, "fusion_lon": 0.0, "rental_uris": {"ios": "https://dc.lft.to/lastmile_qr_scan", "android": "https://dc.lft.to/lastmile_qr_scan"}, "lon": -77.02434216666667, "bike_id": "c420bb6850c9f15400a012c0c251df22", "type": "electric_scooter", "name": "c420bb6850c9f15400a012c0c251df22"}, {"is_disabled": 0, "is_reserved": 0, "fusion_lat": 0.0, "lat": 38.87526966666667, "fusion_lon": 0.0, "rental_uris": {"ios": "https://dc.lft.to/lastmile_qr_scan", "android": "https://dc.lft.to/lastmile_qr_scan"}, "lon": -77.01230516666666, "bike_id": "5df2e7fac389200eacc178bf172760fd", "type": "electric_scooter", "name": "5df2e7fac389200eacc178bf172760fd"}, {"is_disabled": 0, "is_reserved": 0, "fusion_lat": 0.0, "lat": 38.927049833333335, "fusion_lon": 0.0, "rental_uris": {"ios": "https://dc.lft.to/lastmile_qr_scan", "android": "https://dc.lft.to/lastmile_qr_scan"}, "lon": -76.960805, "bike_id": "367b48a08e146b6937d2541054050d40", "type": "electric_scooter", "name": "367b48a08e146b6937d2541054050d40"}, {"is_disabled": 0, "is_reserved": 0, "fusion_lat": 0.0, "lat": 38.925768833333336, "fusion_lon": 0.0, "rental_uris": {"ios": "https://dc.lft.to/lastmile_qr_scan", "android": "https://dc.lft.to/lastmile_qr_scan"}, "lon": -76.99502133333333, "bike_id": "221744cdf74010d1148a103ad6ba7bee", "type": "electric_scooter", "name": "221744cdf74010d1148a103ad6ba7bee"}, {"is_disabled": 0, "is_reserved": 0, "fusion_lat": 0.0, "lat": 38.9395475, "fusion_lon": 0.0, "rental_uris": {"ios": "https://dc.lft.to/lastmile_qr_scan", "android": "https://dc.lft.to/lastmile_qr_scan"}, "lon": -77.02185133333333, "bike_id": "11cac73a82942633b5af9d893d96dc0c", "type": "electric_scooter", "name": "11cac73a82942633b5af9d893d96dc0c"}, {"is_disabled": 0, "is_reserved": 0, "fusion_lat": 0.0, "lat": 38.919060333333334, "fusion_lon": 0.0, "rental_uris": {"ios": "https://dc.lft.to/lastmile_qr_scan", "android": "https://dc.lft.to/lastmile_qr_scan"}, "lon": -77.00051166666667, "bike_id": "0b87ba02ce8a6c1e06b003ea5c731cd2", "type": "electric_scooter", "name": "0b87ba02ce8a6c1e06b003ea5c731cd2"}, {"is_disabled": 0, "is_reserved": 0, "fusion_lat": 0.0, "lat": 38.9278685, "fusion_lon": 0.0, "rental_uris": {"ios": "https://dc.lft.to/lastmile_qr_scan", "android": "https://dc.lft.to/lastmile_qr_scan"}, "lon": -77.02725283333334, "bike_id": "2419f903fa187fd734508a29c6fae711", "type": "electric_scooter", "name": "2419f903fa187fd734508a29c6fae711"}, {"is_disabled": 0, "is_reserved": 0, "fusion_lat": 0.0, "lat": 39.0007975, "fusion_lon": 0.0, "rental_uris": {"ios": "https://dc.lft.to/lastmile_qr_scan", "android": "https://dc.lft.to/lastmile_qr_scan"}, "lon": -77.00631516666667, "bike_id": "8e222a2477665af6fc463801389e37e2", "type": "electric_bike", "name": "8e222a2477665af6fc463801389e37e2"}, {"is_disabled": 0, "is_reserved": 0, "fusion_lat": 0.0, "lat": 38.91182233333333, "fusion_lon": 0.0, "rental_uris": {"ios": "https://dc.lft.to/lastmile_qr_scan", "android": "https://dc.lft.to/lastmile_qr_scan"}, "lon": -77.0403475, "bike_id": "e23f3ad393fe01d4d49f8ffdb07a703f", "type": "electric_scooter", "name": "e23f3ad393fe01d4d49f8ffdb07a703f"}, {"is_disabled": 0, "is_reserved": 0, "fusion_lat": 0.0, "lat": 38.922427666666664, "fusion_lon": 0.0, "rental_uris": {"ios": "https://dc.lft.to/lastmile_qr_scan", "android": "https://dc.lft.to/lastmile_qr_scan"}, "lon": -77.03524133333333, "bike_id": "893b43fd789138f81d86e1f127d9febc", "type": "electric_scooter", "name": "893b43fd789138f81d86e1f127d9febc"}, {"is_disabled": 0, "is_reserved": 0, "fusion_lat": 0.0, "lat": 38.904888, "fusion_lon": 0.0, "rental_uris": {"ios": "https://dc.lft.to/lastmile_qr_scan", "android": "https://dc.lft.to/lastmile_qr_scan"}, "lon": -77.00895116666666, "bike_id": "6eb7268d55957dc41015a2125c718260", "type": "electric_scooter", "name": "6eb7268d55957dc41015a2125c718260"}, {"is_disabled": 0, "is_reserved": 0, "fusion_lat": 0.0, "lat": 38.909586833333336, "fusion_lon": 0.0, "rental_uris": {"ios": "https://dc.lft.to/lastmile_qr_scan", "android": "https://dc.lft.to/lastmile_qr_scan"}, "lon": -77.02281616666667, "bike_id": "8ad5f683e333fc14eb2a4dc45c1bf076", "type": "electric_bike", "name": "8ad5f683e333fc14eb2a4dc45c1bf076"}, {"is_disabled": 0, "is_reserved": 0, "fusion_lat": 0.0, "lat": 38.904334166666665, "fusion_lon": 0.0, "rental_uris": {"ios": "https://dc.lft.to/lastmile_qr_scan", "android": "https://dc.lft.to/lastmile_qr_scan"}, "lon": -77.0611805, "bike_id": "e49eb4883c1d0503ebc8f3dc75a10598", "type": "electric_scooter", "name": "e49eb4883c1d0503ebc8f3dc75a10598"}, {"is_disabled": 0, "is_reserved": 0, "fusion_lat": 0.0, "lat": 38.904173166666666, "fusion_lon": 0.0, "rental_uris": {"ios": "https://dc.lft.to/lastmile_qr_scan", "android": "https://dc.lft.to/lastmile_qr_scan"}, "lon": -77.0295565, "bike_id": "21009c1e14b1ad090e8c3b93fb7433d5", "type": "electric_scooter", "name": "21009c1e14b1ad090e8c3b93fb7433d5"}, {"is_disabled": 0, "is_reserved": 0, "fusion_lat": 0.0, "lat": 38.918275333333334, "fusion_lon": 0.0, "rental_uris": {"ios": "https://dc.lft.to/lastmile_qr_scan", "android": "https://dc.lft.to/lastmile_qr_scan"}, "lon": -77.024209, "bike_id": "42aae6a5806ad93d8fc25f6dfe9f19b1", "type": "electric_scooter", "name": "42aae6a5806ad93d8fc25f6dfe9f19b1"}, {"is_disabled": 0, "is_reserved": 0, "fusion_lat": 0.0, "lat": 38.9195305, "fusion_lon": 0.0, "rental_uris": {"ios": "https://dc.lft.to/lastmile_qr_scan", "android": "https://dc.lft.to/lastmile_qr_scan"}, "lon": -77.02305, "bike_id": "1a293a8e40a3808f6cb489fe58f2c2c0", "type": "electric_scooter", "name": "1a293a8e40a3808f6cb489fe58f2c2c0"}, {"is_disabled": 0, "is_reserved": 0, "fusion_lat": 0.0, "lat": 38.94451883333333, "fusion_lon": 0.0, "rental_uris": {"ios": "https://dc.lft.to/lastmile_qr_scan", "android": "https://dc.lft.to/lastmile_qr_scan"}, "lon": -77.03285, "bike_id": "409c5a6775e4cce5fcd92acb42c71b4d", "type": "electric_scooter", "name": "409c5a6775e4cce5fcd92acb42c71b4d"}, {"is_disabled": 0, "is_reserved": 0, "fusion_lat": 0.0, "lat": 38.90654333333333, "fusion_lon": 0.0, "rental_uris": {"ios": "https://dc.lft.to/lastmile_qr_scan", "android": "https://dc.lft.to/lastmile_qr_scan"}, "lon": -76.97941866666666, "bike_id": "a256708e703c31f6a9a937f13f301b13", "type": "electric_scooter", "name": "a256708e703c31f6a9a937f13f301b13"}, {"is_disabled": 0, "is_reserved": 0, "fusion_lat": 0.0, "lat": 38.897283, "fusion_lon": 0.0, "rental_uris": {"ios": "https://dc.lft.to/lastmile_qr_scan", "android": "https://dc.lft.to/lastmile_qr_scan"}, "lon": -77.02406333333333, "bike_id": "3b05a5ec1959bfb2954696bae9718b96", "type": "electric_scooter", "name": "3b05a5ec1959bfb2954696bae9718b96"}, {"is_disabled": 0, "is_reserved": 0, "fusion_lat": 0.0, "lat": 38.904005833333336, "fusion_lon": 0.0, "rental_uris": {"ios": "https://dc.lft.to/lastmile_qr_scan", "android": "https://dc.lft.to/lastmile_qr_scan"}, "lon": -77.062969, "bike_id": "cfa3d8be25efa0df7ddb9638355d3e4f", "type": "electric_scooter", "name": "cfa3d8be25efa0df7ddb9638355d3e4f"}, {"is_disabled": 0, "is_reserved": 0, "fusion_lat": 0.0, "lat": 38.92875083333333, "fusion_lon": 0.0, "rental_uris": {"ios": "https://dc.lft.to/lastmile_qr_scan", "android": "https://dc.lft.to/lastmile_qr_scan"}, "lon": -77.03997116666666, "bike_id": "173a2a88a5934e53d05ac50d68376a41", "type": "electric_scooter", "name": "173a2a88a5934e53d05ac50d68376a41"}, {"is_disabled": 0, "is_reserved": 0, "fusion_lat": 0.0, "lat": 38.906513333333336, "fusion_lon": 0.0, "rental_uris": {"ios": "https://dc.lft.to/lastmile_qr_scan", "android": "https://dc.lft.to/lastmile_qr_scan"}, "lon": -76.9794265, "bike_id": "cce8238c76d9816bad5c2c38ae06fe0e", "type": "electric_scooter", "name": "cce8238c76d9816bad5c2c38ae06fe0e"}, {"is_disabled": 0, "is_reserved": 0, "fusion_lat": 0.0, "lat": 38.91658833333334, "fusion_lon": 0.0, "rental_uris": {"ios": "https://dc.lft.to/lastmile_qr_scan", "android": "https://dc.lft.to/lastmile_qr_scan"}, "lon": -77.02392466666667, "bike_id": "4eba7fe1182777e03c5157adca5148e2", "type": "electric_scooter", "name": "4eba7fe1182777e03c5157adca5148e2"}, {"is_disabled": 0, "is_reserved": 0, "fusion_lat": 0.0, "lat": 38.900266333333335, "fusion_lon": 0.0, "rental_uris": {"ios": "https://dc.lft.to/lastmile_qr_scan", "android": "https://dc.lft.to/lastmile_qr_scan"}, "lon": -77.01208233333334, "bike_id": "b1c9f672fb0338dc03780954e19ea954", "type": "electric_scooter", "name": "b1c9f672fb0338dc03780954e19ea954"}, {"is_disabled": 0, "is_reserved": 0, "fusion_lat": 0.0, "lat": 38.91416566666667, "fusion_lon": 0.0, "rental_uris": {"ios": "https://dc.lft.to/lastmile_qr_scan", "android": "https://dc.lft.to/lastmile_qr_scan"}, "lon": -77.02116033333333, "bike_id": "ed390b86efa94a51bd07a95992abef1c", "type": "electric_scooter", "name": "ed390b86efa94a51bd07a95992abef1c"}, {"is_disabled": 0, "is_reserved": 0, "fusion_lat": 0.0, "lat": 38.912294333333335, "fusion_lon": 0.0, "rental_uris": {"ios": "https://dc.lft.to/lastmile_qr_scan", "android": "https://dc.lft.to/lastmile_qr_scan"}, "lon": -77.06410766666667, "bike_id": "238509fe97c12de6865dd7c7d4837ba9", "type": "electric_scooter", "name": "238509fe97c12de6865dd7c7d4837ba9"}, {"is_disabled": 0, "is_reserved": 0, "fusion_lat": 0.0, "lat": 38.9088685, "fusion_lon": 0.0, "rental_uris": {"ios": "https://dc.lft.to/lastmile_qr_scan", "android": "https://dc.lft.to/lastmile_qr_scan"}, "lon": -77.07431266666667, "bike_id": "9d3fab9caeb187fb29a8cee8039a5f05", "type": "electric_scooter", "name": "9d3fab9caeb187fb29a8cee8039a5f05"}, {"is_disabled": 0, "is_reserved": 0, "fusion_lat": 0.0, "lat": 38.94176266666667, "fusion_lon": 0.0, "rental_uris": {"ios": "https://dc.lft.to/lastmile_qr_scan", "android": "https://dc.lft.to/lastmile_qr_scan"}, "lon": -77.02536666666667, "bike_id": "1f4bc69d5a871b40bf1ceaee3e860972", "type": "electric_scooter", "name": "1f4bc69d5a871b40bf1ceaee3e860972"}, {"is_disabled": 0, "is_reserved": 0, "fusion_lat": 0.0, "lat": 38.92167333333333, "fusion_lon": 0.0, "rental_uris": {"ios": "https://dc.lft.to/lastmile_qr_scan", "android": "https://dc.lft.to/lastmile_qr_scan"}, "lon": -77.0366515, "bike_id": "0469b4ffd6a5e2abd65776a69e756328", "type": "electric_scooter", "name": "0469b4ffd6a5e2abd65776a69e756328"}, {"is_disabled": 0, "is_reserved": 0, "fusion_lat": 0.0, "lat": 38.8962185, "fusion_lon": 0.0, "rental_uris": {"ios": "https://dc.lft.to/lastmile_qr_scan", "android": "https://dc.lft.to/lastmile_qr_scan"}, "lon": -77.02144483333333, "bike_id": "5f114bca0ceeaab409d3f5bfab4e54a4", "type": "electric_scooter", "name": "5f114bca0ceeaab409d3f5bfab4e54a4"}, {"is_disabled": 0, "is_reserved": 0, "fusion_lat": 0.0, "lat": 38.91786333333334, "fusion_lon": 0.0, "rental_uris": {"ios": "https://dc.lft.to/lastmile_qr_scan", "android": "https://dc.lft.to/lastmile_qr_scan"}, "lon": -77.023055, "bike_id": "dbbc96ad4ec6d2f401c339d23f84859d", "type": "electric_scooter", "name": "dbbc96ad4ec6d2f401c339d23f84859d"}, {"is_disabled": 0, "is_reserved": 0, "fusion_lat": 0.0, "lat": 38.9054905, "fusion_lon": 0.0, "rental_uris": {"ios": "https://dc.lft.to/lastmile_qr_scan", "android": "https://dc.lft.to/lastmile_qr_scan"}, "lon": -77.02190133333333, "bike_id": "1431317a86cb083bab97449fb428ff93", "type": "electric_scooter", "name": "1431317a86cb083bab97449fb428ff93"}, {"is_disabled": 0, "is_reserved": 0, "fusion_lat": 0.0, "lat": 38.90245683333333, "fusion_lon": 0.0, "rental_uris": {"ios": "https://dc.lft.to/lastmile_qr_scan", "android": "https://dc.lft.to/lastmile_qr_scan"}, "lon": -77.01831566666667, "bike_id": "c3eed2fbcc94745ed67d608f624f4484", "type": "electric_scooter", "name": "c3eed2fbcc94745ed67d608f624f4484"}, {"is_disabled": 0, "is_reserved": 0, "fusion_lat": 0.0, "lat": 38.9167065, "fusion_lon": 0.0, "rental_uris": {"ios": "https://dc.lft.to/lastmile_qr_scan", "android": "https://dc.lft.to/lastmile_qr_scan"}, "lon": -77.031944, "bike_id": "4c48bf23c41a02e263f5b7d64859d5dc", "type": "electric_scooter", "name": "4c48bf23c41a02e263f5b7d64859d5dc"}, {"is_disabled": 0, "is_reserved": 0, "fusion_lat": 0.0, "lat": 38.915563666666664, "fusion_lon": 0.0, "rental_uris": {"ios": "https://dc.lft.to/lastmile_qr_scan", "android": "https://dc.lft.to/lastmile_qr_scan"}, "lon": -77.05407916666667, "bike_id": "161adfd4dd83cf4e1f1eae2a78b72df0", "type": "electric_scooter", "name": "161adfd4dd83cf4e1f1eae2a78b72df0"}, {"is_disabled": 0, "is_reserved": 0, "fusion_lat": 0.0, "lat": 38.8924095, "fusion_lon": 0.0, "rental_uris": {"ios": "https://dc.lft.to/lastmile_qr_scan", "android": "https://dc.lft.to/lastmile_qr_scan"}, "lon": -77.0335095, "bike_id": "29d18c0ab96b21fbea2c2210d166246b", "type": "electric_scooter", "name": "29d18c0ab96b21fbea2c2210d166246b"}, {"is_disabled": 0, "is_reserved": 0, "fusion_lat": 0.0, "lat": 38.8908285, "fusion_lon": 0.0, "rental_uris": {"ios": "https://dc.lft.to/lastmile_qr_scan", "android": "https://dc.lft.to/lastmile_qr_scan"}, "lon": -77.04044766666667, "bike_id": "481449752e2d546c1c9a62e373f5860f", "type": "electric_scooter", "name": "481449752e2d546c1c9a62e373f5860f"}, {"is_disabled": 0, "is_reserved": 0, "fusion_lat": 0.0, "lat": 38.91208133333333, "fusion_lon": 0.0, "rental_uris": {"ios": "https://dc.lft.to/lastmile_qr_scan", "android": "https://dc.lft.to/lastmile_qr_scan"}, "lon": -77.02107066666666, "bike_id": "99617b06308ae05c7910fa0a792fcff0", "type": "electric_scooter", "name": "99617b06308ae05c7910fa0a792fcff0"}, {"is_disabled": 0, "is_reserved": 0, "fusion_lat": 0.0, "lat": 38.918182, "fusion_lon": 0.0, "rental_uris": {"ios": "https://dc.lft.to/lastmile_qr_scan", "android": "https://dc.lft.to/lastmile_qr_scan"}, "lon": -77.025245, "bike_id": "a63d3fe6f26730d3281b5f164b8e9549", "type": "electric_scooter", "name": "a63d3fe6f26730d3281b5f164b8e9549"}, {"is_disabled": 0, "is_reserved": 0, "fusion_lat": 0.0, "lat": 38.909812, "fusion_lon": 0.0, "rental_uris": {"ios": "https://dc.lft.to/lastmile_qr_scan", "android": "https://dc.lft.to/lastmile_qr_scan"}, "lon": -77.031891, "bike_id": "f896fe1f767c3098177ee914851c184e", "type": "electric_scooter", "name": "f896fe1f767c3098177ee914851c184e"}, {"is_disabled": 0, "is_reserved": 0, "fusion_lat": 0.0, "lat": 38.930865833333336, "fusion_lon": 0.0, "rental_uris": {"ios": "https://dc.lft.to/lastmile_qr_scan", "android": "https://dc.lft.to/lastmile_qr_scan"}, "lon": -77.03199766666667, "bike_id": "e2a8f98c5c325e55947c92cfe198edbf", "type": "electric_scooter", "name": "e2a8f98c5c325e55947c92cfe198edbf"}, {"is_disabled": 0, "is_reserved": 0, "fusion_lat": 0.0, "lat": 38.927951166666666, "fusion_lon": 0.0, "rental_uris": {"ios": "https://dc.lft.to/lastmile_qr_scan", "android": "https://dc.lft.to/lastmile_qr_scan"}, "lon": -77.02134033333333, "bike_id": "ae007f98db911f087e7501ca4a9007d3", "type": "electric_scooter", "name": "ae007f98db911f087e7501ca4a9007d3"}, {"is_disabled": 0, "is_reserved": 0, "fusion_lat": 0.0, "lat": 38.92136166666667, "fusion_lon": 0.0, "rental_uris": {"ios": "https://dc.lft.to/lastmile_qr_scan", "android": "https://dc.lft.to/lastmile_qr_scan"}, "lon": -77.00401816666667, "bike_id": "5212e26f1c0bb626c03c1d3faedcff13", "type": "electric_scooter", "name": "5212e26f1c0bb626c03c1d3faedcff13"}, {"is_disabled": 0, "is_reserved": 0, "fusion_lat": 0.0, "lat": 38.91430616666667, "fusion_lon": 0.0, "rental_uris": {"ios": "https://dc.lft.to/lastmile_qr_scan", "android": "https://dc.lft.to/lastmile_qr_scan"}, "lon": -77.03190516666666, "bike_id": "856afe062728c4c324be36d42e7bb244", "type": "electric_scooter", "name": "856afe062728c4c324be36d42e7bb244"}, {"is_disabled": 0, "is_reserved": 0, "fusion_lat": 0.0, "lat": 38.928202, "fusion_lon": 0.0, "rental_uris": {"ios": "https://dc.lft.to/lastmile_qr_scan", "android": "https://dc.lft.to/lastmile_qr_scan"}, "lon": -77.043378, "bike_id": "b6a983df8be15cd6d37ab887c739d223", "type": "electric_scooter", "name": "b6a983df8be15cd6d37ab887c739d223"}, {"is_disabled": 0, "is_reserved": 0, "fusion_lat": 0.0, "lat": 38.92509716666667, "fusion_lon": 0.0, "rental_uris": {"ios": "https://dc.lft.to/lastmile_qr_scan", "android": "https://dc.lft.to/lastmile_qr_scan"}, "lon": -77.02442166666667, "bike_id": "4f1e46d4a6d26f18c4c7b18c1a5a8d02", "type": "electric_scooter", "name": "4f1e46d4a6d26f18c4c7b18c1a5a8d02"}, {"is_disabled": 0, "is_reserved": 0, "fusion_lat": 0.0, "lat": 38.900686666666665, "fusion_lon": 0.0, "rental_uris": {"ios": "https://dc.lft.to/lastmile_qr_scan", "android": "https://dc.lft.to/lastmile_qr_scan"}, "lon": -76.94978316666666, "bike_id": "6b5b00b59550bdf4250fd938f7273d3b", "type": "electric_scooter", "name": "6b5b00b59550bdf4250fd938f7273d3b"}, {"is_disabled": 0, "is_reserved": 0, "fusion_lat": 0.0, "lat": 38.92133583333333, "fusion_lon": 0.0, "rental_uris": {"ios": "https://dc.lft.to/lastmile_qr_scan", "android": "https://dc.lft.to/lastmile_qr_scan"}, "lon": -76.99387316666666, "bike_id": "6ec6828ac39336f0bf825011364dd8e0", "type": "electric_scooter", "name": "6ec6828ac39336f0bf825011364dd8e0"}, {"is_disabled": 0, "is_reserved": 0, "fusion_lat": 0.0, "lat": 38.899311166666664, "fusion_lon": 0.0, "rental_uris": {"ios": "https://dc.lft.to/lastmile_qr_scan", "android": "https://dc.lft.to/lastmile_qr_scan"}, "lon": -77.03217966666666, "bike_id": "944f5ff78987d891384135128a48e273", "type": "electric_scooter", "name": "944f5ff78987d891384135128a48e273"}, {"is_disabled": 0, "is_reserved": 0, "fusion_lat": 0.0, "lat": 38.915701, "fusion_lon": 0.0, "rental_uris": {"ios": "https://dc.lft.to/lastmile_qr_scan", "android": "https://dc.lft.to/lastmile_qr_scan"}, "lon": -77.03185066666667, "bike_id": "01adbdc0ab40d4f44af081f4b2908c85", "type": "electric_scooter", "name": "01adbdc0ab40d4f44af081f4b2908c85"}, {"is_disabled": 0, "is_reserved": 0, "fusion_lat": 0.0, "lat": 38.95240783333333, "fusion_lon": 0.0, "rental_uris": {"ios": "https://dc.lft.to/lastmile_qr_scan", "android": "https://dc.lft.to/lastmile_qr_scan"}, "lon": -76.98246216666666, "bike_id": "df48b70e14066985e3837a8afa35a689", "type": "electric_bike", "name": "df48b70e14066985e3837a8afa35a689"}, {"is_disabled": 0, "is_reserved": 0, "fusion_lat": 0.0, "lat": 38.900022, "fusion_lon": 0.0, "rental_uris": {"ios": "https://dc.lft.to/lastmile_qr_scan", "android": "https://dc.lft.to/lastmile_qr_scan"}, "lon": -77.02180883333334, "bike_id": "0f931793e3df7281344a2b781dcbf7b5", "type": "electric_scooter", "name": "0f931793e3df7281344a2b781dcbf7b5"}, {"is_disabled": 0, "is_reserved": 0, "fusion_lat": 0.0, "lat": 38.917859666666665, "fusion_lon": 0.0, "rental_uris": {"ios": "https://dc.lft.to/lastmile_qr_scan", "android": "https://dc.lft.to/lastmile_qr_scan"}, "lon": -77.02355916666667, "bike_id": "54cb6f7072d771dee379b5f3fff824ef", "type": "electric_scooter", "name": "54cb6f7072d771dee379b5f3fff824ef"}, {"is_disabled": 0, "is_reserved": 0, "fusion_lat": 0.0, "lat": 38.89818016666667, "fusion_lon": 0.0, "rental_uris": {"ios": "https://dc.lft.to/lastmile_qr_scan", "android": "https://dc.lft.to/lastmile_qr_scan"}, "lon": -77.00211283333333, "bike_id": "ef173f62618f3949b3b1021f95e5c559", "type": "electric_scooter", "name": "ef173f62618f3949b3b1021f95e5c559"}, {"is_disabled": 0, "is_reserved": 0, "fusion_lat": 0.0, "lat": 38.89252783333333, "fusion_lon": 0.0, "rental_uris": {"ios": "https://dc.lft.to/lastmile_qr_scan", "android": "https://dc.lft.to/lastmile_qr_scan"}, "lon": -77.039565, "bike_id": "c53c272c5facbe31cdc74ace20702499", "type": "electric_scooter", "name": "c53c272c5facbe31cdc74ace20702499"}, {"is_disabled": 0, "is_reserved": 0, "fusion_lat": 0.0, "lat": 38.92440933333334, "fusion_lon": 0.0, "rental_uris": {"ios": "https://dc.lft.to/lastmile_qr_scan", "android": "https://dc.lft.to/lastmile_qr_scan"}, "lon": -77.0340965, "bike_id": "b623d6e27164ce595a31bd945c6d6e51", "type": "electric_scooter", "name": "b623d6e27164ce595a31bd945c6d6e51"}, {"is_disabled": 0, "is_reserved": 0, "fusion_lat": 0.0, "lat": 38.92069083333333, "fusion_lon": 0.0, "rental_uris": {"ios": "https://dc.lft.to/lastmile_qr_scan", "android": "https://dc.lft.to/lastmile_qr_scan"}, "lon": -77.02561616666667, "bike_id": "43860e2071d3121ab27982249b700a10", "type": "electric_scooter", "name": "43860e2071d3121ab27982249b700a10"}, {"is_disabled": 0, "is_reserved": 0, "fusion_lat": 0.0, "lat": 38.94202516666667, "fusion_lon": 0.0, "rental_uris": {"ios": "https://dc.lft.to/lastmile_qr_scan", "android": "https://dc.lft.to/lastmile_qr_scan"}, "lon": -77.02565633333333, "bike_id": "9aec94a2ccccd5764e71dd7cca793acf", "type": "electric_scooter", "name": "9aec94a2ccccd5764e71dd7cca793acf"}, {"is_disabled": 0, "is_reserved": 0, "fusion_lat": 0.0, "lat": 38.89235866666667, "fusion_lon": 0.0, "rental_uris": {"ios": "https://dc.lft.to/lastmile_qr_scan", "android": "https://dc.lft.to/lastmile_qr_scan"}, "lon": -77.0220615, "bike_id": "62baa5d6912fbd75c4ac05dd884deb38", "type": "electric_scooter", "name": "62baa5d6912fbd75c4ac05dd884deb38"}, {"is_disabled": 0, "is_reserved": 0, "fusion_lat": 0.0, "lat": 38.89847816666666, "fusion_lon": 0.0, "rental_uris": {"ios": "https://dc.lft.to/lastmile_qr_scan", "android": "https://dc.lft.to/lastmile_qr_scan"}, "lon": -77.0020725, "bike_id": "b2cfa635cfa0e9d378bd6f8a4834366c", "type": "electric_scooter", "name": "b2cfa635cfa0e9d378bd6f8a4834366c"}, {"is_disabled": 0, "is_reserved": 0, "fusion_lat": 0.0, "lat": 38.97441033333333, "fusion_lon": 0.0, "rental_uris": {"ios": "https://dc.lft.to/lastmile_qr_scan", "android": "https://dc.lft.to/lastmile_qr_scan"}, "lon": -77.096185, "bike_id": "9e46b3dfee84d43520fdfaadad1a2fcb", "type": "electric_bike", "name": "9e46b3dfee84d43520fdfaadad1a2fcb"}, {"is_disabled": 0, "is_reserved": 0, "fusion_lat": 0.0, "lat": 38.91820233333333, "fusion_lon": 0.0, "rental_uris": {"ios": "https://dc.lft.to/lastmile_qr_scan", "android": "https://dc.lft.to/lastmile_qr_scan"}, "lon": -77.02710983333333, "bike_id": "619e7aede708f556bb9c2cea3d1e591a", "type": "electric_scooter", "name": "619e7aede708f556bb9c2cea3d1e591a"}, {"is_disabled": 0, "is_reserved": 0, "fusion_lat": 0.0, "lat": 38.876605833333336, "fusion_lon": 0.0, "rental_uris": {"ios": "https://dc.lft.to/lastmile_qr_scan", "android": "https://dc.lft.to/lastmile_qr_scan"}, "lon": -77.00884133333334, "bike_id": "24dc97925776f3de313385e77483a885", "type": "electric_scooter", "name": "24dc97925776f3de313385e77483a885"}, {"is_disabled": 0, "is_reserved": 0, "fusion_lat": 0.0, "lat": 38.912271833333335, "fusion_lon": 0.0, "rental_uris": {"ios": "https://dc.lft.to/lastmile_qr_scan", "android": "https://dc.lft.to/lastmile_qr_scan"}, "lon": -76.94020383333333, "bike_id": "22524c7eda17f63fbacd9053a8fd43b3", "type": "electric_bike", "name": "22524c7eda17f63fbacd9053a8fd43b3"}, {"is_disabled": 0, "is_reserved": 0, "fusion_lat": 0.0, "lat": 38.92313583333333, "fusion_lon": 0.0, "rental_uris": {"ios": "https://dc.lft.to/lastmile_qr_scan", "android": "https://dc.lft.to/lastmile_qr_scan"}, "lon": -77.034094, "bike_id": "e13a86bdbfed5bd0346c7c56f0d3c304", "type": "electric_scooter", "name": "e13a86bdbfed5bd0346c7c56f0d3c304"}, {"is_disabled": 0, "is_reserved": 0, "fusion_lat": 0.0, "lat": 38.922748, "fusion_lon": 0.0, "rental_uris": {"ios": "https://dc.lft.to/lastmile_qr_scan", "android": "https://dc.lft.to/lastmile_qr_scan"}, "lon": -77.02978166666666, "bike_id": "9d94eb46786764bad21c57405dc58211", "type": "electric_scooter", "name": "9d94eb46786764bad21c57405dc58211"}, {"is_disabled": 0, "is_reserved": 0, "fusion_lat": 0.0, "lat": 38.926824833333335, "fusion_lon": 0.0, "rental_uris": {"ios": "https://dc.lft.to/lastmile_qr_scan", "android": "https://dc.lft.to/lastmile_qr_scan"}, "lon": -77.014648, "bike_id": "56f1db5df548c01739b3849a722f7a57", "type": "electric_scooter", "name": "56f1db5df548c01739b3849a722f7a57"}, {"is_disabled": 0, "is_reserved": 0, "fusion_lat": 0.0, "lat": 38.963835333333336, "fusion_lon": 0.0, "rental_uris": {"ios": "https://dc.lft.to/lastmile_qr_scan", "android": "https://dc.lft.to/lastmile_qr_scan"}, "lon": -77.01980983333333, "bike_id": "93adc2a53234cb067c08b46155b10190", "type": "electric_bike", "name": "93adc2a53234cb067c08b46155b10190"}, {"is_disabled": 0, "is_reserved": 0, "fusion_lat": 0.0, "lat": 38.87931833333333, "fusion_lon": 0.0, "rental_uris": {"ios": "https://dc.lft.to/lastmile_qr_scan", "android": "https://dc.lft.to/lastmile_qr_scan"}, "lon": -77.00409783333333, "bike_id": "27adf4da0aee313b0c5bebdb870f9363", "type": "electric_scooter", "name": "27adf4da0aee313b0c5bebdb870f9363"}, {"is_disabled": 0, "is_reserved": 0, "fusion_lat": 0.0, "lat": 38.95100866666667, "fusion_lon": 0.0, "rental_uris": {"ios": "https://dc.lft.to/lastmile_qr_scan", "android": "https://dc.lft.to/lastmile_qr_scan"}, "lon": -77.021963, "bike_id": "189607dac9e933daa29cc728ed2cf6be", "type": "electric_scooter", "name": "189607dac9e933daa29cc728ed2cf6be"}, {"is_disabled": 0, "is_reserved": 0, "fusion_lat": 0.0, "lat": 38.88482283333333, "fusion_lon": 0.0, "rental_uris": {"ios": "https://dc.lft.to/lastmile_qr_scan", "android": "https://dc.lft.to/lastmile_qr_scan"}, "lon": -77.03184733333333, "bike_id": "2ec47738ee0b6f44030f06a23b44bfd4", "type": "electric_bike", "name": "2ec47738ee0b6f44030f06a23b44bfd4"}, {"is_disabled": 0, "is_reserved": 0, "fusion_lat": 0.0, "lat": 38.93059366666667, "fusion_lon": 0.0, "rental_uris": {"ios": "https://dc.lft.to/lastmile_qr_scan", "android": "https://dc.lft.to/lastmile_qr_scan"}, "lon": -77.0336305, "bike_id": "4b6f53636f9d0b3d9b9245d2f263ba7d", "type": "electric_scooter", "name": "4b6f53636f9d0b3d9b9245d2f263ba7d"}, {"is_disabled": 0, "is_reserved": 0, "fusion_lat": 0.0, "lat": 38.947914, "fusion_lon": 0.0, "rental_uris": {"ios": "https://dc.lft.to/lastmile_qr_scan", "android": "https://dc.lft.to/lastmile_qr_scan"}, "lon": -77.07897133333333, "bike_id": "aa49144b061c960dcfa237ce77f58e1e", "type": "electric_scooter", "name": "aa49144b061c960dcfa237ce77f58e1e"}, {"is_disabled": 0, "is_reserved": 0, "fusion_lat": 0.0, "lat": 38.917902, "fusion_lon": 0.0, "rental_uris": {"ios": "https://dc.lft.to/lastmile_qr_scan", "android": "https://dc.lft.to/lastmile_qr_scan"}, "lon": -77.03217533333333, "bike_id": "96b41214bde81ce1bf500acd156ab5e7", "type": "electric_scooter", "name": "96b41214bde81ce1bf500acd156ab5e7"}, {"is_disabled": 0, "is_reserved": 0, "fusion_lat": 0.0, "lat": 38.93448816666667, "fusion_lon": 0.0, "rental_uris": {"ios": "https://dc.lft.to/lastmile_qr_scan", "android": "https://dc.lft.to/lastmile_qr_scan"}, "lon": -77.02402216666667, "bike_id": "d9ef993ca8a1dcb45a8835f4e226394c", "type": "electric_scooter", "name": "d9ef993ca8a1dcb45a8835f4e226394c"}, {"is_disabled": 0, "is_reserved": 0, "fusion_lat": 0.0, "lat": 38.920575166666666, "fusion_lon": 0.0, "rental_uris": {"ios": "https://dc.lft.to/lastmile_qr_scan", "android": "https://dc.lft.to/lastmile_qr_scan"}, "lon": -76.9987825, "bike_id": "e9c6cfc99167cce6a24d05a0df6d7996", "type": "electric_scooter", "name": "e9c6cfc99167cce6a24d05a0df6d7996"}, {"is_disabled": 0, "is_reserved": 0, "fusion_lat": 0.0, "lat": 38.93247933333333, "fusion_lon": 0.0, "rental_uris": {"ios": "https://dc.lft.to/lastmile_qr_scan", "android": "https://dc.lft.to/lastmile_qr_scan"}, "lon": -77.0293415, "bike_id": "1605a5e494971e8f7403e1c91cff6139", "type": "electric_scooter", "name": "1605a5e494971e8f7403e1c91cff6139"}, {"is_disabled": 0, "is_reserved": 0, "fusion_lat": 0.0, "lat": 38.925563333333336, "fusion_lon": 0.0, "rental_uris": {"ios": "https://dc.lft.to/lastmile_qr_scan", "android": "https://dc.lft.to/lastmile_qr_scan"}, "lon": -77.037758, "bike_id": "b7b77b4317d999d7a617277a6dbbef9f", "type": "electric_scooter", "name": "b7b77b4317d999d7a617277a6dbbef9f"}, {"is_disabled": 0, "is_reserved": 0, "fusion_lat": 0.0, "lat": 38.90836433333333, "fusion_lon": 0.0, "rental_uris": {"ios": "https://dc.lft.to/lastmile_qr_scan", "android": "https://dc.lft.to/lastmile_qr_scan"}, "lon": -77.0007025, "bike_id": "5a89489c399d2cd79aed45419a75479c", "type": "electric_scooter", "name": "5a89489c399d2cd79aed45419a75479c"}, {"is_disabled": 0, "is_reserved": 0, "fusion_lat": 0.0, "lat": 38.9176865, "fusion_lon": 0.0, "rental_uris": {"ios": "https://dc.lft.to/lastmile_qr_scan", "android": "https://dc.lft.to/lastmile_qr_scan"}, "lon": -77.0234075, "bike_id": "e536a1245f9955398524ac8705a149a4", "type": "electric_scooter", "name": "e536a1245f9955398524ac8705a149a4"}, {"is_disabled": 0, "is_reserved": 0, "fusion_lat": 0.0, "lat": 38.84811416666667, "fusion_lon": 0.0, "rental_uris": {"ios": "https://dc.lft.to/lastmile_qr_scan", "android": "https://dc.lft.to/lastmile_qr_scan"}, "lon": -77.08414133333333, "bike_id": "fee41060289f5deebbf78b3526f85cbd", "type": "electric_bike", "name": "fee41060289f5deebbf78b3526f85cbd"}, {"is_disabled": 0, "is_reserved": 0, "fusion_lat": 0.0, "lat": 38.89507716666667, "fusion_lon": 0.0, "rental_uris": {"ios": "https://dc.lft.to/lastmile_qr_scan", "android": "https://dc.lft.to/lastmile_qr_scan"}, "lon": -77.0229845, "bike_id": "c3aa621cb38beb20b1448624c9701793", "type": "electric_scooter", "name": "c3aa621cb38beb20b1448624c9701793"}, {"is_disabled": 0, "is_reserved": 0, "fusion_lat": 0.0, "lat": 38.91548983333333, "fusion_lon": 0.0, "rental_uris": {"ios": "https://dc.lft.to/lastmile_qr_scan", "android": "https://dc.lft.to/lastmile_qr_scan"}, "lon": -77.0385625, "bike_id": "d1514e1b638b333f6bf24303942086f5", "type": "electric_scooter", "name": "d1514e1b638b333f6bf24303942086f5"}, {"is_disabled": 0, "is_reserved": 0, "fusion_lat": 0.0, "lat": 38.91048416666667, "fusion_lon": 0.0, "rental_uris": {"ios": "https://dc.lft.to/lastmile_qr_scan", "android": "https://dc.lft.to/lastmile_qr_scan"}, "lon": -76.99806533333333, "bike_id": "ffce89c1d70955d6d83945a8129dab75", "type": "electric_scooter", "name": "ffce89c1d70955d6d83945a8129dab75"}, {"is_disabled": 0, "is_reserved": 0, "fusion_lat": 0.0, "lat": 38.952238333333334, "fusion_lon": 0.0, "rental_uris": {"ios": "https://dc.lft.to/lastmile_qr_scan", "android": "https://dc.lft.to/lastmile_qr_scan"}, "lon": -77.08868766666667, "bike_id": "d3351ab7707ad9337651bbb876ae9d97", "type": "electric_scooter", "name": "d3351ab7707ad9337651bbb876ae9d97"}, {"is_disabled": 0, "is_reserved": 0, "fusion_lat": 0.0, "lat": 39.00646583333333, "fusion_lon": 0.0, "rental_uris": {"ios": "https://dc.lft.to/lastmile_qr_scan", "android": "https://dc.lft.to/lastmile_qr_scan"}, "lon": -76.90024266666667, "bike_id": "83a9cd91d3ac474ef28d0eca89319eec", "type": "electric_bike", "name": "83a9cd91d3ac474ef28d0eca89319eec"}, {"is_disabled": 0, "is_reserved": 0, "fusion_lat": 0.0, "lat": 38.923185, "fusion_lon": 0.0, "rental_uris": {"ios": "https://dc.lft.to/lastmile_qr_scan", "android": "https://dc.lft.to/lastmile_qr_scan"}, "lon": -77.02901316666667, "bike_id": "04369cd205cc5751245a9df79c1bb4ab", "type": "electric_scooter", "name": "04369cd205cc5751245a9df79c1bb4ab"}, {"is_disabled": 0, "is_reserved": 0, "fusion_lat": 0.0, "lat": 38.91414533333333, "fusion_lon": 0.0, "rental_uris": {"ios": "https://dc.lft.to/lastmile_qr_scan", "android": "https://dc.lft.to/lastmile_qr_scan"}, "lon": -77.02424866666667, "bike_id": "0afcf5c902c75319284995a58e765ea1", "type": "electric_scooter", "name": "0afcf5c902c75319284995a58e765ea1"}, {"is_disabled": 0, "is_reserved": 0, "fusion_lat": 0.0, "lat": 38.925741333333335, "fusion_lon": 0.0, "rental_uris": {"ios": "https://dc.lft.to/lastmile_qr_scan", "android": "https://dc.lft.to/lastmile_qr_scan"}, "lon": -77.0313765, "bike_id": "5cd5da9c22acc0b9249ecbc7c497f28f", "type": "electric_scooter", "name": "5cd5da9c22acc0b9249ecbc7c497f28f"}, {"is_disabled": 0, "is_reserved": 0, "fusion_lat": 0.0, "lat": 38.907223, "fusion_lon": 0.0, "rental_uris": {"ios": "https://dc.lft.to/lastmile_qr_scan", "android": "https://dc.lft.to/lastmile_qr_scan"}, "lon": -76.98897233333334, "bike_id": "e17720947ad3abda62b0bad21b13e8a5", "type": "electric_bike", "name": "e17720947ad3abda62b0bad21b13e8a5"}, {"is_disabled": 0, "is_reserved": 0, "fusion_lat": 0.0, "lat": 38.943378333333335, "fusion_lon": 0.0, "rental_uris": {"ios": "https://dc.lft.to/lastmile_qr_scan", "android": "https://dc.lft.to/lastmile_qr_scan"}, "lon": -77.0155275, "bike_id": "fd23c31e290772c3fd369fd0fca52089", "type": "electric_scooter", "name": "fd23c31e290772c3fd369fd0fca52089"}, {"is_disabled": 0, "is_reserved": 0, "fusion_lat": 0.0, "lat": 38.88300066666667, "fusion_lon": 0.0, "rental_uris": {"ios": "https://dc.lft.to/lastmile_qr_scan", "android": "https://dc.lft.to/lastmile_qr_scan"}, "lon": -76.934923, "bike_id": "88e4e73c5da7f0f80fbfe2829a624d54", "type": "electric_scooter", "name": "88e4e73c5da7f0f80fbfe2829a624d54"}, {"is_disabled": 0, "is_reserved": 0, "fusion_lat": 0.0, "lat": 38.8427635, "fusion_lon": 0.0, "rental_uris": {"ios": "https://dc.lft.to/lastmile_qr_scan", "android": "https://dc.lft.to/lastmile_qr_scan"}, "lon": -76.98842066666667, "bike_id": "18a3c523b22d595a278d76fc0dac8b90", "type": "electric_scooter", "name": "18a3c523b22d595a278d76fc0dac8b90"}, {"is_disabled": 0, "is_reserved": 0, "fusion_lat": 0.0, "lat": 38.852482, "fusion_lon": 0.0, "rental_uris": {"ios": "https://dc.lft.to/lastmile_qr_scan", "android": "https://dc.lft.to/lastmile_qr_scan"}, "lon": -77.11410383333333, "bike_id": "0e5e98848b36955050e1948f6cb60102", "type": "electric_bike", "name": "0e5e98848b36955050e1948f6cb60102"}, {"is_disabled": 0, "is_reserved": 0, "fusion_lat": 0.0, "lat": 38.90688316666667, "fusion_lon": 0.0, "rental_uris": {"ios": "https://dc.lft.to/lastmile_qr_scan", "android": "https://dc.lft.to/lastmile_qr_scan"}, "lon": -77.06289266666667, "bike_id": "b46dc299eee55dfbd494843a24f4f52f", "type": "electric_scooter", "name": "b46dc299eee55dfbd494843a24f4f52f"}, {"is_disabled": 0, "is_reserved": 0, "fusion_lat": 0.0, "lat": 38.901491666666665, "fusion_lon": 0.0, "rental_uris": {"ios": "https://dc.lft.to/lastmile_qr_scan", "android": "https://dc.lft.to/lastmile_qr_scan"}, "lon": -76.92983016666666, "bike_id": "d5c231dc59151c91c3ccc35fcf7d2eeb", "type": "electric_scooter", "name": "d5c231dc59151c91c3ccc35fcf7d2eeb"}, {"is_disabled": 0, "is_reserved": 0, "fusion_lat": 0.0, "lat": 38.892307, "fusion_lon": 0.0, "rental_uris": {"ios": "https://dc.lft.to/lastmile_qr_scan", "android": "https://dc.lft.to/lastmile_qr_scan"}, "lon": -77.032397, "bike_id": "01f898010f8de378c31186db8f789957", "type": "electric_scooter", "name": "01f898010f8de378c31186db8f789957"}, {"is_disabled": 0, "is_reserved": 0, "fusion_lat": 0.0, "lat": 38.90650433333333, "fusion_lon": 0.0, "rental_uris": {"ios": "https://dc.lft.to/lastmile_qr_scan", "android": "https://dc.lft.to/lastmile_qr_scan"}, "lon": -77.0457535, "bike_id": "d1dd2eabbb2fd344dd72f7fde3934b69", "type": "electric_scooter", "name": "d1dd2eabbb2fd344dd72f7fde3934b69"}, {"is_disabled": 0, "is_reserved": 0, "fusion_lat": 0.0, "lat": 38.91990416666667, "fusion_lon": 0.0, "rental_uris": {"ios": "https://dc.lft.to/lastmile_qr_scan", "android": "https://dc.lft.to/lastmile_qr_scan"}, "lon": -77.03230183333334, "bike_id": "c6bf347fe88ac2b6655e7ae826195ed7", "type": "electric_scooter", "name": "c6bf347fe88ac2b6655e7ae826195ed7"}, {"is_disabled": 0, "is_reserved": 0, "fusion_lat": 0.0, "lat": 38.89681016666667, "fusion_lon": 0.0, "rental_uris": {"ios": "https://dc.lft.to/lastmile_qr_scan", "android": "https://dc.lft.to/lastmile_qr_scan"}, "lon": -77.04887, "bike_id": "ab8a3063221f1593b0a44509f4ef5bea", "type": "electric_scooter", "name": "ab8a3063221f1593b0a44509f4ef5bea"}, {"is_disabled": 0, "is_reserved": 0, "fusion_lat": 0.0, "lat": 38.913550666666666, "fusion_lon": 0.0, "rental_uris": {"ios": "https://dc.lft.to/lastmile_qr_scan", "android": "https://dc.lft.to/lastmile_qr_scan"}, "lon": -76.97139316666667, "bike_id": "58b885b5a023686f84056e9e9545dc67", "type": "electric_scooter", "name": "58b885b5a023686f84056e9e9545dc67"}, {"is_disabled": 0, "is_reserved": 0, "fusion_lat": 0.0, "lat": 38.92507716666667, "fusion_lon": 0.0, "rental_uris": {"ios": "https://dc.lft.to/lastmile_qr_scan", "android": "https://dc.lft.to/lastmile_qr_scan"}, "lon": -77.02360766666666, "bike_id": "5c051851937e90108af5808ef6933fd7", "type": "electric_scooter", "name": "5c051851937e90108af5808ef6933fd7"}, {"is_disabled": 0, "is_reserved": 0, "fusion_lat": 0.0, "lat": 38.899322, "fusion_lon": 0.0, "rental_uris": {"ios": "https://dc.lft.to/lastmile_qr_scan", "android": "https://dc.lft.to/lastmile_qr_scan"}, "lon": -77.01499266666667, "bike_id": "82b4b2071d9ec63e3489d3150570973f", "type": "electric_scooter", "name": "82b4b2071d9ec63e3489d3150570973f"}, {"is_disabled": 0, "is_reserved": 0, "fusion_lat": 0.0, "lat": 38.92649516666667, "fusion_lon": 0.0, "rental_uris": {"ios": "https://dc.lft.to/lastmile_qr_scan", "android": "https://dc.lft.to/lastmile_qr_scan"}, "lon": -77.0370385, "bike_id": "3aeb133eabeae043ad4b74c3e5cf78c7", "type": "electric_scooter", "name": "3aeb133eabeae043ad4b74c3e5cf78c7"}, {"is_disabled": 0, "is_reserved": 0, "fusion_lat": 0.0, "lat": 38.91709983333333, "fusion_lon": 0.0, "rental_uris": {"ios": "https://dc.lft.to/lastmile_qr_scan", "android": "https://dc.lft.to/lastmile_qr_scan"}, "lon": -77.02305833333334, "bike_id": "6bf5ca98788a7b5a0877221917a4ddf6", "type": "electric_scooter", "name": "6bf5ca98788a7b5a0877221917a4ddf6"}, {"is_disabled": 0, "is_reserved": 0, "fusion_lat": 0.0, "lat": 38.9001185, "fusion_lon": 0.0, "rental_uris": {"ios": "https://dc.lft.to/lastmile_qr_scan", "android": "https://dc.lft.to/lastmile_qr_scan"}, "lon": -77.00662883333334, "bike_id": "b9a692028b3828c3d64c9b74fb35dd8c", "type": "electric_scooter", "name": "b9a692028b3828c3d64c9b74fb35dd8c"}, {"is_disabled": 0, "is_reserved": 0, "fusion_lat": 0.0, "lat": 38.929815, "fusion_lon": 0.0, "rental_uris": {"ios": "https://dc.lft.to/lastmile_qr_scan", "android": "https://dc.lft.to/lastmile_qr_scan"}, "lon": -77.03885333333334, "bike_id": "3df45924982a30640754a81aded34392", "type": "electric_scooter", "name": "3df45924982a30640754a81aded34392"}, {"is_disabled": 0, "is_reserved": 0, "fusion_lat": 0.0, "lat": 38.9103365, "fusion_lon": 0.0, "rental_uris": {"ios": "https://dc.lft.to/lastmile_qr_scan", "android": "https://dc.lft.to/lastmile_qr_scan"}, "lon": -76.923373, "bike_id": "8025bf376716c18802ae3363f6b8c64a", "type": "electric_bike", "name": "8025bf376716c18802ae3363f6b8c64a"}, {"is_disabled": 0, "is_reserved": 0, "fusion_lat": 0.0, "lat": 38.9226915, "fusion_lon": 0.0, "rental_uris": {"ios": "https://dc.lft.to/lastmile_qr_scan", "android": "https://dc.lft.to/lastmile_qr_scan"}, "lon": -77.03648216666667, "bike_id": "e5ce5e4b26be7ae238f4b6589a14abd1", "type": "electric_scooter", "name": "e5ce5e4b26be7ae238f4b6589a14abd1"}, {"is_disabled": 0, "is_reserved": 0, "fusion_lat": 0.0, "lat": 38.879592333333335, "fusion_lon": 0.0, "rental_uris": {"ios": "https://dc.lft.to/lastmile_qr_scan", "android": "https://dc.lft.to/lastmile_qr_scan"}, "lon": -76.93180583333333, "bike_id": "3d95c60cead1f4eaafc8e032ef5f5aa9", "type": "electric_bike", "name": "3d95c60cead1f4eaafc8e032ef5f5aa9"}, {"is_disabled": 0, "is_reserved": 0, "fusion_lat": 0.0, "lat": 38.901942, "fusion_lon": 0.0, "rental_uris": {"ios": "https://dc.lft.to/lastmile_qr_scan", "android": "https://dc.lft.to/lastmile_qr_scan"}, "lon": -77.00214333333334, "bike_id": "f48ca00a9960dcda86b04c1b4d262dd4", "type": "electric_scooter", "name": "f48ca00a9960dcda86b04c1b4d262dd4"}, {"is_disabled": 0, "is_reserved": 0, "fusion_lat": 0.0, "lat": 38.903027, "fusion_lon": 0.0, "rental_uris": {"ios": "https://dc.lft.to/lastmile_qr_scan", "android": "https://dc.lft.to/lastmile_qr_scan"}, "lon": -77.04011133333333, "bike_id": "d435f6e2f2e70372034aab453180dd61", "type": "electric_scooter", "name": "d435f6e2f2e70372034aab453180dd61"},