{"data": {"bikes": [{"fusion_lat": 0.0, "is_disabled": 0, "lat": 38.89358683333333, "lon": -77.00336983333334, "fusion_lon": 0.0, "bike_id": "2b297ed863d8583d1f48c43e2f0d01b9", "type": "electric_scooter", "name": "2b297ed863d8583d1f48c43e2f0d01b9", "is_reserved": 0, "rental_uris": {"ios": "https://dc.lft.to/lastmile_qr_scan", "android": "https://dc.lft.to/lastmile_qr_scan"}}, {"fusion_lat": 0.0, "is_disabled": 0, "lat": 38.99231433333333, "lon": -77.0237995, "fusion_lon": 0.0, "bike_id": "11be1db9300e07476999f89ea0b9476c", "type": "electric_bike", "name": "11be1db9300e07476999f89ea0b9476c", "is_reserved": 0, "rental_uris": {"ios": "https://dc.lft.to/lastmile_qr_scan", "android": "https://dc.lft.to/lastmile_qr_scan"}}, {"fusion_lat": 0.0, "is_disabled": 0, "lat": 38.9168315, "lon": -77.023124, "fusion_lon": 0.0, "bike_id": "0c69f0fbbb43ee0fc8ac242ae017ef5c", "type": "electric_scooter", "name": "0c69f0fbbb43ee0fc8ac242ae017ef5c", "is_reserved": 0, "rental_uris": {"ios": "https://dc.lft.to/lastmile_qr_scan", "android": "https://dc.lft.to/lastmile_qr_scan"}}, {"fusion_lat": 0.0, "is_disabled": 0, "lat": 38.92338483333333, "lon": -77.01915366666667, "fusion_lon": 0.0, "bike_id": "b9b299d7d0dbbf38b061632234301e36", "type": "electric_scooter", "name": "b9b299d7d0dbbf38b061632234301e36", "is_reserved": 0, "rental_uris": {"ios": "https://dc.lft.to/lastmile_qr_scan", "android": "https://dc.lft.to/lastmile_qr_scan"}}, {"fusion_lat": 0.0, "is_disabled": 0, "lat": 38.887006, "lon": -77.01369066666666, "fusion_lon": 0.0, "bike_id": "f09c2cc3750d4a8e35ad8c1c871d2cc2", "type": "electric_scooter", "name": "f09c2cc3750d4a8e35ad8c1c871d2cc2", "is_reserved": 0, "rental_uris": {"ios": "https://dc.lft.to/lastmile_qr_scan", "android": "https://dc.lft.to/lastmile_qr_scan"}}, {"fusion_lat": 0.0, "is_disabled": 0, "lat": 38.919512, "lon": -77.0415475, "fusion_lon": 0.0, "bike_id": "13ce821b27a9b5970ee3364cccabd40e", "type": "electric_scooter", "name": "13ce821b27a9b5970ee3364cccabd40e", "is_reserved": 0, "rental_uris": {"ios": "https://dc.lft.to/lastmile_qr_scan", "android": "https://dc.lft.to/lastmile_qr_scan"}}, {"fusion_lat": 0.0, "is_disabled": 0, "lat": 38.8429345, "lon": -77.06382466666666, "fusion_lon": 0.0, "bike_id": "8744f2aee1e080414971aae79cf789e7", "type": "electric_bike", "name": "8744f2aee1e080414971aae79cf789e7", "is_reserved": 0, "rental_uris": {"ios": "https://dc.lft.to/lastmile_qr_scan", "android": "https://dc.lft.to/lastmile_qr_scan"}}, {"fusion_lat": 0.0, "is_disabled": 0, "lat": 38.92682383333333, "lon": -77.02975583333334, "fusion_lon": 0.0, "bike_id": "949a21c4485db98e1b2e813961c9808f", "type": "electric_scooter", "name": "949a21c4485db98e1b2e813961c9808f", "is_reserved": 0, "rental_uris": {"ios": "https://dc.lft.to/lastmile_qr_scan", "android": "https://dc.lft.to/lastmile_qr_scan"}}, {"fusion_lat": 0.0, "is_disabled": 0, "lat": 38.972367, "lon": -77.0271815, "fusion_lon": 0.0, "bike_id": "4aca676f9fbb6279a5de3d1270e89cd7", "type": "electric_scooter", "name": "4aca676f9fbb6279a5de3d1270e89cd7", "is_reserved": 0, "rental_uris": {"ios": "https://dc.lft.to/lastmile_qr_scan", "android": "https://dc.lft.to/lastmile_qr_scan"}}, {"fusion_lat": 0.0, "is_disabled": 0, "lat": 38.9223965, "lon": -77.0299065, "fusion_lon": 0.0, "bike_id": "ac7fca077341a00d8ac781bff361be90", "type": "electric_scooter", "name": "ac7fca077341a00d8ac781bff361be90", "is_reserved": 0, "rental_uris": {"ios": "https://dc.lft.to/lastmile_qr_scan", "android": "https://dc.lft.to/lastmile_qr_scan"}}, {"fusion_lat": 0.0, "is_disabled": 0, "lat": 38.9004445, "lon": -76.991645, "fusion_lon": 0.0, "bike_id": "7d7a2f950728a4c495079dbe4d893677", "type": "electric_scooter", "name": "7d7a2f950728a4c495079dbe4d893677", "is_reserved": 0, "rental_uris": {"ios": "https://dc.lft.to/lastmile_qr_scan", "android": "https://dc.lft.to/lastmile_qr_scan"}}, {"fusion_lat": 0.0, "is_disabled": 0, "lat": 38.896066, "lon": -77.04793783333334, "fusion_lon": 0.0, "bike_id": "ab3ac729f73d805595bb646b03897f7f", "type": "electric_scooter", "name": "ab3ac729f73d805595bb646b03897f7f", "is_reserved": 0, "rental_uris": {"ios": "https://dc.lft.to/lastmile_qr_scan", "android": "https://dc.lft.to/lastmile_qr_scan"}}, {"fusion_lat": 0.0, "is_disabled": 0, "lat": 38.89858483333333, "lon": -77.04365233333333, "fusion_lon": 0.0, "bike_id": "be9edeea4afaa72d3aaf774db57a48f9", "type": "electric_bike", "name": "be9edeea4afaa72d3aaf774db57a48f9", "is_reserved": 0, "rental_uris": {"ios": "https://dc.lft.to/lastmile_qr_scan", "android": "https://dc.lft.to/lastmile_qr_scan"}}, {"fusion_lat": 0.0, "is_disabled": 0, "lat": 38.89221666666667, "lon": -77.0436855, "fusion_lon": 0.0, "bike_id": "eac67c984160b40f4764b5666eccc65f", "type": "electric_scooter", "name": "eac67c984160b40f4764b5666eccc65f", "is_reserved": 0, "rental_uris": {"ios": "https://dc.lft.to/lastmile_qr_scan", "android": "https://dc.lft.to/lastmile_qr_scan"}}, {"fusion_lat": 0.0, "is_disabled": 0, "lat": 38.854399666666666, "lon": -76.97164033333334, "fusion_lon": 0.0, "bike_id": "e5c39a65c7f5e45787a695768a152bb9", "type": "electric_scooter", "name": "e5c39a65c7f5e45787a695768a152bb9", "is_reserved": 0, "rental_uris": {"ios": "https://dc.lft.to/lastmile_qr_scan", "android": "https://dc.lft.to/lastmile_qr_scan"}}, {"fusion_lat": 0.0, "is_disabled": 0, "lat": 38.88021466666667, "lon": -77.00577383333334, "fusion_lon": 0.0, "bike_id": "b774b4c128e437aab589f715bba693f1", "type": "electric_scooter", "name": "b774b4c128e437aab589f715bba693f1", "is_reserved": 0, "rental_uris": {"ios": "https://dc.lft.to/lastmile_qr_scan", "android": "https://dc.lft.to/lastmile_qr_scan"}}, {"fusion_lat": 0.0, "is_disabled": 0, "lat": 38.897054833333335, "lon": -77.04657966666667, "fusion_lon": 0.0, "bike_id": "cca9dc383827991c011d56173630bdd4", "type": "electric_scooter", "name": "cca9dc383827991c011d56173630bdd4", "is_reserved": 0, "rental_uris": {"ios": "https://dc.lft.to/lastmile_qr_scan", "android": "https://dc.lft.to/lastmile_qr_scan"}}, {"fusion_lat": 0.0, "is_disabled": 0, "lat": 38.9199555, "lon": -76.984013, "fusion_lon": 0.0, "bike_id": "3e11d2e4d1667cdce1b6d9800e34b5db", "type": "electric_scooter", "name": "3e11d2e4d1667cdce1b6d9800e34b5db", "is_reserved": 0, "rental_uris": {"ios": "https://dc.lft.to/lastmile_qr_scan", "android": "https://dc.lft.to/lastmile_qr_scan"}}, {"fusion_lat": 0.0, "is_disabled": 0, "lat": 38.91272683333333, "lon": -77.022282, "fusion_lon": 0.0, "bike_id": "a76be845f6ef86cb9ecf6f0d3712252c", "type": "electric_scooter", "name": "a76be845f6ef86cb9ecf6f0d3712252c", "is_reserved": 0, "rental_uris": {"ios": "https://dc.lft.to/lastmile_qr_scan", "android": "https://dc.lft.to/lastmile_qr_scan"}}, {"fusion_lat": 0.0, "is_disabled": 0, "lat": 38.960446833333336, "lon": -77.00512333333333, "fusion_lon": 0.0, "bike_id": "3b0c9227fa374ac87c74c6db26f181fc", "type": "electric_scooter", "name": "3b0c9227fa374ac87c74c6db26f181fc", "is_reserved": 0, "rental_uris": {"ios": "https://dc.lft.to/lastmile_qr_scan", "android": "https://dc.lft.to/lastmile_qr_scan"}}, {"fusion_lat": 0.0, "is_disabled": 0, "lat": 38.92235733333333, "lon": -77.02125266666667, "fusion_lon": 0.0, "bike_id": "1cfd005be339a8be7f4b7ef551223def", "type": "electric_scooter", "name": "1cfd005be339a8be7f4b7ef551223def", "is_reserved": 0, "rental_uris": {"ios": "https://dc.lft.to/lastmile_qr_scan", "android": "https://dc.lft.to/lastmile_qr_scan"}}, {"fusion_lat": 0.0, "is_disabled": 0, "lat": 38.9101635, "lon": -77.04458133333333, "fusion_lon": 0.0, "bike_id": "96795ac1efcd9e77a425c21531a3f12e", "type": "electric_scooter", "name": "96795ac1efcd9e77a425c21531a3f12e", "is_reserved": 0, "rental_uris": {"ios": "https://dc.lft.to/lastmile_qr_scan", "android": "https://dc.lft.to/lastmile_qr_scan"}}, {"fusion_lat": 0.0, "is_disabled": 0, "lat": 38.909380166666665, "lon": -77.04681566666666, "fusion_lon": 0.0, "bike_id": "e89db06f93fce3a89a12a79898f06bf0", "type": "electric_scooter", "name": "e89db06f93fce3a89a12a79898f06bf0", "is_reserved": 0, "rental_uris": {"ios": "https://dc.lft.to/lastmile_qr_scan", "android": "https://dc.lft.to/lastmile_qr_scan"}}, {"fusion_lat": 0.0, "is_disabled": 0, "lat": 38.931790166666666, "lon": -77.03545883333334, "fusion_lon": 0.0, "bike_id": "f83a0a7498851e346df187ecf0d5ea16", "type": "electric_bike", "name": "f83a0a7498851e346df187ecf0d5ea16", "is_reserved": 0, "rental_uris": {"ios": "https://dc.lft.to/lastmile_qr_scan", "android": "https://dc.lft.to/lastmile_qr_scan"}}, {"fusion_lat": 0.0, "is_disabled": 0, "lat": 38.90406516666667, "lon": -77.05338133333333, "fusion_lon": 0.0, "bike_id": "42ddfc1e8a7b6a5d7ae84b53982c68b7", "type": "electric_scooter", "name": "42ddfc1e8a7b6a5d7ae84b53982c68b7", "is_reserved": 0, "rental_uris": {"ios": "https://dc.lft.to/lastmile_qr_scan", "android": "https://dc.lft.to/lastmile_qr_scan"}}, {"fusion_lat": 0.0, "is_disabled": 0, "lat": 38.80738433333333, "lon": -77.09691966666666, "fusion_lon": 0.0, "bike_id": "0a7b5f192c248e9c7210db5885c218b8", "type": "electric_bike", "name": "0a7b5f192c248e9c7210db5885c218b8", "is_reserved": 0, "rental_uris": {"ios": "https://dc.lft.to/lastmile_qr_scan", "android": "https://dc.lft.to/lastmile_qr_scan"}}, {"fusion_lat": 0.0, "is_disabled": 0, "lat": 38.9246455, "lon": -77.021555, "fusion_lon": 0.0, "bike_id": "e4dfcb209d6f99ea50c8f895ca770824", "type": "electric_scooter", "name": "e4dfcb209d6f99ea50c8f895ca770824", "is_reserved": 0, "rental_uris": {"ios": "https://dc.lft.to/lastmile_qr_scan", "android": "https://dc.lft.to/lastmile_qr_scan"}}, {"fusion_lat": 0.0, "is_disabled": 0, "lat": 38.91645583333333, "lon": -77.02103783333334, "fusion_lon": 0.0, "bike_id": "d9d95ca761ab6425e1ddc0dbd7c194ba", "type": "electric_scooter", "name": "d9d95ca761ab6425e1ddc0dbd7c194ba", "is_reserved": 0, "rental_uris": {"ios": "https://dc.lft.to/lastmile_qr_scan", "android": "https://dc.lft.to/lastmile_qr_scan"}}, {"fusion_lat": 0.0, "is_disabled": 0, "lat": 38.904074, "lon": -77.04391083333333, "fusion_lon": 0.0, "bike_id": "56d175b42ad18a3816d39ba2797ef5cc", "type": "electric_scooter", "name": "56d175b42ad18a3816d39ba2797ef5cc", "is_reserved": 0, "rental_uris": {"ios": "https://dc.lft.to/lastmile_qr_scan", "android": "https://dc.lft.to/lastmile_qr_scan"}}, {"fusion_lat": 0.0, "is_disabled": 0, "lat": 38.88718216666667, "lon": -76.99652783333333, "fusion_lon": 0.0, "bike_id": "94d5aaedbc91fb87905de576f21cb33a", "type": "electric_scooter", "name": "94d5aaedbc91fb87905de576f21cb33a", "is_reserved": 0, "rental_uris": {"ios": "https://dc.lft.to/lastmile_qr_scan", "android": "https://dc.lft.to/lastmile_qr_scan"}}, {"fusion_lat": 0.0, "is_disabled": 0, "lat": 38.921368666666666, "lon": -77.01905416666666, "fusion_lon": 0.0, "bike_id": "d53a19209fe495b15382fa677c064b4c", "type": "electric_scooter", "name": "d53a19209fe495b15382fa677c064b4c", "is_reserved": 0, "rental_uris": {"ios": "https://dc.lft.to/lastmile_qr_scan", "android": "https://dc.lft.to/lastmile_qr_scan"}}, {"fusion_lat": 0.0, "is_disabled": 0, "lat": 38.95083783333333, "lon": -77.01240883333334, "fusion_lon": 0.0, "bike_id": "0654dc38be18baaf2f5b82b8b2efbf4e", "type": "electric_bike", "name": "0654dc38be18baaf2f5b82b8b2efbf4e", "is_reserved": 0, "rental_uris": {"ios": "https://dc.lft.to/lastmile_qr_scan", "android": "https://dc.lft.to/lastmile_qr_scan"}}, {"fusion_lat": 0.0, "is_disabled": 0, "lat": 38.9335995, "lon": -77.02413016666667, "fusion_lon": 0.0, "bike_id": "4dc95d354e7f70ed0edbf53d87b1ec85", "type": "electric_scooter", "name": "4dc95d354e7f70ed0edbf53d87b1ec85", "is_reserved": 0, "rental_uris": {"ios": "https://dc.lft.to/lastmile_qr_scan", "android": "https://dc.lft.to/lastmile_qr_scan"}}, {"fusion_lat": 0.0, "is_disabled": 0, "lat": 38.921381, "lon": -77.01799083333333, "fusion_lon": 0.0, "bike_id": "4bb2d1a2755a125f4632b9c9b5f73853", "type": "electric_scooter", "name": "4bb2d1a2755a125f4632b9c9b5f73853", "is_reserved": 0, "rental_uris": {"ios": "https://dc.lft.to/lastmile_qr_scan", "android": "https://dc.lft.to/lastmile_qr_scan"}}, {"fusion_lat": 0.0, "is_disabled": 0, "lat": 38.882149, "lon": -77.02850683333334, "fusion_lon": 0.0, "bike_id": "1713164e1783a5535362550ae0eeff40", "type": "electric_scooter", "name": "1713164e1783a5535362550ae0eeff40", "is_reserved": 0, "rental_uris": {"ios": "https://dc.lft.to/lastmile_qr_scan", "android": "https://dc.lft.to/lastmile_qr_scan"}}, {"fusion_lat": 0.0, "is_disabled": 0, "lat": 38.94398233333333, "lon": -77.0636185, "fusion_lon": 0.0, "bike_id": "e6a374a6c1201ce9564a58af7daaf729", "type": "electric_scooter", "name": "e6a374a6c1201ce9564a58af7daaf729", "is_reserved": 0, "rental_uris": {"ios": "https://dc.lft.to/lastmile_qr_scan", "android": "https://dc.lft.to/lastmile_qr_scan"}}, {"fusion_lat": 0.0, "is_disabled": 0, "lat": 38.898793, "lon": -77.02823016666666, "fusion_lon": 0.0, "bike_id": "e73d837572fbd2747f2c8e888a92365e", "type": "electric_scooter", "name": "e73d837572fbd2747f2c8e888a92365e", "is_reserved": 0, "rental_uris": {"ios": "https://dc.lft.to/lastmile_qr_scan", "android": "https://dc.lft.to/lastmile_qr_scan"}}, {"fusion_lat": 0.0, "is_disabled": 0, "lat": 38.9060295, "lon": -77.045012, "fusion_lon": 0.0, "bike_id": "979c518ca3eb1b10a4d5538ec8bbb450", "type": "electric_scooter", "name": "979c518ca3eb1b10a4d5538ec8bbb450", "is_reserved": 0, "rental_uris": {"ios": "https://dc.lft.to/lastmile_qr_scan", "android": "https://dc.lft.to/lastmile_qr_scan"}}, {"fusion_lat": 0.0, "is_disabled": 0, "lat": 38.90734883333333, "lon": -77.04496133333333, "fusion_lon": 0.0, "bike_id": "3b99fa261d3d69cdd2c871f3f46c9e1f", "type": "electric_scooter", "name": "3b99fa261d3d69cdd2c871f3f46c9e1f", "is_reserved": 0, "rental_uris": {"ios": "https://dc.lft.to/lastmile_qr_scan", "android": "https://dc.lft.to/lastmile_qr_scan"}}, {"fusion_lat": 0.0, "is_disabled": 0, "lat": 38.90387833333333, "lon": -77.04443533333334, "fusion_lon": 0.0, "bike_id": "1e738743c4c5d5f37c5e2c4b6cedf6ed", "type": "electric_scooter", "name": "1e738743c4c5d5f37c5e2c4b6cedf6ed", "is_reserved": 0, "rental_uris": {"ios": "https://dc.lft.to/lastmile_qr_scan", "android": "https://dc.lft.to/lastmile_qr_scan"}}, {"fusion_lat": 0.0, "is_disabled": 0, "lat": 38.8759105, "lon": -77.0058525, "fusion_lon": 0.0, "bike_id": "d925843f360b7fb36fb9fb7944e5be0f", "type": "electric_scooter", "name": "d925843f360b7fb36fb9fb7944e5be0f", "is_reserved": 0, "rental_uris": {"ios": "https://dc.lft.to/lastmile_qr_scan", "android": "https://dc.lft.to/lastmile_qr_scan"}}, {"fusion_lat": 0.0, "is_disabled": 0, "lat": 38.924535, "lon": -77.0338735, "fusion_lon": 0.0, "bike_id": "455b08da9c83d70b49a1f9e6e82298eb", "type": "electric_scooter", "name": "455b08da9c83d70b49a1f9e6e82298eb", "is_reserved": 0, "rental_uris": {"ios": "https://dc.lft.to/lastmile_qr_scan", "android": "https://dc.lft.to/lastmile_qr_scan"}}, {"fusion_lat": 0.0, "is_disabled": 0, "lat": 38.897442833333336, "lon": -76.97580866666667, "fusion_lon": 0.0, "bike_id": "392568c2d2b5fd133cbb0b396b95d16e", "type": "electric_scooter", "name": "392568c2d2b5fd133cbb0b396b95d16e", "is_reserved": 0, "rental_uris": {"ios": "https://dc.lft.to/lastmile_qr_scan", "android": "https://dc.lft.to/lastmile_qr_scan"}}, {"fusion_lat": 0.0, "is_disabled": 0, "lat": 38.906817333333336, "lon": -77.05826483333334, "fusion_lon": 0.0, "bike_id": "6045641c013f2132f22679ee1e7956eb", "type": "electric_bike", "name": "6045641c013f2132f22679ee1e7956eb", "is_reserved": 0, "rental_uris": {"ios": "https://dc.lft.to/lastmile_qr_scan", "android": "https://dc.lft.to/lastmile_qr_scan"}}, {"fusion_lat": 0.0, "is_disabled": 0, "lat": 38.90676833333333, "lon": -77.03674566666666, "fusion_lon": 0.0, "bike_id": "e1f624d713570cc87ef9cece732f4bf8", "type": "electric_scooter", "name": "e1f624d713570cc87ef9cece732f4bf8", "is_reserved": 0, "rental_uris": {"ios": "https://dc.lft.to/lastmile_qr_scan", "android": "https://dc.lft.to/lastmile_qr_scan"}}, {"fusion_lat": 0.0, "is_disabled": 0, "lat": 38.91935566666667, "lon": -77.01908783333333, "fusion_lon": 0.0, "bike_id": "32d888f5cbecc4d273f8c110deb2895b", "type": "electric_scooter", "name": "32d888f5cbecc4d273f8c110deb2895b", "is_reserved": 0, "rental_uris": {"ios": "https://dc.lft.to/lastmile_qr_scan", "android": "https://dc.lft.to/lastmile_qr_scan"}}, {"fusion_lat": 0.0, "is_disabled": 0, "lat": 38.91198083333333, "lon": -77.03212016666667, "fusion_lon": 0.0, "bike_id": "a8b44dbdd42741a442b04a9c7620b97f", "type": "electric_scooter", "name": "a8b44dbdd42741a442b04a9c7620b97f", "is_reserved": 0, "rental_uris": {"ios": "https://dc.lft.to/lastmile_qr_scan", "android": "https://dc.lft.to/lastmile_qr_scan"}}, {"fusion_lat": 0.0, "is_disabled": 0, "lat": 38.900328333333334, "lon": -77.04325083333333, "fusion_lon": 0.0, "bike_id": "b1f093fee0954dccd2b3825944c0e3bd", "type": "electric_scooter", "name": "b1f093fee0954dccd2b3825944c0e3bd", "is_reserved": 0, "rental_uris": {"ios": "https://dc.lft.to/lastmile_qr_scan", "android": "https://dc.lft.to/lastmile_qr_scan"}}, {"fusion_lat": 0.0, "is_disabled": 0, "lat": 38.9088245, "lon": -77.00269883333333, "fusion_lon": 0.0, "bike_id": "c33899da6fd9159cbf178703f0d7031c", "type": "electric_scooter", "name": "c33899da6fd9159cbf178703f0d7031c", "is_reserved": 0, "rental_uris": {"ios": "https://dc.lft.to/lastmile_qr_scan", "android": "https://dc.lft.to/lastmile_qr_scan"}}, {"fusion_lat": 0.0, "is_disabled": 0, "lat": 38.8921715, "lon": -77.021642, "fusion_lon": 0.0, "bike_id": "d67715cc80b5ce91f09b822ef2c8f5bf", "type": "electric_scooter", "name": "d67715cc80b5ce91f09b822ef2c8f5bf", "is_reserved": 0, "rental_uris": {"ios": "https://dc.lft.to/lastmile_qr_scan", "android": "https://dc.lft.to/lastmile_qr_scan"}}, {"fusion_lat": 0.0, "is_disabled": 0, "lat": 38.89836966666667, "lon": -77.0470105, "fusion_lon": 0.0, "bike_id": "8501dee9cd4336df55f64454da8759f8", "type": "electric_scooter", "name": "8501dee9cd4336df55f64454da8759f8", "is_reserved": 0, "rental_uris": {"ios": "https://dc.lft.to/lastmile_qr_scan", "android": "https://dc.lft.to/lastmile_qr_scan"}}, {"fusion_lat": 0.0, "is_disabled": 0, "lat": 38.900365, "lon": -76.98829183333334, "fusion_lon": 0.0, "bike_id": "cce0895e69e7c1c3317f5fc2549fcd3e", "type": "electric_scooter", "name": "cce0895e69e7c1c3317f5fc2549fcd3e", "is_reserved": 0, "rental_uris": {"ios": "https://dc.lft.to/lastmile_qr_scan", "android": "https://dc.lft.to/lastmile_qr_scan"}}, {"fusion_lat": 0.0, "is_disabled": 0, "lat": 38.901362666666664, "lon": -77.03198066666667, "fusion_lon": 0.0, "bike_id": "30bff982de8aa2eab342d30a54f67539", "type": "electric_scooter", "name": "30bff982de8aa2eab342d30a54f67539", "is_reserved": 0, "rental_uris": {"ios": "https://dc.lft.to/lastmile_qr_scan", "android": "https://dc.lft.to/lastmile_qr_scan"}}, {"fusion_lat": 0.0, "is_disabled": 0, "lat": 38.8835995, "lon": -77.02584116666667, "fusion_lon": 0.0, "bike_id": "a1684cbc99b9e9792edf08b2084243ae", "type": "electric_scooter", "name": "a1684cbc99b9e9792edf08b2084243ae", "is_reserved": 0, "rental_uris": {"ios": "https://dc.lft.to/lastmile_qr_scan", "android": "https://dc.lft.to/lastmile_qr_scan"}}, {"fusion_lat": 0.0, "is_disabled": 0, "lat": 38.8768365, "lon": -77.0199975, "fusion_lon": 0.0, "bike_id": "6ebf21bf0dbe2e41d8f94d72b58fac95", "type": "electric_scooter", "name": "6ebf21bf0dbe2e41d8f94d72b58fac95", "is_reserved": 0, "rental_uris": {"ios": "https://dc.lft.to/lastmile_qr_scan", "android": "https://dc.lft.to/lastmile_qr_scan"}}, {"fusion_lat": 0.0, "is_disabled": 0, "lat": 38.923419, "lon": -77.052487, "fusion_lon": 0.0, "bike_id": "3906e9471f80fbe0a2f5eb7f2a2d00cf", "type": "electric_scooter", "name": "3906e9471f80fbe0a2f5eb7f2a2d00cf", "is_reserved": 0, "rental_uris": {"ios": "https://dc.lft.to/lastmile_qr_scan", "android": "https://dc.lft.to/lastmile_qr_scan"}}, {"fusion_lat": 0.0, "is_disabled": 0, "lat": 38.89289083333333, "lon": -76.976186, "fusion_lon": 0.0, "bike_id": "e95b0276ee8ee5f8b6a1f56a11de847a", "type": "electric_bike", "name": "e95b0276ee8ee5f8b6a1f56a11de847a", "is_reserved": 0, "rental_uris": {"ios": "https://dc.lft.to/lastmile_qr_scan", "android": "https://dc.lft.to/lastmile_qr_scan"}}, {"fusion_lat": 0.0, "is_disabled": 0, "lat": 38.924772, "lon": -77.0219495, "fusion_lon": 0.0, "bike_id": "d0e75cd3d625c4b951c6bac4e2538447", "type": "electric_scooter", "name": "d0e75cd3d625c4b951c6bac4e2538447", "is_reserved": 0, "rental_uris": {"ios": "https://dc.lft.to/lastmile_qr_scan", "android": "https://dc.lft.to/lastmile_qr_scan"}}, {"fusion_lat": 0.0, "is_disabled": 0, "lat": 38.91745316666667, "lon": -77.041647, "fusion_lon": 0.0, "bike_id": "dfd16afcb2eea83ffe6d674e4a3a8d14", "type": "electric_scooter", "name": "dfd16afcb2eea83ffe6d674e4a3a8d14", "is_reserved": 0, "rental_uris": {"ios": "https://dc.lft.to/lastmile_qr_scan", "android": "https://dc.lft.to/lastmile_qr_scan"}}, {"fusion_lat": 0.0, "is_disabled": 0, "lat": 38.8780675, "lon": -77.0176115, "fusion_lon": 0.0, "bike_id": "bdbbfaa8e84443cf5702d8311020928b", "type": "electric_scooter", "name": "bdbbfaa8e84443cf5702d8311020928b", "is_reserved": 0, "rental_uris": {"ios": "https://dc.lft.to/lastmile_qr_scan", "android": "https://dc.lft.to/lastmile_qr_scan"}}, {"fusion_lat": 0.0, "is_disabled": 0, "lat": 38.895744, "lon": -77.013631, "fusion_lon": 0.0, "bike_id": "82d869c81faa1869ba2f9d19c61f19b5", "type": "electric_scooter", "name": "82d869c81faa1869ba2f9d19c61f19b5", "is_reserved": 0, "rental_uris": {"ios": "https://dc.lft.to/lastmile_qr_scan", "android": "https://dc.lft.to/lastmile_qr_scan"}}, {"fusion_lat": 0.0, "is_disabled": 0, "lat": 38.91254983333333, "lon": -77.04437283333333, "fusion_lon": 0.0, "bike_id": "3ebcbd32291ea77540afc68ada6a2152", "type": "electric_scooter", "name": "3ebcbd32291ea77540afc68ada6a2152", "is_reserved": 0, "rental_uris": {"ios": "https://dc.lft.to/lastmile_qr_scan", "android": "https://dc.lft.to/lastmile_qr_scan"}}, {"fusion_lat": 0.0, "is_disabled": 0, "lat": 38.90150533333333, "lon": -77.0444205, "fusion_lon": 0.0, "bike_id": "120d8ae5e689aa4c67ee4d526ac2c96b", "type": "electric_scooter", "name": "120d8ae5e689aa4c67ee4d526ac2c96b", "is_reserved": 0, "rental_uris": {"ios": "https://dc.lft.to/lastmile_qr_scan", "android": "https://dc.lft.to/lastmile_qr_scan"}}, {"fusion_lat": 0.0, "is_disabled": 0, "lat": 38.93243783333333, "lon": -77.04142333333333, "fusion_lon": 0.0, "bike_id": "921019302a9288200f26a645a1a7a07a", "type": "electric_scooter", "name": "921019302a9288200f26a645a1a7a07a", "is_reserved": 0, "rental_uris": {"ios": "https://dc.lft.to/lastmile_qr_scan", "android": "https://dc.lft.to/lastmile_qr_scan"}}, {"fusion_lat": 0.0, "is_disabled": 0, "lat": 38.8922545, "lon": -77.02743983333333, "fusion_lon": 0.0, "bike_id": "cc5f94b764e79a2098140d0a30392efa", "type": "electric_scooter", "name": "cc5f94b764e79a2098140d0a30392efa", "is_reserved": 0, "rental_uris": {"ios": "https://dc.lft.to/lastmile_qr_scan", "android": "https://dc.lft.to/lastmile_qr_scan"}}, {"fusion_lat": 0.0, "is_disabled": 0, "lat": 38.8950375, "lon": -77.00337666666667, "fusion_lon": 0.0, "bike_id": "b866095274d05c3dc87d43dac426eef1", "type": "electric_scooter", "name": "b866095274d05c3dc87d43dac426eef1", "is_reserved": 0, "rental_uris": {"ios": "https://dc.lft.to/lastmile_qr_scan", "android": "https://dc.lft.to/lastmile_qr_scan"}}, {"fusion_lat": 0.0, "is_disabled": 0, "lat": 38.895092166666664, "lon": -77.01983666666666, "fusion_lon": 0.0, "bike_id": "e121f4940acc54b26a69826b9b659cbe", "type": "electric_scooter", "name": "e121f4940acc54b26a69826b9b659cbe", "is_reserved": 0, "rental_uris": {"ios": "https://dc.lft.to/lastmile_qr_scan", "android": "https://dc.lft.to/lastmile_qr_scan"}}, {"fusion_lat": 0.0, "is_disabled": 0, "lat": 38.933548333333334, "lon": -77.06147, "fusion_lon": 0.0, "bike_id": "99879e713d0eef2ea14498106e393afa", "type": "electric_scooter", "name": "99879e713d0eef2ea14498106e393afa", "is_reserved": 0, "rental_uris": {"ios": "https://dc.lft.to/lastmile_qr_scan", "android": "https://dc.lft.to/lastmile_qr_scan"}}, {"fusion_lat": 0.0, "is_disabled": 0, "lat": 38.903176333333334, "lon": -77.016231, "fusion_lon": 0.0, "bike_id": "47b1ed2060f47221aeae4d1fe2abada2", "type": "electric_scooter", "name": "47b1ed2060f47221aeae4d1fe2abada2", "is_reserved": 0, "rental_uris": {"ios": "https://dc.lft.to/lastmile_qr_scan", "android": "https://dc.lft.to/lastmile_qr_scan"}}, {"fusion_lat": 0.0, "is_disabled": 0, "lat": 38.906073666666664, "lon": -77.12886533333334, "fusion_lon": 0.0, "bike_id": "12175ee3f6eb0dc7b3a3f4b1a3f5ea6f", "type": "electric_bike", "name": "12175ee3f6eb0dc7b3a3f4b1a3f5ea6f", "is_reserved": 0, "rental_uris": {"ios": "https://dc.lft.to/lastmile_qr_scan", "android": "https://dc.lft.to/lastmile_qr_scan"}}, {"fusion_lat": 0.0, "is_disabled": 0, "lat": 38.903971, "lon": -77.06303566666666, "fusion_lon": 0.0, "bike_id": "ef45691d1a5677618c8f9e756d276d62", "type": "electric_scooter", "name": "ef45691d1a5677618c8f9e756d276d62", "is_reserved": 0, "rental_uris": {"ios": "https://dc.lft.to/lastmile_qr_scan", "android": "https://dc.lft.to/lastmile_qr_scan"}}, {"fusion_lat": 0.0, "is_disabled": 0, "lat": 38.892206333333334, "lon": -77.02424566666667, "fusion_lon": 0.0, "bike_id": "1bfc4b7f70c9e0ca47a2a2b4419d165e", "type": "electric_scooter", "name": "1bfc4b7f70c9e0ca47a2a2b4419d165e", "is_reserved": 0, "rental_uris": {"ios": "https://dc.lft.to/lastmile_qr_scan", "android": "https://dc.lft.to/lastmile_qr_scan"}}, {"fusion_lat": 0.0, "is_disabled": 0, "lat": 38.9206035, "lon": -76.97072933333334, "fusion_lon": 0.0, "bike_id": "c182144a9647f6c28f78febd5b2b4631", "type": "electric_bike", "name": "c182144a9647f6c28f78febd5b2b4631", "is_reserved": 0, "rental_uris": {"ios": "https://dc.lft.to/lastmile_qr_scan", "android": "https://dc.lft.to/lastmile_qr_scan"}}, {"fusion_lat": 0.0, "is_disabled": 0, "lat": 38.902333666666664, "lon": -77.04517466666667, "fusion_lon": 0.0, "bike_id": "c00762998a017556431eba8e284a97e8", "type": "electric_scooter", "name": "c00762998a017556431eba8e284a97e8", "is_reserved": 0, "rental_uris": {"ios": "https://dc.lft.to/lastmile_qr_scan", "android": "https://dc.lft.to/lastmile_qr_scan"}}, {"fusion_lat": 0.0, "is_disabled": 0, "lat": 38.92400416666667, "lon": -77.02023166666666, "fusion_lon": 0.0, "bike_id": "b072c26b18bcb02918ace1002c94a2f9", "type": "electric_scooter", "name": "b072c26b18bcb02918ace1002c94a2f9", "is_reserved": 0, "rental_uris": {"ios": "https://dc.lft.to/lastmile_qr_scan", "android": "https://dc.lft.to/lastmile_qr_scan"}}, {"fusion_lat": 0.0, "is_disabled": 0, "lat": 38.91371, "lon": -77.04660116666666, "fusion_lon": 0.0, "bike_id": "d6cb14514661a7a80be6c6d7ca006b36", "type": "electric_scooter", "name": "d6cb14514661a7a80be6c6d7ca006b36", "is_reserved": 0, "rental_uris": {"ios": "https://dc.lft.to/lastmile_qr_scan", "android": "https://dc.lft.to/lastmile_qr_scan"}}, {"fusion_lat": 0.0, "is_disabled": 0, "lat": 38.92471283333333, "lon": -77.039186, "fusion_lon": 0.0, "bike_id": "a21fd617b8871bec733caeaa4f8aa5e2", "type": "electric_scooter", "name": "a21fd617b8871bec733caeaa4f8aa5e2", "is_reserved": 0, "rental_uris": {"ios": "https://dc.lft.to/lastmile_qr_scan", "android": "https://dc.lft.to/lastmile_qr_scan"}}, {"fusion_lat": 0.0, "is_disabled": 0, "lat": 38.929975166666665, "lon": -77.02349783333334, "fusion_lon": 0.0, "bike_id": "9990c562dfa98805a4a50469cf2e3069", "type": "electric_scooter", "name": "9990c562dfa98805a4a50469cf2e3069", "is_reserved": 0, "rental_uris": {"ios": "https://dc.lft.to/lastmile_qr_scan", "android": "https://dc.lft.to/lastmile_qr_scan"}}, {"fusion_lat": 0.0, "is_disabled": 0, "lat": 38.92364833333333, "lon": -77.01953616666667, "fusion_lon": 0.0, "bike_id": "e340d00c8e22d8987a7a6dc5c11151f1", "type": "electric_scooter", "name": "e340d00c8e22d8987a7a6dc5c11151f1", "is_reserved": 0, "rental_uris": {"ios": "https://dc.lft.to/lastmile_qr_scan", "android": "https://dc.lft.to/lastmile_qr_scan"}}, {"fusion_lat": 0.0, "is_disabled": 0, "lat": 38.907348999999996, "lon": -77.013139, "fusion_lon": 0.0, "bike_id": "ce679f8aa4fd048de780d30f2b124136", "type": "electric_scooter", "name": "ce679f8aa4fd048de780d30f2b124136", "is_reserved": 0, "rental_uris": {"ios": "https://dc.lft.to/lastmile_qr_scan", "android": "https://dc.lft.to/lastmile_qr_scan"}}, {"fusion_lat": 0.0, "is_disabled": 0, "lat": 38.910496, "lon": -77.04357783333333, "fusion_lon": 0.0, "bike_id": "b874c8079d9cd68a10d34cd953be15fa", "type": "electric_scooter", "name": "b874c8079d9cd68a10d34cd953be15fa", "is_reserved": 0, "rental_uris": {"ios": "https://dc.lft.to/lastmile_qr_scan", "android": "https://dc.lft.to/lastmile_qr_scan"}}, {"fusion_lat": 0.0, "is_disabled": 0, "lat": 38.92970666666667, "lon": -77.02795583333334, "fusion_lon": 0.0, "bike_id": "a3c0f6eee52078cce748540ff3876fa7", "type": "electric_scooter", "name": "a3c0f6eee52078cce748540ff3876fa7", "is_reserved": 0, "rental_uris": {"ios": "https://dc.lft.to/lastmile_qr_scan", "android": "https://dc.lft.to/lastmile_qr_scan"}}, {"fusion_lat": 0.0, "is_disabled": 0, "lat": 38.90520266666667, "lon": -77.06446816666667, "fusion_lon": 0.0, "bike_id": "a1f34f74e2f01571886effcf29bf27d5", "type": "electric_scooter", "name": "a1f34f74e2f01571886effcf29bf27d5", "is_reserved": 0, "rental_uris": {"ios": "https://dc.lft.to/lastmile_qr_scan", "android": "https://dc.lft.to/lastmile_qr_scan"}}, {"fusion_lat": 0.0, "is_disabled": 0, "lat": 38.922422833333336, "lon": -77.03668316666666, "fusion_lon": 0.0, "bike_id": "a2f2a552029714ad3df8760519cbaa71", "type": "electric_scooter", "name": "a2f2a552029714ad3df8760519cbaa71", "is_reserved": 0, "rental_uris": {"ios": "https://dc.lft.to/lastmile_qr_scan", "android": "https://dc.lft.to/lastmile_qr_scan"}}, {"fusion_lat": 0.0, "is_disabled": 0, "lat": 38.90547566666667, "lon": -77.03392266666667, "fusion_lon": 0.0, "bike_id": "8bd9337861deb5462838eaa7e6f3d9de", "type": "electric_scooter", "name": "8bd9337861deb5462838eaa7e6f3d9de", "is_reserved": 0, "rental_uris": {"ios": "https://dc.lft.to/lastmile_qr_scan", "android": "https://dc.lft.to/lastmile_qr_scan"}}, {"fusion_lat": 0.0, "is_disabled": 0, "lat": 38.898725, "lon": -77.04917766666667, "fusion_lon": 0.0, "bike_id": "b439e42c55e2ac26f5c97c3f76862a63", "type": "electric_scooter", "name": "b439e42c55e2ac26f5c97c3f76862a63", "is_reserved": 0, "rental_uris": {"ios": "https://dc.lft.to/lastmile_qr_scan", "android": "https://dc.lft.to/lastmile_qr_scan"}}, {"fusion_lat": 0.0, "is_disabled": 0, "lat": 38.94184466666667, "lon": -77.02487833333333, "fusion_lon": 0.0, "bike_id": "2b4146a263b5af598399dde6b2b56a13", "type": "electric_scooter", "name": "2b4146a263b5af598399dde6b2b56a13", "is_reserved": 0, "rental_uris": {"ios": "https://dc.lft.to/lastmile_qr_scan", "android": "https://dc.lft.to/lastmile_qr_scan"}}, {"fusion_lat": 0.0, "is_disabled": 0, "lat": 38.923219833333334, "lon": -77.03677866666666, "fusion_lon": 0.0, "bike_id": "058b8433476ab3ed920e926d06f25094", "type": "electric_scooter", "name": "058b8433476ab3ed920e926d06f25094", "is_reserved": 0, "rental_uris": {"ios": "https://dc.lft.to/lastmile_qr_scan", "android": "https://dc.lft.to/lastmile_qr_scan"}}, {"fusion_lat": 0.0, "is_disabled": 0, "lat": 38.8898985, "lon": -77.003358, "fusion_lon": 0.0, "bike_id": "614745a8da1c6b548eb9f7c48b2ac01c", "type": "electric_scooter", "name": "614745a8da1c6b548eb9f7c48b2ac01c", "is_reserved": 0, "rental_uris": {"ios": "https://dc.lft.to/lastmile_qr_scan", "android": "https://dc.lft.to/lastmile_qr_scan"}}, {"fusion_lat": 0.0, "is_disabled": 0, "lat": 38.90384316666667, "lon": -77.0318555, "fusion_lon": 0.0, "bike_id": "ddfd1e49d570521057db3a9ae043843c", "type": "electric_scooter", "name": "ddfd1e49d570521057db3a9ae043843c", "is_reserved": 0, "rental_uris": {"ios": "https://dc.lft.to/lastmile_qr_scan", "android": "https://dc.lft.to/lastmile_qr_scan"}}, {"fusion_lat": 0.0, "is_disabled": 0, "lat": 38.9168235, "lon": -77.03778483333333, "fusion_lon": 0.0, "bike_id": "803efcdd316afca295ab333757c529ac", "type": "electric_scooter", "name": "803efcdd316afca295ab333757c529ac", "is_reserved": 0, "rental_uris": {"ios": "https://dc.lft.to/lastmile_qr_scan", "android": "https://dc.lft.to/lastmile_qr_scan"}}, {"fusion_lat": 0.0, "is_disabled": 0, "lat": 38.9270685, "lon": -77.024052, "fusion_lon": 0.0, "bike_id": "6ea7f4cf68ca3ddacdfed68d84111791", "type": "electric_scooter", "name": "6ea7f4cf68ca3ddacdfed68d84111791", "is_reserved": 0, "rental_uris": {"ios": "https://dc.lft.to/lastmile_qr_scan", "android": "https://dc.lft.to/lastmile_qr_scan"}}, {"fusion_lat": 0.0, "is_disabled": 0, "lat": 38.899818, "lon": -77.03085116666666, "fusion_lon": 0.0, "bike_id": "e62f293b8655fc2ca5987117947e401a", "type": "electric_scooter", "name": "e62f293b8655fc2ca5987117947e401a", "is_reserved": 0, "rental_uris": {"ios": "https://dc.lft.to/lastmile_qr_scan", "android": "https://dc.lft.to/lastmile_qr_scan"}}, {"fusion_lat": 0.0, "is_disabled": 0, "lat": 38.9083285, "lon": -77.073135, "fusion_lon": 0.0, "bike_id": "07c71944d7f6d486ff05de748f8f3621", "type": "electric_scooter", "name": "07c71944d7f6d486ff05de748f8f3621", "is_reserved": 0, "rental_uris": {"ios": "https://dc.lft.to/lastmile_qr_scan", "android": "https://dc.lft.to/lastmile_qr_scan"}}, {"fusion_lat": 0.0, "is_disabled": 0, "lat": 38.893944166666664, "lon": -77.02177083333333, "fusion_lon": 0.0, "bike_id": "ab1336ee33831a16b4682b2ab0a84d7a", "type": "electric_scooter", "name": "ab1336ee33831a16b4682b2ab0a84d7a", "is_reserved": 0, "rental_uris": {"ios": "https://dc.lft.to/lastmile_qr_scan", "android": "https://dc.lft.to/lastmile_qr_scan"}}, {"fusion_lat": 0.0, "is_disabled": 0, "lat": 38.90706616666667, "lon": -77.00293333333333, "fusion_lon": 0.0, "bike_id": "685f2c783ceaab7cb791bc189312edd1", "type": "electric_scooter", "name": "685f2c783ceaab7cb791bc189312edd1", "is_reserved": 0, "rental_uris": {"ios": "https://dc.lft.to/lastmile_qr_scan", "android": "https://dc.lft.to/lastmile_qr_scan"}}, {"fusion_lat": 0.0, "is_disabled": 0, "lat": 38.8931985, "lon": -76.93976083333334, "fusion_lon": 0.0, "bike_id": "2e7937457304581892853c64ee0e76a1", "type": "electric_scooter", "name": "2e7937457304581892853c64ee0e76a1", "is_reserved": 0, "rental_uris": {"ios": "https://dc.lft.to/lastmile_qr_scan", "android": "https://dc.lft.to/lastmile_qr_scan"}}, {"fusion_lat": 0.0, "is_disabled": 0, "lat": 38.90278983333333, "lon": -77.02282383333333, "fusion_lon": 0.0, "bike_id": "35ef7e40852500fe679a9e8a4a94a70d", "type": "electric_scooter", "name": "35ef7e40852500fe679a9e8a4a94a70d", "is_reserved": 0, "rental_uris": {"ios": "https://dc.lft.to/lastmile_qr_scan", "android": "https://dc.lft.to/lastmile_qr_scan"}}, {"fusion_lat": 0.0, "is_disabled": 0, "lat": 38.84754183333333, "lon": -77.05382266666666, "fusion_lon": 0.0, "bike_id": "4f97ad3273441c94cf608a5fe0158332", "type": "electric_bike", "name": "4f97ad3273441c94cf608a5fe0158332", "is_reserved": 0, "rental_uris": {"ios": "https://dc.lft.to/lastmile_qr_scan", "android": "https://dc.lft.to/lastmile_qr_scan"}}, {"fusion_lat": 0.0, "is_disabled": 0, "lat": 38.892155333333335, "lon": -77.03137666666667, "fusion_lon": 0.0, "bike_id": "bc8e664176ebe06a8ce48f6b7fcf9e6c", "type": "electric_scooter", "name": "bc8e664176ebe06a8ce48f6b7fcf9e6c", "is_reserved": 0, "rental_uris": {"ios": "https://dc.lft.to/lastmile_qr_scan", "android": "https://dc.lft.to/lastmile_qr_scan"}}, {"fusion_lat": 0.0, "is_disabled": 0, "lat": 38.931227, "lon": -77.0226575, "fusion_lon": 0.0, "bike_id": "e6197e85d5b01712bba1de2270806a0a", "type": "electric_scooter", "name": "e6197e85d5b01712bba1de2270806a0a", "is_reserved": 0, "rental_uris": {"ios": "https://dc.lft.to/lastmile_qr_scan", "android": "https://dc.lft.to/lastmile_qr_scan"}}, {"fusion_lat": 0.0, "is_disabled": 0, "lat": 38.89667583333333, "lon": -77.0271935, "fusion_lon": 0.0, "bike_id": "4e29d105e60c04255c361c2a84232139", "type": "electric_scooter", "name": "4e29d105e60c04255c361c2a84232139", "is_reserved": 0, "rental_uris": {"ios": "https://dc.lft.to/lastmile_qr_scan", "android": "https://dc.lft.to/lastmile_qr_scan"}}, {"fusion_lat": 0.0, "is_disabled": 0, "lat": 38.897064, "lon": -77.01313383333333, "fusion_lon": 0.0, "bike_id": "77daae75628fee5637b55d1223d3cdd5", "type": "electric_scooter", "name": "77daae75628fee5637b55d1223d3cdd5", "is_reserved": 0, "rental_uris": {"ios": "https://dc.lft.to/lastmile_qr_scan", "android": "https://dc.lft.to/lastmile_qr_scan"}}, {"fusion_lat": 0.0, "is_disabled": 0, "lat": 38.887140333333335, "lon": -77.02834933333334, "fusion_lon": 0.0, "bike_id": "50cfe37d851078410db3994b855ba1c8", "type": "electric_scooter", "name": "50cfe37d851078410db3994b855ba1c8", "is_reserved": 0, "rental_uris": {"ios": "https://dc.lft.to/lastmile_qr_scan", "android": "https://dc.lft.to/lastmile_qr_scan"}}, {"fusion_lat": 0.0, "is_disabled": 0, "lat": 38.89490466666667, "lon": -76.94892483333334, "fusion_lon": 0.0, "bike_id": "b288e982fd4df1e3d1e4b6fdba160e74", "type": "electric_scooter", "name": "b288e982fd4df1e3d1e4b6fdba160e74", "is_reserved": 0, "rental_uris": {"ios": "https://dc.lft.to/lastmile_qr_scan", "android": "https://dc.lft.to/lastmile_qr_scan"}}, {"fusion_lat": 0.0, "is_disabled": 0, "lat": 38.90216, "lon": -77.06239516666666, "fusion_lon": 0.0, "bike_id": "ddabca17a81f25a96bf2c0e8d76d42c0", "type": "electric_scooter", "name": "ddabca17a81f25a96bf2c0e8d76d42c0", "is_reserved": 0, "rental_uris": {"ios": "https://dc.lft.to/lastmile_qr_scan", "android": "https://dc.lft.to/lastmile_qr_scan"}}, {"fusion_lat": 0.0, "is_disabled": 0, "lat": 38.91281266666667, "lon": -77.02301333333334, "fusion_lon": 0.0, "bike_id": "323f935ac0184b128a07cced53bdf37f", "type": "electric_scooter", "name": "323f935ac0184b128a07cced53bdf37f", "is_reserved": 0, "rental_uris": {"ios": "https://dc.lft.to/lastmile_qr_scan", "android": "https://dc.lft.to/lastmile_qr_scan"}}, {"fusion_lat": 0.0, "is_disabled": 0, "lat": 38.92070433333333, "lon": -77.039939, "fusion_lon": 0.0, "bike_id": "99a14df7add34b3a81ccb0a4dfa20e0b", "type": "electric_scooter", "name": "99a14df7add34b3a81ccb0a4dfa20e0b", "is_reserved": 0, "rental_uris": {"ios": "https://dc.lft.to/lastmile_qr_scan", "android": "https://dc.lft.to/lastmile_qr_scan"}}, {"fusion_lat": 0.0, "is_disabled": 0, "lat": 38.9023865, "lon": -77.029333, "fusion_lon": 0.0, "bike_id": "c32d2775f1e172e23652b606ef3a02ac", "type": "electric_scooter", "name": "c32d2775f1e172e23652b606ef3a02ac", "is_reserved": 0, "rental_uris": {"ios": "https://dc.lft.to/lastmile_qr_scan", "android": "https://dc.lft.to/lastmile_qr_scan"}}, {"fusion_lat": 0.0, "is_disabled": 0, "lat": 38.90622533333333, "lon": -77.06289983333333, "fusion_lon": 0.0, "bike_id": "b351aa0f153ceba370680f77f4bdfc25", "type": "electric_scooter", "name": "b351aa0f153ceba370680f77f4bdfc25", "is_reserved": 0, "rental_uris": {"ios": "https://dc.lft.to/lastmile_qr_scan", "android": "https://dc.lft.to/lastmile_qr_scan"}}, {"fusion_lat": 0.0, "is_disabled": 0, "lat": 38.91917266666667, "lon": -77.034082, "fusion_lon": 0.0, "bike_id": "562ed2fc98d7172be3b30a48fc272dc6", "type": "electric_scooter", "name": "562ed2fc98d7172be3b30a48fc272dc6", "is_reserved": 0, "rental_uris": {"ios": "https://dc.lft.to/lastmile_qr_scan", "android": "https://dc.lft.to/lastmile_qr_scan"}}, {"fusion_lat": 0.0, "is_disabled": 0, "lat": 38.935376, "lon": -77.05819366666667, "fusion_lon": 0.0, "bike_id": "08a0511685302d90920de3fcdc3811e1", "type": "electric_scooter", "name": "08a0511685302d90920de3fcdc3811e1", "is_reserved": 0, "rental_uris": {"ios": "https://dc.lft.to/lastmile_qr_scan", "android": "https://dc.lft.to/lastmile_qr_scan"}}, {"fusion_lat": 0.0, "is_disabled": 0, "lat": 38.9247185, "lon": -77.03011933333333, "fusion_lon": 0.0, "bike_id": "4ca021d55f9528f132cf9366d2f4ffb0", "type": "electric_scooter", "name": "4ca021d55f9528f132cf9366d2f4ffb0", "is_reserved": 0, "rental_uris": {"ios": "https://dc.lft.to/lastmile_qr_scan", "android": "https://dc.lft.to/lastmile_qr_scan"}}, {"fusion_lat": 0.0, "is_disabled": 0, "lat": 38.9062405, "lon": -77.06274516666667, "fusion_lon": 0.0, "bike_id": "e9ea4f50ce639e6bf5a564df1ebe59c7", "type": "electric_scooter", "name": "e9ea4f50ce639e6bf5a564df1ebe59c7", "is_reserved": 0, "rental_uris": {"ios": "https://dc.lft.to/lastmile_qr_scan", "android": "https://dc.lft.to/lastmile_qr_scan"}}, {"fusion_lat": 0.0, "is_disabled": 0, "lat": 38.89883, "lon": -76.931814, "fusion_lon": 0.0, "bike_id": "e219afdfb99788d4f19b1d961133bbdf", "type": "electric_scooter", "name": "e219afdfb99788d4f19b1d961133bbdf", "is_reserved": 0, "rental_uris": {"ios": "https://dc.lft.to/lastmile_qr_scan", "android": "https://dc.lft.to/lastmile_qr_scan"}}, {"fusion_lat": 0.0, "is_disabled": 0, "lat": 38.89604283333333, "lon": -77.04795816666666, "fusion_lon": 0.0, "bike_id": "750498cd559f564808ed319e39eea39e", "type": "electric_scooter", "name": "750498cd559f564808ed319e39eea39e", "is_reserved": 0, "rental_uris": {"ios": "https://dc.lft.to/lastmile_qr_scan", "android": "https://dc.lft.to/lastmile_qr_scan"}}, {"fusion_lat": 0.0, "is_disabled": 0, "lat": 38.9093775, "lon": -77.03209583333333, "fusion_lon": 0.0, "bike_id": "4f9e5677ecd21c250ab6f586447fd470", "type": "electric_scooter", "name": "4f9e5677ecd21c250ab6f586447fd470", "is_reserved": 0, "rental_uris": {"ios": "https://dc.lft.to/lastmile_qr_scan", "android": "https://dc.lft.to/lastmile_qr_scan"}}, {"fusion_lat": 0.0, "is_disabled": 0, "lat": 38.9235755, "lon": -77.05075366666667, "fusion_lon": 0.0, "bike_id": "b9b573cec88e4400187a4d9999aab7af", "type": "electric_scooter", "name": "b9b573cec88e4400187a4d9999aab7af", "is_reserved": 0, "rental_uris": {"ios": "https://dc.lft.to/lastmile_qr_scan", "android": "https://dc.lft.to/lastmile_qr_scan"}}, {"fusion_lat": 0.0, "is_disabled": 0, "lat": 38.90604033333334, "lon": -77.04328383333333, "fusion_lon": 0.0, "bike_id": "aa6776cc03e3958323f4d1b0bb0e23ed", "type": "electric_scooter", "name": "aa6776cc03e3958323f4d1b0bb0e23ed", "is_reserved": 0, "rental_uris": {"ios": "https://dc.lft.to/lastmile_qr_scan", "android": "https://dc.lft.to/lastmile_qr_scan"}}, {"fusion_lat": 0.0, "is_disabled": 0, "lat": 38.92025183333333, "lon": -77.03732, "fusion_lon": 0.0, "bike_id": "9c52916b0038bcde0ce3191651569c06", "type": "electric_scooter", "name": "9c52916b0038bcde0ce3191651569c06", "is_reserved": 0, "rental_uris": {"ios": "https://dc.lft.to/lastmile_qr_scan", "android": "https://dc.lft.to/lastmile_qr_scan"}}, {"fusion_lat": 0.0, "is_disabled": 0, "lat": 38.90849983333333, "lon": -77.0319815, "fusion_lon": 0.0, "bike_id": "fa811538291fc3ab6a5024db5b2eadc4", "type": "electric_scooter", "name": "fa811538291fc3ab6a5024db5b2eadc4", "is_reserved": 0, "rental_uris": {"ios": "https://dc.lft.to/lastmile_qr_scan", "android": "https://dc.lft.to/lastmile_qr_scan"}}, {"fusion_lat": 0.0, "is_disabled": 0, "lat": 38.92438, "lon": -77.040208, "fusion_lon": 0.0, "bike_id": "cd6660d721acedca659c05e4db29dba8", "type": "electric_scooter", "name": "cd6660d721acedca659c05e4db29dba8", "is_reserved": 0, "rental_uris": {"ios": "https://dc.lft.to/lastmile_qr_scan", "android": "https://dc.lft.to/lastmile_qr_scan"}}, {"fusion_lat": 0.0, "is_disabled": 0, "lat": 38.92273, "lon": -77.02135583333333, "fusion_lon": 0.0, "bike_id": "00619ddf52782a2d11ce7525f0d55b02", "type": "electric_scooter", "name": "00619ddf52782a2d11ce7525f0d55b02", "is_reserved": 0, "rental_uris": {"ios": "https://dc.lft.to/lastmile_qr_scan", "android": "https://dc.lft.to/lastmile_qr_scan"}}, {"fusion_lat": 0.0, "is_disabled": 0, "lat": 38.923258, "lon": -77.0196025, "fusion_lon": 0.0, "bike_id": "fa6c3427070bcdc87154aa30cbaf5051", "type": "electric_scooter", "name": "fa6c3427070bcdc87154aa30cbaf5051", "is_reserved": 0, "rental_uris": {"ios": "https://dc.lft.to/lastmile_qr_scan", "android": "https://dc.lft.to/lastmile_qr_scan"}}, {"fusion_lat": 0.0, "is_disabled": 0, "lat": 38.89316783333334, "lon": -77.029691, "fusion_lon": 0.0, "bike_id": "e7afa7ce3c0a77be141bb59686bfaa57", "type": "electric_scooter", "name": "e7afa7ce3c0a77be141bb59686bfaa57", "is_reserved": 0, "rental_uris": {"ios": "https://dc.lft.to/lastmile_qr_scan", "android": "https://dc.lft.to/lastmile_qr_scan"}}, {"fusion_lat": 0.0, "is_disabled": 0, "lat": 38.93147316666666, "lon": -77.03946283333333, "fusion_lon": 0.0, "bike_id": "621e9f4f1391d43ae1967bc128073e4d", "type": "electric_scooter", "name": "621e9f4f1391d43ae1967bc128073e4d", "is_reserved": 0, "rental_uris": {"ios": "https://dc.lft.to/lastmile_qr_scan", "android": "https://dc.lft.to/lastmile_qr_scan"}}, {"fusion_lat": 0.0, "is_disabled": 0, "lat": 38.90869883333333, "lon": -77.04532133333333, "fusion_lon": 0.0, "bike_id": "6e90ebb4a49a228b8c5df738f182a5ad", "type": "electric_scooter", "name": "6e90ebb4a49a228b8c5df738f182a5ad", "is_reserved": 0, "rental_uris": {"ios": "https://dc.lft.to/lastmile_qr_scan", "android": "https://dc.lft.to/lastmile_qr_scan"}}, {"fusion_lat": 0.0, "is_disabled": 0, "lat": 38.92751416666667, "lon": -77.02113133333333, "fusion_lon": 0.0, "bike_id": "8acf387ce787ac0fffd5678195ae4e6c", "type": "electric_scooter", "name": "8acf387ce787ac0fffd5678195ae4e6c", "is_reserved": 0, "rental_uris": {"ios": "https://dc.lft.to/lastmile_qr_scan", "android": "https://dc.lft.to/lastmile_qr_scan"}}, {"fusion_lat": 0.0, "is_disabled": 0, "lat": 38.9573275, "lon": -77.0275965, "fusion_lon": 0.0, "bike_id": "720207814a618b80a7d29d30c78b41ee", "type": "electric_scooter", "name": "720207814a618b80a7d29d30c78b41ee", "is_reserved": 0, "rental_uris": {"ios": "https://dc.lft.to/lastmile_qr_scan", "android": "https://dc.lft.to/lastmile_qr_scan"}}, {"fusion_lat": 0.0, "is_disabled": 0, "lat": 38.88703616666667, "lon": -77.02182566666667, "fusion_lon": 0.0, "bike_id": "0d7054d25bb6609c54b062d545547750", "type": "electric_scooter", "name": "0d7054d25bb6609c54b062d545547750", "is_reserved": 0, "rental_uris": {"ios": "https://dc.lft.to/lastmile_qr_scan", "android": "https://dc.lft.to/lastmile_qr_scan"}}, {"fusion_lat": 0.0, "is_disabled": 0, "lat": 38.9169455, "lon": -77.03772216666667, "fusion_lon": 0.0, "bike_id": "d879ca9a12cfd1b10ecef102d7793487", "type": "electric_scooter", "name": "d879ca9a12cfd1b10ecef102d7793487", "is_reserved": 0, "rental_uris": {"ios": "https://dc.lft.to/lastmile_qr_scan", "android": "https://dc.lft.to/lastmile_qr_scan"}}, {"fusion_lat": 0.0, "is_disabled": 0, "lat": 38.902667666666666, "lon": -77.038515, "fusion_lon": 0.0, "bike_id": "89bbc2d758eb7747809c2694f90c5832", "type": "electric_scooter", "name": "89bbc2d758eb7747809c2694f90c5832", "is_reserved": 0, "rental_uris": {"ios": "https://dc.lft.to/lastmile_qr_scan", "android": "https://dc.lft.to/lastmile_qr_scan"}}, {"fusion_lat": 0.0, "is_disabled": 0, "lat": 38.893859166666665, "lon": -77.04672383333333, "fusion_lon": 0.0, "bike_id": "7741eb7d981559310ae20a5645d862f5", "type": "electric_scooter", "name": "7741eb7d981559310ae20a5645d862f5", "is_reserved": 0, "rental_uris": {"ios": "https://dc.lft.to/lastmile_qr_scan", "android": "https://dc.lft.to/lastmile_qr_scan"}}, {"fusion_lat": 0.0, "is_disabled": 0, "lat": 38.92720166666667, "lon": -77.05144233333333, "fusion_lon": 0.0, "bike_id": "60991b46be200e38478dc28760ef9dc9", "type": "electric_scooter", "name": "60991b46be200e38478dc28760ef9dc9", "is_reserved": 0, "rental_uris": {"ios": "https://dc.lft.to/lastmile_qr_scan", "android": "https://dc.lft.to/lastmile_qr_scan"}}, {"fusion_lat": 0.0, "is_disabled": 0, "lat": 38.9041275, "lon": -77.046673, "fusion_lon": 0.0, "bike_id": "cbbf2a53ccf08ecc61fe5d9cf9e7a7ca", "type": "electric_scooter", "name": "cbbf2a53ccf08ecc61fe5d9cf9e7a7ca", "is_reserved": 0, "rental_uris": {"ios": "https://dc.lft.to/lastmile_qr_scan", "android": "https://dc.lft.to/lastmile_qr_scan"}}, {"fusion_lat": 0.0, "is_disabled": 0, "lat": 38.9334355, "lon": -76.994368, "fusion_lon": 0.0, "bike_id": "4ca5d89a696442d66bdcdd25b684c7c7", "type": "electric_scooter", "name": "4ca5d89a696442d66bdcdd25b684c7c7", "is_reserved": 0, "rental_uris": {"ios": "https://dc.lft.to/lastmile_qr_scan", "android": "https://dc.lft.to/lastmile_qr_scan"}}, {"fusion_lat": 0.0, "is_disabled": 0, "lat": 38.87595966666667, "lon": -77.00590983333333, "fusion_lon": 0.0, "bike_id": "e0d4b7af9fd295152e070b19b331f773", "type": "electric_scooter", "name": "e0d4b7af9fd295152e070b19b331f773", "is_reserved": 0, "rental_uris": {"ios": "https://dc.lft.to/lastmile_qr_scan", "android": "https://dc.lft.to/lastmile_qr_scan"}}, {"fusion_lat": 0.0, "is_disabled": 0, "lat": 38.8922845, "lon": -77.0291785, "fusion_lon": 0.0, "bike_id": "26b234c8365a713c379c80bc0d1cf53b", "type": "electric_scooter", "name": "26b234c8365a713c379c80bc0d1cf53b", "is_reserved": 0, "rental_uris": {"ios": "https://dc.lft.to/lastmile_qr_scan", "android": "https://dc.lft.to/lastmile_qr_scan"}}, {"fusion_lat": 0.0, "is_disabled": 0, "lat": 38.914107, "lon": -77.045765, "fusion_lon": 0.0, "bike_id": "6c6e553b1612d6fddb7b76ab1fa6ef23", "type": "electric_scooter", "name": "6c6e553b1612d6fddb7b76ab1fa6ef23", "is_reserved": 0, "rental_uris": {"ios": "https://dc.lft.to/lastmile_qr_scan", "android": "https://dc.lft.to/lastmile_qr_scan"}}, {"fusion_lat": 0.0, "is_disabled": 0, "lat": 38.920571, "lon": -77.02308616666667, "fusion_lon": 0.0, "bike_id": "df0d0c250d0a1f0a4a6983c7b99c80e5", "type": "electric_scooter", "name": "df0d0c250d0a1f0a4a6983c7b99c80e5", "is_reserved": 0, "rental_uris": {"ios": "https://dc.lft.to/lastmile_qr_scan", "android": "https://dc.lft.to/lastmile_qr_scan"}}, {"fusion_lat": 0.0, "is_disabled": 0, "lat": 38.92381866666667, "lon": -77.03061233333334, "fusion_lon": 0.0, "bike_id": "e48fa1554bef20b3d5aff05310176d07", "type": "electric_scooter", "name": "e48fa1554bef20b3d5aff05310176d07", "is_reserved": 0, "rental_uris": {"ios": "https://dc.lft.to/lastmile_qr_scan", "android": "https://dc.lft.to/lastmile_qr_scan"}}, {"fusion_lat": 0.0, "is_disabled": 0, "lat": 38.92320566666667, "lon": -77.01964383333333, "fusion_lon": 0.0, "bike_id": "2fcfd25294bfe9d4935671501212ce5a", "type": "electric_scooter", "name": "2fcfd25294bfe9d4935671501212ce5a", "is_reserved": 0, "rental_uris": {"ios": "https://dc.lft.to/lastmile_qr_scan", "android": "https://dc.lft.to/lastmile_qr_scan"}}, {"fusion_lat": 0.0, "is_disabled": 0, "lat": 38.94264033333333, "lon": -77.028445, "fusion_lon": 0.0, "bike_id": "6f59fd7bc5889288443b3a82e85633b2", "type": "electric_scooter", "name": "6f59fd7bc5889288443b3a82e85633b2", "is_reserved": 0, "rental_uris": {"ios": "https://dc.lft.to/lastmile_qr_scan", "android": "https://dc.lft.to/lastmile_qr_scan"}}, {"fusion_lat": 0.0, "is_disabled": 0, "lat": 38.921256666666665, "lon": -77.0366875, "fusion_lon": 0.0, "bike_id": "503806bd79ba264abe713be0cfae4da1", "type": "electric_scooter", "name": "503806bd79ba264abe713be0cfae4da1", "is_reserved": 0, "rental_uris": {"ios": "https://dc.lft.to/lastmile_qr_scan", "android": "https://dc.lft.to/lastmile_qr_scan"}}, {"fusion_lat": 0.0, "is_disabled": 0, "lat": 38.915743, "lon": -77.0504245, "fusion_lon": 0.0, "bike_id": "a03f35db2ad3612f4821f8ce015d83ea", "type": "electric_scooter", "name": "a03f35db2ad3612f4821f8ce015d83ea", "is_reserved": 0, "rental_uris": {"ios": "https://dc.lft.to/lastmile_qr_scan", "android": "https://dc.lft.to/lastmile_qr_scan"}}, {"fusion_lat": 0.0, "is_disabled": 0, "lat": 38.903716, "lon": -77.00989566666667, "fusion_lon": 0.0, "bike_id": "c8e867711c7194b5beccf8b499c59a75", "type": "electric_scooter", "name": "c8e867711c7194b5beccf8b499c59a75", "is_reserved": 0, "rental_uris": {"ios": "https://dc.lft.to/lastmile_qr_scan", "android": "https://dc.lft.to/lastmile_qr_scan"}}, {"fusion_lat": 0.0, "is_disabled": 0, "lat": 38.9162955, "lon": -77.0481365, "fusion_lon": 0.0, "bike_id": "3c3431502fad2e2a32641a5008f50a86", "type": "electric_scooter", "name": "3c3431502fad2e2a32641a5008f50a86", "is_reserved": 0, "rental_uris": {"ios": "https://dc.lft.to/lastmile_qr_scan", "android": "https://dc.lft.to/lastmile_qr_scan"}}, {"fusion_lat": 0.0, "is_disabled": 0, "lat": 38.884401, "lon": -76.95770433333334, "fusion_lon": 0.0, "bike_id": "73064de1ec3660541a9948bf7aac5484", "type": "electric_scooter", "name": "73064de1ec3660541a9948bf7aac5484", "is_reserved": 0, "rental_uris": {"ios": "https://dc.lft.to/lastmile_qr_scan", "android": "https://dc.lft.to/lastmile_qr_scan"}}, {"fusion_lat": 0.0, "is_disabled": 0, "lat": 38.91613, "lon": -77.02302783333333, "fusion_lon": 0.0, "bike_id": "b1c686d9170ad0dc683ba68def7c6062", "type": "electric_scooter", "name": "b1c686d9170ad0dc683ba68def7c6062", "is_reserved": 0, "rental_uris": {"ios": "https://dc.lft.to/lastmile_qr_scan", "android": "https://dc.lft.to/lastmile_qr_scan"}}, {"fusion_lat": 0.0, "is_disabled": 0, "lat": 38.90309366666666, "lon": -76.975016, "fusion_lon": 0.0, "bike_id": "a3d192cb4111d794c752d80dcc836fea", "type": "electric_scooter", "name": "a3d192cb4111d794c752d80dcc836fea", "is_reserved": 0, "rental_uris": {"ios": "https://dc.lft.to/lastmile_qr_scan", "android": "https://dc.lft.to/lastmile_qr_scan"}}, {"fusion_lat": 0.0, "is_disabled": 0, "lat": 38.883919166666665, "lon": -76.995113, "fusion_lon": 0.0, "bike_id": "0b418bc69bf31e5a73daedd90553d8be", "type": "electric_scooter", "name": "0b418bc69bf31e5a73daedd90553d8be", "is_reserved": 0, "rental_uris": {"ios": "https://dc.lft.to/lastmile_qr_scan", "android": "https://dc.lft.to/lastmile_qr_scan"}}, {"fusion_lat": 0.0, "is_disabled": 0, "lat": 38.903735833333336, "lon": -77.0274195, "fusion_lon": 0.0, "bike_id": "a8a84cb477c0fdf40434aa4263558a4f", "type": "electric_scooter", "name": "a8a84cb477c0fdf40434aa4263558a4f", "is_reserved": 0, "rental_uris": {"ios": "https://dc.lft.to/lastmile_qr_scan", "android": "https://dc.lft.to/lastmile_qr_scan"}}, {"fusion_lat": 0.0, "is_disabled": 0, "lat": 38.892908, "lon": -76.99844383333334, "fusion_lon": 0.0, "bike_id": "40a7dc7ae2e2578731040d880e8db763", "type": "electric_scooter", "name": "40a7dc7ae2e2578731040d880e8db763", "is_reserved": 0, "rental_uris": {"ios": "https://dc.lft.to/lastmile_qr_scan", "android": "https://dc.lft.to/lastmile_qr_scan"}}, {"fusion_lat": 0.0, "is_disabled": 0, "lat": 38.876993166666665, "lon": -77.0177135, "fusion_lon": 0.0, "bike_id": "5510216a775084053ade80df349c8cd0", "type": "electric_scooter", "name": "5510216a775084053ade80df349c8cd0", "is_reserved": 0, "rental_uris": {"ios": "https://dc.lft.to/lastmile_qr_scan", "android": "https://dc.lft.to/lastmile_qr_scan"}}, {"fusion_lat": 0.0, "is_disabled": 0, "lat": 38.906774666666664, "lon": -77.07080266666667, "fusion_lon": 0.0, "bike_id": "0d26aad89145a3be6bc52dc0585ce997", "type": "electric_scooter", "name": "0d26aad89145a3be6bc52dc0585ce997", "is_reserved": 0, "rental_uris": {"ios": "https://dc.lft.to/lastmile_qr_scan", "android": "https://dc.lft.to/lastmile_qr_scan"}}, {"fusion_lat": 0.0, "is_disabled": 0, "lat": 38.87587166666667, "lon": -77.00590183333334, "fusion_lon": 0.0, "bike_id": "4c541d4d7e60ff56bf8a958b7c4ba7e7", "type": "electric_scooter", "name": "4c541d4d7e60ff56bf8a958b7c4ba7e7", "is_reserved": 0, "rental_uris": {"ios": "https://dc.lft.to/lastmile_qr_scan", "android": "https://dc.lft.to/lastmile_qr_scan"}}, {"fusion_lat": 0.0, "is_disabled": 0, "lat": 38.8758965, "lon": -77.0058965, "fusion_lon": 0.0, "bike_id": "0872a5e9140d777527849ea320e9318d", "type": "electric_scooter", "name": "0872a5e9140d777527849ea320e9318d", "is_reserved": 0, "rental_uris": {"ios": "https://dc.lft.to/lastmile_qr_scan", "android": "https://dc.lft.to/lastmile_qr_scan"}}, {"fusion_lat": 0.0, "is_disabled": 0, "lat": 38.937082833333335, "lon": -77.024726, "fusion_lon": 0.0, "bike_id": "3e4b80f3ac37c7a1e6830eb80e614a47", "type": "electric_scooter", "name": "3e4b80f3ac37c7a1e6830eb80e614a47", "is_reserved": 0, "rental_uris": {"ios": "https://dc.lft.to/lastmile_qr_scan", "android": "https://dc.lft.to/lastmile_qr_scan"}}, {"fusion_lat": 0.0, "is_disabled": 0, "lat": 38.9016065, "lon": -76.98208533333333, "fusion_lon": 0.0, "bike_id": "f8c87fc45bbb8c37047712987ac8bd7f", "type": "electric_scooter", "name": "f8c87fc45bbb8c37047712987ac8bd7f", "is_reserved": 0, "rental_uris": {"ios": "https://dc.lft.to/lastmile_qr_scan", "android": "https://dc.lft.to/lastmile_qr_scan"}}, {"fusion_lat": 0.0, "is_disabled": 0, "lat": 38.894883, "lon": -76.99511416666667, "fusion_lon": 0.0, "bike_id": "5a095f5576f2f09069dc2de350345f03", "type": "electric_scooter", "name": "5a095f5576f2f09069dc2de350345f03", "is_reserved": 0, "rental_uris": {"ios": "https://dc.lft.to/lastmile_qr_scan", "android": "https://dc.lft.to/lastmile_qr_scan"}}, {"fusion_lat": 0.0, "is_disabled": 0, "lat": 38.905757666666666, "lon": -77.0407095, "fusion_lon": 0.0, "bike_id": "39301fab8d75ed7e840aa31393d59eb3", "type": "electric_scooter", "name": "39301fab8d75ed7e840aa31393d59eb3", "is_reserved": 0, "rental_uris": {"ios": "https://dc.lft.to/lastmile_qr_scan", "android": "https://dc.lft.to/lastmile_qr_scan"}}, {"fusion_lat": 0.0, "is_disabled": 0, "lat": 38.92103183333333, "lon": -76.99407166666667, "fusion_lon": 0.0, "bike_id": "2a7d642a91663c57403a9b0f35629874", "type": "electric_scooter", "name": "2a7d642a91663c57403a9b0f35629874", "is_reserved": 0, "rental_uris": {"ios": "https://dc.lft.to/lastmile_qr_scan", "android": "https://dc.lft.to/lastmile_qr_scan"}}, {"fusion_lat": 0.0, "is_disabled": 0, "lat": 38.898908666666664, "lon": -77.047763, "fusion_lon": 0.0, "bike_id": "5fc45a2daa752344e683f733e6ad155a", "type": "electric_scooter", "name": "5fc45a2daa752344e683f733e6ad155a", "is_reserved": 0, "rental_uris": {"ios": "https://dc.lft.to/lastmile_qr_scan", "android": "https://dc.lft.to/lastmile_qr_scan"}}, {"fusion_lat": 0.0, "is_disabled": 0, "lat": 38.90382, "lon": -77.026534, "fusion_lon": 0.0, "bike_id": "cc0437fe393a81719406430ebb8b3810", "type": "electric_scooter", "name": "cc0437fe393a81719406430ebb8b3810", "is_reserved": 0, "rental_uris": {"ios": "https://dc.lft.to/lastmile_qr_scan", "android": "https://dc.lft.to/lastmile_qr_scan"}}, {"fusion_lat": 0.0, "is_disabled": 0, "lat": 38.91400433333333, "lon": -77.018239, "fusion_lon": 0.0, "bike_id": "a860846f6289ec53a45c819b232b73d8", "type": "electric_scooter", "name": "a860846f6289ec53a45c819b232b73d8", "is_reserved": 0, "rental_uris": {"ios": "https://dc.lft.to/lastmile_qr_scan", "android": "https://dc.lft.to/lastmile_qr_scan"}}, {"fusion_lat": 0.0, "is_disabled": 0, "lat": 38.933131833333334, "lon": -77.03193, "fusion_lon": 0.0, "bike_id": "e3a11406da036f43dca0a7fb55fa729a", "type": "electric_scooter", "name": "e3a11406da036f43dca0a7fb55fa729a", "is_reserved": 0, "rental_uris": {"ios": "https://dc.lft.to/lastmile_qr_scan", "android": "https://dc.lft.to/lastmile_qr_scan"}}, {"fusion_lat": 0.0, "is_disabled": 0, "lat": 38.876442, "lon": -76.93549866666666, "fusion_lon": 0.0, "bike_id": "b35a54a25a7a10c68ccc4a97ac4873cf", "type": "electric_bike", "name": "b35a54a25a7a10c68ccc4a97ac4873cf", "is_reserved": 0, "rental_uris": {"ios": "https://dc.lft.to/lastmile_qr_scan", "android": "https://dc.lft.to/lastmile_qr_scan"}}, {"fusion_lat": 0.0, "is_disabled": 0, "lat": 38.898636, "lon": -77.033183, "fusion_lon": 0.0, "bike_id": "9d37a9137659f9a2e4a931827d4b8e00", "type": "electric_scooter", "name": "9d37a9137659f9a2e4a931827d4b8e00", "is_reserved": 0, "rental_uris": {"ios": "https://dc.lft.to/lastmile_qr_scan", "android": "https://dc.lft.to/lastmile_qr_scan"}}, {"fusion_lat": 0.0, "is_disabled": 0, "lat": 38.89255966666666, "lon": -77.0502615, "fusion_lon": 0.0, "bike_id": "59d49a88eba845556b01ba70c4f3399b", "type": "electric_scooter", "name": "59d49a88eba845556b01ba70c4f3399b", "is_reserved": 0, "rental_uris": {"ios": "https://dc.lft.to/lastmile_qr_scan", "android": "https://dc.lft.to/lastmile_qr_scan"}}, {"fusion_lat": 0.0, "is_disabled": 0, "lat": 38.91123266666666, "lon": -77.03832783333333, "fusion_lon": 0.0, "bike_id": "a3534a3bdfd1e707fcf11205e2262d25", "type": "electric_scooter", "name": "a3534a3bdfd1e707fcf11205e2262d25", "is_reserved": 0, "rental_uris": {"ios": "https://dc.lft.to/lastmile_qr_scan", "android": "https://dc.lft.to/lastmile_qr_scan"}}, {"fusion_lat": 0.0, "is_disabled": 0, "lat": 38.88481566666667, "lon": -77.0334575, "fusion_lon": 0.0, "bike_id": "fd1227bb57cb75cc79347a9209e8ec0f", "type": "electric_scooter", "name": "fd1227bb57cb75cc79347a9209e8ec0f", "is_reserved": 0, "rental_uris": {"ios": "https://dc.lft.to/lastmile_qr_scan", "android": "https://dc.lft.to/lastmile_qr_scan"}}, {"fusion_lat": 0.0, "is_disabled": 0, "lat": 38.92326383333333, "lon": -77.03685616666667, "fusion_lon": 0.0, "bike_id": "9edb20f4fee464b43d14c91b4d8c3c09", "type": "electric_scooter", "name": "9edb20f4fee464b43d14c91b4d8c3c09", "is_reserved": 0, "rental_uris": {"ios": "https://dc.lft.to/lastmile_qr_scan", "android": "https://dc.lft.to/lastmile_qr_scan"}}, {"fusion_lat": 0.0, "is_disabled": 0, "lat": 38.918177, "lon": -77.0418955, "fusion_lon": 0.0, "bike_id": "d2357b18a790363c51f9d8e2a8fb77cc", "type": "electric_scooter", "name": "d2357b18a790363c51f9d8e2a8fb77cc", "is_reserved": 0, "rental_uris": {"ios": "https://dc.lft.to/lastmile_qr_scan", "android": "https://dc.lft.to/lastmile_qr_scan"}}, {"fusion_lat": 0.0, "is_disabled": 0, "lat": 38.92681533333333, "lon": -77.02745633333333, "fusion_lon": 0.0, "bike_id": "8508a42fd0859f2bdfffb85a8d913b07", "type": "electric_scooter", "name": "8508a42fd0859f2bdfffb85a8d913b07", "is_reserved": 0, "rental_uris": {"ios": "https://dc.lft.to/lastmile_qr_scan", "android": "https://dc.lft.to/lastmile_qr_scan"}}, {"fusion_lat": 0.0, "is_disabled": 0, "lat": 38.8872035, "lon": -76.99649666666667, "fusion_lon": 0.0, "bike_id": "8713ede17d693ab075c24b0f8ee4b7d6", "type": "electric_scooter", "name": "8713ede17d693ab075c24b0f8ee4b7d6", "is_reserved": 0, "rental_uris": {"ios": "https://dc.lft.to/lastmile_qr_scan", "android": "https://dc.lft.to/lastmile_qr_scan"}}, {"fusion_lat": 0.0, "is_disabled": 0, "lat": 38.90315666666667, "lon": -77.0449025, "fusion_lon": 0.0, "bike_id": "78909787d3a42b4660190e5653919780", "type": "electric_scooter", "name": "78909787d3a42b4660190e5653919780", "is_reserved": 0, "rental_uris": {"ios": "https://dc.lft.to/lastmile_qr_scan", "android": "https://dc.lft.to/lastmile_qr_scan"}}, {"fusion_lat": 0.0, "is_disabled": 0, "lat": 38.926825666666666, "lon": -77.02974483333334, "fusion_lon": 0.0, "bike_id": "2b9b98af3d6baaa8ab125a054fb4e5b5", "type": "electric_scooter", "name": "2b9b98af3d6baaa8ab125a054fb4e5b5", "is_reserved": 0, "rental_uris": {"ios": "https://dc.lft.to/lastmile_qr_scan", "android": "https://dc.lft.to/lastmile_qr_scan"}}, {"fusion_lat": 0.0, "is_disabled": 0, "lat": 38.918086, "lon": -77.03125366666667, "fusion_lon": 0.0, "bike_id": "17486667d4851631fae704af2415f927", "type": "electric_scooter", "name": "17486667d4851631fae704af2415f927", "is_reserved": 0, "rental_uris": {"ios": "https://dc.lft.to/lastmile_qr_scan", "android": "https://dc.lft.to/lastmile_qr_scan"}}, {"fusion_lat": 0.0, "is_disabled": 0, "lat": 38.914086166666664, "lon": -77.04503216666667, "fusion_lon": 0.0, "bike_id": "e82c88371273a3c0662b9a66cfa6c296", "type": "electric_scooter", "name": "e82c88371273a3c0662b9a66cfa6c296", "is_reserved": 0, "rental_uris": {"ios": "https://dc.lft.to/lastmile_qr_scan", "android": "https://dc.lft.to/lastmile_qr_scan"}}, {"fusion_lat": 0.0, "is_disabled": 0, "lat": 38.87067533333333, "lon": -77.11039783333334, "fusion_lon": 0.0, "bike_id": "c4c1b41d04194ca5be52a834756e71e3", "type": "electric_bike", "name": "c4c1b41d04194ca5be52a834756e71e3", "is_reserved": 0, "rental_uris": {"ios": "https://dc.lft.to/lastmile_qr_scan", "android": "https://dc.lft.to/lastmile_qr_scan"}}, {"fusion_lat": 0.0, "is_disabled": 0, "lat": 38.96407966666666, "lon": -77.0329005, "fusion_lon": 0.0, "bike_id": "20bea072ae7a65a11cf907cb43074263", "type": "electric_scooter", "name": "20bea072ae7a65a11cf907cb43074263", "is_reserved": 0, "rental_uris": {"ios": "https://dc.lft.to/lastmile_qr_scan", "android": "https://dc.lft.to/lastmile_qr_scan"}}, {"fusion_lat": 0.0, "is_disabled": 0, "lat": 38.89726316666667, "lon": -77.05526633333334, "fusion_lon": 0.0, "bike_id": "49e797c04cf91b508702ba08acb37304", "type": "electric_scooter", "name": "49e797c04cf91b508702ba08acb37304", "is_reserved": 0, "rental_uris": {"ios": "https://dc.lft.to/lastmile_qr_scan", "android": "https://dc.lft.to/lastmile_qr_scan"}}, {"fusion_lat": 0.0, "is_disabled": 0, "lat": 38.920423666666665, "lon": -77.01680833333333, "fusion_lon": 0.0, "bike_id": "3342bbaef495b7dd4f03a687d04b34e7", "type": "electric_scooter", "name": "3342bbaef495b7dd4f03a687d04b34e7", "is_reserved": 0, "rental_uris": {"ios": "https://dc.lft.to/lastmile_qr_scan", "android": "https://dc.lft.to/lastmile_qr_scan"}}, {"fusion_lat": 0.0, "is_disabled": 0, "lat": 38.874683, "lon": -77.00511833333333, "fusion_lon": 0.0, "bike_id": "f498dd7d337c97374cbf5702da0bdc08", "type": "electric_scooter", "name": "f498dd7d337c97374cbf5702da0bdc08", "is_reserved": 0, "rental_uris": {"ios": "https://dc.lft.to/lastmile_qr_scan", "android": "https://dc.lft.to/lastmile_qr_scan"}}, {"fusion_lat": 0.0, "is_disabled": 0, "lat": 38.9024905, "lon": -77.01500383333334, "fusion_lon": 0.0, "bike_id": "86f68cf51014e6c346985bbcd8d19148", "type": "electric_scooter", "name": "86f68cf51014e6c346985bbcd8d19148", "is_reserved": 0, "rental_uris": {"ios": "https://dc.lft.to/lastmile_qr_scan", "android": "https://dc.lft.to/lastmile_qr_scan"}}, {"fusion_lat": 0.0, "is_disabled": 0, "lat": 38.87175516666667, "lon": -77.00660033333334, "fusion_lon": 0.0, "bike_id": "34067270ae0bb32cfc0b5fd251cdae67", "type": "electric_scooter", "name": "34067270ae0bb32cfc0b5fd251cdae67", "is_reserved": 0, "rental_uris": {"ios": "https://dc.lft.to/lastmile_qr_scan", "android": "https://dc.lft.to/lastmile_qr_scan"}}, {"fusion_lat": 0.0, "is_disabled": 0, "lat": 38.926669833333335, "lon": -77.01466433333333, "fusion_lon": 0.0, "bike_id": "f3f5d43152d567dac10e56747583a5ab", "type": "electric_scooter", "name": "f3f5d43152d567dac10e56747583a5ab", "is_reserved": 0, "rental_uris": {"ios": "https://dc.lft.to/lastmile_qr_scan", "android": "https://dc.lft.to/lastmile_qr_scan"}}, {"fusion_lat": 0.0, "is_disabled": 0, "lat": 38.906978333333335, "lon": -76.98700666666667, "fusion_lon": 0.0, "bike_id": "acf817572d0d570735bab2988f14ad13", "type": "electric_scooter", "name": "acf817572d0d570735bab2988f14ad13", "is_reserved": 0, "rental_uris": {"ios": "https://dc.lft.to/lastmile_qr_scan", "android": "https://dc.lft.to/lastmile_qr_scan"}}, {"fusion_lat": 0.0, "is_disabled": 0, "lat": 38.899090666666666, "lon": -76.93387233333333, "fusion_lon": 0.0, "bike_id": "e3098f5d058fce20f9173f9505254a5c", "type": "electric_scooter", "name": "e3098f5d058fce20f9173f9505254a5c", "is_reserved": 0, "rental_uris": {"ios": "https://dc.lft.to/lastmile_qr_scan", "android": "https://dc.lft.to/lastmile_qr_scan"}}, {"fusion_lat": 0.0, "is_disabled": 0, "lat": 38.92473233333333, "lon": -77.03831083333333, "fusion_lon": 0.0, "bike_id": "4c20f23f507d5c52fa284db1e45beb42", "type": "electric_scooter", "name": "4c20f23f507d5c52fa284db1e45beb42", "is_reserved": 0, "rental_uris": {"ios": "https://dc.lft.to/lastmile_qr_scan", "android": "https://dc.lft.to/lastmile_qr_scan"}}, {"fusion_lat": 0.0, "is_disabled": 0, "lat": 38.81913216666667, "lon": -77.126667, "fusion_lon": 0.0, "bike_id": "edbcde8afddffff7e83426c0cb827f40", "type": "electric_bike", "name": "edbcde8afddffff7e83426c0cb827f40", "is_reserved": 0, "rental_uris": {"ios": "https://dc.lft.to/lastmile_qr_scan", "android": "https://dc.lft.to/lastmile_qr_scan"}}, {"fusion_lat": 0.0, "is_disabled": 0, "lat": 38.90783783333333, "lon": -77.072573, "fusion_lon": 0.0, "bike_id": "7934767b50ee9e12a1a33e9c621f181d", "type": "electric_scooter", "name": "7934767b50ee9e12a1a33e9c621f181d", "is_reserved": 0, "rental_uris": {"ios": "https://dc.lft.to/lastmile_qr_scan", "android": "https://dc.lft.to/lastmile_qr_scan"}}, {"fusion_lat": 0.0, "is_disabled": 0, "lat": 38.9141885, "lon": -77.0317925, "fusion_lon": 0.0, "bike_id": "e8eda91b5ef416a38d1fc9a54fb6fff1", "type": "electric_scooter", "name": "e8eda91b5ef416a38d1fc9a54fb6fff1", "is_reserved": 0, "rental_uris": {"ios": "https://dc.lft.to/lastmile_qr_scan", "android": "https://dc.lft.to/lastmile_qr_scan"}}, {"fusion_lat": 0.0, "is_disabled": 0, "lat": 38.92678683333333, "lon": -77.01494416666667, "fusion_lon": 0.0, "bike_id": "28c83233eaebd2f60b60053acb0f8d34", "type": "electric_scooter", "name": "28c83233eaebd2f60b60053acb0f8d34", "is_reserved": 0, "rental_uris": {"ios": "https://dc.lft.to/lastmile_qr_scan", "android": "https://dc.lft.to/lastmile_qr_scan"}}, {"fusion_lat": 0.0, "is_disabled": 0, "lat": 38.9208415, "lon": -77.02369966666667, "fusion_lon": 0.0, "bike_id": "c76c6d8cc27e20dca7328dc79c1b89d7", "type": "electric_scooter", "name": "c76c6d8cc27e20dca7328dc79c1b89d7", "is_reserved": 0, "rental_uris": {"ios": "https://dc.lft.to/lastmile_qr_scan", "android": "https://dc.lft.to/lastmile_qr_scan"}}, {"fusion_lat": 0.0, "is_disabled": 0, "lat": 38.93643466666666, "lon": -77.02467166666666, "fusion_lon": 0.0, "bike_id": "20c07ae75b3106317c69b21e00da9bb5", "type": "electric_scooter", "name": "20c07ae75b3106317c69b21e00da9bb5", "is_reserved": 0, "rental_uris": {"ios": "https://dc.lft.to/lastmile_qr_scan", "android": "https://dc.lft.to/lastmile_qr_scan"}}, {"fusion_lat": 0.0, "is_disabled": 0, "lat": 38.924428166666665, "lon": -77.0214325, "fusion_lon": 0.0, "bike_id": "bd7a67efa93a3674b6ca8e7f8042c6e1", "type": "electric_scooter", "name": "bd7a67efa93a3674b6ca8e7f8042c6e1", "is_reserved": 0, "rental_uris": {"ios": "https://dc.lft.to/lastmile_qr_scan", "android": "https://dc.lft.to/lastmile_qr_scan"}}, {"fusion_lat": 0.0, "is_disabled": 0, "lat": 38.92041366666667, "lon": -77.024784, "fusion_lon": 0.0, "bike_id": "23717e12c1c704754b9dc99ec5cd5547", "type": "electric_scooter", "name": "23717e12c1c704754b9dc99ec5cd5547", "is_reserved": 0, "rental_uris": {"ios": "https://dc.lft.to/lastmile_qr_scan", "android": "https://dc.lft.to/lastmile_qr_scan"}}, {"fusion_lat": 0.0, "is_disabled": 0, "lat": 38.897139833333334, "lon": -77.02152966666667, "fusion_lon": 0.0, "bike_id": "a0f0441818e1e362874387835e71527f", "type": "electric_scooter", "name": "a0f0441818e1e362874387835e71527f", "is_reserved": 0, "rental_uris": {"ios": "https://dc.lft.to/lastmile_qr_scan", "android": "https://dc.lft.to/lastmile_qr_scan"}}, {"fusion_lat": 0.0, "is_disabled": 0, "lat": 38.9232185, "lon": -77.01958033333334, "fusion_lon": 0.0, "bike_id": "03ef2a2149adad8b0884ff530e5fdc43", "type": "electric_scooter", "name": "03ef2a2149adad8b0884ff530e5fdc43", "is_reserved": 0, "rental_uris": {"ios": "https://dc.lft.to/lastmile_qr_scan", "android": "https://dc.lft.to/lastmile_qr_scan"}}, {"fusion_lat": 0.0, "is_disabled": 0, "lat": 38.93447833333333, "lon": -77.0897105, "fusion_lon": 0.0, "bike_id": "42ecf4a43fef3871909ace5bc53e6f8a", "type": "electric_scooter", "name": "42ecf4a43fef3871909ace5bc53e6f8a", "is_reserved": 0, "rental_uris": {"ios": "https://dc.lft.to/lastmile_qr_scan", "android": "https://dc.lft.to/lastmile_qr_scan"}}, {"fusion_lat": 0.0, "is_disabled": 0, "lat": 38.909708333333334, "lon": -77.04238466666666, "fusion_lon": 0.0, "bike_id": "c64e0d24b6f6d2e44a513ebf686a99fb", "type": "electric_scooter", "name": "c64e0d24b6f6d2e44a513ebf686a99fb", "is_reserved": 0, "rental_uris": {"ios": "https://dc.lft.to/lastmile_qr_scan", "android": "https://dc.lft.to/lastmile_qr_scan"}}, {"fusion_lat": 0.0, "is_disabled": 0, "lat": 38.9178975, "lon": -77.04676966666666, "fusion_lon": 0.0, "bike_id": "e13184573cbb7ee1181003fb709f542f", "type": "electric_scooter", "name": "e13184573cbb7ee1181003fb709f542f", "is_reserved": 0, "rental_uris": {"ios": "https://dc.lft.to/lastmile_qr_scan", "android": "https://dc.lft.to/lastmile_qr_scan"}}, {"fusion_lat": 0.0, "is_disabled": 0, "lat": 38.87972, "lon": -77.024355, "fusion_lon": 0.0, "bike_id": "c16ab942a545aeefd5420863437ffc17", "type": "electric_scooter", "name": "c16ab942a545aeefd5420863437ffc17", "is_reserved": 0, "rental_uris": {"ios": "https://dc.lft.to/lastmile_qr_scan", "android": "https://dc.lft.to/lastmile_qr_scan"}}, {"fusion_lat": 0.0, "is_disabled": 0, "lat": 38.949756666666666, "lon": -77.02438416666666, "fusion_lon": 0.0, "bike_id": "ed099b0b8f94b9d5231b9a8cb2dc19d3", "type": "electric_scooter", "name": "ed099b0b8f94b9d5231b9a8cb2dc19d3", "is_reserved": 0, "rental_uris": {"ios": "https://dc.lft.to/lastmile_qr_scan", "android": "https://dc.lft.to/lastmile_qr_scan"}}, {"fusion_lat": 0.0, "is_disabled": 0, "lat": 38.83043883333333, "lon": -77.00819466666667, "fusion_lon": 0.0, "bike_id": "f9c989e0e25a290eafe674d1c8e2b3da", "type": "electric_bike", "name": "f9c989e0e25a290eafe674d1c8e2b3da", "is_reserved": 0, "rental_uris": {"ios": "https://dc.lft.to/lastmile_qr_scan", "android": "https://dc.lft.to/lastmile_qr_scan"}}, {"fusion_lat": 0.0, "is_disabled": 0, "lat": 38.908525, "lon": -77.01002016666666, "fusion_lon": 0.0, "bike_id": "107c3fd5fecaf8c40eddc3a1129ac501", "type": "electric_scooter", "name": "107c3fd5fecaf8c40eddc3a1129ac501", "is_reserved": 0, "rental_uris": {"ios": "https://dc.lft.to/lastmile_qr_scan", "android": "https://dc.lft.to/lastmile_qr_scan"}}, {"fusion_lat": 0.0, "is_disabled": 0, "lat": 38.97172366666667, "lon": -77.02702783333334, "fusion_lon": 0.0, "bike_id": "34eef1d598b055f5f7666d346b8b571d", "type": "electric_scooter", "name": "34eef1d598b055f5f7666d346b8b571d", "is_reserved": 0, "rental_uris": {"ios": "https://dc.lft.to/lastmile_qr_scan", "android": "https://dc.lft.to/lastmile_qr_scan"}}, {"fusion_lat": 0.0, "is_disabled": 0, "lat": 38.930158166666665, "lon": -77.0619265, "fusion_lon": 0.0, "bike_id": "5a8cbefeb0121ca1702ce09ab1d21187", "type": "electric_scooter", "name": "5a8cbefeb0121ca1702ce09ab1d21187", "is_reserved": 0, "rental_uris": {"ios": "https://dc.lft.to/lastmile_qr_scan", "android": "https://dc.lft.to/lastmile_qr_scan"}}, {"fusion_lat": 0.0, "is_disabled": 0, "lat": 38.89734516666667, "lon": -77.02463983333334, "fusion_lon": 0.0, "bike_id": "8ec4d5844119d2f4a17aa1532c9e4bb6", "type": "electric_scooter", "name": "8ec4d5844119d2f4a17aa1532c9e4bb6", "is_reserved": 0, "rental_uris": {"ios": "https://dc.lft.to/lastmile_qr_scan", "android": "https://dc.lft.to/lastmile_qr_scan"}}, {"fusion_lat": 0.0, "is_disabled": 0, "lat": 38.916866666666664, "lon": -77.02315183333333, "fusion_lon": 0.0, "bike_id": "4a68611f14f9fad18647e41fd745773d", "type": "electric_scooter", "name": "4a68611f14f9fad18647e41fd745773d", "is_reserved": 0, "rental_uris": {"ios": "https://dc.lft.to/lastmile_qr_scan", "android": "https://dc.lft.to/lastmile_qr_scan"}}, {"fusion_lat": 0.0, "is_disabled": 0, "lat": 38.89511, "lon": -76.94886666666666, "fusion_lon": 0.0, "bike_id": "a258bef7f460f5fa6170c29120a7f214", "type": "electric_scooter", "name": "a258bef7f460f5fa6170c29120a7f214", "is_reserved": 0, "rental_uris": {"ios": "https://dc.lft.to/lastmile_qr_scan", "android": "https://dc.lft.to/lastmile_qr_scan"}}, {"fusion_lat": 0.0, "is_disabled": 0, "lat": 38.8973915, "lon": -77.04730016666667, "fusion_lon": 0.0, "bike_id": "5bb7984c812518fe62237df7f0409cab", "type": "electric_scooter", "name": "5bb7984c812518fe62237df7f0409cab", "is_reserved": 0, "rental_uris": {"ios": "https://dc.lft.to/lastmile_qr_scan", "android": "https://dc.lft.to/lastmile_qr_scan"}}, {"fusion_lat": 0.0, "is_disabled": 0, "lat": 38.893571333333334, "lon": -77.04623883333333, "fusion_lon": 0.0, "bike_id": "c77a4e50e76dfe531b39c34a1efc4a34", "type": "electric_scooter", "name": "c77a4e50e76dfe531b39c34a1efc4a34", "is_reserved": 0, "rental_uris": {"ios": "https://dc.lft.to/lastmile_qr_scan", "android": "https://dc.lft.to/lastmile_qr_scan"}}, {"fusion_lat": 0.0, "is_disabled": 0, "lat": 38.897034, "lon": -76.93919716666667, "fusion_lon": 0.0, "bike_id": "eb843449f9e10f33c90fa43ebab41db2", "type": "electric_scooter", "name": "eb843449f9e10f33c90fa43ebab41db2", "is_reserved": 0, "rental_uris": {"ios": "https://dc.lft.to/lastmile_qr_scan", "android": "https://dc.lft.to/lastmile_qr_scan"}}, {"fusion_lat": 0.0, "is_disabled": 0, "lat": 38.94962816666666, "lon": -76.96107866666667, "fusion_lon": 0.0, "bike_id": "fb609cae5006261bd2b51234f91140e7", "type": "electric_bike", "name": "fb609cae5006261bd2b51234f91140e7", "is_reserved": 0, "rental_uris": {"ios": "https://dc.lft.to/lastmile_qr_scan", "android": "https://dc.lft.to/lastmile_qr_scan"}}, {"fusion_lat": 0.0, "is_disabled": 0, "lat": 38.92433033333333, "lon": -77.00320183333334, "fusion_lon": 0.0, "bike_id": "6521256dcab2c4fa90009ef6e21cd08b", "type": "electric_scooter", "name": "6521256dcab2c4fa90009ef6e21cd08b", "is_reserved": 0, "rental_uris": {"ios": "https://dc.lft.to/lastmile_qr_scan", "android": "https://dc.lft.to/lastmile_qr_scan"}}, {"fusion_lat": 0.0, "is_disabled": 0, "lat": 38.89220483333333, "lon": -77.031383, "fusion_lon": 0.0, "bike_id": "1aedc93ef0941ca77518b263c259a909", "type": "electric_scooter", "name": "1aedc93ef0941ca77518b263c259a909", "is_reserved": 0, "rental_uris": {"ios": "https://dc.lft.to/lastmile_qr_scan", "android": "https://dc.lft.to/lastmile_qr_scan"}}, {"fusion_lat": 0.0, "is_disabled": 0, "lat": 38.92376316666667, "lon": -77.04102716666667, "fusion_lon": 0.0, "bike_id": "941ba551ef779437e5ab31d04dc32d6e", "type": "electric_scooter", "name": "941ba551ef779437e5ab31d04dc32d6e", "is_reserved": 0, "rental_uris": {"ios": "https://dc.lft.to/lastmile_qr_scan", "android": "https://dc.lft.to/lastmile_qr_scan"}}, {"fusion_lat": 0.0, "is_disabled": 0, "lat": 38.9180745, "lon": -77.02511866666667, "fusion_lon": 0.0, "bike_id": "6b86d4f15df844b29d9e6e70d95784c1", "type": "electric_scooter", "name": "6b86d4f15df844b29d9e6e70d95784c1", "is_reserved": 0, "rental_uris": {"ios": "https://dc.lft.to/lastmile_qr_scan", "android": "https://dc.lft.to/lastmile_qr_scan"}}, {"fusion_lat": 0.0, "is_disabled": 0, "lat": 38.876563833333336, "lon": -77.01172383333333, "fusion_lon": 0.0, "bike_id": "98f9b3fee8ede92424dbb799ce4671ec", "type": "electric_scooter", "name": "98f9b3fee8ede92424dbb799ce4671ec", "is_reserved": 0, "rental_uris": {"ios": "https://dc.lft.to/lastmile_qr_scan", "android": "https://dc.lft.to/lastmile_qr_scan"}}, {"fusion_lat": 0.0, "is_disabled": 0, "lat": 38.9240195, "lon": -77.02719933333333, "fusion_lon": 0.0, "bike_id": "1195d7709d4fbaf0f5a85b0f7aac63e3", "type": "electric_scooter", "name": "1195d7709d4fbaf0f5a85b0f7aac63e3", "is_reserved": 0, "rental_uris": {"ios": "https://dc.lft.to/lastmile_qr_scan", "android": "https://dc.lft.to/lastmile_qr_scan"}}, {"fusion_lat": 0.0, "is_disabled": 0, "lat": 38.9226065, "lon": -77.019517, "fusion_lon": 0.0, "bike_id": "fc85552fcfbd140b227fc1f781ff0863", "type": "electric_scooter", "name": "fc85552fcfbd140b227fc1f781ff0863", "is_reserved": 0, "rental_uris": {"ios": "https://dc.lft.to/lastmile_qr_scan", "android": "https://dc.lft.to/lastmile_qr_scan"}}, {"fusion_lat": 0.0, "is_disabled": 0, "lat": 38.920321333333334, "lon": -77.02478683333334, "fusion_lon": 0.0, "bike_id": "3628df047b90f968f8b0c4a6fd913736", "type": "electric_scooter", "name": "3628df047b90f968f8b0c4a6fd913736", "is_reserved": 0, "rental_uris": {"ios": "https://dc.lft.to/lastmile_qr_scan", "android": "https://dc.lft.to/lastmile_qr_scan"}}, {"fusion_lat": 0.0, "is_disabled": 0, "lat": 38.914928, "lon": -77.019996, "fusion_lon": 0.0, "bike_id": "5083fc5606ccf20cf61ebd3d5aa09d91", "type": "electric_scooter", "name": "5083fc5606ccf20cf61ebd3d5aa09d91", "is_reserved": 0, "rental_uris": {"ios": "https://dc.lft.to/lastmile_qr_scan", "android": "https://dc.lft.to/lastmile_qr_scan"}}, {"fusion_lat": 0.0, "is_disabled": 0, "lat": 38.85650233333333, "lon": -76.9968035, "fusion_lon": 0.0, "bike_id": "a400a7dc2a3acf3116ab2dc942508af5", "type": "electric_scooter", "name": "a400a7dc2a3acf3116ab2dc942508af5", "is_reserved": 0, "rental_uris": {"ios": "https://dc.lft.to/lastmile_qr_scan", "android": "https://dc.lft.to/lastmile_qr_scan"}}, {"fusion_lat": 0.0, "is_disabled": 0, "lat": 38.88455366666667, "lon": -77.00057666666666, "fusion_lon": 0.0, "bike_id": "994fc0a21f953ccd99a0af3981ee8f1d", "type": "electric_scooter", "name": "994fc0a21f953ccd99a0af3981ee8f1d", "is_reserved": 0, "rental_uris": {"ios": "https://dc.lft.to/lastmile_qr_scan", "android": "https://dc.lft.to/lastmile_qr_scan"}}, {"fusion_lat": 0.0, "is_disabled": 0, "lat": 38.902485, "lon": -77.026552, "fusion_lon": 0.0, "bike_id": "2b02c9ca62df264d878d43721d45de2d", "type": "electric_scooter", "name": "2b02c9ca62df264d878d43721d45de2d", "is_reserved": 0, "rental_uris": {"ios": "https://dc.lft.to/lastmile_qr_scan", "android": "https://dc.lft.to/lastmile_qr_scan"}}, {"fusion_lat": 0.0, "is_disabled": 0, "lat": 38.886397, "lon": -77.00215066666667, "fusion_lon": 0.0, "bike_id": "087be34c0cee61ffe2276b070d69bc1f", "type": "electric_scooter", "name": "087be34c0cee61ffe2276b070d69bc1f", "is_reserved": 0, "rental_uris": {"ios": "https://dc.lft.to/lastmile_qr_scan", "android": "https://dc.lft.to/lastmile_qr_scan"}}, {"fusion_lat": 0.0, "is_disabled": 0, "lat": 38.926303, "lon": -77.07334166666666, "fusion_lon": 0.0, "bike_id": "138e86df905ad25ce3fbb348041eb427", "type": "electric_scooter", "name": "138e86df905ad25ce3fbb348041eb427", "is_reserved": 0, "rental_uris": {"ios": "https://dc.lft.to/lastmile_qr_scan", "android": "https://dc.lft.to/lastmile_qr_scan"}}, {"fusion_lat": 0.0, "is_disabled": 0, "lat": 38.90903433333333, "lon": -77.04314983333333, "fusion_lon": 0.0, "bike_id": "bfbe98115f137c046871ef9285be524b", "type": "electric_scooter", "name": "bfbe98115f137c046871ef9285be524b", "is_reserved": 0, "rental_uris": {"ios": "https://dc.lft.to/lastmile_qr_scan", "android": "https://dc.lft.to/lastmile_qr_scan"}}, {"fusion_lat": 0.0, "is_disabled": 0, "lat": 38.90408033333333, "lon": -77.0534105, "fusion_lon": 0.0, "bike_id": "0034ad33da4835d71a286aa5d6e2b357", "type": "electric_scooter", "name": "0034ad33da4835d71a286aa5d6e2b357", "is_reserved": 0, "rental_uris": {"ios": "https://dc.lft.to/lastmile_qr_scan", "android": "https://dc.lft.to/lastmile_qr_scan"}}, {"fusion_lat": 0.0, "is_disabled": 0, "lat": 38.90868483333333, "lon": -77.0376295, "fusion_lon": 0.0, "bike_id": "cfc942351b43eab4e52c1ca43956f04e", "type": "electric_scooter", "name": "cfc942351b43eab4e52c1ca43956f04e", "is_reserved": 0, "rental_uris": {"ios": "https://dc.lft.to/lastmile_qr_scan", "android": "https://dc.lft.to/lastmile_qr_scan"}}, {"fusion_lat": 0.0, "is_disabled": 0, "lat": 38.93658883333333, "lon": -77.066116, "fusion_lon": 0.0, "bike_id": "a7f3656af7e84c8de67c00072e4c95aa", "type": "electric_scooter", "name": "a7f3656af7e84c8de67c00072e4c95aa", "is_reserved": 0, "rental_uris": {"ios": "https://dc.lft.to/lastmile_qr_scan", "android": "https://dc.lft.to/lastmile_qr_scan"}}, {"fusion_lat": 0.0, "is_disabled": 0, "lat": 38.89814366666667, "lon": -77.02436566666667, "fusion_lon": 0.0, "bike_id": "ede109307215ff0b7d0a5f0943140fcf", "type": "electric_scooter", "name": "ede109307215ff0b7d0a5f0943140fcf", "is_reserved": 0, "rental_uris": {"ios": "https://dc.lft.to/lastmile_qr_scan", "android": "https://dc.lft.to/lastmile_qr_scan"}}, {"fusion_lat": 0.0, "is_disabled": 0, "lat": 38.91607, "lon": -77.02291216666667, "fusion_lon": 0.0, "bike_id": "f23ecd144ac2a1ac314d2e4d7f71cc8a", "type": "electric_scooter", "name": "f23ecd144ac2a1ac314d2e4d7f71cc8a", "is_reserved": 0, "rental_uris": {"ios": "https://dc.lft.to/lastmile_qr_scan", "android": "https://dc.lft.to/lastmile_qr_scan"}}, {"fusion_lat": 0.0, "is_disabled": 0, "lat": 38.9014175, "lon": -77.0293175, "fusion_lon": 0.0, "bike_id": "5e048841320314e2ef3ffd99b971fc3f", "type": "electric_scooter", "name": "5e048841320314e2ef3ffd99b971fc3f", "is_reserved": 0, "rental_uris": {"ios": "https://dc.lft.to/lastmile_qr_scan", "android": "https://dc.lft.to/lastmile_qr_scan"}}, {"fusion_lat": 0.0, "is_disabled": 0, "lat": 38.925105, "lon": -77.00227516666666, "fusion_lon": 0.0, "bike_id": "f6fa3faffb1aa209fe3738d16db0ada0", "type": "electric_scooter", "name": "f6fa3faffb1aa209fe3738d16db0ada0", "is_reserved": 0, "rental_uris": {"ios": "https://dc.lft.to/lastmile_qr_scan", "android": "https://dc.lft.to/lastmile_qr_scan"}}, {"fusion_lat": 0.0, "is_disabled": 0, "lat": 38.88716483333333, "lon": -77.02841166666667, "fusion_lon": 0.0, "bike_id": "13843de46f9e8c972a17287892e76ae8", "type": "electric_scooter", "name": "13843de46f9e8c972a17287892e76ae8", "is_reserved": 0, "rental_uris": {"ios": "https://dc.lft.to/lastmile_qr_scan", "android": "https://dc.lft.to/lastmile_qr_scan"}}, {"fusion_lat": 0.0, "is_disabled": 0, "lat": 38.900471833333334, "lon": -77.04812766666667, "fusion_lon": 0.0, "bike_id": "6a49ab9dc2b08613a19e5edc34965b58", "type": "electric_scooter", "name": "6a49ab9dc2b08613a19e5edc34965b58", "is_reserved": 0, "rental_uris": {"ios": "https://dc.lft.to/lastmile_qr_scan", "android": "https://dc.lft.to/lastmile_qr_scan"}}, {"fusion_lat": 0.0, "is_disabled": 0, "lat": 38.921539833333334, "lon": -77.03511016666667, "fusion_lon": 0.0, "bike_id": "614d1fa1bdabe0ce047640b3d437efa3", "type": "electric_scooter", "name": "614d1fa1bdabe0ce047640b3d437efa3", "is_reserved": 0, "rental_uris": {"ios": "https://dc.lft.to/lastmile_qr_scan", "android": "https://dc.lft.to/lastmile_qr_scan"}}, {"fusion_lat": 0.0, "is_disabled": 0, "lat": 38.873701, "lon": -77.0009865, "fusion_lon": 0.0, "bike_id": "13839fc3681431a726e074ac81ca87a0", "type": "electric_scooter", "name": "13839fc3681431a726e074ac81ca87a0", "is_reserved": 0, "rental_uris": {"ios": "https://dc.lft.to/lastmile_qr_scan", "android": "https://dc.lft.to/lastmile_qr_scan"}}, {"fusion_lat": 0.0, "is_disabled": 0, "lat": 38.92261833333333, "lon": -77.0194295, "fusion_lon": 0.0, "bike_id": "b5e1a447fc98c490e72ecb9bdae083de", "type": "electric_scooter", "name": "b5e1a447fc98c490e72ecb9bdae083de", "is_reserved": 0, "rental_uris": {"ios": "https://dc.lft.to/lastmile_qr_scan", "android": "https://dc.lft.to/lastmile_qr_scan"}}, {"fusion_lat": 0.0, "is_disabled": 0, "lat": 38.9050525, "lon": -77.06868, "fusion_lon": 0.0, "bike_id": "d121322b485072fb51dc7e588caece10", "type": "electric_scooter", "name": "d121322b485072fb51dc7e588caece10", "is_reserved": 0, "rental_uris": {"ios": "https://dc.lft.to/lastmile_qr_scan", "android": "https://dc.lft.to/lastmile_qr_scan"}}, {"fusion_lat": 0.0, "is_disabled": 0, "lat": 38.91651066666667, "lon": -77.0102475, "fusion_lon": 0.0, "bike_id": "e4995fb7fa9ea63c09d38d21b2f16aa8", "type": "electric_scooter", "name": "e4995fb7fa9ea63c09d38d21b2f16aa8", "is_reserved": 0, "rental_uris": {"ios": "https://dc.lft.to/lastmile_qr_scan", "android": "https://dc.lft.to/lastmile_qr_scan"}}, {"fusion_lat": 0.0, "is_disabled": 0, "lat": 38.90532416666667, "lon": -77.04451, "fusion_lon": 0.0, "bike_id": "22d3afddd4ea2b284a6a768f80c2f07f", "type": "electric_scooter", "name": "22d3afddd4ea2b284a6a768f80c2f07f", "is_reserved": 0, "rental_uris": {"ios": "https://dc.lft.to/lastmile_qr_scan", "android": "https://dc.lft.to/lastmile_qr_scan"}}, {"fusion_lat": 0.0, "is_disabled": 0, "lat": 38.938597666666666, "lon": -77.02655016666667, "fusion_lon": 0.0, "bike_id": "e3d3477dd41fc611d9c7d6e82f8848e7", "type": "electric_scooter", "name": "e3d3477dd41fc611d9c7d6e82f8848e7", "is_reserved": 0, "rental_uris": {"ios": "https://dc.lft.to/lastmile_qr_scan", "android": "https://dc.lft.to/lastmile_qr_scan"}}, {"fusion_lat": 0.0, "is_disabled": 0, "lat": 38.917073333333335, "lon": -77.0386605, "fusion_lon": 0.0, "bike_id": "c391f4029406ecee82689f15f07842cc", "type": "electric_scooter", "name": "c391f4029406ecee82689f15f07842cc", "is_reserved": 0, "rental_uris": {"ios": "https://dc.lft.to/lastmile_qr_scan", "android": "https://dc.lft.to/lastmile_qr_scan"}}, {"fusion_lat": 0.0, "is_disabled": 0, "lat": 38.905644333333335, "lon": -77.003908, "fusion_lon": 0.0, "bike_id": "90a9477fb21210657257832467350ae5", "type": "electric_scooter", "name": "90a9477fb21210657257832467350ae5", "is_reserved": 0, "rental_uris": {"ios": "https://dc.lft.to/lastmile_qr_scan", "android": "https://dc.lft.to/lastmile_qr_scan"}}, {"fusion_lat": 0.0, "is_disabled": 0, "lat": 38.926781166666665, "lon": -77.02754683333333, "fusion_lon": 0.0, "bike_id": "3789c695a1f3dde0d976b02a5717b1c8", "type": "electric_scooter", "name": "3789c695a1f3dde0d976b02a5717b1c8", "is_reserved": 0, "rental_uris": {"ios": "https://dc.lft.to/lastmile_qr_scan", "android": "https://dc.lft.to/lastmile_qr_scan"}}, {"fusion_lat": 0.0, "is_disabled": 0, "lat": 38.890110166666666, "lon": -76.93743133333334, "fusion_lon": 0.0, "bike_id": "b8257caee611683cff3ba6d8dbbcb243", "type": "electric_scooter", "name": "b8257caee611683cff3ba6d8dbbcb243", "is_reserved": 0, "rental_uris": {"ios": "https://dc.lft.to/lastmile_qr_scan", "android": "https://dc.lft.to/lastmile_qr_scan"}}, {"fusion_lat": 0.0, "is_disabled": 0, "lat": 38.90643166666667, "lon": -77.00893483333333, "fusion_lon": 0.0, "bike_id": "f733a1a27c11b3b3920f47e9a44e67a1", "type": "electric_scooter", "name": "f733a1a27c11b3b3920f47e9a44e67a1", "is_reserved": 0, "rental_uris": {"ios": "https://dc.lft.to/lastmile_qr_scan", "android": "https://dc.lft.to/lastmile_qr_scan"}}, {"fusion_lat": 0.0, "is_disabled": 0, "lat": 38.92369566666667, "lon": -77.01963416666666, "fusion_lon": 0.0, "bike_id": "521967946d87e8b86f7751f8c8ebcea8", "type": "electric_scooter", "name": "521967946d87e8b86f7751f8c8ebcea8", "is_reserved": 0, "rental_uris": {"ios": "https://dc.lft.to/lastmile_qr_scan", "android": "https://dc.lft.to/lastmile_qr_scan"}}, {"fusion_lat": 0.0, "is_disabled": 0, "lat": 38.94201416666667, "lon": -77.0183605, "fusion_lon": 0.0, "bike_id": "0a0fa661058488c5af556612ffa8c194", "type": "electric_scooter", "name": "0a0fa661058488c5af556612ffa8c194", "is_reserved": 0, "rental_uris": {"ios": "https://dc.lft.to/lastmile_qr_scan", "android": "https://dc.lft.to/lastmile_qr_scan"}}, {"fusion_lat": 0.0, "is_disabled": 0, "lat": 38.87714066666667, "lon": -77.01761016666667, "fusion_lon": 0.0, "bike_id": "74a918407b00d9f7e54bdc72bf428e0c", "type": "electric_scooter", "name": "74a918407b00d9f7e54bdc72bf428e0c", "is_reserved": 0, "rental_uris": {"ios": "https://dc.lft.to/lastmile_qr_scan", "android": "https://dc.lft.to/lastmile_qr_scan"}}, {"fusion_lat": 0.0, "is_disabled": 0, "lat": 38.898232166666666, "lon": -77.03354883333333, "fusion_lon": 0.0, "bike_id": "b7bd493af781638555b2b6336d453415", "type": "electric_scooter", "name": "b7bd493af781638555b2b6336d453415", "is_reserved": 0, "rental_uris": {"ios": "https://dc.lft.to/lastmile_qr_scan", "android": "https://dc.lft.to/lastmile_qr_scan"}}, {"fusion_lat": 0.0, "is_disabled": 0, "lat": 38.9052795, "lon": -77.06039366666667, "fusion_lon": 0.0, "bike_id": "8cd91ba24a29fd6d802b8fe7c687df14", "type": "electric_scooter", "name": "8cd91ba24a29fd6d802b8fe7c687df14", "is_reserved": 0, "rental_uris": {"ios": "https://dc.lft.to/lastmile_qr_scan", "android": "https://dc.lft.to/lastmile_qr_scan"}}, {"fusion_lat": 0.0, "is_disabled": 0, "lat": 38.899088166666665, "lon": -76.93386166666667, "fusion_lon": 0.0, "bike_id": "094f8c9de893827ce2801f01c6afcc79", "type": "electric_scooter", "name": "094f8c9de893827ce2801f01c6afcc79", "is_reserved": 0, "rental_uris": {"ios": "https://dc.lft.to/lastmile_qr_scan", "android": "https://dc.lft.to/lastmile_qr_scan"}}, {"fusion_lat": 0.0, "is_disabled": 0, "lat": 38.89218133333333, "lon": -77.027453, "fusion_lon": 0.0, "bike_id": "a140c571416de192369e3a26a1e2a626", "type": "electric_scooter", "name": "a140c571416de192369e3a26a1e2a626", "is_reserved": 0, "rental_uris": {"ios": "https://dc.lft.to/lastmile_qr_scan", "android": "https://dc.lft.to/lastmile_qr_scan"}}, {"fusion_lat": 0.0, "is_disabled": 0, "lat": 38.92195516666666, "lon": -77.04237816666667, "fusion_lon": 0.0, "bike_id": "6901a363af4371762ef67dd17ccb74cd", "type": "electric_scooter", "name": "6901a363af4371762ef67dd17ccb74cd", "is_reserved": 0, "rental_uris": {"ios": "https://dc.lft.to/lastmile_qr_scan", "android": "https://dc.lft.to/lastmile_qr_scan"}}, {"fusion_lat": 0.0, "is_disabled": 0, "lat": 38.804019333333336, "lon": -77.11331166666666, "fusion_lon": 0.0, "bike_id": "8dfc516529c50e05cf9352522d32de40", "type": "electric_bike", "name": "8dfc516529c50e05cf9352522d32de40", "is_reserved": 0, "rental_uris": {"ios": "https://dc.lft.to/lastmile_qr_scan", "android": "https://dc.lft.to/lastmile_qr_scan"}}, {"fusion_lat": 0.0, "is_disabled": 0, "lat": 38.917151833333335, "lon": -77.03441566666666, "fusion_lon": 0.0, "bike_id": "fc92ffe9f5a4ffecbde03ceae647c544", "type": "electric_scooter", "name": "fc92ffe9f5a4ffecbde03ceae647c544", "is_reserved": 0, "rental_uris": {"ios": "https://dc.lft.to/lastmile_qr_scan", "android": "https://dc.lft.to/lastmile_qr_scan"}}, {"fusion_lat": 0.0, "is_disabled": 0, "lat": 38.910555, "lon": -77.0409765, "fusion_lon": 0.0, "bike_id": "5bd19acda8581597890af60dcbb6603e", "type": "electric_scooter", "name": "5bd19acda8581597890af60dcbb6603e", "is_reserved": 0, "rental_uris": {"ios": "https://dc.lft.to/lastmile_qr_scan", "android": "https://dc.lft.to/lastmile_qr_scan"}}, {"fusion_lat": 0.0, "is_disabled": 0, "lat": 38.9072675, "lon": -77.04566166666666, "fusion_lon": 0.0, "bike_id": "a8b0ba069230648204ba29b3a5e949d4", "type": "electric_scooter", "name": "a8b0ba069230648204ba29b3a5e949d4", "is_reserved": 0, "rental_uris": {"ios": "https://dc.lft.to/lastmile_qr_scan", "android": "https://dc.lft.to/lastmile_qr_scan"}}, {"fusion_lat": 0.0, "is_disabled": 0, "lat": 38.8721155, "lon": -77.01610816666667, "fusion_lon": 0.0, "bike_id": "2d8c5f7a19394212c4f58071b5965ffe", "type": "electric_scooter", "name": "2d8c5f7a19394212c4f58071b5965ffe", "is_reserved": 0, "rental_uris": {"ios": "https://dc.lft.to/lastmile_qr_scan", "android": "https://dc.lft.to/lastmile_qr_scan"}}, {"fusion_lat": 0.0, "is_disabled": 0, "lat": 38.9109525, "lon": -77.073471, "fusion_lon": 0.0, "bike_id": "5fd799b540d429a70dd83626d6e9ff23", "type": "electric_scooter", "name": "5fd799b540d429a70dd83626d6e9ff23", "is_reserved": 0, "rental_uris": {"ios": "https://dc.lft.to/lastmile_qr_scan", "android": "https://dc.lft.to/lastmile_qr_scan"}}, {"fusion_lat": 0.0, "is_disabled": 0, "lat": 38.900558833333335, "lon": -76.98703033333334, "fusion_lon": 0.0, "bike_id": "5dd8c5ea13cd783943be8bc0457cb55a", "type": "electric_scooter", "name": "5dd8c5ea13cd783943be8bc0457cb55a", "is_reserved": 0, "rental_uris": {"ios": "https://dc.lft.to/lastmile_qr_scan", "android": "https://dc.lft.to/lastmile_qr_scan"}}, {"fusion_lat": 0.0, "is_disabled": 0, "lat": 38.900540666666664, "lon": -77.0318395, "fusion_lon": 0.0, "bike_id": "9586fd25c55db7d0b7c7253f76b324de", "type": "electric_scooter", "name": "9586fd25c55db7d0b7c7253f76b324de", "is_reserved": 0, "rental_uris": {"ios": "https://dc.lft.to/lastmile_qr_scan", "android": "https://dc.lft.to/lastmile_qr_scan"}}, {"fusion_lat": 0.0, "is_disabled": 0, "lat": 38.91546016666667, "lon": -77.0318135, "fusion_lon": 0.0, "bike_id": "439202c19295f510bab2051c841e4641", "type": "electric_scooter", "name": "439202c19295f510bab2051c841e4641", "is_reserved": 0, "rental_uris": {"ios": "https://dc.lft.to/lastmile_qr_scan", "android": "https://dc.lft.to/lastmile_qr_scan"}}, {"fusion_lat": 0.0, "is_disabled": 0, "lat": 38.916795666666665, "lon": -77.02718783333333, "fusion_lon": 0.0, "bike_id": "6b72e46ef639cab1189c1733c0fc3227", "type": "electric_scooter", "name": "6b72e46ef639cab1189c1733c0fc3227", "is_reserved": 0, "rental_uris": {"ios": "https://dc.lft.to/lastmile_qr_scan", "android": "https://dc.lft.to/lastmile_qr_scan"}}, {"fusion_lat": 0.0, "is_disabled": 0, "lat": 38.882398333333335, "lon": -76.99490416666667, "fusion_lon": 0.0, "bike_id": "76aa012eda6954a283e10990221aab4d", "type": "electric_scooter", "name": "76aa012eda6954a283e10990221aab4d", "is_reserved": 0, "rental_uris": {"ios": "https://dc.lft.to/lastmile_qr_scan", "android": "https://dc.lft.to/lastmile_qr_scan"}}, {"fusion_lat": 0.0, "is_disabled": 0, "lat": 38.8982665, "lon": -77.02981083333333, "fusion_lon": 0.0, "bike_id": "2336267f3267e3bbdad43e0b2e139212", "type": "electric_scooter", "name": "2336267f3267e3bbdad43e0b2e139212", "is_reserved": 0, "rental_uris": {"ios": "https://dc.lft.to/lastmile_qr_scan", "android": "https://dc.lft.to/lastmile_qr_scan"}}, {"fusion_lat": 0.0, "is_disabled": 0, "lat": 38.87641033333333, "lon": -77.0009175, "fusion_lon": 0.0, "bike_id": "7caf94b53fdd40a3d9fa1febd3c5899f", "type": "electric_scooter", "name": "7caf94b53fdd40a3d9fa1febd3c5899f", "is_reserved": 0, "rental_uris": {"ios": "https://dc.lft.to/lastmile_qr_scan", "android": "https://dc.lft.to/lastmile_qr_scan"}}, {"fusion_lat": 0.0, "is_disabled": 0, "lat": 38.91537066666667, "lon": -77.032193, "fusion_lon": 0.0, "bike_id": "28568c4eefcd8c645a4ff6acd62109c0", "type": "electric_scooter", "name": "28568c4eefcd8c645a4ff6acd62109c0", "is_reserved": 0, "rental_uris": {"ios": "https://dc.lft.to/lastmile_qr_scan", "android": "https://dc.lft.to/lastmile_qr_scan"}}, {"fusion_lat": 0.0, "is_disabled": 0, "lat": 38.9165745, "lon": -77.044043, "fusion_lon": 0.0, "bike_id": "50a29b913b1bd1fe995c7e7815c22221", "type": "electric_scooter", "name": "50a29b913b1bd1fe995c7e7815c22221", "is_reserved": 0, "rental_uris": {"ios": "https://dc.lft.to/lastmile_qr_scan", "android": "https://dc.lft.to/lastmile_qr_scan"}}, {"fusion_lat": 0.0, "is_disabled": 0, "lat": 38.89490466666667, "lon": -76.99504933333333, "fusion_lon": 0.0, "bike_id": "d0d53b676b19678f06587be4a4a5e962", "type": "electric_scooter", "name": "d0d53b676b19678f06587be4a4a5e962", "is_reserved": 0, "rental_uris": {"ios": "https://dc.lft.to/lastmile_qr_scan", "android": "https://dc.lft.to/lastmile_qr_scan"}}, {"fusion_lat": 0.0, "is_disabled": 0, "lat": 38.9248535, "lon": -77.02277133333334, "fusion_lon": 0.0, "bike_id": "2580347838b6945e313a3ef20f843391", "type": "electric_scooter", "name": "2580347838b6945e313a3ef20f843391", "is_reserved": 0, "rental_uris": {"ios": "https://dc.lft.to/lastmile_qr_scan", "android": "https://dc.lft.to/lastmile_qr_scan"}}, {"fusion_lat": 0.0, "is_disabled": 0, "lat": 38.905961, "lon": -77.04143233333333, "fusion_lon": 0.0, "bike_id": "b5634cebb9f6e2bc1d9165155bc183fb", "type": "electric_scooter", "name": "b5634cebb9f6e2bc1d9165155bc183fb", "is_reserved": 0, "rental_uris": {"ios": "https://dc.lft.to/lastmile_qr_scan", "android": "https://dc.lft.to/lastmile_qr_scan"}}, {"fusion_lat": 0.0, "is_disabled": 0, "lat": 38.89764266666667, "lon": -77.02574366666667, "fusion_lon": 0.0, "bike_id": "d6a889eda95f539ea8dd5a0d08e5e5f7", "type": "electric_scooter", "name": "d6a889eda95f539ea8dd5a0d08e5e5f7", "is_reserved": 0, "rental_uris": {"ios": "https://dc.lft.to/lastmile_qr_scan", "android": "https://dc.lft.to/lastmile_qr_scan"}}, {"fusion_lat": 0.0, "is_disabled": 0, "lat": 38.91698683333333, "lon": -77.037683, "fusion_lon": 0.0, "bike_id": "c73f56854a1d50f39196a45a4d3776d9", "type": "electric_scooter", "name": "c73f56854a1d50f39196a45a4d3776d9", "is_reserved": 0, "rental_uris": {"ios": "https://dc.lft.to/lastmile_qr_scan", "android": "https://dc.lft.to/lastmile_qr_scan"}}, {"fusion_lat": 0.0, "is_disabled": 0, "lat": 38.88192983333333, "lon": -77.01744816666667, "fusion_lon": 0.0, "bike_id": "827d087ddcbdfa3582b73d5489acb6d8", "type": "electric_scooter", "name": "827d087ddcbdfa3582b73d5489acb6d8", "is_reserved": 0, "rental_uris": {"ios": "https://dc.lft.to/lastmile_qr_scan", "android": "https://dc.lft.to/lastmile_qr_scan"}}, {"fusion_lat": 0.0, "is_disabled": 0, "lat": 38.925520166666665, "lon": -77.0215865, "fusion_lon": 0.0, "bike_id": "a3e4f5461c0366ccf94a01042dde2417", "type": "electric_scooter", "name": "a3e4f5461c0366ccf94a01042dde2417", "is_reserved": 0, "rental_uris": {"ios": "https://dc.lft.to/lastmile_qr_scan", "android": "https://dc.lft.to/lastmile_qr_scan"}},