{"data": {"bikes": [{"lat": 38.86658766666667, "is_disabled": 0, "type": "electric_scooter", "lon": -76.988857, "bike_id": "baa165bcaa366ab6f35bde5435471c2c", "fusion_lat": 0.0, "name": "baa165bcaa366ab6f35bde5435471c2c", "is_reserved": 0, "rental_uris": {"android": "https://dc.lft.to/lastmile_qr_scan", "ios": "https://dc.lft.to/lastmile_qr_scan"}, "fusion_lon": 0.0}, {"lat": 38.9135655, "is_disabled": 0, "type": "electric_scooter", "lon": -77.06927933333333, "bike_id": "cc310bbe994185b84aa36bf8b8710179", "fusion_lat": 0.0, "name": "cc310bbe994185b84aa36bf8b8710179", "is_reserved": 0, "rental_uris": {"android": "https://dc.lft.to/lastmile_qr_scan", "ios": "https://dc.lft.to/lastmile_qr_scan"}, "fusion_lon": 0.0}, {"lat": 38.91422983333333, "is_disabled": 0, "type": "electric_scooter", "lon": -77.02927133333333, "bike_id": "c9b85efdcb3008e1b0132141ac1602ef", "fusion_lat": 0.0, "name": "c9b85efdcb3008e1b0132141ac1602ef", "is_reserved": 0, "rental_uris": {"android": "https://dc.lft.to/lastmile_qr_scan", "ios": "https://dc.lft.to/lastmile_qr_scan"}, "fusion_lon": 0.0}, {"lat": 38.921686, "is_disabled": 0, "type": "electric_scooter", "lon": -77.03348483333333, "bike_id": "0d1090b38285c91ea265d46a6081a3c6", "fusion_lat": 0.0, "name": "0d1090b38285c91ea265d46a6081a3c6", "is_reserved": 0, "rental_uris": {"android": "https://dc.lft.to/lastmile_qr_scan", "ios": "https://dc.lft.to/lastmile_qr_scan"}, "fusion_lon": 0.0}, {"lat": 38.9232265, "is_disabled": 0, "type": "electric_scooter", "lon": -77.039669, "bike_id": "6fef223851a3a6ba82241cba8bce1eba", "fusion_lat": 0.0, "name": "6fef223851a3a6ba82241cba8bce1eba", "is_reserved": 0, "rental_uris": {"android": "https://dc.lft.to/lastmile_qr_scan", "ios": "https://dc.lft.to/lastmile_qr_scan"}, "fusion_lon": 0.0}, {"lat": 38.93145466666667, "is_disabled": 0, "type": "electric_scooter", "lon": -77.04147466666667, "bike_id": "962364acb3231676bf1e52ddf5546519", "fusion_lat": 0.0, "name": "962364acb3231676bf1e52ddf5546519", "is_reserved": 0, "rental_uris": {"android": "https://dc.lft.to/lastmile_qr_scan", "ios": "https://dc.lft.to/lastmile_qr_scan"}, "fusion_lon": 0.0}, {"lat": 38.9063435, "is_disabled": 0, "type": "electric_scooter", "lon": -77.02693583333334, "bike_id": "ccbe50e1f87502da7dd24570e83a2b1e", "fusion_lat": 0.0, "name": "ccbe50e1f87502da7dd24570e83a2b1e", "is_reserved": 0, "rental_uris": {"android": "https://dc.lft.to/lastmile_qr_scan", "ios": "https://dc.lft.to/lastmile_qr_scan"}, "fusion_lon": 0.0}, {"lat": 38.9080485, "is_disabled": 0, "type": "electric_scooter", "lon": -77.06360616666667, "bike_id": "0eed97637526f88123f8c86c79be148c", "fusion_lat": 0.0, "name": "0eed97637526f88123f8c86c79be148c", "is_reserved": 0, "rental_uris": {"android": "https://dc.lft.to/lastmile_qr_scan", "ios": "https://dc.lft.to/lastmile_qr_scan"}, "fusion_lon": 0.0}, {"lat": 38.88488366666667, "is_disabled": 0, "type": "electric_scooter", "lon": -77.034744, "bike_id": "bff6540d63973db42f0404bc303620fe", "fusion_lat": 0.0, "name": "bff6540d63973db42f0404bc303620fe", "is_reserved": 0, "rental_uris": {"android": "https://dc.lft.to/lastmile_qr_scan", "ios": "https://dc.lft.to/lastmile_qr_scan"}, "fusion_lon": 0.0}, {"lat": 38.91488783333333, "is_disabled": 0, "type": "electric_scooter", "lon": -77.03252583333334, "bike_id": "36422edd4f37dcb591893aa14069dda2", "fusion_lat": 0.0, "name": "36422edd4f37dcb591893aa14069dda2", "is_reserved": 0, "rental_uris": {"android": "https://dc.lft.to/lastmile_qr_scan", "ios": "https://dc.lft.to/lastmile_qr_scan"}, "fusion_lon": 0.0}, {"lat": 38.92262266666667, "is_disabled": 0, "type": "electric_scooter", "lon": -77.04304766666667, "bike_id": "ff36d1b240da32a0102582bb9816c974", "fusion_lat": 0.0, "name": "ff36d1b240da32a0102582bb9816c974", "is_reserved": 0, "rental_uris": {"android": "https://dc.lft.to/lastmile_qr_scan", "ios": "https://dc.lft.to/lastmile_qr_scan"}, "fusion_lon": 0.0}, {"lat": 38.9253115, "is_disabled": 0, "type": "electric_scooter", "lon": -77.04426, "bike_id": "9155268043d2ee7c8cbb08d797cc30f4", "fusion_lat": 0.0, "name": "9155268043d2ee7c8cbb08d797cc30f4", "is_reserved": 0, "rental_uris": {"android": "https://dc.lft.to/lastmile_qr_scan", "ios": "https://dc.lft.to/lastmile_qr_scan"}, "fusion_lon": 0.0}, {"lat": 38.9004895, "is_disabled": 0, "type": "electric_scooter", "lon": -76.99381116666666, "bike_id": "970d18719e140a523f3de61200643c3f", "fusion_lat": 0.0, "name": "970d18719e140a523f3de61200643c3f", "is_reserved": 0, "rental_uris": {"android": "https://dc.lft.to/lastmile_qr_scan", "ios": "https://dc.lft.to/lastmile_qr_scan"}, "fusion_lon": 0.0}, {"lat": 38.90402366666667, "is_disabled": 0, "type": "electric_scooter", "lon": -77.03831233333334, "bike_id": "935166894f3840e4342884ffa9cf5d97", "fusion_lat": 0.0, "name": "935166894f3840e4342884ffa9cf5d97", "is_reserved": 0, "rental_uris": {"android": "https://dc.lft.to/lastmile_qr_scan", "ios": "https://dc.lft.to/lastmile_qr_scan"}, "fusion_lon": 0.0}, {"lat": 38.929605, "is_disabled": 0, "type": "electric_scooter", "lon": -77.036102, "bike_id": "369f137589c35a222c460ee54de8e695", "fusion_lat": 0.0, "name": "369f137589c35a222c460ee54de8e695", "is_reserved": 0, "rental_uris": {"android": "https://dc.lft.to/lastmile_qr_scan", "ios": "https://dc.lft.to/lastmile_qr_scan"}, "fusion_lon": 0.0}, {"lat": 38.928611, "is_disabled": 0, "type": "electric_bike", "lon": -77.106779, "bike_id": "ed66e9d6580b7a254024bf4eb0014894", "fusion_lat": 0.0, "name": "ed66e9d6580b7a254024bf4eb0014894", "is_reserved": 0, "rental_uris": {"android": "https://dc.lft.to/lastmile_qr_scan", "ios": "https://dc.lft.to/lastmile_qr_scan"}, "fusion_lon": 0.0}, {"lat": 38.921952, "is_disabled": 0, "type": "electric_scooter", "lon": -77.0413445, "bike_id": "6821602b1e555da2a34941d1d02216ce", "fusion_lat": 0.0, "name": "6821602b1e555da2a34941d1d02216ce", "is_reserved": 0, "rental_uris": {"android": "https://dc.lft.to/lastmile_qr_scan", "ios": "https://dc.lft.to/lastmile_qr_scan"}, "fusion_lon": 0.0}, {"lat": 38.90274933333333, "is_disabled": 0, "type": "electric_scooter", "lon": -77.002126, "bike_id": "a65eb3752d6e717e5be84c70928adebe", "fusion_lat": 0.0, "name": "a65eb3752d6e717e5be84c70928adebe", "is_reserved": 0, "rental_uris": {"android": "https://dc.lft.to/lastmile_qr_scan", "ios": "https://dc.lft.to/lastmile_qr_scan"}, "fusion_lon": 0.0}, {"lat": 38.9364225, "is_disabled": 0, "type": "electric_scooter", "lon": -77.02495733333333, "bike_id": "f672ba32293d57a60762b3a9d93b84a0", "fusion_lat": 0.0, "name": "f672ba32293d57a60762b3a9d93b84a0", "is_reserved": 0, "rental_uris": {"android": "https://dc.lft.to/lastmile_qr_scan", "ios": "https://dc.lft.to/lastmile_qr_scan"}, "fusion_lon": 0.0}, {"lat": 38.90996233333333, "is_disabled": 0, "type": "electric_scooter", "lon": -77.045029, "bike_id": "d94c9655c255ba6de3a877e1d975ec8c", "fusion_lat": 0.0, "name": "d94c9655c255ba6de3a877e1d975ec8c", "is_reserved": 0, "rental_uris": {"android": "https://dc.lft.to/lastmile_qr_scan", "ios": "https://dc.lft.to/lastmile_qr_scan"}, "fusion_lon": 0.0}, {"lat": 38.93099333333333, "is_disabled": 0, "type": "electric_scooter", "lon": -77.0256285, "bike_id": "a94619bcd8a261ea1bfbff6157d64a8c", "fusion_lat": 0.0, "name": "a94619bcd8a261ea1bfbff6157d64a8c", "is_reserved": 0, "rental_uris": {"android": "https://dc.lft.to/lastmile_qr_scan", "ios": "https://dc.lft.to/lastmile_qr_scan"}, "fusion_lon": 0.0}, {"lat": 38.9336055, "is_disabled": 0, "type": "electric_scooter", "lon": -77.07376416666666, "bike_id": "b424dcde5ce2b1ce7d397e3cff09b95d", "fusion_lat": 0.0, "name": "b424dcde5ce2b1ce7d397e3cff09b95d", "is_reserved": 0, "rental_uris": {"android": "https://dc.lft.to/lastmile_qr_scan", "ios": "https://dc.lft.to/lastmile_qr_scan"}, "fusion_lon": 0.0}, {"lat": 38.892552, "is_disabled": 0, "type": "electric_scooter", "lon": -77.04892316666667, "bike_id": "07a3575dac7fefd9f3f9300318cdf23d", "fusion_lat": 0.0, "name": "07a3575dac7fefd9f3f9300318cdf23d", "is_reserved": 0, "rental_uris": {"android": "https://dc.lft.to/lastmile_qr_scan", "ios": "https://dc.lft.to/lastmile_qr_scan"}, "fusion_lon": 0.0}, {"lat": 38.87675183333333, "is_disabled": 0, "type": "electric_scooter", "lon": -77.00890966666667, "bike_id": "78114690a07e8de2f8a0726b4bc46d74", "fusion_lat": 0.0, "name": "78114690a07e8de2f8a0726b4bc46d74", "is_reserved": 0, "rental_uris": {"android": "https://dc.lft.to/lastmile_qr_scan", "ios": "https://dc.lft.to/lastmile_qr_scan"}, "fusion_lon": 0.0}, {"lat": 38.89833683333333, "is_disabled": 0, "type": "electric_scooter", "lon": -76.93109933333334, "bike_id": "babffb8cd5f8ceda28686542304cf4a2", "fusion_lat": 0.0, "name": "babffb8cd5f8ceda28686542304cf4a2", "is_reserved": 0, "rental_uris": {"android": "https://dc.lft.to/lastmile_qr_scan", "ios": "https://dc.lft.to/lastmile_qr_scan"}, "fusion_lon": 0.0}, {"lat": 38.9693805, "is_disabled": 0, "type": "electric_bike", "lon": -77.02621733333334, "bike_id": "7f992271793201ad9c2ec502922b1a1f", "fusion_lat": 0.0, "name": "7f992271793201ad9c2ec502922b1a1f", "is_reserved": 0, "rental_uris": {"android": "https://dc.lft.to/lastmile_qr_scan", "ios": "https://dc.lft.to/lastmile_qr_scan"}, "fusion_lon": 0.0}, {"lat": 38.90865383333333, "is_disabled": 0, "type": "electric_bike", "lon": -76.93160516666667, "bike_id": "3e22e562f41201eac1f123d9a2b89c32", "fusion_lat": 0.0, "name": "3e22e562f41201eac1f123d9a2b89c32", "is_reserved": 0, "rental_uris": {"android": "https://dc.lft.to/lastmile_qr_scan", "ios": "https://dc.lft.to/lastmile_qr_scan"}, "fusion_lon": 0.0}, {"lat": 38.903187, "is_disabled": 0, "type": "electric_scooter", "lon": -76.99000733333334, "bike_id": "1d09af3bc6cc414192ed5fd0951d09e4", "fusion_lat": 0.0, "name": "1d09af3bc6cc414192ed5fd0951d09e4", "is_reserved": 0, "rental_uris": {"android": "https://dc.lft.to/lastmile_qr_scan", "ios": "https://dc.lft.to/lastmile_qr_scan"}, "fusion_lon": 0.0}, {"lat": 38.90748033333333, "is_disabled": 0, "type": "electric_scooter", "lon": -77.0318025, "bike_id": "dd35cf939f3c481bc50d8000077e3776", "fusion_lat": 0.0, "name": "dd35cf939f3c481bc50d8000077e3776", "is_reserved": 0, "rental_uris": {"android": "https://dc.lft.to/lastmile_qr_scan", "ios": "https://dc.lft.to/lastmile_qr_scan"}, "fusion_lon": 0.0}, {"lat": 38.90461466666667, "is_disabled": 0, "type": "electric_scooter", "lon": -76.9945665, "bike_id": "0d08a469e486d772334abc114027622d", "fusion_lat": 0.0, "name": "0d08a469e486d772334abc114027622d", "is_reserved": 0, "rental_uris": {"android": "https://dc.lft.to/lastmile_qr_scan", "ios": "https://dc.lft.to/lastmile_qr_scan"}, "fusion_lon": 0.0}, {"lat": 38.90611033333333, "is_disabled": 0, "type": "electric_scooter", "lon": -77.0635145, "bike_id": "a58e997f0ec2f9e381cb3049521a68ac", "fusion_lat": 0.0, "name": "a58e997f0ec2f9e381cb3049521a68ac", "is_reserved": 0, "rental_uris": {"android": "https://dc.lft.to/lastmile_qr_scan", "ios": "https://dc.lft.to/lastmile_qr_scan"}, "fusion_lon": 0.0}, {"lat": 38.92084883333333, "is_disabled": 0, "type": "electric_bike", "lon": -76.99188683333334, "bike_id": "5b04dbc826c8061f73bca05d49b21cd3", "fusion_lat": 0.0, "name": "5b04dbc826c8061f73bca05d49b21cd3", "is_reserved": 0, "rental_uris": {"android": "https://dc.lft.to/lastmile_qr_scan", "ios": "https://dc.lft.to/lastmile_qr_scan"}, "fusion_lon": 0.0}, {"lat": 38.89721516666667, "is_disabled": 0, "type": "electric_scooter", "lon": -77.00800533333333, "bike_id": "6bc745618c5e019e7cee64838b42e660", "fusion_lat": 0.0, "name": "6bc745618c5e019e7cee64838b42e660", "is_reserved": 0, "rental_uris": {"android": "https://dc.lft.to/lastmile_qr_scan", "ios": "https://dc.lft.to/lastmile_qr_scan"}, "fusion_lon": 0.0}, {"lat": 38.89753733333333, "is_disabled": 0, "type": "electric_scooter", "lon": -77.04771516666666, "bike_id": "7a45b3926afdfa0ee439e3564b2aac41", "fusion_lat": 0.0, "name": "7a45b3926afdfa0ee439e3564b2aac41", "is_reserved": 0, "rental_uris": {"android": "https://dc.lft.to/lastmile_qr_scan", "ios": "https://dc.lft.to/lastmile_qr_scan"}, "fusion_lon": 0.0}, {"lat": 38.9307915, "is_disabled": 0, "type": "electric_scooter", "lon": -76.99077766666667, "bike_id": "8a707606ef2d900ec597df634616e914", "fusion_lat": 0.0, "name": "8a707606ef2d900ec597df634616e914", "is_reserved": 0, "rental_uris": {"android": "https://dc.lft.to/lastmile_qr_scan", "ios": "https://dc.lft.to/lastmile_qr_scan"}, "fusion_lon": 0.0}, {"lat": 38.908351, "is_disabled": 0, "type": "electric_scooter", "lon": -77.06383, "bike_id": "bddf27f1562dacb7fee4164407ee7ba6", "fusion_lat": 0.0, "name": "bddf27f1562dacb7fee4164407ee7ba6", "is_reserved": 0, "rental_uris": {"android": "https://dc.lft.to/lastmile_qr_scan", "ios": "https://dc.lft.to/lastmile_qr_scan"}, "fusion_lon": 0.0}, {"lat": 38.91939633333333, "is_disabled": 0, "type": "electric_scooter", "lon": -77.023028, "bike_id": "bd374bbc4d5efeb45decd27162335290", "fusion_lat": 0.0, "name": "bd374bbc4d5efeb45decd27162335290", "is_reserved": 0, "rental_uris": {"android": "https://dc.lft.to/lastmile_qr_scan", "ios": "https://dc.lft.to/lastmile_qr_scan"}, "fusion_lon": 0.0}, {"lat": 38.90689233333333, "is_disabled": 0, "type": "electric_scooter", "lon": -77.03766283333333, "bike_id": "9913219839d2830346374d5e05e6435d", "fusion_lat": 0.0, "name": "9913219839d2830346374d5e05e6435d", "is_reserved": 0, "rental_uris": {"android": "https://dc.lft.to/lastmile_qr_scan", "ios": "https://dc.lft.to/lastmile_qr_scan"}, "fusion_lon": 0.0}, {"lat": 38.92244766666666, "is_disabled": 0, "type": "electric_scooter", "lon": -77.04575466666667, "bike_id": "9603af9b7954ef5cfe2ab654fc693a37", "fusion_lat": 0.0, "name": "9603af9b7954ef5cfe2ab654fc693a37", "is_reserved": 0, "rental_uris": {"android": "https://dc.lft.to/lastmile_qr_scan", "ios": "https://dc.lft.to/lastmile_qr_scan"}, "fusion_lon": 0.0}, {"lat": 38.850556, "is_disabled": 0, "type": "electric_bike", "lon": -76.97314116666666, "bike_id": "582d91db7a7eff7d6d5bc61ee97815cc", "fusion_lat": 0.0, "name": "582d91db7a7eff7d6d5bc61ee97815cc", "is_reserved": 0, "rental_uris": {"android": "https://dc.lft.to/lastmile_qr_scan", "ios": "https://dc.lft.to/lastmile_qr_scan"}, "fusion_lon": 0.0}, {"lat": 38.89231016666667, "is_disabled": 0, "type": "electric_scooter", "lon": -77.0334125, "bike_id": "5b8529c9d7cd400a85b26620bb21efe2", "fusion_lat": 0.0, "name": "5b8529c9d7cd400a85b26620bb21efe2", "is_reserved": 0, "rental_uris": {"android": "https://dc.lft.to/lastmile_qr_scan", "ios": "https://dc.lft.to/lastmile_qr_scan"}, "fusion_lon": 0.0}, {"lat": 38.90273366666667, "is_disabled": 0, "type": "electric_scooter", "lon": -77.0526165, "bike_id": "697032c377239e9955ed2713df4b7427", "fusion_lat": 0.0, "name": "697032c377239e9955ed2713df4b7427", "is_reserved": 0, "rental_uris": {"android": "https://dc.lft.to/lastmile_qr_scan", "ios": "https://dc.lft.to/lastmile_qr_scan"}, "fusion_lon": 0.0}, {"lat": 38.902894833333335, "is_disabled": 0, "type": "electric_scooter", "lon": -77.036463, "bike_id": "f85f34af1e9eb2bc78bdab4cf6285d43", "fusion_lat": 0.0, "name": "f85f34af1e9eb2bc78bdab4cf6285d43", "is_reserved": 0, "rental_uris": {"android": "https://dc.lft.to/lastmile_qr_scan", "ios": "https://dc.lft.to/lastmile_qr_scan"}, "fusion_lon": 0.0}, {"lat": 38.903506666666665, "is_disabled": 0, "type": "electric_scooter", "lon": -77.05323516666667, "bike_id": "d4cf612cdb0e18c94aa275cd42c49416", "fusion_lat": 0.0, "name": "d4cf612cdb0e18c94aa275cd42c49416", "is_reserved": 0, "rental_uris": {"android": "https://dc.lft.to/lastmile_qr_scan", "ios": "https://dc.lft.to/lastmile_qr_scan"}, "fusion_lon": 0.0}, {"lat": 38.890461, "is_disabled": 0, "type": "electric_scooter", "lon": -76.9375655, "bike_id": "839c37199141185e54aaa9f1484ef8b1", "fusion_lat": 0.0, "name": "839c37199141185e54aaa9f1484ef8b1", "is_reserved": 0, "rental_uris": {"android": "https://dc.lft.to/lastmile_qr_scan", "ios": "https://dc.lft.to/lastmile_qr_scan"}, "fusion_lon": 0.0}, {"lat": 38.94320033333333, "is_disabled": 0, "type": "electric_scooter", "lon": -77.06135283333333, "bike_id": "0a7ec702daecebbca87c1a4753025af4", "fusion_lat": 0.0, "name": "0a7ec702daecebbca87c1a4753025af4", "is_reserved": 0, "rental_uris": {"android": "https://dc.lft.to/lastmile_qr_scan", "ios": "https://dc.lft.to/lastmile_qr_scan"}, "fusion_lon": 0.0}, {"lat": 38.9028615, "is_disabled": 0, "type": "electric_scooter", "lon": -77.03386433333333, "bike_id": "8060ff64ebf1f9dff7def065884e19df", "fusion_lat": 0.0, "name": "8060ff64ebf1f9dff7def065884e19df", "is_reserved": 0, "rental_uris": {"android": "https://dc.lft.to/lastmile_qr_scan", "ios": "https://dc.lft.to/lastmile_qr_scan"}, "fusion_lon": 0.0}, {"lat": 38.915746666666664, "is_disabled": 0, "type": "electric_scooter", "lon": -77.050269, "bike_id": "95649fe74364c8f3b0d2956f3503d005", "fusion_lat": 0.0, "name": "95649fe74364c8f3b0d2956f3503d005", "is_reserved": 0, "rental_uris": {"android": "https://dc.lft.to/lastmile_qr_scan", "ios": "https://dc.lft.to/lastmile_qr_scan"}, "fusion_lon": 0.0}, {"lat": 38.894946, "is_disabled": 0, "type": "electric_scooter", "lon": -77.00254583333333, "bike_id": "1d89f96d809df6419b33c1fd5d809e74", "fusion_lat": 0.0, "name": "1d89f96d809df6419b33c1fd5d809e74", "is_reserved": 0, "rental_uris": {"android": "https://dc.lft.to/lastmile_qr_scan", "ios": "https://dc.lft.to/lastmile_qr_scan"}, "fusion_lon": 0.0}, {"lat": 38.88645416666667, "is_disabled": 0, "type": "electric_scooter", "lon": -76.95488983333334, "bike_id": "784616366423f38325893a3b5e65df25", "fusion_lat": 0.0, "name": "784616366423f38325893a3b5e65df25", "is_reserved": 0, "rental_uris": {"android": "https://dc.lft.to/lastmile_qr_scan", "ios": "https://dc.lft.to/lastmile_qr_scan"}, "fusion_lon": 0.0}, {"lat": 38.90671116666667, "is_disabled": 0, "type": "electric_scooter", "lon": -77.03866916666666, "bike_id": "59b0a49b932b015b265382e5f88bdc16", "fusion_lat": 0.0, "name": "59b0a49b932b015b265382e5f88bdc16", "is_reserved": 0, "rental_uris": {"android": "https://dc.lft.to/lastmile_qr_scan", "ios": "https://dc.lft.to/lastmile_qr_scan"}, "fusion_lon": 0.0}, {"lat": 38.913624166666665, "is_disabled": 0, "type": "electric_scooter", "lon": -77.04659116666667, "bike_id": "59cfdf4227c2792e95034c071c8e52be", "fusion_lat": 0.0, "name": "59cfdf4227c2792e95034c071c8e52be", "is_reserved": 0, "rental_uris": {"android": "https://dc.lft.to/lastmile_qr_scan", "ios": "https://dc.lft.to/lastmile_qr_scan"}, "fusion_lon": 0.0}, {"lat": 38.89506133333333, "is_disabled": 0, "type": "electric_scooter", "lon": -77.01608183333333, "bike_id": "d1df9cb4de65ea22304f7f493850df05", "fusion_lat": 0.0, "name": "d1df9cb4de65ea22304f7f493850df05", "is_reserved": 0, "rental_uris": {"android": "https://dc.lft.to/lastmile_qr_scan", "ios": "https://dc.lft.to/lastmile_qr_scan"}, "fusion_lon": 0.0}, {"lat": 38.894879, "is_disabled": 0, "type": "electric_scooter", "lon": -77.00226433333333, "bike_id": "0e636350b536c8d8a837af2ec0302ade", "fusion_lat": 0.0, "name": "0e636350b536c8d8a837af2ec0302ade", "is_reserved": 0, "rental_uris": {"android": "https://dc.lft.to/lastmile_qr_scan", "ios": "https://dc.lft.to/lastmile_qr_scan"}, "fusion_lon": 0.0}, {"lat": 38.973673, "is_disabled": 0, "type": "electric_scooter", "lon": -77.01848466666667, "bike_id": "7780a9778564dd9e24edac20aa1741e9", "fusion_lat": 0.0, "name": "7780a9778564dd9e24edac20aa1741e9", "is_reserved": 0, "rental_uris": {"android": "https://dc.lft.to/lastmile_qr_scan", "ios": "https://dc.lft.to/lastmile_qr_scan"}, "fusion_lon": 0.0}, {"lat": 38.921169166666665, "is_disabled": 0, "type": "electric_scooter", "lon": -77.04187483333334, "bike_id": "62895d5b69443e5c7980cb8c8dcd9e33", "fusion_lat": 0.0, "name": "62895d5b69443e5c7980cb8c8dcd9e33", "is_reserved": 0, "rental_uris": {"android": "https://dc.lft.to/lastmile_qr_scan", "ios": "https://dc.lft.to/lastmile_qr_scan"}, "fusion_lon": 0.0}, {"lat": 38.9249235, "is_disabled": 0, "type": "electric_scooter", "lon": -77.03485516666667, "bike_id": "b0b051fb4c90cfe0b08d5c6f149ad1bf", "fusion_lat": 0.0, "name": "b0b051fb4c90cfe0b08d5c6f149ad1bf", "is_reserved": 0, "rental_uris": {"android": "https://dc.lft.to/lastmile_qr_scan", "ios": "https://dc.lft.to/lastmile_qr_scan"}, "fusion_lon": 0.0}, {"lat": 38.92171033333333, "is_disabled": 0, "type": "electric_scooter", "lon": -77.04026, "bike_id": "cf81c93c201495a6a905cf7bf98e5e67", "fusion_lat": 0.0, "name": "cf81c93c201495a6a905cf7bf98e5e67", "is_reserved": 0, "rental_uris": {"android": "https://dc.lft.to/lastmile_qr_scan", "ios": "https://dc.lft.to/lastmile_qr_scan"}, "fusion_lon": 0.0}, {"lat": 38.904914833333336, "is_disabled": 0, "type": "electric_scooter", "lon": -76.9733675, "bike_id": "13a228112a6fb5ae1ed1bd7509fa782d", "fusion_lat": 0.0, "name": "13a228112a6fb5ae1ed1bd7509fa782d", "is_reserved": 0, "rental_uris": {"android": "https://dc.lft.to/lastmile_qr_scan", "ios": "https://dc.lft.to/lastmile_qr_scan"}, "fusion_lon": 0.0}, {"lat": 38.926731833333335, "is_disabled": 0, "type": "electric_scooter", "lon": -77.015354, "bike_id": "711a174c9b0ac03d36af7137f7784a58", "fusion_lat": 0.0, "name": "711a174c9b0ac03d36af7137f7784a58", "is_reserved": 0, "rental_uris": {"android": "https://dc.lft.to/lastmile_qr_scan", "ios": "https://dc.lft.to/lastmile_qr_scan"}, "fusion_lon": 0.0}, {"lat": 38.866562333333334, "is_disabled": 0, "type": "electric_scooter", "lon": -76.98884083333333, "bike_id": "3510c5649904db14a56fb2f501ba6c2d", "fusion_lat": 0.0, "name": "3510c5649904db14a56fb2f501ba6c2d", "is_reserved": 0, "rental_uris": {"android": "https://dc.lft.to/lastmile_qr_scan", "ios": "https://dc.lft.to/lastmile_qr_scan"}, "fusion_lon": 0.0}, {"lat": 38.941809166666665, "is_disabled": 0, "type": "electric_bike", "lon": -76.98486483333333, "bike_id": "b8d029403fbbc7c65379f5b5ebfcce73", "fusion_lat": 0.0, "name": "b8d029403fbbc7c65379f5b5ebfcce73", "is_reserved": 0, "rental_uris": {"android": "https://dc.lft.to/lastmile_qr_scan", "ios": "https://dc.lft.to/lastmile_qr_scan"}, "fusion_lon": 0.0}, {"lat": 38.80053633333333, "is_disabled": 0, "type": "electric_bike", "lon": -77.062991, "bike_id": "6d16186f26c9183bdb2ec28db6911c56", "fusion_lat": 0.0, "name": "6d16186f26c9183bdb2ec28db6911c56", "is_reserved": 0, "rental_uris": {"android": "https://dc.lft.to/lastmile_qr_scan", "ios": "https://dc.lft.to/lastmile_qr_scan"}, "fusion_lon": 0.0}, {"lat": 38.8869185, "is_disabled": 0, "type": "electric_scooter", "lon": -77.01344666666667, "bike_id": "7d9871d22aecc1d6fc7c0a804ddca1f1", "fusion_lat": 0.0, "name": "7d9871d22aecc1d6fc7c0a804ddca1f1", "is_reserved": 0, "rental_uris": {"android": "https://dc.lft.to/lastmile_qr_scan", "ios": "https://dc.lft.to/lastmile_qr_scan"}, "fusion_lon": 0.0}, {"lat": 38.91259016666667, "is_disabled": 0, "type": "electric_scooter", "lon": -77.03217516666666, "bike_id": "b72e751e156c1cf165dd18b8d65923fe", "fusion_lat": 0.0, "name": "b72e751e156c1cf165dd18b8d65923fe", "is_reserved": 0, "rental_uris": {"android": "https://dc.lft.to/lastmile_qr_scan", "ios": "https://dc.lft.to/lastmile_qr_scan"}, "fusion_lon": 0.0}, {"lat": 38.88495233333333, "is_disabled": 0, "type": "electric_scooter", "lon": -77.00710383333333, "bike_id": "ce5a1836ad8324fbaced8acf0c4e2089", "fusion_lat": 0.0, "name": "ce5a1836ad8324fbaced8acf0c4e2089", "is_reserved": 0, "rental_uris": {"android": "https://dc.lft.to/lastmile_qr_scan", "ios": "https://dc.lft.to/lastmile_qr_scan"}, "fusion_lon": 0.0}, {"lat": 38.91195283333333, "is_disabled": 0, "type": "electric_scooter", "lon": -77.04512083333333, "bike_id": "0ad07e38449c87aade59837e5dbda3c1", "fusion_lat": 0.0, "name": "0ad07e38449c87aade59837e5dbda3c1", "is_reserved": 0, "rental_uris": {"android": "https://dc.lft.to/lastmile_qr_scan", "ios": "https://dc.lft.to/lastmile_qr_scan"}, "fusion_lon": 0.0}, {"lat": 38.932407833333336, "is_disabled": 0, "type": "electric_bike", "lon": -76.97422216666666, "bike_id": "d66154a22ac24820e962572546789143", "fusion_lat": 0.0, "name": "d66154a22ac24820e962572546789143", "is_reserved": 0, "rental_uris": {"android": "https://dc.lft.to/lastmile_qr_scan", "ios": "https://dc.lft.to/lastmile_qr_scan"}, "fusion_lon": 0.0}, {"lat": 38.9023955, "is_disabled": 0, "type": "electric_scooter", "lon": -77.01607516666667, "bike_id": "2a5352bd222136ae167dec1d73c9e055", "fusion_lat": 0.0, "name": "2a5352bd222136ae167dec1d73c9e055", "is_reserved": 0, "rental_uris": {"android": "https://dc.lft.to/lastmile_qr_scan", "ios": "https://dc.lft.to/lastmile_qr_scan"}, "fusion_lon": 0.0}, {"lat": 38.87084516666667, "is_disabled": 0, "type": "electric_scooter", "lon": -77.01115683333333, "bike_id": "fde72628f6e3f8306d24300f087f83c2", "fusion_lat": 0.0, "name": "fde72628f6e3f8306d24300f087f83c2", "is_reserved": 0, "rental_uris": {"android": "https://dc.lft.to/lastmile_qr_scan", "ios": "https://dc.lft.to/lastmile_qr_scan"}, "fusion_lon": 0.0}, {"lat": 38.91959766666667, "is_disabled": 0, "type": "electric_scooter", "lon": -77.02591183333334, "bike_id": "2a01081c51afc0adb7dffe4e551684f6", "fusion_lat": 0.0, "name": "2a01081c51afc0adb7dffe4e551684f6", "is_reserved": 0, "rental_uris": {"android": "https://dc.lft.to/lastmile_qr_scan", "ios": "https://dc.lft.to/lastmile_qr_scan"}, "fusion_lon": 0.0}, {"lat": 38.91691866666667, "is_disabled": 0, "type": "electric_scooter", "lon": -77.02960033333333, "bike_id": "aaa2fbffd51f4b0fbc41f3d0c6ec1908", "fusion_lat": 0.0, "name": "aaa2fbffd51f4b0fbc41f3d0c6ec1908", "is_reserved": 0, "rental_uris": {"android": "https://dc.lft.to/lastmile_qr_scan", "ios": "https://dc.lft.to/lastmile_qr_scan"}, "fusion_lon": 0.0}, {"lat": 38.9209135, "is_disabled": 0, "type": "electric_scooter", "lon": -77.02524983333333, "bike_id": "a37151320429e15f00b7544f9ee43485", "fusion_lat": 0.0, "name": "a37151320429e15f00b7544f9ee43485", "is_reserved": 0, "rental_uris": {"android": "https://dc.lft.to/lastmile_qr_scan", "ios": "https://dc.lft.to/lastmile_qr_scan"}, "fusion_lon": 0.0}, {"lat": 38.91419533333333, "is_disabled": 0, "type": "electric_scooter", "lon": -77.02212716666666, "bike_id": "c3194bc15f79d6f5287e2a4a948a385e", "fusion_lat": 0.0, "name": "c3194bc15f79d6f5287e2a4a948a385e", "is_reserved": 0, "rental_uris": {"android": "https://dc.lft.to/lastmile_qr_scan", "ios": "https://dc.lft.to/lastmile_qr_scan"}, "fusion_lon": 0.0}, {"lat": 38.948244333333335, "is_disabled": 0, "type": "electric_scooter", "lon": -76.99904216666667, "bike_id": "adfcf43d4045b3b384fa3805e891afc3", "fusion_lat": 0.0, "name": "adfcf43d4045b3b384fa3805e891afc3", "is_reserved": 0, "rental_uris": {"android": "https://dc.lft.to/lastmile_qr_scan", "ios": "https://dc.lft.to/lastmile_qr_scan"}, "fusion_lon": 0.0}, {"lat": 38.9622425, "is_disabled": 0, "type": "electric_bike", "lon": -77.02624816666666, "bike_id": "858a725dae44da99274457653857aa99", "fusion_lat": 0.0, "name": "858a725dae44da99274457653857aa99", "is_reserved": 0, "rental_uris": {"android": "https://dc.lft.to/lastmile_qr_scan", "ios": "https://dc.lft.to/lastmile_qr_scan"}, "fusion_lon": 0.0}, {"lat": 38.896788, "is_disabled": 0, "type": "electric_scooter", "lon": -77.0051655, "bike_id": "f46349d749f55fe368a1a8d5dcc35e44", "fusion_lat": 0.0, "name": "f46349d749f55fe368a1a8d5dcc35e44", "is_reserved": 0, "rental_uris": {"android": "https://dc.lft.to/lastmile_qr_scan", "ios": "https://dc.lft.to/lastmile_qr_scan"}, "fusion_lon": 0.0}, {"lat": 38.8767185, "is_disabled": 0, "type": "electric_scooter", "lon": -76.99610283333334, "bike_id": "ce28ed6b5d1a33b5f11a5e6479d940d6", "fusion_lat": 0.0, "name": "ce28ed6b5d1a33b5f11a5e6479d940d6", "is_reserved": 0, "rental_uris": {"android": "https://dc.lft.to/lastmile_qr_scan", "ios": "https://dc.lft.to/lastmile_qr_scan"}, "fusion_lon": 0.0}, {"lat": 38.91672483333333, "is_disabled": 0, "type": "electric_scooter", "lon": -77.03161333333334, "bike_id": "79b3a482fb76fd88e0b8aa6cec35c806", "fusion_lat": 0.0, "name": "79b3a482fb76fd88e0b8aa6cec35c806", "is_reserved": 0, "rental_uris": {"android": "https://dc.lft.to/lastmile_qr_scan", "ios": "https://dc.lft.to/lastmile_qr_scan"}, "fusion_lon": 0.0}, {"lat": 38.9588215, "is_disabled": 0, "type": "electric_bike", "lon": -76.92509216666667, "bike_id": "910b8bebabcb3a250272e00864e586ad", "fusion_lat": 0.0, "name": "910b8bebabcb3a250272e00864e586ad", "is_reserved": 0, "rental_uris": {"android": "https://dc.lft.to/lastmile_qr_scan", "ios": "https://dc.lft.to/lastmile_qr_scan"}, "fusion_lon": 0.0}, {"lat": 38.90755733333334, "is_disabled": 0, "type": "electric_scooter", "lon": -77.00085433333334, "bike_id": "8418f7d9813e157d2fd5ae84308528b8", "fusion_lat": 0.0, "name": "8418f7d9813e157d2fd5ae84308528b8", "is_reserved": 0, "rental_uris": {"android": "https://dc.lft.to/lastmile_qr_scan", "ios": "https://dc.lft.to/lastmile_qr_scan"}, "fusion_lon": 0.0}, {"lat": 38.91190733333333, "is_disabled": 0, "type": "electric_scooter", "lon": -77.03216816666666, "bike_id": "2886791b41c39259fcd658330af3f602", "fusion_lat": 0.0, "name": "2886791b41c39259fcd658330af3f602", "is_reserved": 0, "rental_uris": {"android": "https://dc.lft.to/lastmile_qr_scan", "ios": "https://dc.lft.to/lastmile_qr_scan"}, "fusion_lon": 0.0}, {"lat": 38.917041, "is_disabled": 0, "type": "electric_scooter", "lon": -77.03347366666667, "bike_id": "6c70fc43e34cd2dfac290698d3b5e2ea", "fusion_lat": 0.0, "name": "6c70fc43e34cd2dfac290698d3b5e2ea", "is_reserved": 0, "rental_uris": {"android": "https://dc.lft.to/lastmile_qr_scan", "ios": "https://dc.lft.to/lastmile_qr_scan"}, "fusion_lon": 0.0}, {"lat": 38.91683416666667, "is_disabled": 0, "type": "electric_scooter", "lon": -77.0019715, "bike_id": "f60b23551c128666f87a23068324b203", "fusion_lat": 0.0, "name": "f60b23551c128666f87a23068324b203", "is_reserved": 0, "rental_uris": {"android": "https://dc.lft.to/lastmile_qr_scan", "ios": "https://dc.lft.to/lastmile_qr_scan"}, "fusion_lon": 0.0}, {"lat": 38.883655, "is_disabled": 0, "type": "electric_scooter", "lon": -76.941531, "bike_id": "648b2a915212a3c896ec7a3c706f2ea4", "fusion_lat": 0.0, "name": "648b2a915212a3c896ec7a3c706f2ea4", "is_reserved": 0, "rental_uris": {"android": "https://dc.lft.to/lastmile_qr_scan", "ios": "https://dc.lft.to/lastmile_qr_scan"}, "fusion_lon": 0.0}, {"lat": 38.9254295, "is_disabled": 0, "type": "electric_scooter", "lon": -77.02635566666666, "bike_id": "28e37bd34388eb8d1b1f988746a1f59e", "fusion_lat": 0.0, "name": "28e37bd34388eb8d1b1f988746a1f59e", "is_reserved": 0, "rental_uris": {"android": "https://dc.lft.to/lastmile_qr_scan", "ios": "https://dc.lft.to/lastmile_qr_scan"}, "fusion_lon": 0.0}, {"lat": 38.91769566666667, "is_disabled": 0, "type": "electric_scooter", "lon": -76.97632833333333, "bike_id": "23d077343eca083b8ec638d6cff513ce", "fusion_lat": 0.0, "name": "23d077343eca083b8ec638d6cff513ce", "is_reserved": 0, "rental_uris": {"android": "https://dc.lft.to/lastmile_qr_scan", "ios": "https://dc.lft.to/lastmile_qr_scan"}, "fusion_lon": 0.0}, {"lat": 38.941315333333336, "is_disabled": 0, "type": "electric_scooter", "lon": -77.00073216666667, "bike_id": "f8760cf8c0270943d2a3bd55114227bb", "fusion_lat": 0.0, "name": "f8760cf8c0270943d2a3bd55114227bb", "is_reserved": 0, "rental_uris": {"android": "https://dc.lft.to/lastmile_qr_scan", "ios": "https://dc.lft.to/lastmile_qr_scan"}, "fusion_lon": 0.0}, {"lat": 38.893469833333334, "is_disabled": 0, "type": "electric_scooter", "lon": -77.012253, "bike_id": "7f498d97d1caad8e13a9cf099925912d", "fusion_lat": 0.0, "name": "7f498d97d1caad8e13a9cf099925912d", "is_reserved": 0, "rental_uris": {"android": "https://dc.lft.to/lastmile_qr_scan", "ios": "https://dc.lft.to/lastmile_qr_scan"}, "fusion_lon": 0.0}, {"lat": 38.918196333333334, "is_disabled": 0, "type": "electric_scooter", "lon": -76.99968633333333, "bike_id": "77e37c0e58102ee5a9c5cc20c911cf0a", "fusion_lat": 0.0, "name": "77e37c0e58102ee5a9c5cc20c911cf0a", "is_reserved": 0, "rental_uris": {"android": "https://dc.lft.to/lastmile_qr_scan", "ios": "https://dc.lft.to/lastmile_qr_scan"}, "fusion_lon": 0.0}, {"lat": 38.9217155, "is_disabled": 0, "type": "electric_scooter", "lon": -77.05137033333334, "bike_id": "713b22093bfeba0c37f80d47d0c9d5e8", "fusion_lat": 0.0, "name": "713b22093bfeba0c37f80d47d0c9d5e8", "is_reserved": 0, "rental_uris": {"android": "https://dc.lft.to/lastmile_qr_scan", "ios": "https://dc.lft.to/lastmile_qr_scan"}, "fusion_lon": 0.0}, {"lat": 38.852252, "is_disabled": 0, "type": "electric_bike", "lon": -77.1295645, "bike_id": "45c0d9f615450f49a136dea5ad3e97c6", "fusion_lat": 0.0, "name": "45c0d9f615450f49a136dea5ad3e97c6", "is_reserved": 0, "rental_uris": {"android": "https://dc.lft.to/lastmile_qr_scan", "ios": "https://dc.lft.to/lastmile_qr_scan"}, "fusion_lon": 0.0}, {"lat": 38.93474466666667, "is_disabled": 0, "type": "electric_scooter", "lon": -77.0323875, "bike_id": "e9e80a45c040f1a8410516244bc36f48", "fusion_lat": 0.0, "name": "e9e80a45c040f1a8410516244bc36f48", "is_reserved": 0, "rental_uris": {"android": "https://dc.lft.to/lastmile_qr_scan", "ios": "https://dc.lft.to/lastmile_qr_scan"}, "fusion_lon": 0.0}, {"lat": 38.93230366666667, "is_disabled": 0, "type": "electric_scooter", "lon": -77.04412633333334, "bike_id": "baef7b3fb17683c1f53de038a8a31347", "fusion_lat": 0.0, "name": "baef7b3fb17683c1f53de038a8a31347", "is_reserved": 0, "rental_uris": {"android": "https://dc.lft.to/lastmile_qr_scan", "ios": "https://dc.lft.to/lastmile_qr_scan"}, "fusion_lon": 0.0}, {"lat": 38.9177235, "is_disabled": 0, "type": "electric_scooter", "lon": -77.00450633333334, "bike_id": "2e6967a981d9b242b49c427143b1ec46", "fusion_lat": 0.0, "name": "2e6967a981d9b242b49c427143b1ec46", "is_reserved": 0, "rental_uris": {"android": "https://dc.lft.to/lastmile_qr_scan", "ios": "https://dc.lft.to/lastmile_qr_scan"}, "fusion_lon": 0.0}, {"lat": 38.92164416666667, "is_disabled": 0, "type": "electric_scooter", "lon": -77.04019366666667, "bike_id": "b8b6e643790dd40235417e4467c8ccf0", "fusion_lat": 0.0, "name": "b8b6e643790dd40235417e4467c8ccf0", "is_reserved": 0, "rental_uris": {"android": "https://dc.lft.to/lastmile_qr_scan", "ios": "https://dc.lft.to/lastmile_qr_scan"}, "fusion_lon": 0.0}, {"lat": 38.91005883333333, "is_disabled": 0, "type": "electric_scooter", "lon": -77.04005216666667, "bike_id": "be29805d37023b4eaa0372dedd0c12bd", "fusion_lat": 0.0, "name": "be29805d37023b4eaa0372dedd0c12bd", "is_reserved": 0, "rental_uris": {"android": "https://dc.lft.to/lastmile_qr_scan", "ios": "https://dc.lft.to/lastmile_qr_scan"}, "fusion_lon": 0.0}, {"lat": 38.86520566666667, "is_disabled": 0, "type": "electric_scooter", "lon": -76.99035466666666, "bike_id": "1b80bcadd6f6aff2dfde2845f84fd0c0", "fusion_lat": 0.0, "name": "1b80bcadd6f6aff2dfde2845f84fd0c0", "is_reserved": 0, "rental_uris": {"android": "https://dc.lft.to/lastmile_qr_scan", "ios": "https://dc.lft.to/lastmile_qr_scan"}, "fusion_lon": 0.0}, {"lat": 38.88533866666667, "is_disabled": 0, "type": "electric_scooter", "lon": -77.01519066666667, "bike_id": "b64db5270ead2d1ae1e2b461986e971f", "fusion_lat": 0.0, "name": "b64db5270ead2d1ae1e2b461986e971f", "is_reserved": 0, "rental_uris": {"android": "https://dc.lft.to/lastmile_qr_scan", "ios": "https://dc.lft.to/lastmile_qr_scan"}, "fusion_lon": 0.0}, {"lat": 38.89747216666667, "is_disabled": 0, "type": "electric_scooter", "lon": -77.02450516666667, "bike_id": "71dd355a05b55c98a28c82c55b5acc47", "fusion_lat": 0.0, "name": "71dd355a05b55c98a28c82c55b5acc47", "is_reserved": 0, "rental_uris": {"android": "https://dc.lft.to/lastmile_qr_scan", "ios": "https://dc.lft.to/lastmile_qr_scan"}, "fusion_lon": 0.0}, {"lat": 38.866033, "is_disabled": 0, "type": "electric_bike", "lon": -76.93227016666667, "bike_id": "e94f8f10556257fb99bec7b262a3379e", "fusion_lat": 0.0, "name": "e94f8f10556257fb99bec7b262a3379e", "is_reserved": 0, "rental_uris": {"android": "https://dc.lft.to/lastmile_qr_scan", "ios": "https://dc.lft.to/lastmile_qr_scan"}, "fusion_lon": 0.0}, {"lat": 38.900781333333335, "is_disabled": 0, "type": "electric_scooter", "lon": -77.00753516666667, "bike_id": "324074264aaab3ff06a5a7113f0df73e", "fusion_lat": 0.0, "name": "324074264aaab3ff06a5a7113f0df73e", "is_reserved": 0, "rental_uris": {"android": "https://dc.lft.to/lastmile_qr_scan", "ios": "https://dc.lft.to/lastmile_qr_scan"}, "fusion_lon": 0.0}, {"lat": 38.89225316666667, "is_disabled": 0, "type": "electric_scooter", "lon": -77.048669, "bike_id": "bc05e25ad48b4de6277cf5d72fab9613", "fusion_lat": 0.0, "name": "bc05e25ad48b4de6277cf5d72fab9613", "is_reserved": 0, "rental_uris": {"android": "https://dc.lft.to/lastmile_qr_scan", "ios": "https://dc.lft.to/lastmile_qr_scan"}, "fusion_lon": 0.0}, {"lat": 38.962656, "is_disabled": 0, "type": "electric_bike", "lon": -77.02809383333333, "bike_id": "f9626693450e3873789b6791681f9325", "fusion_lat": 0.0, "name": "f9626693450e3873789b6791681f9325", "is_reserved": 0, "rental_uris": {"android": "https://dc.lft.to/lastmile_qr_scan", "ios": "https://dc.lft.to/lastmile_qr_scan"}, "fusion_lon": 0.0}, {"lat": 38.91109216666667, "is_disabled": 0, "type": "electric_scooter", "lon": -77.04818133333333, "bike_id": "cf78bb05e00761a58394211be3e17bd3", "fusion_lat": 0.0, "name": "cf78bb05e00761a58394211be3e17bd3", "is_reserved": 0, "rental_uris": {"android": "https://dc.lft.to/lastmile_qr_scan", "ios": "https://dc.lft.to/lastmile_qr_scan"}, "fusion_lon": 0.0}, {"lat": 38.81356383333333, "is_disabled": 0, "type": "electric_bike", "lon": -77.04923766666667, "bike_id": "9e1adced24eca083f64865145caed00e", "fusion_lat": 0.0, "name": "9e1adced24eca083f64865145caed00e", "is_reserved": 0, "rental_uris": {"android": "https://dc.lft.to/lastmile_qr_scan", "ios": "https://dc.lft.to/lastmile_qr_scan"}, "fusion_lon": 0.0}, {"lat": 38.90369583333333, "is_disabled": 0, "type": "electric_scooter", "lon": -77.062671, "bike_id": "398a4ebea16cd39534fc3a95c5e90c90", "fusion_lat": 0.0, "name": "398a4ebea16cd39534fc3a95c5e90c90", "is_reserved": 0, "rental_uris": {"android": "https://dc.lft.to/lastmile_qr_scan", "ios": "https://dc.lft.to/lastmile_qr_scan"}, "fusion_lon": 0.0}, {"lat": 38.89761633333333, "is_disabled": 0, "type": "electric_scooter", "lon": -76.941816, "bike_id": "0f75477ba2f5454a7480302fef241723", "fusion_lat": 0.0, "name": "0f75477ba2f5454a7480302fef241723", "is_reserved": 0, "rental_uris": {"android": "https://dc.lft.to/lastmile_qr_scan", "ios": "https://dc.lft.to/lastmile_qr_scan"}, "fusion_lon": 0.0}, {"lat": 38.91489933333333, "is_disabled": 0, "type": "electric_scooter", "lon": -77.01379383333334, "bike_id": "fdf62d3e44b2bc626c1d15b0e5b3212d", "fusion_lat": 0.0, "name": "fdf62d3e44b2bc626c1d15b0e5b3212d", "is_reserved": 0, "rental_uris": {"android": "https://dc.lft.to/lastmile_qr_scan", "ios": "https://dc.lft.to/lastmile_qr_scan"}, "fusion_lon": 0.0}, {"lat": 38.917858333333335, "is_disabled": 0, "type": "electric_scooter", "lon": -77.02313516666666, "bike_id": "8fa0825915137bee78f7a7544f2f0db3", "fusion_lat": 0.0, "name": "8fa0825915137bee78f7a7544f2f0db3", "is_reserved": 0, "rental_uris": {"android": "https://dc.lft.to/lastmile_qr_scan", "ios": "https://dc.lft.to/lastmile_qr_scan"}, "fusion_lon": 0.0}, {"lat": 38.922396, "is_disabled": 0, "type": "electric_scooter", "lon": -77.04340066666667, "bike_id": "7fc3352d4ea62c517d4a23e9289627e9", "fusion_lat": 0.0, "name": "7fc3352d4ea62c517d4a23e9289627e9", "is_reserved": 0, "rental_uris": {"android": "https://dc.lft.to/lastmile_qr_scan", "ios": "https://dc.lft.to/lastmile_qr_scan"}, "fusion_lon": 0.0}, {"lat": 38.907327, "is_disabled": 0, "type": "electric_scooter", "lon": -77.0434035, "bike_id": "b0496073f04520acc77118bfccaef522", "fusion_lat": 0.0, "name": "b0496073f04520acc77118bfccaef522", "is_reserved": 0, "rental_uris": {"android": "https://dc.lft.to/lastmile_qr_scan", "ios": "https://dc.lft.to/lastmile_qr_scan"}, "fusion_lon": 0.0}, {"lat": 38.9239075, "is_disabled": 0, "type": "electric_scooter", "lon": -77.0305765, "bike_id": "8f227f53bfabcb7a25ebf4ebd0d12b04", "fusion_lat": 0.0, "name": "8f227f53bfabcb7a25ebf4ebd0d12b04", "is_reserved": 0, "rental_uris": {"android": "https://dc.lft.to/lastmile_qr_scan", "ios": "https://dc.lft.to/lastmile_qr_scan"}, "fusion_lon": 0.0}, {"lat": 38.90287033333333, "is_disabled": 0, "type": "electric_scooter", "lon": -77.036509, "bike_id": "8d5a62d13cd520f2ae5a4011fbe54873", "fusion_lat": 0.0, "name": "8d5a62d13cd520f2ae5a4011fbe54873", "is_reserved": 0, "rental_uris": {"android": "https://dc.lft.to/lastmile_qr_scan", "ios": "https://dc.lft.to/lastmile_qr_scan"}, "fusion_lon": 0.0}, {"lat": 38.85521383333333, "is_disabled": 0, "type": "electric_bike", "lon": -76.98418166666667, "bike_id": "68449a5bc049888b57a4257d8cd67d47", "fusion_lat": 0.0, "name": "68449a5bc049888b57a4257d8cd67d47", "is_reserved": 0, "rental_uris": {"android": "https://dc.lft.to/lastmile_qr_scan", "ios": "https://dc.lft.to/lastmile_qr_scan"}, "fusion_lon": 0.0}, {"lat": 38.90039733333333, "is_disabled": 0, "type": "electric_scooter", "lon": -76.99904566666666, "bike_id": "1e95ac2b63fc83d43cb0a7e3b5fdf5ad", "fusion_lat": 0.0, "name": "1e95ac2b63fc83d43cb0a7e3b5fdf5ad", "is_reserved": 0, "rental_uris": {"android": "https://dc.lft.to/lastmile_qr_scan", "ios": "https://dc.lft.to/lastmile_qr_scan"}, "fusion_lon": 0.0}, {"lat": 38.91310033333333, "is_disabled": 0, "type": "electric_scooter", "lon": -77.06166716666667, "bike_id": "b0b9a7cda118eb901ec988aecfb1b418", "fusion_lat": 0.0, "name": "b0b9a7cda118eb901ec988aecfb1b418", "is_reserved": 0, "rental_uris": {"android": "https://dc.lft.to/lastmile_qr_scan", "ios": "https://dc.lft.to/lastmile_qr_scan"}, "fusion_lon": 0.0}, {"lat": 38.90046483333333, "is_disabled": 0, "type": "electric_scooter", "lon": -77.00207266666666, "bike_id": "42678a04b5119e35a4482622b04c98dd", "fusion_lat": 0.0, "name": "42678a04b5119e35a4482622b04c98dd", "is_reserved": 0, "rental_uris": {"android": "https://dc.lft.to/lastmile_qr_scan", "ios": "https://dc.lft.to/lastmile_qr_scan"}, "fusion_lon": 0.0}, {"lat": 38.890118333333334, "is_disabled": 0, "type": "electric_scooter", "lon": -77.000659, "bike_id": "f375540ef6373e2b925da501d80054d0", "fusion_lat": 0.0, "name": "f375540ef6373e2b925da501d80054d0", "is_reserved": 0, "rental_uris": {"android": "https://dc.lft.to/lastmile_qr_scan", "ios": "https://dc.lft.to/lastmile_qr_scan"}, "fusion_lon": 0.0}, {"lat": 38.88782116666667, "is_disabled": 0, "type": "electric_scooter", "lon": -77.01508533333333, "bike_id": "000f7fb7c227ff40eb839f01e50da64e", "fusion_lat": 0.0, "name": "000f7fb7c227ff40eb839f01e50da64e", "is_reserved": 0, "rental_uris": {"android": "https://dc.lft.to/lastmile_qr_scan", "ios": "https://dc.lft.to/lastmile_qr_scan"}, "fusion_lon": 0.0}, {"lat": 38.931348, "is_disabled": 0, "type": "electric_scooter", "lon": -77.03283, "bike_id": "c18ebef8888bf2f517829e6fe795736a", "fusion_lat": 0.0, "name": "c18ebef8888bf2f517829e6fe795736a", "is_reserved": 0, "rental_uris": {"android": "https://dc.lft.to/lastmile_qr_scan", "ios": "https://dc.lft.to/lastmile_qr_scan"}, "fusion_lon": 0.0}, {"lat": 38.93208666666666, "is_disabled": 0, "type": "electric_scooter", "lon": -77.04430233333333, "bike_id": "8c36728a8d92892be65e82c1aa48cbc3", "fusion_lat": 0.0, "name": "8c36728a8d92892be65e82c1aa48cbc3", "is_reserved": 0, "rental_uris": {"android": "https://dc.lft.to/lastmile_qr_scan", "ios": "https://dc.lft.to/lastmile_qr_scan"}, "fusion_lon": 0.0}, {"lat": 38.89912966666667, "is_disabled": 0, "type": "electric_scooter", "lon": -77.007287, "bike_id": "b8c8e075deab26f2ba919711f63ce97a", "fusion_lat": 0.0, "name": "b8c8e075deab26f2ba919711f63ce97a", "is_reserved": 0, "rental_uris": {"android": "https://dc.lft.to/lastmile_qr_scan", "ios": "https://dc.lft.to/lastmile_qr_scan"}, "fusion_lon": 0.0}, {"lat": 38.87632383333333, "is_disabled": 0, "type": "electric_scooter", "lon": -76.9652485, "bike_id": "9c485c1d4b7be31f358ff339d7cb9dac", "fusion_lat": 0.0, "name": "9c485c1d4b7be31f358ff339d7cb9dac", "is_reserved": 0, "rental_uris": {"android": "https://dc.lft.to/lastmile_qr_scan", "ios": "https://dc.lft.to/lastmile_qr_scan"}, "fusion_lon": 0.0}, {"lat": 38.912742, "is_disabled": 0, "type": "electric_scooter", "lon": -77.0224895, "bike_id": "aa2a0117548a39bc32ecae2fae06b40d", "fusion_lat": 0.0, "name": "aa2a0117548a39bc32ecae2fae06b40d", "is_reserved": 0, "rental_uris": {"android": "https://dc.lft.to/lastmile_qr_scan", "ios": "https://dc.lft.to/lastmile_qr_scan"}, "fusion_lon": 0.0}, {"lat": 38.922916, "is_disabled": 0, "type": "electric_scooter", "lon": -77.040111, "bike_id": "9611c352dcfe6c3efdd4488ef4d1aa5c", "fusion_lat": 0.0, "name": "9611c352dcfe6c3efdd4488ef4d1aa5c", "is_reserved": 0, "rental_uris": {"android": "https://dc.lft.to/lastmile_qr_scan", "ios": "https://dc.lft.to/lastmile_qr_scan"}, "fusion_lon": 0.0}, {"lat": 38.9312505, "is_disabled": 0, "type": "electric_scooter", "lon": -77.0351595, "bike_id": "66779412d6c92b6ea95eac0218b49116", "fusion_lat": 0.0, "name": "66779412d6c92b6ea95eac0218b49116", "is_reserved": 0, "rental_uris": {"android": "https://dc.lft.to/lastmile_qr_scan", "ios": "https://dc.lft.to/lastmile_qr_scan"}, "fusion_lon": 0.0}, {"lat": 38.9407345, "is_disabled": 0, "type": "electric_scooter", "lon": -77.06135666666667, "bike_id": "81d437195adcf98bf0c09e4dfceaa01c", "fusion_lat": 0.0, "name": "81d437195adcf98bf0c09e4dfceaa01c", "is_reserved": 0, "rental_uris": {"android": "https://dc.lft.to/lastmile_qr_scan", "ios": "https://dc.lft.to/lastmile_qr_scan"}, "fusion_lon": 0.0}, {"lat": 38.91497233333333, "is_disabled": 0, "type": "electric_scooter", "lon": -76.9837175, "bike_id": "15111667d90aca3ea30342547dcfc1ed", "fusion_lat": 0.0, "name": "15111667d90aca3ea30342547dcfc1ed", "is_reserved": 0, "rental_uris": {"android": "https://dc.lft.to/lastmile_qr_scan", "ios": "https://dc.lft.to/lastmile_qr_scan"}, "fusion_lon": 0.0}, {"lat": 38.90188083333334, "is_disabled": 0, "type": "electric_scooter", "lon": -77.02182566666667, "bike_id": "1bbfcf722e96db42deae8e005b924b1d", "fusion_lat": 0.0, "name": "1bbfcf722e96db42deae8e005b924b1d", "is_reserved": 0, "rental_uris": {"android": "https://dc.lft.to/lastmile_qr_scan", "ios": "https://dc.lft.to/lastmile_qr_scan"}, "fusion_lon": 0.0}, {"lat": 38.912697333333334, "is_disabled": 0, "type": "electric_scooter", "lon": -77.03805733333333, "bike_id": "2f4e13e8acd542667ec6ddccb6ad10fa", "fusion_lat": 0.0, "name": "2f4e13e8acd542667ec6ddccb6ad10fa", "is_reserved": 0, "rental_uris": {"android": "https://dc.lft.to/lastmile_qr_scan", "ios": "https://dc.lft.to/lastmile_qr_scan"}, "fusion_lon": 0.0}, {"lat": 38.89514716666667, "is_disabled": 0, "type": "electric_scooter", "lon": -77.0108865, "bike_id": "04982184520dc3939bbac0d22f60f498", "fusion_lat": 0.0, "name": "04982184520dc3939bbac0d22f60f498", "is_reserved": 0, "rental_uris": {"android": "https://dc.lft.to/lastmile_qr_scan", "ios": "https://dc.lft.to/lastmile_qr_scan"}, "fusion_lon": 0.0}, {"lat": 38.912645499999996, "is_disabled": 0, "type": "electric_scooter", "lon": -77.03741733333334, "bike_id": "74ab2b7162d95c1fe9f51d12d19e0afc", "fusion_lat": 0.0, "name": "74ab2b7162d95c1fe9f51d12d19e0afc", "is_reserved": 0, "rental_uris": {"android": "https://dc.lft.to/lastmile_qr_scan", "ios": "https://dc.lft.to/lastmile_qr_scan"}, "fusion_lon": 0.0}, {"lat": 38.91534883333333, "is_disabled": 0, "type": "electric_scooter", "lon": -77.0383285, "bike_id": "b71b0df0d55152681c54372d5d9ad49c", "fusion_lat": 0.0, "name": "b71b0df0d55152681c54372d5d9ad49c", "is_reserved": 0, "rental_uris": {"android": "https://dc.lft.to/lastmile_qr_scan", "ios": "https://dc.lft.to/lastmile_qr_scan"}, "fusion_lon": 0.0}, {"lat": 38.9347735, "is_disabled": 0, "type": "electric_scooter", "lon": -77.041159, "bike_id": "722436d3140ae504de8d9019e159a7bb", "fusion_lat": 0.0, "name": "722436d3140ae504de8d9019e159a7bb", "is_reserved": 0, "rental_uris": {"android": "https://dc.lft.to/lastmile_qr_scan", "ios": "https://dc.lft.to/lastmile_qr_scan"}, "fusion_lon": 0.0}, {"lat": 38.90801116666667, "is_disabled": 0, "type": "electric_scooter", "lon": -76.996967, "bike_id": "b132d0a4beed3c8316addd6f7100de7e", "fusion_lat": 0.0, "name": "b132d0a4beed3c8316addd6f7100de7e", "is_reserved": 0, "rental_uris": {"android": "https://dc.lft.to/lastmile_qr_scan", "ios": "https://dc.lft.to/lastmile_qr_scan"}, "fusion_lon": 0.0}, {"lat": 38.916827833333336, "is_disabled": 0, "type": "electric_scooter", "lon": -77.029192, "bike_id": "e34a53e006e04f83b66f86fef68c4c40", "fusion_lat": 0.0, "name": "e34a53e006e04f83b66f86fef68c4c40", "is_reserved": 0, "rental_uris": {"android": "https://dc.lft.to/lastmile_qr_scan", "ios": "https://dc.lft.to/lastmile_qr_scan"}, "fusion_lon": 0.0}, {"lat": 38.91756566666667, "is_disabled": 0, "type": "electric_scooter", "lon": -77.03655516666667, "bike_id": "e073a6c17a152c4838d96359e0a9e30c", "fusion_lat": 0.0, "name": "e073a6c17a152c4838d96359e0a9e30c", "is_reserved": 0, "rental_uris": {"android": "https://dc.lft.to/lastmile_qr_scan", "ios": "https://dc.lft.to/lastmile_qr_scan"}, "fusion_lon": 0.0}, {"lat": 38.900788166666665, "is_disabled": 0, "type": "electric_scooter", "lon": -77.04480983333333, "bike_id": "763e3c73f82d5ff60681853b9101535b", "fusion_lat": 0.0, "name": "763e3c73f82d5ff60681853b9101535b", "is_reserved": 0, "rental_uris": {"android": "https://dc.lft.to/lastmile_qr_scan", "ios": "https://dc.lft.to/lastmile_qr_scan"}, "fusion_lon": 0.0}, {"lat": 38.921063, "is_disabled": 0, "type": "electric_scooter", "lon": -77.02509233333333, "bike_id": "9a03da70ccca4e87a70ec220ee450910", "fusion_lat": 0.0, "name": "9a03da70ccca4e87a70ec220ee450910", "is_reserved": 0, "rental_uris": {"android": "https://dc.lft.to/lastmile_qr_scan", "ios": "https://dc.lft.to/lastmile_qr_scan"}, "fusion_lon": 0.0}, {"lat": 38.907204, "is_disabled": 0, "type": "electric_scooter", "lon": -77.03464533333333, "bike_id": "89f50d170a60c1918f6ad91bc708eda8", "fusion_lat": 0.0, "name": "89f50d170a60c1918f6ad91bc708eda8", "is_reserved": 0, "rental_uris": {"android": "https://dc.lft.to/lastmile_qr_scan", "ios": "https://dc.lft.to/lastmile_qr_scan"}, "fusion_lon": 0.0}, {"lat": 38.900195333333336, "is_disabled": 0, "type": "electric_scooter", "lon": -77.03309533333334, "bike_id": "24206c2bb5969d954d8cbf837c053a89", "fusion_lat": 0.0, "name": "24206c2bb5969d954d8cbf837c053a89", "is_reserved": 0, "rental_uris": {"android": "https://dc.lft.to/lastmile_qr_scan", "ios": "https://dc.lft.to/lastmile_qr_scan"}, "fusion_lon": 0.0}, {"lat": 38.916404666666665, "is_disabled": 0, "type": "electric_scooter", "lon": -77.02695833333334, "bike_id": "f2d7fdeae8f866e447de36122d2abe14", "fusion_lat": 0.0, "name": "f2d7fdeae8f866e447de36122d2abe14", "is_reserved": 0, "rental_uris": {"android": "https://dc.lft.to/lastmile_qr_scan", "ios": "https://dc.lft.to/lastmile_qr_scan"}, "fusion_lon": 0.0}, {"lat": 38.944986166666666, "is_disabled": 0, "type": "electric_bike", "lon": -77.00682316666666, "bike_id": "5b834f301b967a2e43c6344862213f0e", "fusion_lat": 0.0, "name": "5b834f301b967a2e43c6344862213f0e", "is_reserved": 0, "rental_uris": {"android": "https://dc.lft.to/lastmile_qr_scan", "ios": "https://dc.lft.to/lastmile_qr_scan"}, "fusion_lon": 0.0}, {"lat": 38.9413515, "is_disabled": 0, "type": "electric_scooter", "lon": -77.07614716666667, "bike_id": "ba891af607ba8679b3033098b243323d", "fusion_lat": 0.0, "name": "ba891af607ba8679b3033098b243323d", "is_reserved": 0, "rental_uris": {"android": "https://dc.lft.to/lastmile_qr_scan", "ios": "https://dc.lft.to/lastmile_qr_scan"}, "fusion_lon": 0.0}, {"lat": 38.91182033333333, "is_disabled": 0, "type": "electric_scooter", "lon": -77.0625535, "bike_id": "54fcc93ace7a137587dbb2ff895f93b7", "fusion_lat": 0.0, "name": "54fcc93ace7a137587dbb2ff895f93b7", "is_reserved": 0, "rental_uris": {"android": "https://dc.lft.to/lastmile_qr_scan", "ios": "https://dc.lft.to/lastmile_qr_scan"}, "fusion_lon": 0.0}, {"lat": 38.895317, "is_disabled": 0, "type": "electric_scooter", "lon": -77.00062816666667, "bike_id": "d16fe09ebf344b64ba315287fe97ceec", "fusion_lat": 0.0, "name": "d16fe09ebf344b64ba315287fe97ceec", "is_reserved": 0, "rental_uris": {"android": "https://dc.lft.to/lastmile_qr_scan", "ios": "https://dc.lft.to/lastmile_qr_scan"}, "fusion_lon": 0.0}, {"lat": 38.863766, "is_disabled": 0, "type": "electric_scooter", "lon": -76.990303, "bike_id": "0f81ea384a948555d954f634e83fb739", "fusion_lat": 0.0, "name": "0f81ea384a948555d954f634e83fb739", "is_reserved": 0, "rental_uris": {"android": "https://dc.lft.to/lastmile_qr_scan", "ios": "https://dc.lft.to/lastmile_qr_scan"}, "fusion_lon": 0.0}, {"lat": 38.90964133333333, "is_disabled": 0, "type": "electric_scooter", "lon": -77.04673116666666, "bike_id": "6bb7e829ae44cf4e2bcfe9ec2b014a6f", "fusion_lat": 0.0, "name": "6bb7e829ae44cf4e2bcfe9ec2b014a6f", "is_reserved": 0, "rental_uris": {"android": "https://dc.lft.to/lastmile_qr_scan", "ios": "https://dc.lft.to/lastmile_qr_scan"}, "fusion_lon": 0.0}, {"lat": 38.95226016666667, "is_disabled": 0, "type": "electric_scooter", "lon": -77.00279283333333, "bike_id": "c0b3a36ee91d3d16b34add71a94987c9", "fusion_lat": 0.0, "name": "c0b3a36ee91d3d16b34add71a94987c9", "is_reserved": 0, "rental_uris": {"android": "https://dc.lft.to/lastmile_qr_scan", "ios": "https://dc.lft.to/lastmile_qr_scan"}, "fusion_lon": 0.0}, {"lat": 38.900241666666666, "is_disabled": 0, "type": "electric_scooter", "lon": -77.0333445, "bike_id": "65002904dc754d6367c6c02eecbf36a7", "fusion_lat": 0.0, "name": "65002904dc754d6367c6c02eecbf36a7", "is_reserved": 0, "rental_uris": {"android": "https://dc.lft.to/lastmile_qr_scan", "ios": "https://dc.lft.to/lastmile_qr_scan"}, "fusion_lon": 0.0}, {"lat": 38.900312, "is_disabled": 0, "type": "electric_scooter", "lon": -76.98877016666667, "bike_id": "9271c8bc138a733cf1d309105330443f", "fusion_lat": 0.0, "name": "9271c8bc138a733cf1d309105330443f", "is_reserved": 0, "rental_uris": {"android": "https://dc.lft.to/lastmile_qr_scan", "ios": "https://dc.lft.to/lastmile_qr_scan"}, "fusion_lon": 0.0}, {"lat": 38.9553735, "is_disabled": 0, "type": "electric_bike", "lon": -76.96801866666667, "bike_id": "ddbe38b631d29ad623c1f5b3dea8d15b", "fusion_lat": 0.0, "name": "ddbe38b631d29ad623c1f5b3dea8d15b", "is_reserved": 0, "rental_uris": {"android": "https://dc.lft.to/lastmile_qr_scan", "ios": "https://dc.lft.to/lastmile_qr_scan"}, "fusion_lon": 0.0}, {"lat": 38.91010266666667, "is_disabled": 0, "type": "electric_scooter", "lon": -77.04004333333333, "bike_id": "f52f9e5631d59485a6ef727ca0e83f8b", "fusion_lat": 0.0, "name": "f52f9e5631d59485a6ef727ca0e83f8b", "is_reserved": 0, "rental_uris": {"android": "https://dc.lft.to/lastmile_qr_scan", "ios": "https://dc.lft.to/lastmile_qr_scan"}, "fusion_lon": 0.0}, {"lat": 38.92783983333333, "is_disabled": 0, "type": "electric_scooter", "lon": -77.02687383333334, "bike_id": "44b9d97a17fc31d77e1c21c138d9dc5f", "fusion_lat": 0.0, "name": "44b9d97a17fc31d77e1c21c138d9dc5f", "is_reserved": 0, "rental_uris": {"android": "https://dc.lft.to/lastmile_qr_scan", "ios": "https://dc.lft.to/lastmile_qr_scan"}, "fusion_lon": 0.0}, {"lat": 38.91275616666667, "is_disabled": 0, "type": "electric_scooter", "lon": -77.0225095, "bike_id": "9a3f946a2e31fc1289b00d20e8964956", "fusion_lat": 0.0, "name": "9a3f946a2e31fc1289b00d20e8964956", "is_reserved": 0, "rental_uris": {"android": "https://dc.lft.to/lastmile_qr_scan", "ios": "https://dc.lft.to/lastmile_qr_scan"}, "fusion_lon": 0.0}, {"lat": 38.908721, "is_disabled": 0, "type": "electric_scooter", "lon": -77.03858716666667, "bike_id": "38b833253ff4d7cd3592f540f0289bf3", "fusion_lat": 0.0, "name": "38b833253ff4d7cd3592f540f0289bf3", "is_reserved": 0, "rental_uris": {"android": "https://dc.lft.to/lastmile_qr_scan", "ios": "https://dc.lft.to/lastmile_qr_scan"}, "fusion_lon": 0.0}, {"lat": 38.93587766666667, "is_disabled": 0, "type": "electric_bike", "lon": -77.10682783333333, "bike_id": "e9e301bdb2f449ccf16306c774868d79", "fusion_lat": 0.0, "name": "e9e301bdb2f449ccf16306c774868d79", "is_reserved": 0, "rental_uris": {"android": "https://dc.lft.to/lastmile_qr_scan", "ios": "https://dc.lft.to/lastmile_qr_scan"}, "fusion_lon": 0.0}, {"lat": 38.87154066666667, "is_disabled": 0, "type": "electric_bike", "lon": -76.9367965, "bike_id": "5963f02ae168689547c5838759a2901c", "fusion_lat": 0.0, "name": "5963f02ae168689547c5838759a2901c", "is_reserved": 0, "rental_uris": {"android": "https://dc.lft.to/lastmile_qr_scan", "ios": "https://dc.lft.to/lastmile_qr_scan"}, "fusion_lon": 0.0}, {"lat": 38.896529, "is_disabled": 0, "type": "electric_scooter", "lon": -77.00928466666667, "bike_id": "3d677d36c499419d15b3f9aaff28e4b2", "fusion_lat": 0.0, "name": "3d677d36c499419d15b3f9aaff28e4b2", "is_reserved": 0, "rental_uris": {"android": "https://dc.lft.to/lastmile_qr_scan", "ios": "https://dc.lft.to/lastmile_qr_scan"}, "fusion_lon": 0.0}, {"lat": 38.907765166666664, "is_disabled": 0, "type": "electric_scooter", "lon": -77.06070666666666, "bike_id": "abfe3098b8b0954633178897703e1174", "fusion_lat": 0.0, "name": "abfe3098b8b0954633178897703e1174", "is_reserved": 0, "rental_uris": {"android": "https://dc.lft.to/lastmile_qr_scan", "ios": "https://dc.lft.to/lastmile_qr_scan"}, "fusion_lon": 0.0}, {"lat": 38.90297116666667, "is_disabled": 0, "type": "electric_scooter", "lon": -77.03666616666666, "bike_id": "7e088ac88cd3854ac0bf43399ff8318c", "fusion_lat": 0.0, "name": "7e088ac88cd3854ac0bf43399ff8318c", "is_reserved": 0, "rental_uris": {"android": "https://dc.lft.to/lastmile_qr_scan", "ios": "https://dc.lft.to/lastmile_qr_scan"}, "fusion_lon": 0.0}, {"lat": 38.9096975, "is_disabled": 0, "type": "electric_scooter", "lon": -77.03421133333333, "bike_id": "4c5534cb5d79a2055ffaa83aea2d689d", "fusion_lat": 0.0, "name": "4c5534cb5d79a2055ffaa83aea2d689d", "is_reserved": 0, "rental_uris": {"android": "https://dc.lft.to/lastmile_qr_scan", "ios": "https://dc.lft.to/lastmile_qr_scan"}, "fusion_lon": 0.0}, {"lat": 38.895774333333335, "is_disabled": 0, "type": "electric_bike", "lon": -77.12693933333334, "bike_id": "ccca74c318075cd0731e56bf907ffd7c", "fusion_lat": 0.0, "name": "ccca74c318075cd0731e56bf907ffd7c", "is_reserved": 0, "rental_uris": {"android": "https://dc.lft.to/lastmile_qr_scan", "ios": "https://dc.lft.to/lastmile_qr_scan"}, "fusion_lon": 0.0}, {"lat": 38.927698, "is_disabled": 0, "type": "electric_scooter", "lon": -77.027961, "bike_id": "bfddabba78855169ca6dd1105672f673", "fusion_lat": 0.0, "name": "bfddabba78855169ca6dd1105672f673", "is_reserved": 0, "rental_uris": {"android": "https://dc.lft.to/lastmile_qr_scan", "ios": "https://dc.lft.to/lastmile_qr_scan"}, "fusion_lon": 0.0}, {"lat": 38.9100795, "is_disabled": 0, "type": "electric_scooter", "lon": -77.0442645, "bike_id": "45cb8ed5cb675929c9b419b52fe6fece", "fusion_lat": 0.0, "name": "45cb8ed5cb675929c9b419b52fe6fece", "is_reserved": 0, "rental_uris": {"android": "https://dc.lft.to/lastmile_qr_scan", "ios": "https://dc.lft.to/lastmile_qr_scan"}, "fusion_lon": 0.0}, {"lat": 38.9067855, "is_disabled": 0, "type": "electric_scooter", "lon": -77.038621, "bike_id": "4e90d70dddd4168b78baf9d0c13545a3", "fusion_lat": 0.0, "name": "4e90d70dddd4168b78baf9d0c13545a3", "is_reserved": 0, "rental_uris": {"android": "https://dc.lft.to/lastmile_qr_scan", "ios": "https://dc.lft.to/lastmile_qr_scan"}, "fusion_lon": 0.0}, {"lat": 38.91017, "is_disabled": 0, "type": "electric_scooter", "lon": -77.044442, "bike_id": "9ef4a97071b0d4ad01ce5a46e29ff903", "fusion_lat": 0.0, "name": "9ef4a97071b0d4ad01ce5a46e29ff903", "is_reserved": 0, "rental_uris": {"android": "https://dc.lft.to/lastmile_qr_scan", "ios": "https://dc.lft.to/lastmile_qr_scan"}, "fusion_lon": 0.0}, {"lat": 38.933569166666665, "is_disabled": 0, "type": "electric_bike", "lon": -77.0996415, "bike_id": "e2439ea59b81e4f4f4f8362b66e91adf", "fusion_lat": 0.0, "name": "e2439ea59b81e4f4f4f8362b66e91adf", "is_reserved": 0, "rental_uris": {"android": "https://dc.lft.to/lastmile_qr_scan", "ios": "https://dc.lft.to/lastmile_qr_scan"}, "fusion_lon": 0.0}, {"lat": 38.865190166666665, "is_disabled": 0, "type": "electric_scooter", "lon": -76.99045933333333, "bike_id": "1b6e6fa6f8eca3d58260c98194c41291", "fusion_lat": 0.0, "name": "1b6e6fa6f8eca3d58260c98194c41291", "is_reserved": 0, "rental_uris": {"android": "https://dc.lft.to/lastmile_qr_scan", "ios": "https://dc.lft.to/lastmile_qr_scan"}, "fusion_lon": 0.0}, {"lat": 38.914247833333334, "is_disabled": 0, "type": "electric_scooter", "lon": -77.03188416666667, "bike_id": "4ce3e817fb2282eb2ead99c21a8008dd", "fusion_lat": 0.0, "name": "4ce3e817fb2282eb2ead99c21a8008dd", "is_reserved": 0, "rental_uris": {"android": "https://dc.lft.to/lastmile_qr_scan", "ios": "https://dc.lft.to/lastmile_qr_scan"}, "fusion_lon": 0.0}, {"lat": 38.932093333333334, "is_disabled": 0, "type": "electric_scooter", "lon": -76.97771466666667, "bike_id": "dec278e13439c7b6bd6481b86130a481", "fusion_lat": 0.0, "name": "dec278e13439c7b6bd6481b86130a481", "is_reserved": 0, "rental_uris": {"android": "https://dc.lft.to/lastmile_qr_scan", "ios": "https://dc.lft.to/lastmile_qr_scan"}, "fusion_lon": 0.0}, {"lat": 38.8990335, "is_disabled": 0, "type": "electric_scooter", "lon": -76.93368883333333, "bike_id": "4f977f45e5b50cf72f179d484b5326fb", "fusion_lat": 0.0, "name": "4f977f45e5b50cf72f179d484b5326fb", "is_reserved": 0, "rental_uris": {"android": "https://dc.lft.to/lastmile_qr_scan", "ios": "https://dc.lft.to/lastmile_qr_scan"}, "fusion_lon": 0.0}, {"lat": 38.90036516666667, "is_disabled": 0, "type": "electric_scooter", "lon": -76.9972915, "bike_id": "b1e764d40cc7b6071f92abbc7f163d62", "fusion_lat": 0.0, "name": "b1e764d40cc7b6071f92abbc7f163d62", "is_reserved": 0, "rental_uris": {"android": "https://dc.lft.to/lastmile_qr_scan", "ios": "https://dc.lft.to/lastmile_qr_scan"}, "fusion_lon": 0.0}, {"lat": 39.05211583333333, "is_disabled": 0, "type": "electric_bike", "lon": -77.10920433333334, "bike_id": "79f64d22cbf6c7803caf7b67ef4b9779", "fusion_lat": 0.0, "name": "79f64d22cbf6c7803caf7b67ef4b9779", "is_reserved": 0, "rental_uris": {"android": "https://dc.lft.to/lastmile_qr_scan", "ios": "https://dc.lft.to/lastmile_qr_scan"}, "fusion_lon": 0.0}, {"lat": 38.908599833333334, "is_disabled": 0, "type": "electric_scooter", "lon": -76.991686, "bike_id": "58d695951c7817d7f6258c9e0eac3565", "fusion_lat": 0.0, "name": "58d695951c7817d7f6258c9e0eac3565", "is_reserved": 0, "rental_uris": {"android": "https://dc.lft.to/lastmile_qr_scan", "ios": "https://dc.lft.to/lastmile_qr_scan"}, "fusion_lon": 0.0}, {"lat": 38.906253166666666, "is_disabled": 0, "type": "electric_scooter", "lon": -76.98982716666667, "bike_id": "e52578274ee343c2ccb895737dddf3c4", "fusion_lat": 0.0, "name": "e52578274ee343c2ccb895737dddf3c4", "is_reserved": 0, "rental_uris": {"android": "https://dc.lft.to/lastmile_qr_scan", "ios": "https://dc.lft.to/lastmile_qr_scan"}, "fusion_lon": 0.0}, {"lat": 38.92752183333333, "is_disabled": 0, "type": "electric_scooter", "lon": -77.025386, "bike_id": "4a193d9b3d937b517276d2361234e5f6", "fusion_lat": 0.0, "name": "4a193d9b3d937b517276d2361234e5f6", "is_reserved": 0, "rental_uris": {"android": "https://dc.lft.to/lastmile_qr_scan", "ios": "https://dc.lft.to/lastmile_qr_scan"}, "fusion_lon": 0.0}, {"lat": 38.85912116666667, "is_disabled": 0, "type": "electric_scooter", "lon": -76.99149316666667, "bike_id": "7e858677c9b44bb8fa266e8d8eb36b47", "fusion_lat": 0.0, "name": "7e858677c9b44bb8fa266e8d8eb36b47", "is_reserved": 0, "rental_uris": {"android": "https://dc.lft.to/lastmile_qr_scan", "ios": "https://dc.lft.to/lastmile_qr_scan"}, "fusion_lon": 0.0}, {"lat": 38.89115416666667, "is_disabled": 0, "type": "electric_scooter", "lon": -76.94384, "bike_id": "db48014ca8699abc979121c2ce1045c8", "fusion_lat": 0.0, "name": "db48014ca8699abc979121c2ce1045c8", "is_reserved": 0, "rental_uris": {"android": "https://dc.lft.to/lastmile_qr_scan", "ios": "https://dc.lft.to/lastmile_qr_scan"}, "fusion_lon": 0.0}, {"lat": 38.900585666666665, "is_disabled": 0, "type": "electric_scooter", "lon": -76.993799, "bike_id": "6b35c01adc3063a7692e1faa38e0ee5d", "fusion_lat": 0.0, "name": "6b35c01adc3063a7692e1faa38e0ee5d", "is_reserved": 0, "rental_uris": {"android": "https://dc.lft.to/lastmile_qr_scan", "ios": "https://dc.lft.to/lastmile_qr_scan"}, "fusion_lon": 0.0}, {"lat": 38.911086166666664, "is_disabled": 0, "type": "electric_scooter", "lon": -77.04230016666666, "bike_id": "4aee60de2c1784630f9e58bf712d9161", "fusion_lat": 0.0, "name": "4aee60de2c1784630f9e58bf712d9161", "is_reserved": 0, "rental_uris": {"android": "https://dc.lft.to/lastmile_qr_scan", "ios": "https://dc.lft.to/lastmile_qr_scan"}, "fusion_lon": 0.0}, {"lat": 38.86661, "is_disabled": 0, "type": "electric_scooter", "lon": -76.988863, "bike_id": "39fffdda0dcabbd6a4dcb732f7da7992", "fusion_lat": 0.0, "name": "39fffdda0dcabbd6a4dcb732f7da7992", "is_reserved": 0, "rental_uris": {"android": "https://dc.lft.to/lastmile_qr_scan", "ios": "https://dc.lft.to/lastmile_qr_scan"}, "fusion_lon": 0.0}, {"lat": 38.91567116666667, "is_disabled": 0, "type": "electric_scooter", "lon": -77.05322133333334, "bike_id": "d603ffb0d0f4d5b159dc61bedc515140", "fusion_lat": 0.0, "name": "d603ffb0d0f4d5b159dc61bedc515140", "is_reserved": 0, "rental_uris": {"android": "https://dc.lft.to/lastmile_qr_scan", "ios": "https://dc.lft.to/lastmile_qr_scan"}, "fusion_lon": 0.0}, {"lat": 38.89531866666667, "is_disabled": 0, "type": "electric_scooter", "lon": -77.028241, "bike_id": "d659be5272efe2fb5db27a156194da58", "fusion_lat": 0.0, "name": "d659be5272efe2fb5db27a156194da58", "is_reserved": 0, "rental_uris": {"android": "https://dc.lft.to/lastmile_qr_scan", "ios": "https://dc.lft.to/lastmile_qr_scan"}, "fusion_lon": 0.0}, {"lat": 38.947489833333336, "is_disabled": 0, "type": "electric_scooter", "lon": -77.06524133333333, "bike_id": "69f2bd5d1eb9f99b31ae89b4babd9f42", "fusion_lat": 0.0, "name": "69f2bd5d1eb9f99b31ae89b4babd9f42", "is_reserved": 0, "rental_uris": {"android": "https://dc.lft.to/lastmile_qr_scan", "ios": "https://dc.lft.to/lastmile_qr_scan"}, "fusion_lon": 0.0}, {"lat": 38.92199683333333, "is_disabled": 0, "type": "electric_scooter", "lon": -77.03984383333334, "bike_id": "b2f69b45c475254763bb583bed2dc6e5", "fusion_lat": 0.0, "name": "b2f69b45c475254763bb583bed2dc6e5", "is_reserved": 0, "rental_uris": {"android": "https://dc.lft.to/lastmile_qr_scan", "ios": "https://dc.lft.to/lastmile_qr_scan"}, "fusion_lon": 0.0}, {"lat": 38.91459533333333, "is_disabled": 0, "type": "electric_scooter", "lon": -77.03207383333333, "bike_id": "ed707d31ac3173e1685ee1b4fb3b8233", "fusion_lat": 0.0, "name": "ed707d31ac3173e1685ee1b4fb3b8233", "is_reserved": 0, "rental_uris": {"android": "https://dc.lft.to/lastmile_qr_scan", "ios": "https://dc.lft.to/lastmile_qr_scan"}, "fusion_lon": 0.0}, {"lat": 38.92490133333333, "is_disabled": 0, "type": "electric_scooter", "lon": -77.028346, "bike_id": "cbdc34a2677ab15a0ab346e9f4b4f42b", "fusion_lat": 0.0, "name": "cbdc34a2677ab15a0ab346e9f4b4f42b", "is_reserved": 0, "rental_uris": {"android": "https://dc.lft.to/lastmile_qr_scan", "ios": "https://dc.lft.to/lastmile_qr_scan"}, "fusion_lon": 0.0}, {"lat": 38.8443225, "is_disabled": 0, "type": "electric_scooter", "lon": -76.997769, "bike_id": "2f84ba5ff3f30aa1eb32fc1363e86ae1", "fusion_lat": 0.0, "name": "2f84ba5ff3f30aa1eb32fc1363e86ae1", "is_reserved": 0, "rental_uris": {"android": "https://dc.lft.to/lastmile_qr_scan", "ios": "https://dc.lft.to/lastmile_qr_scan"}, "fusion_lon": 0.0}, {"lat": 38.874767, "is_disabled": 0, "type": "electric_scooter", "lon": -77.00517616666667, "bike_id": "99215535f50fcf92e6d4cead01fa7ca1", "fusion_lat": 0.0, "name": "99215535f50fcf92e6d4cead01fa7ca1", "is_reserved": 0, "rental_uris": {"android": "https://dc.lft.to/lastmile_qr_scan", "ios": "https://dc.lft.to/lastmile_qr_scan"}, "fusion_lon": 0.0}, {"lat": 38.9866365, "is_disabled": 0, "type": "electric_bike", "lon": -77.05633066666667, "bike_id": "902715e074e85495fcb4d173016721fe", "fusion_lat": 0.0, "name": "902715e074e85495fcb4d173016721fe", "is_reserved": 0, "rental_uris": {"android": "https://dc.lft.to/lastmile_qr_scan", "ios": "https://dc.lft.to/lastmile_qr_scan"}, "fusion_lon": 0.0}, {"lat": 38.9077825, "is_disabled": 0, "type": "electric_scooter", "lon": -77.03856633333334, "bike_id": "4ec41d2c43cdd2f1cd305d53a9d5e93c", "fusion_lat": 0.0, "name": "4ec41d2c43cdd2f1cd305d53a9d5e93c", "is_reserved": 0, "rental_uris": {"android": "https://dc.lft.to/lastmile_qr_scan", "ios": "https://dc.lft.to/lastmile_qr_scan"}, "fusion_lon": 0.0}, {"lat": 38.914795166666664, "is_disabled": 0, "type": "electric_scooter", "lon": -77.00354966666667, "bike_id": "6a8334c804a16ef34ac473f1ce852aff", "fusion_lat": 0.0, "name": "6a8334c804a16ef34ac473f1ce852aff", "is_reserved": 0, "rental_uris": {"android": "https://dc.lft.to/lastmile_qr_scan", "ios": "https://dc.lft.to/lastmile_qr_scan"}, "fusion_lon": 0.0}, {"lat": 38.946389833333335, "is_disabled": 0, "type": "electric_scooter", "lon": -77.01847366666667, "bike_id": "58bd637ed57d4e25cbcd937149a3fd39", "fusion_lat": 0.0, "name": "58bd637ed57d4e25cbcd937149a3fd39", "is_reserved": 0, "rental_uris": {"android": "https://dc.lft.to/lastmile_qr_scan", "ios": "https://dc.lft.to/lastmile_qr_scan"}, "fusion_lon": 0.0}, {"lat": 38.897319333333336, "is_disabled": 0, "type": "electric_scooter", "lon": -77.02005266666667, "bike_id": "54a91ecf6acc1883b70c7d0d2794828b", "fusion_lat": 0.0, "name": "54a91ecf6acc1883b70c7d0d2794828b", "is_reserved": 0, "rental_uris": {"android": "https://dc.lft.to/lastmile_qr_scan", "ios": "https://dc.lft.to/lastmile_qr_scan"}, "fusion_lon": 0.0}, {"lat": 38.951894833333334, "is_disabled": 0, "type": "electric_bike", "lon": -76.93545833333333, "bike_id": "c5a6e782a0af8b821ee3d9aef2d01f7c", "fusion_lat": 0.0, "name": "c5a6e782a0af8b821ee3d9aef2d01f7c", "is_reserved": 0, "rental_uris": {"android": "https://dc.lft.to/lastmile_qr_scan", "ios": "https://dc.lft.to/lastmile_qr_scan"}, "fusion_lon": 0.0}, {"lat": 38.867516333333334, "is_disabled": 0, "type": "electric_scooter", "lon": -76.9766685, "bike_id": "980ed5ada7627c585eadeb769268b4bf", "fusion_lat": 0.0, "name": "980ed5ada7627c585eadeb769268b4bf", "is_reserved": 0, "rental_uris": {"android": "https://dc.lft.to/lastmile_qr_scan", "ios": "https://dc.lft.to/lastmile_qr_scan"}, "fusion_lon": 0.0}, {"lat": 38.910579166666665, "is_disabled": 0, "type": "electric_scooter", "lon": -77.015263, "bike_id": "696a6c9544637feeeef258dc302a5157", "fusion_lat": 0.0, "name": "696a6c9544637feeeef258dc302a5157", "is_reserved": 0, "rental_uris": {"android": "https://dc.lft.to/lastmile_qr_scan", "ios": "https://dc.lft.to/lastmile_qr_scan"}, "fusion_lon": 0.0}, {"lat": 38.9122125, "is_disabled": 0, "type": "electric_scooter", "lon": -77.07593933333334, "bike_id": "77b0217030f9d426eed721d5c32e1832", "fusion_lat": 0.0, "name": "77b0217030f9d426eed721d5c32e1832", "is_reserved": 0, "rental_uris": {"android": "https://dc.lft.to/lastmile_qr_scan", "ios": "https://dc.lft.to/lastmile_qr_scan"}, "fusion_lon": 0.0}, {"lat": 38.862609166666665, "is_disabled": 0, "type": "electric_scooter", "lon": -76.98694716666667, "bike_id": "bf8945d19d79883b15b1d8e669008780", "fusion_lat": 0.0, "name": "bf8945d19d79883b15b1d8e669008780", "is_reserved": 0, "rental_uris": {"android": "https://dc.lft.to/lastmile_qr_scan", "ios": "https://dc.lft.to/lastmile_qr_scan"}, "fusion_lon": 0.0}, {"lat": 38.911184, "is_disabled": 0, "type": "electric_scooter", "lon": -77.02137366666666, "bike_id": "224e42abcb6079c53403471d61fd01b2", "fusion_lat": 0.0, "name": "224e42abcb6079c53403471d61fd01b2", "is_reserved": 0, "rental_uris": {"android": "https://dc.lft.to/lastmile_qr_scan", "ios": "https://dc.lft.to/lastmile_qr_scan"}, "fusion_lon": 0.0}, {"lat": 38.87739583333333, "is_disabled": 0, "type": "electric_bike", "lon": -77.11850183333334, "bike_id": "fcd372a0ec471f85e9b6f3f1bdd54a39", "fusion_lat": 0.0, "name": "fcd372a0ec471f85e9b6f3f1bdd54a39", "is_reserved": 0, "rental_uris": {"android": "https://dc.lft.to/lastmile_qr_scan", "ios": "https://dc.lft.to/lastmile_qr_scan"}, "fusion_lon": 0.0}, {"lat": 38.9573545, "is_disabled": 0, "type": "electric_scooter", "lon": -77.02384466666666, "bike_id": "c20fda820fbb5c1a8be7af29a9789f57", "fusion_lat": 0.0, "name": "c20fda820fbb5c1a8be7af29a9789f57", "is_reserved": 0, "rental_uris": {"android": "https://dc.lft.to/lastmile_qr_scan", "ios": "https://dc.lft.to/lastmile_qr_scan"}, "fusion_lon": 0.0}, {"lat": 38.90892216666667, "is_disabled": 0, "type": "electric_scooter", "lon": -77.03664566666667, "bike_id": "ed4ddf2385cb6786cbe6028e38331647", "fusion_lat": 0.0, "name": "ed4ddf2385cb6786cbe6028e38331647", "is_reserved": 0, "rental_uris": {"android": "https://dc.lft.to/lastmile_qr_scan", "ios": "https://dc.lft.to/lastmile_qr_scan"}, "fusion_lon": 0.0}, {"lat": 38.911964166666664, "is_disabled": 0, "type": "electric_scooter", "lon": -77.04477833333333, "bike_id": "c5fabc295e8ddd842e05246e8901a2a2", "fusion_lat": 0.0, "name": "c5fabc295e8ddd842e05246e8901a2a2", "is_reserved": 0, "rental_uris": {"android": "https://dc.lft.to/lastmile_qr_scan", "ios": "https://dc.lft.to/lastmile_qr_scan"}, "fusion_lon": 0.0}, {"lat": 38.86621816666667, "is_disabled": 0, "type": "electric_scooter", "lon": -76.9866175, "bike_id": "34dd65793a5a47ad01b79bb35c36c451", "fusion_lat": 0.0, "name": "34dd65793a5a47ad01b79bb35c36c451", "is_reserved": 0, "rental_uris": {"android": "https://dc.lft.to/lastmile_qr_scan", "ios": "https://dc.lft.to/lastmile_qr_scan"}, "fusion_lon": 0.0}, {"lat": 38.9358715, "is_disabled": 0, "type": "electric_scooter", "lon": -77.03756233333333, "bike_id": "2dcebababf23cecdfc41c0e3122f573f", "fusion_lat": 0.0, "name": "2dcebababf23cecdfc41c0e3122f573f", "is_reserved": 0, "rental_uris": {"android": "https://dc.lft.to/lastmile_qr_scan", "ios": "https://dc.lft.to/lastmile_qr_scan"}, "fusion_lon": 0.0}, {"lat": 38.91418383333333, "is_disabled": 0, "type": "electric_scooter", "lon": -77.0221145, "bike_id": "923ecd966cf9a72b1a3a7925c08dbdfe", "fusion_lat": 0.0, "name": "923ecd966cf9a72b1a3a7925c08dbdfe", "is_reserved": 0, "rental_uris": {"android": "https://dc.lft.to/lastmile_qr_scan", "ios": "https://dc.lft.to/lastmile_qr_scan"}, "fusion_lon": 0.0}, {"lat": 38.8943055, "is_disabled": 0, "type": "electric_scooter", "lon": -77.0209425, "bike_id": "006a16ad4689a766999f1936405e506d", "fusion_lat": 0.0, "name": "006a16ad4689a766999f1936405e506d", "is_reserved": 0, "rental_uris": {"android": "https://dc.lft.to/lastmile_qr_scan", "ios": "https://dc.lft.to/lastmile_qr_scan"}, "fusion_lon": 0.0}, {"lat": 38.901610166666664, "is_disabled": 0, "type": "electric_scooter", "lon": -77.05125466666667, "bike_id": "da7da58cba6a799fd727f1bca7419584", "fusion_lat": 0.0, "name": "da7da58cba6a799fd727f1bca7419584", "is_reserved": 0, "rental_uris": {"android": "https://dc.lft.to/lastmile_qr_scan", "ios": "https://dc.lft.to/lastmile_qr_scan"}, "fusion_lon": 0.0}, {"lat": 38.950875833333335, "is_disabled": 0, "type": "electric_bike", "lon": -77.012049, "bike_id": "672c5c1b8991afd14a4b1b5041e0b165", "fusion_lat": 0.0, "name": "672c5c1b8991afd14a4b1b5041e0b165", "is_reserved": 0, "rental_uris": {"android": "https://dc.lft.to/lastmile_qr_scan", "ios": "https://dc.lft.to/lastmile_qr_scan"}, "fusion_lon": 0.0}, {"lat": 38.91936, "is_disabled": 0, "type": "electric_scooter", "lon": -77.02494783333333, "bike_id": "e776020bcca43e399d8bb7e019d93e9f", "fusion_lat": 0.0, "name": "e776020bcca43e399d8bb7e019d93e9f", "is_reserved": 0, "rental_uris": {"android": "https://dc.lft.to/lastmile_qr_scan", "ios": "https://dc.lft.to/lastmile_qr_scan"}, "fusion_lon": 0.0}, {"lat": 38.907636833333335, "is_disabled": 0, "type": "electric_scooter", "lon": -77.04165816666666, "bike_id": "702b37545dc49a35fd68a403aff22f34", "fusion_lat": 0.0, "name": "702b37545dc49a35fd68a403aff22f34", "is_reserved": 0, "rental_uris": {"android": "https://dc.lft.to/lastmile_qr_scan", "ios": "https://dc.lft.to/lastmile_qr_scan"}, "fusion_lon": 0.0}, {"lat": 38.899744166666665, "is_disabled": 0, "type": "electric_scooter", "lon": -77.0527765, "bike_id": "e8e3afced9235891f4880e9fe154613f", "fusion_lat": 0.0, "name": "e8e3afced9235891f4880e9fe154613f", "is_reserved": 0, "rental_uris": {"android": "https://dc.lft.to/lastmile_qr_scan", "ios": "https://dc.lft.to/lastmile_qr_scan"}, "fusion_lon": 0.0}, {"lat": 38.9063715, "is_disabled": 0, "type": "electric_scooter", "lon": -77.00583566666667, "bike_id": "cc727f5a7c9fc12a4c4cbe4f9ab3a5c9", "fusion_lat": 0.0, "name": "cc727f5a7c9fc12a4c4cbe4f9ab3a5c9", "is_reserved": 0, "rental_uris": {"android": "https://dc.lft.to/lastmile_qr_scan", "ios": "https://dc.lft.to/lastmile_qr_scan"}, "fusion_lon": 0.0}, {"lat": 38.90192366666667, "is_disabled": 0, "type": "electric_scooter", "lon": -77.02187683333334, "bike_id": "50086e0e8ddcf4ce9b3315a65d0885db", "fusion_lat": 0.0, "name": "50086e0e8ddcf4ce9b3315a65d0885db", "is_reserved": 0, "rental_uris": {"android": "https://dc.lft.to/lastmile_qr_scan", "ios": "https://dc.lft.to/lastmile_qr_scan"}, "fusion_lon": 0.0}, {"lat": 38.8828675, "is_disabled": 0, "type": "electric_bike", "lon": -76.93242116666667, "bike_id": "9fdd416bd65ac5725f9030abcaa33eed", "fusion_lat": 0.0, "name": "9fdd416bd65ac5725f9030abcaa33eed", "is_reserved": 0, "rental_uris": {"android": "https://dc.lft.to/lastmile_qr_scan", "ios": "https://dc.lft.to/lastmile_qr_scan"}, "fusion_lon": 0.0}, {"lat": 38.9033685, "is_disabled": 0, "type": "electric_scooter", "lon": -76.97054666666666, "bike_id": "1a9499a5aa3d6303f9abf0458d2ece37", "fusion_lat": 0.0, "name": "1a9499a5aa3d6303f9abf0458d2ece37", "is_reserved": 0, "rental_uris": {"android": "https://dc.lft.to/lastmile_qr_scan", "ios": "https://dc.lft.to/lastmile_qr_scan"}, "fusion_lon": 0.0}, {"lat": 38.91509933333333, "is_disabled": 0, "type": "electric_scooter", "lon": -76.9837625, "bike_id": "ae711582a1e96023f6c9f348312b76dd", "fusion_lat": 0.0, "name": "ae711582a1e96023f6c9f348312b76dd", "is_reserved": 0, "rental_uris": {"android": "https://dc.lft.to/lastmile_qr_scan", "ios": "https://dc.lft.to/lastmile_qr_scan"}, "fusion_lon": 0.0}, {"lat": 38.90984916666667, "is_disabled": 0, "type": "electric_scooter", "lon": -77.0320635, "bike_id": "94a1dc60780ef1b38db6ce86c0931d7d", "fusion_lat": 0.0, "name": "94a1dc60780ef1b38db6ce86c0931d7d", "is_reserved": 0, "rental_uris": {"android": "https://dc.lft.to/lastmile_qr_scan", "ios": "https://dc.lft.to/lastmile_qr_scan"}, "fusion_lon": 0.0}, {"lat": 38.902784833333335, "is_disabled": 0, "type": "electric_scooter", "lon": -77.01918683333334, "bike_id": "b82177116d48c21fe03c3575d98cfbc0", "fusion_lat": 0.0, "name": "b82177116d48c21fe03c3575d98cfbc0", "is_reserved": 0, "rental_uris": {"android": "https://dc.lft.to/lastmile_qr_scan", "ios": "https://dc.lft.to/lastmile_qr_scan"}, "fusion_lon": 0.0}, {"lat": 38.9078115, "is_disabled": 0, "type": "electric_scooter", "lon": -77.0386145, "bike_id": "439f393ad2fc15b98cba02dd1c240863", "fusion_lat": 0.0, "name": "439f393ad2fc15b98cba02dd1c240863", "is_reserved": 0, "rental_uris": {"android": "https://dc.lft.to/lastmile_qr_scan", "ios": "https://dc.lft.to/lastmile_qr_scan"}, "fusion_lon": 0.0}, {"lat": 38.868957333333334, "is_disabled": 0, "type": "electric_scooter", "lon": -76.98310716666667, "bike_id": "88eeadec5ea579a0edeafc49d5be278f", "fusion_lat": 0.0, "name": "88eeadec5ea579a0edeafc49d5be278f", "is_reserved": 0, "rental_uris": {"android": "https://dc.lft.to/lastmile_qr_scan", "ios": "https://dc.lft.to/lastmile_qr_scan"}, "fusion_lon": 0.0}, {"lat": 38.882639166666664, "is_disabled": 0, "type": "electric_scooter", "lon": -77.00432483333333, "bike_id": "3bd0f69a25bacbaf2ee74992303c269b", "fusion_lat": 0.0, "name": "3bd0f69a25bacbaf2ee74992303c269b", "is_reserved": 0, "rental_uris": {"android": "https://dc.lft.to/lastmile_qr_scan", "ios": "https://dc.lft.to/lastmile_qr_scan"}, "fusion_lon": 0.0}, {"lat": 38.89896, "is_disabled": 0, "type": "electric_scooter", "lon": -76.99734883333333, "bike_id": "19e75f7230ddb345d2af3cb143b5007f", "fusion_lat": 0.0, "name": "19e75f7230ddb345d2af3cb143b5007f", "is_reserved": 0, "rental_uris": {"android": "https://dc.lft.to/lastmile_qr_scan", "ios": "https://dc.lft.to/lastmile_qr_scan"}, "fusion_lon": 0.0}, {"lat": 38.90575583333333, "is_disabled": 0, "type": "electric_scooter", "lon": -77.00849866666667, "bike_id": "daf80231807c05adf82e7feb14d9c575", "fusion_lat": 0.0, "name": "daf80231807c05adf82e7feb14d9c575", "is_reserved": 0, "rental_uris": {"android": "https://dc.lft.to/lastmile_qr_scan", "ios": "https://dc.lft.to/lastmile_qr_scan"}, "fusion_lon": 0.0}, {"lat": 38.897433, "is_disabled": 0, "type": "electric_scooter", "lon": -77.02328816666666, "bike_id": "6a0042784dec9e421bcc1f0b14170793", "fusion_lat": 0.0, "name": "6a0042784dec9e421bcc1f0b14170793", "is_reserved": 0, "rental_uris": {"android": "https://dc.lft.to/lastmile_qr_scan", "ios": "https://dc.lft.to/lastmile_qr_scan"}, "fusion_lon": 0.0}, {"lat": 38.900502, "is_disabled": 0, "type": "electric_scooter", "lon": -77.01326116666667, "bike_id": "f303819db35568b2b6e363844786575d", "fusion_lat": 0.0, "name": "f303819db35568b2b6e363844786575d", "is_reserved": 0, "rental_uris": {"android": "https://dc.lft.to/lastmile_qr_scan", "ios": "https://dc.lft.to/lastmile_qr_scan"}, "fusion_lon": 0.0}, {"lat": 38.903017166666665, "is_disabled": 0, "type": "electric_scooter", "lon": -77.0021795, "bike_id": "743ffe9690304a993ee90d48364678b7", "fusion_lat": 0.0, "name": "743ffe9690304a993ee90d48364678b7", "is_reserved": 0, "rental_uris": {"android": "https://dc.lft.to/lastmile_qr_scan", "ios": "https://dc.lft.to/lastmile_qr_scan"}, "fusion_lon": 0.0}, {"lat": 38.908585, "is_disabled": 0, "type": "electric_scooter", "lon": -77.00376616666667, "bike_id": "9b631cc085a792845b09911fc0a3d212", "fusion_lat": 0.0, "name": "9b631cc085a792845b09911fc0a3d212", "is_reserved": 0, "rental_uris": {"android": "https://dc.lft.to/lastmile_qr_scan", "ios": "https://dc.lft.to/lastmile_qr_scan"}, "fusion_lon": 0.0}, {"lat": 38.9060215, "is_disabled": 0, "type": "electric_scooter", "lon": -77.03400383333333, "bike_id": "b72bae84289086f4c59e9709970b671b", "fusion_lat": 0.0, "name": "b72bae84289086f4c59e9709970b671b", "is_reserved": 0, "rental_uris": {"android": "https://dc.lft.to/lastmile_qr_scan", "ios": "https://dc.lft.to/lastmile_qr_scan"}, "fusion_lon": 0.0}, {"lat": 38.92689283333333, "is_disabled": 0, "type": "electric_scooter", "lon": -77.01569366666666, "bike_id": "fa1aba19c813c0082726aa12f55732c2", "fusion_lat": 0.0, "name": "fa1aba19c813c0082726aa12f55732c2", "is_reserved": 0, "rental_uris": {"android": "https://dc.lft.to/lastmile_qr_scan", "ios": "https://dc.lft.to/lastmile_qr_scan"}, "fusion_lon": 0.0}, {"lat": 38.949107, "is_disabled": 0, "type": "electric_bike", "lon": -76.97239316666666, "bike_id": "8e010dd1aea25ba9f7444f9350feab56", "fusion_lat": 0.0, "name": "8e010dd1aea25ba9f7444f9350feab56", "is_reserved": 0, "rental_uris": {"android": "https://dc.lft.to/lastmile_qr_scan", "ios": "https://dc.lft.to/lastmile_qr_scan"}, "fusion_lon": 0.0}, {"lat": 38.88342216666667, "is_disabled": 0, "type": "electric_scooter", "lon": -77.00934366666667, "bike_id": "e624e8833a860ec14d7649d944df6e26", "fusion_lat": 0.0, "name": "e624e8833a860ec14d7649d944df6e26", "is_reserved": 0, "rental_uris": {"android": "https://dc.lft.to/lastmile_qr_scan", "ios": "https://dc.lft.to/lastmile_qr_scan"}, "fusion_lon": 0.0}, {"lat": 38.921929166666665, "is_disabled": 0, "type": "electric_scooter", "lon": -77.043508, "bike_id": "1fbc3ab977f37cb90f18b21ba1697239", "fusion_lat": 0.0, "name": "1fbc3ab977f37cb90f18b21ba1697239", "is_reserved": 0, "rental_uris": {"android": "https://dc.lft.to/lastmile_qr_scan", "ios": "https://dc.lft.to/lastmile_qr_scan"}, "fusion_lon": 0.0}, {"lat": 38.9398985, "is_disabled": 0, "type": "electric_scooter", "lon": -77.02890616666667, "bike_id": "81875eb9fa7e1a5a1cf71a96dfe63adf", "fusion_lat": 0.0, "name": "81875eb9fa7e1a5a1cf71a96dfe63adf", "is_reserved": 0, "rental_uris": {"android": "https://dc.lft.to/lastmile_qr_scan", "ios": "https://dc.lft.to/lastmile_qr_scan"}, "fusion_lon": 0.0}, {"lat": 38.898055166666666, "is_disabled": 0, "type": "electric_scooter", "lon": -77.05028433333334, "bike_id": "1b63ccad601e22a7ac627ac6a0cb13b4", "fusion_lat": 0.0, "name": "1b63ccad601e22a7ac627ac6a0cb13b4", "is_reserved": 0, "rental_uris": {"android": "https://dc.lft.to/lastmile_qr_scan", "ios": "https://dc.lft.to/lastmile_qr_scan"}, "fusion_lon": 0.0}, {"lat": 38.793403, "is_disabled": 0, "type": "electric_bike", "lon": -77.0401725, "bike_id": "927afee0f88859b8daf932592cf1b66c", "fusion_lat": 0.0, "name": "927afee0f88859b8daf932592cf1b66c", "is_reserved": 0, "rental_uris": {"android": "https://dc.lft.to/lastmile_qr_scan", "ios": "https://dc.lft.to/lastmile_qr_scan"}, "fusion_lon": 0.0}, {"lat": 38.90068016666667, "is_disabled": 0, "type": "electric_scooter", "lon": -77.0019615, "bike_id": "d64188c81384356a066760289372acfe", "fusion_lat": 0.0, "name": "d64188c81384356a066760289372acfe", "is_reserved": 0, "rental_uris": {"android": "https://dc.lft.to/lastmile_qr_scan", "ios": "https://dc.lft.to/lastmile_qr_scan"}, "fusion_lon": 0.0}, {"lat": 38.928492, "is_disabled": 0, "type": "electric_scooter", "lon": -77.01401733333333, "bike_id": "34052cdf09c098df331e9c300bba6d04", "fusion_lat": 0.0, "name": "34052cdf09c098df331e9c300bba6d04", "is_reserved": 0, "rental_uris": {"android": "https://dc.lft.to/lastmile_qr_scan", "ios": "https://dc.lft.to/lastmile_qr_scan"}, "fusion_lon": 0.0}, {"lat": 38.9235915, "is_disabled": 0, "type": "electric_scooter", "lon": -77.03393583333333, "bike_id": "dc32d08fabfca17cdae14d5ece66af22", "fusion_lat": 0.0, "name": "dc32d08fabfca17cdae14d5ece66af22", "is_reserved": 0, "rental_uris": {"android": "https://dc.lft.to/lastmile_qr_scan", "ios": "https://dc.lft.to/lastmile_qr_scan"}, "fusion_lon": 0.0}, {"lat": 38.901043, "is_disabled": 0, "type": "electric_scooter", "lon": -77.02505916666667, "bike_id": "b98b0693be61a3ec631a5e463bca0156", "fusion_lat": 0.0, "name": "b98b0693be61a3ec631a5e463bca0156", "is_reserved": 0, "rental_uris": {"android": "https://dc.lft.to/lastmile_qr_scan", "ios": "https://dc.lft.to/lastmile_qr_scan"}, "fusion_lon": 0.0}, {"lat": 38.919136333333334, "is_disabled": 0, "type": "electric_scooter", "lon": -77.03196233333334, "bike_id": "8d0c40e6e50c0bfeb366e16457cbc61a", "fusion_lat": 0.0, "name": "8d0c40e6e50c0bfeb366e16457cbc61a", "is_reserved": 0, "rental_uris": {"android": "https://dc.lft.to/lastmile_qr_scan", "ios": "https://dc.lft.to/lastmile_qr_scan"}, "fusion_lon": 0.0}, {"lat": 38.94393766666666, "is_disabled": 0, "type": "electric_scooter", "lon": -77.01983133333333, "bike_id": "53ca291e7f3ea4c3a9535c75c67ad262", "fusion_lat": 0.0, "name": "53ca291e7f3ea4c3a9535c75c67ad262", "is_reserved": 0, "rental_uris": {"android": "https://dc.lft.to/lastmile_qr_scan", "ios": "https://dc.lft.to/lastmile_qr_scan"}, "fusion_lon": 0.0}, {"lat": 38.8550905, "is_disabled": 0, "type": "electric_bike", "lon": -77.12035533333334, "bike_id": "5f7f0568b5c66d5d9ab3a73df8cf5a06", "fusion_lat": 0.0, "name": "5f7f0568b5c66d5d9ab3a73df8cf5a06", "is_reserved": 0, "rental_uris": {"android": "https://dc.lft.to/lastmile_qr_scan", "ios": "https://dc.lft.to/lastmile_qr_scan"}, "fusion_lon": 0.0}, {"lat": 38.9444295, "is_disabled": 0, "type": "electric_scooter", "lon": -77.0150625, "bike_id": "4a1e8bc1fafc73ca0278ef4d044bc455", "fusion_lat": 0.0, "name": "4a1e8bc1fafc73ca0278ef4d044bc455", "is_reserved": 0, "rental_uris": {"android": "https://dc.lft.to/lastmile_qr_scan", "ios": "https://dc.lft.to/lastmile_qr_scan"}, "fusion_lon": 0.0}, {"lat": 38.852000833333335, "is_disabled": 0, "type": "electric_bike", "lon": -76.96111666666667, "bike_id": "5eb2776a77e55d843eddfc4cbc799d70", "fusion_lat": 0.0, "name": "5eb2776a77e55d843eddfc4cbc799d70", "is_reserved": 0, "rental_uris": {"android": "https://dc.lft.to/lastmile_qr_scan", "ios": "https://dc.lft.to/lastmile_qr_scan"}, "fusion_lon": 0.0}, {"lat": 38.911175666666665, "is_disabled": 0, "type": "electric_scooter", "lon": -77.03832, "bike_id": "c819da4badc377a3493be251106f03d4", "fusion_lat": 0.0, "name": "c819da4badc377a3493be251106f03d4", "is_reserved": 0, "rental_uris": {"android": "https://dc.lft.to/lastmile_qr_scan", "ios": "https://dc.lft.to/lastmile_qr_scan"}, "fusion_lon": 0.0}, {"lat": 38.884951, "is_disabled": 0, "type": "electric_scooter", "lon": -77.007304, "bike_id": "b3e31e151e52475252d4fb58ce8ac6a5", "fusion_lat": 0.0, "name": "b3e31e151e52475252d4fb58ce8ac6a5", "is_reserved": 0, "rental_uris": {"android": "https://dc.lft.to/lastmile_qr_scan", "ios": "https://dc.lft.to/lastmile_qr_scan"}, "fusion_lon": 0.0}, {"lat": 38.91564483333333, "is_disabled": 0, "type": "electric_scooter", "lon": -77.02425, "bike_id": "66a8d3bab662c42062e61f4efe7c7c61", "fusion_lat": 0.0, "name": "66a8d3bab662c42062e61f4efe7c7c61", "is_reserved": 0, "rental_uris": {"android": "https://dc.lft.to/lastmile_qr_scan", "ios": "https://dc.lft.to/lastmile_qr_scan"}, "fusion_lon": 0.0}, {"lat": 38.933412833333335, "is_disabled": 0, "type": "electric_scooter", "lon": -76.99310216666666, "bike_id": "01a77b4baf770981ffb594f21bf19741", "fusion_lat": 0.0, "name": "01a77b4baf770981ffb594f21bf19741", "is_reserved": 0, "rental_uris": {"android": "https://dc.lft.to/lastmile_qr_scan", "ios": "https://dc.lft.to/lastmile_qr_scan"}, "fusion_lon": 0.0}, {"lat": 38.90018, "is_disabled": 0, "type": "electric_scooter", "lon": -76.92228616666667, "bike_id": "cc935537d951d46ce2244eb0e8a2a4d2", "fusion_lat": 0.0, "name": "cc935537d951d46ce2244eb0e8a2a4d2", "is_reserved": 0, "rental_uris": {"android": "https://dc.lft.to/lastmile_qr_scan", "ios": "https://dc.lft.to/lastmile_qr_scan"}, "fusion_lon": 0.0}, {"lat": 38.900682333333336, "is_disabled": 0, "type": "electric_scooter", "lon": -77.02595266666667, "bike_id": "6fa10627a31cde994ee373d48fc99ad2", "fusion_lat": 0.0, "name": "6fa10627a31cde994ee373d48fc99ad2", "is_reserved": 0, "rental_uris": {"android": "https://dc.lft.to/lastmile_qr_scan", "ios": "https://dc.lft.to/lastmile_qr_scan"}, "fusion_lon": 0.0}, {"lat": 38.931523, "is_disabled": 0, "type": "electric_scooter", "lon": -77.0214225, "bike_id": "7d3b89c1754b4f00050b1c51ba97053b", "fusion_lat": 0.0, "name": "7d3b89c1754b4f00050b1c51ba97053b", "is_reserved": 0, "rental_uris": {"android": "https://dc.lft.to/lastmile_qr_scan", "ios": "https://dc.lft.to/lastmile_qr_scan"}, "fusion_lon": 0.0}, {"lat": 38.91443983333333, "is_disabled": 0, "type": "electric_scooter", "lon": -77.0296795, "bike_id": "168625b4178a64216b57f78500ddecc9", "fusion_lat": 0.0, "name": "168625b4178a64216b57f78500ddecc9", "is_reserved": 0, "rental_uris": {"android": "https://dc.lft.to/lastmile_qr_scan", "ios": "https://dc.lft.to/lastmile_qr_scan"}, "fusion_lon": 0.0}, {"lat": 38.922433166666664, "is_disabled": 0, "type": "electric_scooter", "lon": -77.042464, "bike_id": "a6768afbc7f5adfcc30498ba69dd1684", "fusion_lat": 0.0, "name": "a6768afbc7f5adfcc30498ba69dd1684", "is_reserved": 0, "rental_uris": {"android": "https://dc.lft.to/lastmile_qr_scan", "ios": "https://dc.lft.to/lastmile_qr_scan"}, "fusion_lon": 0.0}, {"lat": 38.9012315, "is_disabled": 0, "type": "electric_scooter", "lon": -76.98639216666666, "bike_id": "8f2955647165ed1f2b73fb6b54aceec7", "fusion_lat": 0.0, "name": "8f2955647165ed1f2b73fb6b54aceec7", "is_reserved": 0, "rental_uris": {"android": "https://dc.lft.to/lastmile_qr_scan", "ios": "https://dc.lft.to/lastmile_qr_scan"}, "fusion_lon": 0.0}, {"lat": 38.914111, "is_disabled": 0, "type": "electric_scooter", "lon": -77.03855983333334, "bike_id": "8793cbbecd1ffd727827482bd6839dac", "fusion_lat": 0.0, "name": "8793cbbecd1ffd727827482bd6839dac", "is_reserved": 0, "rental_uris": {"android": "https://dc.lft.to/lastmile_qr_scan", "ios": "https://dc.lft.to/lastmile_qr_scan"}, "fusion_lon": 0.0}, {"lat": 38.917723, "is_disabled": 0, "type": "electric_scooter", "lon": -77.02805666666667, "bike_id": "23d048a514d33d97d762fa594f866d50", "fusion_lat": 0.0, "name": "23d048a514d33d97d762fa594f866d50", "is_reserved": 0, "rental_uris": {"android": "https://dc.lft.to/lastmile_qr_scan", "ios": "https://dc.lft.to/lastmile_qr_scan"}, "fusion_lon": 0.0}, {"lat": 38.88015933333333, "is_disabled": 0, "type": "electric_scooter", "lon": -77.02435783333334, "bike_id": "06ad1b0304eac058cdc247be077ab521", "fusion_lat": 0.0, "name": "06ad1b0304eac058cdc247be077ab521", "is_reserved": 0, "rental_uris": {"android": "https://dc.lft.to/lastmile_qr_scan", "ios": "https://dc.lft.to/lastmile_qr_scan"}, "fusion_lon": 0.0}, {"lat": 38.91699466666667, "is_disabled": 0, "type": "electric_scooter", "lon": -77.037696, "bike_id": "13ff7ef57a1c765b2673bbbb589e5bb4", "fusion_lat": 0.0, "name": "13ff7ef57a1c765b2673bbbb589e5bb4", "is_reserved": 0, "rental_uris": {"android": "https://dc.lft.to/lastmile_qr_scan", "ios": "https://dc.lft.to/lastmile_qr_scan"}, "fusion_lon": 0.0}, {"lat": 38.90023866666667, "is_disabled": 0, "type": "electric_scooter", "lon": -77.01199116666666, "bike_id": "36bdcf4a361394fd16edc4ba3b3a8805", "fusion_lat": 0.0, "name": "36bdcf4a361394fd16edc4ba3b3a8805", "is_reserved": 0, "rental_uris": {"android": "https://dc.lft.to/lastmile_qr_scan", "ios": "https://dc.lft.to/lastmile_qr_scan"}, "fusion_lon": 0.0}, {"lat": 38.93313666666667, "is_disabled": 0, "type": "electric_scooter", "lon": -77.04520716666667, "bike_id": "e378a05847b3b5b8890c59201f690212", "fusion_lat": 0.0, "name": "e378a05847b3b5b8890c59201f690212", "is_reserved": 0, "rental_uris": {"android": "https://dc.lft.to/lastmile_qr_scan", "ios": "https://dc.lft.to/lastmile_qr_scan"}, "fusion_lon": 0.0}, {"lat": 38.90728466666667, "is_disabled": 0, "type": "electric_scooter", "lon": -77.0434745, "bike_id": "a7e2b285d508e41c1ee2f7873c0a7c16", "fusion_lat": 0.0, "name": "a7e2b285d508e41c1ee2f7873c0a7c16", "is_reserved": 0, "rental_uris": {"android": "https://dc.lft.to/lastmile_qr_scan", "ios": "https://dc.lft.to/lastmile_qr_scan"}, "fusion_lon": 0.0}, {"lat": 38.878831, "is_disabled": 0, "type": "electric_scooter", "lon": -77.00740583333334, "bike_id": "7ca89a727cec29b12873c9dd1b08ce5b", "fusion_lat": 0.0, "name": "7ca89a727cec29b12873c9dd1b08ce5b", "is_reserved": 0, "rental_uris": {"android": "https://dc.lft.to/lastmile_qr_scan", "ios": "https://dc.lft.to/lastmile_qr_scan"}, "fusion_lon": 0.0}, {"lat": 38.898822, "is_disabled": 0, "type": "electric_scooter", "lon": -77.020182, "bike_id": "8598f010e890cd7e9e2b15b1def1c7f8", "fusion_lat": 0.0, "name": "8598f010e890cd7e9e2b15b1def1c7f8", "is_reserved": 0, "rental_uris": {"android": "https://dc.lft.to/lastmile_qr_scan", "ios": "https://dc.lft.to/lastmile_qr_scan"}, "fusion_lon": 0.0}, {"lat": 38.877375666666666, "is_disabled": 0, "type": "electric_bike", "lon": -76.98106566666667, "bike_id": "315f8ece97692d9cf04c369b83f798ba", "fusion_lat": 0.0, "name": "315f8ece97692d9cf04c369b83f798ba", "is_reserved": 0, "rental_uris": {"android": "https://dc.lft.to/lastmile_qr_scan", "ios": "https://dc.lft.to/lastmile_qr_scan"}, "fusion_lon": 0.0}, {"lat": 38.916729833333335, "is_disabled": 0, "type": "electric_scooter", "lon": -77.02399033333333, "bike_id": "82d45d31235df54665ab46bc457e2a51", "fusion_lat": 0.0, "name": "82d45d31235df54665ab46bc457e2a51", "is_reserved": 0, "rental_uris": {"android": "https://dc.lft.to/lastmile_qr_scan", "ios": "https://dc.lft.to/lastmile_qr_scan"}, "fusion_lon": 0.0}, {"lat": 38.8974545, "is_disabled": 0, "type": "electric_scooter", "lon": -77.00071316666667, "bike_id": "d9ab51ed4b718b39af726b93fd81e347", "fusion_lat": 0.0, "name": "d9ab51ed4b718b39af726b93fd81e347", "is_reserved": 0, "rental_uris": {"android": "https://dc.lft.to/lastmile_qr_scan", "ios": "https://dc.lft.to/lastmile_qr_scan"}, "fusion_lon": 0.0}, {"lat": 38.83237666666667, "is_disabled": 0, "type": "electric_bike", "lon": -77.04971833333333, "bike_id": "6b2e7f717107d240074ce88398068cc0", "fusion_lat": 0.0, "name": "6b2e7f717107d240074ce88398068cc0", "is_reserved": 0, "rental_uris": {"android": "https://dc.lft.to/lastmile_qr_scan", "ios": "https://dc.lft.to/lastmile_qr_scan"}, "fusion_lon": 0.0}, {"lat": 38.86682, "is_disabled": 0, "type": "electric_scooter", "lon": -76.98542016666667, "bike_id": "5fedec58b74fe7fa209c1d579d68eab9", "fusion_lat": 0.0, "name": "5fedec58b74fe7fa209c1d579d68eab9", "is_reserved": 0, "rental_uris": {"android": "https://dc.lft.to/lastmile_qr_scan", "ios": "https://dc.lft.to/lastmile_qr_scan"}, "fusion_lon": 0.0}, {"lat": 38.926390833333336, "is_disabled": 0, "type": "electric_scooter", "lon": -77.042907, "bike_id": "3c324043a654450161d0be8619866def", "fusion_lat": 0.0, "name": "3c324043a654450161d0be8619866def", "is_reserved": 0, "rental_uris": {"android": "https://dc.lft.to/lastmile_qr_scan", "ios": "https://dc.lft.to/lastmile_qr_scan"}, "fusion_lon": 0.0}, {"lat": 38.90854683333333, "is_disabled": 0, "type": "electric_scooter", "lon": -77.006241, "bike_id": "4d2f6d5eb384ddafc830fda9748ac414", "fusion_lat": 0.0, "name": "4d2f6d5eb384ddafc830fda9748ac414", "is_reserved": 0, "rental_uris": {"android": "https://dc.lft.to/lastmile_qr_scan", "ios": "https://dc.lft.to/lastmile_qr_scan"}, "fusion_lon": 0.0}, {"lat": 38.9376895, "is_disabled": 0, "type": "electric_scooter", "lon": -77.02133866666667, "bike_id": "4489f1a6baa63ee5c4acdb3ff7d917bf", "fusion_lat": 0.0, "name": "4489f1a6baa63ee5c4acdb3ff7d917bf", "is_reserved": 0, "rental_uris": {"android": "https://dc.lft.to/lastmile_qr_scan", "ios": "https://dc.lft.to/lastmile_qr_scan"}, "fusion_lon": 0.0}, {"lat": 38.9181735, "is_disabled": 0, "type": "electric_bike", "lon": -77.22344583333333, "bike_id": "1033240459c0eb4df9b90e07603de5ba", "fusion_lat": 0.0, "name": "1033240459c0eb4df9b90e07603de5ba", "is_reserved": 0, "rental_uris": {"android": "https://dc.lft.to/lastmile_qr_scan", "ios": "https://dc.lft.to/lastmile_qr_scan"}, "fusion_lon": 0.0}, {"lat": 38.896842166666666, "is_disabled": 0, "type": "electric_scooter", "lon": -77.0512715, "bike_id": "b5403f128bb228fa54ec515ca63481a3", "fusion_lat": 0.0, "name": "b5403f128bb228fa54ec515ca63481a3", "is_reserved": 0, "rental_uris": {"android": "https://dc.lft.to/lastmile_qr_scan", "ios": "https://dc.lft.to/lastmile_qr_scan"}, "fusion_lon": 0.0}, {"lat": 38.930434166666664, "is_disabled": 0, "type": "electric_scooter", "lon": -77.02966333333333, "bike_id": "e3683619ec81524ba3c3d5a1a90c13db", "fusion_lat": 0.0, "name": "e3683619ec81524ba3c3d5a1a90c13db", "is_reserved": 0, "rental_uris": {"android": "https://dc.lft.to/lastmile_qr_scan", "ios": "https://dc.lft.to/lastmile_qr_scan"}, "fusion_lon": 0.0}, {"lat": 38.89228633333333, "is_disabled": 0, "type": "electric_scooter", "lon": -77.026332, "bike_id": "046b8bf83363fbbc17e68f81d5dcfb12", "fusion_lat": 0.0, "name": "046b8bf83363fbbc17e68f81d5dcfb12", "is_reserved": 0, "rental_uris": {"android": "https://dc.lft.to/lastmile_qr_scan", "ios": "https://dc.lft.to/lastmile_qr_scan"}, "fusion_lon": 0.0}, {"lat": 38.919556, "is_disabled": 0, "type": "electric_scooter", "lon": -76.9807655, "bike_id": "64275086d534ebfea52608885ddcfe41", "fusion_lat": 0.0, "name": "64275086d534ebfea52608885ddcfe41", "is_reserved": 0, "rental_uris": {"android": "https://dc.lft.to/lastmile_qr_scan", "ios": "https://dc.lft.to/lastmile_qr_scan"}, "fusion_lon": 0.0}, {"lat": 38.902785, "is_disabled": 0, "type": "electric_scooter", "lon": -77.028265, "bike_id": "690c1ffa79620550b5e72987ed9b32b5", "fusion_lat": 0.0, "name": "690c1ffa79620550b5e72987ed9b32b5", "is_reserved": 0, "rental_uris": {"android": "https://dc.lft.to/lastmile_qr_scan", "ios": "https://dc.lft.to/lastmile_qr_scan"}, "fusion_lon": 0.0}, {"lat": 38.8556535, "is_disabled": 0, "type": "electric_bike", "lon": -77.11135583333333, "bike_id": "854cbf4b587e3b92e54cb67bc8f4c52c", "fusion_lat": 0.0, "name": "854cbf4b587e3b92e54cb67bc8f4c52c", "is_reserved": 0, "rental_uris": {"android": "https://dc.lft.to/lastmile_qr_scan", "ios": "https://dc.lft.to/lastmile_qr_scan"}, "fusion_lon": 0.0},