{"data": {"bikes": [{"fusion_lat": 0.0, "type": "electric_scooter", "bike_id": "cc059887075f3527266d10626ae0494b", "lat": 38.895274, "name": "cc059887075f3527266d10626ae0494b", "is_disabled": 0, "rental_uris": {"android": "https://dc.lft.to/lastmile_qr_scan", "ios": "https://dc.lft.to/lastmile_qr_scan"}, "fusion_lon": 0.0, "lon": -77.003443, "is_reserved": 0}, {"fusion_lat": 0.0, "type": "electric_scooter", "bike_id": "5aaaf48fa3f6614f8cd0cbb4c370af45", "lat": 38.9298155, "name": "5aaaf48fa3f6614f8cd0cbb4c370af45", "is_disabled": 0, "rental_uris": {"android": "https://dc.lft.to/lastmile_qr_scan", "ios": "https://dc.lft.to/lastmile_qr_scan"}, "fusion_lon": 0.0, "lon": -77.03470433333334, "is_reserved": 0}, {"fusion_lat": 0.0, "type": "electric_scooter", "bike_id": "ace560713eec6f77839bb480650e75dd", "lat": 38.909705333333335, "name": "ace560713eec6f77839bb480650e75dd", "is_disabled": 0, "rental_uris": {"android": "https://dc.lft.to/lastmile_qr_scan", "ios": "https://dc.lft.to/lastmile_qr_scan"}, "fusion_lon": 0.0, "lon": -76.98465716666666, "is_reserved": 0}, {"fusion_lat": 0.0, "type": "electric_scooter", "bike_id": "da9cb717fc37b0adcddd131c15ce40ab", "lat": 38.908087333333334, "name": "da9cb717fc37b0adcddd131c15ce40ab", "is_disabled": 0, "rental_uris": {"android": "https://dc.lft.to/lastmile_qr_scan", "ios": "https://dc.lft.to/lastmile_qr_scan"}, "fusion_lon": 0.0, "lon": -76.997031, "is_reserved": 0}, {"fusion_lat": 0.0, "type": "electric_scooter", "bike_id": "e56575a1933a8f477603717f51c657e7", "lat": 38.900943, "name": "e56575a1933a8f477603717f51c657e7", "is_disabled": 0, "rental_uris": {"android": "https://dc.lft.to/lastmile_qr_scan", "ios": "https://dc.lft.to/lastmile_qr_scan"}, "fusion_lon": 0.0, "lon": -76.97683066666667, "is_reserved": 0}, {"fusion_lat": 0.0, "type": "electric_scooter", "bike_id": "abaec9ad1aa46a9b41f5a8a722b91ebf", "lat": 38.88259766666667, "name": "abaec9ad1aa46a9b41f5a8a722b91ebf", "is_disabled": 0, "rental_uris": {"android": "https://dc.lft.to/lastmile_qr_scan", "ios": "https://dc.lft.to/lastmile_qr_scan"}, "fusion_lon": 0.0, "lon": -77.003712, "is_reserved": 0}, {"fusion_lat": 0.0, "type": "electric_scooter", "bike_id": "55a4d76213e87eacd7e85e7688134802", "lat": 38.92469916666667, "name": "55a4d76213e87eacd7e85e7688134802", "is_disabled": 0, "rental_uris": {"android": "https://dc.lft.to/lastmile_qr_scan", "ios": "https://dc.lft.to/lastmile_qr_scan"}, "fusion_lon": 0.0, "lon": -77.02228116666667, "is_reserved": 0}, {"fusion_lat": 0.0, "type": "electric_scooter", "bike_id": "3a9d833f1ff4a7746c545c92dda29eee", "lat": 38.85776033333333, "name": "3a9d833f1ff4a7746c545c92dda29eee", "is_disabled": 0, "rental_uris": {"android": "https://dc.lft.to/lastmile_qr_scan", "ios": "https://dc.lft.to/lastmile_qr_scan"}, "fusion_lon": 0.0, "lon": -76.9885505, "is_reserved": 0}, {"fusion_lat": 0.0, "type": "electric_scooter", "bike_id": "db2d846464e6984aa75bcc870282fb35", "lat": 38.9021805, "name": "db2d846464e6984aa75bcc870282fb35", "is_disabled": 0, "rental_uris": {"android": "https://dc.lft.to/lastmile_qr_scan", "ios": "https://dc.lft.to/lastmile_qr_scan"}, "fusion_lon": 0.0, "lon": -77.03437183333334, "is_reserved": 0}, {"fusion_lat": 0.0, "type": "electric_scooter", "bike_id": "eac43cd234f75a41a0bc49d573e12c8e", "lat": 38.90505116666667, "name": "eac43cd234f75a41a0bc49d573e12c8e", "is_disabled": 0, "rental_uris": {"android": "https://dc.lft.to/lastmile_qr_scan", "ios": "https://dc.lft.to/lastmile_qr_scan"}, "fusion_lon": 0.0, "lon": -77.02933733333333, "is_reserved": 0}, {"fusion_lat": 0.0, "type": "electric_bike", "bike_id": "d4285d412623f154c586baa5fd08ce2d", "lat": 38.906160166666666, "name": "d4285d412623f154c586baa5fd08ce2d", "is_disabled": 0, "rental_uris": {"android": "https://dc.lft.to/lastmile_qr_scan", "ios": "https://dc.lft.to/lastmile_qr_scan"}, "fusion_lon": 0.0, "lon": -77.1289, "is_reserved": 0}, {"fusion_lat": 0.0, "type": "electric_scooter", "bike_id": "1ae0bd6a3041929d0859d9d6cc703063", "lat": 38.914112333333335, "name": "1ae0bd6a3041929d0859d9d6cc703063", "is_disabled": 0, "rental_uris": {"android": "https://dc.lft.to/lastmile_qr_scan", "ios": "https://dc.lft.to/lastmile_qr_scan"}, "fusion_lon": 0.0, "lon": -77.01802666666667, "is_reserved": 0}, {"fusion_lat": 0.0, "type": "electric_scooter", "bike_id": "28ba4cbd525923124b9ec54488dade9f", "lat": 38.89822516666667, "name": "28ba4cbd525923124b9ec54488dade9f", "is_disabled": 0, "rental_uris": {"android": "https://dc.lft.to/lastmile_qr_scan", "ios": "https://dc.lft.to/lastmile_qr_scan"}, "fusion_lon": 0.0, "lon": -77.01221733333334, "is_reserved": 0}, {"fusion_lat": 0.0, "type": "electric_scooter", "bike_id": "d09b57085780270744c1cedcea084c12", "lat": 38.9376045, "name": "d09b57085780270744c1cedcea084c12", "is_disabled": 0, "rental_uris": {"android": "https://dc.lft.to/lastmile_qr_scan", "ios": "https://dc.lft.to/lastmile_qr_scan"}, "fusion_lon": 0.0, "lon": -77.02487566666667, "is_reserved": 0}, {"fusion_lat": 0.0, "type": "electric_scooter", "bike_id": "4700011a54b9a144c359685881373340", "lat": 38.92217466666666, "name": "4700011a54b9a144c359685881373340", "is_disabled": 0, "rental_uris": {"android": "https://dc.lft.to/lastmile_qr_scan", "ios": "https://dc.lft.to/lastmile_qr_scan"}, "fusion_lon": 0.0, "lon": -77.02029966666667, "is_reserved": 0}, {"fusion_lat": 0.0, "type": "electric_scooter", "bike_id": "d87cada5d0b48520b9b8093ed714883f", "lat": 38.91603716666667, "name": "d87cada5d0b48520b9b8093ed714883f", "is_disabled": 0, "rental_uris": {"android": "https://dc.lft.to/lastmile_qr_scan", "ios": "https://dc.lft.to/lastmile_qr_scan"}, "fusion_lon": 0.0, "lon": -77.04902483333333, "is_reserved": 0}, {"fusion_lat": 0.0, "type": "electric_scooter", "bike_id": "f6284cc7afed99e46d05ee29610d0af9", "lat": 38.89365566666667, "name": "f6284cc7afed99e46d05ee29610d0af9", "is_disabled": 0, "rental_uris": {"android": "https://dc.lft.to/lastmile_qr_scan", "ios": "https://dc.lft.to/lastmile_qr_scan"}, "fusion_lon": 0.0, "lon": -77.00332383333334, "is_reserved": 0}, {"fusion_lat": 0.0, "type": "electric_scooter", "bike_id": "d5705de6fa98e0ddceb2fb4375640b17", "lat": 38.896106, "name": "d5705de6fa98e0ddceb2fb4375640b17", "is_disabled": 0, "rental_uris": {"android": "https://dc.lft.to/lastmile_qr_scan", "ios": "https://dc.lft.to/lastmile_qr_scan"}, "fusion_lon": 0.0, "lon": -77.00918733333333, "is_reserved": 0}, {"fusion_lat": 0.0, "type": "electric_scooter", "bike_id": "869711f73ba975b1f58f181a92d95753", "lat": 38.903105333333336, "name": "869711f73ba975b1f58f181a92d95753", "is_disabled": 0, "rental_uris": {"android": "https://dc.lft.to/lastmile_qr_scan", "ios": "https://dc.lft.to/lastmile_qr_scan"}, "fusion_lon": 0.0, "lon": -77.02365716666667, "is_reserved": 0}, {"fusion_lat": 0.0, "type": "electric_scooter", "bike_id": "8918cc8af31bd982a189b44b1cb9c812", "lat": 38.91858333333333, "name": "8918cc8af31bd982a189b44b1cb9c812", "is_disabled": 0, "rental_uris": {"android": "https://dc.lft.to/lastmile_qr_scan", "ios": "https://dc.lft.to/lastmile_qr_scan"}, "fusion_lon": 0.0, "lon": -77.03208366666667, "is_reserved": 0}, {"fusion_lat": 0.0, "type": "electric_scooter", "bike_id": "8099f29d3c5ac1b81957b284980297ce", "lat": 38.897459833333336, "name": "8099f29d3c5ac1b81957b284980297ce", "is_disabled": 0, "rental_uris": {"android": "https://dc.lft.to/lastmile_qr_scan", "ios": "https://dc.lft.to/lastmile_qr_scan"}, "fusion_lon": 0.0, "lon": -77.01890016666667, "is_reserved": 0}, {"fusion_lat": 0.0, "type": "electric_scooter", "bike_id": "c79b0e14b602c350840ca338b3b088bb", "lat": 38.91920016666667, "name": "c79b0e14b602c350840ca338b3b088bb", "is_disabled": 0, "rental_uris": {"android": "https://dc.lft.to/lastmile_qr_scan", "ios": "https://dc.lft.to/lastmile_qr_scan"}, "fusion_lon": 0.0, "lon": -77.02473933333333, "is_reserved": 0}, {"fusion_lat": 0.0, "type": "electric_scooter", "bike_id": "206dc0d880238a602e90f7d4f49534d1", "lat": 38.88125466666666, "name": "206dc0d880238a602e90f7d4f49534d1", "is_disabled": 0, "rental_uris": {"android": "https://dc.lft.to/lastmile_qr_scan", "ios": "https://dc.lft.to/lastmile_qr_scan"}, "fusion_lon": 0.0, "lon": -77.00096283333333, "is_reserved": 0}, {"fusion_lat": 0.0, "type": "electric_scooter", "bike_id": "5f52c0ea0ecbb79b0385f2da57984f0b", "lat": 38.898995, "name": "5f52c0ea0ecbb79b0385f2da57984f0b", "is_disabled": 0, "rental_uris": {"android": "https://dc.lft.to/lastmile_qr_scan", "ios": "https://dc.lft.to/lastmile_qr_scan"}, "fusion_lon": 0.0, "lon": -77.02606833333333, "is_reserved": 0}, {"fusion_lat": 0.0, "type": "electric_scooter", "bike_id": "1e341a2839d9cfd358869a734f81b8e3", "lat": 38.9261385, "name": "1e341a2839d9cfd358869a734f81b8e3", "is_disabled": 0, "rental_uris": {"android": "https://dc.lft.to/lastmile_qr_scan", "ios": "https://dc.lft.to/lastmile_qr_scan"}, "fusion_lon": 0.0, "lon": -77.0215895, "is_reserved": 0}, {"fusion_lat": 0.0, "type": "electric_scooter", "bike_id": "da15e4cbe2680c2e7de546a1a26f2436", "lat": 38.89855516666667, "name": "da15e4cbe2680c2e7de546a1a26f2436", "is_disabled": 0, "rental_uris": {"android": "https://dc.lft.to/lastmile_qr_scan", "ios": "https://dc.lft.to/lastmile_qr_scan"}, "fusion_lon": 0.0, "lon": -77.03192766666666, "is_reserved": 0}, {"fusion_lat": 0.0, "type": "electric_scooter", "bike_id": "752ce74941e673f931142cbf3ce330d4", "lat": 38.89222916666667, "name": "752ce74941e673f931142cbf3ce330d4", "is_disabled": 0, "rental_uris": {"android": "https://dc.lft.to/lastmile_qr_scan", "ios": "https://dc.lft.to/lastmile_qr_scan"}, "fusion_lon": 0.0, "lon": -77.04114883333334, "is_reserved": 0}, {"fusion_lat": 0.0, "type": "electric_bike", "bike_id": "5824b0269414e68bcd5a5ead3bfb5a87", "lat": 38.9910065, "name": "5824b0269414e68bcd5a5ead3bfb5a87", "is_disabled": 0, "rental_uris": {"android": "https://dc.lft.to/lastmile_qr_scan", "ios": "https://dc.lft.to/lastmile_qr_scan"}, "fusion_lon": 0.0, "lon": -76.99377633333333, "is_reserved": 0}, {"fusion_lat": 0.0, "type": "electric_scooter", "bike_id": "37d6c340a9f920e34f5313a4d9862b96", "lat": 38.934285833333334, "name": "37d6c340a9f920e34f5313a4d9862b96", "is_disabled": 0, "rental_uris": {"android": "https://dc.lft.to/lastmile_qr_scan", "ios": "https://dc.lft.to/lastmile_qr_scan"}, "fusion_lon": 0.0, "lon": -77.04003783333333, "is_reserved": 0}, {"fusion_lat": 0.0, "type": "electric_scooter", "bike_id": "1cf861ea6b6d312f79713980ee93d42d", "lat": 38.920394, "name": "1cf861ea6b6d312f79713980ee93d42d", "is_disabled": 0, "rental_uris": {"android": "https://dc.lft.to/lastmile_qr_scan", "ios": "https://dc.lft.to/lastmile_qr_scan"}, "fusion_lon": 0.0, "lon": -77.01702416666667, "is_reserved": 0}, {"fusion_lat": 0.0, "type": "electric_scooter", "bike_id": "5a602a80321d62bc5742e4b980deb3f2", "lat": 38.932547, "name": "5a602a80321d62bc5742e4b980deb3f2", "is_disabled": 0, "rental_uris": {"android": "https://dc.lft.to/lastmile_qr_scan", "ios": "https://dc.lft.to/lastmile_qr_scan"}, "fusion_lon": 0.0, "lon": -77.03276983333333, "is_reserved": 0}, {"fusion_lat": 0.0, "type": "electric_scooter", "bike_id": "ebdfa21d5b173baacbce2eeb0c55ec7c", "lat": 38.892446, "name": "ebdfa21d5b173baacbce2eeb0c55ec7c", "is_disabled": 0, "rental_uris": {"android": "https://dc.lft.to/lastmile_qr_scan", "ios": "https://dc.lft.to/lastmile_qr_scan"}, "fusion_lon": 0.0, "lon": -77.05024933333333, "is_reserved": 0}, {"fusion_lat": 0.0, "type": "electric_scooter", "bike_id": "877ad0c1eef31e12b9271b6c393d50ac", "lat": 38.89845033333334, "name": "877ad0c1eef31e12b9271b6c393d50ac", "is_disabled": 0, "rental_uris": {"android": "https://dc.lft.to/lastmile_qr_scan", "ios": "https://dc.lft.to/lastmile_qr_scan"}, "fusion_lon": 0.0, "lon": -76.94637533333334, "is_reserved": 0}, {"fusion_lat": 0.0, "type": "electric_scooter", "bike_id": "2d989d9b896f2e6456f9c9a74afd4195", "lat": 38.88353016666667, "name": "2d989d9b896f2e6456f9c9a74afd4195", "is_disabled": 0, "rental_uris": {"android": "https://dc.lft.to/lastmile_qr_scan", "ios": "https://dc.lft.to/lastmile_qr_scan"}, "fusion_lon": 0.0, "lon": -76.9363335, "is_reserved": 0}, {"fusion_lat": 0.0, "type": "electric_scooter", "bike_id": "d29dc06f9e84882da580cb1ec1b34777", "lat": 38.914217, "name": "d29dc06f9e84882da580cb1ec1b34777", "is_disabled": 0, "rental_uris": {"android": "https://dc.lft.to/lastmile_qr_scan", "ios": "https://dc.lft.to/lastmile_qr_scan"}, "fusion_lon": 0.0, "lon": -77.03926716666666, "is_reserved": 0}, {"fusion_lat": 0.0, "type": "electric_bike", "bike_id": "511704490f86cdf6f58133ea413429c8", "lat": 38.83811216666667, "name": "511704490f86cdf6f58133ea413429c8", "is_disabled": 0, "rental_uris": {"android": "https://dc.lft.to/lastmile_qr_scan", "ios": "https://dc.lft.to/lastmile_qr_scan"}, "fusion_lon": 0.0, "lon": -77.095236, "is_reserved": 0}, {"fusion_lat": 0.0, "type": "electric_scooter", "bike_id": "4af79ade90208216886d53814b5636c7", "lat": 38.934749, "name": "4af79ade90208216886d53814b5636c7", "is_disabled": 0, "rental_uris": {"android": "https://dc.lft.to/lastmile_qr_scan", "ios": "https://dc.lft.to/lastmile_qr_scan"}, "fusion_lon": 0.0, "lon": -77.07275416666667, "is_reserved": 0}, {"fusion_lat": 0.0, "type": "electric_scooter", "bike_id": "31424701435607bfd5a08a52a69531be", "lat": 38.914712, "name": "31424701435607bfd5a08a52a69531be", "is_disabled": 0, "rental_uris": {"android": "https://dc.lft.to/lastmile_qr_scan", "ios": "https://dc.lft.to/lastmile_qr_scan"}, "fusion_lon": 0.0, "lon": -76.9811385, "is_reserved": 0}, {"fusion_lat": 0.0, "type": "electric_scooter", "bike_id": "cbe4bcbe6c0e62c59338617425c2995a", "lat": 38.904863666666664, "name": "cbe4bcbe6c0e62c59338617425c2995a", "is_disabled": 0, "rental_uris": {"android": "https://dc.lft.to/lastmile_qr_scan", "ios": "https://dc.lft.to/lastmile_qr_scan"}, "fusion_lon": 0.0, "lon": -77.03550416666667, "is_reserved": 0}, {"fusion_lat": 0.0, "type": "electric_scooter", "bike_id": "53119f5dbfbca5eda048bd98c8b0477e", "lat": 38.89121033333333, "name": "53119f5dbfbca5eda048bd98c8b0477e", "is_disabled": 0, "rental_uris": {"android": "https://dc.lft.to/lastmile_qr_scan", "ios": "https://dc.lft.to/lastmile_qr_scan"}, "fusion_lon": 0.0, "lon": -76.94379716666667, "is_reserved": 0}, {"fusion_lat": 0.0, "type": "electric_scooter", "bike_id": "32b95256a5a7554d6e34e70b6c1fd96a", "lat": 38.907203333333335, "name": "32b95256a5a7554d6e34e70b6c1fd96a", "is_disabled": 0, "rental_uris": {"android": "https://dc.lft.to/lastmile_qr_scan", "ios": "https://dc.lft.to/lastmile_qr_scan"}, "fusion_lon": 0.0, "lon": -76.93010233333334, "is_reserved": 0}, {"fusion_lat": 0.0, "type": "electric_scooter", "bike_id": "d913487897593d53fd71b28a59846aae", "lat": 38.885058, "name": "d913487897593d53fd71b28a59846aae", "is_disabled": 0, "rental_uris": {"android": "https://dc.lft.to/lastmile_qr_scan", "ios": "https://dc.lft.to/lastmile_qr_scan"}, "fusion_lon": 0.0, "lon": -77.005658, "is_reserved": 0}, {"fusion_lat": 0.0, "type": "electric_scooter", "bike_id": "4d99902f18a3c329d40eeccc66165977", "lat": 38.89911633333333, "name": "4d99902f18a3c329d40eeccc66165977", "is_disabled": 0, "rental_uris": {"android": "https://dc.lft.to/lastmile_qr_scan", "ios": "https://dc.lft.to/lastmile_qr_scan"}, "fusion_lon": 0.0, "lon": -77.03934316666667, "is_reserved": 0}, {"fusion_lat": 0.0, "type": "electric_scooter", "bike_id": "d367ef8bbe5bbe7a2a82294dbda15e6f", "lat": 38.89278983333333, "name": "d367ef8bbe5bbe7a2a82294dbda15e6f", "is_disabled": 0, "rental_uris": {"android": "https://dc.lft.to/lastmile_qr_scan", "ios": "https://dc.lft.to/lastmile_qr_scan"}, "fusion_lon": 0.0, "lon": -77.04877133333333, "is_reserved": 0}, {"fusion_lat": 0.0, "type": "electric_scooter", "bike_id": "3bdb68bbb97398bacdbe33da7199aa2d", "lat": 38.923185333333336, "name": "3bdb68bbb97398bacdbe33da7199aa2d", "is_disabled": 0, "rental_uris": {"android": "https://dc.lft.to/lastmile_qr_scan", "ios": "https://dc.lft.to/lastmile_qr_scan"}, "fusion_lon": 0.0, "lon": -77.04338233333333, "is_reserved": 0}, {"fusion_lat": 0.0, "type": "electric_scooter", "bike_id": "c5d56ef700b35cab717edd2a94ab715e", "lat": 38.89223783333333, "name": "c5d56ef700b35cab717edd2a94ab715e", "is_disabled": 0, "rental_uris": {"android": "https://dc.lft.to/lastmile_qr_scan", "ios": "https://dc.lft.to/lastmile_qr_scan"}, "fusion_lon": 0.0, "lon": -77.02761683333334, "is_reserved": 0}, {"fusion_lat": 0.0, "type": "electric_scooter", "bike_id": "4da6612dda76d4741e1d1ae11434fd27", "lat": 38.89548683333334, "name": "4da6612dda76d4741e1d1ae11434fd27", "is_disabled": 0, "rental_uris": {"android": "https://dc.lft.to/lastmile_qr_scan", "ios": "https://dc.lft.to/lastmile_qr_scan"}, "fusion_lon": 0.0, "lon": -76.9833865, "is_reserved": 0}, {"fusion_lat": 0.0, "type": "electric_scooter", "bike_id": "311f125ae3056d299800b42bf5457e90", "lat": 38.8920765, "name": "311f125ae3056d299800b42bf5457e90", "is_disabled": 0, "rental_uris": {"android": "https://dc.lft.to/lastmile_qr_scan", "ios": "https://dc.lft.to/lastmile_qr_scan"}, "fusion_lon": 0.0, "lon": -77.00292866666666, "is_reserved": 0}, {"fusion_lat": 0.0, "type": "electric_scooter", "bike_id": "da2872143af71628d69ed7fcb133eedf", "lat": 38.90114633333334, "name": "da2872143af71628d69ed7fcb133eedf", "is_disabled": 0, "rental_uris": {"android": "https://dc.lft.to/lastmile_qr_scan", "ios": "https://dc.lft.to/lastmile_qr_scan"}, "fusion_lon": 0.0, "lon": -77.03185583333334, "is_reserved": 0}, {"fusion_lat": 0.0, "type": "electric_scooter", "bike_id": "d4b35e11a31eac8b25a08885142a86e6", "lat": 38.902582, "name": "d4b35e11a31eac8b25a08885142a86e6", "is_disabled": 0, "rental_uris": {"android": "https://dc.lft.to/lastmile_qr_scan", "ios": "https://dc.lft.to/lastmile_qr_scan"}, "fusion_lon": 0.0, "lon": -77.03827433333333, "is_reserved": 0}, {"fusion_lat": 0.0, "type": "electric_scooter", "bike_id": "b37f5a60358b138131f2c51590d4ef3d", "lat": 38.90611416666667, "name": "b37f5a60358b138131f2c51590d4ef3d", "is_disabled": 0, "rental_uris": {"android": "https://dc.lft.to/lastmile_qr_scan", "ios": "https://dc.lft.to/lastmile_qr_scan"}, "fusion_lon": 0.0, "lon": -77.0404445, "is_reserved": 0}, {"fusion_lat": 0.0, "type": "electric_scooter", "bike_id": "e045b746a7d40cdeb91c0caf1d1e335a", "lat": 38.8987255, "name": "e045b746a7d40cdeb91c0caf1d1e335a", "is_disabled": 0, "rental_uris": {"android": "https://dc.lft.to/lastmile_qr_scan", "ios": "https://dc.lft.to/lastmile_qr_scan"}, "fusion_lon": 0.0, "lon": -77.00557233333333, "is_reserved": 0}, {"fusion_lat": 0.0, "type": "electric_bike", "bike_id": "e7f156a19359aef94facd936d171d615", "lat": 38.873218666666666, "name": "e7f156a19359aef94facd936d171d615", "is_disabled": 0, "rental_uris": {"android": "https://dc.lft.to/lastmile_qr_scan", "ios": "https://dc.lft.to/lastmile_qr_scan"}, "fusion_lon": 0.0, "lon": -77.114149, "is_reserved": 0}, {"fusion_lat": 0.0, "type": "electric_scooter", "bike_id": "6de13b5329de10314e5122294bf6321f", "lat": 38.9244855, "name": "6de13b5329de10314e5122294bf6321f", "is_disabled": 0, "rental_uris": {"android": "https://dc.lft.to/lastmile_qr_scan", "ios": "https://dc.lft.to/lastmile_qr_scan"}, "fusion_lon": 0.0, "lon": -77.020318, "is_reserved": 0}, {"fusion_lat": 0.0, "type": "electric_scooter", "bike_id": "b42cc11b89ab96452c48c25e7240588d", "lat": 38.922626, "name": "b42cc11b89ab96452c48c25e7240588d", "is_disabled": 0, "rental_uris": {"android": "https://dc.lft.to/lastmile_qr_scan", "ios": "https://dc.lft.to/lastmile_qr_scan"}, "fusion_lon": 0.0, "lon": -77.0035145, "is_reserved": 0}, {"fusion_lat": 0.0, "type": "electric_scooter", "bike_id": "5873e78e8b256d137c46af444955231e", "lat": 38.889594333333335, "name": "5873e78e8b256d137c46af444955231e", "is_disabled": 0, "rental_uris": {"android": "https://dc.lft.to/lastmile_qr_scan", "ios": "https://dc.lft.to/lastmile_qr_scan"}, "fusion_lon": 0.0, "lon": -76.9312205, "is_reserved": 0}, {"fusion_lat": 0.0, "type": "electric_scooter", "bike_id": "5a60d4e208ed5c8f2f19cd273cb51212", "lat": 38.9134435, "name": "5a60d4e208ed5c8f2f19cd273cb51212", "is_disabled": 0, "rental_uris": {"android": "https://dc.lft.to/lastmile_qr_scan", "ios": "https://dc.lft.to/lastmile_qr_scan"}, "fusion_lon": 0.0, "lon": -77.00922183333333, "is_reserved": 0}, {"fusion_lat": 0.0, "type": "electric_bike", "bike_id": "0aa66e5811dcd0620cbc687fa520be88", "lat": 39.00199083333333, "name": "0aa66e5811dcd0620cbc687fa520be88", "is_disabled": 0, "rental_uris": {"android": "https://dc.lft.to/lastmile_qr_scan", "ios": "https://dc.lft.to/lastmile_qr_scan"}, "fusion_lon": 0.0, "lon": -76.90188383333333, "is_reserved": 0}, {"fusion_lat": 0.0, "type": "electric_scooter", "bike_id": "1bdd08f5f8b596b6e78449b12aa476df", "lat": 38.8985465, "name": "1bdd08f5f8b596b6e78449b12aa476df", "is_disabled": 0, "rental_uris": {"android": "https://dc.lft.to/lastmile_qr_scan", "ios": "https://dc.lft.to/lastmile_qr_scan"}, "fusion_lon": 0.0, "lon": -76.99030433333333, "is_reserved": 0}, {"fusion_lat": 0.0, "type": "electric_scooter", "bike_id": "9f186d9f5112582e39b2df0769725a6e", "lat": 38.89360883333333, "name": "9f186d9f5112582e39b2df0769725a6e", "is_disabled": 0, "rental_uris": {"android": "https://dc.lft.to/lastmile_qr_scan", "ios": "https://dc.lft.to/lastmile_qr_scan"}, "fusion_lon": 0.0, "lon": -77.00332716666666, "is_reserved": 0}, {"fusion_lat": 0.0, "type": "electric_scooter", "bike_id": "fe542011cd6a32712008877b5bcf3ab9", "lat": 38.935903833333334, "name": "fe542011cd6a32712008877b5bcf3ab9", "is_disabled": 0, "rental_uris": {"android": "https://dc.lft.to/lastmile_qr_scan", "ios": "https://dc.lft.to/lastmile_qr_scan"}, "fusion_lon": 0.0, "lon": -77.058461, "is_reserved": 0}, {"fusion_lat": 0.0, "type": "electric_scooter", "bike_id": "3f3cf977641bcce972b99de8a0f3311e", "lat": 38.9171735, "name": "3f3cf977641bcce972b99de8a0f3311e", "is_disabled": 0, "rental_uris": {"android": "https://dc.lft.to/lastmile_qr_scan", "ios": "https://dc.lft.to/lastmile_qr_scan"}, "fusion_lon": 0.0, "lon": -77.02889716666667, "is_reserved": 0}, {"fusion_lat": 0.0, "type": "electric_scooter", "bike_id": "f32f2152ca911cf88ffaa130b4de30f5", "lat": 38.89809783333333, "name": "f32f2152ca911cf88ffaa130b4de30f5", "is_disabled": 0, "rental_uris": {"android": "https://dc.lft.to/lastmile_qr_scan", "ios": "https://dc.lft.to/lastmile_qr_scan"}, "fusion_lon": 0.0, "lon": -77.048856, "is_reserved": 0}, {"fusion_lat": 0.0, "type": "electric_scooter", "bike_id": "f7a4fda116edcb8d2f4c9c82d53cb7bb", "lat": 38.89408816666667, "name": "f7a4fda116edcb8d2f4c9c82d53cb7bb", "is_disabled": 0, "rental_uris": {"android": "https://dc.lft.to/lastmile_qr_scan", "ios": "https://dc.lft.to/lastmile_qr_scan"}, "fusion_lon": 0.0, "lon": -77.02210833333334, "is_reserved": 0}, {"fusion_lat": 0.0, "type": "electric_scooter", "bike_id": "a107f8319035b116337a89ba9b4cc7b0", "lat": 38.92369766666667, "name": "a107f8319035b116337a89ba9b4cc7b0", "is_disabled": 0, "rental_uris": {"android": "https://dc.lft.to/lastmile_qr_scan", "ios": "https://dc.lft.to/lastmile_qr_scan"}, "fusion_lon": 0.0, "lon": -77.0432055, "is_reserved": 0}, {"fusion_lat": 0.0, "type": "electric_scooter", "bike_id": "2f191f4d7608f6e59936af4d2fe5b5d1", "lat": 38.897528666666666, "name": "2f191f4d7608f6e59936af4d2fe5b5d1", "is_disabled": 0, "rental_uris": {"android": "https://dc.lft.to/lastmile_qr_scan", "ios": "https://dc.lft.to/lastmile_qr_scan"}, "fusion_lon": 0.0, "lon": -77.04167766666667, "is_reserved": 0}, {"fusion_lat": 0.0, "type": "electric_scooter", "bike_id": "f0eda39b2fb6566ec1309d0feb716a35", "lat": 38.89576316666667, "name": "f0eda39b2fb6566ec1309d0feb716a35", "is_disabled": 0, "rental_uris": {"android": "https://dc.lft.to/lastmile_qr_scan", "ios": "https://dc.lft.to/lastmile_qr_scan"}, "fusion_lon": 0.0, "lon": -77.0318605, "is_reserved": 0}, {"fusion_lat": 0.0, "type": "electric_scooter", "bike_id": "a8009d5ec79d8011be8c68f5e4e409d3", "lat": 38.92259583333333, "name": "a8009d5ec79d8011be8c68f5e4e409d3", "is_disabled": 0, "rental_uris": {"android": "https://dc.lft.to/lastmile_qr_scan", "ios": "https://dc.lft.to/lastmile_qr_scan"}, "fusion_lon": 0.0, "lon": -77.019512, "is_reserved": 0}, {"fusion_lat": 0.0, "type": "electric_scooter", "bike_id": "d10ed775d3ea43a3564aca6de61a8c1d", "lat": 38.927244, "name": "d10ed775d3ea43a3564aca6de61a8c1d", "is_disabled": 0, "rental_uris": {"android": "https://dc.lft.to/lastmile_qr_scan", "ios": "https://dc.lft.to/lastmile_qr_scan"}, "fusion_lon": 0.0, "lon": -77.041134, "is_reserved": 0}, {"fusion_lat": 0.0, "type": "electric_scooter", "bike_id": "8b6f70cc4f98b8e3c9dc09f8c7064f8f", "lat": 38.86220983333333, "name": "8b6f70cc4f98b8e3c9dc09f8c7064f8f", "is_disabled": 0, "rental_uris": {"android": "https://dc.lft.to/lastmile_qr_scan", "ios": "https://dc.lft.to/lastmile_qr_scan"}, "fusion_lon": 0.0, "lon": -76.99491216666667, "is_reserved": 0}, {"fusion_lat": 0.0, "type": "electric_scooter", "bike_id": "b1ed829bc69ca4453a3bfa812dcb4781", "lat": 38.90804933333333, "name": "b1ed829bc69ca4453a3bfa812dcb4781", "is_disabled": 0, "rental_uris": {"android": "https://dc.lft.to/lastmile_qr_scan", "ios": "https://dc.lft.to/lastmile_qr_scan"}, "fusion_lon": 0.0, "lon": -77.04157983333333, "is_reserved": 0}, {"fusion_lat": 0.0, "type": "electric_scooter", "bike_id": "07ec8f519d21325e153ec9991fd5e0e4", "lat": 38.91634033333333, "name": "07ec8f519d21325e153ec9991fd5e0e4", "is_disabled": 0, "rental_uris": {"android": "https://dc.lft.to/lastmile_qr_scan", "ios": "https://dc.lft.to/lastmile_qr_scan"}, "fusion_lon": 0.0, "lon": -77.032612, "is_reserved": 0}, {"fusion_lat": 0.0, "type": "electric_scooter", "bike_id": "24c87a675c82c809912baec980727037", "lat": 38.908876, "name": "24c87a675c82c809912baec980727037", "is_disabled": 0, "rental_uris": {"android": "https://dc.lft.to/lastmile_qr_scan", "ios": "https://dc.lft.to/lastmile_qr_scan"}, "fusion_lon": 0.0, "lon": -76.99131116666666, "is_reserved": 0}, {"fusion_lat": 0.0, "type": "electric_scooter", "bike_id": "72a6c24899cce1c79017ef6ba2665d52", "lat": 38.887294, "name": "72a6c24899cce1c79017ef6ba2665d52", "is_disabled": 0, "rental_uris": {"android": "https://dc.lft.to/lastmile_qr_scan", "ios": "https://dc.lft.to/lastmile_qr_scan"}, "fusion_lon": 0.0, "lon": -76.9837935, "is_reserved": 0}, {"fusion_lat": 0.0, "type": "electric_bike", "bike_id": "168f463c60446c3b8b34c40ec7183ae3", "lat": 38.84475966666667, "name": "168f463c60446c3b8b34c40ec7183ae3", "is_disabled": 0, "rental_uris": {"android": "https://dc.lft.to/lastmile_qr_scan", "ios": "https://dc.lft.to/lastmile_qr_scan"}, "fusion_lon": 0.0, "lon": -76.9878755, "is_reserved": 0}, {"fusion_lat": 0.0, "type": "electric_scooter", "bike_id": "4c8705f58ef9a2f3ddd4e2545c076b9b", "lat": 38.90236816666667, "name": "4c8705f58ef9a2f3ddd4e2545c076b9b", "is_disabled": 0, "rental_uris": {"android": "https://dc.lft.to/lastmile_qr_scan", "ios": "https://dc.lft.to/lastmile_qr_scan"}, "fusion_lon": 0.0, "lon": -77.0401355, "is_reserved": 0}, {"fusion_lat": 0.0, "type": "electric_scooter", "bike_id": "60b80e327bb03ee0fd3a9c5c0bdb48e6", "lat": 38.90413233333334, "name": "60b80e327bb03ee0fd3a9c5c0bdb48e6", "is_disabled": 0, "rental_uris": {"android": "https://dc.lft.to/lastmile_qr_scan", "ios": "https://dc.lft.to/lastmile_qr_scan"}, "fusion_lon": 0.0, "lon": -77.06287616666667, "is_reserved": 0}, {"fusion_lat": 0.0, "type": "electric_scooter", "bike_id": "ff501ed796f6b9d5de0400afa040ea27", "lat": 38.91901083333333, "name": "ff501ed796f6b9d5de0400afa040ea27", "is_disabled": 0, "rental_uris": {"android": "https://dc.lft.to/lastmile_qr_scan", "ios": "https://dc.lft.to/lastmile_qr_scan"}, "fusion_lon": 0.0, "lon": -77.020864, "is_reserved": 0}, {"fusion_lat": 0.0, "type": "electric_scooter", "bike_id": "956c16b16276f8246db7d5ba313d196e", "lat": 38.903093, "name": "956c16b16276f8246db7d5ba313d196e", "is_disabled": 0, "rental_uris": {"android": "https://dc.lft.to/lastmile_qr_scan", "ios": "https://dc.lft.to/lastmile_qr_scan"}, "fusion_lon": 0.0, "lon": -77.050512, "is_reserved": 0}, {"fusion_lat": 0.0, "type": "electric_scooter", "bike_id": "41829afdcde80ad5fd0536d2e8524dfb", "lat": 38.90839716666667, "name": "41829afdcde80ad5fd0536d2e8524dfb", "is_disabled": 0, "rental_uris": {"android": "https://dc.lft.to/lastmile_qr_scan", "ios": "https://dc.lft.to/lastmile_qr_scan"}, "fusion_lon": 0.0, "lon": -77.04003916666667, "is_reserved": 0}, {"fusion_lat": 0.0, "type": "electric_bike", "bike_id": "8a5a18c8cb9eb24e97b5ddf520af3068", "lat": 38.911681333333334, "name": "8a5a18c8cb9eb24e97b5ddf520af3068", "is_disabled": 0, "rental_uris": {"android": "https://dc.lft.to/lastmile_qr_scan", "ios": "https://dc.lft.to/lastmile_qr_scan"}, "fusion_lon": 0.0, "lon": -77.0026635, "is_reserved": 0}, {"fusion_lat": 0.0, "type": "electric_scooter", "bike_id": "1a510e65d01e469a6cfb639cfc01ba67", "lat": 38.90298083333333, "name": "1a510e65d01e469a6cfb639cfc01ba67", "is_disabled": 0, "rental_uris": {"android": "https://dc.lft.to/lastmile_qr_scan", "ios": "https://dc.lft.to/lastmile_qr_scan"}, "fusion_lon": 0.0, "lon": -77.02115633333334, "is_reserved": 0}, {"fusion_lat": 0.0, "type": "electric_scooter", "bike_id": "d95dac82893d74b47cb076faa5ad21d7", "lat": 38.90632266666667, "name": "d95dac82893d74b47cb076faa5ad21d7", "is_disabled": 0, "rental_uris": {"android": "https://dc.lft.to/lastmile_qr_scan", "ios": "https://dc.lft.to/lastmile_qr_scan"}, "fusion_lon": 0.0, "lon": -77.00589616666667, "is_reserved": 0}, {"fusion_lat": 0.0, "type": "electric_bike", "bike_id": "bd293ca4198f9b97b319ac271ce4b1c7", "lat": 38.95072166666667, "name": "bd293ca4198f9b97b319ac271ce4b1c7", "is_disabled": 0, "rental_uris": {"android": "https://dc.lft.to/lastmile_qr_scan", "ios": "https://dc.lft.to/lastmile_qr_scan"}, "fusion_lon": 0.0, "lon": -76.99596916666667, "is_reserved": 0}, {"fusion_lat": 0.0, "type": "electric_scooter", "bike_id": "7c0a4be8c1cee61dc90bc62fca5bd905", "lat": 38.908289833333335, "name": "7c0a4be8c1cee61dc90bc62fca5bd905", "is_disabled": 0, "rental_uris": {"android": "https://dc.lft.to/lastmile_qr_scan", "ios": "https://dc.lft.to/lastmile_qr_scan"}, "fusion_lon": 0.0, "lon": -76.994479, "is_reserved": 0}, {"fusion_lat": 0.0, "type": "electric_scooter", "bike_id": "27332f9198444a077912062cb587345e", "lat": 38.92476533333333, "name": "27332f9198444a077912062cb587345e", "is_disabled": 0, "rental_uris": {"android": "https://dc.lft.to/lastmile_qr_scan", "ios": "https://dc.lft.to/lastmile_qr_scan"}, "fusion_lon": 0.0, "lon": -77.03006116666667, "is_reserved": 0}, {"fusion_lat": 0.0, "type": "electric_scooter", "bike_id": "4dd7dbd84ba6d04efa617de36ede0a27", "lat": 38.887556833333335, "name": "4dd7dbd84ba6d04efa617de36ede0a27", "is_disabled": 0, "rental_uris": {"android": "https://dc.lft.to/lastmile_qr_scan", "ios": "https://dc.lft.to/lastmile_qr_scan"}, "fusion_lon": 0.0, "lon": -77.0315245, "is_reserved": 0}, {"fusion_lat": 0.0, "type": "electric_scooter", "bike_id": "ed865acc63c978dc7ba76a4282d16294", "lat": 38.916483166666666, "name": "ed865acc63c978dc7ba76a4282d16294", "is_disabled": 0, "rental_uris": {"android": "https://dc.lft.to/lastmile_qr_scan", "ios": "https://dc.lft.to/lastmile_qr_scan"}, "fusion_lon": 0.0, "lon": -77.02885066666667, "is_reserved": 0}, {"fusion_lat": 0.0, "type": "electric_scooter", "bike_id": "956462271c88c6bd84f21b63c9b67996", "lat": 38.924184833333335, "name": "956462271c88c6bd84f21b63c9b67996", "is_disabled": 0, "rental_uris": {"android": "https://dc.lft.to/lastmile_qr_scan", "ios": "https://dc.lft.to/lastmile_qr_scan"}, "fusion_lon": 0.0, "lon": -77.0194795, "is_reserved": 0}, {"fusion_lat": 0.0, "type": "electric_scooter", "bike_id": "28eb18d3daf5200ac1e2f304db7a6f29", "lat": 38.912948666666665, "name": "28eb18d3daf5200ac1e2f304db7a6f29", "is_disabled": 0, "rental_uris": {"android": "https://dc.lft.to/lastmile_qr_scan", "ios": "https://dc.lft.to/lastmile_qr_scan"}, "fusion_lon": 0.0, "lon": -77.04261166666667, "is_reserved": 0}, {"fusion_lat": 0.0, "type": "electric_scooter", "bike_id": "4390735e4385b352019cd9934aa7be1d", "lat": 38.906483, "name": "4390735e4385b352019cd9934aa7be1d", "is_disabled": 0, "rental_uris": {"android": "https://dc.lft.to/lastmile_qr_scan", "ios": "https://dc.lft.to/lastmile_qr_scan"}, "fusion_lon": 0.0, "lon": -77.01692016666667, "is_reserved": 0}, {"fusion_lat": 0.0, "type": "electric_scooter", "bike_id": "2e3ca15183de275fbc050906d50d6350", "lat": 38.91193166666667, "name": "2e3ca15183de275fbc050906d50d6350", "is_disabled": 0, "rental_uris": {"android": "https://dc.lft.to/lastmile_qr_scan", "ios": "https://dc.lft.to/lastmile_qr_scan"}, "fusion_lon": 0.0, "lon": -77.04536933333333, "is_reserved": 0}, {"fusion_lat": 0.0, "type": "electric_scooter", "bike_id": "8958ff2cbc04d2452e832308473cfca8", "lat": 38.911395, "name": "8958ff2cbc04d2452e832308473cfca8", "is_disabled": 0, "rental_uris": {"android": "https://dc.lft.to/lastmile_qr_scan", "ios": "https://dc.lft.to/lastmile_qr_scan"}, "fusion_lon": 0.0, "lon": -77.02200616666667, "is_reserved": 0}, {"fusion_lat": 0.0, "type": "electric_scooter", "bike_id": "3420a607fe05a55b964b64d1ce3d7b69", "lat": 38.88603066666667, "name": "3420a607fe05a55b964b64d1ce3d7b69", "is_disabled": 0, "rental_uris": {"android": "https://dc.lft.to/lastmile_qr_scan", "ios": "https://dc.lft.to/lastmile_qr_scan"}, "fusion_lon": 0.0, "lon": -76.92496733333333, "is_reserved": 0}, {"fusion_lat": 0.0, "type": "electric_scooter", "bike_id": "c945d00f8737583fc01260ac8d03cf43", "lat": 38.94894, "name": "c945d00f8737583fc01260ac8d03cf43", "is_disabled": 0, "rental_uris": {"android": "https://dc.lft.to/lastmile_qr_scan", "ios": "https://dc.lft.to/lastmile_qr_scan"}, "fusion_lon": 0.0, "lon": -77.06454116666667, "is_reserved": 0}, {"fusion_lat": 0.0, "type": "electric_scooter", "bike_id": "0396b9ac86bbe7e1826251dacc2e80ef", "lat": 38.930542833333334, "name": "0396b9ac86bbe7e1826251dacc2e80ef", "is_disabled": 0, "rental_uris": {"android": "https://dc.lft.to/lastmile_qr_scan", "ios": "https://dc.lft.to/lastmile_qr_scan"}, "fusion_lon": 0.0, "lon": -77.01878966666666, "is_reserved": 0}, {"fusion_lat": 0.0, "type": "electric_scooter", "bike_id": "1456c73eee88d9ab788929b29518f093", "lat": 38.8922155, "name": "1456c73eee88d9ab788929b29518f093", "is_disabled": 0, "rental_uris": {"android": "https://dc.lft.to/lastmile_qr_scan", "ios": "https://dc.lft.to/lastmile_qr_scan"}, "fusion_lon": 0.0, "lon": -77.0411475, "is_reserved": 0}, {"fusion_lat": 0.0, "type": "electric_bike", "bike_id": "580bcb54f6f36d8e2aa7e16a8d139097", "lat": 38.855891166666666, "name": "580bcb54f6f36d8e2aa7e16a8d139097", "is_disabled": 0, "rental_uris": {"android": "https://dc.lft.to/lastmile_qr_scan", "ios": "https://dc.lft.to/lastmile_qr_scan"}, "fusion_lon": 0.0, "lon": -76.97262533333334, "is_reserved": 0}, {"fusion_lat": 0.0, "type": "electric_bike", "bike_id": "1d9d8fec4472042bc5afe6f96c9f8ee0", "lat": 38.985563666666664, "name": "1d9d8fec4472042bc5afe6f96c9f8ee0", "is_disabled": 0, "rental_uris": {"android": "https://dc.lft.to/lastmile_qr_scan", "ios": "https://dc.lft.to/lastmile_qr_scan"}, "fusion_lon": 0.0, "lon": -77.00401433333333, "is_reserved": 0}, {"fusion_lat": 0.0, "type": "electric_scooter", "bike_id": "b879d9b4647307433bb3efcd0048aa2d", "lat": 38.90632733333333, "name": "b879d9b4647307433bb3efcd0048aa2d", "is_disabled": 0, "rental_uris": {"android": "https://dc.lft.to/lastmile_qr_scan", "ios": "https://dc.lft.to/lastmile_qr_scan"}, "fusion_lon": 0.0, "lon": -77.0057875, "is_reserved": 0}, {"fusion_lat": 0.0, "type": "electric_scooter", "bike_id": "36a301992b163b13d4f17b2cf0f2e51d", "lat": 38.89612916666667, "name": "36a301992b163b13d4f17b2cf0f2e51d", "is_disabled": 0, "rental_uris": {"android": "https://dc.lft.to/lastmile_qr_scan", "ios": "https://dc.lft.to/lastmile_qr_scan"}, "fusion_lon": 0.0, "lon": -77.04419166666666, "is_reserved": 0}, {"fusion_lat": 0.0, "type": "electric_scooter", "bike_id": "59171110d004784d5ffb67d8533f97d3", "lat": 38.92118466666667, "name": "59171110d004784d5ffb67d8533f97d3", "is_disabled": 0, "rental_uris": {"android": "https://dc.lft.to/lastmile_qr_scan", "ios": "https://dc.lft.to/lastmile_qr_scan"}, "fusion_lon": 0.0, "lon": -77.03938333333333, "is_reserved": 0}, {"fusion_lat": 0.0, "type": "electric_scooter", "bike_id": "20458773cf37e8bfafe8fbf24d2635b6", "lat": 38.92439433333333, "name": "20458773cf37e8bfafe8fbf24d2635b6", "is_disabled": 0, "rental_uris": {"android": "https://dc.lft.to/lastmile_qr_scan", "ios": "https://dc.lft.to/lastmile_qr_scan"}, "fusion_lon": 0.0, "lon": -77.04252183333334, "is_reserved": 0}, {"fusion_lat": 0.0, "type": "electric_scooter", "bike_id": "26b16eb30e8ee7f358584758f015201b", "lat": 38.92444316666667, "name": "26b16eb30e8ee7f358584758f015201b", "is_disabled": 0, "rental_uris": {"android": "https://dc.lft.to/lastmile_qr_scan", "ios": "https://dc.lft.to/lastmile_qr_scan"}, "fusion_lon": 0.0, "lon": -77.02156333333333, "is_reserved": 0}, {"fusion_lat": 0.0, "type": "electric_scooter", "bike_id": "550a5b1d55bda8f93bc6b111a9d98000", "lat": 38.89285983333333, "name": "550a5b1d55bda8f93bc6b111a9d98000", "is_disabled": 0, "rental_uris": {"android": "https://dc.lft.to/lastmile_qr_scan", "ios": "https://dc.lft.to/lastmile_qr_scan"}, "fusion_lon": 0.0, "lon": -77.050404, "is_reserved": 0}, {"fusion_lat": 0.0, "type": "electric_scooter", "bike_id": "033f9fd32f3af552a951bfaab6a8a21d", "lat": 38.923312, "name": "033f9fd32f3af552a951bfaab6a8a21d", "is_disabled": 0, "rental_uris": {"android": "https://dc.lft.to/lastmile_qr_scan", "ios": "https://dc.lft.to/lastmile_qr_scan"}, "fusion_lon": 0.0, "lon": -77.00890316666667, "is_reserved": 0}, {"fusion_lat": 0.0, "type": "electric_scooter", "bike_id": "e6dfb89a220bb2e3206b3e52cd38daa6", "lat": 38.92690866666667, "name": "e6dfb89a220bb2e3206b3e52cd38daa6", "is_disabled": 0, "rental_uris": {"android": "https://dc.lft.to/lastmile_qr_scan", "ios": "https://dc.lft.to/lastmile_qr_scan"}, "fusion_lon": 0.0, "lon": -77.01571616666666, "is_reserved": 0}, {"fusion_lat": 0.0, "type": "electric_scooter", "bike_id": "054d3bfd2cddf5b78cb1eb8ca0fce4fe", "lat": 38.879272, "name": "054d3bfd2cddf5b78cb1eb8ca0fce4fe", "is_disabled": 0, "rental_uris": {"android": "https://dc.lft.to/lastmile_qr_scan", "ios": "https://dc.lft.to/lastmile_qr_scan"}, "fusion_lon": 0.0, "lon": -77.02374366666666, "is_reserved": 0}, {"fusion_lat": 0.0, "type": "electric_scooter", "bike_id": "798785519e3f8304aeaa7a32320cd4d6", "lat": 38.89930533333333, "name": "798785519e3f8304aeaa7a32320cd4d6", "is_disabled": 0, "rental_uris": {"android": "https://dc.lft.to/lastmile_qr_scan", "ios": "https://dc.lft.to/lastmile_qr_scan"}, "fusion_lon": 0.0, "lon": -77.03211833333333, "is_reserved": 0}, {"fusion_lat": 0.0, "type": "electric_scooter", "bike_id": "8eae666012d0e27cf5f1de0c64bb7900", "lat": 38.88746366666667, "name": "8eae666012d0e27cf5f1de0c64bb7900", "is_disabled": 0, "rental_uris": {"android": "https://dc.lft.to/lastmile_qr_scan", "ios": "https://dc.lft.to/lastmile_qr_scan"}, "fusion_lon": 0.0, "lon": -77.02859816666667, "is_reserved": 0}, {"fusion_lat": 0.0, "type": "electric_scooter", "bike_id": "54ceb5320e955a5cce93862dd35047f0", "lat": 38.909751, "name": "54ceb5320e955a5cce93862dd35047f0", "is_disabled": 0, "rental_uris": {"android": "https://dc.lft.to/lastmile_qr_scan", "ios": "https://dc.lft.to/lastmile_qr_scan"}, "fusion_lon": 0.0, "lon": -77.0088915, "is_reserved": 0}, {"fusion_lat": 0.0, "type": "electric_scooter", "bike_id": "e58f39f8bbb8188afd67ad6e3c220314", "lat": 38.89696716666667, "name": "e58f39f8bbb8188afd67ad6e3c220314", "is_disabled": 0, "rental_uris": {"android": "https://dc.lft.to/lastmile_qr_scan", "ios": "https://dc.lft.to/lastmile_qr_scan"}, "fusion_lon": 0.0, "lon": -77.043588, "is_reserved": 0}, {"fusion_lat": 0.0, "type": "electric_scooter", "bike_id": "dac56afb188469af2adf875ecd9216c0", "lat": 38.920739166666664, "name": "dac56afb188469af2adf875ecd9216c0", "is_disabled": 0, "rental_uris": {"android": "https://dc.lft.to/lastmile_qr_scan", "ios": "https://dc.lft.to/lastmile_qr_scan"}, "fusion_lon": 0.0, "lon": -77.043788, "is_reserved": 0}, {"fusion_lat": 0.0, "type": "electric_scooter", "bike_id": "0da6df49d770c251b6712c4beb54418c", "lat": 38.920922, "name": "0da6df49d770c251b6712c4beb54418c", "is_disabled": 0, "rental_uris": {"android": "https://dc.lft.to/lastmile_qr_scan", "ios": "https://dc.lft.to/lastmile_qr_scan"}, "fusion_lon": 0.0, "lon": -77.025146, "is_reserved": 0}, {"fusion_lat": 0.0, "type": "electric_scooter", "bike_id": "b5bfe76740461dee860aa7207d73b8fa", "lat": 38.90785016666667, "name": "b5bfe76740461dee860aa7207d73b8fa", "is_disabled": 0, "rental_uris": {"android": "https://dc.lft.to/lastmile_qr_scan", "ios": "https://dc.lft.to/lastmile_qr_scan"}, "fusion_lon": 0.0, "lon": -77.072522, "is_reserved": 0}, {"fusion_lat": 0.0, "type": "electric_scooter", "bike_id": "f5cbd9a05dbf2f731cef86892a434218", "lat": 38.91863033333333, "name": "f5cbd9a05dbf2f731cef86892a434218", "is_disabled": 0, "rental_uris": {"android": "https://dc.lft.to/lastmile_qr_scan", "ios": "https://dc.lft.to/lastmile_qr_scan"}, "fusion_lon": 0.0, "lon": -76.9609415, "is_reserved": 0}, {"fusion_lat": 0.0, "type": "electric_scooter", "bike_id": "b8ac020d2c767808f5e1f2949ed65a2e", "lat": 38.883316, "name": "b8ac020d2c767808f5e1f2949ed65a2e", "is_disabled": 0, "rental_uris": {"android": "https://dc.lft.to/lastmile_qr_scan", "ios": "https://dc.lft.to/lastmile_qr_scan"}, "fusion_lon": 0.0, "lon": -77.0178005, "is_reserved": 0}, {"fusion_lat": 0.0, "type": "electric_scooter", "bike_id": "2c92515cf847039b260f6fd148b620a1", "lat": 38.973906666666664, "name": "2c92515cf847039b260f6fd148b620a1", "is_disabled": 0, "rental_uris": {"android": "https://dc.lft.to/lastmile_qr_scan", "ios": "https://dc.lft.to/lastmile_qr_scan"}, "fusion_lon": 0.0, "lon": -77.01814133333333, "is_reserved": 0}, {"fusion_lat": 0.0, "type": "electric_scooter", "bike_id": "df453c68e60a2ebebe2892b731a1cfe4", "lat": 38.91883, "name": "df453c68e60a2ebebe2892b731a1cfe4", "is_disabled": 0, "rental_uris": {"android": "https://dc.lft.to/lastmile_qr_scan", "ios": "https://dc.lft.to/lastmile_qr_scan"}, "fusion_lon": 0.0, "lon": -77.04314916666667, "is_reserved": 0}, {"fusion_lat": 0.0, "type": "electric_scooter", "bike_id": "823ecf70ad08ca49e741760a17b23086", "lat": 38.91433216666667, "name": "823ecf70ad08ca49e741760a17b23086", "is_disabled": 0, "rental_uris": {"android": "https://dc.lft.to/lastmile_qr_scan", "ios": "https://dc.lft.to/lastmile_qr_scan"}, "fusion_lon": 0.0, "lon": -77.02818266666667, "is_reserved": 0}, {"fusion_lat": 0.0, "type": "electric_scooter", "bike_id": "e3382e2708acf852c93bd432411f8779", "lat": 38.90456916666667, "name": "e3382e2708acf852c93bd432411f8779", "is_disabled": 0, "rental_uris": {"android": "https://dc.lft.to/lastmile_qr_scan", "ios": "https://dc.lft.to/lastmile_qr_scan"}, "fusion_lon": 0.0, "lon": -77.02340316666667, "is_reserved": 0}, {"fusion_lat": 0.0, "type": "electric_scooter", "bike_id": "9b0d9dad77f3ea0c51aa3e39fc11b42c", "lat": 38.91262483333333, "name": "9b0d9dad77f3ea0c51aa3e39fc11b42c", "is_disabled": 0, "rental_uris": {"android": "https://dc.lft.to/lastmile_qr_scan", "ios": "https://dc.lft.to/lastmile_qr_scan"}, "fusion_lon": 0.0, "lon": -77.04740966666667, "is_reserved": 0}, {"fusion_lat": 0.0, "type": "electric_scooter", "bike_id": "aa0916c86154f5c8aea4f97d6f3f75da", "lat": 38.90099766666667, "name": "aa0916c86154f5c8aea4f97d6f3f75da", "is_disabled": 0, "rental_uris": {"android": "https://dc.lft.to/lastmile_qr_scan", "ios": "https://dc.lft.to/lastmile_qr_scan"}, "fusion_lon": 0.0, "lon": -77.02537116666667, "is_reserved": 0}, {"fusion_lat": 0.0, "type": "electric_scooter", "bike_id": "083e7c2f823196ea478b72d6e0a425c1", "lat": 38.89245416666667, "name": "083e7c2f823196ea478b72d6e0a425c1", "is_disabled": 0, "rental_uris": {"android": "https://dc.lft.to/lastmile_qr_scan", "ios": "https://dc.lft.to/lastmile_qr_scan"}, "fusion_lon": 0.0, "lon": -77.0395575, "is_reserved": 0}, {"fusion_lat": 0.0, "type": "electric_scooter", "bike_id": "93a0a68d7525a6ee8f213a52e18935bf", "lat": 38.901655, "name": "93a0a68d7525a6ee8f213a52e18935bf", "is_disabled": 0, "rental_uris": {"android": "https://dc.lft.to/lastmile_qr_scan", "ios": "https://dc.lft.to/lastmile_qr_scan"}, "fusion_lon": 0.0, "lon": -77.043499, "is_reserved": 0}, {"fusion_lat": 0.0, "type": "electric_scooter", "bike_id": "a370e37a4cb194cec857789a9c050f1e", "lat": 38.929823999999996, "name": "a370e37a4cb194cec857789a9c050f1e", "is_disabled": 0, "rental_uris": {"android": "https://dc.lft.to/lastmile_qr_scan", "ios": "https://dc.lft.to/lastmile_qr_scan"}, "fusion_lon": 0.0, "lon": -77.072872, "is_reserved": 0}, {"fusion_lat": 0.0, "type": "electric_scooter", "bike_id": "03f8ced70962566cd675bae2db89cffc", "lat": 38.91970716666667, "name": "03f8ced70962566cd675bae2db89cffc", "is_disabled": 0, "rental_uris": {"android": "https://dc.lft.to/lastmile_qr_scan", "ios": "https://dc.lft.to/lastmile_qr_scan"}, "fusion_lon": 0.0, "lon": -77.03853283333333, "is_reserved": 0}, {"fusion_lat": 0.0, "type": "electric_scooter", "bike_id": "2cc135a9e7af782728517d15eb7d1575", "lat": 38.92013383333333, "name": "2cc135a9e7af782728517d15eb7d1575", "is_disabled": 0, "rental_uris": {"android": "https://dc.lft.to/lastmile_qr_scan", "ios": "https://dc.lft.to/lastmile_qr_scan"}, "fusion_lon": 0.0, "lon": -77.07136416666667, "is_reserved": 0}, {"fusion_lat": 0.0, "type": "electric_bike", "bike_id": "1b5811cb35a4876da799f0006066c463", "lat": 38.90717716666666, "name": "1b5811cb35a4876da799f0006066c463", "is_disabled": 0, "rental_uris": {"android": "https://dc.lft.to/lastmile_qr_scan", "ios": "https://dc.lft.to/lastmile_qr_scan"}, "fusion_lon": 0.0, "lon": -77.05132733333333, "is_reserved": 0}, {"fusion_lat": 0.0, "type": "electric_scooter", "bike_id": "98ecd0447b2497dee5b8bbf381f39f9b", "lat": 38.9055665, "name": "98ecd0447b2497dee5b8bbf381f39f9b", "is_disabled": 0, "rental_uris": {"android": "https://dc.lft.to/lastmile_qr_scan", "ios": "https://dc.lft.to/lastmile_qr_scan"}, "fusion_lon": 0.0, "lon": -76.99655016666667, "is_reserved": 0}, {"fusion_lat": 0.0, "type": "electric_scooter", "bike_id": "4a7ec6cf9c997f7e1e4753fb9348d129", "lat": 38.898710666666666, "name": "4a7ec6cf9c997f7e1e4753fb9348d129", "is_disabled": 0, "rental_uris": {"android": "https://dc.lft.to/lastmile_qr_scan", "ios": "https://dc.lft.to/lastmile_qr_scan"}, "fusion_lon": 0.0, "lon": -76.94668233333333, "is_reserved": 0}, {"fusion_lat": 0.0, "type": "electric_scooter", "bike_id": "ba0ee649c873d6f9eaa7ff5eb235abb9", "lat": 38.90276316666667, "name": "ba0ee649c873d6f9eaa7ff5eb235abb9", "is_disabled": 0, "rental_uris": {"android": "https://dc.lft.to/lastmile_qr_scan", "ios": "https://dc.lft.to/lastmile_qr_scan"}, "fusion_lon": 0.0, "lon": -77.03481033333334, "is_reserved": 0}, {"fusion_lat": 0.0, "type": "electric_scooter", "bike_id": "314c21ba3eb995789cc8099e93664bb2", "lat": 38.8956585, "name": "314c21ba3eb995789cc8099e93664bb2", "is_disabled": 0, "rental_uris": {"android": "https://dc.lft.to/lastmile_qr_scan", "ios": "https://dc.lft.to/lastmile_qr_scan"}, "fusion_lon": 0.0, "lon": -77.04159, "is_reserved": 0}, {"fusion_lat": 0.0, "type": "electric_scooter", "bike_id": "aa72e548241a907b614ac7c1b77b64d4", "lat": 38.96218483333333, "name": "aa72e548241a907b614ac7c1b77b64d4", "is_disabled": 0, "rental_uris": {"android": "https://dc.lft.to/lastmile_qr_scan", "ios": "https://dc.lft.to/lastmile_qr_scan"}, "fusion_lon": 0.0, "lon": -77.02778483333333, "is_reserved": 0}, {"fusion_lat": 0.0, "type": "electric_bike", "bike_id": "44f3f465762d891efc8cb0fe950f1b88", "lat": 38.909082166666664, "name": "44f3f465762d891efc8cb0fe950f1b88", "is_disabled": 0, "rental_uris": {"android": "https://dc.lft.to/lastmile_qr_scan", "ios": "https://dc.lft.to/lastmile_qr_scan"}, "fusion_lon": 0.0, "lon": -77.090013, "is_reserved": 0}, {"fusion_lat": 0.0, "type": "electric_scooter", "bike_id": "a4c6cce936b62345050bfbd67b36f601", "lat": 38.91807266666667, "name": "a4c6cce936b62345050bfbd67b36f601", "is_disabled": 0, "rental_uris": {"android": "https://dc.lft.to/lastmile_qr_scan", "ios": "https://dc.lft.to/lastmile_qr_scan"}, "fusion_lon": 0.0, "lon": -77.0682895, "is_reserved": 0}, {"fusion_lat": 0.0, "type": "electric_scooter", "bike_id": "17b2a2d3707b3e7906f6af0c2ab8b6a3", "lat": 38.98523633333333, "name": "17b2a2d3707b3e7906f6af0c2ab8b6a3", "is_disabled": 0, "rental_uris": {"android": "https://dc.lft.to/lastmile_qr_scan", "ios": "https://dc.lft.to/lastmile_qr_scan"}, "fusion_lon": 0.0, "lon": -77.05418616666667, "is_reserved": 0}, {"fusion_lat": 0.0, "type": "electric_scooter", "bike_id": "36e3cf8dc5b6fb30d130932220622a9e", "lat": 38.9322605, "name": "36e3cf8dc5b6fb30d130932220622a9e", "is_disabled": 0, "rental_uris": {"android": "https://dc.lft.to/lastmile_qr_scan", "ios": "https://dc.lft.to/lastmile_qr_scan"}, "fusion_lon": 0.0, "lon": -77.04122566666666, "is_reserved": 0}, {"fusion_lat": 0.0, "type": "electric_scooter", "bike_id": "7a2d85e2805642609b969e467ca65195", "lat": 38.897506666666665, "name": "7a2d85e2805642609b969e467ca65195", "is_disabled": 0, "rental_uris": {"android": "https://dc.lft.to/lastmile_qr_scan", "ios": "https://dc.lft.to/lastmile_qr_scan"}, "fusion_lon": 0.0, "lon": -77.01892633333334, "is_reserved": 0}, {"fusion_lat": 0.0, "type": "electric_scooter", "bike_id": "4a9a6390c740354e224412428f69cff0", "lat": 38.9374925, "name": "4a9a6390c740354e224412428f69cff0", "is_disabled": 0, "rental_uris": {"android": "https://dc.lft.to/lastmile_qr_scan", "ios": "https://dc.lft.to/lastmile_qr_scan"}, "fusion_lon": 0.0, "lon": -77.0857295, "is_reserved": 0}, {"fusion_lat": 0.0, "type": "electric_scooter", "bike_id": "de2efb6d3e1c7cd00c527ff0372b5ccf", "lat": 38.89844083333333, "name": "de2efb6d3e1c7cd00c527ff0372b5ccf", "is_disabled": 0, "rental_uris": {"android": "https://dc.lft.to/lastmile_qr_scan", "ios": "https://dc.lft.to/lastmile_qr_scan"}, "fusion_lon": 0.0, "lon": -77.01373233333334, "is_reserved": 0}, {"fusion_lat": 0.0, "type": "electric_scooter", "bike_id": "630fc1942d8093c8a5f07d1cca493e4e", "lat": 38.898539666666665, "name": "630fc1942d8093c8a5f07d1cca493e4e", "is_disabled": 0, "rental_uris": {"android": "https://dc.lft.to/lastmile_qr_scan", "ios": "https://dc.lft.to/lastmile_qr_scan"}, "fusion_lon": 0.0, "lon": -76.93193049999999, "is_reserved": 0}, {"fusion_lat": 0.0, "type": "electric_scooter", "bike_id": "46125dd95ae3d465c85847cd92f0f676", "lat": 38.89955, "name": "46125dd95ae3d465c85847cd92f0f676", "is_disabled": 0, "rental_uris": {"android": "https://dc.lft.to/lastmile_qr_scan", "ios": "https://dc.lft.to/lastmile_qr_scan"}, "fusion_lon": 0.0, "lon": -77.029848, "is_reserved": 0}, {"fusion_lat": 0.0, "type": "electric_scooter", "bike_id": "85379f036ec20a619e5678657b835728", "lat": 38.9430005, "name": "85379f036ec20a619e5678657b835728", "is_disabled": 0, "rental_uris": {"android": "https://dc.lft.to/lastmile_qr_scan", "ios": "https://dc.lft.to/lastmile_qr_scan"}, "fusion_lon": 0.0, "lon": -77.05931416666667, "is_reserved": 0}, {"fusion_lat": 0.0, "type": "electric_scooter", "bike_id": "a0cdeaaefed392c20c176639c59af7db", "lat": 38.90589, "name": "a0cdeaaefed392c20c176639c59af7db", "is_disabled": 0, "rental_uris": {"android": "https://dc.lft.to/lastmile_qr_scan", "ios": "https://dc.lft.to/lastmile_qr_scan"}, "fusion_lon": 0.0, "lon": -76.98626166666666, "is_reserved": 0}, {"fusion_lat": 0.0, "type": "electric_scooter", "bike_id": "d2aad8b609f5b987bdbc3dcb1cc0b7ae", "lat": 38.90972683333333, "name": "d2aad8b609f5b987bdbc3dcb1cc0b7ae", "is_disabled": 0, "rental_uris": {"android": "https://dc.lft.to/lastmile_qr_scan", "ios": "https://dc.lft.to/lastmile_qr_scan"}, "fusion_lon": 0.0, "lon": -77.05244116666667, "is_reserved": 0}, {"fusion_lat": 0.0, "type": "electric_scooter", "bike_id": "8682778ea53d664300d2a3b46d9c76d4", "lat": 38.890153833333336, "name": "8682778ea53d664300d2a3b46d9c76d4", "is_disabled": 0, "rental_uris": {"android": "https://dc.lft.to/lastmile_qr_scan", "ios": "https://dc.lft.to/lastmile_qr_scan"}, "fusion_lon": 0.0, "lon": -76.93729316666666, "is_reserved": 0}, {"fusion_lat": 0.0, "type": "electric_scooter", "bike_id": "396738718b1ebfd599b8996cdb75df65", "lat": 38.89216866666666, "name": "396738718b1ebfd599b8996cdb75df65", "is_disabled": 0, "rental_uris": {"android": "https://dc.lft.to/lastmile_qr_scan", "ios": "https://dc.lft.to/lastmile_qr_scan"}, "fusion_lon": 0.0, "lon": -77.03163016666667, "is_reserved": 0}, {"fusion_lat": 0.0, "type": "electric_scooter", "bike_id": "726e2bc43c4334b016905305f1689e9c", "lat": 38.92555616666667, "name": "726e2bc43c4334b016905305f1689e9c", "is_disabled": 0, "rental_uris": {"android": "https://dc.lft.to/lastmile_qr_scan", "ios": "https://dc.lft.to/lastmile_qr_scan"}, "fusion_lon": 0.0, "lon": -77.02277766666667, "is_reserved": 0}, {"fusion_lat": 0.0, "type": "electric_scooter", "bike_id": "11565e8f43c5931391ea346a018c775a", "lat": 38.924709666666665, "name": "11565e8f43c5931391ea346a018c775a", "is_disabled": 0, "rental_uris": {"android": "https://dc.lft.to/lastmile_qr_scan", "ios": "https://dc.lft.to/lastmile_qr_scan"}, "fusion_lon": 0.0, "lon": -77.0220095, "is_reserved": 0}, {"fusion_lat": 0.0, "type": "electric_scooter", "bike_id": "0b6b96bb1e25d3ca3e083144ed220bdd", "lat": 38.916566, "name": "0b6b96bb1e25d3ca3e083144ed220bdd", "is_disabled": 0, "rental_uris": {"android": "https://dc.lft.to/lastmile_qr_scan", "ios": "https://dc.lft.to/lastmile_qr_scan"}, "fusion_lon": 0.0, "lon": -77.0224755, "is_reserved": 0}, {"fusion_lat": 0.0, "type": "electric_scooter", "bike_id": "a57d8a00a64b64ee74677dbfe470ab16", "lat": 38.921114333333335, "name": "a57d8a00a64b64ee74677dbfe470ab16", "is_disabled": 0, "rental_uris": {"android": "https://dc.lft.to/lastmile_qr_scan", "ios": "https://dc.lft.to/lastmile_qr_scan"}, "fusion_lon": 0.0, "lon": -77.040165, "is_reserved": 0}, {"fusion_lat": 0.0, "type": "electric_scooter", "bike_id": "7f58521ec1b7d088f70cce46b70d502e", "lat": 38.92614283333333, "name": "7f58521ec1b7d088f70cce46b70d502e", "is_disabled": 0, "rental_uris": {"android": "https://dc.lft.to/lastmile_qr_scan", "ios": "https://dc.lft.to/lastmile_qr_scan"}, "fusion_lon": 0.0, "lon": -77.021619, "is_reserved": 0}, {"fusion_lat": 0.0, "type": "electric_scooter", "bike_id": "ed9281791fd955827605603ca7ac2b33", "lat": 38.88431083333333, "name": "ed9281791fd955827605603ca7ac2b33", "is_disabled": 0, "rental_uris": {"android": "https://dc.lft.to/lastmile_qr_scan", "ios": "https://dc.lft.to/lastmile_qr_scan"}, "fusion_lon": 0.0, "lon": -76.99590066666667, "is_reserved": 0}, {"fusion_lat": 0.0, "type": "electric_scooter", "bike_id": "fafef9e7112a544aa874ec39ec566f1e", "lat": 38.928973666666664, "name": "fafef9e7112a544aa874ec39ec566f1e", "is_disabled": 0, "rental_uris": {"android": "https://dc.lft.to/lastmile_qr_scan", "ios": "https://dc.lft.to/lastmile_qr_scan"}, "fusion_lon": 0.0, "lon": -77.01626783333333, "is_reserved": 0}, {"fusion_lat": 0.0, "type": "electric_scooter", "bike_id": "551ee3acd704562058708bf71150b6ea", "lat": 38.91716666666667, "name": "551ee3acd704562058708bf71150b6ea", "is_disabled": 0, "rental_uris": {"android": "https://dc.lft.to/lastmile_qr_scan", "ios": "https://dc.lft.to/lastmile_qr_scan"}, "fusion_lon": 0.0, "lon": -77.02290783333333, "is_reserved": 0}, {"fusion_lat": 0.0, "type": "electric_bike", "bike_id": "bc5aa8671e80ef6d9458645d9a6cc662", "lat": 38.9003205, "name": "bc5aa8671e80ef6d9458645d9a6cc662", "is_disabled": 0, "rental_uris": {"android": "https://dc.lft.to/lastmile_qr_scan", "ios": "https://dc.lft.to/lastmile_qr_scan"}, "fusion_lon": 0.0, "lon": -77.02981333333334, "is_reserved": 0}, {"fusion_lat": 0.0, "type": "electric_scooter", "bike_id": "22e4b77f3f27109cddf8d6247535a7cd", "lat": 38.919076833333335, "name": "22e4b77f3f27109cddf8d6247535a7cd", "is_disabled": 0, "rental_uris": {"android": "https://dc.lft.to/lastmile_qr_scan", "ios": "https://dc.lft.to/lastmile_qr_scan"}, "fusion_lon": 0.0, "lon": -77.021339, "is_reserved": 0}, {"fusion_lat": 0.0, "type": "electric_scooter", "bike_id": "9bca6360ed751a61c1cb907158f20162", "lat": 38.904950166666666, "name": "9bca6360ed751a61c1cb907158f20162", "is_disabled": 0, "rental_uris": {"android": "https://dc.lft.to/lastmile_qr_scan", "ios": "https://dc.lft.to/lastmile_qr_scan"}, "fusion_lon": 0.0, "lon": -77.03483483333333, "is_reserved": 0}, {"fusion_lat": 0.0, "type": "electric_bike", "bike_id": "f42af41d2f42d50bb4d9f7ea3a0c33bc", "lat": 38.85067083333333, "name": "f42af41d2f42d50bb4d9f7ea3a0c33bc", "is_disabled": 0, "rental_uris": {"android": "https://dc.lft.to/lastmile_qr_scan", "ios": "https://dc.lft.to/lastmile_qr_scan"}, "fusion_lon": 0.0, "lon": -76.95830616666667, "is_reserved": 0}, {"fusion_lat": 0.0, "type": "electric_scooter", "bike_id": "2a24cf2a2d606dfd1bb5a30892d3c081", "lat": 38.9004435, "name": "2a24cf2a2d606dfd1bb5a30892d3c081", "is_disabled": 0, "rental_uris": {"android": "https://dc.lft.to/lastmile_qr_scan", "ios": "https://dc.lft.to/lastmile_qr_scan"}, "fusion_lon": 0.0, "lon": -77.03416516666667, "is_reserved": 0}, {"fusion_lat": 0.0, "type": "electric_scooter", "bike_id": "5e337f7f178b6a0ad89d817f032a4901", "lat": 38.93288866666666, "name": "5e337f7f178b6a0ad89d817f032a4901", "is_disabled": 0, "rental_uris": {"android": "https://dc.lft.to/lastmile_qr_scan", "ios": "https://dc.lft.to/lastmile_qr_scan"}, "fusion_lon": 0.0, "lon": -77.039833, "is_reserved": 0}, {"fusion_lat": 0.0, "type": "electric_scooter", "bike_id": "120e9e1d4778db895f641543a4e0a6ec", "lat": 38.904369, "name": "120e9e1d4778db895f641543a4e0a6ec", "is_disabled": 0, "rental_uris": {"android": "https://dc.lft.to/lastmile_qr_scan", "ios": "https://dc.lft.to/lastmile_qr_scan"}, "fusion_lon": 0.0, "lon": -77.05333866666666, "is_reserved": 0}, {"fusion_lat": 0.0, "type": "electric_scooter", "bike_id": "3f89cf05f4471eb0af7f99eafa863281", "lat": 38.899027, "name": "3f89cf05f4471eb0af7f99eafa863281", "is_disabled": 0, "rental_uris": {"android": "https://dc.lft.to/lastmile_qr_scan", "ios": "https://dc.lft.to/lastmile_qr_scan"}, "fusion_lon": 0.0, "lon": -77.0417885, "is_reserved": 0}, {"fusion_lat": 0.0, "type": "electric_scooter", "bike_id": "3a3ef2df7b74e878292a7a4deb84af1d", "lat": 38.90003216666667, "name": "3a3ef2df7b74e878292a7a4deb84af1d", "is_disabled": 0, "rental_uris": {"android": "https://dc.lft.to/lastmile_qr_scan", "ios": "https://dc.lft.to/lastmile_qr_scan"}, "fusion_lon": 0.0, "lon": -77.02208266666666, "is_reserved": 0}, {"fusion_lat": 0.0, "type": "electric_scooter", "bike_id": "8ff971e0a3d856348322386c5cf95f41", "lat": 38.8887025, "name": "8ff971e0a3d856348322386c5cf95f41", "is_disabled": 0, "rental_uris": {"android": "https://dc.lft.to/lastmile_qr_scan", "ios": "https://dc.lft.to/lastmile_qr_scan"}, "fusion_lon": 0.0, "lon": -77.0400175, "is_reserved": 0}, {"fusion_lat": 0.0, "type": "electric_scooter", "bike_id": "2b914f034c90671613663b6f08d57cab", "lat": 38.9267295, "name": "2b914f034c90671613663b6f08d57cab", "is_disabled": 0, "rental_uris": {"android": "https://dc.lft.to/lastmile_qr_scan", "ios": "https://dc.lft.to/lastmile_qr_scan"}, "fusion_lon": 0.0, "lon": -77.04061533333334, "is_reserved": 0}, {"fusion_lat": 0.0, "type": "electric_scooter", "bike_id": "767f5338925fca63217bfa04b085f431", "lat": 38.9217785, "name": "767f5338925fca63217bfa04b085f431", "is_disabled": 0, "rental_uris": {"android": "https://dc.lft.to/lastmile_qr_scan", "ios": "https://dc.lft.to/lastmile_qr_scan"}, "fusion_lon": 0.0, "lon": -77.02101933333333, "is_reserved": 0}, {"fusion_lat": 0.0, "type": "electric_scooter", "bike_id": "6cd639dcceb100dda9744882ef8cd0e6", "lat": 38.924195, "name": "6cd639dcceb100dda9744882ef8cd0e6", "is_disabled": 0, "rental_uris": {"android": "https://dc.lft.to/lastmile_qr_scan", "ios": "https://dc.lft.to/lastmile_qr_scan"}, "fusion_lon": 0.0, "lon": -77.022774, "is_reserved": 0}, {"fusion_lat": 0.0, "type": "electric_scooter", "bike_id": "d949ca5119312ff288565a462f12c09e", "lat": 38.908671166666664, "name": "d949ca5119312ff288565a462f12c09e", "is_disabled": 0, "rental_uris": {"android": "https://dc.lft.to/lastmile_qr_scan", "ios": "https://dc.lft.to/lastmile_qr_scan"}, "fusion_lon": 0.0, "lon": -77.04583466666666, "is_reserved": 0}, {"fusion_lat": 0.0, "type": "electric_scooter", "bike_id": "61923cf4a4ec21b2c9fabb5df532791b", "lat": 38.939461333333334, "name": "61923cf4a4ec21b2c9fabb5df532791b", "is_disabled": 0, "rental_uris": {"android": "https://dc.lft.to/lastmile_qr_scan", "ios": "https://dc.lft.to/lastmile_qr_scan"}, "fusion_lon": 0.0, "lon": -77.0327045, "is_reserved": 0}, {"fusion_lat": 0.0, "type": "electric_scooter", "bike_id": "bee9e50530dad2a608aa1b48ccb7f50f", "lat": 38.9211015, "name": "bee9e50530dad2a608aa1b48ccb7f50f", "is_disabled": 0, "rental_uris": {"android": "https://dc.lft.to/lastmile_qr_scan", "ios": "https://dc.lft.to/lastmile_qr_scan"}, "fusion_lon": 0.0, "lon": -77.025415, "is_reserved": 0}, {"fusion_lat": 0.0, "type": "electric_scooter", "bike_id": "5b1fdf1c4f736867cc6dc041c50587b4", "lat": 38.899354333333335, "name": "5b1fdf1c4f736867cc6dc041c50587b4", "is_disabled": 0, "rental_uris": {"android": "https://dc.lft.to/lastmile_qr_scan", "ios": "https://dc.lft.to/lastmile_qr_scan"}, "fusion_lon": 0.0, "lon": -77.050015, "is_reserved": 0}, {"fusion_lat": 0.0, "type": "electric_scooter", "bike_id": "137f6443d1afb2e59a2544cb597ed99e", "lat": 38.93064416666667, "name": "137f6443d1afb2e59a2544cb597ed99e", "is_disabled": 0, "rental_uris": {"android": "https://dc.lft.to/lastmile_qr_scan", "ios": "https://dc.lft.to/lastmile_qr_scan"}, "fusion_lon": 0.0, "lon": -77.03941016666667, "is_reserved": 0}, {"fusion_lat": 0.0, "type": "electric_scooter", "bike_id": "c6b6e44038846aef16281b222aebfd17", "lat": 38.9020615, "name": "c6b6e44038846aef16281b222aebfd17", "is_disabled": 0, "rental_uris": {"android": "https://dc.lft.to/lastmile_qr_scan", "ios": "https://dc.lft.to/lastmile_qr_scan"}, "fusion_lon": 0.0, "lon": -77.0384435, "is_reserved": 0}, {"fusion_lat": 0.0, "type": "electric_scooter", "bike_id": "1a5b7a3f0a376f4780137e9039b06616", "lat": 38.89276266666667, "name": "1a5b7a3f0a376f4780137e9039b06616", "is_disabled": 0, "rental_uris": {"android": "https://dc.lft.to/lastmile_qr_scan", "ios": "https://dc.lft.to/lastmile_qr_scan"}, "fusion_lon": 0.0, "lon": -76.98371766666666, "is_reserved": 0}, {"fusion_lat": 0.0, "type": "electric_scooter", "bike_id": "e8be8744cdec025a510a1667f11fe00b", "lat": 38.91634783333333, "name": "e8be8744cdec025a510a1667f11fe00b", "is_disabled": 0, "rental_uris": {"android": "https://dc.lft.to/lastmile_qr_scan", "ios": "https://dc.lft.to/lastmile_qr_scan"}, "fusion_lon": 0.0, "lon": -77.03502866666666, "is_reserved": 0}, {"fusion_lat": 0.0, "type": "electric_scooter", "bike_id": "9ada952b2396e6d092f60bfcc65ccba5", "lat": 38.897353, "name": "9ada952b2396e6d092f60bfcc65ccba5", "is_disabled": 0, "rental_uris": {"android": "https://dc.lft.to/lastmile_qr_scan", "ios": "https://dc.lft.to/lastmile_qr_scan"}, "fusion_lon": 0.0, "lon": -77.03091316666666, "is_reserved": 0}, {"fusion_lat": 0.0, "type": "electric_scooter", "bike_id": "918a6e072597346a680f28451835d98c", "lat": 38.8861635, "name": "918a6e072597346a680f28451835d98c", "is_disabled": 0, "rental_uris": {"android": "https://dc.lft.to/lastmile_qr_scan", "ios": "https://dc.lft.to/lastmile_qr_scan"}, "fusion_lon": 0.0, "lon": -77.00334183333334, "is_reserved": 0}, {"fusion_lat": 0.0, "type": "electric_scooter", "bike_id": "731b6b54bdbd5e7d197ca347584f97e5", "lat": 38.8995005, "name": "731b6b54bdbd5e7d197ca347584f97e5", "is_disabled": 0, "rental_uris": {"android": "https://dc.lft.to/lastmile_qr_scan", "ios": "https://dc.lft.to/lastmile_qr_scan"}, "fusion_lon": 0.0, "lon": -77.04502966666666, "is_reserved": 0}, {"fusion_lat": 0.0, "type": "electric_scooter", "bike_id": "47c258e748422f297d9848d7a457f2b2", "lat": 38.898676, "name": "47c258e748422f297d9848d7a457f2b2", "is_disabled": 0, "rental_uris": {"android": "https://dc.lft.to/lastmile_qr_scan", "ios": "https://dc.lft.to/lastmile_qr_scan"}, "fusion_lon": 0.0, "lon": -77.0436965, "is_reserved": 0}, {"fusion_lat": 0.0, "type": "electric_scooter", "bike_id": "81b732a9f05e49c4bba65e583e4b4ffb", "lat": 38.8995595, "name": "81b732a9f05e49c4bba65e583e4b4ffb", "is_disabled": 0, "rental_uris": {"android": "https://dc.lft.to/lastmile_qr_scan", "ios": "https://dc.lft.to/lastmile_qr_scan"}, "fusion_lon": 0.0, "lon": -77.04498466666666, "is_reserved": 0}, {"fusion_lat": 0.0, "type": "electric_bike", "bike_id": "0191f32ceaa5c7363bed7c0e0867b802", "lat": 38.881358666666664, "name": "0191f32ceaa5c7363bed7c0e0867b802", "is_disabled": 0, "rental_uris": {"android": "https://dc.lft.to/lastmile_qr_scan", "ios": "https://dc.lft.to/lastmile_qr_scan"}, "fusion_lon": 0.0, "lon": -76.98116433333334, "is_reserved": 0}, {"fusion_lat": 0.0, "type": "electric_scooter", "bike_id": "4b1a2449fe913fbfdfe8ed9cbbef4bf9", "lat": 38.93033066666667, "name": "4b1a2449fe913fbfdfe8ed9cbbef4bf9", "is_disabled": 0, "rental_uris": {"android": "https://dc.lft.to/lastmile_qr_scan", "ios": "https://dc.lft.to/lastmile_qr_scan"}, "fusion_lon": 0.0, "lon": -77.0263265, "is_reserved": 0}, {"fusion_lat": 0.0, "type": "electric_scooter", "bike_id": "1a0a21294767e4a9d7c1fc493634cf52", "lat": 38.910439833333335, "name": "1a0a21294767e4a9d7c1fc493634cf52", "is_disabled": 0, "rental_uris": {"android": "https://dc.lft.to/lastmile_qr_scan", "ios": "https://dc.lft.to/lastmile_qr_scan"}, "fusion_lon": 0.0, "lon": -77.06461966666667, "is_reserved": 0}, {"fusion_lat": 0.0, "type": "electric_scooter", "bike_id": "a942de463d9e8f760af6646bbb90dcb2", "lat": 38.895944666666665, "name": "a942de463d9e8f760af6646bbb90dcb2", "is_disabled": 0, "rental_uris": {"android": "https://dc.lft.to/lastmile_qr_scan", "ios": "https://dc.lft.to/lastmile_qr_scan"}, "fusion_lon": 0.0, "lon": -77.02709583333333, "is_reserved": 0}, {"fusion_lat": 0.0, "type": "electric_scooter", "bike_id": "73b87cdb1f505fa004cc83cf86b14ebe", "lat": 38.927649833333334, "name": "73b87cdb1f505fa004cc83cf86b14ebe", "is_disabled": 0, "rental_uris": {"android": "https://dc.lft.to/lastmile_qr_scan", "ios": "https://dc.lft.to/lastmile_qr_scan"}, "fusion_lon": 0.0, "lon": -77.0365725, "is_reserved": 0}, {"fusion_lat": 0.0, "type": "electric_scooter", "bike_id": "d4346e8511fdca6e9db04e961a2d48d8", "lat": 38.907847, "name": "d4346e8511fdca6e9db04e961a2d48d8", "is_disabled": 0, "rental_uris": {"android": "https://dc.lft.to/lastmile_qr_scan", "ios": "https://dc.lft.to/lastmile_qr_scan"}, "fusion_lon": 0.0, "lon": -77.07256166666667, "is_reserved": 0}, {"fusion_lat": 0.0, "type": "electric_scooter", "bike_id": "c6f4c6174cc7610eba6d14d2509fe1bb", "lat": 38.9045375, "name": "c6f4c6174cc7610eba6d14d2509fe1bb", "is_disabled": 0, "rental_uris": {"android": "https://dc.lft.to/lastmile_qr_scan", "ios": "https://dc.lft.to/lastmile_qr_scan"}, "fusion_lon": 0.0, "lon": -77.04359, "is_reserved": 0}, {"fusion_lat": 0.0, "type": "electric_scooter", "bike_id": "bb987257f8cc35256f53ae6840b4a226", "lat": 38.92255433333333, "name": "bb987257f8cc35256f53ae6840b4a226", "is_disabled": 0, "rental_uris": {"android": "https://dc.lft.to/lastmile_qr_scan", "ios": "https://dc.lft.to/lastmile_qr_scan"}, "fusion_lon": 0.0, "lon": -77.038909, "is_reserved": 0}, {"fusion_lat": 0.0, "type": "electric_scooter", "bike_id": "286ea946619e475de4d638f13725dcfc", "lat": 38.89198616666667, "name": "286ea946619e475de4d638f13725dcfc", "is_disabled": 0, "rental_uris": {"android": "https://dc.lft.to/lastmile_qr_scan", "ios": "https://dc.lft.to/lastmile_qr_scan"}, "fusion_lon": 0.0, "lon": -77.00223483333333, "is_reserved": 0}, {"fusion_lat": 0.0, "type": "electric_bike", "bike_id": "100e9224c94f683e663716d206ecf27f", "lat": 38.9327275, "name": "100e9224c94f683e663716d206ecf27f", "is_disabled": 0, "rental_uris": {"android": "https://dc.lft.to/lastmile_qr_scan", "ios": "https://dc.lft.to/lastmile_qr_scan"}, "fusion_lon": 0.0, "lon": -77.06567033333333, "is_reserved": 0}, {"fusion_lat": 0.0, "type": "electric_bike", "bike_id": "2e596d9231ca2ae4a62a9052f4a6ed01", "lat": 38.985406, "name": "2e596d9231ca2ae4a62a9052f4a6ed01", "is_disabled": 0, "rental_uris": {"android": "https://dc.lft.to/lastmile_qr_scan", "ios": "https://dc.lft.to/lastmile_qr_scan"}, "fusion_lon": 0.0, "lon": -77.00414283333333, "is_reserved": 0}, {"fusion_lat": 0.0, "type": "electric_scooter", "bike_id": "117c73fb2f8208e0381bcfe6bac2d89e", "lat": 38.924170833333335, "name": "117c73fb2f8208e0381bcfe6bac2d89e", "is_disabled": 0, "rental_uris": {"android": "https://dc.lft.to/lastmile_qr_scan", "ios": "https://dc.lft.to/lastmile_qr_scan"}, "fusion_lon": 0.0, "lon": -77.01949866666666, "is_reserved": 0}, {"fusion_lat": 0.0, "type": "electric_scooter", "bike_id": "36b1463d5ca7e89ac26ccddf80bc160c", "lat": 38.89672083333333, "name": "36b1463d5ca7e89ac26ccddf80bc160c", "is_disabled": 0, "rental_uris": {"android": "https://dc.lft.to/lastmile_qr_scan", "ios": "https://dc.lft.to/lastmile_qr_scan"}, "fusion_lon": 0.0, "lon": -76.932071, "is_reserved": 0}, {"fusion_lat": 0.0, "type": "electric_scooter", "bike_id": "ccc7184ea92115c2add506edf4966d8d", "lat": 38.939444333333334, "name": "ccc7184ea92115c2add506edf4966d8d", "is_disabled": 0, "rental_uris": {"android": "https://dc.lft.to/lastmile_qr_scan", "ios": "https://dc.lft.to/lastmile_qr_scan"}, "fusion_lon": 0.0, "lon": -77.03276, "is_reserved": 0}, {"fusion_lat": 0.0, "type": "electric_scooter", "bike_id": "d62b2ef8c7cc4b14885923a61b6ebcf4", "lat": 38.906596666666665, "name": "d62b2ef8c7cc4b14885923a61b6ebcf4", "is_disabled": 0, "rental_uris": {"android": "https://dc.lft.to/lastmile_qr_scan", "ios": "https://dc.lft.to/lastmile_qr_scan"}, "fusion_lon": 0.0, "lon": -77.02689916666667, "is_reserved": 0}, {"fusion_lat": 0.0, "type": "electric_scooter", "bike_id": "6ff3fe248c9ab26382af98b853320d8c", "lat": 38.90184333333333, "name": "6ff3fe248c9ab26382af98b853320d8c", "is_disabled": 0, "rental_uris": {"android": "https://dc.lft.to/lastmile_qr_scan", "ios": "https://dc.lft.to/lastmile_qr_scan"}, "fusion_lon": 0.0, "lon": -76.93465133333333, "is_reserved": 0}, {"fusion_lat": 0.0, "type": "electric_scooter", "bike_id": "65f54bfda65f6cdaf00f1344e3a89a34", "lat": 38.89643916666667, "name": "65f54bfda65f6cdaf00f1344e3a89a34", "is_disabled": 0, "rental_uris": {"android": "https://dc.lft.to/lastmile_qr_scan", "ios": "https://dc.lft.to/lastmile_qr_scan"}, "fusion_lon": 0.0, "lon": -77.01157533333334, "is_reserved": 0}, {"fusion_lat": 0.0, "type": "electric_scooter", "bike_id": "1b04097b0e921d76f9d476dab170979a", "lat": 38.899657166666664, "name": "1b04097b0e921d76f9d476dab170979a", "is_disabled": 0, "rental_uris": {"android": "https://dc.lft.to/lastmile_qr_scan", "ios": "https://dc.lft.to/lastmile_qr_scan"}, "fusion_lon": 0.0, "lon": -77.04682283333334, "is_reserved": 0}, {"fusion_lat": 0.0, "type": "electric_scooter", "bike_id": "f7cb48d5be0251d0cc85c86a273d83f8", "lat": 38.89965266666667, "name": "f7cb48d5be0251d0cc85c86a273d83f8", "is_disabled": 0, "rental_uris": {"android": "https://dc.lft.to/lastmile_qr_scan", "ios": "https://dc.lft.to/lastmile_qr_scan"}, "fusion_lon": 0.0, "lon": -77.0162965, "is_reserved": 0}, {"fusion_lat": 0.0, "type": "electric_scooter", "bike_id": "c72fe505bba8f1f03cf32818b099700e", "lat": 38.90270366666667, "name": "c72fe505bba8f1f03cf32818b099700e", "is_disabled": 0, "rental_uris": {"android": "https://dc.lft.to/lastmile_qr_scan", "ios": "https://dc.lft.to/lastmile_qr_scan"}, "fusion_lon": 0.0, "lon": -77.03211016666667, "is_reserved": 0}, {"fusion_lat": 0.0, "type": "electric_scooter", "bike_id": "7ea17e2b5c6283084b998ef06b6bbdca", "lat": 38.91808433333333, "name": "7ea17e2b5c6283084b998ef06b6bbdca", "is_disabled": 0, "rental_uris": {"android": "https://dc.lft.to/lastmile_qr_scan", "ios": "https://dc.lft.to/lastmile_qr_scan"}, "fusion_lon": 0.0, "lon": -77.03879033333334, "is_reserved": 0}, {"fusion_lat": 0.0, "type": "electric_bike", "bike_id": "7d4d5490d30e7a193153871902f265c8", "lat": 38.95882066666667, "name": "7d4d5490d30e7a193153871902f265c8", "is_disabled": 0, "rental_uris": {"android": "https://dc.lft.to/lastmile_qr_scan", "ios": "https://dc.lft.to/lastmile_qr_scan"}, "fusion_lon": 0.0, "lon": -77.01027916666666, "is_reserved": 0}, {"fusion_lat": 0.0, "type": "electric_scooter", "bike_id": "955b792fd8af0ea44db8e30885fb5533", "lat": 38.92070366666667, "name": "955b792fd8af0ea44db8e30885fb5533", "is_disabled": 0, "rental_uris": {"android": "https://dc.lft.to/lastmile_qr_scan", "ios": "https://dc.lft.to/lastmile_qr_scan"}, "fusion_lon": 0.0, "lon": -77.02210083333334, "is_reserved": 0}, {"fusion_lat": 0.0, "type": "electric_scooter", "bike_id": "b2d9c65cad0ad56c251d055b45f9fb46", "lat": 38.926583, "name": "b2d9c65cad0ad56c251d055b45f9fb46", "is_disabled": 0, "rental_uris": {"android": "https://dc.lft.to/lastmile_qr_scan", "ios": "https://dc.lft.to/lastmile_qr_scan"}, "fusion_lon": 0.0, "lon": -77.02297566666667, "is_reserved": 0}, {"fusion_lat": 0.0, "type": "electric_scooter", "bike_id": "2a1855f78cf695454ef0a1d0a4dfb035", "lat": 38.892181, "name": "2a1855f78cf695454ef0a1d0a4dfb035", "is_disabled": 0, "rental_uris": {"android": "https://dc.lft.to/lastmile_qr_scan", "ios": "https://dc.lft.to/lastmile_qr_scan"}, "fusion_lon": 0.0, "lon": -77.02159516666667, "is_reserved": 0}, {"fusion_lat": 0.0, "type": "electric_bike", "bike_id": "bee26463693341dae03f75a528e36595", "lat": 38.92880783333333, "name": "bee26463693341dae03f75a528e36595", "is_disabled": 0, "rental_uris": {"android": "https://dc.lft.to/lastmile_qr_scan", "ios": "https://dc.lft.to/lastmile_qr_scan"}, "fusion_lon": 0.0, "lon": -77.01935, "is_reserved": 0}, {"fusion_lat": 0.0, "type": "electric_scooter", "bike_id": "df909190eb46c493e618d98408429983", "lat": 38.91671433333333, "name": "df909190eb46c493e618d98408429983", "is_disabled": 0, "rental_uris": {"android": "https://dc.lft.to/lastmile_qr_scan", "ios": "https://dc.lft.to/lastmile_qr_scan"}, "fusion_lon": 0.0, "lon": -77.02204333333333, "is_reserved": 0}, {"fusion_lat": 0.0, "type": "electric_scooter", "bike_id": "9b23c339a7bebb829a1f19bcda0be1f5", "lat": 38.895156166666666, "name": "9b23c339a7bebb829a1f19bcda0be1f5", "is_disabled": 0, "rental_uris": {"android": "https://dc.lft.to/lastmile_qr_scan", "ios": "https://dc.lft.to/lastmile_qr_scan"}, "fusion_lon": 0.0, "lon": -77.02296183333333, "is_reserved": 0}, {"fusion_lat": 0.0, "type": "electric_scooter", "bike_id": "c7da442812f50c213df359a07ca47046", "lat": 38.89227983333333, "name": "c7da442812f50c213df359a07ca47046", "is_disabled": 0, "rental_uris": {"android": "https://dc.lft.to/lastmile_qr_scan", "ios": "https://dc.lft.to/lastmile_qr_scan"}, "fusion_lon": 0.0, "lon": -77.00302, "is_reserved": 0}, {"fusion_lat": 0.0, "type": "electric_scooter", "bike_id": "5896d27aabd943034fad076b04d82cc1", "lat": 38.921606833333335, "name": "5896d27aabd943034fad076b04d82cc1", "is_disabled": 0, "rental_uris": {"android": "https://dc.lft.to/lastmile_qr_scan", "ios": "https://dc.lft.to/lastmile_qr_scan"}, "fusion_lon": 0.0, "lon": -77.02095133333333, "is_reserved": 0}, {"fusion_lat": 0.0, "type": "electric_scooter", "bike_id": "2540bb463902a3130e74ad4a15ad1eba", "lat": 38.920407, "name": "2540bb463902a3130e74ad4a15ad1eba", "is_disabled": 0, "rental_uris": {"android": "https://dc.lft.to/lastmile_qr_scan", "ios": "https://dc.lft.to/lastmile_qr_scan"}, "fusion_lon": 0.0, "lon": -77.025879, "is_reserved": 0}, {"fusion_lat": 0.0, "type": "electric_scooter", "bike_id": "cf15df7cf9c408e7d34591b9b2cffaa0", "lat": 38.89833083333333, "name": "cf15df7cf9c408e7d34591b9b2cffaa0", "is_disabled": 0, "rental_uris": {"android": "https://dc.lft.to/lastmile_qr_scan", "ios": "https://dc.lft.to/lastmile_qr_scan"}, "fusion_lon": 0.0, "lon": -77.02840116666667, "is_reserved": 0}, {"fusion_lat": 0.0, "type": "electric_scooter", "bike_id": "d72183d6ee37a70d7e4bd83914580afd", "lat": 38.91438866666667, "name": "d72183d6ee37a70d7e4bd83914580afd", "is_disabled": 0, "rental_uris": {"android": "https://dc.lft.to/lastmile_qr_scan", "ios": "https://dc.lft.to/lastmile_qr_scan"}, "fusion_lon": 0.0, "lon": -77.04501566666667, "is_reserved": 0}, {"fusion_lat": 0.0, "type": "electric_scooter", "bike_id": "00e92b8905c93b137df930dba4888a4c", "lat": 38.909853, "name": "00e92b8905c93b137df930dba4888a4c", "is_disabled": 0, "rental_uris": {"android": "https://dc.lft.to/lastmile_qr_scan", "ios": "https://dc.lft.to/lastmile_qr_scan"}, "fusion_lon": 0.0, "lon": -77.00893216666667, "is_reserved": 0}, {"fusion_lat": 0.0, "type": "electric_scooter", "bike_id": "a77c2b9dcf45a7e825a22626e24d9c3a", "lat": 38.89888633333333, "name": "a77c2b9dcf45a7e825a22626e24d9c3a", "is_disabled": 0, "rental_uris": {"android": "https://dc.lft.to/lastmile_qr_scan", "ios": "https://dc.lft.to/lastmile_qr_scan"}, "fusion_lon": 0.0, "lon": -77.02794733333333, "is_reserved": 0}, {"fusion_lat": 0.0, "type": "electric_scooter", "bike_id": "9b66a1906d30122730d27a7aff0caf81", "lat": 38.91846233333333, "name": "9b66a1906d30122730d27a7aff0caf81", "is_disabled": 0, "rental_uris": {"android": "https://dc.lft.to/lastmile_qr_scan", "ios": "https://dc.lft.to/lastmile_qr_scan"}, "fusion_lon": 0.0, "lon": -77.03198616666667, "is_reserved": 0}, {"fusion_lat": 0.0, "type": "electric_scooter", "bike_id": "f885954182491e96d7c0806e00d47a8d", "lat": 38.920360333333335, "name": "f885954182491e96d7c0806e00d47a8d", "is_disabled": 0, "rental_uris": {"android": "https://dc.lft.to/lastmile_qr_scan", "ios": "https://dc.lft.to/lastmile_qr_scan"}, "fusion_lon": 0.0, "lon": -76.97805816666667, "is_reserved": 0}, {"fusion_lat": 0.0, "type": "electric_scooter", "bike_id": "da2eaeac04bbf20cfe4433af0d34fd91", "lat": 38.904848333333334, "name": "da2eaeac04bbf20cfe4433af0d34fd91", "is_disabled": 0, "rental_uris": {"android": "https://dc.lft.to/lastmile_qr_scan", "ios": "https://dc.lft.to/lastmile_qr_scan"}, "fusion_lon": 0.0, "lon": -77.02932133333333, "is_reserved": 0}, {"fusion_lat": 0.0, "type": "electric_scooter", "bike_id": "831bf43107e6506ae42bf1f00aedb62b", "lat": 38.917402833333334, "name": "831bf43107e6506ae42bf1f00aedb62b", "is_disabled": 0, "rental_uris": {"android": "https://dc.lft.to/lastmile_qr_scan", "ios": "https://dc.lft.to/lastmile_qr_scan"}, "fusion_lon": 0.0, "lon": -77.02115816666667, "is_reserved": 0}, {"fusion_lat": 0.0, "type": "electric_scooter", "bike_id": "b0202200a485dd377483235d2cd889ff", "lat": 38.96649583333333, "name": "b0202200a485dd377483235d2cd889ff", "is_disabled": 0, "rental_uris": {"android": "https://dc.lft.to/lastmile_qr_scan", "ios": "https://dc.lft.to/lastmile_qr_scan"}, "fusion_lon": 0.0, "lon": -77.027505, "is_reserved": 0}, {"fusion_lat": 0.0, "type": "electric_bike", "bike_id": "9ad51c7a886845152632623853e3dafc", "lat": 38.99227783333333, "name": "9ad51c7a886845152632623853e3dafc", "is_disabled": 0, "rental_uris": {"android": "https://dc.lft.to/lastmile_qr_scan", "ios": "https://dc.lft.to/lastmile_qr_scan"}, "fusion_lon": 0.0, "lon": -77.035822, "is_reserved": 0}, {"fusion_lat": 0.0, "type": "electric_bike", "bike_id": "2eb5c3448d9889e12b4e9be0d8a69a83", "lat": 38.836036666666665, "name": "2eb5c3448d9889e12b4e9be0d8a69a83", "is_disabled": 0, "rental_uris": {"android": "https://dc.lft.to/lastmile_qr_scan", "ios": "https://dc.lft.to/lastmile_qr_scan"}, "fusion_lon": 0.0, "lon": -77.00373, "is_reserved": 0}, {"fusion_lat": 0.0, "type": "electric_scooter", "bike_id": "693d8ccac7fb7142f9f5a33f21cb9d14", "lat": 38.90215583333333, "name": "693d8ccac7fb7142f9f5a33f21cb9d14", "is_disabled": 0, "rental_uris": {"android": "https://dc.lft.to/lastmile_qr_scan", "ios": "https://dc.lft.to/lastmile_qr_scan"}, "fusion_lon": 0.0, "lon": -77.02606316666666, "is_reserved": 0}, {"fusion_lat": 0.0, "type": "electric_bike", "bike_id": "af77c9add399986ac5280fc8fe865146", "lat": 38.8380855, "name": "af77c9add399986ac5280fc8fe865146", "is_disabled": 0, "rental_uris": {"android": "https://dc.lft.to/lastmile_qr_scan", "ios": "https://dc.lft.to/lastmile_qr_scan"}, "fusion_lon": 0.0, "lon": -77.002773, "is_reserved": 0}, {"fusion_lat": 0.0, "type": "electric_scooter", "bike_id": "0ac44cfdbf222b8127ecfcb23b330d10", "lat": 38.90377383333333, "name": "0ac44cfdbf222b8127ecfcb23b330d10", "is_disabled": 0, "rental_uris": {"android": "https://dc.lft.to/lastmile_qr_scan", "ios": "https://dc.lft.to/lastmile_qr_scan"}, "fusion_lon": 0.0, "lon": -77.031855, "is_reserved": 0}, {"fusion_lat": 0.0, "type": "electric_bike", "bike_id": "be5d9f44d99c0befa2896fbcf92b094e", "lat": 38.842806333333336, "name": "be5d9f44d99c0befa2896fbcf92b094e", "is_disabled": 0, "rental_uris": {"android": "https://dc.lft.to/lastmile_qr_scan", "ios": "https://dc.lft.to/lastmile_qr_scan"}, "fusion_lon": 0.0, "lon": -76.98840616666666, "is_reserved": 0}, {"fusion_lat": 0.0, "type": "electric_scooter", "bike_id": "8e1d855df86f2060dd5f0bf60dc8b37d", "lat": 38.947412, "name": "8e1d855df86f2060dd5f0bf60dc8b37d", "is_disabled": 0, "rental_uris": {"android": "https://dc.lft.to/lastmile_qr_scan", "ios": "https://dc.lft.to/lastmile_qr_scan"}, "fusion_lon": 0.0, "lon": -77.023666, "is_reserved": 0}, {"fusion_lat": 0.0, "type": "electric_scooter", "bike_id": "203decf7a34a5ee3c5f2e7212d9c2be6", "lat": 38.897512666666664, "name": "203decf7a34a5ee3c5f2e7212d9c2be6", "is_disabled": 0, "rental_uris": {"android": "https://dc.lft.to/lastmile_qr_scan", "ios": "https://dc.lft.to/lastmile_qr_scan"}, "fusion_lon": 0.0, "lon": -77.02695816666666, "is_reserved": 0}, {"fusion_lat": 0.0, "type": "electric_scooter", "bike_id": "18220766c09ed9558f07bbe0ed590655", "lat": 38.908370166666664, "name": "18220766c09ed9558f07bbe0ed590655", "is_disabled": 0, "rental_uris": {"android": "https://dc.lft.to/lastmile_qr_scan", "ios": "https://dc.lft.to/lastmile_qr_scan"}, "fusion_lon": 0.0, "lon": -77.04348366666666, "is_reserved": 0}, {"fusion_lat": 0.0, "type": "electric_scooter", "bike_id": "34ffeff0fde15d5ba01f46221d84206f", "lat": 38.91206616666667, "name": "34ffeff0fde15d5ba01f46221d84206f", "is_disabled": 0, "rental_uris": {"android": "https://dc.lft.to/lastmile_qr_scan", "ios": "https://dc.lft.to/lastmile_qr_scan"}, "fusion_lon": 0.0, "lon": -77.07313216666667, "is_reserved": 0}, {"fusion_lat": 0.0, "type": "electric_scooter", "bike_id": "76caad477d3929206a7be24c16ab9a68", "lat": 38.902721, "name": "76caad477d3929206a7be24c16ab9a68", "is_disabled": 0, "rental_uris": {"android": "https://dc.lft.to/lastmile_qr_scan", "ios": "https://dc.lft.to/lastmile_qr_scan"}, "fusion_lon": 0.0, "lon": -77.04369466666667, "is_reserved": 0}, {"fusion_lat": 0.0, "type": "electric_scooter", "bike_id": "7a5b0160a93348fe6ff0b7ed64f81f4b", "lat": 38.915767333333335, "name": "7a5b0160a93348fe6ff0b7ed64f81f4b", "is_disabled": 0, "rental_uris": {"android": "https://dc.lft.to/lastmile_qr_scan", "ios": "https://dc.lft.to/lastmile_qr_scan"}, "fusion_lon": 0.0, "lon": -77.01995283333333, "is_reserved": 0}, {"fusion_lat": 0.0, "type": "electric_scooter", "bike_id": "3249a43ee26cf2ea1df53b747267bca3", "lat": 38.911954333333334, "name": "3249a43ee26cf2ea1df53b747267bca3", "is_disabled": 0, "rental_uris": {"android": "https://dc.lft.to/lastmile_qr_scan", "ios": "https://dc.lft.to/lastmile_qr_scan"}, "fusion_lon": 0.0, "lon": -77.0318155, "is_reserved": 0}, {"fusion_lat": 0.0, "type": "electric_scooter", "bike_id": "a9a615d3bd42f3eac0dc6ad9a4b5da48", "lat": 38.920713666666664, "name": "a9a615d3bd42f3eac0dc6ad9a4b5da48", "is_disabled": 0, "rental_uris": {"android": "https://dc.lft.to/lastmile_qr_scan", "ios": "https://dc.lft.to/lastmile_qr_scan"}, "fusion_lon": 0.0, "lon": -77.07158566666666, "is_reserved": 0}, {"fusion_lat": 0.0, "type": "electric_scooter", "bike_id": "cca9f3adfec9409902815a552a0e71e4", "lat": 38.91713266666667, "name": "cca9f3adfec9409902815a552a0e71e4", "is_disabled": 0, "rental_uris": {"android": "https://dc.lft.to/lastmile_qr_scan", "ios": "https://dc.lft.to/lastmile_qr_scan"}, "fusion_lon": 0.0, "lon": -77.03098333333334, "is_reserved": 0}, {"fusion_lat": 0.0, "type": "electric_scooter", "bike_id": "ac0a0ad0f0ffeda7147651524d45ccc0", "lat": 38.91643716666667, "name": "ac0a0ad0f0ffeda7147651524d45ccc0", "is_disabled": 0, "rental_uris": {"android": "https://dc.lft.to/lastmile_qr_scan", "ios": "https://dc.lft.to/lastmile_qr_scan"}, "fusion_lon": 0.0, "lon": -77.02886166666667, "is_reserved": 0}, {"fusion_lat": 0.0, "type": "electric_scooter", "bike_id": "8f0e9ad3706972a8d1857262e0f52ed6", "lat": 38.903679, "name": "8f0e9ad3706972a8d1857262e0f52ed6", "is_disabled": 0, "rental_uris": {"android": "https://dc.lft.to/lastmile_qr_scan", "ios": "https://dc.lft.to/lastmile_qr_scan"}, "fusion_lon": 0.0, "lon": -77.0300625, "is_reserved": 0}, {"fusion_lat": 0.0, "type": "electric_scooter", "bike_id": "089896d41c9ab69cec0b37e8e4c2e5f6", "lat": 38.904185166666664, "name": "089896d41c9ab69cec0b37e8e4c2e5f6", "is_disabled": 0, "rental_uris": {"android": "https://dc.lft.to/lastmile_qr_scan", "ios": "https://dc.lft.to/lastmile_qr_scan"}, "fusion_lon": 0.0, "lon": -77.041864, "is_reserved": 0}, {"fusion_lat": 0.0, "type": "electric_scooter", "bike_id": "458c382cf5af50eac527a0b5867d89f6", "lat": 38.898314, "name": "458c382cf5af50eac527a0b5867d89f6", "is_disabled": 0, "rental_uris": {"android": "https://dc.lft.to/lastmile_qr_scan", "ios": "https://dc.lft.to/lastmile_qr_scan"}, "fusion_lon": 0.0, "lon": -77.04480266666667, "is_reserved": 0}, {"fusion_lat": 0.0, "type": "electric_bike", "bike_id": "4f21494cd150816efc825dd7e420d235", "lat": 38.952199, "name": "4f21494cd150816efc825dd7e420d235", "is_disabled": 0, "rental_uris": {"android": "https://dc.lft.to/lastmile_qr_scan", "ios": "https://dc.lft.to/lastmile_qr_scan"}, "fusion_lon": 0.0, "lon": -77.002562, "is_reserved": 0}, {"fusion_lat": 0.0, "type": "electric_scooter", "bike_id": "c58b4033fcb5583483847cb47714599c", "lat": 38.913336666666666, "name": "c58b4033fcb5583483847cb47714599c", "is_disabled": 0, "rental_uris": {"android": "https://dc.lft.to/lastmile_qr_scan", "ios": "https://dc.lft.to/lastmile_qr_scan"}, "fusion_lon": 0.0, "lon": -77.03189983333333, "is_reserved": 0}, {"fusion_lat": 0.0, "type": "electric_scooter", "bike_id": "56da1c07bbb5ffb668833d7017146d33", "lat": 38.905568, "name": "56da1c07bbb5ffb668833d7017146d33", "is_disabled": 0, "rental_uris": {"android": "https://dc.lft.to/lastmile_qr_scan", "ios": "https://dc.lft.to/lastmile_qr_scan"}, "fusion_lon": 0.0, "lon": -77.03515666666667, "is_reserved": 0}, {"fusion_lat": 0.0, "type": "electric_scooter", "bike_id": "fb887512c114a7f42c5cbd3ac4a5fe82", "lat": 38.937658, "name": "fb887512c114a7f42c5cbd3ac4a5fe82", "is_disabled": 0, "rental_uris": {"android": "https://dc.lft.to/lastmile_qr_scan", "ios": "https://dc.lft.to/lastmile_qr_scan"}, "fusion_lon": 0.0, "lon": -76.99265166666666, "is_reserved": 0}, {"fusion_lat": 0.0, "type": "electric_scooter", "bike_id": "377af429549b0f740dd8156480420417", "lat": 38.90208, "name": "377af429549b0f740dd8156480420417", "is_disabled": 0, "rental_uris": {"android": "https://dc.lft.to/lastmile_qr_scan", "ios": "https://dc.lft.to/lastmile_qr_scan"}, "fusion_lon": 0.0, "lon": -77.03414533333333, "is_reserved": 0}, {"fusion_lat": 0.0, "type": "electric_scooter", "bike_id": "ee6e2639a5581da5c28579a0feaec76d", "lat": 38.90137816666667, "name": "ee6e2639a5581da5c28579a0feaec76d", "is_disabled": 0, "rental_uris": {"android": "https://dc.lft.to/lastmile_qr_scan", "ios": "https://dc.lft.to/lastmile_qr_scan"}, "fusion_lon": 0.0, "lon": -77.0439565, "is_reserved": 0}, {"fusion_lat": 0.0, "type": "electric_scooter", "bike_id": "33de227480974c9d8d915c70b4b0464d", "lat": 38.88484016666666, "name": "33de227480974c9d8d915c70b4b0464d", "is_disabled": 0, "rental_uris": {"android": "https://dc.lft.to/lastmile_qr_scan", "ios": "https://dc.lft.to/lastmile_qr_scan"}, "fusion_lon": 0.0, "lon": -77.03347016666666, "is_reserved": 0}, {"fusion_lat": 0.0, "type": "electric_scooter", "bike_id": "51089f9aa8bd3e8e9322857d5b96ca25", "lat": 38.90542933333333, "name": "51089f9aa8bd3e8e9322857d5b96ca25", "is_disabled": 0, "rental_uris": {"android": "https://dc.lft.to/lastmile_qr_scan", "ios": "https://dc.lft.to/lastmile_qr_scan"}, "fusion_lon": 0.0, "lon": -77.0591735, "is_reserved": 0}, {"fusion_lat": 0.0, "type": "electric_scooter", "bike_id": "cf8c044f8f628adee4434fec87897163", "lat": 38.89913983333334, "name": "cf8c044f8f628adee4434fec87897163", "is_disabled": 0, "rental_uris": {"android": "https://dc.lft.to/lastmile_qr_scan", "ios": "https://dc.lft.to/lastmile_qr_scan"}, "fusion_lon": 0.0, "lon": -77.039221, "is_reserved": 0}, {"fusion_lat": 0.0, "type": "electric_scooter", "bike_id": "a3898c51a6e794b4b6c87e47862196f0", "lat": 38.90561666666667, "name": "a3898c51a6e794b4b6c87e47862196f0", "is_disabled": 0, "rental_uris": {"android": "https://dc.lft.to/lastmile_qr_scan", "ios": "https://dc.lft.to/lastmile_qr_scan"}, "fusion_lon": 0.0, "lon": -77.03573183333333, "is_reserved": 0}, {"fusion_lat": 0.0, "type": "electric_scooter", "bike_id": "148654baf1abecff2ca9378b39efc9fd", "lat": 38.9066095, "name": "148654baf1abecff2ca9378b39efc9fd", "is_disabled": 0, "rental_uris": {"android": "https://dc.lft.to/lastmile_qr_scan", "ios": "https://dc.lft.to/lastmile_qr_scan"}, "fusion_lon": 0.0, "lon": -77.02687766666666, "is_reserved": 0}, {"fusion_lat": 0.0, "type": "electric_scooter", "bike_id": "bed3a7ab50b16379bece2974e64f63f1", "lat": 38.900497333333334, "name": "bed3a7ab50b16379bece2974e64f63f1", "is_disabled": 0, "rental_uris": {"android": "https://dc.lft.to/lastmile_qr_scan", "ios": "https://dc.lft.to/lastmile_qr_scan"}, "fusion_lon": 0.0, "lon": -77.04753216666667, "is_reserved": 0}, {"fusion_lat": 0.0, "type": "electric_scooter", "bike_id": "d27937d73c76a4b303aa4649e6fec535", "lat": 38.90400233333333, "name": "d27937d73c76a4b303aa4649e6fec535", "is_disabled": 0, "rental_uris": {"android": "https://dc.lft.to/lastmile_qr_scan", "ios": "https://dc.lft.to/lastmile_qr_scan"}, "fusion_lon": 0.0, "lon": -77.06517533333333, "is_reserved": 0}, {"fusion_lat": 0.0, "type": "electric_scooter", "bike_id": "f165348eb9917eeba5df9ace9acf7c17", "lat": 38.914444333333336, "name": "f165348eb9917eeba5df9ace9acf7c17", "is_disabled": 0, "rental_uris": {"android": "https://dc.lft.to/lastmile_qr_scan", "ios": "https://dc.lft.to/lastmile_qr_scan"}, "fusion_lon": 0.0, "lon": -77.02289266666666, "is_reserved": 0}, {"fusion_lat": 0.0, "type": "electric_scooter", "bike_id": "42684cf6b35af5ba5873a3aa2705de15", "lat": 38.900802, "name": "42684cf6b35af5ba5873a3aa2705de15", "is_disabled": 0, "rental_uris": {"android": "https://dc.lft.to/lastmile_qr_scan", "ios": "https://dc.lft.to/lastmile_qr_scan"}, "fusion_lon": 0.0, "lon": -77.009036, "is_reserved": 0}, {"fusion_lat": 0.0, "type": "electric_scooter", "bike_id": "8a8e89b1809f5914bde0a389ddb58d21", "lat": 38.906076, "name": "8a8e89b1809f5914bde0a389ddb58d21", "is_disabled": 0, "rental_uris": {"android": "https://dc.lft.to/lastmile_qr_scan", "ios": "https://dc.lft.to/lastmile_qr_scan"}, "fusion_lon": 0.0, "lon": -77.02106583333334, "is_reserved": 0}, {"fusion_lat": 0.0, "type": "electric_scooter", "bike_id": "92d1aa77bf6de52821e405ee4879ae25", "lat": 38.87238633333333, "name": "92d1aa77bf6de52821e405ee4879ae25", "is_disabled": 0, "rental_uris": {"android": "https://dc.lft.to/lastmile_qr_scan", "ios": "https://dc.lft.to/lastmile_qr_scan"}, "fusion_lon": 0.0, "lon": -76.968149, "is_reserved": 0}, {"fusion_lat": 0.0, "type": "electric_scooter", "bike_id": "7d95e2b64dd3041d5205758343415567", "lat": 38.94414316666666, "name": "7d95e2b64dd3041d5205758343415567", "is_disabled": 0, "rental_uris": {"android": "https://dc.lft.to/lastmile_qr_scan", "ios": "https://dc.lft.to/lastmile_qr_scan"}, "fusion_lon": 0.0, "lon": -77.0633795, "is_reserved": 0}, {"fusion_lat": 0.0, "type": "electric_scooter", "bike_id": "4208b01e613a82522a7f9832daf3b875", "lat": 38.90076033333333, "name": "4208b01e613a82522a7f9832daf3b875", "is_disabled": 0, "rental_uris": {"android": "https://dc.lft.to/lastmile_qr_scan", "ios": "https://dc.lft.to/lastmile_qr_scan"}, "fusion_lon": 0.0, "lon": -77.01281966666667, "is_reserved": 0}, {"fusion_lat": 0.0, "type": "electric_scooter", "bike_id": "f4fb08ba22058211f4010620c799c77c", "lat": 38.917078833333335, "name": "f4fb08ba22058211f4010620c799c77c", "is_disabled": 0, "rental_uris": {"android": "https://dc.lft.to/lastmile_qr_scan", "ios": "https://dc.lft.to/lastmile_qr_scan"}, "fusion_lon": 0.0, "lon": -77.03510766666666, "is_reserved": 0}, {"fusion_lat": 0.0, "type": "electric_scooter", "bike_id": "c4ec4daf7ca0406f59af3050d925395c", "lat": 38.928747666666666, "name": "c4ec4daf7ca0406f59af3050d925395c", "is_disabled": 0, "rental_uris": {"android": "https://dc.lft.to/lastmile_qr_scan", "ios": "https://dc.lft.to/lastmile_qr_scan"}, "fusion_lon": 0.0, "lon": -77.03345533333334, "is_reserved": 0}, {"fusion_lat": 0.0, "type": "electric_scooter", "bike_id": "cd673ef61c5aca4826f077cca40c43cf", "lat": 38.930812333333336, "name": "cd673ef61c5aca4826f077cca40c43cf", "is_disabled": 0, "rental_uris": {"android": "https://dc.lft.to/lastmile_qr_scan", "ios": "https://dc.lft.to/lastmile_qr_scan"}, "fusion_lon": 0.0, "lon": -77.002009, "is_reserved": 0}, {"fusion_lat": 0.0, "type": "electric_scooter", "bike_id": "c581ecd1c30ceb52bd598a92fd6f48f2", "lat": 38.938846166666664, "name": "c581ecd1c30ceb52bd598a92fd6f48f2", "is_disabled": 0, "rental_uris": {"android": "https://dc.lft.to/lastmile_qr_scan", "ios": "https://dc.lft.to/lastmile_qr_scan"}, "fusion_lon": 0.0, "lon": -77.028317, "is_reserved": 0}, {"fusion_lat": 0.0, "type": "electric_scooter", "bike_id": "42ef7aa3524e635536c3addefa9695ae", "lat": 38.914806166666665, "name": "42ef7aa3524e635536c3addefa9695ae", "is_disabled": 0, "rental_uris": {"android": "https://dc.lft.to/lastmile_qr_scan", "ios": "https://dc.lft.to/lastmile_qr_scan"}, "fusion_lon": 0.0, "lon": -77.05447066666666, "is_reserved": 0}, {"fusion_lat": 0.0, "type": "electric_bike", "bike_id": "0852db7ed39826b6dd034d81fd863f95", "lat": 38.86758916666667, "name": "0852db7ed39826b6dd034d81fd863f95", "is_disabled": 0, "rental_uris": {"android": "https://dc.lft.to/lastmile_qr_scan", "ios": "https://dc.lft.to/lastmile_qr_scan"}, "fusion_lon": 0.0, "lon": -76.945391, "is_reserved": 0}, {"fusion_lat": 0.0, "type": "electric_scooter", "bike_id": "68d616f0f90d531be26c458d4f366cb5", "lat": 38.8935785, "name": "68d616f0f90d531be26c458d4f366cb5", "is_disabled": 0, "rental_uris": {"android": "https://dc.lft.to/lastmile_qr_scan", "ios": "https://dc.lft.to/lastmile_qr_scan"}, "fusion_lon": 0.0, "lon": -77.0028995, "is_reserved": 0}, {"fusion_lat": 0.0, "type": "electric_scooter", "bike_id": "fc4d5574de145725048686d91ae3463c", "lat": 38.900124, "name": "fc4d5574de145725048686d91ae3463c", "is_disabled": 0, "rental_uris": {"android": "https://dc.lft.to/lastmile_qr_scan", "ios": "https://dc.lft.to/lastmile_qr_scan"}, "fusion_lon": 0.0, "lon": -77.021988, "is_reserved": 0}, {"fusion_lat": 0.0, "type": "electric_scooter", "bike_id": "f0171495cf3f9813bbb09dc5d695cea0", "lat": 38.90544166666667, "name": "f0171495cf3f9813bbb09dc5d695cea0", "is_disabled": 0, "rental_uris": {"android": "https://dc.lft.to/lastmile_qr_scan", "ios": "https://dc.lft.to/lastmile_qr_scan"}, "fusion_lon": 0.0, "lon": -77.02216283333334, "is_reserved": 0}, {"fusion_lat": 0.0, "type": "electric_scooter", "bike_id": "4b04bf335de9047394b98bbb24fa7125", "lat": 38.924968, "name": "4b04bf335de9047394b98bbb24fa7125", "is_disabled": 0, "rental_uris": {"android": "https://dc.lft.to/lastmile_qr_scan", "ios": "https://dc.lft.to/lastmile_qr_scan"}, "fusion_lon": 0.0, "lon": -77.0524855, "is_reserved": 0}, {"fusion_lat": 0.0, "type": "electric_scooter", "bike_id": "3f5deb5102df0d03901f94ec25257f13", "lat": 38.902894833333335, "name": "3f5deb5102df0d03901f94ec25257f13", "is_disabled": 0, "rental_uris": {"android": "https://dc.lft.to/lastmile_qr_scan", "ios": "https://dc.lft.to/lastmile_qr_scan"}, "fusion_lon": 0.0, "lon": -77.03860816666666, "is_reserved": 0}, {"fusion_lat": 0.0, "type": "electric_scooter", "bike_id": "49321ed04e5e3f517c0223801b58c218", "lat": 38.88508383333333, "name": "49321ed04e5e3f517c0223801b58c218", "is_disabled": 0, "rental_uris": {"android": "https://dc.lft.to/lastmile_qr_scan", "ios": "https://dc.lft.to/lastmile_qr_scan"}, "fusion_lon": 0.0, "lon": -77.0056625, "is_reserved": 0}, {"fusion_lat": 0.0, "type": "electric_scooter", "bike_id": "3338f51334c626e30f25a6eae13fb8da", "lat": 38.9356545, "name": "3338f51334c626e30f25a6eae13fb8da", "is_disabled": 0, "rental_uris": {"android": "https://dc.lft.to/lastmile_qr_scan", "ios": "https://dc.lft.to/lastmile_qr_scan"}, "fusion_lon": 0.0, "lon": -77.06430316666666, "is_reserved": 0}, {"fusion_lat": 0.0, "type": "electric_scooter", "bike_id": "e4f987d4c2c08e07788bba387a6b1469", "lat": 38.903220166666664, "name": "e4f987d4c2c08e07788bba387a6b1469", "is_disabled": 0, "rental_uris": {"android": "https://dc.lft.to/lastmile_qr_scan", "ios": "https://dc.lft.to/lastmile_qr_scan"}, "fusion_lon": 0.0, "lon": -77.043563, "is_reserved": 0}, {"fusion_lat": 0.0, "type": "electric_scooter", "bike_id": "8f048f212eaa8a35576c8d61ff66d425", "lat": 38.918700333333334, "name": "8f048f212eaa8a35576c8d61ff66d425", "is_disabled": 0, "rental_uris": {"android": "https://dc.lft.to/lastmile_qr_scan", "ios": "https://dc.lft.to/lastmile_qr_scan"}, "fusion_lon": 0.0, "lon": -77.04034083333333, "is_reserved": 0}, {"fusion_lat": 0.0, "type": "electric_scooter", "bike_id": "23eeab28a6bf09ecd861b38a542cb000", "lat": 38.930236666666666, "name": "23eeab28a6bf09ecd861b38a542cb000", "is_disabled": 0, "rental_uris": {"android": "https://dc.lft.to/lastmile_qr_scan", "ios": "https://dc.lft.to/lastmile_qr_scan"}, "fusion_lon": 0.0, "lon": -77.03804866666667, "is_reserved": 0}, {"fusion_lat": 0.0, "type": "electric_scooter", "bike_id": "a7b08b589f5993b50c4b301e07a424bf", "lat": 38.897357166666666, "name": "a7b08b589f5993b50c4b301e07a424bf", "is_disabled": 0, "rental_uris": {"android": "https://dc.lft.to/lastmile_qr_scan", "ios": "https://dc.lft.to/lastmile_qr_scan"}, "fusion_lon": 0.0, "lon": -77.0282865, "is_reserved": 0}, {"fusion_lat": 0.0, "type": "electric_bike", "bike_id": "b6e7f92dd5a45bcff547edc5b60830b4", "lat": 39.0843975, "name": "b6e7f92dd5a45bcff547edc5b60830b4", "is_disabled": 0, "rental_uris": {"android": "https://dc.lft.to/lastmile_qr_scan", "ios": "https://dc.lft.to/lastmile_qr_scan"}, "fusion_lon": 0.0, "lon": -76.951632, "is_reserved": 0}, {"fusion_lat": 0.0, "type": "electric_scooter", "bike_id": "14325bdee7753ba0f7d5c0b239b2cb89", "lat": 38.909485833333335, "name": "14325bdee7753ba0f7d5c0b239b2cb89", "is_disabled": 0, "rental_uris": {"android": "https://dc.lft.to/lastmile_qr_scan", "ios": "https://dc.lft.to/lastmile_qr_scan"}, "fusion_lon": 0.0, "lon": -76.93594983333334, "is_reserved": 0}, {"fusion_lat": 0.0, "type": "electric_scooter", "bike_id": "1af91150d371a12ccdec95a16eec6d55", "lat": 38.91691683333333, "name": "1af91150d371a12ccdec95a16eec6d55", "is_disabled": 0, "rental_uris": {"android": "https://dc.lft.to/lastmile_qr_scan", "ios": "https://dc.lft.to/lastmile_qr_scan"}, "fusion_lon": 0.0, "lon": -77.03194783333333, "is_reserved": 0}, {"fusion_lat": 0.0, "type": "electric_scooter", "bike_id": "33041e548bb7fc56dcceb80d847ed841", "lat": 38.897316000000004, "name": "33041e548bb7fc56dcceb80d847ed841", "is_disabled": 0, "rental_uris": {"android": "https://dc.lft.to/lastmile_qr_scan", "ios": "https://dc.lft.to/lastmile_qr_scan"}, "fusion_lon": 0.0, "lon": -77.02438933333333, "is_reserved": 0}, {"fusion_lat": 0.0, "type": "electric_scooter", "bike_id": "6aff03c7d2fd4829af6ad5e76b3bec37", "lat": 38.919120166666666, "name": "6aff03c7d2fd4829af6ad5e76b3bec37", "is_disabled": 0, "rental_uris": {"android": "https://dc.lft.to/lastmile_qr_scan", "ios": "https://dc.lft.to/lastmile_qr_scan"}, "fusion_lon": 0.0, "lon": -77.02453216666666, "is_reserved": 0},