{"data": {"bikes": [{"lat": 38.9198215, "is_disabled": 0, "type": "electric_scooter", "lon": -77.03961733333334, "bike_id": "6ac09f927c2f57d9afeb413a878cc8ed", "fusion_lat": 0.0, "name": "6ac09f927c2f57d9afeb413a878cc8ed", "is_reserved": 0, "rental_uris": {"android": "https://dc.lft.to/lastmile_qr_scan", "ios": "https://dc.lft.to/lastmile_qr_scan"}, "fusion_lon": 0.0}, {"lat": 38.876630666666664, "is_disabled": 0, "type": "electric_scooter", "lon": -77.00440083333334, "bike_id": "c02a11885a0f831384fc294a78315d26", "fusion_lat": 0.0, "name": "c02a11885a0f831384fc294a78315d26", "is_reserved": 0, "rental_uris": {"android": "https://dc.lft.to/lastmile_qr_scan", "ios": "https://dc.lft.to/lastmile_qr_scan"}, "fusion_lon": 0.0}, {"lat": 38.91669616666667, "is_disabled": 0, "type": "electric_scooter", "lon": -77.00664333333333, "bike_id": "0b1f6daf2c5cefd68b8df8200f2d36a4", "fusion_lat": 0.0, "name": "0b1f6daf2c5cefd68b8df8200f2d36a4", "is_reserved": 0, "rental_uris": {"android": "https://dc.lft.to/lastmile_qr_scan", "ios": "https://dc.lft.to/lastmile_qr_scan"}, "fusion_lon": 0.0}, {"lat": 38.842939, "is_disabled": 0, "type": "electric_scooter", "lon": -76.9994895, "bike_id": "06e9847f793de75ebbc9a379f55b9578", "fusion_lat": 0.0, "name": "06e9847f793de75ebbc9a379f55b9578", "is_reserved": 0, "rental_uris": {"android": "https://dc.lft.to/lastmile_qr_scan", "ios": "https://dc.lft.to/lastmile_qr_scan"}, "fusion_lon": 0.0}, {"lat": 38.9090465, "is_disabled": 0, "type": "electric_scooter", "lon": -77.04658866666666, "bike_id": "577c724c326fcc24b599c026010cb019", "fusion_lat": 0.0, "name": "577c724c326fcc24b599c026010cb019", "is_reserved": 0, "rental_uris": {"android": "https://dc.lft.to/lastmile_qr_scan", "ios": "https://dc.lft.to/lastmile_qr_scan"}, "fusion_lon": 0.0}, {"lat": 38.92529616666667, "is_disabled": 0, "type": "electric_scooter", "lon": -77.0076275, "bike_id": "1729576013a30b9a5fc4081bda154f57", "fusion_lat": 0.0, "name": "1729576013a30b9a5fc4081bda154f57", "is_reserved": 0, "rental_uris": {"android": "https://dc.lft.to/lastmile_qr_scan", "ios": "https://dc.lft.to/lastmile_qr_scan"}, "fusion_lon": 0.0}, {"lat": 38.922630833333336, "is_disabled": 0, "type": "electric_scooter", "lon": -77.018695, "bike_id": "e03f6920d18b91870de66af5a879d756", "fusion_lat": 0.0, "name": "e03f6920d18b91870de66af5a879d756", "is_reserved": 0, "rental_uris": {"android": "https://dc.lft.to/lastmile_qr_scan", "ios": "https://dc.lft.to/lastmile_qr_scan"}, "fusion_lon": 0.0}, {"lat": 38.92011933333333, "is_disabled": 0, "type": "electric_bike", "lon": -77.03881416666667, "bike_id": "3449e65fdf2653ae11b12b691293371b", "fusion_lat": 0.0, "name": "3449e65fdf2653ae11b12b691293371b", "is_reserved": 0, "rental_uris": {"android": "https://dc.lft.to/lastmile_qr_scan", "ios": "https://dc.lft.to/lastmile_qr_scan"}, "fusion_lon": 0.0}, {"lat": 38.902522, "is_disabled": 0, "type": "electric_scooter", "lon": -77.01743533333334, "bike_id": "ef75773681566366ebc3d60b7152efa2", "fusion_lat": 0.0, "name": "ef75773681566366ebc3d60b7152efa2", "is_reserved": 0, "rental_uris": {"android": "https://dc.lft.to/lastmile_qr_scan", "ios": "https://dc.lft.to/lastmile_qr_scan"}, "fusion_lon": 0.0}, {"lat": 38.9119945, "is_disabled": 0, "type": "electric_scooter", "lon": -77.00213583333333, "bike_id": "c88c56f2c40f4d23e39b95228b438a1c", "fusion_lat": 0.0, "name": "c88c56f2c40f4d23e39b95228b438a1c", "is_reserved": 0, "rental_uris": {"android": "https://dc.lft.to/lastmile_qr_scan", "ios": "https://dc.lft.to/lastmile_qr_scan"}, "fusion_lon": 0.0}, {"lat": 38.9168075, "is_disabled": 0, "type": "electric_scooter", "lon": -77.02286483333333, "bike_id": "40003eacca368db7c2c0b4793739927c", "fusion_lat": 0.0, "name": "40003eacca368db7c2c0b4793739927c", "is_reserved": 0, "rental_uris": {"android": "https://dc.lft.to/lastmile_qr_scan", "ios": "https://dc.lft.to/lastmile_qr_scan"}, "fusion_lon": 0.0}, {"lat": 38.901723833333335, "is_disabled": 0, "type": "electric_scooter", "lon": -76.98038416666667, "bike_id": "206831e54774d1b24eb847ec8112cf39", "fusion_lat": 0.0, "name": "206831e54774d1b24eb847ec8112cf39", "is_reserved": 0, "rental_uris": {"android": "https://dc.lft.to/lastmile_qr_scan", "ios": "https://dc.lft.to/lastmile_qr_scan"}, "fusion_lon": 0.0}, {"lat": 38.871492833333335, "is_disabled": 0, "type": "electric_bike", "lon": -76.93665766666666, "bike_id": "4de0da13d038e79f6238ac07695ffb94", "fusion_lat": 0.0, "name": "4de0da13d038e79f6238ac07695ffb94", "is_reserved": 0, "rental_uris": {"android": "https://dc.lft.to/lastmile_qr_scan", "ios": "https://dc.lft.to/lastmile_qr_scan"}, "fusion_lon": 0.0}, {"lat": 38.96625383333333, "is_disabled": 0, "type": "electric_bike", "lon": -76.97667766666666, "bike_id": "0f4b2e4ff283b6b7d8b1792e8bc25318", "fusion_lat": 0.0, "name": "0f4b2e4ff283b6b7d8b1792e8bc25318", "is_reserved": 0, "rental_uris": {"android": "https://dc.lft.to/lastmile_qr_scan", "ios": "https://dc.lft.to/lastmile_qr_scan"}, "fusion_lon": 0.0}, {"lat": 38.907055166666666, "is_disabled": 0, "type": "electric_scooter", "lon": -77.04331716666667, "bike_id": "c8dd7c13e7b8cc81d47138bc61c66372", "fusion_lat": 0.0, "name": "c8dd7c13e7b8cc81d47138bc61c66372", "is_reserved": 0, "rental_uris": {"android": "https://dc.lft.to/lastmile_qr_scan", "ios": "https://dc.lft.to/lastmile_qr_scan"}, "fusion_lon": 0.0}, {"lat": 38.902482666666664, "is_disabled": 0, "type": "electric_scooter", "lon": -77.0205735, "bike_id": "7e233d01892b181eab1525f0b282d9c5", "fusion_lat": 0.0, "name": "7e233d01892b181eab1525f0b282d9c5", "is_reserved": 0, "rental_uris": {"android": "https://dc.lft.to/lastmile_qr_scan", "ios": "https://dc.lft.to/lastmile_qr_scan"}, "fusion_lon": 0.0}, {"lat": 38.95076366666667, "is_disabled": 0, "type": "electric_bike", "lon": -77.0119545, "bike_id": "5477a1f2b5cc7abf4e15886ac2ef468b", "fusion_lat": 0.0, "name": "5477a1f2b5cc7abf4e15886ac2ef468b", "is_reserved": 0, "rental_uris": {"android": "https://dc.lft.to/lastmile_qr_scan", "ios": "https://dc.lft.to/lastmile_qr_scan"}, "fusion_lon": 0.0}, {"lat": 38.94136, "is_disabled": 0, "type": "electric_scooter", "lon": -77.07614233333334, "bike_id": "36e26e0403824c2e911530f097f88e89", "fusion_lat": 0.0, "name": "36e26e0403824c2e911530f097f88e89", "is_reserved": 0, "rental_uris": {"android": "https://dc.lft.to/lastmile_qr_scan", "ios": "https://dc.lft.to/lastmile_qr_scan"}, "fusion_lon": 0.0}, {"lat": 38.923634166666666, "is_disabled": 0, "type": "electric_scooter", "lon": -77.050936, "bike_id": "a7a36a34eb7cf85fb5a9bf21c7b18ff8", "fusion_lat": 0.0, "name": "a7a36a34eb7cf85fb5a9bf21c7b18ff8", "is_reserved": 0, "rental_uris": {"android": "https://dc.lft.to/lastmile_qr_scan", "ios": "https://dc.lft.to/lastmile_qr_scan"}, "fusion_lon": 0.0}, {"lat": 38.931721333333336, "is_disabled": 0, "type": "electric_scooter", "lon": -77.02817716666667, "bike_id": "ab875a1eb1c3fc7798b2bd69462c75e1", "fusion_lat": 0.0, "name": "ab875a1eb1c3fc7798b2bd69462c75e1", "is_reserved": 0, "rental_uris": {"android": "https://dc.lft.to/lastmile_qr_scan", "ios": "https://dc.lft.to/lastmile_qr_scan"}, "fusion_lon": 0.0}, {"lat": 38.93405283333333, "is_disabled": 0, "type": "electric_scooter", "lon": -77.02036566666666, "bike_id": "a35cc34c7c42d79e041a3adb0ded43c9", "fusion_lat": 0.0, "name": "a35cc34c7c42d79e041a3adb0ded43c9", "is_reserved": 0, "rental_uris": {"android": "https://dc.lft.to/lastmile_qr_scan", "ios": "https://dc.lft.to/lastmile_qr_scan"}, "fusion_lon": 0.0}, {"lat": 38.90813683333333, "is_disabled": 0, "type": "electric_scooter", "lon": -76.99711516666666, "bike_id": "ca78310c65c116ee817e81dc6d601883", "fusion_lat": 0.0, "name": "ca78310c65c116ee817e81dc6d601883", "is_reserved": 0, "rental_uris": {"android": "https://dc.lft.to/lastmile_qr_scan", "ios": "https://dc.lft.to/lastmile_qr_scan"}, "fusion_lon": 0.0}, {"lat": 38.91981116666667, "is_disabled": 0, "type": "electric_scooter", "lon": -77.0120905, "bike_id": "05243b02da712eb402c4608778113f04", "fusion_lat": 0.0, "name": "05243b02da712eb402c4608778113f04", "is_reserved": 0, "rental_uris": {"android": "https://dc.lft.to/lastmile_qr_scan", "ios": "https://dc.lft.to/lastmile_qr_scan"}, "fusion_lon": 0.0}, {"lat": 38.92259283333333, "is_disabled": 0, "type": "electric_scooter", "lon": -77.0197645, "bike_id": "b0c39da9ed96f292833a4db407138106", "fusion_lat": 0.0, "name": "b0c39da9ed96f292833a4db407138106", "is_reserved": 0, "rental_uris": {"android": "https://dc.lft.to/lastmile_qr_scan", "ios": "https://dc.lft.to/lastmile_qr_scan"}, "fusion_lon": 0.0}, {"lat": 38.90522766666667, "is_disabled": 0, "type": "electric_scooter", "lon": -77.064483, "bike_id": "345c3e2cecab5cfd9c6463a45d8d2218", "fusion_lat": 0.0, "name": "345c3e2cecab5cfd9c6463a45d8d2218", "is_reserved": 0, "rental_uris": {"android": "https://dc.lft.to/lastmile_qr_scan", "ios": "https://dc.lft.to/lastmile_qr_scan"}, "fusion_lon": 0.0}, {"lat": 38.905568333333335, "is_disabled": 0, "type": "electric_scooter", "lon": -76.98380716666667, "bike_id": "70a1d01477e00f6a9a0c54a12607d983", "fusion_lat": 0.0, "name": "70a1d01477e00f6a9a0c54a12607d983", "is_reserved": 0, "rental_uris": {"android": "https://dc.lft.to/lastmile_qr_scan", "ios": "https://dc.lft.to/lastmile_qr_scan"}, "fusion_lon": 0.0}, {"lat": 38.923641, "is_disabled": 0, "type": "electric_scooter", "lon": -77.04153383333333, "bike_id": "cb82d429a66de0b591082bbccf3a25f0", "fusion_lat": 0.0, "name": "cb82d429a66de0b591082bbccf3a25f0", "is_reserved": 0, "rental_uris": {"android": "https://dc.lft.to/lastmile_qr_scan", "ios": "https://dc.lft.to/lastmile_qr_scan"}, "fusion_lon": 0.0}, {"lat": 38.88889616666667, "is_disabled": 0, "type": "electric_scooter", "lon": -76.93154366666667, "bike_id": "4dfe2dfcc3298df9be29345433141d0e", "fusion_lat": 0.0, "name": "4dfe2dfcc3298df9be29345433141d0e", "is_reserved": 0, "rental_uris": {"android": "https://dc.lft.to/lastmile_qr_scan", "ios": "https://dc.lft.to/lastmile_qr_scan"}, "fusion_lon": 0.0}, {"lat": 38.91587616666666, "is_disabled": 0, "type": "electric_scooter", "lon": -77.04635366666666, "bike_id": "c8079bbb7c7cd460ffc1145bcb997db3", "fusion_lat": 0.0, "name": "c8079bbb7c7cd460ffc1145bcb997db3", "is_reserved": 0, "rental_uris": {"android": "https://dc.lft.to/lastmile_qr_scan", "ios": "https://dc.lft.to/lastmile_qr_scan"}, "fusion_lon": 0.0}, {"lat": 38.94427566666667, "is_disabled": 0, "type": "electric_scooter", "lon": -77.06303933333334, "bike_id": "77fc4ec773990885a2c2bd6675569240", "fusion_lat": 0.0, "name": "77fc4ec773990885a2c2bd6675569240", "is_reserved": 0, "rental_uris": {"android": "https://dc.lft.to/lastmile_qr_scan", "ios": "https://dc.lft.to/lastmile_qr_scan"}, "fusion_lon": 0.0}, {"lat": 38.935853333333334, "is_disabled": 0, "type": "electric_bike", "lon": -77.10685683333334, "bike_id": "8b67ca39cf14dcec79965aafe1f7bfa8", "fusion_lat": 0.0, "name": "8b67ca39cf14dcec79965aafe1f7bfa8", "is_reserved": 0, "rental_uris": {"android": "https://dc.lft.to/lastmile_qr_scan", "ios": "https://dc.lft.to/lastmile_qr_scan"}, "fusion_lon": 0.0}, {"lat": 38.88311216666666, "is_disabled": 0, "type": "electric_scooter", "lon": -77.00937566666667, "bike_id": "9fe571281bcc49f3b33dca776e015b18", "fusion_lat": 0.0, "name": "9fe571281bcc49f3b33dca776e015b18", "is_reserved": 0, "rental_uris": {"android": "https://dc.lft.to/lastmile_qr_scan", "ios": "https://dc.lft.to/lastmile_qr_scan"}, "fusion_lon": 0.0}, {"lat": 38.905711, "is_disabled": 0, "type": "electric_scooter", "lon": -76.988751, "bike_id": "28d3cd407d5f159a572f16812c5cf78d", "fusion_lat": 0.0, "name": "28d3cd407d5f159a572f16812c5cf78d", "is_reserved": 0, "rental_uris": {"android": "https://dc.lft.to/lastmile_qr_scan", "ios": "https://dc.lft.to/lastmile_qr_scan"}, "fusion_lon": 0.0}, {"lat": 38.911864333333334, "is_disabled": 0, "type": "electric_scooter", "lon": -77.03841833333334, "bike_id": "01531c0c838ff649d69d60ccfda2093e", "fusion_lat": 0.0, "name": "01531c0c838ff649d69d60ccfda2093e", "is_reserved": 0, "rental_uris": {"android": "https://dc.lft.to/lastmile_qr_scan", "ios": "https://dc.lft.to/lastmile_qr_scan"}, "fusion_lon": 0.0}, {"lat": 38.899177, "is_disabled": 0, "type": "electric_scooter", "lon": -77.02167133333333, "bike_id": "143a143192569d68e6c68d926d5b2e8f", "fusion_lat": 0.0, "name": "143a143192569d68e6c68d926d5b2e8f", "is_reserved": 0, "rental_uris": {"android": "https://dc.lft.to/lastmile_qr_scan", "ios": "https://dc.lft.to/lastmile_qr_scan"}, "fusion_lon": 0.0}, {"lat": 38.8666035, "is_disabled": 0, "type": "electric_scooter", "lon": -76.98882116666667, "bike_id": "78f3e1e20cce1955480b1a4a9c52e068", "fusion_lat": 0.0, "name": "78f3e1e20cce1955480b1a4a9c52e068", "is_reserved": 0, "rental_uris": {"android": "https://dc.lft.to/lastmile_qr_scan", "ios": "https://dc.lft.to/lastmile_qr_scan"}, "fusion_lon": 0.0}, {"lat": 38.93344233333333, "is_disabled": 0, "type": "electric_scooter", "lon": -77.058651, "bike_id": "d70f4cabfd5112dbb853434af46047f8", "fusion_lat": 0.0, "name": "d70f4cabfd5112dbb853434af46047f8", "is_reserved": 0, "rental_uris": {"android": "https://dc.lft.to/lastmile_qr_scan", "ios": "https://dc.lft.to/lastmile_qr_scan"}, "fusion_lon": 0.0}, {"lat": 38.9171425, "is_disabled": 0, "type": "electric_scooter", "lon": -77.03856266666666, "bike_id": "301d77d774f64eb8cff8752b684e368c", "fusion_lat": 0.0, "name": "301d77d774f64eb8cff8752b684e368c", "is_reserved": 0, "rental_uris": {"android": "https://dc.lft.to/lastmile_qr_scan", "ios": "https://dc.lft.to/lastmile_qr_scan"}, "fusion_lon": 0.0}, {"lat": 38.89779, "is_disabled": 0, "type": "electric_scooter", "lon": -77.051516, "bike_id": "a828b6866a64cbf13fa5baa62a321d20", "fusion_lat": 0.0, "name": "a828b6866a64cbf13fa5baa62a321d20", "is_reserved": 0, "rental_uris": {"android": "https://dc.lft.to/lastmile_qr_scan", "ios": "https://dc.lft.to/lastmile_qr_scan"}, "fusion_lon": 0.0}, {"lat": 38.897043333333336, "is_disabled": 0, "type": "electric_scooter", "lon": -77.007236, "bike_id": "e9484092f25d5106a6b33085cb389f2f", "fusion_lat": 0.0, "name": "e9484092f25d5106a6b33085cb389f2f", "is_reserved": 0, "rental_uris": {"android": "https://dc.lft.to/lastmile_qr_scan", "ios": "https://dc.lft.to/lastmile_qr_scan"}, "fusion_lon": 0.0}, {"lat": 38.9229955, "is_disabled": 0, "type": "electric_scooter", "lon": -77.04140333333334, "bike_id": "75a2a5afd019ff22853c9b82c924e342", "fusion_lat": 0.0, "name": "75a2a5afd019ff22853c9b82c924e342", "is_reserved": 0, "rental_uris": {"android": "https://dc.lft.to/lastmile_qr_scan", "ios": "https://dc.lft.to/lastmile_qr_scan"}, "fusion_lon": 0.0}, {"lat": 38.9249095, "is_disabled": 0, "type": "electric_scooter", "lon": -77.052269, "bike_id": "f1d26f4a3850837f2f9c5c31325a3086", "fusion_lat": 0.0, "name": "f1d26f4a3850837f2f9c5c31325a3086", "is_reserved": 0, "rental_uris": {"android": "https://dc.lft.to/lastmile_qr_scan", "ios": "https://dc.lft.to/lastmile_qr_scan"}, "fusion_lon": 0.0}, {"lat": 38.92316, "is_disabled": 0, "type": "electric_scooter", "lon": -77.03962216666666, "bike_id": "b4b8485d40fe3898289519540d0ffde9", "fusion_lat": 0.0, "name": "b4b8485d40fe3898289519540d0ffde9", "is_reserved": 0, "rental_uris": {"android": "https://dc.lft.to/lastmile_qr_scan", "ios": "https://dc.lft.to/lastmile_qr_scan"}, "fusion_lon": 0.0}, {"lat": 38.9171225, "is_disabled": 0, "type": "electric_scooter", "lon": -77.032201, "bike_id": "2092500cfdb8aab71dc853c05a461d63", "fusion_lat": 0.0, "name": "2092500cfdb8aab71dc853c05a461d63", "is_reserved": 0, "rental_uris": {"android": "https://dc.lft.to/lastmile_qr_scan", "ios": "https://dc.lft.to/lastmile_qr_scan"}, "fusion_lon": 0.0}, {"lat": 38.83730416666667, "is_disabled": 0, "type": "electric_bike", "lon": -76.9975475, "bike_id": "c6e26a296f58154fd7c56f14af08f1d8", "fusion_lat": 0.0, "name": "c6e26a296f58154fd7c56f14af08f1d8", "is_reserved": 0, "rental_uris": {"android": "https://dc.lft.to/lastmile_qr_scan", "ios": "https://dc.lft.to/lastmile_qr_scan"}, "fusion_lon": 0.0}, {"lat": 38.93814716666667, "is_disabled": 0, "type": "electric_bike", "lon": -77.026479, "bike_id": "3b1c114e1206401c97ddb00eba333512", "fusion_lat": 0.0, "name": "3b1c114e1206401c97ddb00eba333512", "is_reserved": 0, "rental_uris": {"android": "https://dc.lft.to/lastmile_qr_scan", "ios": "https://dc.lft.to/lastmile_qr_scan"}, "fusion_lon": 0.0}, {"lat": 38.85523283333333, "is_disabled": 0, "type": "electric_bike", "lon": -76.9843265, "bike_id": "6878465eb45bd476f2cff0b6647501af", "fusion_lat": 0.0, "name": "6878465eb45bd476f2cff0b6647501af", "is_reserved": 0, "rental_uris": {"android": "https://dc.lft.to/lastmile_qr_scan", "ios": "https://dc.lft.to/lastmile_qr_scan"}, "fusion_lon": 0.0}, {"lat": 38.9383065, "is_disabled": 0, "type": "electric_scooter", "lon": -77.02609716666667, "bike_id": "551c0187a739ac641473443ba79b375d", "fusion_lat": 0.0, "name": "551c0187a739ac641473443ba79b375d", "is_reserved": 0, "rental_uris": {"android": "https://dc.lft.to/lastmile_qr_scan", "ios": "https://dc.lft.to/lastmile_qr_scan"}, "fusion_lon": 0.0}, {"lat": 38.91614533333333, "is_disabled": 0, "type": "electric_scooter", "lon": -77.02547316666667, "bike_id": "4dc382c0cc7ba661b75c2829d1e308ff", "fusion_lat": 0.0, "name": "4dc382c0cc7ba661b75c2829d1e308ff", "is_reserved": 0, "rental_uris": {"android": "https://dc.lft.to/lastmile_qr_scan", "ios": "https://dc.lft.to/lastmile_qr_scan"}, "fusion_lon": 0.0}, {"lat": 38.85686233333333, "is_disabled": 0, "type": "electric_scooter", "lon": -76.98156966666667, "bike_id": "9c6cadc0fdbfc9538d2ab8247967969e", "fusion_lat": 0.0, "name": "9c6cadc0fdbfc9538d2ab8247967969e", "is_reserved": 0, "rental_uris": {"android": "https://dc.lft.to/lastmile_qr_scan", "ios": "https://dc.lft.to/lastmile_qr_scan"}, "fusion_lon": 0.0}, {"lat": 38.934203833333335, "is_disabled": 0, "type": "electric_scooter", "lon": -77.04138616666667, "bike_id": "60e97820b548a13d1446c7b6b26f4913", "fusion_lat": 0.0, "name": "60e97820b548a13d1446c7b6b26f4913", "is_reserved": 0, "rental_uris": {"android": "https://dc.lft.to/lastmile_qr_scan", "ios": "https://dc.lft.to/lastmile_qr_scan"}, "fusion_lon": 0.0}, {"lat": 38.889973833333336, "is_disabled": 0, "type": "electric_scooter", "lon": -76.955719, "bike_id": "755e8c63280951cfec4473d00f0826b2", "fusion_lat": 0.0, "name": "755e8c63280951cfec4473d00f0826b2", "is_reserved": 0, "rental_uris": {"android": "https://dc.lft.to/lastmile_qr_scan", "ios": "https://dc.lft.to/lastmile_qr_scan"}, "fusion_lon": 0.0}, {"lat": 38.90568833333333, "is_disabled": 0, "type": "electric_scooter", "lon": -77.0627725, "bike_id": "4790074f8d571d68abc8275ef787c0ff", "fusion_lat": 0.0, "name": "4790074f8d571d68abc8275ef787c0ff", "is_reserved": 0, "rental_uris": {"android": "https://dc.lft.to/lastmile_qr_scan", "ios": "https://dc.lft.to/lastmile_qr_scan"}, "fusion_lon": 0.0}, {"lat": 38.905641833333334, "is_disabled": 0, "type": "electric_scooter", "lon": -77.00591533333333, "bike_id": "9e583e746e1381859ec3e0bea24e26e7", "fusion_lat": 0.0, "name": "9e583e746e1381859ec3e0bea24e26e7", "is_reserved": 0, "rental_uris": {"android": "https://dc.lft.to/lastmile_qr_scan", "ios": "https://dc.lft.to/lastmile_qr_scan"}, "fusion_lon": 0.0}, {"lat": 38.90686783333334, "is_disabled": 0, "type": "electric_scooter", "lon": -77.0717285, "bike_id": "05c83a8c150b073b88693a7e4016e61e", "fusion_lat": 0.0, "name": "05c83a8c150b073b88693a7e4016e61e", "is_reserved": 0, "rental_uris": {"android": "https://dc.lft.to/lastmile_qr_scan", "ios": "https://dc.lft.to/lastmile_qr_scan"}, "fusion_lon": 0.0}, {"lat": 38.88623483333333, "is_disabled": 0, "type": "electric_scooter", "lon": -77.00357216666667, "bike_id": "094ffa6f5751020ca6cfee4be73d3659", "fusion_lat": 0.0, "name": "094ffa6f5751020ca6cfee4be73d3659", "is_reserved": 0, "rental_uris": {"android": "https://dc.lft.to/lastmile_qr_scan", "ios": "https://dc.lft.to/lastmile_qr_scan"}, "fusion_lon": 0.0}, {"lat": 38.907850833333335, "is_disabled": 0, "type": "electric_scooter", "lon": -77.03864916666667, "bike_id": "f32ad1e3f5a9fd64a4f0ecff82bdcbd1", "fusion_lat": 0.0, "name": "f32ad1e3f5a9fd64a4f0ecff82bdcbd1", "is_reserved": 0, "rental_uris": {"android": "https://dc.lft.to/lastmile_qr_scan", "ios": "https://dc.lft.to/lastmile_qr_scan"}, "fusion_lon": 0.0}, {"lat": 38.908479166666666, "is_disabled": 0, "type": "electric_scooter", "lon": -77.038545, "bike_id": "4bfa3897e7e3c5cddc1957459d40d605", "fusion_lat": 0.0, "name": "4bfa3897e7e3c5cddc1957459d40d605", "is_reserved": 0, "rental_uris": {"android": "https://dc.lft.to/lastmile_qr_scan", "ios": "https://dc.lft.to/lastmile_qr_scan"}, "fusion_lon": 0.0}, {"lat": 38.926860833333336, "is_disabled": 0, "type": "electric_scooter", "lon": -77.0664945, "bike_id": "cc52e3d80d4f9f7e895b0b4edecb3a5e", "fusion_lat": 0.0, "name": "cc52e3d80d4f9f7e895b0b4edecb3a5e", "is_reserved": 0, "rental_uris": {"android": "https://dc.lft.to/lastmile_qr_scan", "ios": "https://dc.lft.to/lastmile_qr_scan"}, "fusion_lon": 0.0}, {"lat": 38.909616666666665, "is_disabled": 0, "type": "electric_scooter", "lon": -77.02691333333334, "bike_id": "636c6573b14446556a67a116939cf98d", "fusion_lat": 0.0, "name": "636c6573b14446556a67a116939cf98d", "is_reserved": 0, "rental_uris": {"android": "https://dc.lft.to/lastmile_qr_scan", "ios": "https://dc.lft.to/lastmile_qr_scan"}, "fusion_lon": 0.0}, {"lat": 38.90600633333333, "is_disabled": 0, "type": "electric_scooter", "lon": -77.00219583333333, "bike_id": "e851e6f4732269b88884dfc1b7ecf45c", "fusion_lat": 0.0, "name": "e851e6f4732269b88884dfc1b7ecf45c", "is_reserved": 0, "rental_uris": {"android": "https://dc.lft.to/lastmile_qr_scan", "ios": "https://dc.lft.to/lastmile_qr_scan"}, "fusion_lon": 0.0}, {"lat": 38.919801, "is_disabled": 0, "type": "electric_scooter", "lon": -77.0002195, "bike_id": "0f2df8babe305430aa6aa620fa2c5ad1", "fusion_lat": 0.0, "name": "0f2df8babe305430aa6aa620fa2c5ad1", "is_reserved": 0, "rental_uris": {"android": "https://dc.lft.to/lastmile_qr_scan", "ios": "https://dc.lft.to/lastmile_qr_scan"}, "fusion_lon": 0.0}, {"lat": 38.92626216666667, "is_disabled": 0, "type": "electric_scooter", "lon": -77.03619716666667, "bike_id": "fb6e45686623e5bbce1fcc0b8a90ee24", "fusion_lat": 0.0, "name": "fb6e45686623e5bbce1fcc0b8a90ee24", "is_reserved": 0, "rental_uris": {"android": "https://dc.lft.to/lastmile_qr_scan", "ios": "https://dc.lft.to/lastmile_qr_scan"}, "fusion_lon": 0.0}, {"lat": 38.91757483333333, "is_disabled": 0, "type": "electric_scooter", "lon": -77.02300083333333, "bike_id": "4d24f6cf46e0bd7c248ed9776345c94d", "fusion_lat": 0.0, "name": "4d24f6cf46e0bd7c248ed9776345c94d", "is_reserved": 0, "rental_uris": {"android": "https://dc.lft.to/lastmile_qr_scan", "ios": "https://dc.lft.to/lastmile_qr_scan"}, "fusion_lon": 0.0}, {"lat": 38.90139333333333, "is_disabled": 0, "type": "electric_scooter", "lon": -76.98055916666667, "bike_id": "db9880d07ce688df4abc2f9f11f0567a", "fusion_lat": 0.0, "name": "db9880d07ce688df4abc2f9f11f0567a", "is_reserved": 0, "rental_uris": {"android": "https://dc.lft.to/lastmile_qr_scan", "ios": "https://dc.lft.to/lastmile_qr_scan"}, "fusion_lon": 0.0}, {"lat": 38.879760166666664, "is_disabled": 0, "type": "electric_scooter", "lon": -77.00602166666667, "bike_id": "a86d2cf71370599abae9a4748c8d4144", "fusion_lat": 0.0, "name": "a86d2cf71370599abae9a4748c8d4144", "is_reserved": 0, "rental_uris": {"android": "https://dc.lft.to/lastmile_qr_scan", "ios": "https://dc.lft.to/lastmile_qr_scan"}, "fusion_lon": 0.0}, {"lat": 38.93105083333333, "is_disabled": 0, "type": "electric_scooter", "lon": -77.03025983333333, "bike_id": "0087c83e2c3643d715c101f520fb855b", "fusion_lat": 0.0, "name": "0087c83e2c3643d715c101f520fb855b", "is_reserved": 0, "rental_uris": {"android": "https://dc.lft.to/lastmile_qr_scan", "ios": "https://dc.lft.to/lastmile_qr_scan"}, "fusion_lon": 0.0}, {"lat": 38.919814333333335, "is_disabled": 0, "type": "electric_scooter", "lon": -77.00019216666666, "bike_id": "15b10db2ff1432cbf01d15d12fb76bd1", "fusion_lat": 0.0, "name": "15b10db2ff1432cbf01d15d12fb76bd1", "is_reserved": 0, "rental_uris": {"android": "https://dc.lft.to/lastmile_qr_scan", "ios": "https://dc.lft.to/lastmile_qr_scan"}, "fusion_lon": 0.0}, {"lat": 38.9036815, "is_disabled": 0, "type": "electric_scooter", "lon": -77.06284833333333, "bike_id": "29af672f35ad8c263dce4a9a92229045", "fusion_lat": 0.0, "name": "29af672f35ad8c263dce4a9a92229045", "is_reserved": 0, "rental_uris": {"android": "https://dc.lft.to/lastmile_qr_scan", "ios": "https://dc.lft.to/lastmile_qr_scan"}, "fusion_lon": 0.0}, {"lat": 38.904193166666666, "is_disabled": 0, "type": "electric_scooter", "lon": -76.99076983333333, "bike_id": "910fa7b2a1e54ce3639897255038bba3", "fusion_lat": 0.0, "name": "910fa7b2a1e54ce3639897255038bba3", "is_reserved": 0, "rental_uris": {"android": "https://dc.lft.to/lastmile_qr_scan", "ios": "https://dc.lft.to/lastmile_qr_scan"}, "fusion_lon": 0.0}, {"lat": 38.84610283333333, "is_disabled": 0, "type": "electric_bike", "lon": -76.9690365, "bike_id": "4d6bee0824c1cf790e53d2a5ff502a9c", "fusion_lat": 0.0, "name": "4d6bee0824c1cf790e53d2a5ff502a9c", "is_reserved": 0, "rental_uris": {"android": "https://dc.lft.to/lastmile_qr_scan", "ios": "https://dc.lft.to/lastmile_qr_scan"}, "fusion_lon": 0.0}, {"lat": 38.9135385, "is_disabled": 0, "type": "electric_scooter", "lon": -77.01526, "bike_id": "cb76c212703b923a352d7dc60d5af90e", "fusion_lat": 0.0, "name": "cb76c212703b923a352d7dc60d5af90e", "is_reserved": 0, "rental_uris": {"android": "https://dc.lft.to/lastmile_qr_scan", "ios": "https://dc.lft.to/lastmile_qr_scan"}, "fusion_lon": 0.0}, {"lat": 38.89651816666667, "is_disabled": 0, "type": "electric_scooter", "lon": -77.00931716666666, "bike_id": "b3b46f38e885f1459cb94eed98076cd4", "fusion_lat": 0.0, "name": "b3b46f38e885f1459cb94eed98076cd4", "is_reserved": 0, "rental_uris": {"android": "https://dc.lft.to/lastmile_qr_scan", "ios": "https://dc.lft.to/lastmile_qr_scan"}, "fusion_lon": 0.0}, {"lat": 38.9423085, "is_disabled": 0, "type": "electric_scooter", "lon": -77.01387, "bike_id": "19d95a6e59673e2a53a73adbb1046c28", "fusion_lat": 0.0, "name": "19d95a6e59673e2a53a73adbb1046c28", "is_reserved": 0, "rental_uris": {"android": "https://dc.lft.to/lastmile_qr_scan", "ios": "https://dc.lft.to/lastmile_qr_scan"}, "fusion_lon": 0.0}, {"lat": 38.917199833333335, "is_disabled": 0, "type": "electric_scooter", "lon": -77.0410525, "bike_id": "47a1556afa5209e19c5156791ce79019", "fusion_lat": 0.0, "name": "47a1556afa5209e19c5156791ce79019", "is_reserved": 0, "rental_uris": {"android": "https://dc.lft.to/lastmile_qr_scan", "ios": "https://dc.lft.to/lastmile_qr_scan"}, "fusion_lon": 0.0}, {"lat": 38.9085825, "is_disabled": 0, "type": "electric_bike", "lon": -77.0807865, "bike_id": "c685761978fd06c13a68b6e7dca36465", "fusion_lat": 0.0, "name": "c685761978fd06c13a68b6e7dca36465", "is_reserved": 0, "rental_uris": {"android": "https://dc.lft.to/lastmile_qr_scan", "ios": "https://dc.lft.to/lastmile_qr_scan"}, "fusion_lon": 0.0}, {"lat": 38.9198645, "is_disabled": 0, "type": "electric_scooter", "lon": -76.9730905, "bike_id": "5e76c2f9930dc7fa062e0e6d7abf4ea8", "fusion_lat": 0.0, "name": "5e76c2f9930dc7fa062e0e6d7abf4ea8", "is_reserved": 0, "rental_uris": {"android": "https://dc.lft.to/lastmile_qr_scan", "ios": "https://dc.lft.to/lastmile_qr_scan"}, "fusion_lon": 0.0}, {"lat": 38.92346466666667, "is_disabled": 0, "type": "electric_scooter", "lon": -77.03373883333333, "bike_id": "cafd5c11b6efdb88250498d1627ffb7b", "fusion_lat": 0.0, "name": "cafd5c11b6efdb88250498d1627ffb7b", "is_reserved": 0, "rental_uris": {"android": "https://dc.lft.to/lastmile_qr_scan", "ios": "https://dc.lft.to/lastmile_qr_scan"}, "fusion_lon": 0.0}, {"lat": 38.884711333333335, "is_disabled": 0, "type": "electric_scooter", "lon": -76.9926825, "bike_id": "63826580fc40d5bd9e5a3f171ceacf0f", "fusion_lat": 0.0, "name": "63826580fc40d5bd9e5a3f171ceacf0f", "is_reserved": 0, "rental_uris": {"android": "https://dc.lft.to/lastmile_qr_scan", "ios": "https://dc.lft.to/lastmile_qr_scan"}, "fusion_lon": 0.0}, {"lat": 38.880828666666666, "is_disabled": 0, "type": "electric_scooter", "lon": -76.98533983333333, "bike_id": "19ace72bcfcb7144bf98f116193893be", "fusion_lat": 0.0, "name": "19ace72bcfcb7144bf98f116193893be", "is_reserved": 0, "rental_uris": {"android": "https://dc.lft.to/lastmile_qr_scan", "ios": "https://dc.lft.to/lastmile_qr_scan"}, "fusion_lon": 0.0}, {"lat": 38.9507515, "is_disabled": 0, "type": "electric_scooter", "lon": -77.00878816666666, "bike_id": "f362aa806a756225ff038ba7d3264502", "fusion_lat": 0.0, "name": "f362aa806a756225ff038ba7d3264502", "is_reserved": 0, "rental_uris": {"android": "https://dc.lft.to/lastmile_qr_scan", "ios": "https://dc.lft.to/lastmile_qr_scan"}, "fusion_lon": 0.0}, {"lat": 38.9602355, "is_disabled": 0, "type": "electric_bike", "lon": -77.01728783333333, "bike_id": "fcfa6c96275f2f79c574ae7e3936634c", "fusion_lat": 0.0, "name": "fcfa6c96275f2f79c574ae7e3936634c", "is_reserved": 0, "rental_uris": {"android": "https://dc.lft.to/lastmile_qr_scan", "ios": "https://dc.lft.to/lastmile_qr_scan"}, "fusion_lon": 0.0}, {"lat": 39.029342666666665, "is_disabled": 0, "type": "electric_bike", "lon": -77.04930183333333, "bike_id": "3598bb2b5b033bc7e1492e9bd984d5f7", "fusion_lat": 0.0, "name": "3598bb2b5b033bc7e1492e9bd984d5f7", "is_reserved": 0, "rental_uris": {"android": "https://dc.lft.to/lastmile_qr_scan", "ios": "https://dc.lft.to/lastmile_qr_scan"}, "fusion_lon": 0.0}, {"lat": 38.89990483333333, "is_disabled": 0, "type": "electric_scooter", "lon": -77.022807, "bike_id": "1a2c6152fb992fb93ee0443a82e11c0f", "fusion_lat": 0.0, "name": "1a2c6152fb992fb93ee0443a82e11c0f", "is_reserved": 0, "rental_uris": {"android": "https://dc.lft.to/lastmile_qr_scan", "ios": "https://dc.lft.to/lastmile_qr_scan"}, "fusion_lon": 0.0}, {"lat": 38.9540715, "is_disabled": 0, "type": "electric_scooter", "lon": -77.02754833333333, "bike_id": "8e23945a6267f16e92dfcb149bb636e6", "fusion_lat": 0.0, "name": "8e23945a6267f16e92dfcb149bb636e6", "is_reserved": 0, "rental_uris": {"android": "https://dc.lft.to/lastmile_qr_scan", "ios": "https://dc.lft.to/lastmile_qr_scan"}, "fusion_lon": 0.0}, {"lat": 38.87666, "is_disabled": 0, "type": "electric_scooter", "lon": -77.0044335, "bike_id": "f153c13bbd0f171818059d5dceef35ee", "fusion_lat": 0.0, "name": "f153c13bbd0f171818059d5dceef35ee", "is_reserved": 0, "rental_uris": {"android": "https://dc.lft.to/lastmile_qr_scan", "ios": "https://dc.lft.to/lastmile_qr_scan"}, "fusion_lon": 0.0}, {"lat": 38.959238, "is_disabled": 0, "type": "electric_bike", "lon": -77.03119233333334, "bike_id": "0adff97184cec8f0485fcee76028332e", "fusion_lat": 0.0, "name": "0adff97184cec8f0485fcee76028332e", "is_reserved": 0, "rental_uris": {"android": "https://dc.lft.to/lastmile_qr_scan", "ios": "https://dc.lft.to/lastmile_qr_scan"}, "fusion_lon": 0.0}, {"lat": 38.89617283333333, "is_disabled": 0, "type": "electric_scooter", "lon": -76.95598983333333, "bike_id": "855faf8d6a8bfe824b9b628ca44ba609", "fusion_lat": 0.0, "name": "855faf8d6a8bfe824b9b628ca44ba609", "is_reserved": 0, "rental_uris": {"android": "https://dc.lft.to/lastmile_qr_scan", "ios": "https://dc.lft.to/lastmile_qr_scan"}, "fusion_lon": 0.0}, {"lat": 38.9189, "is_disabled": 0, "type": "electric_scooter", "lon": -77.03907183333334, "bike_id": "e71ed8242937bae0eb9f30876009f854", "fusion_lat": 0.0, "name": "e71ed8242937bae0eb9f30876009f854", "is_reserved": 0, "rental_uris": {"android": "https://dc.lft.to/lastmile_qr_scan", "ios": "https://dc.lft.to/lastmile_qr_scan"}, "fusion_lon": 0.0}, {"lat": 38.9084175, "is_disabled": 0, "type": "electric_scooter", "lon": -77.02814416666666, "bike_id": "ed47606642b5f39b39b2618e29ff0f15", "fusion_lat": 0.0, "name": "ed47606642b5f39b39b2618e29ff0f15", "is_reserved": 0, "rental_uris": {"android": "https://dc.lft.to/lastmile_qr_scan", "ios": "https://dc.lft.to/lastmile_qr_scan"}, "fusion_lon": 0.0}, {"lat": 38.920162, "is_disabled": 0, "type": "electric_scooter", "lon": -77.0320415, "bike_id": "8820c0a179bfbf5233b1f13759eb3a31", "fusion_lat": 0.0, "name": "8820c0a179bfbf5233b1f13759eb3a31", "is_reserved": 0, "rental_uris": {"android": "https://dc.lft.to/lastmile_qr_scan", "ios": "https://dc.lft.to/lastmile_qr_scan"}, "fusion_lon": 0.0}, {"lat": 38.927566, "is_disabled": 0, "type": "electric_scooter", "lon": -77.014031, "bike_id": "3d19fd22ed20a312451f3ae2ca149cdf", "fusion_lat": 0.0, "name": "3d19fd22ed20a312451f3ae2ca149cdf", "is_reserved": 0, "rental_uris": {"android": "https://dc.lft.to/lastmile_qr_scan", "ios": "https://dc.lft.to/lastmile_qr_scan"}, "fusion_lon": 0.0}, {"lat": 38.9140265, "is_disabled": 0, "type": "electric_scooter", "lon": -77.03061233333334, "bike_id": "60941078b75380e0a625adf02b1d5bc3", "fusion_lat": 0.0, "name": "60941078b75380e0a625adf02b1d5bc3", "is_reserved": 0, "rental_uris": {"android": "https://dc.lft.to/lastmile_qr_scan", "ios": "https://dc.lft.to/lastmile_qr_scan"}, "fusion_lon": 0.0}, {"lat": 38.91718483333333, "is_disabled": 0, "type": "electric_scooter", "lon": -77.038597, "bike_id": "e15d6886649f216502ece327e0115ba4", "fusion_lat": 0.0, "name": "e15d6886649f216502ece327e0115ba4", "is_reserved": 0, "rental_uris": {"android": "https://dc.lft.to/lastmile_qr_scan", "ios": "https://dc.lft.to/lastmile_qr_scan"}, "fusion_lon": 0.0}, {"lat": 38.901884, "is_disabled": 0, "type": "electric_scooter", "lon": -77.04693366666666, "bike_id": "408030a8fd7144b0714985eff3eea51f", "fusion_lat": 0.0, "name": "408030a8fd7144b0714985eff3eea51f", "is_reserved": 0, "rental_uris": {"android": "https://dc.lft.to/lastmile_qr_scan", "ios": "https://dc.lft.to/lastmile_qr_scan"}, "fusion_lon": 0.0}, {"lat": 38.90465233333333, "is_disabled": 0, "type": "electric_scooter", "lon": -77.00768483333333, "bike_id": "87925c333a945605d409f50bc56a4a79", "fusion_lat": 0.0, "name": "87925c333a945605d409f50bc56a4a79", "is_reserved": 0, "rental_uris": {"android": "https://dc.lft.to/lastmile_qr_scan", "ios": "https://dc.lft.to/lastmile_qr_scan"}, "fusion_lon": 0.0}, {"lat": 38.9015245, "is_disabled": 0, "type": "electric_scooter", "lon": -77.04154433333333, "bike_id": "3bb3aded2d6891a746ba88f6b3f8ac75", "fusion_lat": 0.0, "name": "3bb3aded2d6891a746ba88f6b3f8ac75", "is_reserved": 0, "rental_uris": {"android": "https://dc.lft.to/lastmile_qr_scan", "ios": "https://dc.lft.to/lastmile_qr_scan"}, "fusion_lon": 0.0}, {"lat": 38.886602, "is_disabled": 0, "type": "electric_bike", "lon": -77.16231866666666, "bike_id": "020604b653cc979f1f4e90fba1ec5916", "fusion_lat": 0.0, "name": "020604b653cc979f1f4e90fba1ec5916", "is_reserved": 0, "rental_uris": {"android": "https://dc.lft.to/lastmile_qr_scan", "ios": "https://dc.lft.to/lastmile_qr_scan"}, "fusion_lon": 0.0}, {"lat": 38.910550666666666, "is_disabled": 0, "type": "electric_scooter", "lon": -77.04604, "bike_id": "8e3294861386d3b00f8675307828c75f", "fusion_lat": 0.0, "name": "8e3294861386d3b00f8675307828c75f", "is_reserved": 0, "rental_uris": {"android": "https://dc.lft.to/lastmile_qr_scan", "ios": "https://dc.lft.to/lastmile_qr_scan"}, "fusion_lon": 0.0}, {"lat": 38.942709666666666, "is_disabled": 0, "type": "electric_scooter", "lon": -77.03256316666666, "bike_id": "2c9fb95719eea64f33a4f91f4f0ee2c1", "fusion_lat": 0.0, "name": "2c9fb95719eea64f33a4f91f4f0ee2c1", "is_reserved": 0, "rental_uris": {"android": "https://dc.lft.to/lastmile_qr_scan", "ios": "https://dc.lft.to/lastmile_qr_scan"}, "fusion_lon": 0.0}, {"lat": 38.92416016666667, "is_disabled": 0, "type": "electric_scooter", "lon": -77.03551183333333, "bike_id": "ff508436437581cbbea3bfff837b7098", "fusion_lat": 0.0, "name": "ff508436437581cbbea3bfff837b7098", "is_reserved": 0, "rental_uris": {"android": "https://dc.lft.to/lastmile_qr_scan", "ios": "https://dc.lft.to/lastmile_qr_scan"}, "fusion_lon": 0.0}, {"lat": 38.92620633333333, "is_disabled": 0, "type": "electric_scooter", "lon": -77.03620933333333, "bike_id": "ca56c1855636271d22c9be5f5468f54b", "fusion_lat": 0.0, "name": "ca56c1855636271d22c9be5f5468f54b", "is_reserved": 0, "rental_uris": {"android": "https://dc.lft.to/lastmile_qr_scan", "ios": "https://dc.lft.to/lastmile_qr_scan"}, "fusion_lon": 0.0}, {"lat": 38.933525833333334, "is_disabled": 0, "type": "electric_scooter", "lon": -77.05702916666667, "bike_id": "c678a1a586a30c0f2cc73b2d831ab85c", "fusion_lat": 0.0, "name": "c678a1a586a30c0f2cc73b2d831ab85c", "is_reserved": 0, "rental_uris": {"android": "https://dc.lft.to/lastmile_qr_scan", "ios": "https://dc.lft.to/lastmile_qr_scan"}, "fusion_lon": 0.0}, {"lat": 38.85642766666667, "is_disabled": 0, "type": "electric_bike", "lon": -77.11258, "bike_id": "14d662b3eea77daa6ff3eb5707cb6ad6", "fusion_lat": 0.0, "name": "14d662b3eea77daa6ff3eb5707cb6ad6", "is_reserved": 0, "rental_uris": {"android": "https://dc.lft.to/lastmile_qr_scan", "ios": "https://dc.lft.to/lastmile_qr_scan"}, "fusion_lon": 0.0}, {"lat": 38.8771885, "is_disabled": 0, "type": "electric_scooter", "lon": -77.016789, "bike_id": "1272ccea5c209989d452dedf489c86c0", "fusion_lat": 0.0, "name": "1272ccea5c209989d452dedf489c86c0", "is_reserved": 0, "rental_uris": {"android": "https://dc.lft.to/lastmile_qr_scan", "ios": "https://dc.lft.to/lastmile_qr_scan"}, "fusion_lon": 0.0}, {"lat": 38.883728833333336, "is_disabled": 0, "type": "electric_scooter", "lon": -77.02482466666666, "bike_id": "3046da4031fadd5a9c7ab4092ec4225f", "fusion_lat": 0.0, "name": "3046da4031fadd5a9c7ab4092ec4225f", "is_reserved": 0, "rental_uris": {"android": "https://dc.lft.to/lastmile_qr_scan", "ios": "https://dc.lft.to/lastmile_qr_scan"}, "fusion_lon": 0.0}, {"lat": 38.9298395, "is_disabled": 0, "type": "electric_scooter", "lon": -77.03831133333334, "bike_id": "f6357c65d44a91ed70b4beba3ea168ee", "fusion_lat": 0.0, "name": "f6357c65d44a91ed70b4beba3ea168ee", "is_reserved": 0, "rental_uris": {"android": "https://dc.lft.to/lastmile_qr_scan", "ios": "https://dc.lft.to/lastmile_qr_scan"}, "fusion_lon": 0.0}, {"lat": 38.8826855, "is_disabled": 0, "type": "electric_scooter", "lon": -76.988224, "bike_id": "0fc3e1596abd035956b0348f37ca12c9", "fusion_lat": 0.0, "name": "0fc3e1596abd035956b0348f37ca12c9", "is_reserved": 0, "rental_uris": {"android": "https://dc.lft.to/lastmile_qr_scan", "ios": "https://dc.lft.to/lastmile_qr_scan"}, "fusion_lon": 0.0}, {"lat": 38.91043966666667, "is_disabled": 0, "type": "electric_scooter", "lon": -77.0412065, "bike_id": "38e4e052236b80c23897f84374a8a396", "fusion_lat": 0.0, "name": "38e4e052236b80c23897f84374a8a396", "is_reserved": 0, "rental_uris": {"android": "https://dc.lft.to/lastmile_qr_scan", "ios": "https://dc.lft.to/lastmile_qr_scan"}, "fusion_lon": 0.0}, {"lat": 38.93598633333333, "is_disabled": 0, "type": "electric_scooter", "lon": -77.056341, "bike_id": "7387fbb691bc16a45945a040effbba72", "fusion_lat": 0.0, "name": "7387fbb691bc16a45945a040effbba72", "is_reserved": 0, "rental_uris": {"android": "https://dc.lft.to/lastmile_qr_scan", "ios": "https://dc.lft.to/lastmile_qr_scan"}, "fusion_lon": 0.0}, {"lat": 38.9036135, "is_disabled": 0, "type": "electric_scooter", "lon": -77.040969, "bike_id": "06d032866a2a127d9c18f5008ab88b3a", "fusion_lat": 0.0, "name": "06d032866a2a127d9c18f5008ab88b3a", "is_reserved": 0, "rental_uris": {"android": "https://dc.lft.to/lastmile_qr_scan", "ios": "https://dc.lft.to/lastmile_qr_scan"}, "fusion_lon": 0.0}, {"lat": 38.91062016666667, "is_disabled": 0, "type": "electric_scooter", "lon": -77.0292155, "bike_id": "857ff97ec1da07ea9f392fee299e58cd", "fusion_lat": 0.0, "name": "857ff97ec1da07ea9f392fee299e58cd", "is_reserved": 0, "rental_uris": {"android": "https://dc.lft.to/lastmile_qr_scan", "ios": "https://dc.lft.to/lastmile_qr_scan"}, "fusion_lon": 0.0}, {"lat": 38.90498383333333, "is_disabled": 0, "type": "electric_scooter", "lon": -77.044734, "bike_id": "b7bfb0a7a251e35d4db2e6f9242726c4", "fusion_lat": 0.0, "name": "b7bfb0a7a251e35d4db2e6f9242726c4", "is_reserved": 0, "rental_uris": {"android": "https://dc.lft.to/lastmile_qr_scan", "ios": "https://dc.lft.to/lastmile_qr_scan"}, "fusion_lon": 0.0}, {"lat": 38.91895566666667, "is_disabled": 0, "type": "electric_scooter", "lon": -77.0317075, "bike_id": "af7354194202284f2459784ff8b81358", "fusion_lat": 0.0, "name": "af7354194202284f2459784ff8b81358", "is_reserved": 0, "rental_uris": {"android": "https://dc.lft.to/lastmile_qr_scan", "ios": "https://dc.lft.to/lastmile_qr_scan"}, "fusion_lon": 0.0}, {"lat": 38.917091, "is_disabled": 0, "type": "electric_scooter", "lon": -77.04030033333333, "bike_id": "62f9728ee3c0420384ddd26074e15e98", "fusion_lat": 0.0, "name": "62f9728ee3c0420384ddd26074e15e98", "is_reserved": 0, "rental_uris": {"android": "https://dc.lft.to/lastmile_qr_scan", "ios": "https://dc.lft.to/lastmile_qr_scan"}, "fusion_lon": 0.0}, {"lat": 38.90731733333333, "is_disabled": 0, "type": "electric_scooter", "lon": -77.0237735, "bike_id": "cf13ed8b9433757ae2e8e242b278f09c", "fusion_lat": 0.0, "name": "cf13ed8b9433757ae2e8e242b278f09c", "is_reserved": 0, "rental_uris": {"android": "https://dc.lft.to/lastmile_qr_scan", "ios": "https://dc.lft.to/lastmile_qr_scan"}, "fusion_lon": 0.0}, {"lat": 38.9333775, "is_disabled": 0, "type": "electric_scooter", "lon": -77.05731766666666, "bike_id": "c663a7e436c9a9a9e2d95965f208101a", "fusion_lat": 0.0, "name": "c663a7e436c9a9a9e2d95965f208101a", "is_reserved": 0, "rental_uris": {"android": "https://dc.lft.to/lastmile_qr_scan", "ios": "https://dc.lft.to/lastmile_qr_scan"}, "fusion_lon": 0.0}, {"lat": 38.911786666666664, "is_disabled": 0, "type": "electric_scooter", "lon": -77.03864016666667, "bike_id": "c2789d741f4bc3940436cee335bebf29", "fusion_lat": 0.0, "name": "c2789d741f4bc3940436cee335bebf29", "is_reserved": 0, "rental_uris": {"android": "https://dc.lft.to/lastmile_qr_scan", "ios": "https://dc.lft.to/lastmile_qr_scan"}, "fusion_lon": 0.0}, {"lat": 38.921329166666666, "is_disabled": 0, "type": "electric_scooter", "lon": -77.04007883333334, "bike_id": "8cd2aa37c1356ec7cfbaa0a4bfeee7ff", "fusion_lat": 0.0, "name": "8cd2aa37c1356ec7cfbaa0a4bfeee7ff", "is_reserved": 0, "rental_uris": {"android": "https://dc.lft.to/lastmile_qr_scan", "ios": "https://dc.lft.to/lastmile_qr_scan"}, "fusion_lon": 0.0}, {"lat": 38.88419366666667, "is_disabled": 0, "type": "electric_scooter", "lon": -77.00026683333333, "bike_id": "48252ca96bfab2877ce15552c6266a07", "fusion_lat": 0.0, "name": "48252ca96bfab2877ce15552c6266a07", "is_reserved": 0, "rental_uris": {"android": "https://dc.lft.to/lastmile_qr_scan", "ios": "https://dc.lft.to/lastmile_qr_scan"}, "fusion_lon": 0.0}, {"lat": 38.986511166666666, "is_disabled": 0, "type": "electric_bike", "lon": -77.0563745, "bike_id": "3b2b2471a581835969569c6bc4c95fff", "fusion_lat": 0.0, "name": "3b2b2471a581835969569c6bc4c95fff", "is_reserved": 0, "rental_uris": {"android": "https://dc.lft.to/lastmile_qr_scan", "ios": "https://dc.lft.to/lastmile_qr_scan"}, "fusion_lon": 0.0}, {"lat": 38.9133455, "is_disabled": 0, "type": "electric_scooter", "lon": -77.03130683333333, "bike_id": "3364bc760ee6312e4e3bbd3cdfb8fba0", "fusion_lat": 0.0, "name": "3364bc760ee6312e4e3bbd3cdfb8fba0", "is_reserved": 0, "rental_uris": {"android": "https://dc.lft.to/lastmile_qr_scan", "ios": "https://dc.lft.to/lastmile_qr_scan"}, "fusion_lon": 0.0}, {"lat": 38.928859, "is_disabled": 0, "type": "electric_scooter", "lon": -77.0333155, "bike_id": "ef0d89bf7ee3a76362e04d7b669b203b", "fusion_lat": 0.0, "name": "ef0d89bf7ee3a76362e04d7b669b203b", "is_reserved": 0, "rental_uris": {"android": "https://dc.lft.to/lastmile_qr_scan", "ios": "https://dc.lft.to/lastmile_qr_scan"}, "fusion_lon": 0.0}, {"lat": 38.8780475, "is_disabled": 0, "type": "electric_bike", "lon": -76.9607255, "bike_id": "991b632717393ea06045e26baea73a53", "fusion_lat": 0.0, "name": "991b632717393ea06045e26baea73a53", "is_reserved": 0, "rental_uris": {"android": "https://dc.lft.to/lastmile_qr_scan", "ios": "https://dc.lft.to/lastmile_qr_scan"}, "fusion_lon": 0.0}, {"lat": 38.844233333333335, "is_disabled": 0, "type": "electric_scooter", "lon": -76.99776666666666, "bike_id": "33962fc55ed33705dbd335085057c6aa", "fusion_lat": 0.0, "name": "33962fc55ed33705dbd335085057c6aa", "is_reserved": 0, "rental_uris": {"android": "https://dc.lft.to/lastmile_qr_scan", "ios": "https://dc.lft.to/lastmile_qr_scan"}, "fusion_lon": 0.0}, {"lat": 38.9066915, "is_disabled": 0, "type": "electric_scooter", "lon": -77.02951566666667, "bike_id": "f4124990d1ca6a613204fea7103ebb8f", "fusion_lat": 0.0, "name": "f4124990d1ca6a613204fea7103ebb8f", "is_reserved": 0, "rental_uris": {"android": "https://dc.lft.to/lastmile_qr_scan", "ios": "https://dc.lft.to/lastmile_qr_scan"}, "fusion_lon": 0.0}, {"lat": 38.9233915, "is_disabled": 0, "type": "electric_scooter", "lon": -77.03567683333333, "bike_id": "73589901a60ac198d32e52f40ae7d8e0", "fusion_lat": 0.0, "name": "73589901a60ac198d32e52f40ae7d8e0", "is_reserved": 0, "rental_uris": {"android": "https://dc.lft.to/lastmile_qr_scan", "ios": "https://dc.lft.to/lastmile_qr_scan"}, "fusion_lon": 0.0}, {"lat": 38.905881, "is_disabled": 0, "type": "electric_scooter", "lon": -77.06515116666667, "bike_id": "dc4946d04464c9f39160c2eedc74bd52", "fusion_lat": 0.0, "name": "dc4946d04464c9f39160c2eedc74bd52", "is_reserved": 0, "rental_uris": {"android": "https://dc.lft.to/lastmile_qr_scan", "ios": "https://dc.lft.to/lastmile_qr_scan"}, "fusion_lon": 0.0}, {"lat": 38.86918583333333, "is_disabled": 0, "type": "electric_scooter", "lon": -76.98307383333334, "bike_id": "f8bf539f9658f3c4be7e49a54179ba19", "fusion_lat": 0.0, "name": "f8bf539f9658f3c4be7e49a54179ba19", "is_reserved": 0, "rental_uris": {"android": "https://dc.lft.to/lastmile_qr_scan", "ios": "https://dc.lft.to/lastmile_qr_scan"}, "fusion_lon": 0.0}, {"lat": 38.867143, "is_disabled": 0, "type": "electric_scooter", "lon": -76.98722833333333, "bike_id": "51b6fff6d502f0be95f1aa9e74c66fdc", "fusion_lat": 0.0, "name": "51b6fff6d502f0be95f1aa9e74c66fdc", "is_reserved": 0, "rental_uris": {"android": "https://dc.lft.to/lastmile_qr_scan", "ios": "https://dc.lft.to/lastmile_qr_scan"}, "fusion_lon": 0.0}, {"lat": 38.92205533333333, "is_disabled": 0, "type": "electric_scooter", "lon": -77.0402125, "bike_id": "205caf4b5a432d44059f78bc58f2e4be", "fusion_lat": 0.0, "name": "205caf4b5a432d44059f78bc58f2e4be", "is_reserved": 0, "rental_uris": {"android": "https://dc.lft.to/lastmile_qr_scan", "ios": "https://dc.lft.to/lastmile_qr_scan"}, "fusion_lon": 0.0}, {"lat": 38.896015, "is_disabled": 0, "type": "electric_scooter", "lon": -77.01228216666667, "bike_id": "57b7ea9dd84a5c8ca7f32c5db035feb7", "fusion_lat": 0.0, "name": "57b7ea9dd84a5c8ca7f32c5db035feb7", "is_reserved": 0, "rental_uris": {"android": "https://dc.lft.to/lastmile_qr_scan", "ios": "https://dc.lft.to/lastmile_qr_scan"}, "fusion_lon": 0.0}, {"lat": 38.915174666666665, "is_disabled": 0, "type": "electric_scooter", "lon": -77.03845816666667, "bike_id": "5dbcc1f726c1031c86c13c3179413564", "fusion_lat": 0.0, "name": "5dbcc1f726c1031c86c13c3179413564", "is_reserved": 0, "rental_uris": {"android": "https://dc.lft.to/lastmile_qr_scan", "ios": "https://dc.lft.to/lastmile_qr_scan"}, "fusion_lon": 0.0}, {"lat": 38.90864583333333, "is_disabled": 0, "type": "electric_scooter", "lon": -77.0466695, "bike_id": "f78ac0a2e892151cc8b5204a0589408e", "fusion_lat": 0.0, "name": "f78ac0a2e892151cc8b5204a0589408e", "is_reserved": 0, "rental_uris": {"android": "https://dc.lft.to/lastmile_qr_scan", "ios": "https://dc.lft.to/lastmile_qr_scan"}, "fusion_lon": 0.0}, {"lat": 38.90041766666667, "is_disabled": 0, "type": "electric_scooter", "lon": -76.99663966666667, "bike_id": "c4f0853a792834d034480c701ce6d45d", "fusion_lat": 0.0, "name": "c4f0853a792834d034480c701ce6d45d", "is_reserved": 0, "rental_uris": {"android": "https://dc.lft.to/lastmile_qr_scan", "ios": "https://dc.lft.to/lastmile_qr_scan"}, "fusion_lon": 0.0}, {"lat": 38.924071166666664, "is_disabled": 0, "type": "electric_scooter", "lon": -77.025407, "bike_id": "5657eba980117a8d8ae6128c8d103d91", "fusion_lat": 0.0, "name": "5657eba980117a8d8ae6128c8d103d91", "is_reserved": 0, "rental_uris": {"android": "https://dc.lft.to/lastmile_qr_scan", "ios": "https://dc.lft.to/lastmile_qr_scan"}, "fusion_lon": 0.0}, {"lat": 38.935625, "is_disabled": 0, "type": "electric_scooter", "lon": -77.0587655, "bike_id": "b631ff706728c442b9497faa28c8cb00", "fusion_lat": 0.0, "name": "b631ff706728c442b9497faa28c8cb00", "is_reserved": 0, "rental_uris": {"android": "https://dc.lft.to/lastmile_qr_scan", "ios": "https://dc.lft.to/lastmile_qr_scan"}, "fusion_lon": 0.0}, {"lat": 38.90863916666667, "is_disabled": 0, "type": "electric_bike", "lon": -76.94011133333333, "bike_id": "3fef6cfde376294904fae157d1234b5f", "fusion_lat": 0.0, "name": "3fef6cfde376294904fae157d1234b5f", "is_reserved": 0, "rental_uris": {"android": "https://dc.lft.to/lastmile_qr_scan", "ios": "https://dc.lft.to/lastmile_qr_scan"}, "fusion_lon": 0.0}, {"lat": 38.921559333333335, "is_disabled": 0, "type": "electric_scooter", "lon": -77.03348966666667, "bike_id": "aac5275882a1e3fb1b45739375d40f0e", "fusion_lat": 0.0, "name": "aac5275882a1e3fb1b45739375d40f0e", "is_reserved": 0, "rental_uris": {"android": "https://dc.lft.to/lastmile_qr_scan", "ios": "https://dc.lft.to/lastmile_qr_scan"}, "fusion_lon": 0.0}, {"lat": 38.916604, "is_disabled": 0, "type": "electric_bike", "lon": -77.047171, "bike_id": "10f3700a37ce3dd8e0fa6acae3d6d830", "fusion_lat": 0.0, "name": "10f3700a37ce3dd8e0fa6acae3d6d830", "is_reserved": 0, "rental_uris": {"android": "https://dc.lft.to/lastmile_qr_scan", "ios": "https://dc.lft.to/lastmile_qr_scan"}, "fusion_lon": 0.0}, {"lat": 38.90139283333333, "is_disabled": 0, "type": "electric_scooter", "lon": -77.01805733333333, "bike_id": "a5252acac46ff5db1bd92c386988d069", "fusion_lat": 0.0, "name": "a5252acac46ff5db1bd92c386988d069", "is_reserved": 0, "rental_uris": {"android": "https://dc.lft.to/lastmile_qr_scan", "ios": "https://dc.lft.to/lastmile_qr_scan"}, "fusion_lon": 0.0}, {"lat": 38.876294333333334, "is_disabled": 0, "type": "electric_scooter", "lon": -76.96525416666667, "bike_id": "1c236a76661b667b786464fa22b82e78", "fusion_lat": 0.0, "name": "1c236a76661b667b786464fa22b82e78", "is_reserved": 0, "rental_uris": {"android": "https://dc.lft.to/lastmile_qr_scan", "ios": "https://dc.lft.to/lastmile_qr_scan"}, "fusion_lon": 0.0}, {"lat": 38.89639, "is_disabled": 0, "type": "electric_scooter", "lon": -77.045036, "bike_id": "88d53696f97912bc85e0871ceda5cc89", "fusion_lat": 0.0, "name": "88d53696f97912bc85e0871ceda5cc89", "is_reserved": 0, "rental_uris": {"android": "https://dc.lft.to/lastmile_qr_scan", "ios": "https://dc.lft.to/lastmile_qr_scan"}, "fusion_lon": 0.0}, {"lat": 38.937645333333336, "is_disabled": 0, "type": "electric_scooter", "lon": -77.023717, "bike_id": "be8b3e1ff732e13a4dc1d2c23adf7c96", "fusion_lat": 0.0, "name": "be8b3e1ff732e13a4dc1d2c23adf7c96", "is_reserved": 0, "rental_uris": {"android": "https://dc.lft.to/lastmile_qr_scan", "ios": "https://dc.lft.to/lastmile_qr_scan"}, "fusion_lon": 0.0}, {"lat": 38.90727566666666, "is_disabled": 0, "type": "electric_scooter", "lon": -77.04783883333333, "bike_id": "8bf4ee2f9ffccb7c952ed944250d14b5", "fusion_lat": 0.0, "name": "8bf4ee2f9ffccb7c952ed944250d14b5", "is_reserved": 0, "rental_uris": {"android": "https://dc.lft.to/lastmile_qr_scan", "ios": "https://dc.lft.to/lastmile_qr_scan"}, "fusion_lon": 0.0}, {"lat": 38.90797083333333, "is_disabled": 0, "type": "electric_scooter", "lon": -77.03480083333334, "bike_id": "2fe4a91a2395640383c4aaa93d961307", "fusion_lat": 0.0, "name": "2fe4a91a2395640383c4aaa93d961307", "is_reserved": 0, "rental_uris": {"android": "https://dc.lft.to/lastmile_qr_scan", "ios": "https://dc.lft.to/lastmile_qr_scan"}, "fusion_lon": 0.0}, {"lat": 38.842944833333334, "is_disabled": 0, "type": "electric_scooter", "lon": -76.99949133333334, "bike_id": "20a92f408e56ba655b478567f60c9b4a", "fusion_lat": 0.0, "name": "20a92f408e56ba655b478567f60c9b4a", "is_reserved": 0, "rental_uris": {"android": "https://dc.lft.to/lastmile_qr_scan", "ios": "https://dc.lft.to/lastmile_qr_scan"}, "fusion_lon": 0.0}, {"lat": 38.9409675, "is_disabled": 0, "type": "electric_scooter", "lon": -77.03279266666667, "bike_id": "47b6dec5775bbb77fdeecb749731ef19", "fusion_lat": 0.0, "name": "47b6dec5775bbb77fdeecb749731ef19", "is_reserved": 0, "rental_uris": {"android": "https://dc.lft.to/lastmile_qr_scan", "ios": "https://dc.lft.to/lastmile_qr_scan"}, "fusion_lon": 0.0}, {"lat": 38.89809833333333, "is_disabled": 0, "type": "electric_scooter", "lon": -77.02437883333333, "bike_id": "58eab1b889e057c94c5962496684126e", "fusion_lat": 0.0, "name": "58eab1b889e057c94c5962496684126e", "is_reserved": 0, "rental_uris": {"android": "https://dc.lft.to/lastmile_qr_scan", "ios": "https://dc.lft.to/lastmile_qr_scan"}, "fusion_lon": 0.0}, {"lat": 38.91225983333333, "is_disabled": 0, "type": "electric_scooter", "lon": -77.034399, "bike_id": "751a08c89ed6a296c34ba785087d2be4", "fusion_lat": 0.0, "name": "751a08c89ed6a296c34ba785087d2be4", "is_reserved": 0, "rental_uris": {"android": "https://dc.lft.to/lastmile_qr_scan", "ios": "https://dc.lft.to/lastmile_qr_scan"}, "fusion_lon": 0.0}, {"lat": 38.85987433333333, "is_disabled": 0, "type": "electric_scooter", "lon": -76.9853875, "bike_id": "eb7258c7cc3f20f85af72c3e1661bef3", "fusion_lat": 0.0, "name": "eb7258c7cc3f20f85af72c3e1661bef3", "is_reserved": 0, "rental_uris": {"android": "https://dc.lft.to/lastmile_qr_scan", "ios": "https://dc.lft.to/lastmile_qr_scan"}, "fusion_lon": 0.0}, {"lat": 38.900306, "is_disabled": 0, "type": "electric_scooter", "lon": -77.00196283333334, "bike_id": "cde02b9619c10fc30f28064498877c2e", "fusion_lat": 0.0, "name": "cde02b9619c10fc30f28064498877c2e", "is_reserved": 0, "rental_uris": {"android": "https://dc.lft.to/lastmile_qr_scan", "ios": "https://dc.lft.to/lastmile_qr_scan"}, "fusion_lon": 0.0}, {"lat": 38.9507875, "is_disabled": 0, "type": "electric_scooter", "lon": -77.06656733333334, "bike_id": "2c190f8f7c7ed3c9d37e7e32cd34619e", "fusion_lat": 0.0, "name": "2c190f8f7c7ed3c9d37e7e32cd34619e", "is_reserved": 0, "rental_uris": {"android": "https://dc.lft.to/lastmile_qr_scan", "ios": "https://dc.lft.to/lastmile_qr_scan"}, "fusion_lon": 0.0}, {"lat": 38.905172666666665, "is_disabled": 0, "type": "electric_scooter", "lon": -77.06595683333333, "bike_id": "44eefe6b6a29fc3981f0a2c4de8d650b", "fusion_lat": 0.0, "name": "44eefe6b6a29fc3981f0a2c4de8d650b", "is_reserved": 0, "rental_uris": {"android": "https://dc.lft.to/lastmile_qr_scan", "ios": "https://dc.lft.to/lastmile_qr_scan"}, "fusion_lon": 0.0}, {"lat": 38.90573833333333, "is_disabled": 0, "type": "electric_scooter", "lon": -77.02210666666667, "bike_id": "296badf3f7cef86e9d93cfb508ae792f", "fusion_lat": 0.0, "name": "296badf3f7cef86e9d93cfb508ae792f", "is_reserved": 0, "rental_uris": {"android": "https://dc.lft.to/lastmile_qr_scan", "ios": "https://dc.lft.to/lastmile_qr_scan"}, "fusion_lon": 0.0}, {"lat": 38.91084716666667, "is_disabled": 0, "type": "electric_scooter", "lon": -77.07642266666667, "bike_id": "3938e5677337b247dc5da5ac3a0dd71f", "fusion_lat": 0.0, "name": "3938e5677337b247dc5da5ac3a0dd71f", "is_reserved": 0, "rental_uris": {"android": "https://dc.lft.to/lastmile_qr_scan", "ios": "https://dc.lft.to/lastmile_qr_scan"}, "fusion_lon": 0.0}, {"lat": 38.917554333333335, "is_disabled": 0, "type": "electric_bike", "lon": -77.0475645, "bike_id": "9809cca891931be54c2444258ed0dfcb", "fusion_lat": 0.0, "name": "9809cca891931be54c2444258ed0dfcb", "is_reserved": 0, "rental_uris": {"android": "https://dc.lft.to/lastmile_qr_scan", "ios": "https://dc.lft.to/lastmile_qr_scan"}, "fusion_lon": 0.0}, {"lat": 38.948048166666666, "is_disabled": 0, "type": "electric_scooter", "lon": -77.07909033333334, "bike_id": "3b0760e0bb3d728ce0443746ef93a8a5", "fusion_lat": 0.0, "name": "3b0760e0bb3d728ce0443746ef93a8a5", "is_reserved": 0, "rental_uris": {"android": "https://dc.lft.to/lastmile_qr_scan", "ios": "https://dc.lft.to/lastmile_qr_scan"}, "fusion_lon": 0.0}, {"lat": 38.89124066666667, "is_disabled": 0, "type": "electric_scooter", "lon": -76.94094366666667, "bike_id": "b9de69658ce71ebeb4e2f918823de4bf", "fusion_lat": 0.0, "name": "b9de69658ce71ebeb4e2f918823de4bf", "is_reserved": 0, "rental_uris": {"android": "https://dc.lft.to/lastmile_qr_scan", "ios": "https://dc.lft.to/lastmile_qr_scan"}, "fusion_lon": 0.0}, {"lat": 38.900052333333335, "is_disabled": 0, "type": "electric_scooter", "lon": -76.99853766666666, "bike_id": "c9fdd6b643cdcb1614a7924124ced219", "fusion_lat": 0.0, "name": "c9fdd6b643cdcb1614a7924124ced219", "is_reserved": 0, "rental_uris": {"android": "https://dc.lft.to/lastmile_qr_scan", "ios": "https://dc.lft.to/lastmile_qr_scan"}, "fusion_lon": 0.0}, {"lat": 38.905128, "is_disabled": 0, "type": "electric_scooter", "lon": -77.06883566666667, "bike_id": "5754841e244483586e4a2aa6b4145235", "fusion_lat": 0.0, "name": "5754841e244483586e4a2aa6b4145235", "is_reserved": 0, "rental_uris": {"android": "https://dc.lft.to/lastmile_qr_scan", "ios": "https://dc.lft.to/lastmile_qr_scan"}, "fusion_lon": 0.0}, {"lat": 38.933346666666665, "is_disabled": 0, "type": "electric_scooter", "lon": -77.05710133333334, "bike_id": "13a61217218bd72c41d140de2b33015b", "fusion_lat": 0.0, "name": "13a61217218bd72c41d140de2b33015b", "is_reserved": 0, "rental_uris": {"android": "https://dc.lft.to/lastmile_qr_scan", "ios": "https://dc.lft.to/lastmile_qr_scan"}, "fusion_lon": 0.0}, {"lat": 38.935502666666665, "is_disabled": 0, "type": "electric_scooter", "lon": -77.034242, "bike_id": "fd69ca9dd054296b01eb1b0d4081a7c8", "fusion_lat": 0.0, "name": "fd69ca9dd054296b01eb1b0d4081a7c8", "is_reserved": 0, "rental_uris": {"android": "https://dc.lft.to/lastmile_qr_scan", "ios": "https://dc.lft.to/lastmile_qr_scan"}, "fusion_lon": 0.0}, {"lat": 38.90480733333333, "is_disabled": 0, "type": "electric_scooter", "lon": -77.032393, "bike_id": "b9c58aa4d0539c5092e2b13c9c880ef0", "fusion_lat": 0.0, "name": "b9c58aa4d0539c5092e2b13c9c880ef0", "is_reserved": 0, "rental_uris": {"android": "https://dc.lft.to/lastmile_qr_scan", "ios": "https://dc.lft.to/lastmile_qr_scan"}, "fusion_lon": 0.0}, {"lat": 38.91675566666667, "is_disabled": 0, "type": "electric_scooter", "lon": -77.022864, "bike_id": "06709c75a9723e3971f2ecb428ce67ce", "fusion_lat": 0.0, "name": "06709c75a9723e3971f2ecb428ce67ce", "is_reserved": 0, "rental_uris": {"android": "https://dc.lft.to/lastmile_qr_scan", "ios": "https://dc.lft.to/lastmile_qr_scan"}, "fusion_lon": 0.0}, {"lat": 38.9013965, "is_disabled": 0, "type": "electric_scooter", "lon": -77.01808116666666, "bike_id": "2897de06b88a18c8e95c00e3d2c20546", "fusion_lat": 0.0, "name": "2897de06b88a18c8e95c00e3d2c20546", "is_reserved": 0, "rental_uris": {"android": "https://dc.lft.to/lastmile_qr_scan", "ios": "https://dc.lft.to/lastmile_qr_scan"}, "fusion_lon": 0.0}, {"lat": 39.0159645, "is_disabled": 0, "type": "electric_bike", "lon": -77.04429933333333, "bike_id": "b50f6a52c80b5eda1110ded90bf850c1", "fusion_lat": 0.0, "name": "b50f6a52c80b5eda1110ded90bf850c1", "is_reserved": 0, "rental_uris": {"android": "https://dc.lft.to/lastmile_qr_scan", "ios": "https://dc.lft.to/lastmile_qr_scan"}, "fusion_lon": 0.0}, {"lat": 38.88429, "is_disabled": 0, "type": "electric_scooter", "lon": -77.03044133333333, "bike_id": "15f85d03c1e5e5b94d8d23aaf6a1912b", "fusion_lat": 0.0, "name": "15f85d03c1e5e5b94d8d23aaf6a1912b", "is_reserved": 0, "rental_uris": {"android": "https://dc.lft.to/lastmile_qr_scan", "ios": "https://dc.lft.to/lastmile_qr_scan"}, "fusion_lon": 0.0}, {"lat": 38.9529265, "is_disabled": 0, "type": "electric_bike", "lon": -76.94603616666667, "bike_id": "44fc2226da4a73d716838d93d4df9df8", "fusion_lat": 0.0, "name": "44fc2226da4a73d716838d93d4df9df8", "is_reserved": 0, "rental_uris": {"android": "https://dc.lft.to/lastmile_qr_scan", "ios": "https://dc.lft.to/lastmile_qr_scan"}, "fusion_lon": 0.0}, {"lat": 38.89557383333333, "is_disabled": 0, "type": "electric_scooter", "lon": -76.93078283333334, "bike_id": "b895895a35773ae4d28031207815fb25", "fusion_lat": 0.0, "name": "b895895a35773ae4d28031207815fb25", "is_reserved": 0, "rental_uris": {"android": "https://dc.lft.to/lastmile_qr_scan", "ios": "https://dc.lft.to/lastmile_qr_scan"}, "fusion_lon": 0.0}, {"lat": 38.89866683333333, "is_disabled": 0, "type": "electric_scooter", "lon": -77.02396816666666, "bike_id": "d2d4cea57ff81c106a76a0289e534d2a", "fusion_lat": 0.0, "name": "d2d4cea57ff81c106a76a0289e534d2a", "is_reserved": 0, "rental_uris": {"android": "https://dc.lft.to/lastmile_qr_scan", "ios": "https://dc.lft.to/lastmile_qr_scan"}, "fusion_lon": 0.0}, {"lat": 38.9201415, "is_disabled": 0, "type": "electric_scooter", "lon": -77.03884233333333, "bike_id": "3918ed2d18788857cfff4ab1f0045f14", "fusion_lat": 0.0, "name": "3918ed2d18788857cfff4ab1f0045f14", "is_reserved": 0, "rental_uris": {"android": "https://dc.lft.to/lastmile_qr_scan", "ios": "https://dc.lft.to/lastmile_qr_scan"}, "fusion_lon": 0.0}, {"lat": 38.939409166666664, "is_disabled": 0, "type": "electric_scooter", "lon": -77.03682, "bike_id": "a355223119a49b62c7b3b8c6f03be300", "fusion_lat": 0.0, "name": "a355223119a49b62c7b3b8c6f03be300", "is_reserved": 0, "rental_uris": {"android": "https://dc.lft.to/lastmile_qr_scan", "ios": "https://dc.lft.to/lastmile_qr_scan"}, "fusion_lon": 0.0}, {"lat": 38.917043166666666, "is_disabled": 0, "type": "electric_scooter", "lon": -77.0011785, "bike_id": "1d8b322e9802a001452236d4a866f5ee", "fusion_lat": 0.0, "name": "1d8b322e9802a001452236d4a866f5ee", "is_reserved": 0, "rental_uris": {"android": "https://dc.lft.to/lastmile_qr_scan", "ios": "https://dc.lft.to/lastmile_qr_scan"}, "fusion_lon": 0.0}, {"lat": 38.939612333333336, "is_disabled": 0, "type": "electric_bike", "lon": -77.3609235, "bike_id": "92321f261a569f616f666781edb99a42", "fusion_lat": 0.0, "name": "92321f261a569f616f666781edb99a42", "is_reserved": 0, "rental_uris": {"android": "https://dc.lft.to/lastmile_qr_scan", "ios": "https://dc.lft.to/lastmile_qr_scan"}, "fusion_lon": 0.0}, {"lat": 38.899719833333336, "is_disabled": 0, "type": "electric_scooter", "lon": -77.05704783333333, "bike_id": "d20304bcd41db7d4161a7e83dddd1dfa", "fusion_lat": 0.0, "name": "d20304bcd41db7d4161a7e83dddd1dfa", "is_reserved": 0, "rental_uris": {"android": "https://dc.lft.to/lastmile_qr_scan", "ios": "https://dc.lft.to/lastmile_qr_scan"}, "fusion_lon": 0.0}, {"lat": 38.927621, "is_disabled": 0, "type": "electric_scooter", "lon": -77.03213616666666, "bike_id": "163e72d70cb2581aad0215c348c9f7bf", "fusion_lat": 0.0, "name": "163e72d70cb2581aad0215c348c9f7bf", "is_reserved": 0, "rental_uris": {"android": "https://dc.lft.to/lastmile_qr_scan", "ios": "https://dc.lft.to/lastmile_qr_scan"}, "fusion_lon": 0.0}, {"lat": 38.91962266666667, "is_disabled": 0, "type": "electric_bike", "lon": -76.97266383333333, "bike_id": "128e9641cc0470bb7735519e28a13478", "fusion_lat": 0.0, "name": "128e9641cc0470bb7735519e28a13478", "is_reserved": 0, "rental_uris": {"android": "https://dc.lft.to/lastmile_qr_scan", "ios": "https://dc.lft.to/lastmile_qr_scan"}, "fusion_lon": 0.0}, {"lat": 38.8977435, "is_disabled": 0, "type": "electric_scooter", "lon": -77.04361133333333, "bike_id": "88ed2c519328583dc82341c46d70d7ab", "fusion_lat": 0.0, "name": "88ed2c519328583dc82341c46d70d7ab", "is_reserved": 0, "rental_uris": {"android": "https://dc.lft.to/lastmile_qr_scan", "ios": "https://dc.lft.to/lastmile_qr_scan"}, "fusion_lon": 0.0}, {"lat": 38.9561225, "is_disabled": 0, "type": "electric_scooter", "lon": -77.02778616666667, "bike_id": "979a9f45121e857398d881a0d006f079", "fusion_lat": 0.0, "name": "979a9f45121e857398d881a0d006f079", "is_reserved": 0, "rental_uris": {"android": "https://dc.lft.to/lastmile_qr_scan", "ios": "https://dc.lft.to/lastmile_qr_scan"}, "fusion_lon": 0.0}, {"lat": 38.91776266666667, "is_disabled": 0, "type": "electric_scooter", "lon": -77.02312833333333, "bike_id": "f0faad2c2391d7a07ad9591167cbfcf0", "fusion_lat": 0.0, "name": "f0faad2c2391d7a07ad9591167cbfcf0", "is_reserved": 0, "rental_uris": {"android": "https://dc.lft.to/lastmile_qr_scan", "ios": "https://dc.lft.to/lastmile_qr_scan"}, "fusion_lon": 0.0}, {"lat": 38.91569066666667, "is_disabled": 0, "type": "electric_scooter", "lon": -77.046773, "bike_id": "bd89ac224c6692e5ca9865db9ded2ce4", "fusion_lat": 0.0, "name": "bd89ac224c6692e5ca9865db9ded2ce4", "is_reserved": 0, "rental_uris": {"android": "https://dc.lft.to/lastmile_qr_scan", "ios": "https://dc.lft.to/lastmile_qr_scan"}, "fusion_lon": 0.0}, {"lat": 38.913178, "is_disabled": 0, "type": "electric_scooter", "lon": -77.0366385, "bike_id": "a533333c61a23e22dbbc0378b38f992c", "fusion_lat": 0.0, "name": "a533333c61a23e22dbbc0378b38f992c", "is_reserved": 0, "rental_uris": {"android": "https://dc.lft.to/lastmile_qr_scan", "ios": "https://dc.lft.to/lastmile_qr_scan"}, "fusion_lon": 0.0}, {"lat": 38.91106816666667, "is_disabled": 0, "type": "electric_scooter", "lon": -77.03553933333333, "bike_id": "fd27238f1a6d255d897fa3cbbc980290", "fusion_lat": 0.0, "name": "fd27238f1a6d255d897fa3cbbc980290", "is_reserved": 0, "rental_uris": {"android": "https://dc.lft.to/lastmile_qr_scan", "ios": "https://dc.lft.to/lastmile_qr_scan"}, "fusion_lon": 0.0}, {"lat": 38.9553755, "is_disabled": 0, "type": "electric_bike", "lon": -77.0177785, "bike_id": "8db6b0a9d6855172f626956118b4b59d", "fusion_lat": 0.0, "name": "8db6b0a9d6855172f626956118b4b59d", "is_reserved": 0, "rental_uris": {"android": "https://dc.lft.to/lastmile_qr_scan", "ios": "https://dc.lft.to/lastmile_qr_scan"}, "fusion_lon": 0.0}, {"lat": 38.9494945, "is_disabled": 0, "type": "electric_scooter", "lon": -77.016192, "bike_id": "295510def774ec8672989e8a861662b4", "fusion_lat": 0.0, "name": "295510def774ec8672989e8a861662b4", "is_reserved": 0, "rental_uris": {"android": "https://dc.lft.to/lastmile_qr_scan", "ios": "https://dc.lft.to/lastmile_qr_scan"}, "fusion_lon": 0.0}, {"lat": 38.89851983333333, "is_disabled": 0, "type": "electric_scooter", "lon": -76.99029366666667, "bike_id": "97981134df693396e65ab9522e3896f7", "fusion_lat": 0.0, "name": "97981134df693396e65ab9522e3896f7", "is_reserved": 0, "rental_uris": {"android": "https://dc.lft.to/lastmile_qr_scan", "ios": "https://dc.lft.to/lastmile_qr_scan"}, "fusion_lon": 0.0}, {"lat": 38.923367166666665, "is_disabled": 0, "type": "electric_bike", "lon": -77.05685383333334, "bike_id": "83cc98d7234170ff2e54aadf75e81bd2", "fusion_lat": 0.0, "name": "83cc98d7234170ff2e54aadf75e81bd2", "is_reserved": 0, "rental_uris": {"android": "https://dc.lft.to/lastmile_qr_scan", "ios": "https://dc.lft.to/lastmile_qr_scan"}, "fusion_lon": 0.0}, {"lat": 38.93010666666667, "is_disabled": 0, "type": "electric_bike", "lon": -77.2164745, "bike_id": "dd8210d8862c70e5df07a67551cd73f1", "fusion_lat": 0.0, "name": "dd8210d8862c70e5df07a67551cd73f1", "is_reserved": 0, "rental_uris": {"android": "https://dc.lft.to/lastmile_qr_scan", "ios": "https://dc.lft.to/lastmile_qr_scan"}, "fusion_lon": 0.0}, {"lat": 38.902113666666665, "is_disabled": 0, "type": "electric_scooter", "lon": -76.94593616666667, "bike_id": "019db6be56a7fb79fc4ab99f292279dd", "fusion_lat": 0.0, "name": "019db6be56a7fb79fc4ab99f292279dd", "is_reserved": 0, "rental_uris": {"android": "https://dc.lft.to/lastmile_qr_scan", "ios": "https://dc.lft.to/lastmile_qr_scan"}, "fusion_lon": 0.0}, {"lat": 38.93176866666667, "is_disabled": 0, "type": "electric_scooter", "lon": -77.02817033333334, "bike_id": "3a4262db4fc12adb8e9a2514dc6420dd", "fusion_lat": 0.0, "name": "3a4262db4fc12adb8e9a2514dc6420dd", "is_reserved": 0, "rental_uris": {"android": "https://dc.lft.to/lastmile_qr_scan", "ios": "https://dc.lft.to/lastmile_qr_scan"}, "fusion_lon": 0.0}, {"lat": 38.890458833333334, "is_disabled": 0, "type": "electric_scooter", "lon": -76.9513745, "bike_id": "3f385c3a90908cd8765890e3ab1bcc96", "fusion_lat": 0.0, "name": "3f385c3a90908cd8765890e3ab1bcc96", "is_reserved": 0, "rental_uris": {"android": "https://dc.lft.to/lastmile_qr_scan", "ios": "https://dc.lft.to/lastmile_qr_scan"}, "fusion_lon": 0.0}, {"lat": 38.89512783333333, "is_disabled": 0, "type": "electric_scooter", "lon": -77.022675, "bike_id": "60b55410c1ead8167351c27ea2efb7f3", "fusion_lat": 0.0, "name": "60b55410c1ead8167351c27ea2efb7f3", "is_reserved": 0, "rental_uris": {"android": "https://dc.lft.to/lastmile_qr_scan", "ios": "https://dc.lft.to/lastmile_qr_scan"}, "fusion_lon": 0.0}, {"lat": 38.90536916666667, "is_disabled": 0, "type": "electric_scooter", "lon": -77.03412483333334, "bike_id": "c28f11ca89d423d2757cb9b3a268d1d3", "fusion_lat": 0.0, "name": "c28f11ca89d423d2757cb9b3a268d1d3", "is_reserved": 0, "rental_uris": {"android": "https://dc.lft.to/lastmile_qr_scan", "ios": "https://dc.lft.to/lastmile_qr_scan"}, "fusion_lon": 0.0}, {"lat": 38.9416895, "is_disabled": 0, "type": "electric_scooter", "lon": -77.02333083333333, "bike_id": "f58177045ec5c6e5b6d28aabd58762c1", "fusion_lat": 0.0, "name": "f58177045ec5c6e5b6d28aabd58762c1", "is_reserved": 0, "rental_uris": {"android": "https://dc.lft.to/lastmile_qr_scan", "ios": "https://dc.lft.to/lastmile_qr_scan"}, "fusion_lon": 0.0}, {"lat": 38.89481816666667, "is_disabled": 0, "type": "electric_scooter", "lon": -77.021219, "bike_id": "63b18bba9abdba82800e46ab6a02ba12", "fusion_lat": 0.0, "name": "63b18bba9abdba82800e46ab6a02ba12", "is_reserved": 0, "rental_uris": {"android": "https://dc.lft.to/lastmile_qr_scan", "ios": "https://dc.lft.to/lastmile_qr_scan"}, "fusion_lon": 0.0}, {"lat": 38.905412166666665, "is_disabled": 0, "type": "electric_scooter", "lon": -77.03412433333334, "bike_id": "de1e9043fe9cd803a2cf937c67b024a9", "fusion_lat": 0.0, "name": "de1e9043fe9cd803a2cf937c67b024a9", "is_reserved": 0, "rental_uris": {"android": "https://dc.lft.to/lastmile_qr_scan", "ios": "https://dc.lft.to/lastmile_qr_scan"}, "fusion_lon": 0.0}, {"lat": 38.91045733333333, "is_disabled": 0, "type": "electric_scooter", "lon": -77.01512833333334, "bike_id": "e27c81c693c06b891d525aa21ffe3538", "fusion_lat": 0.0, "name": "e27c81c693c06b891d525aa21ffe3538", "is_reserved": 0, "rental_uris": {"android": "https://dc.lft.to/lastmile_qr_scan", "ios": "https://dc.lft.to/lastmile_qr_scan"}, "fusion_lon": 0.0}, {"lat": 38.8690985, "is_disabled": 0, "type": "electric_bike", "lon": -77.13184733333334, "bike_id": "e336a050a60da6ac17fa96e1ed6a6040", "fusion_lat": 0.0, "name": "e336a050a60da6ac17fa96e1ed6a6040", "is_reserved": 0, "rental_uris": {"android": "https://dc.lft.to/lastmile_qr_scan", "ios": "https://dc.lft.to/lastmile_qr_scan"}, "fusion_lon": 0.0}, {"lat": 38.920108666666664, "is_disabled": 0, "type": "electric_scooter", "lon": -77.03229333333333, "bike_id": "f129c3f75e4868b9f925eb1e7d5e94c8", "fusion_lat": 0.0, "name": "f129c3f75e4868b9f925eb1e7d5e94c8", "is_reserved": 0, "rental_uris": {"android": "https://dc.lft.to/lastmile_qr_scan", "ios": "https://dc.lft.to/lastmile_qr_scan"}, "fusion_lon": 0.0}, {"lat": 38.9030255, "is_disabled": 0, "type": "electric_scooter", "lon": -77.02611616666667, "bike_id": "5eac8deb8bafe61c36bda9677fc12e67", "fusion_lat": 0.0, "name": "5eac8deb8bafe61c36bda9677fc12e67", "is_reserved": 0, "rental_uris": {"android": "https://dc.lft.to/lastmile_qr_scan", "ios": "https://dc.lft.to/lastmile_qr_scan"}, "fusion_lon": 0.0}, {"lat": 38.9327615, "is_disabled": 0, "type": "electric_scooter", "lon": -77.03635216666666, "bike_id": "fcc9aad992d001127a19250869712b8f", "fusion_lat": 0.0, "name": "fcc9aad992d001127a19250869712b8f", "is_reserved": 0, "rental_uris": {"android": "https://dc.lft.to/lastmile_qr_scan", "ios": "https://dc.lft.to/lastmile_qr_scan"}, "fusion_lon": 0.0}, {"lat": 38.932866, "is_disabled": 0, "type": "electric_scooter", "lon": -77.03981366666666, "bike_id": "9ca9fd408941b9763c52d51a5e497b5e", "fusion_lat": 0.0, "name": "9ca9fd408941b9763c52d51a5e497b5e", "is_reserved": 0, "rental_uris": {"android": "https://dc.lft.to/lastmile_qr_scan", "ios": "https://dc.lft.to/lastmile_qr_scan"}, "fusion_lon": 0.0}, {"lat": 38.907310833333334, "is_disabled": 0, "type": "electric_scooter", "lon": -77.023767, "bike_id": "3cfd90981c89cd815ae1188a5dbee958", "fusion_lat": 0.0, "name": "3cfd90981c89cd815ae1188a5dbee958", "is_reserved": 0, "rental_uris": {"android": "https://dc.lft.to/lastmile_qr_scan", "ios": "https://dc.lft.to/lastmile_qr_scan"}, "fusion_lon": 0.0}, {"lat": 38.8465905, "is_disabled": 0, "type": "electric_bike", "lon": -76.97929066666667, "bike_id": "0d6ad6a8698d252f195520b20fb81e7e", "fusion_lat": 0.0, "name": "0d6ad6a8698d252f195520b20fb81e7e", "is_reserved": 0, "rental_uris": {"android": "https://dc.lft.to/lastmile_qr_scan", "ios": "https://dc.lft.to/lastmile_qr_scan"}, "fusion_lon": 0.0}, {"lat": 38.924826333333336, "is_disabled": 0, "type": "electric_scooter", "lon": -77.05214966666666, "bike_id": "8f2c758f7091fa09b65a69017e2dc2f0", "fusion_lat": 0.0, "name": "8f2c758f7091fa09b65a69017e2dc2f0", "is_reserved": 0, "rental_uris": {"android": "https://dc.lft.to/lastmile_qr_scan", "ios": "https://dc.lft.to/lastmile_qr_scan"}, "fusion_lon": 0.0}, {"lat": 38.925385666666664, "is_disabled": 0, "type": "electric_scooter", "lon": -77.03445883333333, "bike_id": "f453e05b7bfe325a8abde1f25e7e36e7", "fusion_lat": 0.0, "name": "f453e05b7bfe325a8abde1f25e7e36e7", "is_reserved": 0, "rental_uris": {"android": "https://dc.lft.to/lastmile_qr_scan", "ios": "https://dc.lft.to/lastmile_qr_scan"}, "fusion_lon": 0.0}, {"lat": 38.924872666666666, "is_disabled": 0, "type": "electric_scooter", "lon": -77.03181916666666, "bike_id": "bbf2f6172efb3c4b1c4516a37f5f223f", "fusion_lat": 0.0, "name": "bbf2f6172efb3c4b1c4516a37f5f223f", "is_reserved": 0, "rental_uris": {"android": "https://dc.lft.to/lastmile_qr_scan", "ios": "https://dc.lft.to/lastmile_qr_scan"}, "fusion_lon": 0.0}, {"lat": 38.96610166666667, "is_disabled": 0, "type": "electric_scooter", "lon": -77.020567, "bike_id": "e3461eb5b16d4b7c759077011c2b9817", "fusion_lat": 0.0, "name": "e3461eb5b16d4b7c759077011c2b9817", "is_reserved": 0, "rental_uris": {"android": "https://dc.lft.to/lastmile_qr_scan", "ios": "https://dc.lft.to/lastmile_qr_scan"}, "fusion_lon": 0.0}, {"lat": 38.85808166666666, "is_disabled": 0, "type": "electric_scooter", "lon": -76.9865325, "bike_id": "39ae53a7bbc12af09b3dea81f3f303ab", "fusion_lat": 0.0, "name": "39ae53a7bbc12af09b3dea81f3f303ab", "is_reserved": 0, "rental_uris": {"android": "https://dc.lft.to/lastmile_qr_scan", "ios": "https://dc.lft.to/lastmile_qr_scan"}, "fusion_lon": 0.0}, {"lat": 38.934776, "is_disabled": 0, "type": "electric_scooter", "lon": -77.05790833333333, "bike_id": "d5f6af2dd422f484a16709126d5a379b", "fusion_lat": 0.0, "name": "d5f6af2dd422f484a16709126d5a379b", "is_reserved": 0, "rental_uris": {"android": "https://dc.lft.to/lastmile_qr_scan", "ios": "https://dc.lft.to/lastmile_qr_scan"}, "fusion_lon": 0.0}, {"lat": 38.900268833333335, "is_disabled": 0, "type": "electric_scooter", "lon": -77.00208566666667, "bike_id": "f549f966d6311cdbe41d83c48b8fccf1", "fusion_lat": 0.0, "name": "f549f966d6311cdbe41d83c48b8fccf1", "is_reserved": 0, "rental_uris": {"android": "https://dc.lft.to/lastmile_qr_scan", "ios": "https://dc.lft.to/lastmile_qr_scan"}, "fusion_lon": 0.0}, {"lat": 38.88756, "is_disabled": 0, "type": "electric_scooter", "lon": -77.0314685, "bike_id": "a345c3ff6c671e3f77585c069d37aa9c", "fusion_lat": 0.0, "name": "a345c3ff6c671e3f77585c069d37aa9c", "is_reserved": 0, "rental_uris": {"android": "https://dc.lft.to/lastmile_qr_scan", "ios": "https://dc.lft.to/lastmile_qr_scan"}, "fusion_lon": 0.0}, {"lat": 38.905632, "is_disabled": 0, "type": "electric_scooter", "lon": -77.03460816666667, "bike_id": "f0a4a1b4f3f15765b68f88ed618a0b77", "fusion_lat": 0.0, "name": "f0a4a1b4f3f15765b68f88ed618a0b77", "is_reserved": 0, "rental_uris": {"android": "https://dc.lft.to/lastmile_qr_scan", "ios": "https://dc.lft.to/lastmile_qr_scan"}, "fusion_lon": 0.0}, {"lat": 38.899401, "is_disabled": 0, "type": "electric_scooter", "lon": -77.05413816666666, "bike_id": "1cbd447a74f8c9a9f2c677227ed53bac", "fusion_lat": 0.0, "name": "1cbd447a74f8c9a9f2c677227ed53bac", "is_reserved": 0, "rental_uris": {"android": "https://dc.lft.to/lastmile_qr_scan", "ios": "https://dc.lft.to/lastmile_qr_scan"}, "fusion_lon": 0.0}, {"lat": 38.89390133333333, "is_disabled": 0, "type": "electric_scooter", "lon": -77.02163266666666, "bike_id": "fa2a3e1112d0ff3b5e97da2dc318a596", "fusion_lat": 0.0, "name": "fa2a3e1112d0ff3b5e97da2dc318a596", "is_reserved": 0, "rental_uris": {"android": "https://dc.lft.to/lastmile_qr_scan", "ios": "https://dc.lft.to/lastmile_qr_scan"}, "fusion_lon": 0.0}, {"lat": 38.9432805, "is_disabled": 0, "type": "electric_scooter", "lon": -77.07384533333334, "bike_id": "a36ec45da4b35caf7bf1456e07dfa570", "fusion_lat": 0.0, "name": "a36ec45da4b35caf7bf1456e07dfa570", "is_reserved": 0, "rental_uris": {"android": "https://dc.lft.to/lastmile_qr_scan", "ios": "https://dc.lft.to/lastmile_qr_scan"}, "fusion_lon": 0.0}, {"lat": 38.88712966666667, "is_disabled": 0, "type": "electric_scooter", "lon": -77.032165, "bike_id": "6eb75b43091030c20c8c9f18d2733253", "fusion_lat": 0.0, "name": "6eb75b43091030c20c8c9f18d2733253", "is_reserved": 0, "rental_uris": {"android": "https://dc.lft.to/lastmile_qr_scan", "ios": "https://dc.lft.to/lastmile_qr_scan"}, "fusion_lon": 0.0}, {"lat": 38.94512066666667, "is_disabled": 0, "type": "electric_bike", "lon": -77.00673383333333, "bike_id": "dd84f7b72abcb2b10fc3cb10939f4001", "fusion_lat": 0.0, "name": "dd84f7b72abcb2b10fc3cb10939f4001", "is_reserved": 0, "rental_uris": {"android": "https://dc.lft.to/lastmile_qr_scan", "ios": "https://dc.lft.to/lastmile_qr_scan"}, "fusion_lon": 0.0}, {"lat": 38.9269015, "is_disabled": 0, "type": "electric_scooter", "lon": -77.02579766666666, "bike_id": "2c8d63b49247dbd9167543ab4e7ea25d", "fusion_lat": 0.0, "name": "2c8d63b49247dbd9167543ab4e7ea25d", "is_reserved": 0, "rental_uris": {"android": "https://dc.lft.to/lastmile_qr_scan", "ios": "https://dc.lft.to/lastmile_qr_scan"}, "fusion_lon": 0.0}, {"lat": 38.928373666666666, "is_disabled": 0, "type": "electric_scooter", "lon": -76.99848983333334, "bike_id": "5cdc5eb8884ddeea9c29aaceb3ffc617", "fusion_lat": 0.0, "name": "5cdc5eb8884ddeea9c29aaceb3ffc617", "is_reserved": 0, "rental_uris": {"android": "https://dc.lft.to/lastmile_qr_scan", "ios": "https://dc.lft.to/lastmile_qr_scan"}, "fusion_lon": 0.0}, {"lat": 38.93615533333333, "is_disabled": 0, "type": "electric_scooter", "lon": -77.05743683333333, "bike_id": "2e6e97851aaac1928b9451ca4ecf3b35", "fusion_lat": 0.0, "name": "2e6e97851aaac1928b9451ca4ecf3b35", "is_reserved": 0, "rental_uris": {"android": "https://dc.lft.to/lastmile_qr_scan", "ios": "https://dc.lft.to/lastmile_qr_scan"}, "fusion_lon": 0.0}, {"lat": 38.907199166666665, "is_disabled": 0, "type": "electric_scooter", "lon": -77.02542866666667, "bike_id": "4361946d092b90ad4437a393cac8627f", "fusion_lat": 0.0, "name": "4361946d092b90ad4437a393cac8627f", "is_reserved": 0, "rental_uris": {"android": "https://dc.lft.to/lastmile_qr_scan", "ios": "https://dc.lft.to/lastmile_qr_scan"}, "fusion_lon": 0.0}, {"lat": 38.91818683333333, "is_disabled": 0, "type": "electric_scooter", "lon": -77.03450616666667, "bike_id": "05063f71c294bd49a31cc541d909d6a4", "fusion_lat": 0.0, "name": "05063f71c294bd49a31cc541d909d6a4", "is_reserved": 0, "rental_uris": {"android": "https://dc.lft.to/lastmile_qr_scan", "ios": "https://dc.lft.to/lastmile_qr_scan"}, "fusion_lon": 0.0}, {"lat": 38.91269416666667, "is_disabled": 0, "type": "electric_scooter", "lon": -77.03872316666667, "bike_id": "147faf7a20dae0111a70b9d72fd2adef", "fusion_lat": 0.0, "name": "147faf7a20dae0111a70b9d72fd2adef", "is_reserved": 0, "rental_uris": {"android": "https://dc.lft.to/lastmile_qr_scan", "ios": "https://dc.lft.to/lastmile_qr_scan"}, "fusion_lon": 0.0}, {"lat": 38.895111166666666, "is_disabled": 0, "type": "electric_scooter", "lon": -77.02273666666666, "bike_id": "b7835cc8062603e3e0ba5e0b4d86f4c1", "fusion_lat": 0.0, "name": "b7835cc8062603e3e0ba5e0b4d86f4c1", "is_reserved": 0, "rental_uris": {"android": "https://dc.lft.to/lastmile_qr_scan", "ios": "https://dc.lft.to/lastmile_qr_scan"}, "fusion_lon": 0.0}, {"lat": 38.925834333333334, "is_disabled": 0, "type": "electric_scooter", "lon": -77.0275945, "bike_id": "207a4d580f9e4779e74ef057de2eeaa3", "fusion_lat": 0.0, "name": "207a4d580f9e4779e74ef057de2eeaa3", "is_reserved": 0, "rental_uris": {"android": "https://dc.lft.to/lastmile_qr_scan", "ios": "https://dc.lft.to/lastmile_qr_scan"}, "fusion_lon": 0.0}, {"lat": 38.90726733333333, "is_disabled": 0, "type": "electric_bike", "lon": -77.00114033333334, "bike_id": "754265c24f11613047cb74986335f66d", "fusion_lat": 0.0, "name": "754265c24f11613047cb74986335f66d", "is_reserved": 0, "rental_uris": {"android": "https://dc.lft.to/lastmile_qr_scan", "ios": "https://dc.lft.to/lastmile_qr_scan"}, "fusion_lon": 0.0}, {"lat": 38.930776, "is_disabled": 0, "type": "electric_scooter", "lon": -77.01666333333333, "bike_id": "d6586f71355af54258974f2d64ca47a5", "fusion_lat": 0.0, "name": "d6586f71355af54258974f2d64ca47a5", "is_reserved": 0, "rental_uris": {"android": "https://dc.lft.to/lastmile_qr_scan", "ios": "https://dc.lft.to/lastmile_qr_scan"}, "fusion_lon": 0.0}, {"lat": 38.896838333333335, "is_disabled": 0, "type": "electric_scooter", "lon": -76.9360595, "bike_id": "e4780c06344d151aa9771e194b334b34", "fusion_lat": 0.0, "name": "e4780c06344d151aa9771e194b334b34", "is_reserved": 0, "rental_uris": {"android": "https://dc.lft.to/lastmile_qr_scan", "ios": "https://dc.lft.to/lastmile_qr_scan"}, "fusion_lon": 0.0}, {"lat": 38.91606133333333, "is_disabled": 0, "type": "electric_scooter", "lon": -77.0319055, "bike_id": "9954b837ba633da27d0c3a906d39f475", "fusion_lat": 0.0, "name": "9954b837ba633da27d0c3a906d39f475", "is_reserved": 0, "rental_uris": {"android": "https://dc.lft.to/lastmile_qr_scan", "ios": "https://dc.lft.to/lastmile_qr_scan"}, "fusion_lon": 0.0}, {"lat": 38.8872405, "is_disabled": 0, "type": "electric_scooter", "lon": -76.95481833333334, "bike_id": "eda985e2dd60f39a6af1e1c1f5f7c714", "fusion_lat": 0.0, "name": "eda985e2dd60f39a6af1e1c1f5f7c714", "is_reserved": 0, "rental_uris": {"android": "https://dc.lft.to/lastmile_qr_scan", "ios": "https://dc.lft.to/lastmile_qr_scan"}, "fusion_lon": 0.0}, {"lat": 38.89980666666666, "is_disabled": 0, "type": "electric_bike", "lon": -76.9854545, "bike_id": "c217019b3ba9ecf1ed6978b21f37e44b", "fusion_lat": 0.0, "name": "c217019b3ba9ecf1ed6978b21f37e44b", "is_reserved": 0, "rental_uris": {"android": "https://dc.lft.to/lastmile_qr_scan", "ios": "https://dc.lft.to/lastmile_qr_scan"}, "fusion_lon": 0.0}, {"lat": 38.936414166666665, "is_disabled": 0, "type": "electric_bike", "lon": -77.03285416666667, "bike_id": "6c9bacdfcf1792e802a764a4cc6a09b2", "fusion_lat": 0.0, "name": "6c9bacdfcf1792e802a764a4cc6a09b2", "is_reserved": 0, "rental_uris": {"android": "https://dc.lft.to/lastmile_qr_scan", "ios": "https://dc.lft.to/lastmile_qr_scan"}, "fusion_lon": 0.0}, {"lat": 38.926929333333334, "is_disabled": 0, "type": "electric_scooter", "lon": -77.0258145, "bike_id": "fb18b36abfa9f3da7737981a70611351", "fusion_lat": 0.0, "name": "fb18b36abfa9f3da7737981a70611351", "is_reserved": 0, "rental_uris": {"android": "https://dc.lft.to/lastmile_qr_scan", "ios": "https://dc.lft.to/lastmile_qr_scan"}, "fusion_lon": 0.0}, {"lat": 38.9232635, "is_disabled": 0, "type": "electric_scooter", "lon": -77.029617, "bike_id": "77a427af6370a04ad3462d6b6a0f60cb", "fusion_lat": 0.0, "name": "77a427af6370a04ad3462d6b6a0f60cb", "is_reserved": 0, "rental_uris": {"android": "https://dc.lft.to/lastmile_qr_scan", "ios": "https://dc.lft.to/lastmile_qr_scan"}, "fusion_lon": 0.0}, {"lat": 38.966056333333334, "is_disabled": 0, "type": "electric_bike", "lon": -76.98341016666667, "bike_id": "6c80108b26342543755b057fee8b43dd", "fusion_lat": 0.0, "name": "6c80108b26342543755b057fee8b43dd", "is_reserved": 0, "rental_uris": {"android": "https://dc.lft.to/lastmile_qr_scan", "ios": "https://dc.lft.to/lastmile_qr_scan"}, "fusion_lon": 0.0}, {"lat": 38.938232, "is_disabled": 0, "type": "electric_scooter", "lon": -77.06049816666666, "bike_id": "da5a64a0eae9d12b61ddecc5b3efd8e9", "fusion_lat": 0.0, "name": "da5a64a0eae9d12b61ddecc5b3efd8e9", "is_reserved": 0, "rental_uris": {"android": "https://dc.lft.to/lastmile_qr_scan", "ios": "https://dc.lft.to/lastmile_qr_scan"}, "fusion_lon": 0.0}, {"lat": 38.933283333333335, "is_disabled": 0, "type": "electric_scooter", "lon": -77.05709283333333, "bike_id": "30679d408c8c001df58e6bd44ee65feb", "fusion_lat": 0.0, "name": "30679d408c8c001df58e6bd44ee65feb", "is_reserved": 0, "rental_uris": {"android": "https://dc.lft.to/lastmile_qr_scan", "ios": "https://dc.lft.to/lastmile_qr_scan"}, "fusion_lon": 0.0}, {"lat": 38.8984065, "is_disabled": 0, "type": "electric_scooter", "lon": -76.9310195, "bike_id": "80f95ea5e0d01731393c8de5492de7c5", "fusion_lat": 0.0, "name": "80f95ea5e0d01731393c8de5492de7c5", "is_reserved": 0, "rental_uris": {"android": "https://dc.lft.to/lastmile_qr_scan", "ios": "https://dc.lft.to/lastmile_qr_scan"}, "fusion_lon": 0.0}, {"lat": 38.90235633333333, "is_disabled": 0, "type": "electric_scooter", "lon": -77.05343866666666, "bike_id": "357360140190b6ef00d2b0ee79fecb4a", "fusion_lat": 0.0, "name": "357360140190b6ef00d2b0ee79fecb4a", "is_reserved": 0, "rental_uris": {"android": "https://dc.lft.to/lastmile_qr_scan", "ios": "https://dc.lft.to/lastmile_qr_scan"}, "fusion_lon": 0.0}, {"lat": 38.925716666666666, "is_disabled": 0, "type": "electric_scooter", "lon": -76.97008416666667, "bike_id": "86e1a8ae7b6b07b77713fcab8118f1d6", "fusion_lat": 0.0, "name": "86e1a8ae7b6b07b77713fcab8118f1d6", "is_reserved": 0, "rental_uris": {"android": "https://dc.lft.to/lastmile_qr_scan", "ios": "https://dc.lft.to/lastmile_qr_scan"}, "fusion_lon": 0.0}, {"lat": 38.9335785, "is_disabled": 0, "type": "electric_scooter", "lon": -77.07377633333333, "bike_id": "0191bcd6644d7419f82b86bb317b8b6c", "fusion_lat": 0.0, "name": "0191bcd6644d7419f82b86bb317b8b6c", "is_reserved": 0, "rental_uris": {"android": "https://dc.lft.to/lastmile_qr_scan", "ios": "https://dc.lft.to/lastmile_qr_scan"}, "fusion_lon": 0.0}, {"lat": 38.892472166666664, "is_disabled": 0, "type": "electric_scooter", "lon": -77.04894033333333, "bike_id": "14eb4e8af8119d2139927d3f00ead83f", "fusion_lat": 0.0, "name": "14eb4e8af8119d2139927d3f00ead83f", "is_reserved": 0, "rental_uris": {"android": "https://dc.lft.to/lastmile_qr_scan", "ios": "https://dc.lft.to/lastmile_qr_scan"}, "fusion_lon": 0.0}, {"lat": 38.954977, "is_disabled": 0, "type": "electric_scooter", "lon": -77.0656095, "bike_id": "8f10f7497efa8a987d1c682887da84a9", "fusion_lat": 0.0, "name": "8f10f7497efa8a987d1c682887da84a9", "is_reserved": 0, "rental_uris": {"android": "https://dc.lft.to/lastmile_qr_scan", "ios": "https://dc.lft.to/lastmile_qr_scan"}, "fusion_lon": 0.0}, {"lat": 38.9097225, "is_disabled": 0, "type": "electric_scooter", "lon": -77.032988, "bike_id": "628b3c22647bb1cdc53889aac46dbd9f", "fusion_lat": 0.0, "name": "628b3c22647bb1cdc53889aac46dbd9f", "is_reserved": 0, "rental_uris": {"android": "https://dc.lft.to/lastmile_qr_scan", "ios": "https://dc.lft.to/lastmile_qr_scan"}, "fusion_lon": 0.0}, {"lat": 38.86652616666667, "is_disabled": 0, "type": "electric_scooter", "lon": -76.988924, "bike_id": "a8f20a67d27b5e97a36926cdb059877c", "fusion_lat": 0.0, "name": "a8f20a67d27b5e97a36926cdb059877c", "is_reserved": 0, "rental_uris": {"android": "https://dc.lft.to/lastmile_qr_scan", "ios": "https://dc.lft.to/lastmile_qr_scan"}, "fusion_lon": 0.0}, {"lat": 38.920487666666666, "is_disabled": 0, "type": "electric_scooter", "lon": -77.03474116666666, "bike_id": "5e5ac641b2799fc20f389bf998030dea", "fusion_lat": 0.0, "name": "5e5ac641b2799fc20f389bf998030dea", "is_reserved": 0, "rental_uris": {"android": "https://dc.lft.to/lastmile_qr_scan", "ios": "https://dc.lft.to/lastmile_qr_scan"}, "fusion_lon": 0.0}, {"lat": 38.89516966666667, "is_disabled": 0, "type": "electric_scooter", "lon": -76.9773935, "bike_id": "eb9a46dd960a6d14830e097139313521", "fusion_lat": 0.0, "name": "eb9a46dd960a6d14830e097139313521", "is_reserved": 0, "rental_uris": {"android": "https://dc.lft.to/lastmile_qr_scan", "ios": "https://dc.lft.to/lastmile_qr_scan"}, "fusion_lon": 0.0}, {"lat": 38.90035816666666, "is_disabled": 0, "type": "electric_scooter", "lon": -77.02913316666667, "bike_id": "3ce4f9a0ca5008a41a8f3b78e2ed3079", "fusion_lat": 0.0, "name": "3ce4f9a0ca5008a41a8f3b78e2ed3079", "is_reserved": 0, "rental_uris": {"android": "https://dc.lft.to/lastmile_qr_scan", "ios": "https://dc.lft.to/lastmile_qr_scan"}, "fusion_lon": 0.0}, {"lat": 38.922033, "is_disabled": 0, "type": "electric_scooter", "lon": -77.04122633333333, "bike_id": "a7bc44c166c61cab88244a5dadcf3038", "fusion_lat": 0.0, "name": "a7bc44c166c61cab88244a5dadcf3038", "is_reserved": 0, "rental_uris": {"android": "https://dc.lft.to/lastmile_qr_scan", "ios": "https://dc.lft.to/lastmile_qr_scan"}, "fusion_lon": 0.0}, {"lat": 38.934794333333336, "is_disabled": 0, "type": "electric_scooter", "lon": -77.03401166666667, "bike_id": "f619255e154806a59779e4a4547b9cb6", "fusion_lat": 0.0, "name": "f619255e154806a59779e4a4547b9cb6", "is_reserved": 0, "rental_uris": {"android": "https://dc.lft.to/lastmile_qr_scan", "ios": "https://dc.lft.to/lastmile_qr_scan"}, "fusion_lon": 0.0}, {"lat": 38.853208333333335, "is_disabled": 0, "type": "electric_scooter", "lon": -76.98018816666666, "bike_id": "40630d24725d535b9a47c76f91eb5a9c", "fusion_lat": 0.0, "name": "40630d24725d535b9a47c76f91eb5a9c", "is_reserved": 0, "rental_uris": {"android": "https://dc.lft.to/lastmile_qr_scan", "ios": "https://dc.lft.to/lastmile_qr_scan"}, "fusion_lon": 0.0}, {"lat": 38.87236583333333, "is_disabled": 0, "type": "electric_scooter", "lon": -77.011932, "bike_id": "a04111145f1aed43a36611c062785fc2", "fusion_lat": 0.0, "name": "a04111145f1aed43a36611c062785fc2", "is_reserved": 0, "rental_uris": {"android": "https://dc.lft.to/lastmile_qr_scan", "ios": "https://dc.lft.to/lastmile_qr_scan"}, "fusion_lon": 0.0}, {"lat": 38.901414333333335, "is_disabled": 0, "type": "electric_scooter", "lon": -77.0034585, "bike_id": "e160c19b2b127e419011f61b63f9932d", "fusion_lat": 0.0, "name": "e160c19b2b127e419011f61b63f9932d", "is_reserved": 0, "rental_uris": {"android": "https://dc.lft.to/lastmile_qr_scan", "ios": "https://dc.lft.to/lastmile_qr_scan"}, "fusion_lon": 0.0}, {"lat": 38.937405166666665, "is_disabled": 0, "type": "electric_scooter", "lon": -77.034941, "bike_id": "0657088b9613b1213c9075ab84841075", "fusion_lat": 0.0, "name": "0657088b9613b1213c9075ab84841075", "is_reserved": 0, "rental_uris": {"android": "https://dc.lft.to/lastmile_qr_scan", "ios": "https://dc.lft.to/lastmile_qr_scan"}, "fusion_lon": 0.0}, {"lat": 38.8740545, "is_disabled": 0, "type": "electric_scooter", "lon": -77.01454633333333, "bike_id": "66d7ce81a8f6e1a51fdfcb0182870a1d", "fusion_lat": 0.0, "name": "66d7ce81a8f6e1a51fdfcb0182870a1d", "is_reserved": 0, "rental_uris": {"android": "https://dc.lft.to/lastmile_qr_scan", "ios": "https://dc.lft.to/lastmile_qr_scan"}, "fusion_lon": 0.0}, {"lat": 38.90723166666667, "is_disabled": 0, "type": "electric_scooter", "lon": -77.02965333333333, "bike_id": "4796129f41e5f0864749529a7740ab16", "fusion_lat": 0.0, "name": "4796129f41e5f0864749529a7740ab16", "is_reserved": 0, "rental_uris": {"android": "https://dc.lft.to/lastmile_qr_scan", "ios": "https://dc.lft.to/lastmile_qr_scan"}, "fusion_lon": 0.0}, {"lat": 38.881168, "is_disabled": 0, "type": "electric_scooter", "lon": -77.01973766666667, "bike_id": "e59df8dcbae31b78edea3421c78b0ef8", "fusion_lat": 0.0, "name": "e59df8dcbae31b78edea3421c78b0ef8", "is_reserved": 0, "rental_uris": {"android": "https://dc.lft.to/lastmile_qr_scan", "ios": "https://dc.lft.to/lastmile_qr_scan"}, "fusion_lon": 0.0}, {"lat": 38.9097485, "is_disabled": 0, "type": "electric_scooter", "lon": -77.032156, "bike_id": "b5273c12deb8bf09224241597a8355d0", "fusion_lat": 0.0, "name": "b5273c12deb8bf09224241597a8355d0", "is_reserved": 0, "rental_uris": {"android": "https://dc.lft.to/lastmile_qr_scan", "ios": "https://dc.lft.to/lastmile_qr_scan"}, "fusion_lon": 0.0}, {"lat": 38.896111833333336, "is_disabled": 0, "type": "electric_scooter", "lon": -76.95664, "bike_id": "dd406793f0bd7d12fb9b8470681d3d44", "fusion_lat": 0.0, "name": "dd406793f0bd7d12fb9b8470681d3d44", "is_reserved": 0, "rental_uris": {"android": "https://dc.lft.to/lastmile_qr_scan", "ios": "https://dc.lft.to/lastmile_qr_scan"}, "fusion_lon": 0.0}, {"lat": 38.92614016666667, "is_disabled": 0, "type": "electric_scooter", "lon": -77.04414683333333, "bike_id": "ebd299d23ea39b5b8894c493e3586121", "fusion_lat": 0.0, "name": "ebd299d23ea39b5b8894c493e3586121", "is_reserved": 0, "rental_uris": {"android": "https://dc.lft.to/lastmile_qr_scan", "ios": "https://dc.lft.to/lastmile_qr_scan"}, "fusion_lon": 0.0}, {"lat": 38.939762333333334, "is_disabled": 0, "type": "electric_scooter", "lon": -77.0327075, "bike_id": "d7a8e9e1a05e161cbe7593ab43659593", "fusion_lat": 0.0, "name": "d7a8e9e1a05e161cbe7593ab43659593", "is_reserved": 0, "rental_uris": {"android": "https://dc.lft.to/lastmile_qr_scan", "ios": "https://dc.lft.to/lastmile_qr_scan"}, "fusion_lon": 0.0}, {"lat": 38.909766166666664, "is_disabled": 0, "type": "electric_scooter", "lon": -77.03863566666666, "bike_id": "c1e193551d5a1037622894bd21291106", "fusion_lat": 0.0, "name": "c1e193551d5a1037622894bd21291106", "is_reserved": 0, "rental_uris": {"android": "https://dc.lft.to/lastmile_qr_scan", "ios": "https://dc.lft.to/lastmile_qr_scan"}, "fusion_lon": 0.0}, {"lat": 38.887395833333336, "is_disabled": 0, "type": "electric_scooter", "lon": -77.020774, "bike_id": "b5f662291769bae07b2e7d371d0c07c8", "fusion_lat": 0.0, "name": "b5f662291769bae07b2e7d371d0c07c8", "is_reserved": 0, "rental_uris": {"android": "https://dc.lft.to/lastmile_qr_scan", "ios": "https://dc.lft.to/lastmile_qr_scan"}, "fusion_lon": 0.0}, {"lat": 38.919149, "is_disabled": 0, "type": "electric_scooter", "lon": -77.031909, "bike_id": "88f843089274796ca420290ccda0eae6", "fusion_lat": 0.0, "name": "88f843089274796ca420290ccda0eae6", "is_reserved": 0, "rental_uris": {"android": "https://dc.lft.to/lastmile_qr_scan", "ios": "https://dc.lft.to/lastmile_qr_scan"}, "fusion_lon": 0.0}, {"lat": 38.9031655, "is_disabled": 0, "type": "electric_scooter", "lon": -77.06512233333333, "bike_id": "b91660cd4da9b93c6f541e97d83a6d4d", "fusion_lat": 0.0, "name": "b91660cd4da9b93c6f541e97d83a6d4d", "is_reserved": 0, "rental_uris": {"android": "https://dc.lft.to/lastmile_qr_scan", "ios": "https://dc.lft.to/lastmile_qr_scan"}, "fusion_lon": 0.0}, {"lat": 38.905527166666666, "is_disabled": 0, "type": "electric_scooter", "lon": -77.05694133333333, "bike_id": "9dc740b12ec631d3eaa99c62cfe87255", "fusion_lat": 0.0, "name": "9dc740b12ec631d3eaa99c62cfe87255", "is_reserved": 0, "rental_uris": {"android": "https://dc.lft.to/lastmile_qr_scan", "ios": "https://dc.lft.to/lastmile_qr_scan"}, "fusion_lon": 0.0}, {"lat": 38.879176333333334, "is_disabled": 0, "type": "electric_scooter", "lon": -76.99147766666667, "bike_id": "3f3af59ba6a8c087e83c9092c41060df", "fusion_lat": 0.0, "name": "3f3af59ba6a8c087e83c9092c41060df", "is_reserved": 0, "rental_uris": {"android": "https://dc.lft.to/lastmile_qr_scan", "ios": "https://dc.lft.to/lastmile_qr_scan"}, "fusion_lon": 0.0}, {"lat": 38.9140565, "is_disabled": 0, "type": "electric_scooter", "lon": -77.0326775, "bike_id": "ea8094ec9f00d5d64e442256bbaf53bc", "fusion_lat": 0.0, "name": "ea8094ec9f00d5d64e442256bbaf53bc", "is_reserved": 0, "rental_uris": {"android": "https://dc.lft.to/lastmile_qr_scan", "ios": "https://dc.lft.to/lastmile_qr_scan"}, "fusion_lon": 0.0}, {"lat": 38.961513833333335, "is_disabled": 0, "type": "electric_scooter", "lon": -77.02775283333334, "bike_id": "afefdb2206c310c0d1097a6d13cfc83b", "fusion_lat": 0.0, "name": "afefdb2206c310c0d1097a6d13cfc83b", "is_reserved": 0, "rental_uris": {"android": "https://dc.lft.to/lastmile_qr_scan", "ios": "https://dc.lft.to/lastmile_qr_scan"}, "fusion_lon": 0.0}, {"lat": 38.915680333333334, "is_disabled": 0, "type": "electric_scooter", "lon": -77.031556, "bike_id": "967ce019129eab54088376326997c00b", "fusion_lat": 0.0, "name": "967ce019129eab54088376326997c00b", "is_reserved": 0, "rental_uris": {"android": "https://dc.lft.to/lastmile_qr_scan", "ios": "https://dc.lft.to/lastmile_qr_scan"}, "fusion_lon": 0.0}, {"lat": 38.880405, "is_disabled": 0, "type": "electric_scooter", "lon": -76.9863725, "bike_id": "73eabdce86400d3d40d34b93b08e916b", "fusion_lat": 0.0, "name": "73eabdce86400d3d40d34b93b08e916b", "is_reserved": 0, "rental_uris": {"android": "https://dc.lft.to/lastmile_qr_scan", "ios": "https://dc.lft.to/lastmile_qr_scan"}, "fusion_lon": 0.0}, {"lat": 38.896839, "is_disabled": 0, "type": "electric_scooter", "lon": -76.93540766666666, "bike_id": "0479e736c0e43c09c31be304957c1565", "fusion_lat": 0.0, "name": "0479e736c0e43c09c31be304957c1565", "is_reserved": 0, "rental_uris": {"android": "https://dc.lft.to/lastmile_qr_scan", "ios": "https://dc.lft.to/lastmile_qr_scan"}, "fusion_lon": 0.0}, {"lat": 38.8922755, "is_disabled": 0, "type": "electric_bike", "lon": -77.03327716666666, "bike_id": "81665cc9ff0cb0f812c3f28b071a75a2", "fusion_lat": 0.0, "name": "81665cc9ff0cb0f812c3f28b071a75a2", "is_reserved": 0, "rental_uris": {"android": "https://dc.lft.to/lastmile_qr_scan", "ios": "https://dc.lft.to/lastmile_qr_scan"}, "fusion_lon": 0.0}, {"lat": 38.92066283333333, "is_disabled": 0, "type": "electric_scooter", "lon": -76.9760125, "bike_id": "a1835c02182d44bdcb0735739a8e25ab", "fusion_lat": 0.0, "name": "a1835c02182d44bdcb0735739a8e25ab", "is_reserved": 0, "rental_uris": {"android": "https://dc.lft.to/lastmile_qr_scan", "ios": "https://dc.lft.to/lastmile_qr_scan"}, "fusion_lon": 0.0}, {"lat": 38.959553166666666, "is_disabled": 0, "type": "electric_bike", "lon": -77.100912, "bike_id": "3b8dffa3a5de23a20e4d6bcb53bdd04c", "fusion_lat": 0.0, "name": "3b8dffa3a5de23a20e4d6bcb53bdd04c", "is_reserved": 0, "rental_uris": {"android": "https://dc.lft.to/lastmile_qr_scan", "ios": "https://dc.lft.to/lastmile_qr_scan"}, "fusion_lon": 0.0}, {"lat": 38.88449466666667, "is_disabled": 0, "type": "electric_scooter", "lon": -77.03036083333333, "bike_id": "9bd7e380d374663f575dce01366bf4db", "fusion_lat": 0.0, "name": "9bd7e380d374663f575dce01366bf4db", "is_reserved": 0, "rental_uris": {"android": "https://dc.lft.to/lastmile_qr_scan", "ios": "https://dc.lft.to/lastmile_qr_scan"}, "fusion_lon": 0.0}, {"lat": 38.920642666666666, "is_disabled": 0, "type": "electric_scooter", "lon": -77.04336766666667, "bike_id": "1b294d7308141cf85bc4b084a2aba786", "fusion_lat": 0.0, "name": "1b294d7308141cf85bc4b084a2aba786", "is_reserved": 0, "rental_uris": {"android": "https://dc.lft.to/lastmile_qr_scan", "ios": "https://dc.lft.to/lastmile_qr_scan"}, "fusion_lon": 0.0}, {"lat": 38.903715166666665, "is_disabled": 0, "type": "electric_scooter", "lon": -77.06022666666667, "bike_id": "b0e53584c94951268170683707eeccb6", "fusion_lat": 0.0, "name": "b0e53584c94951268170683707eeccb6", "is_reserved": 0, "rental_uris": {"android": "https://dc.lft.to/lastmile_qr_scan", "ios": "https://dc.lft.to/lastmile_qr_scan"}, "fusion_lon": 0.0}, {"lat": 38.93142616666667, "is_disabled": 0, "type": "electric_scooter", "lon": -77.0382985, "bike_id": "c0c81ac15cacebe347725053e41e7bc2", "fusion_lat": 0.0, "name": "c0c81ac15cacebe347725053e41e7bc2", "is_reserved": 0, "rental_uris": {"android": "https://dc.lft.to/lastmile_qr_scan", "ios": "https://dc.lft.to/lastmile_qr_scan"}, "fusion_lon": 0.0}, {"lat": 38.89866716666667, "is_disabled": 0, "type": "electric_scooter", "lon": -77.01859083333333, "bike_id": "78e8ed10a92eef5265b1496b565a4d77", "fusion_lat": 0.0, "name": "78e8ed10a92eef5265b1496b565a4d77", "is_reserved": 0, "rental_uris": {"android": "https://dc.lft.to/lastmile_qr_scan", "ios": "https://dc.lft.to/lastmile_qr_scan"}, "fusion_lon": 0.0},