{"data": {"bikes": [{"type": "electric_scooter", "name": "6397525e444edc4b1b85465b11b2ce45", "rental_uris": {"ios": "https://dc.lft.to/lastmile_qr_scan", "android": "https://dc.lft.to/lastmile_qr_scan"}, "fusion_lon": 0.0, "lat": 38.915488333333336, "is_disabled": 0, "bike_id": "6397525e444edc4b1b85465b11b2ce45", "fusion_lat": 0.0, "is_reserved": 0, "lon": -77.038528}, {"type": "electric_scooter", "name": "b10b0060aa0fc7217a6e24022bc4e5d4", "rental_uris": {"ios": "https://dc.lft.to/lastmile_qr_scan", "android": "https://dc.lft.to/lastmile_qr_scan"}, "fusion_lon": 0.0, "lat": 38.900182666666666, "is_disabled": 0, "bike_id": "b10b0060aa0fc7217a6e24022bc4e5d4", "fusion_lat": 0.0, "is_reserved": 0, "lon": -76.986994}, {"type": "electric_scooter", "name": "4f3c40c715713c3ff1c0ff264f7a8e51", "rental_uris": {"ios": "https://dc.lft.to/lastmile_qr_scan", "android": "https://dc.lft.to/lastmile_qr_scan"}, "fusion_lon": 0.0, "lat": 38.906651833333335, "is_disabled": 0, "bike_id": "4f3c40c715713c3ff1c0ff264f7a8e51", "fusion_lat": 0.0, "is_reserved": 0, "lon": -77.02711166666667}, {"type": "electric_scooter", "name": "8d6eb86d9095a33765dedb5d8f03cb69", "rental_uris": {"ios": "https://dc.lft.to/lastmile_qr_scan", "android": "https://dc.lft.to/lastmile_qr_scan"}, "fusion_lon": 0.0, "lat": 38.921017666666664, "is_disabled": 0, "bike_id": "8d6eb86d9095a33765dedb5d8f03cb69", "fusion_lat": 0.0, "is_reserved": 0, "lon": -77.04383833333333}, {"type": "electric_scooter", "name": "3c9e06885cd86ae2d4b5df8706d03149", "rental_uris": {"ios": "https://dc.lft.to/lastmile_qr_scan", "android": "https://dc.lft.to/lastmile_qr_scan"}, "fusion_lon": 0.0, "lat": 38.928254, "is_disabled": 0, "bike_id": "3c9e06885cd86ae2d4b5df8706d03149", "fusion_lat": 0.0, "is_reserved": 0, "lon": -77.0140085}, {"type": "electric_scooter", "name": "7950ea9d83cbf8d48c8fa2609695684f", "rental_uris": {"ios": "https://dc.lft.to/lastmile_qr_scan", "android": "https://dc.lft.to/lastmile_qr_scan"}, "fusion_lon": 0.0, "lat": 38.92407766666667, "is_disabled": 0, "bike_id": "7950ea9d83cbf8d48c8fa2609695684f", "fusion_lat": 0.0, "is_reserved": 0, "lon": -77.02561566666667}, {"type": "electric_scooter", "name": "95219246af452312a75860736f12c61f", "rental_uris": {"ios": "https://dc.lft.to/lastmile_qr_scan", "android": "https://dc.lft.to/lastmile_qr_scan"}, "fusion_lon": 0.0, "lat": 38.928283, "is_disabled": 0, "bike_id": "95219246af452312a75860736f12c61f", "fusion_lat": 0.0, "is_reserved": 0, "lon": -77.05441333333333}, {"type": "electric_scooter", "name": "515f722cf0e1eb0eb361006e51e01f8d", "rental_uris": {"ios": "https://dc.lft.to/lastmile_qr_scan", "android": "https://dc.lft.to/lastmile_qr_scan"}, "fusion_lon": 0.0, "lat": 38.942048, "is_disabled": 0, "bike_id": "515f722cf0e1eb0eb361006e51e01f8d", "fusion_lat": 0.0, "is_reserved": 0, "lon": -77.02594933333333}, {"type": "electric_scooter", "name": "e8815067c0d2a0afce4436ba71d39d5e", "rental_uris": {"ios": "https://dc.lft.to/lastmile_qr_scan", "android": "https://dc.lft.to/lastmile_qr_scan"}, "fusion_lon": 0.0, "lat": 38.96038683333333, "is_disabled": 0, "bike_id": "e8815067c0d2a0afce4436ba71d39d5e", "fusion_lat": 0.0, "is_reserved": 0, "lon": -77.07191816666666}, {"type": "electric_bike", "name": "e326bac530d88521919cb1af94c9f092", "rental_uris": {"ios": "https://dc.lft.to/lastmile_qr_scan", "android": "https://dc.lft.to/lastmile_qr_scan"}, "fusion_lon": 0.0, "lat": 38.922179666666665, "is_disabled": 0, "bike_id": "e326bac530d88521919cb1af94c9f092", "fusion_lat": 0.0, "is_reserved": 0, "lon": -77.20139316666666}, {"type": "electric_bike", "name": "c2efb60770c468339313fa4b33986de3", "rental_uris": {"ios": "https://dc.lft.to/lastmile_qr_scan", "android": "https://dc.lft.to/lastmile_qr_scan"}, "fusion_lon": 0.0, "lat": 38.95694366666667, "is_disabled": 0, "bike_id": "c2efb60770c468339313fa4b33986de3", "fusion_lat": 0.0, "is_reserved": 0, "lon": -77.0240135}, {"type": "electric_scooter", "name": "7d3630c52814ee9d181f09a14cdf751c", "rental_uris": {"ios": "https://dc.lft.to/lastmile_qr_scan", "android": "https://dc.lft.to/lastmile_qr_scan"}, "fusion_lon": 0.0, "lat": 38.92297716666667, "is_disabled": 0, "bike_id": "7d3630c52814ee9d181f09a14cdf751c", "fusion_lat": 0.0, "is_reserved": 0, "lon": -77.04174266666666}, {"type": "electric_scooter", "name": "1df5963111ecb1abf7fcdbf7f6cddb69", "rental_uris": {"ios": "https://dc.lft.to/lastmile_qr_scan", "android": "https://dc.lft.to/lastmile_qr_scan"}, "fusion_lon": 0.0, "lat": 38.892110333333335, "is_disabled": 0, "bike_id": "1df5963111ecb1abf7fcdbf7f6cddb69", "fusion_lat": 0.0, "is_reserved": 0, "lon": -76.995748}, {"type": "electric_scooter", "name": "54337d64d967716062d0c23acf040e41", "rental_uris": {"ios": "https://dc.lft.to/lastmile_qr_scan", "android": "https://dc.lft.to/lastmile_qr_scan"}, "fusion_lon": 0.0, "lat": 38.884290166666666, "is_disabled": 0, "bike_id": "54337d64d967716062d0c23acf040e41", "fusion_lat": 0.0, "is_reserved": 0, "lon": -77.02477716666667}, {"type": "electric_scooter", "name": "a180a7c99daf9206eae59fbeaa58e66d", "rental_uris": {"ios": "https://dc.lft.to/lastmile_qr_scan", "android": "https://dc.lft.to/lastmile_qr_scan"}, "fusion_lon": 0.0, "lat": 38.92025666666667, "is_disabled": 0, "bike_id": "a180a7c99daf9206eae59fbeaa58e66d", "fusion_lat": 0.0, "is_reserved": 0, "lon": -77.017822}, {"type": "electric_scooter", "name": "6d896319f1ca973f57fc2e81a99836ba", "rental_uris": {"ios": "https://dc.lft.to/lastmile_qr_scan", "android": "https://dc.lft.to/lastmile_qr_scan"}, "fusion_lon": 0.0, "lat": 38.904969333333334, "is_disabled": 0, "bike_id": "6d896319f1ca973f57fc2e81a99836ba", "fusion_lat": 0.0, "is_reserved": 0, "lon": -76.98135716666667}, {"type": "electric_scooter", "name": "2f622996f375f1e41ea2c80d61305189", "rental_uris": {"ios": "https://dc.lft.to/lastmile_qr_scan", "android": "https://dc.lft.to/lastmile_qr_scan"}, "fusion_lon": 0.0, "lat": 38.914118333333334, "is_disabled": 0, "bike_id": "2f622996f375f1e41ea2c80d61305189", "fusion_lat": 0.0, "is_reserved": 0, "lon": -77.0181555}, {"type": "electric_scooter", "name": "a31e01c978bf88d223d6b7155ea6ce84", "rental_uris": {"ios": "https://dc.lft.to/lastmile_qr_scan", "android": "https://dc.lft.to/lastmile_qr_scan"}, "fusion_lon": 0.0, "lat": 38.900243333333336, "is_disabled": 0, "bike_id": "a31e01c978bf88d223d6b7155ea6ce84", "fusion_lat": 0.0, "is_reserved": 0, "lon": -76.974019}, {"type": "electric_scooter", "name": "ed5840185c04ab1bfc0e8c32a3c6f58d", "rental_uris": {"ios": "https://dc.lft.to/lastmile_qr_scan", "android": "https://dc.lft.to/lastmile_qr_scan"}, "fusion_lon": 0.0, "lat": 38.9318995, "is_disabled": 0, "bike_id": "ed5840185c04ab1bfc0e8c32a3c6f58d", "fusion_lat": 0.0, "is_reserved": 0, "lon": -77.01988966666667}, {"type": "electric_scooter", "name": "293999b2d09367e7ca6a980c04ac288b", "rental_uris": {"ios": "https://dc.lft.to/lastmile_qr_scan", "android": "https://dc.lft.to/lastmile_qr_scan"}, "fusion_lon": 0.0, "lat": 38.93326016666666, "is_disabled": 0, "bike_id": "293999b2d09367e7ca6a980c04ac288b", "fusion_lat": 0.0, "is_reserved": 0, "lon": -77.0326675}, {"type": "electric_scooter", "name": "14817e60c5ef4a409fb926fca33ae048", "rental_uris": {"ios": "https://dc.lft.to/lastmile_qr_scan", "android": "https://dc.lft.to/lastmile_qr_scan"}, "fusion_lon": 0.0, "lat": 38.912199333333334, "is_disabled": 0, "bike_id": "14817e60c5ef4a409fb926fca33ae048", "fusion_lat": 0.0, "is_reserved": 0, "lon": -77.03642466666666}, {"type": "electric_scooter", "name": "c858e1db86d2c78904faf87d7f37a145", "rental_uris": {"ios": "https://dc.lft.to/lastmile_qr_scan", "android": "https://dc.lft.to/lastmile_qr_scan"}, "fusion_lon": 0.0, "lat": 38.91327166666667, "is_disabled": 0, "bike_id": "c858e1db86d2c78904faf87d7f37a145", "fusion_lat": 0.0, "is_reserved": 0, "lon": -77.04865066666666}, {"type": "electric_scooter", "name": "7f29d19c578ddcd6a9c71f3ceaad5fd1", "rental_uris": {"ios": "https://dc.lft.to/lastmile_qr_scan", "android": "https://dc.lft.to/lastmile_qr_scan"}, "fusion_lon": 0.0, "lat": 38.90850116666667, "is_disabled": 0, "bike_id": "7f29d19c578ddcd6a9c71f3ceaad5fd1", "fusion_lat": 0.0, "is_reserved": 0, "lon": -77.0220335}, {"type": "electric_scooter", "name": "061833de8034336c21c27b7b4a9e7f9c", "rental_uris": {"ios": "https://dc.lft.to/lastmile_qr_scan", "android": "https://dc.lft.to/lastmile_qr_scan"}, "fusion_lon": 0.0, "lat": 38.908074, "is_disabled": 0, "bike_id": "061833de8034336c21c27b7b4a9e7f9c", "fusion_lat": 0.0, "is_reserved": 0, "lon": -77.03442833333334}, {"type": "electric_scooter", "name": "7a6d16e309c30e9f2462c70bf8e75e0d", "rental_uris": {"ios": "https://dc.lft.to/lastmile_qr_scan", "android": "https://dc.lft.to/lastmile_qr_scan"}, "fusion_lon": 0.0, "lat": 38.916468, "is_disabled": 0, "bike_id": "7a6d16e309c30e9f2462c70bf8e75e0d", "fusion_lat": 0.0, "is_reserved": 0, "lon": -77.03214616666666}, {"type": "electric_scooter", "name": "bb71a80ef19b40364380f2b4fddf428a", "rental_uris": {"ios": "https://dc.lft.to/lastmile_qr_scan", "android": "https://dc.lft.to/lastmile_qr_scan"}, "fusion_lon": 0.0, "lat": 38.910477666666665, "is_disabled": 0, "bike_id": "bb71a80ef19b40364380f2b4fddf428a", "fusion_lat": 0.0, "is_reserved": 0, "lon": -77.0409975}, {"type": "electric_scooter", "name": "75c7b23ef5f9ae3bbada5808987bad58", "rental_uris": {"ios": "https://dc.lft.to/lastmile_qr_scan", "android": "https://dc.lft.to/lastmile_qr_scan"}, "fusion_lon": 0.0, "lat": 38.93396366666666, "is_disabled": 0, "bike_id": "75c7b23ef5f9ae3bbada5808987bad58", "fusion_lat": 0.0, "is_reserved": 0, "lon": -77.05744466666667}, {"type": "electric_scooter", "name": "b5fc46fd0acde594c7e15c916e85ecf5", "rental_uris": {"ios": "https://dc.lft.to/lastmile_qr_scan", "android": "https://dc.lft.to/lastmile_qr_scan"}, "fusion_lon": 0.0, "lat": 38.9161165, "is_disabled": 0, "bike_id": "b5fc46fd0acde594c7e15c916e85ecf5", "fusion_lat": 0.0, "is_reserved": 0, "lon": -77.04621433333334}, {"type": "electric_scooter", "name": "60af677646d5f6f72916a216a4d09b75", "rental_uris": {"ios": "https://dc.lft.to/lastmile_qr_scan", "android": "https://dc.lft.to/lastmile_qr_scan"}, "fusion_lon": 0.0, "lat": 38.9208735, "is_disabled": 0, "bike_id": "60af677646d5f6f72916a216a4d09b75", "fusion_lat": 0.0, "is_reserved": 0, "lon": -77.02254966666666}, {"type": "electric_scooter", "name": "c6055378db6b3556324b0d3101a91f3f", "rental_uris": {"ios": "https://dc.lft.to/lastmile_qr_scan", "android": "https://dc.lft.to/lastmile_qr_scan"}, "fusion_lon": 0.0, "lat": 38.914077166666665, "is_disabled": 0, "bike_id": "c6055378db6b3556324b0d3101a91f3f", "fusion_lat": 0.0, "is_reserved": 0, "lon": -77.023672}, {"type": "electric_scooter", "name": "5a55b35c440dfcce2db517cf84c2c1d8", "rental_uris": {"ios": "https://dc.lft.to/lastmile_qr_scan", "android": "https://dc.lft.to/lastmile_qr_scan"}, "fusion_lon": 0.0, "lat": 38.8967125, "is_disabled": 0, "bike_id": "5a55b35c440dfcce2db517cf84c2c1d8", "fusion_lat": 0.0, "is_reserved": 0, "lon": -77.00516866666666}, {"type": "electric_scooter", "name": "0ae64b2ec73010d53d1d954b4550b4d9", "rental_uris": {"ios": "https://dc.lft.to/lastmile_qr_scan", "android": "https://dc.lft.to/lastmile_qr_scan"}, "fusion_lon": 0.0, "lat": 38.917277166666665, "is_disabled": 0, "bike_id": "0ae64b2ec73010d53d1d954b4550b4d9", "fusion_lat": 0.0, "is_reserved": 0, "lon": -77.02589816666666}, {"type": "electric_scooter", "name": "96c77ae8b51fd72b91ddabf73065dcc3", "rental_uris": {"ios": "https://dc.lft.to/lastmile_qr_scan", "android": "https://dc.lft.to/lastmile_qr_scan"}, "fusion_lon": 0.0, "lat": 38.92676, "is_disabled": 0, "bike_id": "96c77ae8b51fd72b91ddabf73065dcc3", "fusion_lat": 0.0, "is_reserved": 0, "lon": -77.037943}, {"type": "electric_scooter", "name": "3248fbc46d2c3170c9c136a941a23baa", "rental_uris": {"ios": "https://dc.lft.to/lastmile_qr_scan", "android": "https://dc.lft.to/lastmile_qr_scan"}, "fusion_lon": 0.0, "lat": 38.88717316666666, "is_disabled": 0, "bike_id": "3248fbc46d2c3170c9c136a941a23baa", "fusion_lat": 0.0, "is_reserved": 0, "lon": -76.9968505}, {"type": "electric_scooter", "name": "2e395f0e8e7e7c1920fb94bd507cabcc", "rental_uris": {"ios": "https://dc.lft.to/lastmile_qr_scan", "android": "https://dc.lft.to/lastmile_qr_scan"}, "fusion_lon": 0.0, "lat": 38.92677583333333, "is_disabled": 0, "bike_id": "2e395f0e8e7e7c1920fb94bd507cabcc", "fusion_lat": 0.0, "is_reserved": 0, "lon": -77.0147725}, {"type": "electric_scooter", "name": "30f1cfbc9cb94f5f21429ae7db3b0936", "rental_uris": {"ios": "https://dc.lft.to/lastmile_qr_scan", "android": "https://dc.lft.to/lastmile_qr_scan"}, "fusion_lon": 0.0, "lat": 38.920458833333335, "is_disabled": 0, "bike_id": "30f1cfbc9cb94f5f21429ae7db3b0936", "fusion_lat": 0.0, "is_reserved": 0, "lon": -77.017914}, {"type": "electric_scooter", "name": "2ad748e5a11a2aa2616e91b3529b44f1", "rental_uris": {"ios": "https://dc.lft.to/lastmile_qr_scan", "android": "https://dc.lft.to/lastmile_qr_scan"}, "fusion_lon": 0.0, "lat": 38.93245616666667, "is_disabled": 0, "bike_id": "2ad748e5a11a2aa2616e91b3529b44f1", "fusion_lat": 0.0, "is_reserved": 0, "lon": -77.03411766666666}, {"type": "electric_bike", "name": "f5ebe66019b3ae0b5ddd93a8e80bb104", "rental_uris": {"ios": "https://dc.lft.to/lastmile_qr_scan", "android": "https://dc.lft.to/lastmile_qr_scan"}, "fusion_lon": 0.0, "lat": 38.89616433333333, "is_disabled": 0, "bike_id": "f5ebe66019b3ae0b5ddd93a8e80bb104", "fusion_lat": 0.0, "is_reserved": 0, "lon": -76.90745216666667}, {"type": "electric_scooter", "name": "b5a84a5f89bfb5c6dcb7da9240966acb", "rental_uris": {"ios": "https://dc.lft.to/lastmile_qr_scan", "android": "https://dc.lft.to/lastmile_qr_scan"}, "fusion_lon": 0.0, "lat": 38.9211155, "is_disabled": 0, "bike_id": "b5a84a5f89bfb5c6dcb7da9240966acb", "fusion_lat": 0.0, "is_reserved": 0, "lon": -77.02410583333334}, {"type": "electric_scooter", "name": "7878434893ee7e0669e83ca85580c650", "rental_uris": {"ios": "https://dc.lft.to/lastmile_qr_scan", "android": "https://dc.lft.to/lastmile_qr_scan"}, "fusion_lon": 0.0, "lat": 38.91031566666667, "is_disabled": 0, "bike_id": "7878434893ee7e0669e83ca85580c650", "fusion_lat": 0.0, "is_reserved": 0, "lon": -77.02926583333333}, {"type": "electric_scooter", "name": "101d982afdf275e57f7555856139d262", "rental_uris": {"ios": "https://dc.lft.to/lastmile_qr_scan", "android": "https://dc.lft.to/lastmile_qr_scan"}, "fusion_lon": 0.0, "lat": 38.920525166666664, "is_disabled": 0, "bike_id": "101d982afdf275e57f7555856139d262", "fusion_lat": 0.0, "is_reserved": 0, "lon": -77.04184666666667}, {"type": "electric_scooter", "name": "b0ad3d90dd17688b8055d35f30adb156", "rental_uris": {"ios": "https://dc.lft.to/lastmile_qr_scan", "android": "https://dc.lft.to/lastmile_qr_scan"}, "fusion_lon": 0.0, "lat": 38.89851516666667, "is_disabled": 0, "bike_id": "b0ad3d90dd17688b8055d35f30adb156", "fusion_lat": 0.0, "is_reserved": 0, "lon": -77.041635}, {"type": "electric_bike", "name": "7bec015f56c73d235e1be7557f0af0f9", "rental_uris": {"ios": "https://dc.lft.to/lastmile_qr_scan", "android": "https://dc.lft.to/lastmile_qr_scan"}, "fusion_lon": 0.0, "lat": 38.80443666666667, "is_disabled": 0, "bike_id": "7bec015f56c73d235e1be7557f0af0f9", "fusion_lat": 0.0, "is_reserved": 0, "lon": -77.05397933333333}, {"type": "electric_scooter", "name": "5260d02e037a60f4bbf34fea8aa6f934", "rental_uris": {"ios": "https://dc.lft.to/lastmile_qr_scan", "android": "https://dc.lft.to/lastmile_qr_scan"}, "fusion_lon": 0.0, "lat": 38.920257666666664, "is_disabled": 0, "bike_id": "5260d02e037a60f4bbf34fea8aa6f934", "fusion_lat": 0.0, "is_reserved": 0, "lon": -77.017969}, {"type": "electric_scooter", "name": "be6947bb270b6077368350994f1124df", "rental_uris": {"ios": "https://dc.lft.to/lastmile_qr_scan", "android": "https://dc.lft.to/lastmile_qr_scan"}, "fusion_lon": 0.0, "lat": 38.90526216666667, "is_disabled": 0, "bike_id": "be6947bb270b6077368350994f1124df", "fusion_lat": 0.0, "is_reserved": 0, "lon": -77.04748833333333}, {"type": "electric_scooter", "name": "8c3f589009cde9348d4faba2182230c3", "rental_uris": {"ios": "https://dc.lft.to/lastmile_qr_scan", "android": "https://dc.lft.to/lastmile_qr_scan"}, "fusion_lon": 0.0, "lat": 38.92411333333333, "is_disabled": 0, "bike_id": "8c3f589009cde9348d4faba2182230c3", "fusion_lat": 0.0, "is_reserved": 0, "lon": -77.04457616666667}, {"type": "electric_scooter", "name": "e3c826b8b714fc9cee3285b219baa301", "rental_uris": {"ios": "https://dc.lft.to/lastmile_qr_scan", "android": "https://dc.lft.to/lastmile_qr_scan"}, "fusion_lon": 0.0, "lat": 38.9031175, "is_disabled": 0, "bike_id": "e3c826b8b714fc9cee3285b219baa301", "fusion_lat": 0.0, "is_reserved": 0, "lon": -77.02435733333333}, {"type": "electric_scooter", "name": "787d50cd5ca51b0ccad41d5badaf6b5c", "rental_uris": {"ios": "https://dc.lft.to/lastmile_qr_scan", "android": "https://dc.lft.to/lastmile_qr_scan"}, "fusion_lon": 0.0, "lat": 38.91323, "is_disabled": 0, "bike_id": "787d50cd5ca51b0ccad41d5badaf6b5c", "fusion_lat": 0.0, "is_reserved": 0, "lon": -77.0174955}, {"type": "electric_scooter", "name": "46ec82740d526504a981afa1298e2c20", "rental_uris": {"ios": "https://dc.lft.to/lastmile_qr_scan", "android": "https://dc.lft.to/lastmile_qr_scan"}, "fusion_lon": 0.0, "lat": 38.883973833333336, "is_disabled": 0, "bike_id": "46ec82740d526504a981afa1298e2c20", "fusion_lat": 0.0, "is_reserved": 0, "lon": -76.98582316666666}, {"type": "electric_scooter", "name": "24c7c9ffc6a63a0b579a218f442705ae", "rental_uris": {"ios": "https://dc.lft.to/lastmile_qr_scan", "android": "https://dc.lft.to/lastmile_qr_scan"}, "fusion_lon": 0.0, "lat": 38.895546333333336, "is_disabled": 0, "bike_id": "24c7c9ffc6a63a0b579a218f442705ae", "fusion_lat": 0.0, "is_reserved": 0, "lon": -76.998439}, {"type": "electric_scooter", "name": "40da70f5d8ae8b973ed573f077431fd9", "rental_uris": {"ios": "https://dc.lft.to/lastmile_qr_scan", "android": "https://dc.lft.to/lastmile_qr_scan"}, "fusion_lon": 0.0, "lat": 38.91420466666667, "is_disabled": 0, "bike_id": "40da70f5d8ae8b973ed573f077431fd9", "fusion_lat": 0.0, "is_reserved": 0, "lon": -77.064193}, {"type": "electric_scooter", "name": "83d2b99c3a420eada9f77d510cd21fd7", "rental_uris": {"ios": "https://dc.lft.to/lastmile_qr_scan", "android": "https://dc.lft.to/lastmile_qr_scan"}, "fusion_lon": 0.0, "lat": 38.901308, "is_disabled": 0, "bike_id": "83d2b99c3a420eada9f77d510cd21fd7", "fusion_lat": 0.0, "is_reserved": 0, "lon": -77.046386}, {"type": "electric_scooter", "name": "ff4b10c02d58cb045f5764c191e5f15f", "rental_uris": {"ios": "https://dc.lft.to/lastmile_qr_scan", "android": "https://dc.lft.to/lastmile_qr_scan"}, "fusion_lon": 0.0, "lat": 38.8849025, "is_disabled": 0, "bike_id": "ff4b10c02d58cb045f5764c191e5f15f", "fusion_lat": 0.0, "is_reserved": 0, "lon": -77.007273}, {"type": "electric_scooter", "name": "a6f730cf56152f792417bdd38c2de856", "rental_uris": {"ios": "https://dc.lft.to/lastmile_qr_scan", "android": "https://dc.lft.to/lastmile_qr_scan"}, "fusion_lon": 0.0, "lat": 38.885086666666666, "is_disabled": 0, "bike_id": "a6f730cf56152f792417bdd38c2de856", "fusion_lat": 0.0, "is_reserved": 0, "lon": -77.01528233333333}, {"type": "electric_scooter", "name": "c774d84496cb46ab752f5a6de262180d", "rental_uris": {"ios": "https://dc.lft.to/lastmile_qr_scan", "android": "https://dc.lft.to/lastmile_qr_scan"}, "fusion_lon": 0.0, "lat": 38.87456666666667, "is_disabled": 0, "bike_id": "c774d84496cb46ab752f5a6de262180d", "fusion_lat": 0.0, "is_reserved": 0, "lon": -77.00967016666667}, {"type": "electric_scooter", "name": "ea42c74596c998a9aebc6d3fedd8a893", "rental_uris": {"ios": "https://dc.lft.to/lastmile_qr_scan", "android": "https://dc.lft.to/lastmile_qr_scan"}, "fusion_lon": 0.0, "lat": 38.91465133333333, "is_disabled": 0, "bike_id": "ea42c74596c998a9aebc6d3fedd8a893", "fusion_lat": 0.0, "is_reserved": 0, "lon": -77.029603}, {"type": "electric_scooter", "name": "ea373c86fc8e7eee3702f35879f3e781", "rental_uris": {"ios": "https://dc.lft.to/lastmile_qr_scan", "android": "https://dc.lft.to/lastmile_qr_scan"}, "fusion_lon": 0.0, "lat": 38.860612, "is_disabled": 0, "bike_id": "ea373c86fc8e7eee3702f35879f3e781", "fusion_lat": 0.0, "is_reserved": 0, "lon": -76.9850105}, {"type": "electric_scooter", "name": "cf619cdd17b22e252cbe179e365b7850", "rental_uris": {"ios": "https://dc.lft.to/lastmile_qr_scan", "android": "https://dc.lft.to/lastmile_qr_scan"}, "fusion_lon": 0.0, "lat": 38.938462, "is_disabled": 0, "bike_id": "cf619cdd17b22e252cbe179e365b7850", "fusion_lat": 0.0, "is_reserved": 0, "lon": -77.033834}, {"type": "electric_bike", "name": "ae48d289e89d82b1406b85f248990fd2", "rental_uris": {"ios": "https://dc.lft.to/lastmile_qr_scan", "android": "https://dc.lft.to/lastmile_qr_scan"}, "fusion_lon": 0.0, "lat": 38.98500583333333, "is_disabled": 0, "bike_id": "ae48d289e89d82b1406b85f248990fd2", "fusion_lat": 0.0, "is_reserved": 0, "lon": -76.98205033333333}, {"type": "electric_scooter", "name": "ec996240bd1f16588dbb65d4d37396ef", "rental_uris": {"ios": "https://dc.lft.to/lastmile_qr_scan", "android": "https://dc.lft.to/lastmile_qr_scan"}, "fusion_lon": 0.0, "lat": 38.928477, "is_disabled": 0, "bike_id": "ec996240bd1f16588dbb65d4d37396ef", "fusion_lat": 0.0, "is_reserved": 0, "lon": -77.03301666666667}, {"type": "electric_scooter", "name": "fa0baa30fd0caaede57c17cb3a06d66c", "rental_uris": {"ios": "https://dc.lft.to/lastmile_qr_scan", "android": "https://dc.lft.to/lastmile_qr_scan"}, "fusion_lon": 0.0, "lat": 38.901952666666666, "is_disabled": 0, "bike_id": "fa0baa30fd0caaede57c17cb3a06d66c", "fusion_lat": 0.0, "is_reserved": 0, "lon": -77.02374883333333}, {"type": "electric_scooter", "name": "d83c82eb23b65300ab1a2a0e112381ec", "rental_uris": {"ios": "https://dc.lft.to/lastmile_qr_scan", "android": "https://dc.lft.to/lastmile_qr_scan"}, "fusion_lon": 0.0, "lat": 38.887487, "is_disabled": 0, "bike_id": "d83c82eb23b65300ab1a2a0e112381ec", "fusion_lat": 0.0, "is_reserved": 0, "lon": -77.01726}, {"type": "electric_scooter", "name": "01ab8cececebdab9f5fc486608bd4276", "rental_uris": {"ios": "https://dc.lft.to/lastmile_qr_scan", "android": "https://dc.lft.to/lastmile_qr_scan"}, "fusion_lon": 0.0, "lat": 38.91760383333333, "is_disabled": 0, "bike_id": "01ab8cececebdab9f5fc486608bd4276", "fusion_lat": 0.0, "is_reserved": 0, "lon": -77.01213016666667}, {"type": "electric_scooter", "name": "f20bf9bbd08ac2f8241e74e2b597cebd", "rental_uris": {"ios": "https://dc.lft.to/lastmile_qr_scan", "android": "https://dc.lft.to/lastmile_qr_scan"}, "fusion_lon": 0.0, "lat": 38.884878, "is_disabled": 0, "bike_id": "f20bf9bbd08ac2f8241e74e2b597cebd", "fusion_lat": 0.0, "is_reserved": 0, "lon": -77.00713283333333}, {"type": "electric_scooter", "name": "4c8867192aa0f1f9799a5e3b8a01dabf", "rental_uris": {"ios": "https://dc.lft.to/lastmile_qr_scan", "android": "https://dc.lft.to/lastmile_qr_scan"}, "fusion_lon": 0.0, "lat": 38.917130666666665, "is_disabled": 0, "bike_id": "4c8867192aa0f1f9799a5e3b8a01dabf", "fusion_lat": 0.0, "is_reserved": 0, "lon": -77.04155966666667}, {"type": "electric_scooter", "name": "f9fe5e92aacb19cbe3b4a6be6f57ddb6", "rental_uris": {"ios": "https://dc.lft.to/lastmile_qr_scan", "android": "https://dc.lft.to/lastmile_qr_scan"}, "fusion_lon": 0.0, "lat": 38.9241125, "is_disabled": 0, "bike_id": "f9fe5e92aacb19cbe3b4a6be6f57ddb6", "fusion_lat": 0.0, "is_reserved": 0, "lon": -77.05174383333333}, {"type": "electric_scooter", "name": "1b37c4045bb98973d95051fdbb49e0c7", "rental_uris": {"ios": "https://dc.lft.to/lastmile_qr_scan", "android": "https://dc.lft.to/lastmile_qr_scan"}, "fusion_lon": 0.0, "lat": 38.8922355, "is_disabled": 0, "bike_id": "1b37c4045bb98973d95051fdbb49e0c7", "fusion_lat": 0.0, "is_reserved": 0, "lon": -77.04809166666666}, {"type": "electric_scooter", "name": "46d9bd507c4011d858261320e3e15232", "rental_uris": {"ios": "https://dc.lft.to/lastmile_qr_scan", "android": "https://dc.lft.to/lastmile_qr_scan"}, "fusion_lon": 0.0, "lat": 38.92750133333333, "is_disabled": 0, "bike_id": "46d9bd507c4011d858261320e3e15232", "fusion_lat": 0.0, "is_reserved": 0, "lon": -77.03268433333334}, {"type": "electric_scooter", "name": "2374cb31d2cf8017cb4bfac1ab7f32fe", "rental_uris": {"ios": "https://dc.lft.to/lastmile_qr_scan", "android": "https://dc.lft.to/lastmile_qr_scan"}, "fusion_lon": 0.0, "lat": 38.876078166666666, "is_disabled": 0, "bike_id": "2374cb31d2cf8017cb4bfac1ab7f32fe", "fusion_lat": 0.0, "is_reserved": 0, "lon": -76.96566683333333}, {"type": "electric_scooter", "name": "f9ad6c381f3e7c93a4e5aaa94e1af2b4", "rental_uris": {"ios": "https://dc.lft.to/lastmile_qr_scan", "android": "https://dc.lft.to/lastmile_qr_scan"}, "fusion_lon": 0.0, "lat": 38.9204285, "is_disabled": 0, "bike_id": "f9ad6c381f3e7c93a4e5aaa94e1af2b4", "fusion_lat": 0.0, "is_reserved": 0, "lon": -77.002086}, {"type": "electric_scooter", "name": "9a906486f74b5f4b02d63d4a614a8c84", "rental_uris": {"ios": "https://dc.lft.to/lastmile_qr_scan", "android": "https://dc.lft.to/lastmile_qr_scan"}, "fusion_lon": 0.0, "lat": 38.9072035, "is_disabled": 0, "bike_id": "9a906486f74b5f4b02d63d4a614a8c84", "fusion_lat": 0.0, "is_reserved": 0, "lon": -77.025443}, {"type": "electric_scooter", "name": "aba9f2ef7bd500e17448952174611772", "rental_uris": {"ios": "https://dc.lft.to/lastmile_qr_scan", "android": "https://dc.lft.to/lastmile_qr_scan"}, "fusion_lon": 0.0, "lat": 38.90184516666667, "is_disabled": 0, "bike_id": "aba9f2ef7bd500e17448952174611772", "fusion_lat": 0.0, "is_reserved": 0, "lon": -76.92901183333333}, {"type": "electric_scooter", "name": "ffa5c2254e72dfb860fd702bfdc62ebd", "rental_uris": {"ios": "https://dc.lft.to/lastmile_qr_scan", "android": "https://dc.lft.to/lastmile_qr_scan"}, "fusion_lon": 0.0, "lat": 38.891722666666666, "is_disabled": 0, "bike_id": "ffa5c2254e72dfb860fd702bfdc62ebd", "fusion_lat": 0.0, "is_reserved": 0, "lon": -76.99949683333334}, {"type": "electric_scooter", "name": "b9a5556ab99f27bf8c571cb39ddce800", "rental_uris": {"ios": "https://dc.lft.to/lastmile_qr_scan", "android": "https://dc.lft.to/lastmile_qr_scan"}, "fusion_lon": 0.0, "lat": 38.90232366666667, "is_disabled": 0, "bike_id": "b9a5556ab99f27bf8c571cb39ddce800", "fusion_lat": 0.0, "is_reserved": 0, "lon": -77.001978}, {"type": "electric_scooter", "name": "163ce358ecf61f0a413169815afefa3c", "rental_uris": {"ios": "https://dc.lft.to/lastmile_qr_scan", "android": "https://dc.lft.to/lastmile_qr_scan"}, "fusion_lon": 0.0, "lat": 38.93204016666667, "is_disabled": 0, "bike_id": "163ce358ecf61f0a413169815afefa3c", "fusion_lat": 0.0, "is_reserved": 0, "lon": -77.03656183333334}, {"type": "electric_scooter", "name": "38cece6a0fba5db06c0368f7decd87c4", "rental_uris": {"ios": "https://dc.lft.to/lastmile_qr_scan", "android": "https://dc.lft.to/lastmile_qr_scan"}, "fusion_lon": 0.0, "lat": 38.928278, "is_disabled": 0, "bike_id": "38cece6a0fba5db06c0368f7decd87c4", "fusion_lat": 0.0, "is_reserved": 0, "lon": -77.05439816666667}, {"type": "electric_scooter", "name": "283b1189bfced2bb3d7f58626f0f32d6", "rental_uris": {"ios": "https://dc.lft.to/lastmile_qr_scan", "android": "https://dc.lft.to/lastmile_qr_scan"}, "fusion_lon": 0.0, "lat": 38.910088333333334, "is_disabled": 0, "bike_id": "283b1189bfced2bb3d7f58626f0f32d6", "fusion_lat": 0.0, "is_reserved": 0, "lon": -77.02225433333334}, {"type": "electric_bike", "name": "201ea2926ef4a15d1148c63c93151015", "rental_uris": {"ios": "https://dc.lft.to/lastmile_qr_scan", "android": "https://dc.lft.to/lastmile_qr_scan"}, "fusion_lon": 0.0, "lat": 38.85511966666667, "is_disabled": 0, "bike_id": "201ea2926ef4a15d1148c63c93151015", "fusion_lat": 0.0, "is_reserved": 0, "lon": -77.10538983333333}, {"type": "electric_scooter", "name": "489950ecf51f42c398dd902e374825e7", "rental_uris": {"ios": "https://dc.lft.to/lastmile_qr_scan", "android": "https://dc.lft.to/lastmile_qr_scan"}, "fusion_lon": 0.0, "lat": 38.886332, "is_disabled": 0, "bike_id": "489950ecf51f42c398dd902e374825e7", "fusion_lat": 0.0, "is_reserved": 0, "lon": -76.925849}, {"type": "electric_scooter", "name": "1934d8c23fb7c0bc12f86c74dba08347", "rental_uris": {"ios": "https://dc.lft.to/lastmile_qr_scan", "android": "https://dc.lft.to/lastmile_qr_scan"}, "fusion_lon": 0.0, "lat": 38.9245035, "is_disabled": 0, "bike_id": "1934d8c23fb7c0bc12f86c74dba08347", "fusion_lat": 0.0, "is_reserved": 0, "lon": -77.03324266666667}, {"type": "electric_scooter", "name": "f8ca6c92fbcc21c32acfc91834b491e0", "rental_uris": {"ios": "https://dc.lft.to/lastmile_qr_scan", "android": "https://dc.lft.to/lastmile_qr_scan"}, "fusion_lon": 0.0, "lat": 38.906144166666664, "is_disabled": 0, "bike_id": "f8ca6c92fbcc21c32acfc91834b491e0", "fusion_lat": 0.0, "is_reserved": 0, "lon": -76.98702883333333}, {"type": "electric_scooter", "name": "e03c25ac60f9f4e260cd1aee21811e00", "rental_uris": {"ios": "https://dc.lft.to/lastmile_qr_scan", "android": "https://dc.lft.to/lastmile_qr_scan"}, "fusion_lon": 0.0, "lat": 38.956399166666664, "is_disabled": 0, "bike_id": "e03c25ac60f9f4e260cd1aee21811e00", "fusion_lat": 0.0, "is_reserved": 0, "lon": -76.99793883333334}, {"type": "electric_scooter", "name": "2fc6d4592bff3193798dc4c1f90926d2", "rental_uris": {"ios": "https://dc.lft.to/lastmile_qr_scan", "android": "https://dc.lft.to/lastmile_qr_scan"}, "fusion_lon": 0.0, "lat": 38.90355683333333, "is_disabled": 0, "bike_id": "2fc6d4592bff3193798dc4c1f90926d2", "fusion_lat": 0.0, "is_reserved": 0, "lon": -77.00748233333333}, {"type": "electric_scooter", "name": "2022734ff484eca8d3a4b391fe272b5c", "rental_uris": {"ios": "https://dc.lft.to/lastmile_qr_scan", "android": "https://dc.lft.to/lastmile_qr_scan"}, "fusion_lon": 0.0, "lat": 38.92884316666667, "is_disabled": 0, "bike_id": "2022734ff484eca8d3a4b391fe272b5c", "fusion_lat": 0.0, "is_reserved": 0, "lon": -77.01363333333333}, {"type": "electric_scooter", "name": "29490d88568486111c4e188375f82a3f", "rental_uris": {"ios": "https://dc.lft.to/lastmile_qr_scan", "android": "https://dc.lft.to/lastmile_qr_scan"}, "fusion_lon": 0.0, "lat": 38.93440716666667, "is_disabled": 0, "bike_id": "29490d88568486111c4e188375f82a3f", "fusion_lat": 0.0, "is_reserved": 0, "lon": -77.02981083333333}, {"type": "electric_scooter", "name": "d9d9a0325c76b93eb16a0e4e922baae0", "rental_uris": {"ios": "https://dc.lft.to/lastmile_qr_scan", "android": "https://dc.lft.to/lastmile_qr_scan"}, "fusion_lon": 0.0, "lat": 38.8564965, "is_disabled": 0, "bike_id": "d9d9a0325c76b93eb16a0e4e922baae0", "fusion_lat": 0.0, "is_reserved": 0, "lon": -76.99677133333333}, {"type": "electric_scooter", "name": "3ca8ab56a14ff95e21724c326c11aa15", "rental_uris": {"ios": "https://dc.lft.to/lastmile_qr_scan", "android": "https://dc.lft.to/lastmile_qr_scan"}, "fusion_lon": 0.0, "lat": 38.9052145, "is_disabled": 0, "bike_id": "3ca8ab56a14ff95e21724c326c11aa15", "fusion_lat": 0.0, "is_reserved": 0, "lon": -77.05139883333334}, {"type": "electric_scooter", "name": "8e5bb4216252240db79f29983f37d732", "rental_uris": {"ios": "https://dc.lft.to/lastmile_qr_scan", "android": "https://dc.lft.to/lastmile_qr_scan"}, "fusion_lon": 0.0, "lat": 38.874693, "is_disabled": 0, "bike_id": "8e5bb4216252240db79f29983f37d732", "fusion_lat": 0.0, "is_reserved": 0, "lon": -77.00562533333333}, {"type": "electric_scooter", "name": "0ca9fc1f8aa61aeb3d06a032d4a7ef4e", "rental_uris": {"ios": "https://dc.lft.to/lastmile_qr_scan", "android": "https://dc.lft.to/lastmile_qr_scan"}, "fusion_lon": 0.0, "lat": 38.9568545, "is_disabled": 0, "bike_id": "0ca9fc1f8aa61aeb3d06a032d4a7ef4e", "fusion_lat": 0.0, "is_reserved": 0, "lon": -77.01929483333333}, {"type": "electric_scooter", "name": "762488eae5198a0afac8b18d848da3e1", "rental_uris": {"ios": "https://dc.lft.to/lastmile_qr_scan", "android": "https://dc.lft.to/lastmile_qr_scan"}, "fusion_lon": 0.0, "lat": 38.899068, "is_disabled": 0, "bike_id": "762488eae5198a0afac8b18d848da3e1", "fusion_lat": 0.0, "is_reserved": 0, "lon": -76.93366683333333}, {"type": "electric_bike", "name": "4d58622f261266fb2cbd6eab0026a01e", "rental_uris": {"ios": "https://dc.lft.to/lastmile_qr_scan", "android": "https://dc.lft.to/lastmile_qr_scan"}, "fusion_lon": 0.0, "lat": 38.89733366666667, "is_disabled": 0, "bike_id": "4d58622f261266fb2cbd6eab0026a01e", "fusion_lat": 0.0, "is_reserved": 0, "lon": -76.92045566666667}, {"type": "electric_bike", "name": "e5a8ffd21c23cbdde5f512be35fbf8e0", "rental_uris": {"ios": "https://dc.lft.to/lastmile_qr_scan", "android": "https://dc.lft.to/lastmile_qr_scan"}, "fusion_lon": 0.0, "lat": 38.9884445, "is_disabled": 0, "bike_id": "e5a8ffd21c23cbdde5f512be35fbf8e0", "fusion_lat": 0.0, "is_reserved": 0, "lon": -77.00205883333334}, {"type": "electric_scooter", "name": "ac7b0bba2e03407415a43e289991fd8f", "rental_uris": {"ios": "https://dc.lft.to/lastmile_qr_scan", "android": "https://dc.lft.to/lastmile_qr_scan"}, "fusion_lon": 0.0, "lat": 38.908276666666666, "is_disabled": 0, "bike_id": "ac7b0bba2e03407415a43e289991fd8f", "fusion_lat": 0.0, "is_reserved": 0, "lon": -77.03194766666667}, {"type": "electric_scooter", "name": "df02e4927026666343d34d3c94f0e153", "rental_uris": {"ios": "https://dc.lft.to/lastmile_qr_scan", "android": "https://dc.lft.to/lastmile_qr_scan"}, "fusion_lon": 0.0, "lat": 38.9010275, "is_disabled": 0, "bike_id": "df02e4927026666343d34d3c94f0e153", "fusion_lat": 0.0, "is_reserved": 0, "lon": -77.04472166666666}, {"type": "electric_scooter", "name": "9615aab8092ce6320ea6eb32e01a50ff", "rental_uris": {"ios": "https://dc.lft.to/lastmile_qr_scan", "android": "https://dc.lft.to/lastmile_qr_scan"}, "fusion_lon": 0.0, "lat": 38.93116633333333, "is_disabled": 0, "bike_id": "9615aab8092ce6320ea6eb32e01a50ff", "fusion_lat": 0.0, "is_reserved": 0, "lon": -77.03881933333334}, {"type": "electric_scooter", "name": "68e9d0caa3a3cefd6f97bfb88c443001", "rental_uris": {"ios": "https://dc.lft.to/lastmile_qr_scan", "android": "https://dc.lft.to/lastmile_qr_scan"}, "fusion_lon": 0.0, "lat": 38.8972865, "is_disabled": 0, "bike_id": "68e9d0caa3a3cefd6f97bfb88c443001", "fusion_lat": 0.0, "is_reserved": 0, "lon": -77.00377933333333}, {"type": "electric_scooter", "name": "80d493a0533fe4353f416748f4b4adc3", "rental_uris": {"ios": "https://dc.lft.to/lastmile_qr_scan", "android": "https://dc.lft.to/lastmile_qr_scan"}, "fusion_lon": 0.0, "lat": 38.91764116666667, "is_disabled": 0, "bike_id": "80d493a0533fe4353f416748f4b4adc3", "fusion_lat": 0.0, "is_reserved": 0, "lon": -77.0230695}, {"type": "electric_scooter", "name": "79f1958fc32d2bd4e1a75d680298bc8e", "rental_uris": {"ios": "https://dc.lft.to/lastmile_qr_scan", "android": "https://dc.lft.to/lastmile_qr_scan"}, "fusion_lon": 0.0, "lat": 38.91682466666666, "is_disabled": 0, "bike_id": "79f1958fc32d2bd4e1a75d680298bc8e", "fusion_lat": 0.0, "is_reserved": 0, "lon": -77.02953333333333}, {"type": "electric_scooter", "name": "104712f802b09b6d9255508b54cd7bfe", "rental_uris": {"ios": "https://dc.lft.to/lastmile_qr_scan", "android": "https://dc.lft.to/lastmile_qr_scan"}, "fusion_lon": 0.0, "lat": 38.8850125, "is_disabled": 0, "bike_id": "104712f802b09b6d9255508b54cd7bfe", "fusion_lat": 0.0, "is_reserved": 0, "lon": -77.00700366666666}, {"type": "electric_scooter", "name": "e728393828705977d017ffc48d0340bd", "rental_uris": {"ios": "https://dc.lft.to/lastmile_qr_scan", "android": "https://dc.lft.to/lastmile_qr_scan"}, "fusion_lon": 0.0, "lat": 38.8655525, "is_disabled": 0, "bike_id": "e728393828705977d017ffc48d0340bd", "fusion_lat": 0.0, "is_reserved": 0, "lon": -76.98349366666666}, {"type": "electric_bike", "name": "46cb58679f3f4e79af4b5d8dcb4009bc", "rental_uris": {"ios": "https://dc.lft.to/lastmile_qr_scan", "android": "https://dc.lft.to/lastmile_qr_scan"}, "fusion_lon": 0.0, "lat": 38.892702666666665, "is_disabled": 0, "bike_id": "46cb58679f3f4e79af4b5d8dcb4009bc", "fusion_lat": 0.0, "is_reserved": 0, "lon": -76.95111833333333}, {"type": "electric_scooter", "name": "eb34ecf4db90d754f958318612df70f0", "rental_uris": {"ios": "https://dc.lft.to/lastmile_qr_scan", "android": "https://dc.lft.to/lastmile_qr_scan"}, "fusion_lon": 0.0, "lat": 38.92273866666667, "is_disabled": 0, "bike_id": "eb34ecf4db90d754f958318612df70f0", "fusion_lat": 0.0, "is_reserved": 0, "lon": -77.029551}, {"type": "electric_scooter", "name": "a22f97514a4fa23c86b7b0951d1d7476", "rental_uris": {"ios": "https://dc.lft.to/lastmile_qr_scan", "android": "https://dc.lft.to/lastmile_qr_scan"}, "fusion_lon": 0.0, "lat": 38.8987375, "is_disabled": 0, "bike_id": "a22f97514a4fa23c86b7b0951d1d7476", "fusion_lat": 0.0, "is_reserved": 0, "lon": -76.93186466666667}, {"type": "electric_scooter", "name": "f254225624a5c4b02cca2a840817f188", "rental_uris": {"ios": "https://dc.lft.to/lastmile_qr_scan", "android": "https://dc.lft.to/lastmile_qr_scan"}, "fusion_lon": 0.0, "lat": 38.91706383333333, "is_disabled": 0, "bike_id": "f254225624a5c4b02cca2a840817f188", "fusion_lat": 0.0, "is_reserved": 0, "lon": -77.03663883333333}, {"type": "electric_scooter", "name": "eebe93f93b65f46b360fe006c8973160", "rental_uris": {"ios": "https://dc.lft.to/lastmile_qr_scan", "android": "https://dc.lft.to/lastmile_qr_scan"}, "fusion_lon": 0.0, "lat": 38.924807666666666, "is_disabled": 0, "bike_id": "eebe93f93b65f46b360fe006c8973160", "fusion_lat": 0.0, "is_reserved": 0, "lon": -77.02661966666666}, {"type": "electric_scooter", "name": "9facd9306d3f071a2887471a32c94e1e", "rental_uris": {"ios": "https://dc.lft.to/lastmile_qr_scan", "android": "https://dc.lft.to/lastmile_qr_scan"}, "fusion_lon": 0.0, "lat": 38.925619166666664, "is_disabled": 0, "bike_id": "9facd9306d3f071a2887471a32c94e1e", "fusion_lat": 0.0, "is_reserved": 0, "lon": -77.02713366666667}, {"type": "electric_scooter", "name": "3d65359975b373ca7e6cd3554dda0818", "rental_uris": {"ios": "https://dc.lft.to/lastmile_qr_scan", "android": "https://dc.lft.to/lastmile_qr_scan"}, "fusion_lon": 0.0, "lat": 38.9020245, "is_disabled": 0, "bike_id": "3d65359975b373ca7e6cd3554dda0818", "fusion_lat": 0.0, "is_reserved": 0, "lon": -77.023741}, {"type": "electric_scooter", "name": "82ae0d60509b0c7beba489646bb39407", "rental_uris": {"ios": "https://dc.lft.to/lastmile_qr_scan", "android": "https://dc.lft.to/lastmile_qr_scan"}, "fusion_lon": 0.0, "lat": 38.93534666666667, "is_disabled": 0, "bike_id": "82ae0d60509b0c7beba489646bb39407", "fusion_lat": 0.0, "is_reserved": 0, "lon": -77.0235095}, {"type": "electric_scooter", "name": "567ae91cd8e81d3a6be00d096dfc8009", "rental_uris": {"ios": "https://dc.lft.to/lastmile_qr_scan", "android": "https://dc.lft.to/lastmile_qr_scan"}, "fusion_lon": 0.0, "lat": 38.907965833333336, "is_disabled": 0, "bike_id": "567ae91cd8e81d3a6be00d096dfc8009", "fusion_lat": 0.0, "is_reserved": 0, "lon": -77.011094}, {"type": "electric_bike", "name": "958930a967e51b2d3db90356282222dc", "rental_uris": {"ios": "https://dc.lft.to/lastmile_qr_scan", "android": "https://dc.lft.to/lastmile_qr_scan"}, "fusion_lon": 0.0, "lat": 38.951857, "is_disabled": 0, "bike_id": "958930a967e51b2d3db90356282222dc", "fusion_lat": 0.0, "is_reserved": 0, "lon": -77.02603533333334}, {"type": "electric_scooter", "name": "c6dc5f7a13f86e2d30ae180c7b628037", "rental_uris": {"ios": "https://dc.lft.to/lastmile_qr_scan", "android": "https://dc.lft.to/lastmile_qr_scan"}, "fusion_lon": 0.0, "lat": 38.918005, "is_disabled": 0, "bike_id": "c6dc5f7a13f86e2d30ae180c7b628037", "fusion_lat": 0.0, "is_reserved": 0, "lon": -77.0344095}, {"type": "electric_scooter", "name": "ac41f15515fce18dae9c44446abd7bdd", "rental_uris": {"ios": "https://dc.lft.to/lastmile_qr_scan", "android": "https://dc.lft.to/lastmile_qr_scan"}, "fusion_lon": 0.0, "lat": 38.9047255, "is_disabled": 0, "bike_id": "ac41f15515fce18dae9c44446abd7bdd", "fusion_lat": 0.0, "is_reserved": 0, "lon": -76.98234266666667}, {"type": "electric_scooter", "name": "1121ddb71270869eab258259e0729990", "rental_uris": {"ios": "https://dc.lft.to/lastmile_qr_scan", "android": "https://dc.lft.to/lastmile_qr_scan"}, "fusion_lon": 0.0, "lat": 38.9050125, "is_disabled": 0, "bike_id": "1121ddb71270869eab258259e0729990", "fusion_lat": 0.0, "is_reserved": 0, "lon": -77.029505}, {"type": "electric_scooter", "name": "cdde7d738556310db76c8859d90994d5", "rental_uris": {"ios": "https://dc.lft.to/lastmile_qr_scan", "android": "https://dc.lft.to/lastmile_qr_scan"}, "fusion_lon": 0.0, "lat": 38.883854666666664, "is_disabled": 0, "bike_id": "cdde7d738556310db76c8859d90994d5", "fusion_lat": 0.0, "is_reserved": 0, "lon": -76.9304855}, {"type": "electric_scooter", "name": "49763904f32050a140b70b7434dbf4ab", "rental_uris": {"ios": "https://dc.lft.to/lastmile_qr_scan", "android": "https://dc.lft.to/lastmile_qr_scan"}, "fusion_lon": 0.0, "lat": 38.93746983333333, "is_disabled": 0, "bike_id": "49763904f32050a140b70b7434dbf4ab", "fusion_lat": 0.0, "is_reserved": 0, "lon": -77.02956133333333}, {"type": "electric_scooter", "name": "998306a5d190819215c875c5dd33421a", "rental_uris": {"ios": "https://dc.lft.to/lastmile_qr_scan", "android": "https://dc.lft.to/lastmile_qr_scan"}, "fusion_lon": 0.0, "lat": 38.892327333333334, "is_disabled": 0, "bike_id": "998306a5d190819215c875c5dd33421a", "fusion_lat": 0.0, "is_reserved": 0, "lon": -77.02183616666667}, {"type": "electric_scooter", "name": "3a3132a7674b733ed730bcd6c143b407", "rental_uris": {"ios": "https://dc.lft.to/lastmile_qr_scan", "android": "https://dc.lft.to/lastmile_qr_scan"}, "fusion_lon": 0.0, "lat": 38.90222816666667, "is_disabled": 0, "bike_id": "3a3132a7674b733ed730bcd6c143b407", "fusion_lat": 0.0, "is_reserved": 0, "lon": -77.02103933333333}, {"type": "electric_scooter", "name": "7912bf21f73214059087ec76252fb66e", "rental_uris": {"ios": "https://dc.lft.to/lastmile_qr_scan", "android": "https://dc.lft.to/lastmile_qr_scan"}, "fusion_lon": 0.0, "lat": 38.9142445, "is_disabled": 0, "bike_id": "7912bf21f73214059087ec76252fb66e", "fusion_lat": 0.0, "is_reserved": 0, "lon": -77.0392555}, {"type": "electric_scooter", "name": "156cf21350177310d5dab24f41309617", "rental_uris": {"ios": "https://dc.lft.to/lastmile_qr_scan", "android": "https://dc.lft.to/lastmile_qr_scan"}, "fusion_lon": 0.0, "lat": 38.896161, "is_disabled": 0, "bike_id": "156cf21350177310d5dab24f41309617", "fusion_lat": 0.0, "is_reserved": 0, "lon": -76.98568516666667}, {"type": "electric_scooter", "name": "14fa119d6d38a66b891bd2228cbded6c", "rental_uris": {"ios": "https://dc.lft.to/lastmile_qr_scan", "android": "https://dc.lft.to/lastmile_qr_scan"}, "fusion_lon": 0.0, "lat": 38.967321166666665, "is_disabled": 0, "bike_id": "14fa119d6d38a66b891bd2228cbded6c", "fusion_lat": 0.0, "is_reserved": 0, "lon": -77.0091825}, {"type": "electric_scooter", "name": "e568fa0de1a4fbebdbbddedee2611284", "rental_uris": {"ios": "https://dc.lft.to/lastmile_qr_scan", "android": "https://dc.lft.to/lastmile_qr_scan"}, "fusion_lon": 0.0, "lat": 38.952416166666666, "is_disabled": 0, "bike_id": "e568fa0de1a4fbebdbbddedee2611284", "fusion_lat": 0.0, "is_reserved": 0, "lon": -77.02378683333333}, {"type": "electric_scooter", "name": "f8a6a5290a235d63731cd6da7c4d2e42", "rental_uris": {"ios": "https://dc.lft.to/lastmile_qr_scan", "android": "https://dc.lft.to/lastmile_qr_scan"}, "fusion_lon": 0.0, "lat": 38.89227616666667, "is_disabled": 0, "bike_id": "f8a6a5290a235d63731cd6da7c4d2e42", "fusion_lat": 0.0, "is_reserved": 0, "lon": -77.04362516666667}, {"type": "electric_scooter", "name": "62b74322c81731c7e48214c26c900400", "rental_uris": {"ios": "https://dc.lft.to/lastmile_qr_scan", "android": "https://dc.lft.to/lastmile_qr_scan"}, "fusion_lon": 0.0, "lat": 38.91556083333333, "is_disabled": 0, "bike_id": "62b74322c81731c7e48214c26c900400", "fusion_lat": 0.0, "is_reserved": 0, "lon": -77.03138533333333}, {"type": "electric_scooter", "name": "26786886c81b4666da23dc43019de02d", "rental_uris": {"ios": "https://dc.lft.to/lastmile_qr_scan", "android": "https://dc.lft.to/lastmile_qr_scan"}, "fusion_lon": 0.0, "lat": 38.87877983333333, "is_disabled": 0, "bike_id": "26786886c81b4666da23dc43019de02d", "fusion_lat": 0.0, "is_reserved": 0, "lon": -76.982261}, {"type": "electric_scooter", "name": "61e8e70050fa0e10bdaa24a8006c4171", "rental_uris": {"ios": "https://dc.lft.to/lastmile_qr_scan", "android": "https://dc.lft.to/lastmile_qr_scan"}, "fusion_lon": 0.0, "lat": 38.88318483333333, "is_disabled": 0, "bike_id": "61e8e70050fa0e10bdaa24a8006c4171", "fusion_lat": 0.0, "is_reserved": 0, "lon": -77.01747166666667}, {"type": "electric_scooter", "name": "3e1d29fa1dcb32087859a7176c3d23dc", "rental_uris": {"ios": "https://dc.lft.to/lastmile_qr_scan", "android": "https://dc.lft.to/lastmile_qr_scan"}, "fusion_lon": 0.0, "lat": 38.907524, "is_disabled": 0, "bike_id": "3e1d29fa1dcb32087859a7176c3d23dc", "fusion_lat": 0.0, "is_reserved": 0, "lon": -77.0002965}, {"type": "electric_scooter", "name": "09aa6030290a21ccff8981cbe5578c54", "rental_uris": {"ios": "https://dc.lft.to/lastmile_qr_scan", "android": "https://dc.lft.to/lastmile_qr_scan"}, "fusion_lon": 0.0, "lat": 38.911109833333335, "is_disabled": 0, "bike_id": "09aa6030290a21ccff8981cbe5578c54", "fusion_lat": 0.0, "is_reserved": 0, "lon": -77.038308}, {"type": "electric_scooter", "name": "b580f64cf0175a5bbdb1627d09658681", "rental_uris": {"ios": "https://dc.lft.to/lastmile_qr_scan", "android": "https://dc.lft.to/lastmile_qr_scan"}, "fusion_lon": 0.0, "lat": 38.9081345, "is_disabled": 0, "bike_id": "b580f64cf0175a5bbdb1627d09658681", "fusion_lat": 0.0, "is_reserved": 0, "lon": -77.0344675}, {"type": "electric_scooter", "name": "ec30796ec7b23c1a8f62241ae2b337a9", "rental_uris": {"ios": "https://dc.lft.to/lastmile_qr_scan", "android": "https://dc.lft.to/lastmile_qr_scan"}, "fusion_lon": 0.0, "lat": 38.91740883333333, "is_disabled": 0, "bike_id": "ec30796ec7b23c1a8f62241ae2b337a9", "fusion_lat": 0.0, "is_reserved": 0, "lon": -77.0319835}, {"type": "electric_scooter", "name": "a6f32e642c5e9cd6d09cd5b01f251bf0", "rental_uris": {"ios": "https://dc.lft.to/lastmile_qr_scan", "android": "https://dc.lft.to/lastmile_qr_scan"}, "fusion_lon": 0.0, "lat": 38.905809166666664, "is_disabled": 0, "bike_id": "a6f32e642c5e9cd6d09cd5b01f251bf0", "fusion_lat": 0.0, "is_reserved": 0, "lon": -77.051338}, {"type": "electric_bike", "name": "89e735f088c787d0d3718a3ef0a6965a", "rental_uris": {"ios": "https://dc.lft.to/lastmile_qr_scan", "android": "https://dc.lft.to/lastmile_qr_scan"}, "fusion_lon": 0.0, "lat": 38.88408783333333, "is_disabled": 0, "bike_id": "89e735f088c787d0d3718a3ef0a6965a", "fusion_lat": 0.0, "is_reserved": 0, "lon": -76.96058266666667}, {"type": "electric_scooter", "name": "fff7796798a4ee5198bab9aac5872fbc", "rental_uris": {"ios": "https://dc.lft.to/lastmile_qr_scan", "android": "https://dc.lft.to/lastmile_qr_scan"}, "fusion_lon": 0.0, "lat": 38.896042333333334, "is_disabled": 0, "bike_id": "fff7796798a4ee5198bab9aac5872fbc", "fusion_lat": 0.0, "is_reserved": 0, "lon": -77.02659566666667}, {"type": "electric_scooter", "name": "2142b25ab610cf18b0c1f8a4a842fc85", "rental_uris": {"ios": "https://dc.lft.to/lastmile_qr_scan", "android": "https://dc.lft.to/lastmile_qr_scan"}, "fusion_lon": 0.0, "lat": 38.90230233333333, "is_disabled": 0, "bike_id": "2142b25ab610cf18b0c1f8a4a842fc85", "fusion_lat": 0.0, "is_reserved": 0, "lon": -77.01755983333334}, {"type": "electric_scooter", "name": "664404d57a1c8155dcd5e9440711434b", "rental_uris": {"ios": "https://dc.lft.to/lastmile_qr_scan", "android": "https://dc.lft.to/lastmile_qr_scan"}, "fusion_lon": 0.0, "lat": 38.89594866666667, "is_disabled": 0, "bike_id": "664404d57a1c8155dcd5e9440711434b", "fusion_lat": 0.0, "is_reserved": 0, "lon": -77.028581}, {"type": "electric_scooter", "name": "eef889c19ce4e8035bcc2cddfabb2be8", "rental_uris": {"ios": "https://dc.lft.to/lastmile_qr_scan", "android": "https://dc.lft.to/lastmile_qr_scan"}, "fusion_lon": 0.0, "lat": 38.93178183333333, "is_disabled": 0, "bike_id": "eef889c19ce4e8035bcc2cddfabb2be8", "fusion_lat": 0.0, "is_reserved": 0, "lon": -77.03839816666667}, {"type": "electric_scooter", "name": "381ba8c50c69217d234cd5f9655f7b64", "rental_uris": {"ios": "https://dc.lft.to/lastmile_qr_scan", "android": "https://dc.lft.to/lastmile_qr_scan"}, "fusion_lon": 0.0, "lat": 38.93428566666667, "is_disabled": 0, "bike_id": "381ba8c50c69217d234cd5f9655f7b64", "fusion_lat": 0.0, "is_reserved": 0, "lon": -77.05584816666666}, {"type": "electric_scooter", "name": "65bfd06d466300f54b536dac29419c0e", "rental_uris": {"ios": "https://dc.lft.to/lastmile_qr_scan", "android": "https://dc.lft.to/lastmile_qr_scan"}, "fusion_lon": 0.0, "lat": 38.9181105, "is_disabled": 0, "bike_id": "65bfd06d466300f54b536dac29419c0e", "fusion_lat": 0.0, "is_reserved": 0, "lon": -77.02716033333333}, {"type": "electric_scooter", "name": "7b1771b032b3d9b00c6f26088b8f409f", "rental_uris": {"ios": "https://dc.lft.to/lastmile_qr_scan", "android": "https://dc.lft.to/lastmile_qr_scan"}, "fusion_lon": 0.0, "lat": 38.8766, "is_disabled": 0, "bike_id": "7b1771b032b3d9b00c6f26088b8f409f", "fusion_lat": 0.0, "is_reserved": 0, "lon": -77.01613466666667}, {"type": "electric_scooter", "name": "e7202a9ecfb83bc931da716596ebaa34", "rental_uris": {"ios": "https://dc.lft.to/lastmile_qr_scan", "android": "https://dc.lft.to/lastmile_qr_scan"}, "fusion_lon": 0.0, "lat": 38.8952495, "is_disabled": 0, "bike_id": "e7202a9ecfb83bc931da716596ebaa34", "fusion_lat": 0.0, "is_reserved": 0, "lon": -77.04844433333334}, {"type": "electric_scooter", "name": "64b32f7d39bd671f1d8469f162c0e14f", "rental_uris": {"ios": "https://dc.lft.to/lastmile_qr_scan", "android": "https://dc.lft.to/lastmile_qr_scan"}, "fusion_lon": 0.0, "lat": 38.877032666666665, "is_disabled": 0, "bike_id": "64b32f7d39bd671f1d8469f162c0e14f", "fusion_lat": 0.0, "is_reserved": 0, "lon": -77.004269}, {"type": "electric_scooter", "name": "e3a253b4194fef984fa77c5825081a58", "rental_uris": {"ios": "https://dc.lft.to/lastmile_qr_scan", "android": "https://dc.lft.to/lastmile_qr_scan"}, "fusion_lon": 0.0, "lat": 38.90874433333333, "is_disabled": 0, "bike_id": "e3a253b4194fef984fa77c5825081a58", "fusion_lat": 0.0, "is_reserved": 0, "lon": -77.0269585}, {"type": "electric_scooter", "name": "b290b753e643af50cdc6d4839bfe8c3a", "rental_uris": {"ios": "https://dc.lft.to/lastmile_qr_scan", "android": "https://dc.lft.to/lastmile_qr_scan"}, "fusion_lon": 0.0, "lat": 38.914819666666666, "is_disabled": 0, "bike_id": "b290b753e643af50cdc6d4839bfe8c3a", "fusion_lat": 0.0, "is_reserved": 0, "lon": -77.02181566666667}, {"type": "electric_scooter", "name": "12d8ef9c9b25da9b857fd79e4cf742de", "rental_uris": {"ios": "https://dc.lft.to/lastmile_qr_scan", "android": "https://dc.lft.to/lastmile_qr_scan"}, "fusion_lon": 0.0, "lat": 38.88743216666667, "is_disabled": 0, "bike_id": "12d8ef9c9b25da9b857fd79e4cf742de", "fusion_lat": 0.0, "is_reserved": 0, "lon": -77.02840766666667}, {"type": "electric_scooter", "name": "326ff202cb36ff121756ec2625d827d7", "rental_uris": {"ios": "https://dc.lft.to/lastmile_qr_scan", "android": "https://dc.lft.to/lastmile_qr_scan"}, "fusion_lon": 0.0, "lat": 38.941601166666665, "is_disabled": 0, "bike_id": "326ff202cb36ff121756ec2625d827d7", "fusion_lat": 0.0, "is_reserved": 0, "lon": -77.09272216666666}, {"type": "electric_scooter", "name": "7debec1cfa56d3103e4b94e219977ed3", "rental_uris": {"ios": "https://dc.lft.to/lastmile_qr_scan", "android": "https://dc.lft.to/lastmile_qr_scan"}, "fusion_lon": 0.0, "lat": 38.9192475, "is_disabled": 0, "bike_id": "7debec1cfa56d3103e4b94e219977ed3", "fusion_lat": 0.0, "is_reserved": 0, "lon": -77.00981283333333}, {"type": "electric_scooter", "name": "44c69803e8f5eef3a4dd17c505d0a609", "rental_uris": {"ios": "https://dc.lft.to/lastmile_qr_scan", "android": "https://dc.lft.to/lastmile_qr_scan"}, "fusion_lon": 0.0, "lat": 38.92049933333333, "is_disabled": 0, "bike_id": "44c69803e8f5eef3a4dd17c505d0a609", "fusion_lat": 0.0, "is_reserved": 0, "lon": -77.041879}, {"type": "electric_scooter", "name": "c844da7c9a6e5166302362352e678f76", "rental_uris": {"ios": "https://dc.lft.to/lastmile_qr_scan", "android": "https://dc.lft.to/lastmile_qr_scan"}, "fusion_lon": 0.0, "lat": 38.91616766666667, "is_disabled": 0, "bike_id": "c844da7c9a6e5166302362352e678f76", "fusion_lat": 0.0, "is_reserved": 0, "lon": -77.03143183333333}, {"type": "electric_scooter", "name": "37d963afccf15553b68123a1fb28783f", "rental_uris": {"ios": "https://dc.lft.to/lastmile_qr_scan", "android": "https://dc.lft.to/lastmile_qr_scan"}, "fusion_lon": 0.0, "lat": 38.9063465, "is_disabled": 0, "bike_id": "37d963afccf15553b68123a1fb28783f", "fusion_lat": 0.0, "is_reserved": 0, "lon": -77.0101185}, {"type": "electric_scooter", "name": "82f17f836db3bfe778421e226b655474", "rental_uris": {"ios": "https://dc.lft.to/lastmile_qr_scan", "android": "https://dc.lft.to/lastmile_qr_scan"}, "fusion_lon": 0.0, "lat": 38.9286035, "is_disabled": 0, "bike_id": "82f17f836db3bfe778421e226b655474", "fusion_lat": 0.0, "is_reserved": 0, "lon": -77.02900616666666}, {"type": "electric_scooter", "name": "315601f86940483a9231a3ca1311d9e5", "rental_uris": {"ios": "https://dc.lft.to/lastmile_qr_scan", "android": "https://dc.lft.to/lastmile_qr_scan"}, "fusion_lon": 0.0, "lat": 38.87691816666667, "is_disabled": 0, "bike_id": "315601f86940483a9231a3ca1311d9e5", "fusion_lat": 0.0, "is_reserved": 0, "lon": -77.00419783333334}, {"type": "electric_scooter", "name": "bfebf12adc168aa7d485f4547ee5be7f", "rental_uris": {"ios": "https://dc.lft.to/lastmile_qr_scan", "android": "https://dc.lft.to/lastmile_qr_scan"}, "fusion_lon": 0.0, "lat": 38.9392365, "is_disabled": 0, "bike_id": "bfebf12adc168aa7d485f4547ee5be7f", "fusion_lat": 0.0, "is_reserved": 0, "lon": -77.02793666666666}, {"type": "electric_bike", "name": "04599ead21513c2acfbd0a12577e5b58", "rental_uris": {"ios": "https://dc.lft.to/lastmile_qr_scan", "android": "https://dc.lft.to/lastmile_qr_scan"}, "fusion_lon": 0.0, "lat": 38.864472166666665, "is_disabled": 0, "bike_id": "04599ead21513c2acfbd0a12577e5b58", "fusion_lat": 0.0, "is_reserved": 0, "lon": -77.1068555}, {"type": "electric_scooter", "name": "3a370dbb5f1be7922626d221adfd9a2c", "rental_uris": {"ios": "https://dc.lft.to/lastmile_qr_scan", "android": "https://dc.lft.to/lastmile_qr_scan"}, "fusion_lon": 0.0, "lat": 38.91834033333333, "is_disabled": 0, "bike_id": "3a370dbb5f1be7922626d221adfd9a2c", "fusion_lat": 0.0, "is_reserved": 0, "lon": -77.0230655}, {"type": "electric_scooter", "name": "353afbb970248f6fd2d1c35ddb7f331b", "rental_uris": {"ios": "https://dc.lft.to/lastmile_qr_scan", "android": "https://dc.lft.to/lastmile_qr_scan"}, "fusion_lon": 0.0, "lat": 38.93858733333333, "is_disabled": 0, "bike_id": "353afbb970248f6fd2d1c35ddb7f331b", "fusion_lat": 0.0, "is_reserved": 0, "lon": -77.02626716666667}, {"type": "electric_scooter", "name": "ec50dc09d48d2c63a9605872a9d2d6eb", "rental_uris": {"ios": "https://dc.lft.to/lastmile_qr_scan", "android": "https://dc.lft.to/lastmile_qr_scan"}, "fusion_lon": 0.0, "lat": 38.93987583333333, "is_disabled": 0, "bike_id": "ec50dc09d48d2c63a9605872a9d2d6eb", "fusion_lat": 0.0, "is_reserved": 0, "lon": -77.032677}, {"type": "electric_scooter", "name": "31a01b5c6252e3e12bcab781c8f3d9d3", "rental_uris": {"ios": "https://dc.lft.to/lastmile_qr_scan", "android": "https://dc.lft.to/lastmile_qr_scan"}, "fusion_lon": 0.0, "lat": 38.88767566666667, "is_disabled": 0, "bike_id": "31a01b5c6252e3e12bcab781c8f3d9d3", "fusion_lat": 0.0, "is_reserved": 0, "lon": -76.977483}, {"type": "electric_bike", "name": "520ccd3e3b532fef1cbc6e346f5db4a1", "rental_uris": {"ios": "https://dc.lft.to/lastmile_qr_scan", "android": "https://dc.lft.to/lastmile_qr_scan"}, "fusion_lon": 0.0, "lat": 38.984662666666665, "is_disabled": 0, "bike_id": "520ccd3e3b532fef1cbc6e346f5db4a1", "fusion_lat": 0.0, "is_reserved": 0, "lon": -76.970537}, {"type": "electric_scooter", "name": "f5a9af2e34f3cc9ded9a8df12774e7d0", "rental_uris": {"ios": "https://dc.lft.to/lastmile_qr_scan", "android": "https://dc.lft.to/lastmile_qr_scan"}, "fusion_lon": 0.0, "lat": 38.90632033333333, "is_disabled": 0, "bike_id": "f5a9af2e34f3cc9ded9a8df12774e7d0", "fusion_lat": 0.0, "is_reserved": 0, "lon": -77.04140083333333}, {"type": "electric_scooter", "name": "3d1742e745df438dc4ebe98ea3073a50", "rental_uris": {"ios": "https://dc.lft.to/lastmile_qr_scan", "android": "https://dc.lft.to/lastmile_qr_scan"}, "fusion_lon": 0.0, "lat": 38.90432716666667, "is_disabled": 0, "bike_id": "3d1742e745df438dc4ebe98ea3073a50", "fusion_lat": 0.0, "is_reserved": 0, "lon": -77.04350616666666}, {"type": "electric_scooter", "name": "5989c30f5e5b2d7279498dd345ce0313", "rental_uris": {"ios": "https://dc.lft.to/lastmile_qr_scan", "android": "https://dc.lft.to/lastmile_qr_scan"}, "fusion_lon": 0.0, "lat": 38.891293833333336, "is_disabled": 0, "bike_id": "5989c30f5e5b2d7279498dd345ce0313", "fusion_lat": 0.0, "is_reserved": 0, "lon": -76.9909245}, {"type": "electric_bike", "name": "6d18f5a0c3f6bed8223de1d7f3018967", "rental_uris": {"ios": "https://dc.lft.to/lastmile_qr_scan", "android": "https://dc.lft.to/lastmile_qr_scan"}, "fusion_lon": 0.0, "lat": 38.8551175, "is_disabled": 0, "bike_id": "6d18f5a0c3f6bed8223de1d7f3018967", "fusion_lat": 0.0, "is_reserved": 0, "lon": -76.98425916666666}, {"type": "electric_scooter", "name": "4a61acd9af3ed200076447b06546ce08", "rental_uris": {"ios": "https://dc.lft.to/lastmile_qr_scan", "android": "https://dc.lft.to/lastmile_qr_scan"}, "fusion_lon": 0.0, "lat": 38.90848783333333, "is_disabled": 0, "bike_id": "4a61acd9af3ed200076447b06546ce08", "fusion_lat": 0.0, "is_reserved": 0, "lon": -77.04259266666666}, {"type": "electric_scooter", "name": "479ccc4d220eca9a13d9a220d66c5f52", "rental_uris": {"ios": "https://dc.lft.to/lastmile_qr_scan", "android": "https://dc.lft.to/lastmile_qr_scan"}, "fusion_lon": 0.0, "lat": 38.91047566666667, "is_disabled": 0, "bike_id": "479ccc4d220eca9a13d9a220d66c5f52", "fusion_lat": 0.0, "is_reserved": 0, "lon": -76.98521816666667}, {"type": "electric_scooter", "name": "44839e76973c6696b3a4f9d93ae45ff2", "rental_uris": {"ios": "https://dc.lft.to/lastmile_qr_scan", "android": "https://dc.lft.to/lastmile_qr_scan"}, "fusion_lon": 0.0, "lat": 38.90226783333333, "is_disabled": 0, "bike_id": "44839e76973c6696b3a4f9d93ae45ff2", "fusion_lat": 0.0, "is_reserved": 0, "lon": -77.04577316666666}, {"type": "electric_scooter", "name": "aebecedf34a7cc31900c8798702079cc", "rental_uris": {"ios": "https://dc.lft.to/lastmile_qr_scan", "android": "https://dc.lft.to/lastmile_qr_scan"}, "fusion_lon": 0.0, "lat": 38.92035966666667, "is_disabled": 0, "bike_id": "aebecedf34a7cc31900c8798702079cc", "fusion_lat": 0.0, "is_reserved": 0, "lon": -77.01676566666667}, {"type": "electric_scooter", "name": "b4d016d9c149f8c1273beef24c67e260", "rental_uris": {"ios": "https://dc.lft.to/lastmile_qr_scan", "android": "https://dc.lft.to/lastmile_qr_scan"}, "fusion_lon": 0.0, "lat": 38.916334666666664, "is_disabled": 0, "bike_id": "b4d016d9c149f8c1273beef24c67e260", "fusion_lat": 0.0, "is_reserved": 0, "lon": -77.04790066666666}, {"type": "electric_scooter", "name": "866584d60a102147f43ef3012a4ffeec", "rental_uris": {"ios": "https://dc.lft.to/lastmile_qr_scan", "android": "https://dc.lft.to/lastmile_qr_scan"}, "fusion_lon": 0.0, "lat": 38.91702166666666, "is_disabled": 0, "bike_id": "866584d60a102147f43ef3012a4ffeec", "fusion_lat": 0.0, "is_reserved": 0, "lon": -77.03469883333334}, {"type": "electric_scooter", "name": "d7a44585315edaf9fa047d0c6a71f7a3", "rental_uris": {"ios": "https://dc.lft.to/lastmile_qr_scan", "android": "https://dc.lft.to/lastmile_qr_scan"}, "fusion_lon": 0.0, "lat": 38.90053416666667, "is_disabled": 0, "bike_id": "d7a44585315edaf9fa047d0c6a71f7a3", "fusion_lat": 0.0, "is_reserved": 0, "lon": -77.0506635}, {"type": "electric_scooter", "name": "043fd218914b19d21a3ba251ee5fc8be", "rental_uris": {"ios": "https://dc.lft.to/lastmile_qr_scan", "android": "https://dc.lft.to/lastmile_qr_scan"}, "fusion_lon": 0.0, "lat": 38.895053833333336, "is_disabled": 0, "bike_id": "043fd218914b19d21a3ba251ee5fc8be", "fusion_lat": 0.0, "is_reserved": 0, "lon": -77.0219725}, {"type": "electric_scooter", "name": "22b832167bafac2e636431a7488a9b3f", "rental_uris": {"ios": "https://dc.lft.to/lastmile_qr_scan", "android": "https://dc.lft.to/lastmile_qr_scan"}, "fusion_lon": 0.0, "lat": 38.921079, "is_disabled": 0, "bike_id": "22b832167bafac2e636431a7488a9b3f", "fusion_lat": 0.0, "is_reserved": 0, "lon": -77.0438845}, {"type": "electric_scooter", "name": "1c820c093ea05b3696a46adf8098422e", "rental_uris": {"ios": "https://dc.lft.to/lastmile_qr_scan", "android": "https://dc.lft.to/lastmile_qr_scan"}, "fusion_lon": 0.0, "lat": 38.898682666666666, "is_disabled": 0, "bike_id": "1c820c093ea05b3696a46adf8098422e", "fusion_lat": 0.0, "is_reserved": 0, "lon": -77.03290616666666}, {"type": "electric_scooter", "name": "112be3634355c61868a8b8305a84e731", "rental_uris": {"ios": "https://dc.lft.to/lastmile_qr_scan", "android": "https://dc.lft.to/lastmile_qr_scan"}, "fusion_lon": 0.0, "lat": 38.884626833333336, "is_disabled": 0, "bike_id": "112be3634355c61868a8b8305a84e731", "fusion_lat": 0.0, "is_reserved": 0, "lon": -76.9498355}, {"type": "electric_scooter", "name": "7df72eed67b25b0b6051d242ad5e3118", "rental_uris": {"ios": "https://dc.lft.to/lastmile_qr_scan", "android": "https://dc.lft.to/lastmile_qr_scan"}, "fusion_lon": 0.0, "lat": 38.883095833333336, "is_disabled": 0, "bike_id": "7df72eed67b25b0b6051d242ad5e3118", "fusion_lat": 0.0, "is_reserved": 0, "lon": -77.017693}, {"type": "electric_scooter", "name": "4ba8fb997313f898dcf49bb59fad303c", "rental_uris": {"ios": "https://dc.lft.to/lastmile_qr_scan", "android": "https://dc.lft.to/lastmile_qr_scan"}, "fusion_lon": 0.0, "lat": 38.936765333333334, "is_disabled": 0, "bike_id": "4ba8fb997313f898dcf49bb59fad303c", "fusion_lat": 0.0, "is_reserved": 0, "lon": -77.03591183333333}, {"type": "electric_scooter", "name": "9c5d70869e5bf84b4c2c33547e5cb7af", "rental_uris": {"ios": "https://dc.lft.to/lastmile_qr_scan", "android": "https://dc.lft.to/lastmile_qr_scan"}, "fusion_lon": 0.0, "lat": 38.9321145, "is_disabled": 0, "bike_id": "9c5d70869e5bf84b4c2c33547e5cb7af", "fusion_lat": 0.0, "is_reserved": 0, "lon": -77.03355366666666}, {"type": "electric_scooter", "name": "16525674cfc1f96544362142c7c48640", "rental_uris": {"ios": "https://dc.lft.to/lastmile_qr_scan", "android": "https://dc.lft.to/lastmile_qr_scan"}, "fusion_lon": 0.0, "lat": 38.9170915, "is_disabled": 0, "bike_id": "16525674cfc1f96544362142c7c48640", "fusion_lat": 0.0, "is_reserved": 0, "lon": -77.03172666666667}, {"type": "electric_scooter", "name": "ee2493a3f9dee37548fe2fdb1099ceb2", "rental_uris": {"ios": "https://dc.lft.to/lastmile_qr_scan", "android": "https://dc.lft.to/lastmile_qr_scan"}, "fusion_lon": 0.0, "lat": 38.90697733333333, "is_disabled": 0, "bike_id": "ee2493a3f9dee37548fe2fdb1099ceb2", "fusion_lat": 0.0, "is_reserved": 0, "lon": -77.056399}, {"type": "electric_scooter", "name": "8636c861b428d7536d4ad6e018299928", "rental_uris": {"ios": "https://dc.lft.to/lastmile_qr_scan", "android": "https://dc.lft.to/lastmile_qr_scan"}, "fusion_lon": 0.0, "lat": 38.898444, "is_disabled": 0, "bike_id": "8636c861b428d7536d4ad6e018299928", "fusion_lat": 0.0, "is_reserved": 0, "lon": -77.01340516666667}, {"type": "electric_scooter", "name": "d0e738a73e0578483580b26c505b5177", "rental_uris": {"ios": "https://dc.lft.to/lastmile_qr_scan", "android": "https://dc.lft.to/lastmile_qr_scan"}, "fusion_lon": 0.0, "lat": 38.92509483333333, "is_disabled": 0, "bike_id": "d0e738a73e0578483580b26c505b5177", "fusion_lat": 0.0, "is_reserved": 0, "lon": -77.02288216666666}, {"type": "electric_scooter", "name": "e118b4b75c476a2c48269384ef2bbe76", "rental_uris": {"ios": "https://dc.lft.to/lastmile_qr_scan", "android": "https://dc.lft.to/lastmile_qr_scan"}, "fusion_lon": 0.0, "lat": 38.9205815, "is_disabled": 0, "bike_id": "e118b4b75c476a2c48269384ef2bbe76", "fusion_lat": 0.0, "is_reserved": 0, "lon": -77.04225416666667}, {"type": "electric_scooter", "name": "c5ca0bfeec35bc9f1a29237ef94a9014", "rental_uris": {"ios": "https://dc.lft.to/lastmile_qr_scan", "android": "https://dc.lft.to/lastmile_qr_scan"}, "fusion_lon": 0.0, "lat": 38.90564, "is_disabled": 0, "bike_id": "c5ca0bfeec35bc9f1a29237ef94a9014", "fusion_lat": 0.0, "is_reserved": 0, "lon": -77.04008933333333}, {"type": "electric_scooter", "name": "a31ff1fbfa89a54229e322408f3f0045", "rental_uris": {"ios": "https://dc.lft.to/lastmile_qr_scan", "android": "https://dc.lft.to/lastmile_qr_scan"}, "fusion_lon": 0.0, "lat": 38.8953125, "is_disabled": 0, "bike_id": "a31ff1fbfa89a54229e322408f3f0045", "fusion_lat": 0.0, "is_reserved": 0, "lon": -76.94888316666666}, {"type": "electric_scooter", "name": "a2d361f9f251d13c2e586c6f325da97a", "rental_uris": {"ios": "https://dc.lft.to/lastmile_qr_scan", "android": "https://dc.lft.to/lastmile_qr_scan"}, "fusion_lon": 0.0, "lat": 38.92478283333333, "is_disabled": 0, "bike_id": "a2d361f9f251d13c2e586c6f325da97a", "fusion_lat": 0.0, "is_reserved": 0, "lon": -77.0220565}, {"type": "electric_bike", "name": "510233365632e6f56bf13aaa6255d928", "rental_uris": {"ios": "https://dc.lft.to/lastmile_qr_scan", "android": "https://dc.lft.to/lastmile_qr_scan"}, "fusion_lon": 0.0, "lat": 38.95211416666667, "is_disabled": 0, "bike_id": "510233365632e6f56bf13aaa6255d928", "fusion_lat": 0.0, "is_reserved": 0, "lon": -77.06971216666666}, {"type": "electric_scooter", "name": "e3a4cd68453b1e3848e3bb48c792e163", "rental_uris": {"ios": "https://dc.lft.to/lastmile_qr_scan", "android": "https://dc.lft.to/lastmile_qr_scan"}, "fusion_lon": 0.0, "lat": 38.9223815, "is_disabled": 0, "bike_id": "e3a4cd68453b1e3848e3bb48c792e163", "fusion_lat": 0.0, "is_reserved": 0, "lon": -77.030085}, {"type": "electric_scooter", "name": "4f9ffe8e6a64fc6249a863aac35094f8", "rental_uris": {"ios": "https://dc.lft.to/lastmile_qr_scan", "android": "https://dc.lft.to/lastmile_qr_scan"}, "fusion_lon": 0.0, "lat": 38.884241833333334, "is_disabled": 0, "bike_id": "4f9ffe8e6a64fc6249a863aac35094f8", "fusion_lat": 0.0, "is_reserved": 0, "lon": -76.95755633333333}, {"type": "electric_scooter", "name": "eefda5ee1c546216f199c59ce830295f", "rental_uris": {"ios": "https://dc.lft.to/lastmile_qr_scan", "android": "https://dc.lft.to/lastmile_qr_scan"}, "fusion_lon": 0.0, "lat": 38.92376183333333, "is_disabled": 0, "bike_id": "eefda5ee1c546216f199c59ce830295f", "fusion_lat": 0.0, "is_reserved": 0, "lon": -77.01952283333334}, {"type": "electric_scooter", "name": "072b186949f0f56c57f79b373f4ed72f", "rental_uris": {"ios": "https://dc.lft.to/lastmile_qr_scan", "android": "https://dc.lft.to/lastmile_qr_scan"}, "fusion_lon": 0.0, "lat": 38.89896433333333, "is_disabled": 0, "bike_id": "072b186949f0f56c57f79b373f4ed72f", "fusion_lat": 0.0, "is_reserved": 0, "lon": -77.00349166666666}, {"type": "electric_scooter", "name": "b23a60e4c61fa43b853b204b67e42e63", "rental_uris": {"ios": "https://dc.lft.to/lastmile_qr_scan", "android": "https://dc.lft.to/lastmile_qr_scan"}, "fusion_lon": 0.0, "lat": 38.840549333333335, "is_disabled": 0, "bike_id": "b23a60e4c61fa43b853b204b67e42e63", "fusion_lat": 0.0, "is_reserved": 0, "lon": -76.976678}, {"type": "electric_scooter", "name": "30c330e5edf0296199509f9d7ea2c5fa", "rental_uris": {"ios": "https://dc.lft.to/lastmile_qr_scan", "android": "https://dc.lft.to/lastmile_qr_scan"}, "fusion_lon": 0.0, "lat": 38.914011, "is_disabled": 0, "bike_id": "30c330e5edf0296199509f9d7ea2c5fa", "fusion_lat": 0.0, "is_reserved": 0, "lon": -77.02657066666667}, {"type": "electric_scooter", "name": "5322559c959891bd7ca0abb280845e10", "rental_uris": {"ios": "https://dc.lft.to/lastmile_qr_scan", "android": "https://dc.lft.to/lastmile_qr_scan"}, "fusion_lon": 0.0, "lat": 38.897580166666664, "is_disabled": 0, "bike_id": "5322559c959891bd7ca0abb280845e10", "fusion_lat": 0.0, "is_reserved": 0, "lon": -76.9855715}, {"type": "electric_scooter", "name": "b1fc03aeb373b8523b92275f05e4cfbe", "rental_uris": {"ios": "https://dc.lft.to/lastmile_qr_scan", "android": "https://dc.lft.to/lastmile_qr_scan"}, "fusion_lon": 0.0, "lat": 38.898266166666666, "is_disabled": 0, "bike_id": "b1fc03aeb373b8523b92275f05e4cfbe", "fusion_lat": 0.0, "is_reserved": 0, "lon": -76.9318}, {"type": "electric_scooter", "name": "a6120d803ecbd0ed1ce9498ee1bbd73f", "rental_uris": {"ios": "https://dc.lft.to/lastmile_qr_scan", "android": "https://dc.lft.to/lastmile_qr_scan"}, "fusion_lon": 0.0, "lat": 38.91817566666667, "is_disabled": 0, "bike_id": "a6120d803ecbd0ed1ce9498ee1bbd73f", "fusion_lat": 0.0, "is_reserved": 0, "lon": -77.03170216666666}, {"type": "electric_bike", "name": "3980d4a8a400ab242fd2cb0873f7d355", "rental_uris": {"ios": "https://dc.lft.to/lastmile_qr_scan", "android": "https://dc.lft.to/lastmile_qr_scan"}, "fusion_lon": 0.0, "lat": 38.94258583333333, "is_disabled": 0, "bike_id": "3980d4a8a400ab242fd2cb0873f7d355", "fusion_lat": 0.0, "is_reserved": 0, "lon": -76.99071633333334}, {"type": "electric_scooter", "name": "63c5cf5f664c5ce668965a39bd7ca9a8", "rental_uris": {"ios": "https://dc.lft.to/lastmile_qr_scan", "android": "https://dc.lft.to/lastmile_qr_scan"}, "fusion_lon": 0.0, "lat": 38.942016, "is_disabled": 0, "bike_id": "63c5cf5f664c5ce668965a39bd7ca9a8", "fusion_lat": 0.0, "is_reserved": 0, "lon": -77.02588483333334}, {"type": "electric_scooter", "name": "f319acbdd5e305c5156f0d233f10cd83", "rental_uris": {"ios": "https://dc.lft.to/lastmile_qr_scan", "android": "https://dc.lft.to/lastmile_qr_scan"}, "fusion_lon": 0.0, "lat": 38.9130415, "is_disabled": 0, "bike_id": "f319acbdd5e305c5156f0d233f10cd83", "fusion_lat": 0.0, "is_reserved": 0, "lon": -77.04558916666667}, {"type": "electric_scooter", "name": "7c4c0b7b9b6e7fea31f0f47b6916c312", "rental_uris": {"ios": "https://dc.lft.to/lastmile_qr_scan", "android": "https://dc.lft.to/lastmile_qr_scan"}, "fusion_lon": 0.0, "lat": 38.89668066666667, "is_disabled": 0, "bike_id": "7c4c0b7b9b6e7fea31f0f47b6916c312", "fusion_lat": 0.0, "is_reserved": 0, "lon": -76.98842083333334}, {"type": "electric_scooter", "name": "54c38e4fac0bc5a6b4bbfc05815094a9", "rental_uris": {"ios": "https://dc.lft.to/lastmile_qr_scan", "android": "https://dc.lft.to/lastmile_qr_scan"}, "fusion_lon": 0.0, "lat": 38.936925, "is_disabled": 0, "bike_id": "54c38e4fac0bc5a6b4bbfc05815094a9", "fusion_lat": 0.0, "is_reserved": 0, "lon": -77.05601766666666}, {"type": "electric_scooter", "name": "2d9515bad0de870b68c90fba291b7af2", "rental_uris": {"ios": "https://dc.lft.to/lastmile_qr_scan", "android": "https://dc.lft.to/lastmile_qr_scan"}, "fusion_lon": 0.0, "lat": 38.8876635, "is_disabled": 0, "bike_id": "2d9515bad0de870b68c90fba291b7af2", "fusion_lat": 0.0, "is_reserved": 0, "lon": -76.97749316666666}, {"type": "electric_bike", "name": "cd87e795e366437506e8968cc682eaa3", "rental_uris": {"ios": "https://dc.lft.to/lastmile_qr_scan", "android": "https://dc.lft.to/lastmile_qr_scan"}, "fusion_lon": 0.0, "lat": 39.034085833333336, "is_disabled": 0, "bike_id": "cd87e795e366437506e8968cc682eaa3", "fusion_lat": 0.0, "is_reserved": 0, "lon": -77.0416325}, {"type": "electric_scooter", "name": "6ebcdb7c704f3acef168894ef6dbdf72", "rental_uris": {"ios": "https://dc.lft.to/lastmile_qr_scan", "android": "https://dc.lft.to/lastmile_qr_scan"}, "fusion_lon": 0.0, "lat": 38.915307166666665, "is_disabled": 0, "bike_id": "6ebcdb7c704f3acef168894ef6dbdf72", "fusion_lat": 0.0, "is_reserved": 0, "lon": -77.01222383333334}, {"type": "electric_scooter", "name": "8009c4eb6a01d98b60a3bfdae53c5dfc", "rental_uris": {"ios": "https://dc.lft.to/lastmile_qr_scan", "android": "https://dc.lft.to/lastmile_qr_scan"}, "fusion_lon": 0.0, "lat": 38.89045683333333, "is_disabled": 0, "bike_id": "8009c4eb6a01d98b60a3bfdae53c5dfc", "fusion_lat": 0.0, "is_reserved": 0, "lon": -76.99039716666667}, {"type": "electric_scooter", "name": "d1ced8ee0fe7d8bc1047a1414074e392", "rental_uris": {"ios": "https://dc.lft.to/lastmile_qr_scan", "android": "https://dc.lft.to/lastmile_qr_scan"}, "fusion_lon": 0.0, "lat": 38.91919766666667, "is_disabled": 0, "bike_id": "d1ced8ee0fe7d8bc1047a1414074e392", "fusion_lat": 0.0, "is_reserved": 0, "lon": -77.0318115}, {"type": "electric_scooter", "name": "7071e4539a63000e5398f596ed8590fc", "rental_uris": {"ios": "https://dc.lft.to/lastmile_qr_scan", "android": "https://dc.lft.to/lastmile_qr_scan"}, "fusion_lon": 0.0, "lat": 38.90013283333333, "is_disabled": 0, "bike_id": "7071e4539a63000e5398f596ed8590fc", "fusion_lat": 0.0, "is_reserved": 0, "lon": -77.0018795}, {"type": "electric_scooter", "name": "a857d12678b42619bdab36015176f32f", "rental_uris": {"ios": "https://dc.lft.to/lastmile_qr_scan", "android": "https://dc.lft.to/lastmile_qr_scan"}, "fusion_lon": 0.0, "lat": 38.88486183333333, "is_disabled": 0, "bike_id": "a857d12678b42619bdab36015176f32f", "fusion_lat": 0.0, "is_reserved": 0, "lon": -77.00709083333334}, {"type": "electric_scooter", "name": "3a99a2580d046ce62ee2f8093d9874fc", "rental_uris": {"ios": "https://dc.lft.to/lastmile_qr_scan", "android": "https://dc.lft.to/lastmile_qr_scan"}, "fusion_lon": 0.0, "lat": 38.94313733333333, "is_disabled": 0, "bike_id": "3a99a2580d046ce62ee2f8093d9874fc", "fusion_lat": 0.0, "is_reserved": 0, "lon": -77.01729833333333}, {"type": "electric_scooter", "name": "e3844913c011b7297237a31064314738", "rental_uris": {"ios": "https://dc.lft.to/lastmile_qr_scan", "android": "https://dc.lft.to/lastmile_qr_scan"}, "fusion_lon": 0.0, "lat": 38.90684433333333, "is_disabled": 0, "bike_id": "e3844913c011b7297237a31064314738", "fusion_lat": 0.0, "is_reserved": 0, "lon": -76.98496633333333}, {"type": "electric_scooter", "name": "d5d83225cbb11ee596829dd8c995c39f", "rental_uris": {"ios": "https://dc.lft.to/lastmile_qr_scan", "android": "https://dc.lft.to/lastmile_qr_scan"}, "fusion_lon": 0.0, "lat": 38.908385833333334, "is_disabled": 0, "bike_id": "d5d83225cbb11ee596829dd8c995c39f", "fusion_lat": 0.0, "is_reserved": 0, "lon": -77.05579016666667}, {"type": "electric_scooter", "name": "b9b3d9320149bb06a432c42e6c5214d8", "rental_uris": {"ios": "https://dc.lft.to/lastmile_qr_scan", "android": "https://dc.lft.to/lastmile_qr_scan"}, "fusion_lon": 0.0, "lat": 38.92102233333333, "is_disabled": 0, "bike_id": "b9b3d9320149bb06a432c42e6c5214d8", "fusion_lat": 0.0, "is_reserved": 0, "lon": -77.03167466666666}, {"type": "electric_scooter", "name": "6554e45ffaf1cc75ec61ee3913307ffe", "rental_uris": {"ios": "https://dc.lft.to/lastmile_qr_scan", "android": "https://dc.lft.to/lastmile_qr_scan"}, "fusion_lon": 0.0, "lat": 38.9181625, "is_disabled": 0, "bike_id": "6554e45ffaf1cc75ec61ee3913307ffe", "fusion_lat": 0.0, "is_reserved": 0, "lon": -77.024757}, {"type": "electric_scooter", "name": "71b4550c1a225688c36b6d179c57d881", "rental_uris": {"ios": "https://dc.lft.to/lastmile_qr_scan", "android": "https://dc.lft.to/lastmile_qr_scan"}, "fusion_lon": 0.0, "lat": 38.886398, "is_disabled": 0, "bike_id": "71b4550c1a225688c36b6d179c57d881", "fusion_lat": 0.0, "is_reserved": 0, "lon": -77.0153825}, {"type": "electric_scooter", "name": "822d4733380a8a101435da9d24bffb28", "rental_uris": {"ios": "https://dc.lft.to/lastmile_qr_scan", "android": "https://dc.lft.to/lastmile_qr_scan"}, "fusion_lon": 0.0, "lat": 38.9191965, "is_disabled": 0, "bike_id": "822d4733380a8a101435da9d24bffb28", "fusion_lat": 0.0, "is_reserved": 0, "lon": -77.03185716666667}, {"type": "electric_scooter", "name": "907823eb725cd6da1f97dd5402c3cc59", "rental_uris": {"ios": "https://dc.lft.to/lastmile_qr_scan", "android": "https://dc.lft.to/lastmile_qr_scan"}, "fusion_lon": 0.0, "lat": 38.919190666666665, "is_disabled": 0, "bike_id": "907823eb725cd6da1f97dd5402c3cc59", "fusion_lat": 0.0, "is_reserved": 0, "lon": -77.03184033333334}, {"type": "electric_scooter", "name": "8a79f7855339c70e4154ed98fe027844", "rental_uris": {"ios": "https://dc.lft.to/lastmile_qr_scan", "android": "https://dc.lft.to/lastmile_qr_scan"}, "fusion_lon": 0.0, "lat": 38.90594766666667, "is_disabled": 0, "bike_id": "8a79f7855339c70e4154ed98fe027844", "fusion_lat": 0.0, "is_reserved": 0, "lon": -77.06559083333333}, {"type": "electric_scooter", "name": "c6b82de96ee651204ba689f54bfeefd6", "rental_uris": {"ios": "https://dc.lft.to/lastmile_qr_scan", "android": "https://dc.lft.to/lastmile_qr_scan"}, "fusion_lon": 0.0, "lat": 38.85460166666667, "is_disabled": 0, "bike_id": "c6b82de96ee651204ba689f54bfeefd6", "fusion_lat": 0.0, "is_reserved": 0, "lon": -76.97229633333333}, {"type": "electric_scooter", "name": "d6275fb1f7d431fbe65e6a1c1f9775a8", "rental_uris": {"ios": "https://dc.lft.to/lastmile_qr_scan", "android": "https://dc.lft.to/lastmile_qr_scan"}, "fusion_lon": 0.0, "lat": 38.876426333333335, "is_disabled": 0, "bike_id": "d6275fb1f7d431fbe65e6a1c1f9775a8", "fusion_lat": 0.0, "is_reserved": 0, "lon": -77.0073795}, {"type": "electric_scooter", "name": "9ff888098337a3a94b364114a38f2b26", "rental_uris": {"ios": "https://dc.lft.to/lastmile_qr_scan", "android": "https://dc.lft.to/lastmile_qr_scan"}, "fusion_lon": 0.0, "lat": 38.8641655, "is_disabled": 0, "bike_id": "9ff888098337a3a94b364114a38f2b26", "fusion_lat": 0.0, "is_reserved": 0, "lon": -76.98995616666667}, {"type": "electric_scooter", "name": "4f51404769dc58a270f2638466e1372d", "rental_uris": {"ios": "https://dc.lft.to/lastmile_qr_scan", "android": "https://dc.lft.to/lastmile_qr_scan"}, "fusion_lon": 0.0, "lat": 38.9192445, "is_disabled": 0, "bike_id": "4f51404769dc58a270f2638466e1372d", "fusion_lat": 0.0, "is_reserved": 0, "lon": -77.013604}, {"type": "electric_scooter", "name": "14b9b29aa1fdc5780685b87f5ad31d09", "rental_uris": {"ios": "https://dc.lft.to/lastmile_qr_scan", "android": "https://dc.lft.to/lastmile_qr_scan"}, "fusion_lon": 0.0, "lat": 38.9001955, "is_disabled": 0, "bike_id": "14b9b29aa1fdc5780685b87f5ad31d09", "fusion_lat": 0.0, "is_reserved": 0, "lon": -77.03172683333334}, {"type": "electric_scooter", "name": "928ec81ef188ebc341c218904466a78c", "rental_uris": {"ios": "https://dc.lft.to/lastmile_qr_scan", "android": "https://dc.lft.to/lastmile_qr_scan"}, "fusion_lon": 0.0, "lat": 38.890442666666665, "is_disabled": 0, "bike_id": "928ec81ef188ebc341c218904466a78c", "fusion_lat": 0.0, "is_reserved": 0, "lon": -76.952461}, {"type": "electric_scooter", "name": "880dd058309e5e089f0483488d2625f5", "rental_uris": {"ios": "https://dc.lft.to/lastmile_qr_scan", "android": "https://dc.lft.to/lastmile_qr_scan"}, "fusion_lon": 0.0, "lat": 38.87711016666667, "is_disabled": 0, "bike_id": "880dd058309e5e089f0483488d2625f5", "fusion_lat": 0.0, "is_reserved": 0, "lon": -77.01652516666667}, {"type": "electric_scooter", "name": "9225f1e11b1c50a46a85050f431aa47c", "rental_uris": {"ios": "https://dc.lft.to/lastmile_qr_scan", "android": "https://dc.lft.to/lastmile_qr_scan"}, "fusion_lon": 0.0, "lat": 38.911056333333335, "is_disabled": 0, "bike_id": "9225f1e11b1c50a46a85050f431aa47c", "fusion_lat": 0.0, "is_reserved": 0, "lon": -77.02417983333333}, {"type": "electric_scooter", "name": "4b956eb2c9671e36649b162f4027f1ec", "rental_uris": {"ios": "https://dc.lft.to/lastmile_qr_scan", "android": "https://dc.lft.to/lastmile_qr_scan"}, "fusion_lon": 0.0, "lat": 38.892308, "is_disabled": 0, "bike_id": "4b956eb2c9671e36649b162f4027f1ec", "fusion_lat": 0.0, "is_reserved": 0, "lon": -77.04154216666667}, {"type": "electric_scooter", "name": "783ae369c3aabc6057becbd377d40b87", "rental_uris": {"ios": "https://dc.lft.to/lastmile_qr_scan", "android": "https://dc.lft.to/lastmile_qr_scan"}, "fusion_lon": 0.0, "lat": 38.92415966666667, "is_disabled": 0, "bike_id": "783ae369c3aabc6057becbd377d40b87", "fusion_lat": 0.0, "is_reserved": 0, "lon": -77.02030433333333}, {"type": "electric_scooter", "name": "19574c2394c98aa56dacc9bad8ec5e47", "rental_uris": {"ios": "https://dc.lft.to/lastmile_qr_scan", "android": "https://dc.lft.to/lastmile_qr_scan"}, "fusion_lon": 0.0, "lat": 38.889094, "is_disabled": 0, "bike_id": "19574c2394c98aa56dacc9bad8ec5e47", "fusion_lat": 0.0, "is_reserved": 0, "lon": -76.936759}, {"type": "electric_scooter", "name": "4812192dc08810da0b8cdaaec059dc17", "rental_uris": {"ios": "https://dc.lft.to/lastmile_qr_scan", "android": "https://dc.lft.to/lastmile_qr_scan"}, "fusion_lon": 0.0, "lat": 38.8914215, "is_disabled": 0, "bike_id": "4812192dc08810da0b8cdaaec059dc17", "fusion_lat": 0.0, "is_reserved": 0, "lon": -76.99255783333334}, {"type": "electric_scooter", "name": "2c3cc73b3df912eecacfc298330a0c3e", "rental_uris": {"ios": "https://dc.lft.to/lastmile_qr_scan", "android": "https://dc.lft.to/lastmile_qr_scan"}, "fusion_lon": 0.0, "lat": 38.883026666666666, "is_disabled": 0, "bike_id": "2c3cc73b3df912eecacfc298330a0c3e", "fusion_lat": 0.0, "is_reserved": 0, "lon": -76.94855766666667}, {"type": "electric_scooter", "name": "b2fbe340fb4f72158a0576bd86bca33e", "rental_uris": {"ios": "https://dc.lft.to/lastmile_qr_scan", "android": "https://dc.lft.to/lastmile_qr_scan"}, "fusion_lon": 0.0, "lat": 38.91760216666667, "is_disabled": 0, "bike_id": "b2fbe340fb4f72158a0576bd86bca33e", "fusion_lat": 0.0, "is_reserved": 0, "lon": -77.02273833333334}, {"type": "electric_scooter", "name": "5a1b85a62510df69fb4a06300a204224", "rental_uris": {"ios": "https://dc.lft.to/lastmile_qr_scan", "android": "https://dc.lft.to/lastmile_qr_scan"}, "fusion_lon": 0.0, "lat": 38.9146225, "is_disabled": 0, "bike_id": "5a1b85a62510df69fb4a06300a204224", "fusion_lat": 0.0, "is_reserved": 0, "lon": -77.03885966666667}, {"type": "electric_scooter", "name": "f4af15ed404b045d2d45dc0a232e7fd2", "rental_uris": {"ios": "https://dc.lft.to/lastmile_qr_scan", "android": "https://dc.lft.to/lastmile_qr_scan"}, "fusion_lon": 0.0, "lat": 38.8972805, "is_disabled": 0, "bike_id": "f4af15ed404b045d2d45dc0a232e7fd2", "fusion_lat": 0.0, "is_reserved": 0, "lon": -77.04417416666666}, {"type": "electric_scooter", "name": "af177b4eb191c5f176c4a1cede0c3d72", "rental_uris": {"ios": "https://dc.lft.to/lastmile_qr_scan", "android": "https://dc.lft.to/lastmile_qr_scan"}, "fusion_lon": 0.0, "lat": 38.941803666666665, "is_disabled": 0, "bike_id": "af177b4eb191c5f176c4a1cede0c3d72", "fusion_lat": 0.0, "is_reserved": 0, "lon": -77.024088}, {"type": "electric_scooter", "name": "0f6e1b089f28a631e8e17686f7062130", "rental_uris": {"ios": "https://dc.lft.to/lastmile_qr_scan", "android": "https://dc.lft.to/lastmile_qr_scan"}, "fusion_lon": 0.0, "lat": 38.922421666666665, "is_disabled": 0, "bike_id": "0f6e1b089f28a631e8e17686f7062130", "fusion_lat": 0.0, "is_reserved": 0, "lon": -77.080809}, {"type": "electric_scooter", "name": "c997d91126639f3031f489bcdb8bd64c", "rental_uris": {"ios": "https://dc.lft.to/lastmile_qr_scan", "android": "https://dc.lft.to/lastmile_qr_scan"}, "fusion_lon": 0.0, "lat": 38.901839, "is_disabled": 0, "bike_id": "c997d91126639f3031f489bcdb8bd64c", "fusion_lat": 0.0, "is_reserved": 0, "lon": -77.01615466666667}, {"type": "electric_scooter", "name": "a8f79ae1a5f2044c80a4cfcd04f9c377", "rental_uris": {"ios": "https://dc.lft.to/lastmile_qr_scan", "android": "https://dc.lft.to/lastmile_qr_scan"}, "fusion_lon": 0.0, "lat": 38.905024, "is_disabled": 0, "bike_id": "a8f79ae1a5f2044c80a4cfcd04f9c377", "fusion_lat": 0.0, "is_reserved": 0, "lon": -77.01982566666666}, {"type": "electric_scooter", "name": "2dac15ea6dc85fd2414bd85d230b6d42", "rental_uris": {"ios": "https://dc.lft.to/lastmile_qr_scan", "android": "https://dc.lft.to/lastmile_qr_scan"}, "fusion_lon": 0.0, "lat": 38.91305916666666, "is_disabled": 0, "bike_id": "2dac15ea6dc85fd2414bd85d230b6d42", "fusion_lat": 0.0, "is_reserved": 0, "lon": -77.03185}, {"type": "electric_scooter", "name": "f61458352b7522898aa6facdec490214", "rental_uris": {"ios": "https://dc.lft.to/lastmile_qr_scan", "android": "https://dc.lft.to/lastmile_qr_scan"}, "fusion_lon": 0.0, "lat": 38.90956, "is_disabled": 0, "bike_id": "f61458352b7522898aa6facdec490214", "fusion_lat": 0.0, "is_reserved": 0, "lon": -77.0350455}, {"type": "electric_scooter", "name": "141eb8330659792f42fb28906d4e9d56", "rental_uris": {"ios": "https://dc.lft.to/lastmile_qr_scan", "android": "https://dc.lft.to/lastmile_qr_scan"}, "fusion_lon": 0.0, "lat": 38.94962783333333, "is_disabled": 0, "bike_id": "141eb8330659792f42fb28906d4e9d56", "fusion_lat": 0.0, "is_reserved": 0, "lon": -77.075293}, {"type": "electric_scooter", "name": "1a57176a38cf44efdfe157f6ad1b0f7b", "rental_uris": {"ios": "https://dc.lft.to/lastmile_qr_scan", "android": "https://dc.lft.to/lastmile_qr_scan"}, "fusion_lon": 0.0, "lat": 38.9347025, "is_disabled": 0, "bike_id": "1a57176a38cf44efdfe157f6ad1b0f7b", "fusion_lat": 0.0, "is_reserved": 0, "lon": -77.02974116666667}, {"type": "electric_scooter", "name": "307fcc71403548c3c9087b797762dba1", "rental_uris": {"ios": "https://dc.lft.to/lastmile_qr_scan", "android": "https://dc.lft.to/lastmile_qr_scan"}, "fusion_lon": 0.0, "lat": 38.909966, "is_disabled": 0, "bike_id": "307fcc71403548c3c9087b797762dba1", "fusion_lat": 0.0, "is_reserved": 0, "lon": -77.026985}, {"type": "electric_scooter", "name": "6eeeaed5bb28e4a1afd59becb6cfcee9", "rental_uris": {"ios": "https://dc.lft.to/lastmile_qr_scan", "android": "https://dc.lft.to/lastmile_qr_scan"}, "fusion_lon": 0.0, "lat": 38.88384633333333, "is_disabled": 0, "bike_id": "6eeeaed5bb28e4a1afd59becb6cfcee9", "fusion_lat": 0.0, "is_reserved": 0, "lon": -76.93043783333333}, {"type": "electric_scooter", "name": "f4ed9cd3ca91685692d15985e6306b32", "rental_uris": {"ios": "https://dc.lft.to/lastmile_qr_scan", "android": "https://dc.lft.to/lastmile_qr_scan"}, "fusion_lon": 0.0, "lat": 38.936232, "is_disabled": 0, "bike_id": "f4ed9cd3ca91685692d15985e6306b32", "fusion_lat": 0.0, "is_reserved": 0, "lon": -77.0246045}, {"type": "electric_scooter", "name": "8afdd54f01273f950ea862802581b167", "rental_uris": {"ios": "https://dc.lft.to/lastmile_qr_scan", "android": "https://dc.lft.to/lastmile_qr_scan"}, "fusion_lon": 0.0, "lat": 38.90578983333333, "is_disabled": 0, "bike_id": "8afdd54f01273f950ea862802581b167", "fusion_lat": 0.0, "is_reserved": 0, "lon": -77.022095}, {"type": "electric_scooter", "name": "0403f83ed86fa0fad7ed91ab6d463acd", "rental_uris": {"ios": "https://dc.lft.to/lastmile_qr_scan", "android": "https://dc.lft.to/lastmile_qr_scan"}, "fusion_lon": 0.0, "lat": 38.905486333333336, "is_disabled": 0, "bike_id": "0403f83ed86fa0fad7ed91ab6d463acd", "fusion_lat": 0.0, "is_reserved": 0, "lon": -77.02220266666667}, {"type": "electric_scooter", "name": "45b8bca3f8424878725d9f26bc6e3fb2", "rental_uris": {"ios": "https://dc.lft.to/lastmile_qr_scan", "android": "https://dc.lft.to/lastmile_qr_scan"}, "fusion_lon": 0.0, "lat": 38.92411416666667, "is_disabled": 0, "bike_id": "45b8bca3f8424878725d9f26bc6e3fb2", "fusion_lat": 0.0, "is_reserved": 0, "lon": -77.02036433333333}, {"type": "electric_scooter", "name": "751b24a1915fea5e37651a0d25e4f0fe", "rental_uris": {"ios": "https://dc.lft.to/lastmile_qr_scan", "android": "https://dc.lft.to/lastmile_qr_scan"}, "fusion_lon": 0.0, "lat": 38.895952, "is_disabled": 0, "bike_id": "751b24a1915fea5e37651a0d25e4f0fe", "fusion_lat": 0.0, "is_reserved": 0, "lon": -77.02314916666667}, {"type": "electric_scooter", "name": "04e2067d640fb7399fffc0d02b63d987", "rental_uris": {"ios": "https://dc.lft.to/lastmile_qr_scan", "android": "https://dc.lft.to/lastmile_qr_scan"}, "fusion_lon": 0.0, "lat": 38.91775633333334, "is_disabled": 0, "bike_id": "04e2067d640fb7399fffc0d02b63d987", "fusion_lat": 0.0, "is_reserved": 0, "lon": -77.02220733333333}, {"type": "electric_scooter", "name": "c6b3a99ff7e490455a8c931af17b16f3", "rental_uris": {"ios": "https://dc.lft.to/lastmile_qr_scan", "android": "https://dc.lft.to/lastmile_qr_scan"}, "fusion_lon": 0.0, "lat": 38.89899366666667, "is_disabled": 0, "bike_id": "c6b3a99ff7e490455a8c931af17b16f3", "fusion_lat": 0.0, "is_reserved": 0, "lon": -77.00225766666667}, {"type": "electric_scooter", "name": "d15c7d95c5292dcfd28bf12c5a5bd155", "rental_uris": {"ios": "https://dc.lft.to/lastmile_qr_scan", "android": "https://dc.lft.to/lastmile_qr_scan"}, "fusion_lon": 0.0, "lat": 38.93605433333333, "is_disabled": 0, "bike_id": "d15c7d95c5292dcfd28bf12c5a5bd155", "fusion_lat": 0.0, "is_reserved": 0, "lon": -77.05862666666667}, {"type": "electric_scooter", "name": "b97bb958591577776571e988ff233203", "rental_uris": {"ios": "https://dc.lft.to/lastmile_qr_scan", "android": "https://dc.lft.to/lastmile_qr_scan"}, "fusion_lon": 0.0, "lat": 38.87646816666667, "is_disabled": 0, "bike_id": "b97bb958591577776571e988ff233203", "fusion_lat": 0.0, "is_reserved": 0, "lon": -77.00919366666666}, {"type": "electric_scooter", "name": "5f60bd1faa7dfe8ae38ee01a33304009", "rental_uris": {"ios": "https://dc.lft.to/lastmile_qr_scan", "android": "https://dc.lft.to/lastmile_qr_scan"}, "fusion_lon": 0.0, "lat": 38.9026715, "is_disabled": 0, "bike_id": "5f60bd1faa7dfe8ae38ee01a33304009", "fusion_lat": 0.0, "is_reserved": 0, "lon": -77.05316566666667}, {"type": "electric_scooter", "name": "1d748c04ff6443692e19371526f7f3e1", "rental_uris": {"ios": "https://dc.lft.to/lastmile_qr_scan", "android": "https://dc.lft.to/lastmile_qr_scan"}, "fusion_lon": 0.0, "lat": 38.924850166666666, "is_disabled": 0, "bike_id": "1d748c04ff6443692e19371526f7f3e1", "fusion_lat": 0.0, "is_reserved": 0, "lon": -77.02654183333334}, {"type": "electric_scooter", "name": "7fef2db9aafda2fc27d0b6b209c2657e", "rental_uris": {"ios": "https://dc.lft.to/lastmile_qr_scan", "android": "https://dc.lft.to/lastmile_qr_scan"}, "fusion_lon": 0.0, "lat": 38.96506216666667, "is_disabled": 0, "bike_id": "7fef2db9aafda2fc27d0b6b209c2657e", "fusion_lat": 0.0, "is_reserved": 0, "lon": -77.02593433333334}, {"type": "electric_scooter", "name": "e41b9d4c942ab698bfa87714f4b0f4b3", "rental_uris": {"ios": "https://dc.lft.to/lastmile_qr_scan", "android": "https://dc.lft.to/lastmile_qr_scan"}, "fusion_lon": 0.0, "lat": 38.90459666666667, "is_disabled": 0, "bike_id": "e41b9d4c942ab698bfa87714f4b0f4b3", "fusion_lat": 0.0, "is_reserved": 0, "lon": -77.04332666666667}, {"type": "electric_scooter", "name": "aa8b61b5cf5e063c03a1243ee656b9d7", "rental_uris": {"ios": "https://dc.lft.to/lastmile_qr_scan", "android": "https://dc.lft.to/lastmile_qr_scan"}, "fusion_lon": 0.0, "lat": 38.90807683333333, "is_disabled": 0, "bike_id": "aa8b61b5cf5e063c03a1243ee656b9d7", "fusion_lat": 0.0, "is_reserved": 0, "lon": -77.04339883333333}, {"type": "electric_scooter", "name": "4fe9edf92fc406e8bb9bbb8215c0c69b", "rental_uris": {"ios": "https://dc.lft.to/lastmile_qr_scan", "android": "https://dc.lft.to/lastmile_qr_scan"}, "fusion_lon": 0.0, "lat": 38.88488533333334, "is_disabled": 0, "bike_id": "4fe9edf92fc406e8bb9bbb8215c0c69b", "fusion_lat": 0.0, "is_reserved": 0, "lon": -77.0071105}, {"type": "electric_scooter", "name": "68c6d4254b7ec3b0c4c9ae955a83fee5", "rental_uris": {"ios": "https://dc.lft.to/lastmile_qr_scan", "android": "https://dc.lft.to/lastmile_qr_scan"}, "fusion_lon": 0.0, "lat": 38.86759083333333, "is_disabled": 0, "bike_id": "68c6d4254b7ec3b0c4c9ae955a83fee5", "fusion_lat": 0.0, "is_reserved": 0, "lon": -76.9827625}, {"type": "electric_scooter", "name": "52cddc09a19006c13bf86baeddb01046", "rental_uris": {"ios": "https://dc.lft.to/lastmile_qr_scan", "android": "https://dc.lft.to/lastmile_qr_scan"}, "fusion_lon": 0.0, "lat": 38.91555816666666, "is_disabled": 0, "bike_id": "52cddc09a19006c13bf86baeddb01046", "fusion_lat": 0.0, "is_reserved": 0, "lon": -77.0313955}, {"type": "electric_scooter", "name": "7d1b5954810adda8d1bc0a332da4d022", "rental_uris": {"ios": "https://dc.lft.to/lastmile_qr_scan", "android": "https://dc.lft.to/lastmile_qr_scan"}, "fusion_lon": 0.0, "lat": 38.89433966666667, "is_disabled": 0, "bike_id": "7d1b5954810adda8d1bc0a332da4d022", "fusion_lat": 0.0, "is_reserved": 0, "lon": -76.97718066666667}, {"type": "electric_scooter", "name": "029604560772fcd642ab3645aa0cb28f", "rental_uris": {"ios": "https://dc.lft.to/lastmile_qr_scan", "android": "https://dc.lft.to/lastmile_qr_scan"}, "fusion_lon": 0.0, "lat": 38.903375833333335, "is_disabled": 0, "bike_id": "029604560772fcd642ab3645aa0cb28f", "fusion_lat": 0.0, "is_reserved": 0, "lon": -77.043372}, {"type": "electric_scooter", "name": "0be38dea5499c2f4f85e7af6bdbdaf4d", "rental_uris": {"ios": "https://dc.lft.to/lastmile_qr_scan", "android": "https://dc.lft.to/lastmile_qr_scan"}, "fusion_lon": 0.0, "lat": 38.916728166666665, "is_disabled": 0, "bike_id": "0be38dea5499c2f4f85e7af6bdbdaf4d", "fusion_lat": 0.0, "is_reserved": 0, "lon": -77.00349316666667}, {"type": "electric_scooter", "name": "5c53a5df4de9d30f128a1ec15f102e9b", "rental_uris": {"ios": "https://dc.lft.to/lastmile_qr_scan", "android": "https://dc.lft.to/lastmile_qr_scan"}, "fusion_lon": 0.0, "lat": 38.90781833333333, "is_disabled": 0, "bike_id": "5c53a5df4de9d30f128a1ec15f102e9b", "fusion_lat": 0.0, "is_reserved": 0, "lon": -77.03859933333334}, {"type": "electric_scooter", "name": "1f05e2aab9e9fcd79da7e176e5e0447f", "rental_uris": {"ios": "https://dc.lft.to/lastmile_qr_scan", "android": "https://dc.lft.to/lastmile_qr_scan"}, "fusion_lon": 0.0, "lat": 38.920345, "is_disabled": 0, "bike_id": "1f05e2aab9e9fcd79da7e176e5e0447f", "fusion_lat": 0.0, "is_reserved": 0, "lon": -77.021833}, {"type": "electric_scooter", "name": "a94742e728c998fb73bb3fdc9ec9a169", "rental_uris": {"ios": "https://dc.lft.to/lastmile_qr_scan", "android": "https://dc.lft.to/lastmile_qr_scan"}, "fusion_lon": 0.0, "lat": 38.91190016666667, "is_disabled": 0, "bike_id": "a94742e728c998fb73bb3fdc9ec9a169", "fusion_lat": 0.0, "is_reserved": 0, "lon": -77.032519}, {"type": "electric_bike", "name": "413925d9632fbd912aa105cb2ae8024c", "rental_uris": {"ios": "https://dc.lft.to/lastmile_qr_scan", "android": "https://dc.lft.to/lastmile_qr_scan"}, "fusion_lon": 0.0, "lat": 38.95971183333333, "is_disabled": 0, "bike_id": "413925d9632fbd912aa105cb2ae8024c", "fusion_lat": 0.0, "is_reserved": 0, "lon": -76.98164383333334}, {"type": "electric_scooter", "name": "7380961775ac4300a3421422a5a785f8", "rental_uris": {"ios": "https://dc.lft.to/lastmile_qr_scan", "android": "https://dc.lft.to/lastmile_qr_scan"}, "fusion_lon": 0.0, "lat": 38.9247815, "is_disabled": 0, "bike_id": "7380961775ac4300a3421422a5a785f8", "fusion_lat": 0.0, "is_reserved": 0, "lon": -77.02753133333333}, {"type": "electric_scooter", "name": "6c3eed70d71926ec9317926a18f3e071", "rental_uris": {"ios": "https://dc.lft.to/lastmile_qr_scan", "android": "https://dc.lft.to/lastmile_qr_scan"}, "fusion_lon": 0.0, "lat": 38.9073495, "is_disabled": 0, "bike_id": "6c3eed70d71926ec9317926a18f3e071", "fusion_lat": 0.0, "is_reserved": 0, "lon": -77.02692266666666}, {"type": "electric_scooter", "name": "21470bb4de809c23c638f0fe7504b037", "rental_uris": {"ios": "https://dc.lft.to/lastmile_qr_scan", "android": "https://dc.lft.to/lastmile_qr_scan"}, "fusion_lon": 0.0, "lat": 38.892218666666665, "is_disabled": 0, "bike_id": "21470bb4de809c23c638f0fe7504b037", "fusion_lat": 0.0, "is_reserved": 0, "lon": -77.0486655}, {"type": "electric_scooter", "name": "4bcb3c8a4ee60a8b34e683be6197cc93", "rental_uris": {"ios": "https://dc.lft.to/lastmile_qr_scan", "android": "https://dc.lft.to/lastmile_qr_scan"}, "fusion_lon": 0.0, "lat": 38.89819416666667, "is_disabled": 0, "bike_id": "4bcb3c8a4ee60a8b34e683be6197cc93", "fusion_lat": 0.0, "is_reserved": 0, "lon": -77.03278783333333}, {"type": "electric_bike", "name": "844d3732fd9c0163cf478fbb3fc50069", "rental_uris": {"ios": "https://dc.lft.to/lastmile_qr_scan", "android": "https://dc.lft.to/lastmile_qr_scan"}, "fusion_lon": 0.0, "lat": 38.957575166666665, "is_disabled": 0, "bike_id": "844d3732fd9c0163cf478fbb3fc50069", "fusion_lat": 0.0, "is_reserved": 0, "lon": -76.98093333333334}, {"type": "electric_scooter", "name": "bd013d37d2519f7eccdcb677e629d222", "rental_uris": {"ios": "https://dc.lft.to/lastmile_qr_scan", "android": "https://dc.lft.to/lastmile_qr_scan"}, "fusion_lon": 0.0, "lat": 38.93229133333333, "is_disabled": 0, "bike_id": "bd013d37d2519f7eccdcb677e629d222", "fusion_lat": 0.0, "is_reserved": 0, "lon": -76.995381}, {"type": "electric_scooter", "name": "ba95453933d99090c885be5498499278", "rental_uris": {"ios": "https://dc.lft.to/lastmile_qr_scan", "android": "https://dc.lft.to/lastmile_qr_scan"}, "fusion_lon": 0.0, "lat": 38.919335, "is_disabled": 0, "bike_id": "ba95453933d99090c885be5498499278", "fusion_lat": 0.0, "is_reserved": 0, "lon": -77.04504133333333}, {"type": "electric_scooter", "name": "012f896cdebe860c34eecec21aa28ed8", "rental_uris": {"ios": "https://dc.lft.to/lastmile_qr_scan", "android": "https://dc.lft.to/lastmile_qr_scan"}, "fusion_lon": 0.0, "lat": 38.89529, "is_disabled": 0, "bike_id": "012f896cdebe860c34eecec21aa28ed8", "fusion_lat": 0.0, "is_reserved": 0, "lon": -76.94893633333334}, {"type": "electric_scooter", "name": "2758bcb13d4fbdc09278430d116322b1", "rental_uris": {"ios": "https://dc.lft.to/lastmile_qr_scan", "android": "https://dc.lft.to/lastmile_qr_scan"}, "fusion_lon": 0.0, "lat": 38.91097766666667, "is_disabled": 0, "bike_id": "2758bcb13d4fbdc09278430d116322b1", "fusion_lat": 0.0, "is_reserved": 0, "lon": -77.0280255}, {"type": "electric_scooter", "name": "92d28cbcf45443637d41b4082f0c6664", "rental_uris": {"ios": "https://dc.lft.to/lastmile_qr_scan", "android": "https://dc.lft.to/lastmile_qr_scan"}, "fusion_lon": 0.0, "lat": 38.87991983333333, "is_disabled": 0, "bike_id": "92d28cbcf45443637d41b4082f0c6664", "fusion_lat": 0.0, "is_reserved": 0, "lon": -77.0240465}, {"type": "electric_scooter", "name": "d8e96e6b28d934ec3375788f4693d78a", "rental_uris": {"ios": "https://dc.lft.to/lastmile_qr_scan", "android": "https://dc.lft.to/lastmile_qr_scan"}, "fusion_lon": 0.0, "lat": 38.857953, "is_disabled": 0, "bike_id": "d8e96e6b28d934ec3375788f4693d78a", "fusion_lat": 0.0, "is_reserved": 0, "lon": -76.98910616666667}, {"type": "electric_bike", "name": "96f0d75a1e070045303304b82b6c1d6f", "rental_uris": {"ios": "https://dc.lft.to/lastmile_qr_scan", "android": "https://dc.lft.to/lastmile_qr_scan"}, "fusion_lon": 0.0, "lat": 38.79856816666667, "is_disabled": 0, "bike_id": "96f0d75a1e070045303304b82b6c1d6f", "fusion_lat": 0.0, "is_reserved": 0, "lon": -77.063078}, {"type": "electric_bike", "name": "72a1f67533e6e89aafcf927df64a4fd9", "rental_uris": {"ios": "https://dc.lft.to/lastmile_qr_scan", "android": "https://dc.lft.to/lastmile_qr_scan"}, "fusion_lon": 0.0, "lat": 38.94433933333333, "is_disabled": 0, "bike_id": "72a1f67533e6e89aafcf927df64a4fd9", "fusion_lat": 0.0, "is_reserved": 0, "lon": -77.0260425}, {"type": "electric_scooter", "name": "dd0ccef53d7acc60cd0651e9d910bbce", "rental_uris": {"ios": "https://dc.lft.to/lastmile_qr_scan", "android": "https://dc.lft.to/lastmile_qr_scan"}, "fusion_lon": 0.0, "lat": 38.9169185, "is_disabled": 0, "bike_id": "dd0ccef53d7acc60cd0651e9d910bbce", "fusion_lat": 0.0, "is_reserved": 0, "lon": -77.03140016666667}, {"type": "electric_scooter", "name": "6d775ad23cbbf2718184909ec27614a4", "rental_uris": {"ios": "https://dc.lft.to/lastmile_qr_scan", "android": "https://dc.lft.to/lastmile_qr_scan"}, "fusion_lon": 0.0, "lat": 38.91114066666667, "is_disabled": 0, "bike_id": "6d775ad23cbbf2718184909ec27614a4", "fusion_lat": 0.0, "is_reserved": 0, "lon": -77.02232683333334}, {"type": "electric_bike", "name": "67eae24b7e618f801f62eb8e39de014f", "rental_uris": {"ios": "https://dc.lft.to/lastmile_qr_scan", "android": "https://dc.lft.to/lastmile_qr_scan"}, "fusion_lon": 0.0, "lat": 38.857754666666665, "is_disabled": 0, "bike_id": "67eae24b7e618f801f62eb8e39de014f", "fusion_lat": 0.0, "is_reserved": 0, "lon": -76.9875775}, {"type": "electric_scooter", "name": "0cf4f6159507213d2ceb07b822f284e1", "rental_uris": {"ios": "https://dc.lft.to/lastmile_qr_scan", "android": "https://dc.lft.to/lastmile_qr_scan"}, "fusion_lon": 0.0, "lat": 38.93946316666667, "is_disabled": 0, "bike_id": "0cf4f6159507213d2ceb07b822f284e1", "fusion_lat": 0.0, "is_reserved": 0, "lon": -77.08591166666666}, {"type": "electric_scooter", "name": "267b5344619ca76da064f58b22bac498", "rental_uris": {"ios": "https://dc.lft.to/lastmile_qr_scan", "android": "https://dc.lft.to/lastmile_qr_scan"}, "fusion_lon": 0.0, "lat": 38.92495316666667, "is_disabled": 0, "bike_id": "267b5344619ca76da064f58b22bac498", "fusion_lat": 0.0, "is_reserved": 0, "lon": -77.02154133333333}, {"type": "electric_scooter", "name": "3764413a137418d190dc9cf67ffa9267", "rental_uris": {"ios": "https://dc.lft.to/lastmile_qr_scan", "android": "https://dc.lft.to/lastmile_qr_scan"},