{"data": {"bikes": [{"type": "electric_bike", "name": "405a83a98e5b81c6fce86fc396fe3100", "fusion_lon": 0.0, "is_reserved": 0, "lon": -76.97552383333333, "fusion_lat": 0.0, "is_disabled": 0, "bike_id": "405a83a98e5b81c6fce86fc396fe3100", "lat": 38.840453, "rental_uris": {"ios": "https://dc.lft.to/lastmile_qr_scan", "android": "https://dc.lft.to/lastmile_qr_scan"}}, {"type": "electric_scooter", "name": "8685eef75d936dd19278ccb4c6608324", "fusion_lon": 0.0, "is_reserved": 0, "lon": -77.00078166666667, "fusion_lat": 0.0, "is_disabled": 0, "bike_id": "8685eef75d936dd19278ccb4c6608324", "lat": 38.8758955, "rental_uris": {"ios": "https://dc.lft.to/lastmile_qr_scan", "android": "https://dc.lft.to/lastmile_qr_scan"}}, {"type": "electric_bike", "name": "3d4e159a1e03821e4586526189289ed5", "fusion_lon": 0.0, "is_reserved": 0, "lon": -77.08305766666666, "fusion_lat": 0.0, "is_disabled": 0, "bike_id": "3d4e159a1e03821e4586526189289ed5", "lat": 38.854405, "rental_uris": {"ios": "https://dc.lft.to/lastmile_qr_scan", "android": "https://dc.lft.to/lastmile_qr_scan"}}, {"type": "electric_scooter", "name": "b6ca1ca81c9d939e04758a82af55310b", "fusion_lon": 0.0, "is_reserved": 0, "lon": -77.03981383333333, "fusion_lat": 0.0, "is_disabled": 0, "bike_id": "b6ca1ca81c9d939e04758a82af55310b", "lat": 38.906069333333335, "rental_uris": {"ios": "https://dc.lft.to/lastmile_qr_scan", "android": "https://dc.lft.to/lastmile_qr_scan"}}, {"type": "electric_scooter", "name": "cb625d73ecfa579db3e21c9e26356d5c", "fusion_lon": 0.0, "is_reserved": 0, "lon": -77.0506675, "fusion_lat": 0.0, "is_disabled": 0, "bike_id": "cb625d73ecfa579db3e21c9e26356d5c", "lat": 38.9241805, "rental_uris": {"ios": "https://dc.lft.to/lastmile_qr_scan", "android": "https://dc.lft.to/lastmile_qr_scan"}}, {"type": "electric_bike", "name": "158e94fd49409064c345572a476d388c", "fusion_lon": 0.0, "is_reserved": 0, "lon": -77.02820033333333, "fusion_lat": 0.0, "is_disabled": 0, "bike_id": "158e94fd49409064c345572a476d388c", "lat": 38.91356616666667, "rental_uris": {"ios": "https://dc.lft.to/lastmile_qr_scan", "android": "https://dc.lft.to/lastmile_qr_scan"}}, {"type": "electric_scooter", "name": "3dfd5793021b975db82dfe3a3eb43080", "fusion_lon": 0.0, "is_reserved": 0, "lon": -77.02381383333334, "fusion_lat": 0.0, "is_disabled": 0, "bike_id": "3dfd5793021b975db82dfe3a3eb43080", "lat": 38.8873615, "rental_uris": {"ios": "https://dc.lft.to/lastmile_qr_scan", "android": "https://dc.lft.to/lastmile_qr_scan"}}, {"type": "electric_scooter", "name": "b7f211563cbee9cebb1e721ff934e22e", "fusion_lon": 0.0, "is_reserved": 0, "lon": -77.021661, "fusion_lat": 0.0, "is_disabled": 0, "bike_id": "b7f211563cbee9cebb1e721ff934e22e", "lat": 38.9148215, "rental_uris": {"ios": "https://dc.lft.to/lastmile_qr_scan", "android": "https://dc.lft.to/lastmile_qr_scan"}}, {"type": "electric_scooter", "name": "622e93ab5cc85b7bbee1d6968890d886", "fusion_lon": 0.0, "is_reserved": 0, "lon": -77.03099816666666, "fusion_lat": 0.0, "is_disabled": 0, "bike_id": "622e93ab5cc85b7bbee1d6968890d886", "lat": 38.91693083333333, "rental_uris": {"ios": "https://dc.lft.to/lastmile_qr_scan", "android": "https://dc.lft.to/lastmile_qr_scan"}}, {"type": "electric_scooter", "name": "59a590d6a2f792b9e42a4dd1f3152775", "fusion_lon": 0.0, "is_reserved": 0, "lon": -77.03942566666667, "fusion_lat": 0.0, "is_disabled": 0, "bike_id": "59a590d6a2f792b9e42a4dd1f3152775", "lat": 38.9306795, "rental_uris": {"ios": "https://dc.lft.to/lastmile_qr_scan", "android": "https://dc.lft.to/lastmile_qr_scan"}}, {"type": "electric_scooter", "name": "147e4d0217445403cc31ccc27e17b156", "fusion_lon": 0.0, "is_reserved": 0, "lon": -77.02175983333333, "fusion_lat": 0.0, "is_disabled": 0, "bike_id": "147e4d0217445403cc31ccc27e17b156", "lat": 38.92860066666667, "rental_uris": {"ios": "https://dc.lft.to/lastmile_qr_scan", "android": "https://dc.lft.to/lastmile_qr_scan"}}, {"type": "electric_scooter", "name": "056f7b90cc4f9df9b32ff02a9bfb150c", "fusion_lon": 0.0, "is_reserved": 0, "lon": -77.03765733333333, "fusion_lat": 0.0, "is_disabled": 0, "bike_id": "056f7b90cc4f9df9b32ff02a9bfb150c", "lat": 38.9169645, "rental_uris": {"ios": "https://dc.lft.to/lastmile_qr_scan", "android": "https://dc.lft.to/lastmile_qr_scan"}}, {"type": "electric_scooter", "name": "0fe18ced7b5df528144dc44dfc973034", "fusion_lon": 0.0, "is_reserved": 0, "lon": -77.00754616666667, "fusion_lat": 0.0, "is_disabled": 0, "bike_id": "0fe18ced7b5df528144dc44dfc973034", "lat": 38.89739483333334, "rental_uris": {"ios": "https://dc.lft.to/lastmile_qr_scan", "android": "https://dc.lft.to/lastmile_qr_scan"}}, {"type": "electric_bike", "name": "f87c09d84be44e5621a914dbfe8bbd7a", "fusion_lon": 0.0, "is_reserved": 0, "lon": -76.973407, "fusion_lat": 0.0, "is_disabled": 0, "bike_id": "f87c09d84be44e5621a914dbfe8bbd7a", "lat": 38.86521533333333, "rental_uris": {"ios": "https://dc.lft.to/lastmile_qr_scan", "android": "https://dc.lft.to/lastmile_qr_scan"}}, {"type": "electric_scooter", "name": "0b2579f1a1a34caedb9ee558173b4ebd", "fusion_lon": 0.0, "is_reserved": 0, "lon": -77.0403795, "fusion_lat": 0.0, "is_disabled": 0, "bike_id": "0b2579f1a1a34caedb9ee558173b4ebd", "lat": 38.924391, "rental_uris": {"ios": "https://dc.lft.to/lastmile_qr_scan", "android": "https://dc.lft.to/lastmile_qr_scan"}}, {"type": "electric_scooter", "name": "bfc371ae990f92709596ffb17e70966d", "fusion_lon": 0.0, "is_reserved": 0, "lon": -76.981525, "fusion_lat": 0.0, "is_disabled": 0, "bike_id": "bfc371ae990f92709596ffb17e70966d", "lat": 38.903232, "rental_uris": {"ios": "https://dc.lft.to/lastmile_qr_scan", "android": "https://dc.lft.to/lastmile_qr_scan"}}, {"type": "electric_scooter", "name": "753950f8bc28389e3189b8dede1cbaaa", "fusion_lon": 0.0, "is_reserved": 0, "lon": -77.03437483333333, "fusion_lat": 0.0, "is_disabled": 0, "bike_id": "753950f8bc28389e3189b8dede1cbaaa", "lat": 38.904838833333336, "rental_uris": {"ios": "https://dc.lft.to/lastmile_qr_scan", "android": "https://dc.lft.to/lastmile_qr_scan"}}, {"type": "electric_bike", "name": "f4118d37cd0326b19ca1e242282378fe", "fusion_lon": 0.0, "is_reserved": 0, "lon": -77.09614183333333, "fusion_lat": 0.0, "is_disabled": 0, "bike_id": "f4118d37cd0326b19ca1e242282378fe", "lat": 38.87889416666667, "rental_uris": {"ios": "https://dc.lft.to/lastmile_qr_scan", "android": "https://dc.lft.to/lastmile_qr_scan"}}, {"type": "electric_scooter", "name": "e3dd95254f1dda0bae8df2159d30e41a", "fusion_lon": 0.0, "is_reserved": 0, "lon": -77.04194183333334, "fusion_lat": 0.0, "is_disabled": 0, "bike_id": "e3dd95254f1dda0bae8df2159d30e41a", "lat": 38.920378666666664, "rental_uris": {"ios": "https://dc.lft.to/lastmile_qr_scan", "android": "https://dc.lft.to/lastmile_qr_scan"}}, {"type": "electric_scooter", "name": "abe16c503263b73633ce79c5ecdbd906", "fusion_lon": 0.0, "is_reserved": 0, "lon": -77.03405666666667, "fusion_lat": 0.0, "is_disabled": 0, "bike_id": "abe16c503263b73633ce79c5ecdbd906", "lat": 38.919258166666665, "rental_uris": {"ios": "https://dc.lft.to/lastmile_qr_scan", "android": "https://dc.lft.to/lastmile_qr_scan"}}, {"type": "electric_scooter", "name": "e9409e038454fd505a6929450d14870a", "fusion_lon": 0.0, "is_reserved": 0, "lon": -77.036583, "fusion_lat": 0.0, "is_disabled": 0, "bike_id": "e9409e038454fd505a6929450d14870a", "lat": 38.91746, "rental_uris": {"ios": "https://dc.lft.to/lastmile_qr_scan", "android": "https://dc.lft.to/lastmile_qr_scan"}}, {"type": "electric_scooter", "name": "06298e46943b309e22e7eacb08d82482", "fusion_lon": 0.0, "is_reserved": 0, "lon": -76.94153983333334, "fusion_lat": 0.0, "is_disabled": 0, "bike_id": "06298e46943b309e22e7eacb08d82482", "lat": 38.88361833333333, "rental_uris": {"ios": "https://dc.lft.to/lastmile_qr_scan", "android": "https://dc.lft.to/lastmile_qr_scan"}}, {"type": "electric_scooter", "name": "15b8a40f07248d060ee5d4e343d7eaf2", "fusion_lon": 0.0, "is_reserved": 0, "lon": -77.04658533333334, "fusion_lat": 0.0, "is_disabled": 0, "bike_id": "15b8a40f07248d060ee5d4e343d7eaf2", "lat": 38.91371016666667, "rental_uris": {"ios": "https://dc.lft.to/lastmile_qr_scan", "android": "https://dc.lft.to/lastmile_qr_scan"}}, {"type": "electric_scooter", "name": "348c38033148ed2218e0369ce0d38d49", "fusion_lon": 0.0, "is_reserved": 0, "lon": -77.03971883333334, "fusion_lat": 0.0, "is_disabled": 0, "bike_id": "348c38033148ed2218e0369ce0d38d49", "lat": 38.90194133333333, "rental_uris": {"ios": "https://dc.lft.to/lastmile_qr_scan", "android": "https://dc.lft.to/lastmile_qr_scan"}}, {"type": "electric_scooter", "name": "8cbe996ec262c145858cd7d114e17f8b", "fusion_lon": 0.0, "is_reserved": 0, "lon": -77.03307666666667, "fusion_lat": 0.0, "is_disabled": 0, "bike_id": "8cbe996ec262c145858cd7d114e17f8b", "lat": 38.90047933333334, "rental_uris": {"ios": "https://dc.lft.to/lastmile_qr_scan", "android": "https://dc.lft.to/lastmile_qr_scan"}}, {"type": "electric_scooter", "name": "7914f9965b0a74db48d92ffa16456433", "fusion_lon": 0.0, "is_reserved": 0, "lon": -77.02978933333333, "fusion_lat": 0.0, "is_disabled": 0, "bike_id": "7914f9965b0a74db48d92ffa16456433", "lat": 38.904740833333335, "rental_uris": {"ios": "https://dc.lft.to/lastmile_qr_scan", "android": "https://dc.lft.to/lastmile_qr_scan"}}, {"type": "electric_scooter", "name": "f8b5d142455d5a768ed3e1147bbce8d6", "fusion_lon": 0.0, "is_reserved": 0, "lon": -77.00041333333333, "fusion_lat": 0.0, "is_disabled": 0, "bike_id": "f8b5d142455d5a768ed3e1147bbce8d6", "lat": 38.88129716666667, "rental_uris": {"ios": "https://dc.lft.to/lastmile_qr_scan", "android": "https://dc.lft.to/lastmile_qr_scan"}}, {"type": "electric_bike", "name": "018ab36e206ce106012916772a4453c7", "fusion_lon": 0.0, "is_reserved": 0, "lon": -77.02397633333334, "fusion_lat": 0.0, "is_disabled": 0, "bike_id": "018ab36e206ce106012916772a4453c7", "lat": 38.95298483333333, "rental_uris": {"ios": "https://dc.lft.to/lastmile_qr_scan", "android": "https://dc.lft.to/lastmile_qr_scan"}}, {"type": "electric_scooter", "name": "ab7ec3dcbcd2fc1b45440acf0b611828", "fusion_lon": 0.0, "is_reserved": 0, "lon": -77.04489316666667, "fusion_lat": 0.0, "is_disabled": 0, "bike_id": "ab7ec3dcbcd2fc1b45440acf0b611828", "lat": 38.922296833333334, "rental_uris": {"ios": "https://dc.lft.to/lastmile_qr_scan", "android": "https://dc.lft.to/lastmile_qr_scan"}}, {"type": "electric_scooter", "name": "c62560826656ecf9a4c066c61f59e79d", "fusion_lon": 0.0, "is_reserved": 0, "lon": -77.07893366666667, "fusion_lat": 0.0, "is_disabled": 0, "bike_id": "c62560826656ecf9a4c066c61f59e79d", "lat": 38.91927583333333, "rental_uris": {"ios": "https://dc.lft.to/lastmile_qr_scan", "android": "https://dc.lft.to/lastmile_qr_scan"}}, {"type": "electric_bike", "name": "e5a6963db25436bf01d767728a842ce7", "fusion_lon": 0.0, "is_reserved": 0, "lon": -77.03152116666666, "fusion_lat": 0.0, "is_disabled": 0, "bike_id": "e5a6963db25436bf01d767728a842ce7", "lat": 38.951567833333335, "rental_uris": {"ios": "https://dc.lft.to/lastmile_qr_scan", "android": "https://dc.lft.to/lastmile_qr_scan"}}, {"type": "electric_scooter", "name": "68b55eee875c84ae24fc2cc6812f9bf1", "fusion_lon": 0.0, "is_reserved": 0, "lon": -77.046506, "fusion_lat": 0.0, "is_disabled": 0, "bike_id": "68b55eee875c84ae24fc2cc6812f9bf1", "lat": 38.905424, "rental_uris": {"ios": "https://dc.lft.to/lastmile_qr_scan", "android": "https://dc.lft.to/lastmile_qr_scan"}}, {"type": "electric_scooter", "name": "1eaa294ddef44309f1d407fb83165424", "fusion_lon": 0.0, "is_reserved": 0, "lon": -77.04189466666666, "fusion_lat": 0.0, "is_disabled": 0, "bike_id": "1eaa294ddef44309f1d407fb83165424", "lat": 38.92085333333333, "rental_uris": {"ios": "https://dc.lft.to/lastmile_qr_scan", "android": "https://dc.lft.to/lastmile_qr_scan"}}, {"type": "electric_scooter", "name": "5042532db1c2486682ef14a98b3a22ec", "fusion_lon": 0.0, "is_reserved": 0, "lon": -77.01913916666666, "fusion_lat": 0.0, "is_disabled": 0, "bike_id": "5042532db1c2486682ef14a98b3a22ec", "lat": 38.92036216666666, "rental_uris": {"ios": "https://dc.lft.to/lastmile_qr_scan", "android": "https://dc.lft.to/lastmile_qr_scan"}}, {"type": "electric_scooter", "name": "318b547c66e81f8671a1f6528744c9e9", "fusion_lon": 0.0, "is_reserved": 0, "lon": -77.025464, "fusion_lat": 0.0, "is_disabled": 0, "bike_id": "318b547c66e81f8671a1f6528744c9e9", "lat": 38.91836416666666, "rental_uris": {"ios": "https://dc.lft.to/lastmile_qr_scan", "android": "https://dc.lft.to/lastmile_qr_scan"}}, {"type": "electric_scooter", "name": "a4707d4707ec66437ede14ac1445a84b", "fusion_lon": 0.0, "is_reserved": 0, "lon": -77.043405, "fusion_lat": 0.0, "is_disabled": 0, "bike_id": "a4707d4707ec66437ede14ac1445a84b", "lat": 38.90110833333333, "rental_uris": {"ios": "https://dc.lft.to/lastmile_qr_scan", "android": "https://dc.lft.to/lastmile_qr_scan"}}, {"type": "electric_scooter", "name": "650aae2fd42bdefb439858c60439a553", "fusion_lon": 0.0, "is_reserved": 0, "lon": -77.04350433333333, "fusion_lat": 0.0, "is_disabled": 0, "bike_id": "650aae2fd42bdefb439858c60439a553", "lat": 38.9232185, "rental_uris": {"ios": "https://dc.lft.to/lastmile_qr_scan", "android": "https://dc.lft.to/lastmile_qr_scan"}}, {"type": "electric_scooter", "name": "fb232e917576bc895e253e80eb5515e7", "fusion_lon": 0.0, "is_reserved": 0, "lon": -76.998401, "fusion_lat": 0.0, "is_disabled": 0, "bike_id": "fb232e917576bc895e253e80eb5515e7", "lat": 38.89622766666667, "rental_uris": {"ios": "https://dc.lft.to/lastmile_qr_scan", "android": "https://dc.lft.to/lastmile_qr_scan"}}, {"type": "electric_scooter", "name": "066c5ba04eeccc66bd45e9457730b22e", "fusion_lon": 0.0, "is_reserved": 0, "lon": -76.9733135, "fusion_lat": 0.0, "is_disabled": 0, "bike_id": "066c5ba04eeccc66bd45e9457730b22e", "lat": 38.904167, "rental_uris": {"ios": "https://dc.lft.to/lastmile_qr_scan", "android": "https://dc.lft.to/lastmile_qr_scan"}}, {"type": "electric_scooter", "name": "4b0f29636aec1e638cbbddf11abd6d99", "fusion_lon": 0.0, "is_reserved": 0, "lon": -77.045417, "fusion_lat": 0.0, "is_disabled": 0, "bike_id": "4b0f29636aec1e638cbbddf11abd6d99", "lat": 38.9341005, "rental_uris": {"ios": "https://dc.lft.to/lastmile_qr_scan", "android": "https://dc.lft.to/lastmile_qr_scan"}}, {"type": "electric_scooter", "name": "d872ae8c65a93a5d9feb63160b87ece1", "fusion_lon": 0.0, "is_reserved": 0, "lon": -77.02095566666667, "fusion_lat": 0.0, "is_disabled": 0, "bike_id": "d872ae8c65a93a5d9feb63160b87ece1", "lat": 38.921294, "rental_uris": {"ios": "https://dc.lft.to/lastmile_qr_scan", "android": "https://dc.lft.to/lastmile_qr_scan"}}, {"type": "electric_scooter", "name": "5f39ebc245e0216c01fefdfe0a0e8e9b", "fusion_lon": 0.0, "is_reserved": 0, "lon": -77.06298266666667, "fusion_lat": 0.0, "is_disabled": 0, "bike_id": "5f39ebc245e0216c01fefdfe0a0e8e9b", "lat": 38.904002, "rental_uris": {"ios": "https://dc.lft.to/lastmile_qr_scan", "android": "https://dc.lft.to/lastmile_qr_scan"}}, {"type": "electric_scooter", "name": "8cfaa6d7b3a78c684889592cf8ffeea5", "fusion_lon": 0.0, "is_reserved": 0, "lon": -77.02840483333334, "fusion_lat": 0.0, "is_disabled": 0, "bike_id": "8cfaa6d7b3a78c684889592cf8ffeea5", "lat": 38.94257616666667, "rental_uris": {"ios": "https://dc.lft.to/lastmile_qr_scan", "android": "https://dc.lft.to/lastmile_qr_scan"}}, {"type": "electric_scooter", "name": "ccfd4fa2c65bd591b78c4bc26f61e9e2", "fusion_lon": 0.0, "is_reserved": 0, "lon": -77.05422383333334, "fusion_lat": 0.0, "is_disabled": 0, "bike_id": "ccfd4fa2c65bd591b78c4bc26f61e9e2", "lat": 38.92823933333333, "rental_uris": {"ios": "https://dc.lft.to/lastmile_qr_scan", "android": "https://dc.lft.to/lastmile_qr_scan"}}, {"type": "electric_scooter", "name": "bb67fba0a018402e7603ef9d1423a926", "fusion_lon": 0.0, "is_reserved": 0, "lon": -77.034213, "fusion_lat": 0.0, "is_disabled": 0, "bike_id": "bb67fba0a018402e7603ef9d1423a926", "lat": 38.904060333333334, "rental_uris": {"ios": "https://dc.lft.to/lastmile_qr_scan", "android": "https://dc.lft.to/lastmile_qr_scan"}}, {"type": "electric_scooter", "name": "ff4e64d88c8b1b83bd8cef82110bf78d", "fusion_lon": 0.0, "is_reserved": 0, "lon": -76.987097, "fusion_lat": 0.0, "is_disabled": 0, "bike_id": "ff4e64d88c8b1b83bd8cef82110bf78d", "lat": 38.900597166666664, "rental_uris": {"ios": "https://dc.lft.to/lastmile_qr_scan", "android": "https://dc.lft.to/lastmile_qr_scan"}}, {"type": "electric_scooter", "name": "7fe5ea0a2c80794d32165a08cb51b60f", "fusion_lon": 0.0, "is_reserved": 0, "lon": -77.01920216666667, "fusion_lat": 0.0, "is_disabled": 0, "bike_id": "7fe5ea0a2c80794d32165a08cb51b60f", "lat": 38.92170516666667, "rental_uris": {"ios": "https://dc.lft.to/lastmile_qr_scan", "android": "https://dc.lft.to/lastmile_qr_scan"}}, {"type": "electric_scooter", "name": "803dec97f1609ecc18425a30689832d7", "fusion_lon": 0.0, "is_reserved": 0, "lon": -77.01867433333334, "fusion_lat": 0.0, "is_disabled": 0, "bike_id": "803dec97f1609ecc18425a30689832d7", "lat": 38.95151516666667, "rental_uris": {"ios": "https://dc.lft.to/lastmile_qr_scan", "android": "https://dc.lft.to/lastmile_qr_scan"}}, {"type": "electric_scooter", "name": "c421ebc0a1f844517071cf875d0807b3", "fusion_lon": 0.0, "is_reserved": 0, "lon": -77.0581215, "fusion_lat": 0.0, "is_disabled": 0, "bike_id": "c421ebc0a1f844517071cf875d0807b3", "lat": 38.902893166666665, "rental_uris": {"ios": "https://dc.lft.to/lastmile_qr_scan", "android": "https://dc.lft.to/lastmile_qr_scan"}}, {"type": "electric_bike", "name": "8aa8a4e8f92258c4ef48219de04d43f5", "fusion_lon": 0.0, "is_reserved": 0, "lon": -77.095502, "fusion_lat": 0.0, "is_disabled": 0, "bike_id": "8aa8a4e8f92258c4ef48219de04d43f5", "lat": 38.837324, "rental_uris": {"ios": "https://dc.lft.to/lastmile_qr_scan", "android": "https://dc.lft.to/lastmile_qr_scan"}}, {"type": "electric_scooter", "name": "5bbdbcdea1ad6e9e89e08701f4e5ad31", "fusion_lon": 0.0, "is_reserved": 0, "lon": -77.03320133333334, "fusion_lat": 0.0, "is_disabled": 0, "bike_id": "5bbdbcdea1ad6e9e89e08701f4e5ad31", "lat": 38.92164833333333, "rental_uris": {"ios": "https://dc.lft.to/lastmile_qr_scan", "android": "https://dc.lft.to/lastmile_qr_scan"}}, {"type": "electric_scooter", "name": "617d4da7b7fbaf407d503968731b8317", "fusion_lon": 0.0, "is_reserved": 0, "lon": -77.048013, "fusion_lat": 0.0, "is_disabled": 0, "bike_id": "617d4da7b7fbaf407d503968731b8317", "lat": 38.90969, "rental_uris": {"ios": "https://dc.lft.to/lastmile_qr_scan", "android": "https://dc.lft.to/lastmile_qr_scan"}}, {"type": "electric_scooter", "name": "4d12f80a64efc43ad3e0898bdb9ab3aa", "fusion_lon": 0.0, "is_reserved": 0, "lon": -77.04039616666667, "fusion_lat": 0.0, "is_disabled": 0, "bike_id": "4d12f80a64efc43ad3e0898bdb9ab3aa", "lat": 38.914060666666664, "rental_uris": {"ios": "https://dc.lft.to/lastmile_qr_scan", "android": "https://dc.lft.to/lastmile_qr_scan"}}, {"type": "electric_bike", "name": "ecd37175cf278d461060595ad038ced9", "fusion_lon": 0.0, "is_reserved": 0, "lon": -77.150225, "fusion_lat": 0.0, "is_disabled": 0, "bike_id": "ecd37175cf278d461060595ad038ced9", "lat": 39.057961, "rental_uris": {"ios": "https://dc.lft.to/lastmile_qr_scan", "android": "https://dc.lft.to/lastmile_qr_scan"}}, {"type": "electric_scooter", "name": "c9b07aa88ebb9c6454e946e0ab31e0d1", "fusion_lon": 0.0, "is_reserved": 0, "lon": -77.0211915, "fusion_lat": 0.0, "is_disabled": 0, "bike_id": "c9b07aa88ebb9c6454e946e0ab31e0d1", "lat": 38.92323666666667, "rental_uris": {"ios": "https://dc.lft.to/lastmile_qr_scan", "android": "https://dc.lft.to/lastmile_qr_scan"}}, {"type": "electric_scooter", "name": "b2e0c74a0697bac3deb214147fa0a41c", "fusion_lon": 0.0, "is_reserved": 0, "lon": -77.0409065, "fusion_lat": 0.0, "is_disabled": 0, "bike_id": "b2e0c74a0697bac3deb214147fa0a41c", "lat": 38.910417333333335, "rental_uris": {"ios": "https://dc.lft.to/lastmile_qr_scan", "android": "https://dc.lft.to/lastmile_qr_scan"}}, {"type": "electric_scooter", "name": "9e567ad0c69ea683ca1edfa6a7ce5d07", "fusion_lon": 0.0, "is_reserved": 0, "lon": -77.01902166666666, "fusion_lat": 0.0, "is_disabled": 0, "bike_id": "9e567ad0c69ea683ca1edfa6a7ce5d07", "lat": 38.92396, "rental_uris": {"ios": "https://dc.lft.to/lastmile_qr_scan", "android": "https://dc.lft.to/lastmile_qr_scan"}}, {"type": "electric_scooter", "name": "c45b9d4140c52dd139cdd7870fa7f899", "fusion_lon": 0.0, "is_reserved": 0, "lon": -77.0725075, "fusion_lat": 0.0, "is_disabled": 0, "bike_id": "c45b9d4140c52dd139cdd7870fa7f899", "lat": 38.90782933333333, "rental_uris": {"ios": "https://dc.lft.to/lastmile_qr_scan", "android": "https://dc.lft.to/lastmile_qr_scan"}}, {"type": "electric_scooter", "name": "1fdee30e5b4a06c23d576c642e42c0b0", "fusion_lon": 0.0, "is_reserved": 0, "lon": -77.03804216666667, "fusion_lat": 0.0, "is_disabled": 0, "bike_id": "1fdee30e5b4a06c23d576c642e42c0b0", "lat": 38.930409166666664, "rental_uris": {"ios": "https://dc.lft.to/lastmile_qr_scan", "android": "https://dc.lft.to/lastmile_qr_scan"}}, {"type": "electric_scooter", "name": "0f3d2cbe314a54d1decb0aa6cbf773ec", "fusion_lon": 0.0, "is_reserved": 0, "lon": -77.03583733333333, "fusion_lat": 0.0, "is_disabled": 0, "bike_id": "0f3d2cbe314a54d1decb0aa6cbf773ec", "lat": 38.90767683333333, "rental_uris": {"ios": "https://dc.lft.to/lastmile_qr_scan", "android": "https://dc.lft.to/lastmile_qr_scan"}}, {"type": "electric_scooter", "name": "95ca52ffe8969e8f872e2b7cd18143b6", "fusion_lon": 0.0, "is_reserved": 0, "lon": -76.99783033333334, "fusion_lat": 0.0, "is_disabled": 0, "bike_id": "95ca52ffe8969e8f872e2b7cd18143b6", "lat": 38.84433083333333, "rental_uris": {"ios": "https://dc.lft.to/lastmile_qr_scan", "android": "https://dc.lft.to/lastmile_qr_scan"}}, {"type": "electric_scooter", "name": "f8e61c1cf6c1849cd9c274e439121040", "fusion_lon": 0.0, "is_reserved": 0, "lon": -77.08451316666667, "fusion_lat": 0.0, "is_disabled": 0, "bike_id": "f8e61c1cf6c1849cd9c274e439121040", "lat": 38.95919, "rental_uris": {"ios": "https://dc.lft.to/lastmile_qr_scan", "android": "https://dc.lft.to/lastmile_qr_scan"}}, {"type": "electric_scooter", "name": "96b59851ccafde00fe2de9ae8fcd6884", "fusion_lon": 0.0, "is_reserved": 0, "lon": -77.0443005, "fusion_lat": 0.0, "is_disabled": 0, "bike_id": "96b59851ccafde00fe2de9ae8fcd6884", "lat": 38.92108483333333, "rental_uris": {"ios": "https://dc.lft.to/lastmile_qr_scan", "android": "https://dc.lft.to/lastmile_qr_scan"}}, {"type": "electric_scooter", "name": "b042dd458bd1497b621e001f8e4df246", "fusion_lon": 0.0, "is_reserved": 0, "lon": -77.04325966666667, "fusion_lat": 0.0, "is_disabled": 0, "bike_id": "b042dd458bd1497b621e001f8e4df246", "lat": 38.895995, "rental_uris": {"ios": "https://dc.lft.to/lastmile_qr_scan", "android": "https://dc.lft.to/lastmile_qr_scan"}}, {"type": "electric_scooter", "name": "073376256694e9473ba37a8e1c988d54", "fusion_lon": 0.0, "is_reserved": 0, "lon": -77.03318683333333, "fusion_lat": 0.0, "is_disabled": 0, "bike_id": "073376256694e9473ba37a8e1c988d54", "lat": 38.90840683333333, "rental_uris": {"ios": "https://dc.lft.to/lastmile_qr_scan", "android": "https://dc.lft.to/lastmile_qr_scan"}}, {"type": "electric_scooter", "name": "f84fc2f17c7dce93c5f71e63b864d454", "fusion_lon": 0.0, "is_reserved": 0, "lon": -77.0566095, "fusion_lat": 0.0, "is_disabled": 0, "bike_id": "f84fc2f17c7dce93c5f71e63b864d454", "lat": 38.89544733333334, "rental_uris": {"ios": "https://dc.lft.to/lastmile_qr_scan", "android": "https://dc.lft.to/lastmile_qr_scan"}}, {"type": "electric_scooter", "name": "9def475cfda5125afb3aef3358a5b695", "fusion_lon": 0.0, "is_reserved": 0, "lon": -77.02113166666666, "fusion_lat": 0.0, "is_disabled": 0, "bike_id": "9def475cfda5125afb3aef3358a5b695", "lat": 38.911207833333336, "rental_uris": {"ios": "https://dc.lft.to/lastmile_qr_scan", "android": "https://dc.lft.to/lastmile_qr_scan"}}, {"type": "electric_bike", "name": "7f434ee686745cd67f1b915d49571029", "fusion_lon": 0.0, "is_reserved": 0, "lon": -77.02979116666667, "fusion_lat": 0.0, "is_disabled": 0, "bike_id": "7f434ee686745cd67f1b915d49571029", "lat": 38.93704833333334, "rental_uris": {"ios": "https://dc.lft.to/lastmile_qr_scan", "android": "https://dc.lft.to/lastmile_qr_scan"}}, {"type": "electric_scooter", "name": "009bdf993e0418de6d3a3e6899296a50", "fusion_lon": 0.0, "is_reserved": 0, "lon": -77.04194216666667, "fusion_lat": 0.0, "is_disabled": 0, "bike_id": "009bdf993e0418de6d3a3e6899296a50", "lat": 38.90582066666666, "rental_uris": {"ios": "https://dc.lft.to/lastmile_qr_scan", "android": "https://dc.lft.to/lastmile_qr_scan"}}, {"type": "electric_scooter", "name": "f42844e79c91aca6182f9ac70b4ec705", "fusion_lon": 0.0, "is_reserved": 0, "lon": -77.0741055, "fusion_lat": 0.0, "is_disabled": 0, "bike_id": "f42844e79c91aca6182f9ac70b4ec705", "lat": 38.90833266666667, "rental_uris": {"ios": "https://dc.lft.to/lastmile_qr_scan", "android": "https://dc.lft.to/lastmile_qr_scan"}}, {"type": "electric_bike", "name": "edc7cf26d0e518cdee6b5fb8b42dced2", "fusion_lon": 0.0, "is_reserved": 0, "lon": -77.0402405, "fusion_lat": 0.0, "is_disabled": 0, "bike_id": "edc7cf26d0e518cdee6b5fb8b42dced2", "lat": 38.90846966666667, "rental_uris": {"ios": "https://dc.lft.to/lastmile_qr_scan", "android": "https://dc.lft.to/lastmile_qr_scan"}}, {"type": "electric_scooter", "name": "c62f3ede958cd07d2abc4505ff3eb3f6", "fusion_lon": 0.0, "is_reserved": 0, "lon": -77.03941083333333, "fusion_lat": 0.0, "is_disabled": 0, "bike_id": "c62f3ede958cd07d2abc4505ff3eb3f6", "lat": 38.90382433333333, "rental_uris": {"ios": "https://dc.lft.to/lastmile_qr_scan", "android": "https://dc.lft.to/lastmile_qr_scan"}}, {"type": "electric_scooter", "name": "c687632f611994c53dcccc82b0d79fc5", "fusion_lon": 0.0, "is_reserved": 0, "lon": -77.04332783333334, "fusion_lat": 0.0, "is_disabled": 0, "bike_id": "c687632f611994c53dcccc82b0d79fc5", "lat": 38.903687166666664, "rental_uris": {"ios": "https://dc.lft.to/lastmile_qr_scan", "android": "https://dc.lft.to/lastmile_qr_scan"}}, {"type": "electric_scooter", "name": "aa0328b340fbd7b92e4961f1731faae2", "fusion_lon": 0.0, "is_reserved": 0, "lon": -77.03291866666666, "fusion_lat": 0.0, "is_disabled": 0, "bike_id": "aa0328b340fbd7b92e4961f1731faae2", "lat": 38.90270533333333, "rental_uris": {"ios": "https://dc.lft.to/lastmile_qr_scan", "android": "https://dc.lft.to/lastmile_qr_scan"}}, {"type": "electric_scooter", "name": "d3e03723810db238f0ec56af0251862a", "fusion_lon": 0.0, "is_reserved": 0, "lon": -77.0243715, "fusion_lat": 0.0, "is_disabled": 0, "bike_id": "d3e03723810db238f0ec56af0251862a", "lat": 38.926486833333335, "rental_uris": {"ios": "https://dc.lft.to/lastmile_qr_scan", "android": "https://dc.lft.to/lastmile_qr_scan"}}, {"type": "electric_scooter", "name": "ab06c3fafbafe94ad11e4ce78712238a", "fusion_lon": 0.0, "is_reserved": 0, "lon": -77.04600033333334, "fusion_lat": 0.0, "is_disabled": 0, "bike_id": "ab06c3fafbafe94ad11e4ce78712238a", "lat": 38.90357916666667, "rental_uris": {"ios": "https://dc.lft.to/lastmile_qr_scan", "android": "https://dc.lft.to/lastmile_qr_scan"}}, {"type": "electric_scooter", "name": "41133aeef61928797bd56d712829ae73", "fusion_lon": 0.0, "is_reserved": 0, "lon": -76.996175, "fusion_lat": 0.0, "is_disabled": 0, "bike_id": "41133aeef61928797bd56d712829ae73", "lat": 38.90003566666667, "rental_uris": {"ios": "https://dc.lft.to/lastmile_qr_scan", "android": "https://dc.lft.to/lastmile_qr_scan"}}, {"type": "electric_scooter", "name": "30eb6ca36c9cb592d27a68c27440caeb", "fusion_lon": 0.0, "is_reserved": 0, "lon": -77.0468685, "fusion_lat": 0.0, "is_disabled": 0, "bike_id": "30eb6ca36c9cb592d27a68c27440caeb", "lat": 38.905779, "rental_uris": {"ios": "https://dc.lft.to/lastmile_qr_scan", "android": "https://dc.lft.to/lastmile_qr_scan"}}, {"type": "electric_bike", "name": "874c7cfc67403fe413a0e3484ec723f3", "fusion_lon": 0.0, "is_reserved": 0, "lon": -77.031841, "fusion_lat": 0.0, "is_disabled": 0, "bike_id": "874c7cfc67403fe413a0e3484ec723f3", "lat": 38.9131345, "rental_uris": {"ios": "https://dc.lft.to/lastmile_qr_scan", "android": "https://dc.lft.to/lastmile_qr_scan"}}, {"type": "electric_bike", "name": "73518fa03fd6198f13f5bc0fafd07308", "fusion_lon": 0.0, "is_reserved": 0, "lon": -77.01127133333334, "fusion_lat": 0.0, "is_disabled": 0, "bike_id": "73518fa03fd6198f13f5bc0fafd07308", "lat": 38.880404, "rental_uris": {"ios": "https://dc.lft.to/lastmile_qr_scan", "android": "https://dc.lft.to/lastmile_qr_scan"}}, {"type": "electric_scooter", "name": "89019ccde5d9b8e2899047bfb61af9bf", "fusion_lon": 0.0, "is_reserved": 0, "lon": -77.023848, "fusion_lat": 0.0, "is_disabled": 0, "bike_id": "89019ccde5d9b8e2899047bfb61af9bf", "lat": 38.912872, "rental_uris": {"ios": "https://dc.lft.to/lastmile_qr_scan", "android": "https://dc.lft.to/lastmile_qr_scan"}}, {"type": "electric_scooter", "name": "8ff59ea5125e18a5200388a399058dc8", "fusion_lon": 0.0, "is_reserved": 0, "lon": -77.00565316666666, "fusion_lat": 0.0, "is_disabled": 0, "bike_id": "8ff59ea5125e18a5200388a399058dc8", "lat": 38.874434, "rental_uris": {"ios": "https://dc.lft.to/lastmile_qr_scan", "android": "https://dc.lft.to/lastmile_qr_scan"}}, {"type": "electric_scooter", "name": "39ca34246f73cd5dddec222d00131a0b", "fusion_lon": 0.0, "is_reserved": 0, "lon": -77.03292916666666, "fusion_lat": 0.0, "is_disabled": 0, "bike_id": "39ca34246f73cd5dddec222d00131a0b", "lat": 38.928486, "rental_uris": {"ios": "https://dc.lft.to/lastmile_qr_scan", "android": "https://dc.lft.to/lastmile_qr_scan"}}, {"type": "electric_scooter", "name": "2a686a7f1e0f178c06ae509679bfdb25", "fusion_lon": 0.0, "is_reserved": 0, "lon": -77.0166035, "fusion_lat": 0.0, "is_disabled": 0, "bike_id": "2a686a7f1e0f178c06ae509679bfdb25", "lat": 38.9289995, "rental_uris": {"ios": "https://dc.lft.to/lastmile_qr_scan", "android": "https://dc.lft.to/lastmile_qr_scan"}}, {"type": "electric_scooter", "name": "507d31e0d38dfea380f7a3392176b277", "fusion_lon": 0.0, "is_reserved": 0, "lon": -76.93696183333333, "fusion_lat": 0.0, "is_disabled": 0, "bike_id": "507d31e0d38dfea380f7a3392176b277", "lat": 38.890153166666664, "rental_uris": {"ios": "https://dc.lft.to/lastmile_qr_scan", "android": "https://dc.lft.to/lastmile_qr_scan"}}, {"type": "electric_bike", "name": "5259f9334055d7567341a985d22f5d1f", "fusion_lon": 0.0, "is_reserved": 0, "lon": -77.0947105, "fusion_lat": 0.0, "is_disabled": 0, "bike_id": "5259f9334055d7567341a985d22f5d1f", "lat": 38.8693815, "rental_uris": {"ios": "https://dc.lft.to/lastmile_qr_scan", "android": "https://dc.lft.to/lastmile_qr_scan"}}, {"type": "electric_scooter", "name": "3be64e48532c89fc43dab4128f3770e7", "fusion_lon": 0.0, "is_reserved": 0, "lon": -77.02855866666667, "fusion_lat": 0.0, "is_disabled": 0, "bike_id": "3be64e48532c89fc43dab4128f3770e7", "lat": 38.901296333333335, "rental_uris": {"ios": "https://dc.lft.to/lastmile_qr_scan", "android": "https://dc.lft.to/lastmile_qr_scan"}}, {"type": "electric_scooter", "name": "d7c75206f2cc0789e30717d1f9656ea4", "fusion_lon": 0.0, "is_reserved": 0, "lon": -77.002239, "fusion_lat": 0.0, "is_disabled": 0, "bike_id": "d7c75206f2cc0789e30717d1f9656ea4", "lat": 38.92511616666667, "rental_uris": {"ios": "https://dc.lft.to/lastmile_qr_scan", "android": "https://dc.lft.to/lastmile_qr_scan"}}, {"type": "electric_scooter", "name": "5774cd8e16afa5d110f84fa1612c9c8c", "fusion_lon": 0.0, "is_reserved": 0, "lon": -77.01643666666666, "fusion_lat": 0.0, "is_disabled": 0, "bike_id": "5774cd8e16afa5d110f84fa1612c9c8c", "lat": 38.9026525, "rental_uris": {"ios": "https://dc.lft.to/lastmile_qr_scan", "android": "https://dc.lft.to/lastmile_qr_scan"}}, {"type": "electric_scooter", "name": "29a843c4336eeeaf914093ead16c5a95", "fusion_lon": 0.0, "is_reserved": 0, "lon": -77.01326233333333, "fusion_lat": 0.0, "is_disabled": 0, "bike_id": "29a843c4336eeeaf914093ead16c5a95", "lat": 38.901996, "rental_uris": {"ios": "https://dc.lft.to/lastmile_qr_scan", "android": "https://dc.lft.to/lastmile_qr_scan"}}, {"type": "electric_scooter", "name": "1075b00112231e8c4f894c2803f3a8a1", "fusion_lon": 0.0, "is_reserved": 0, "lon": -77.02118666666667, "fusion_lat": 0.0, "is_disabled": 0, "bike_id": "1075b00112231e8c4f894c2803f3a8a1", "lat": 38.93575416666667, "rental_uris": {"ios": "https://dc.lft.to/lastmile_qr_scan", "android": "https://dc.lft.to/lastmile_qr_scan"}}, {"type": "electric_scooter", "name": "11ad567526115c5b36c5d12594b8e702", "fusion_lon": 0.0, "is_reserved": 0, "lon": -77.02635883333333, "fusion_lat": 0.0, "is_disabled": 0, "bike_id": "11ad567526115c5b36c5d12594b8e702", "lat": 38.9365485, "rental_uris": {"ios": "https://dc.lft.to/lastmile_qr_scan", "android": "https://dc.lft.to/lastmile_qr_scan"}}, {"type": "electric_bike", "name": "58ec80bb73cee555a8029d0367332279", "fusion_lon": 0.0, "is_reserved": 0, "lon": -76.9605625, "fusion_lat": 0.0, "is_disabled": 0, "bike_id": "58ec80bb73cee555a8029d0367332279", "lat": 38.883985, "rental_uris": {"ios": "https://dc.lft.to/lastmile_qr_scan", "android": "https://dc.lft.to/lastmile_qr_scan"}}, {"type": "electric_scooter", "name": "7ebdfae7ca30caf3cb046b819cee9de8", "fusion_lon": 0.0, "is_reserved": 0, "lon": -77.01953466666667, "fusion_lat": 0.0, "is_disabled": 0, "bike_id": "7ebdfae7ca30caf3cb046b819cee9de8", "lat": 38.92309733333333, "rental_uris": {"ios": "https://dc.lft.to/lastmile_qr_scan", "android": "https://dc.lft.to/lastmile_qr_scan"}}, {"type": "electric_scooter", "name": "819170bba7e2327afb2413c2a3008b51", "fusion_lon": 0.0, "is_reserved": 0, "lon": -77.02349266666667, "fusion_lat": 0.0, "is_disabled": 0, "bike_id": "819170bba7e2327afb2413c2a3008b51", "lat": 38.89217816666667, "rental_uris": {"ios": "https://dc.lft.to/lastmile_qr_scan", "android": "https://dc.lft.to/lastmile_qr_scan"}}, {"type": "electric_scooter", "name": "34fcbf0d273aff47880c55e158b8c45f", "fusion_lon": 0.0, "is_reserved": 0, "lon": -76.95749, "fusion_lat": 0.0, "is_disabled": 0, "bike_id": "34fcbf0d273aff47880c55e158b8c45f", "lat": 38.88459966666667, "rental_uris": {"ios": "https://dc.lft.to/lastmile_qr_scan", "android": "https://dc.lft.to/lastmile_qr_scan"}}, {"type": "electric_scooter", "name": "d08ca6232313acdd60f5990b505f662b", "fusion_lon": 0.0, "is_reserved": 0, "lon": -77.027194, "fusion_lat": 0.0, "is_disabled": 0, "bike_id": "d08ca6232313acdd60f5990b505f662b", "lat": 38.90908833333334, "rental_uris": {"ios": "https://dc.lft.to/lastmile_qr_scan", "android": "https://dc.lft.to/lastmile_qr_scan"}}, {"type": "electric_scooter", "name": "86d3a9edf6a63a377e9ee56be6672d35", "fusion_lon": 0.0, "is_reserved": 0, "lon": -77.032267, "fusion_lat": 0.0, "is_disabled": 0, "bike_id": "86d3a9edf6a63a377e9ee56be6672d35", "lat": 38.9104755, "rental_uris": {"ios": "https://dc.lft.to/lastmile_qr_scan", "android": "https://dc.lft.to/lastmile_qr_scan"}}, {"type": "electric_scooter", "name": "6ecd3c7ccf549a0560dc9ef98ca88c74", "fusion_lon": 0.0, "is_reserved": 0, "lon": -77.05011383333333, "fusion_lat": 0.0, "is_disabled": 0, "bike_id": "6ecd3c7ccf549a0560dc9ef98ca88c74", "lat": 38.89306466666667, "rental_uris": {"ios": "https://dc.lft.to/lastmile_qr_scan", "android": "https://dc.lft.to/lastmile_qr_scan"}}, {"type": "electric_scooter", "name": "84fa5aa0fa6c91dc33591f61477f16e9", "fusion_lon": 0.0, "is_reserved": 0, "lon": -77.00571566666666, "fusion_lat": 0.0, "is_disabled": 0, "bike_id": "84fa5aa0fa6c91dc33591f61477f16e9", "lat": 38.871985333333335, "rental_uris": {"ios": "https://dc.lft.to/lastmile_qr_scan", "android": "https://dc.lft.to/lastmile_qr_scan"}}, {"type": "electric_bike", "name": "afd4483e4bd5176b1c683c6c6a1f8d52", "fusion_lon": 0.0, "is_reserved": 0, "lon": -77.072169, "fusion_lat": 0.0, "is_disabled": 0, "bike_id": "afd4483e4bd5176b1c683c6c6a1f8d52", "lat": 38.967979, "rental_uris": {"ios": "https://dc.lft.to/lastmile_qr_scan", "android": "https://dc.lft.to/lastmile_qr_scan"}}, {"type": "electric_scooter", "name": "995ce389556605f09d55e1866dfe40a2", "fusion_lon": 0.0, "is_reserved": 0, "lon": -77.04506966666666, "fusion_lat": 0.0, "is_disabled": 0, "bike_id": "995ce389556605f09d55e1866dfe40a2", "lat": 38.905801, "rental_uris": {"ios": "https://dc.lft.to/lastmile_qr_scan", "android": "https://dc.lft.to/lastmile_qr_scan"}}, {"type": "electric_bike", "name": "94ff54056c8390553f0ef0501e787c01", "fusion_lon": 0.0, "is_reserved": 0, "lon": -76.98608583333333, "fusion_lat": 0.0, "is_disabled": 0, "bike_id": "94ff54056c8390553f0ef0501e787c01", "lat": 38.906245166666665, "rental_uris": {"ios": "https://dc.lft.to/lastmile_qr_scan", "android": "https://dc.lft.to/lastmile_qr_scan"}}, {"type": "electric_scooter", "name": "21a8fb0b3aaf61da865a857f07deb1b7", "fusion_lon": 0.0, "is_reserved": 0, "lon": -76.99964566666667, "fusion_lat": 0.0, "is_disabled": 0, "bike_id": "21a8fb0b3aaf61da865a857f07deb1b7", "lat": 38.908685166666665, "rental_uris": {"ios": "https://dc.lft.to/lastmile_qr_scan", "android": "https://dc.lft.to/lastmile_qr_scan"}}, {"type": "electric_scooter", "name": "3b6e77136a8524a55af2ec3b11e4761c", "fusion_lon": 0.0, "is_reserved": 0, "lon": -77.029555, "fusion_lat": 0.0, "is_disabled": 0, "bike_id": "3b6e77136a8524a55af2ec3b11e4761c", "lat": 38.916832, "rental_uris": {"ios": "https://dc.lft.to/lastmile_qr_scan", "android": "https://dc.lft.to/lastmile_qr_scan"}}, {"type": "electric_scooter", "name": "64fd3ca1b8ed5fb19b9ee23036758bf4", "fusion_lon": 0.0, "is_reserved": 0, "lon": -77.042407, "fusion_lat": 0.0, "is_disabled": 0, "bike_id": "64fd3ca1b8ed5fb19b9ee23036758bf4", "lat": 38.90362316666667, "rental_uris": {"ios": "https://dc.lft.to/lastmile_qr_scan", "android": "https://dc.lft.to/lastmile_qr_scan"}}, {"type": "electric_scooter", "name": "299ebadb2b334d138398e384025ff1a3", "fusion_lon": 0.0, "is_reserved": 0, "lon": -77.02394533333333, "fusion_lat": 0.0, "is_disabled": 0, "bike_id": "299ebadb2b334d138398e384025ff1a3", "lat": 38.92075583333333, "rental_uris": {"ios": "https://dc.lft.to/lastmile_qr_scan", "android": "https://dc.lft.to/lastmile_qr_scan"}}, {"type": "electric_scooter", "name": "26d93d865dd5a04b0531909c052f406f", "fusion_lon": 0.0, "is_reserved": 0, "lon": -77.03197783333333, "fusion_lat": 0.0, "is_disabled": 0, "bike_id": "26d93d865dd5a04b0531909c052f406f", "lat": 38.92019166666667, "rental_uris": {"ios": "https://dc.lft.to/lastmile_qr_scan", "android": "https://dc.lft.to/lastmile_qr_scan"}}, {"type": "electric_scooter", "name": "5ec575f1ba51f73ead3a41df28b3d5a2", "fusion_lon": 0.0, "is_reserved": 0, "lon": -77.0252605, "fusion_lat": 0.0, "is_disabled": 0, "bike_id": "5ec575f1ba51f73ead3a41df28b3d5a2", "lat": 38.92156216666667, "rental_uris": {"ios": "https://dc.lft.to/lastmile_qr_scan", "android": "https://dc.lft.to/lastmile_qr_scan"}}, {"type": "electric_scooter", "name": "6f4ae7bc315e0085da8afe1a63080c0c", "fusion_lon": 0.0, "is_reserved": 0, "lon": -77.0422705, "fusion_lat": 0.0, "is_disabled": 0, "bike_id": "6f4ae7bc315e0085da8afe1a63080c0c", "lat": 38.92062633333333, "rental_uris": {"ios": "https://dc.lft.to/lastmile_qr_scan", "android": "https://dc.lft.to/lastmile_qr_scan"}}, {"type": "electric_scooter", "name": "97d48d8defc8a95e03f1aab9bea86579", "fusion_lon": 0.0, "is_reserved": 0, "lon": -77.0339935, "fusion_lat": 0.0, "is_disabled": 0, "bike_id": "97d48d8defc8a95e03f1aab9bea86579", "lat": 38.92444583333333, "rental_uris": {"ios": "https://dc.lft.to/lastmile_qr_scan", "android": "https://dc.lft.to/lastmile_qr_scan"}}, {"type": "electric_scooter", "name": "4617e20cb034bdb5bccd20406b13733e", "fusion_lon": 0.0, "is_reserved": 0, "lon": -77.0591805, "fusion_lat": 0.0, "is_disabled": 0, "bike_id": "4617e20cb034bdb5bccd20406b13733e", "lat": 38.9013385, "rental_uris": {"ios": "https://dc.lft.to/lastmile_qr_scan", "android": "https://dc.lft.to/lastmile_qr_scan"}}, {"type": "electric_scooter", "name": "0cf33dad46683d24d037cc09d68c8a9d", "fusion_lon": 0.0, "is_reserved": 0, "lon": -76.98629366666667, "fusion_lat": 0.0, "is_disabled": 0, "bike_id": "0cf33dad46683d24d037cc09d68c8a9d", "lat": 38.907327333333335, "rental_uris": {"ios": "https://dc.lft.to/lastmile_qr_scan", "android": "https://dc.lft.to/lastmile_qr_scan"}}, {"type": "electric_scooter", "name": "9050cfde6cc6068f9f4f04ae70bd74ce", "fusion_lon": 0.0, "is_reserved": 0, "lon": -77.002523, "fusion_lat": 0.0, "is_disabled": 0, "bike_id": "9050cfde6cc6068f9f4f04ae70bd74ce", "lat": 38.8760865, "rental_uris": {"ios": "https://dc.lft.to/lastmile_qr_scan", "android": "https://dc.lft.to/lastmile_qr_scan"}}, {"type": "electric_scooter", "name": "4fe496af8a41c828876ac37071d06b8f", "fusion_lon": 0.0, "is_reserved": 0, "lon": -77.03412183333333, "fusion_lat": 0.0, "is_disabled": 0, "bike_id": "4fe496af8a41c828876ac37071d06b8f", "lat": 38.93236616666667, "rental_uris": {"ios": "https://dc.lft.to/lastmile_qr_scan", "android": "https://dc.lft.to/lastmile_qr_scan"}}, {"type": "electric_bike", "name": "39aeebab03f4c4d899e5d938324629fc", "fusion_lon": 0.0, "is_reserved": 0, "lon": -77.088165, "fusion_lat": 0.0, "is_disabled": 0, "bike_id": "39aeebab03f4c4d899e5d938324629fc", "lat": 38.871733, "rental_uris": {"ios": "https://dc.lft.to/lastmile_qr_scan", "android": "https://dc.lft.to/lastmile_qr_scan"}}, {"type": "electric_scooter", "name": "24a5fddd0dec3c2efbf1ead1735e0012", "fusion_lon": 0.0, "is_reserved": 0, "lon": -76.93406366666666, "fusion_lat": 0.0, "is_disabled": 0, "bike_id": "24a5fddd0dec3c2efbf1ead1735e0012", "lat": 38.8991235, "rental_uris": {"ios": "https://dc.lft.to/lastmile_qr_scan", "android": "https://dc.lft.to/lastmile_qr_scan"}}, {"type": "electric_scooter", "name": "62f52228d08d57a6f8028f990b37fa83", "fusion_lon": 0.0, "is_reserved": 0, "lon": -77.00853166666667, "fusion_lat": 0.0, "is_disabled": 0, "bike_id": "62f52228d08d57a6f8028f990b37fa83", "lat": 38.91087183333333, "rental_uris": {"ios": "https://dc.lft.to/lastmile_qr_scan", "android": "https://dc.lft.to/lastmile_qr_scan"}}, {"type": "electric_scooter", "name": "e46d0c85e73fa3539a5313c4ff806cfe", "fusion_lon": 0.0, "is_reserved": 0, "lon": -77.05065583333334, "fusion_lat": 0.0, "is_disabled": 0, "bike_id": "e46d0c85e73fa3539a5313c4ff806cfe", "lat": 38.92416383333333, "rental_uris": {"ios": "https://dc.lft.to/lastmile_qr_scan", "android": "https://dc.lft.to/lastmile_qr_scan"}}, {"type": "electric_scooter", "name": "e2cf48fa5f024f752930b00a543a9464", "fusion_lon": 0.0, "is_reserved": 0, "lon": -77.02407683333334, "fusion_lat": 0.0, "is_disabled": 0, "bike_id": "e2cf48fa5f024f752930b00a543a9464", "lat": 38.920022, "rental_uris": {"ios": "https://dc.lft.to/lastmile_qr_scan", "android": "https://dc.lft.to/lastmile_qr_scan"}}, {"type": "electric_scooter", "name": "56e3183e6f2ce82ad3f26b61aa4b25c6", "fusion_lon": 0.0, "is_reserved": 0, "lon": -77.04467733333334, "fusion_lat": 0.0, "is_disabled": 0, "bike_id": "56e3183e6f2ce82ad3f26b61aa4b25c6", "lat": 38.897912833333336, "rental_uris": {"ios": "https://dc.lft.to/lastmile_qr_scan", "android": "https://dc.lft.to/lastmile_qr_scan"}}, {"type": "electric_scooter", "name": "dc4bcf33a19cf6f1720fb670b714e19f", "fusion_lon": 0.0, "is_reserved": 0, "lon": -77.03099566666667, "fusion_lat": 0.0, "is_disabled": 0, "bike_id": "dc4bcf33a19cf6f1720fb670b714e19f", "lat": 38.92865716666667, "rental_uris": {"ios": "https://dc.lft.to/lastmile_qr_scan", "android": "https://dc.lft.to/lastmile_qr_scan"}}, {"type": "electric_scooter", "name": "297441b808a18df7bb4f14dad228bffd", "fusion_lon": 0.0, "is_reserved": 0, "lon": -77.04969816666667, "fusion_lat": 0.0, "is_disabled": 0, "bike_id": "297441b808a18df7bb4f14dad228bffd", "lat": 38.90723916666666, "rental_uris": {"ios": "https://dc.lft.to/lastmile_qr_scan", "android": "https://dc.lft.to/lastmile_qr_scan"}}, {"type": "electric_scooter", "name": "3e32a56a7ce84151e2608d4755b94e3b", "fusion_lon": 0.0, "is_reserved": 0, "lon": -77.00256383333334, "fusion_lat": 0.0, "is_disabled": 0, "bike_id": "3e32a56a7ce84151e2608d4755b94e3b", "lat": 38.91097233333333, "rental_uris": {"ios": "https://dc.lft.to/lastmile_qr_scan", "android": "https://dc.lft.to/lastmile_qr_scan"}}, {"type": "electric_scooter", "name": "87180ae5734f9e37debc4f47240619ed", "fusion_lon": 0.0, "is_reserved": 0, "lon": -77.01824283333333, "fusion_lat": 0.0, "is_disabled": 0, "bike_id": "87180ae5734f9e37debc4f47240619ed", "lat": 38.922622, "rental_uris": {"ios": "https://dc.lft.to/lastmile_qr_scan", "android": "https://dc.lft.to/lastmile_qr_scan"}}, {"type": "electric_scooter", "name": "720c6369b4aaf8a9b38bfee152ac650f", "fusion_lon": 0.0, "is_reserved": 0, "lon": -77.04651283333334, "fusion_lat": 0.0, "is_disabled": 0, "bike_id": "720c6369b4aaf8a9b38bfee152ac650f", "lat": 38.901787666666664, "rental_uris": {"ios": "https://dc.lft.to/lastmile_qr_scan", "android": "https://dc.lft.to/lastmile_qr_scan"}}, {"type": "electric_scooter", "name": "fe6ba90bf97ad077fec37d0f3ee658cd", "fusion_lon": 0.0, "is_reserved": 0, "lon": -76.998231, "fusion_lat": 0.0, "is_disabled": 0, "bike_id": "fe6ba90bf97ad077fec37d0f3ee658cd", "lat": 38.893009666666664, "rental_uris": {"ios": "https://dc.lft.to/lastmile_qr_scan", "android": "https://dc.lft.to/lastmile_qr_scan"}}, {"type": "electric_scooter", "name": "516a92cc1b917cfc910f977ff6dccb0c", "fusion_lon": 0.0, "is_reserved": 0, "lon": -77.04267716666666, "fusion_lat": 0.0, "is_disabled": 0, "bike_id": "516a92cc1b917cfc910f977ff6dccb0c", "lat": 38.9230075, "rental_uris": {"ios": "https://dc.lft.to/lastmile_qr_scan", "android": "https://dc.lft.to/lastmile_qr_scan"}}, {"type": "electric_scooter", "name": "8ca6d296fa67f3777fcb864c7de2c272", "fusion_lon": 0.0, "is_reserved": 0, "lon": -77.03066116666666, "fusion_lat": 0.0, "is_disabled": 0, "bike_id": "8ca6d296fa67f3777fcb864c7de2c272", "lat": 38.90759383333334, "rental_uris": {"ios": "https://dc.lft.to/lastmile_qr_scan", "android": "https://dc.lft.to/lastmile_qr_scan"}}, {"type": "electric_scooter", "name": "6bd1d31b8f58e7182800b4fe6a8cb752", "fusion_lon": 0.0, "is_reserved": 0, "lon": -77.02613333333333, "fusion_lat": 0.0, "is_disabled": 0, "bike_id": "6bd1d31b8f58e7182800b4fe6a8cb752", "lat": 38.951863333333336, "rental_uris": {"ios": "https://dc.lft.to/lastmile_qr_scan", "android": "https://dc.lft.to/lastmile_qr_scan"}}, {"type": "electric_scooter", "name": "2030d9dd638d1973a9c12b634e2d93dd", "fusion_lon": 0.0, "is_reserved": 0, "lon": -77.02656783333333, "fusion_lat": 0.0, "is_disabled": 0, "bike_id": "2030d9dd638d1973a9c12b634e2d93dd", "lat": 38.88477483333333, "rental_uris": {"ios": "https://dc.lft.to/lastmile_qr_scan", "android": "https://dc.lft.to/lastmile_qr_scan"}}, {"type": "electric_scooter", "name": "fbbc0ae0aeddfd30b1d7b094f50b0ffb", "fusion_lon": 0.0, "is_reserved": 0, "lon": -77.03257333333333, "fusion_lat": 0.0, "is_disabled": 0, "bike_id": "fbbc0ae0aeddfd30b1d7b094f50b0ffb", "lat": 38.918187333333336, "rental_uris": {"ios": "https://dc.lft.to/lastmile_qr_scan", "android": "https://dc.lft.to/lastmile_qr_scan"}}, {"type": "electric_scooter", "name": "41b859625d9b8c8cb291854c78796776", "fusion_lon": 0.0, "is_reserved": 0, "lon": -77.05493266666667, "fusion_lat": 0.0, "is_disabled": 0, "bike_id": "41b859625d9b8c8cb291854c78796776", "lat": 38.89369883333333, "rental_uris": {"ios": "https://dc.lft.to/lastmile_qr_scan", "android": "https://dc.lft.to/lastmile_qr_scan"}}, {"type": "electric_scooter", "name": "5eecfcc32bb681b5314d6142bf32daa8", "fusion_lon": 0.0, "is_reserved": 0, "lon": -77.03819966666667, "fusion_lat": 0.0, "is_disabled": 0, "bike_id": "5eecfcc32bb681b5314d6142bf32daa8", "lat": 38.90782516666667, "rental_uris": {"ios": "https://dc.lft.to/lastmile_qr_scan", "android": "https://dc.lft.to/lastmile_qr_scan"}}, {"type": "electric_scooter", "name": "dd127d68e774a8f817584f7f6acd7e59", "fusion_lon": 0.0, "is_reserved": 0, "lon": -77.04325816666666, "fusion_lat": 0.0, "is_disabled": 0, "bike_id": "dd127d68e774a8f817584f7f6acd7e59", "lat": 38.90226033333333, "rental_uris": {"ios": "https://dc.lft.to/lastmile_qr_scan", "android": "https://dc.lft.to/lastmile_qr_scan"}}, {"type": "electric_scooter", "name": "1473a4f9be25e07d45a63e8833021766", "fusion_lon": 0.0, "is_reserved": 0, "lon": -77.0429925, "fusion_lat": 0.0, "is_disabled": 0, "bike_id": "1473a4f9be25e07d45a63e8833021766", "lat": 38.92298266666667, "rental_uris": {"ios": "https://dc.lft.to/lastmile_qr_scan", "android": "https://dc.lft.to/lastmile_qr_scan"}}, {"type": "electric_scooter", "name": "2dd9826b7280d0d8342d9fcd9017a18b", "fusion_lon": 0.0, "is_reserved": 0, "lon": -76.98163783333334, "fusion_lat": 0.0, "is_disabled": 0, "bike_id": "2dd9826b7280d0d8342d9fcd9017a18b", "lat": 38.89618166666666, "rental_uris": {"ios": "https://dc.lft.to/lastmile_qr_scan", "android": "https://dc.lft.to/lastmile_qr_scan"}}, {"type": "electric_scooter", "name": "761d7b195bdca8b97e9df321c70a1bad", "fusion_lon": 0.0, "is_reserved": 0, "lon": -77.02355133333333, "fusion_lat": 0.0, "is_disabled": 0, "bike_id": "761d7b195bdca8b97e9df321c70a1bad", "lat": 38.925045, "rental_uris": {"ios": "https://dc.lft.to/lastmile_qr_scan", "android": "https://dc.lft.to/lastmile_qr_scan"}}, {"type": "electric_scooter", "name": "9ccd2cdd14ab662b30dd85fe01883bee", "fusion_lon": 0.0, "is_reserved": 0, "lon": -76.9544505, "fusion_lat": 0.0, "is_disabled": 0, "bike_id": "9ccd2cdd14ab662b30dd85fe01883bee", "lat": 38.88393083333333, "rental_uris": {"ios": "https://dc.lft.to/lastmile_qr_scan", "android": "https://dc.lft.to/lastmile_qr_scan"}}, {"type": "electric_bike", "name": "e4905a72ce79a79a1f1a2a289df6e9db", "fusion_lon": 0.0, "is_reserved": 0, "lon": -76.9773045, "fusion_lat": 0.0, "is_disabled": 0, "bike_id": "e4905a72ce79a79a1f1a2a289df6e9db", "lat": 38.95175283333333, "rental_uris": {"ios": "https://dc.lft.to/lastmile_qr_scan", "android": "https://dc.lft.to/lastmile_qr_scan"}}, {"type": "electric_scooter", "name": "936050b951fe78a135cba186def6f0ae", "fusion_lon": 0.0, "is_reserved": 0, "lon": -76.9496335, "fusion_lat": 0.0, "is_disabled": 0, "bike_id": "936050b951fe78a135cba186def6f0ae", "lat": 38.90493216666667, "rental_uris": {"ios": "https://dc.lft.to/lastmile_qr_scan", "android": "https://dc.lft.to/lastmile_qr_scan"}}, {"type": "electric_scooter", "name": "2250fff2a18a5eb010e15ce192558663", "fusion_lon": 0.0, "is_reserved": 0, "lon": -77.042545, "fusion_lat": 0.0, "is_disabled": 0, "bike_id": "2250fff2a18a5eb010e15ce192558663", "lat": 38.922768, "rental_uris": {"ios": "https://dc.lft.to/lastmile_qr_scan", "android": "https://dc.lft.to/lastmile_qr_scan"}}, {"type": "electric_bike", "name": "1925d28b49486388b1b45c6c9f6cb580", "fusion_lon": 0.0, "is_reserved": 0, "lon": -77.014578, "fusion_lat": 0.0, "is_disabled": 0, "bike_id": "1925d28b49486388b1b45c6c9f6cb580", "lat": 38.96281416666667, "rental_uris": {"ios": "https://dc.lft.to/lastmile_qr_scan", "android": "https://dc.lft.to/lastmile_qr_scan"}}, {"type": "electric_scooter", "name": "c34be76f1807a3d2598857f1a0289962", "fusion_lon": 0.0, "is_reserved": 0, "lon": -76.94936183333333, "fusion_lat": 0.0, "is_disabled": 0, "bike_id": "c34be76f1807a3d2598857f1a0289962", "lat": 38.893601, "rental_uris": {"ios": "https://dc.lft.to/lastmile_qr_scan", "android": "https://dc.lft.to/lastmile_qr_scan"}}, {"type": "electric_scooter", "name": "eee754c80b0600ffb7283a2de340f53d", "fusion_lon": 0.0, "is_reserved": 0, "lon": -77.02223133333334, "fusion_lat": 0.0, "is_disabled": 0, "bike_id": "eee754c80b0600ffb7283a2de340f53d", "lat": 38.91274166666667, "rental_uris": {"ios": "https://dc.lft.to/lastmile_qr_scan", "android": "https://dc.lft.to/lastmile_qr_scan"}}, {"type": "electric_scooter", "name": "0ba4438d2d8b7ce0937123682628c416", "fusion_lon": 0.0, "is_reserved": 0, "lon": -77.04498216666667, "fusion_lat": 0.0, "is_disabled": 0, "bike_id": "0ba4438d2d8b7ce0937123682628c416", "lat": 38.91418683333333, "rental_uris": {"ios": "https://dc.lft.to/lastmile_qr_scan", "android": "https://dc.lft.to/lastmile_qr_scan"}}, {"type": "electric_scooter", "name": "a6b18278ab62e0cd8ea810c4635b8b76", "fusion_lon": 0.0, "is_reserved": 0, "lon": -76.96879566666667, "fusion_lat": 0.0, "is_disabled": 0, "bike_id": "a6b18278ab62e0cd8ea810c4635b8b76", "lat": 38.86101816666667, "rental_uris": {"ios": "https://dc.lft.to/lastmile_qr_scan", "android": "https://dc.lft.to/lastmile_qr_scan"}}, {"type": "electric_scooter", "name": "9d36b88a9fea4e042b380f93e798b7d4", "fusion_lon": 0.0, "is_reserved": 0, "lon": -77.02664216666666, "fusion_lat": 0.0, "is_disabled": 0, "bike_id": "9d36b88a9fea4e042b380f93e798b7d4", "lat": 38.9326565, "rental_uris": {"ios": "https://dc.lft.to/lastmile_qr_scan", "android": "https://dc.lft.to/lastmile_qr_scan"}}, {"type": "electric_scooter", "name": "d342d461aa6e2aa15b4efa897e589ddd", "fusion_lon": 0.0, "is_reserved": 0, "lon": -77.02836383333333, "fusion_lat": 0.0, "is_disabled": 0, "bike_id": "d342d461aa6e2aa15b4efa897e589ddd", "lat": 38.93236516666666, "rental_uris": {"ios": "https://dc.lft.to/lastmile_qr_scan", "android": "https://dc.lft.to/lastmile_qr_scan"}}, {"type": "electric_scooter", "name": "de39d0be38b44453fd53439338462bc6", "fusion_lon": 0.0, "is_reserved": 0, "lon": -76.99844833333333, "fusion_lat": 0.0, "is_disabled": 0, "bike_id": "de39d0be38b44453fd53439338462bc6", "lat": 38.908871, "rental_uris": {"ios": "https://dc.lft.to/lastmile_qr_scan", "android": "https://dc.lft.to/lastmile_qr_scan"}}, {"type": "electric_scooter", "name": "4f8bbd82f9e032050e65d0cd936cd52d", "fusion_lon": 0.0, "is_reserved": 0, "lon": -77.035254, "fusion_lat": 0.0, "is_disabled": 0, "bike_id": "4f8bbd82f9e032050e65d0cd936cd52d", "lat": 38.92277333333333, "rental_uris": {"ios": "https://dc.lft.to/lastmile_qr_scan", "android": "https://dc.lft.to/lastmile_qr_scan"}}, {"type": "electric_scooter", "name": "66e2ee5fcf761c1a4869d5316444e1bf", "fusion_lon": 0.0, "is_reserved": 0, "lon": -77.017902, "fusion_lat": 0.0, "is_disabled": 0, "bike_id": "66e2ee5fcf761c1a4869d5316444e1bf", "lat": 38.90126633333333, "rental_uris": {"ios": "https://dc.lft.to/lastmile_qr_scan", "android": "https://dc.lft.to/lastmile_qr_scan"}}, {"type": "electric_scooter", "name": "bac3afb8326928e03ce32901e9dbcf81", "fusion_lon": 0.0, "is_reserved": 0, "lon": -77.0231945, "fusion_lat": 0.0, "is_disabled": 0, "bike_id": "bac3afb8326928e03ce32901e9dbcf81", "lat": 38.929377833333334, "rental_uris": {"ios": "https://dc.lft.to/lastmile_qr_scan", "android": "https://dc.lft.to/lastmile_qr_scan"}}, {"type": "electric_scooter", "name": "2e7b3810e13c85505edcc2f7dfd3b858", "fusion_lon": 0.0, "is_reserved": 0, "lon": -77.03186766666667, "fusion_lat": 0.0, "is_disabled": 0, "bike_id": "2e7b3810e13c85505edcc2f7dfd3b858", "lat": 38.9141715, "rental_uris": {"ios": "https://dc.lft.to/lastmile_qr_scan", "android": "https://dc.lft.to/lastmile_qr_scan"}}, {"type": "electric_scooter", "name": "972e09accfc7fbf8d711ad8a7cc9c3aa", "fusion_lon": 0.0, "is_reserved": 0, "lon": -76.93345366666667, "fusion_lat": 0.0, "is_disabled": 0, "bike_id": "972e09accfc7fbf8d711ad8a7cc9c3aa", "lat": 38.8881205, "rental_uris": {"ios": "https://dc.lft.to/lastmile_qr_scan", "android": "https://dc.lft.to/lastmile_qr_scan"}}, {"type": "electric_scooter", "name": "9ede63609237a6389e3c7be21d88b01a", "fusion_lon": 0.0, "is_reserved": 0, "lon": -77.0376105, "fusion_lat": 0.0, "is_disabled": 0, "bike_id": "9ede63609237a6389e3c7be21d88b01a", "lat": 38.93085133333334, "rental_uris": {"ios": "https://dc.lft.to/lastmile_qr_scan", "android": "https://dc.lft.to/lastmile_qr_scan"}}, {"type": "electric_scooter", "name": "19ad74ef3394a5a7f18157ed2075844f", "fusion_lon": 0.0, "is_reserved": 0, "lon": -77.00429833333334, "fusion_lat": 0.0, "is_disabled": 0, "bike_id": "19ad74ef3394a5a7f18157ed2075844f", "lat": 38.9209455, "rental_uris": {"ios": "https://dc.lft.to/lastmile_qr_scan", "android": "https://dc.lft.to/lastmile_qr_scan"}}, {"type": "electric_scooter", "name": "c23f71189fa36e370582959edcd412e3", "fusion_lon": 0.0, "is_reserved": 0, "lon": -77.02971433333333, "fusion_lat": 0.0, "is_disabled": 0, "bike_id": "c23f71189fa36e370582959edcd412e3", "lat": 38.9165425, "rental_uris": {"ios": "https://dc.lft.to/lastmile_qr_scan", "android": "https://dc.lft.to/lastmile_qr_scan"}}, {"type": "electric_scooter", "name": "93084e8b54bff98a007f59df3f14685c", "fusion_lon": 0.0, "is_reserved": 0, "lon": -77.03197266666666, "fusion_lat": 0.0, "is_disabled": 0, "bike_id": "93084e8b54bff98a007f59df3f14685c", "lat": 38.9178375, "rental_uris": {"ios": "https://dc.lft.to/lastmile_qr_scan", "android": "https://dc.lft.to/lastmile_qr_scan"}}, {"type": "electric_scooter", "name": "e9480196442a201e1a15fc52eafe3f44", "fusion_lon": 0.0, "is_reserved": 0, "lon": -77.03236483333333, "fusion_lat": 0.0, "is_disabled": 0, "bike_id": "e9480196442a201e1a15fc52eafe3f44", "lat": 38.9217695, "rental_uris": {"ios": "https://dc.lft.to/lastmile_qr_scan", "android": "https://dc.lft.to/lastmile_qr_scan"}}, {"type": "electric_bike", "name": "440997a09726e373c30aa35895af5a4a", "fusion_lon": 0.0, "is_reserved": 0, "lon": -77.095924, "fusion_lat": 0.0, "is_disabled": 0, "bike_id": "440997a09726e373c30aa35895af5a4a", "lat": 38.860871333333336, "rental_uris": {"ios": "https://dc.lft.to/lastmile_qr_scan", "android": "https://dc.lft.to/lastmile_qr_scan"}}, {"type": "electric_scooter", "name": "790c5e7a69cfe0d4a2d8c5c2639729b6", "fusion_lon": 0.0, "is_reserved": 0, "lon": -77.02218866666666, "fusion_lat": 0.0, "is_disabled": 0, "bike_id": "790c5e7a69cfe0d4a2d8c5c2639729b6", "lat": 38.920840166666665, "rental_uris": {"ios": "https://dc.lft.to/lastmile_qr_scan", "android": "https://dc.lft.to/lastmile_qr_scan"}}, {"type": "electric_scooter", "name": "402643214b46e078ae29f8903665d064", "fusion_lon": 0.0, "is_reserved": 0, "lon": -77.08857316666666, "fusion_lat": 0.0, "is_disabled": 0, "bike_id": "402643214b46e078ae29f8903665d064", "lat": 38.93362183333333, "rental_uris": {"ios": "https://dc.lft.to/lastmile_qr_scan", "android": "https://dc.lft.to/lastmile_qr_scan"}}, {"type": "electric_scooter", "name": "e7048f63aa2c79f70e33393070c04566", "fusion_lon": 0.0, "is_reserved": 0, "lon": -76.99856433333333, "fusion_lat": 0.0, "is_disabled": 0, "bike_id": "e7048f63aa2c79f70e33393070c04566", "lat": 38.9025315, "rental_uris": {"ios": "https://dc.lft.to/lastmile_qr_scan", "android": "https://dc.lft.to/lastmile_qr_scan"}}, {"type": "electric_bike", "name": "b8e0f2df6b8d3df64d6bad2ad1de1905", "fusion_lon": 0.0, "is_reserved": 0, "lon": -76.972272, "fusion_lat": 0.0, "is_disabled": 0, "bike_id": "b8e0f2df6b8d3df64d6bad2ad1de1905", "lat": 38.90040183333333, "rental_uris": {"ios": "https://dc.lft.to/lastmile_qr_scan", "android": "https://dc.lft.to/lastmile_qr_scan"}}, {"type": "electric_scooter", "name": "e464f87a32b6dd9cf1483e4b5110b316", "fusion_lon": 0.0, "is_reserved": 0, "lon": -77.02491333333333, "fusion_lat": 0.0, "is_disabled": 0, "bike_id": "e464f87a32b6dd9cf1483e4b5110b316", "lat": 38.938742, "rental_uris": {"ios": "https://dc.lft.to/lastmile_qr_scan", "android": "https://dc.lft.to/lastmile_qr_scan"}}, {"type": "electric_scooter", "name": "31f142f965d11e970e27415887c6a582", "fusion_lon": 0.0, "is_reserved": 0, "lon": -77.0649205, "fusion_lat": 0.0, "is_disabled": 0, "bike_id": "31f142f965d11e970e27415887c6a582", "lat": 38.91018366666667, "rental_uris": {"ios": "https://dc.lft.to/lastmile_qr_scan", "android": "https://dc.lft.to/lastmile_qr_scan"}}, {"type": "electric_scooter", "name": "e2fbd8753b73adafb95166d5a9741c54", "fusion_lon": 0.0, "is_reserved": 0, "lon": -76.98057833333333, "fusion_lat": 0.0, "is_disabled": 0, "bike_id": "e2fbd8753b73adafb95166d5a9741c54", "lat": 38.901450833333335, "rental_uris": {"ios": "https://dc.lft.to/lastmile_qr_scan", "android": "https://dc.lft.to/lastmile_qr_scan"}}, {"type": "electric_scooter", "name": "9d334f36ac70aa39834eb52ce689d14e", "fusion_lon": 0.0, "is_reserved": 0, "lon": -77.03097466666667, "fusion_lat": 0.0, "is_disabled": 0, "bike_id": "9d334f36ac70aa39834eb52ce689d14e", "lat": 38.93399133333333, "rental_uris": {"ios": "https://dc.lft.to/lastmile_qr_scan", "android": "https://dc.lft.to/lastmile_qr_scan"}}, {"type": "electric_scooter", "name": "5c99e62d71a0d6f9acc583701d95ffe6", "fusion_lon": 0.0, "is_reserved": 0, "lon": -77.003378, "fusion_lat": 0.0, "is_disabled": 0, "bike_id": "5c99e62d71a0d6f9acc583701d95ffe6", "lat": 38.8919685, "rental_uris": {"ios": "https://dc.lft.to/lastmile_qr_scan", "android": "https://dc.lft.to/lastmile_qr_scan"}}, {"type": "electric_scooter", "name": "eae0e6fc2ef34bd68ab0c23210a31b93", "fusion_lon": 0.0, "is_reserved": 0, "lon": -77.03859466666667, "fusion_lat": 0.0, "is_disabled": 0, "bike_id": "eae0e6fc2ef34bd68ab0c23210a31b93", "lat": 38.9171655, "rental_uris": {"ios": "https://dc.lft.to/lastmile_qr_scan", "android": "https://dc.lft.to/lastmile_qr_scan"}}, {"type": "electric_scooter", "name": "8edd82d3397310789573ba2b3a4b1a9d", "fusion_lon": 0.0, "is_reserved": 0, "lon": -76.99620566666667, "fusion_lat": 0.0, "is_disabled": 0, "bike_id": "8edd82d3397310789573ba2b3a4b1a9d", "lat": 38.90446083333333, "rental_uris": {"ios": "https://dc.lft.to/lastmile_qr_scan", "android": "https://dc.lft.to/lastmile_qr_scan"}}, {"type": "electric_scooter", "name": "f725af331a04edc6d449ddbb00f63ba8", "fusion_lon": 0.0, "is_reserved": 0, "lon": -77.04295866666666, "fusion_lat": 0.0, "is_disabled": 0, "bike_id": "f725af331a04edc6d449ddbb00f63ba8", "lat": 38.922678, "rental_uris": {"ios": "https://dc.lft.to/lastmile_qr_scan", "android": "https://dc.lft.to/lastmile_qr_scan"}}, {"type": "electric_scooter", "name": "a8df7c3467f452d7df924367a12efadd", "fusion_lon": 0.0, "is_reserved": 0, "lon": -77.02976433333333, "fusion_lat": 0.0, "is_disabled": 0, "bike_id": "a8df7c3467f452d7df924367a12efadd", "lat": 38.91888866666667, "rental_uris": {"ios": "https://dc.lft.to/lastmile_qr_scan", "android": "https://dc.lft.to/lastmile_qr_scan"}}, {"type": "electric_scooter", "name": "0fbe06d9a491242887bec9d654fb25e6", "fusion_lon": 0.0, "is_reserved": 0, "lon": -77.03827666666666, "fusion_lat": 0.0, "is_disabled": 0, "bike_id": "0fbe06d9a491242887bec9d654fb25e6", "lat": 38.90373783333333, "rental_uris": {"ios": "https://dc.lft.to/lastmile_qr_scan", "android": "https://dc.lft.to/lastmile_qr_scan"}}, {"type": "electric_scooter", "name": "b2bbbe9ea1edabec3b5c6e7d0f02b282", "fusion_lon": 0.0, "is_reserved": 0, "lon": -77.03205316666667, "fusion_lat": 0.0, "is_disabled": 0, "bike_id": "b2bbbe9ea1edabec3b5c6e7d0f02b282", "lat": 38.915173833333334, "rental_uris": {"ios": "https://dc.lft.to/lastmile_qr_scan", "android": "https://dc.lft.to/lastmile_qr_scan"}}, {"type": "electric_scooter", "name": "a555c84622598455b1657d6e49043c2a", "fusion_lon": 0.0, "is_reserved": 0, "lon": -77.03643566666666, "fusion_lat": 0.0, "is_disabled": 0, "bike_id": "a555c84622598455b1657d6e49043c2a", "lat": 38.911856666666665, "rental_uris": {"ios": "https://dc.lft.to/lastmile_qr_scan", "android": "https://dc.lft.to/lastmile_qr_scan"}}, {"type": "electric_scooter", "name": "482a38a813bc2cf82134331de6699dad", "fusion_lon": 0.0, "is_reserved": 0, "lon": -77.0436705, "fusion_lat": 0.0, "is_disabled": 0, "bike_id": "482a38a813bc2cf82134331de6699dad", "lat": 38.90658783333333, "rental_uris": {"ios": "https://dc.lft.to/lastmile_qr_scan", "android": "https://dc.lft.to/lastmile_qr_scan"}}, {"type": "electric_scooter", "name": "74f097866166e2145d388161dd676a07", "fusion_lon": 0.0, "is_reserved": 0, "lon": -77.02577866666667, "fusion_lat": 0.0, "is_disabled": 0, "bike_id": "74f097866166e2145d388161dd676a07", "lat": 38.9133735, "rental_uris": {"ios": "https://dc.lft.to/lastmile_qr_scan", "android": "https://dc.lft.to/lastmile_qr_scan"}}, {"type": "electric_scooter", "name": "42ede80db1bc34c7309add7c23a6eeee", "fusion_lon": 0.0, "is_reserved": 0, "lon": -77.04288866666667, "fusion_lat": 0.0, "is_disabled": 0, "bike_id": "42ede80db1bc34c7309add7c23a6eeee", "lat": 38.92291383333333, "rental_uris": {"ios": "https://dc.lft.to/lastmile_qr_scan", "android": "https://dc.lft.to/lastmile_qr_scan"}}, {"type": "electric_scooter", "name": "cae754486067d7654595bf008ee62eec", "fusion_lon": 0.0, "is_reserved": 0, "lon": -76.99488716666667, "fusion_lat": 0.0, "is_disabled": 0, "bike_id": "cae754486067d7654595bf008ee62eec", "lat": 38.8622195, "rental_uris": {"ios": "https://dc.lft.to/lastmile_qr_scan", "android": "https://dc.lft.to/lastmile_qr_scan"}}, {"type": "electric_scooter", "name": "04bf84a2f660121007487f008f2de8a0", "fusion_lon": 0.0, "is_reserved": 0, "lon": -76.96553183333333, "fusion_lat": 0.0, "is_disabled": 0, "bike_id": "04bf84a2f660121007487f008f2de8a0", "lat": 38.91880666666667, "rental_uris": {"ios": "https://dc.lft.to/lastmile_qr_scan", "android": "https://dc.lft.to/lastmile_qr_scan"}}, {"type": "electric_bike", "name": "7db5177a8139a4811207f40710994d9c", "fusion_lon": 0.0, "is_reserved": 0, "lon": -76.93309083333334, "fusion_lat": 0.0, "is_disabled": 0, "bike_id": "7db5177a8139a4811207f40710994d9c", "lat": 38.908367, "rental_uris": {"ios": "https://dc.lft.to/lastmile_qr_scan", "android": "https://dc.lft.to/lastmile_qr_scan"}}, {"type": "electric_bike", "name": "da3f204d0c1dd097abdaca2742700ef4", "fusion_lon": 0.0, "is_reserved": 0, "lon": -76.91214933333333, "fusion_lat": 0.0, "is_disabled": 0, "bike_id": "da3f204d0c1dd097abdaca2742700ef4", "lat": 38.90318633333333, "rental_uris": {"ios": "https://dc.lft.to/lastmile_qr_scan", "android": "https://dc.lft.to/lastmile_qr_scan"}}, {"type": "electric_scooter", "name": "3c75cf0dcc66fc57f59148e7834c1007", "fusion_lon": 0.0, "is_reserved": 0, "lon": -77.0652655, "fusion_lat": 0.0, "is_disabled": 0, "bike_id": "3c75cf0dcc66fc57f59148e7834c1007", "lat": 38.90582883333333, "rental_uris": {"ios": "https://dc.lft.to/lastmile_qr_scan", "android": "https://dc.lft.to/lastmile_qr_scan"}}, {"type": "electric_scooter", "name": "f7ab88b58b7a1db286fa61c4040a5809", "fusion_lon": 0.0, "is_reserved": 0, "lon": -77.044476, "fusion_lat": 0.0, "is_disabled": 0, "bike_id": "f7ab88b58b7a1db286fa61c4040a5809", "lat": 38.918753, "rental_uris": {"ios": "https://dc.lft.to/lastmile_qr_scan", "android": "https://dc.lft.to/lastmile_qr_scan"}}, {"type": "electric_scooter", "name": "236062f801f8ca9245d852edeec7396c", "fusion_lon": 0.0, "is_reserved": 0, "lon": -77.008936, "fusion_lat": 0.0, "is_disabled": 0, "bike_id": "236062f801f8ca9245d852edeec7396c", "lat": 38.88501733333333, "rental_uris": {"ios": "https://dc.lft.to/lastmile_qr_scan", "android": "https://dc.lft.to/lastmile_qr_scan"}}, {"type": "electric_scooter", "name": "d669aa64831902f98584e22de63d7671", "fusion_lon": 0.0, "is_reserved": 0, "lon": -76.99758516666667, "fusion_lat": 0.0, "is_disabled": 0, "bike_id": "d669aa64831902f98584e22de63d7671", "lat": 38.885239, "rental_uris": {"ios": "https://dc.lft.to/lastmile_qr_scan", "android": "https://dc.lft.to/lastmile_qr_scan"}}, {"type": "electric_scooter", "name": "5992eea52754d4af8eb6a482df872a6a", "fusion_lon": 0.0, "is_reserved": 0, "lon": -77.02909883333334, "fusion_lat": 0.0, "is_disabled": 0, "bike_id": "5992eea52754d4af8eb6a482df872a6a", "lat": 38.94030933333333, "rental_uris": {"ios": "https://dc.lft.to/lastmile_qr_scan", "android": "https://dc.lft.to/lastmile_qr_scan"}}, {"type": "electric_scooter", "name": "e011d26ea7195e5134eb0c77c9c97bde", "fusion_lon": 0.0, "is_reserved": 0, "lon": -76.953958, "fusion_lat": 0.0, "is_disabled": 0, "bike_id": "e011d26ea7195e5134eb0c77c9c97bde", "lat": 38.88403133333333, "rental_uris": {"ios": "https://dc.lft.to/lastmile_qr_scan", "android": "https://dc.lft.to/lastmile_qr_scan"}}, {"type": "electric_scooter", "name": "d995b991afaa29cec752ff09296daffc", "fusion_lon": 0.0, "is_reserved": 0, "lon": -77.003671, "fusion_lat": 0.0, "is_disabled": 0, "bike_id": "d995b991afaa29cec752ff09296daffc", "lat": 38.89264716666667, "rental_uris": {"ios": "https://dc.lft.to/lastmile_qr_scan", "android": "https://dc.lft.to/lastmile_qr_scan"}}, {"type": "electric_scooter", "name": "9c9c042df2834600bcbf72e87d8f633f", "fusion_lon": 0.0, "is_reserved": 0, "lon": -77.04316833333333, "fusion_lat": 0.0, "is_disabled": 0, "bike_id": "9c9c042df2834600bcbf72e87d8f633f", "lat": 38.902188, "rental_uris": {"ios": "https://dc.lft.to/lastmile_qr_scan", "android": "https://dc.lft.to/lastmile_qr_scan"}}, {"type": "electric_scooter", "name": "4fd0747fccaca140a7a2bef8fee8190f", "fusion_lon": 0.0, "is_reserved": 0, "lon": -77.0070925, "fusion_lat": 0.0, "is_disabled": 0, "bike_id": "4fd0747fccaca140a7a2bef8fee8190f", "lat": 38.88491116666667, "rental_uris": {"ios": "https://dc.lft.to/lastmile_qr_scan", "android": "https://dc.lft.to/lastmile_qr_scan"}}, {"type": "electric_bike", "name": "7e8c67884eba87e00dd3b6ace18f0063", "fusion_lon": 0.0, "is_reserved": 0, "lon": -77.07910266666667, "fusion_lat": 0.0, "is_disabled": 0, "bike_id": "7e8c67884eba87e00dd3b6ace18f0063", "lat": 38.8382865, "rental_uris": {"ios": "https://dc.lft.to/lastmile_qr_scan", "android": "https://dc.lft.to/lastmile_qr_scan"}}, {"type": "electric_scooter", "name": "b2d8b4413e05476911a17c558c0cf863", "fusion_lon": 0.0, "is_reserved": 0, "lon": -77.00214566666666, "fusion_lat": 0.0, "is_disabled": 0, "bike_id": "b2d8b4413e05476911a17c558c0cf863", "lat": 38.9007265, "rental_uris": {"ios": "https://dc.lft.to/lastmile_qr_scan", "android": "https://dc.lft.to/lastmile_qr_scan"}}, {"type": "electric_scooter", "name": "c3460b90d836778104121405874da8b1", "fusion_lon": 0.0, "is_reserved": 0, "lon": -76.97738116666666, "fusion_lat": 0.0, "is_disabled": 0, "bike_id": "c3460b90d836778104121405874da8b1", "lat": 38.864657666666666, "rental_uris": {"ios": "https://dc.lft.to/lastmile_qr_scan", "android": "https://dc.lft.to/lastmile_qr_scan"}}, {"type": "electric_scooter", "name": "332040d58fedbfc37493abcb0c6edf1b", "fusion_lon": 0.0, "is_reserved": 0, "lon": -77.02422616666666, "fusion_lat": 0.0, "is_disabled": 0, "bike_id": "332040d58fedbfc37493abcb0c6edf1b", "lat": 38.92752933333333, "rental_uris": {"ios": "https://dc.lft.to/lastmile_qr_scan", "android": "https://dc.lft.to/lastmile_qr_scan"}}, {"type": "electric_scooter", "name": "e8d8db781c14d9a67deea7a03849b97b", "fusion_lon": 0.0, "is_reserved": 0, "lon": -76.99838316666667, "fusion_lat": 0.0, "is_disabled": 0, "bike_id": "e8d8db781c14d9a67deea7a03849b97b", "lat": 38.88516683333334, "rental_uris": {"ios": "https://dc.lft.to/lastmile_qr_scan", "android": "https://dc.lft.to/lastmile_qr_scan"}}, {"type": "electric_scooter", "name": "e6620a928399e747975d211fde683cfb", "fusion_lon": 0.0, "is_reserved": 0, "lon": -77.01974, "fusion_lat": 0.0, "is_disabled": 0, "bike_id": "e6620a928399e747975d211fde683cfb", "lat": 38.923519166666665, "rental_uris": {"ios": "https://dc.lft.to/lastmile_qr_scan", "android": "https://dc.lft.to/lastmile_qr_scan"}}, {"type": "electric_scooter", "name": "57b1fe248eb1e6713b5ca18fddbfa636", "fusion_lon": 0.0, "is_reserved": 0, "lon": -77.0280115, "fusion_lat": 0.0, "is_disabled": 0, "bike_id": "57b1fe248eb1e6713b5ca18fddbfa636", "lat": 38.91995516666667, "rental_uris": {"ios": "https://dc.lft.to/lastmile_qr_scan", "android": "https://dc.lft.to/lastmile_qr_scan"}}, {"type": "electric_scooter", "name": "0a4491b1497e97765dd03ea415ad7ff5", "fusion_lon": 0.0, "is_reserved": 0, "lon": -77.02073383333334, "fusion_lat": 0.0, "is_disabled": 0, "bike_id": "0a4491b1497e97765dd03ea415ad7ff5", "lat": 38.9033205, "rental_uris": {"ios": "https://dc.lft.to/lastmile_qr_scan", "android": "https://dc.lft.to/lastmile_qr_scan"}}, {"type": "electric_scooter", "name": "44b6f5a4855bc10e7f27defa6db7eff1", "fusion_lon": 0.0, "is_reserved": 0, "lon": -77.05039566666666, "fusion_lat": 0.0, "is_disabled": 0, "bike_id": "44b6f5a4855bc10e7f27defa6db7eff1", "lat": 38.925155833333335, "rental_uris": {"ios": "https://dc.lft.to/lastmile_qr_scan", "android": "https://dc.lft.to/lastmile_qr_scan"}}, {"type": "electric_scooter", "name": "d9154ac6916bcb1c2fe997635fece0ff", "fusion_lon": 0.0, "is_reserved": 0, "lon": -76.94661266666667, "fusion_lat": 0.0, "is_disabled": 0, "bike_id": "d9154ac6916bcb1c2fe997635fece0ff", "lat": 38.89866966666666, "rental_uris": {"ios": "https://dc.lft.to/lastmile_qr_scan", "android": "https://dc.lft.to/lastmile_qr_scan"}}, {"type": "electric_scooter", "name": "2c35f37c093a121601d7a347d9a5a204", "fusion_lon": 0.0, "is_reserved": 0, "lon": -77.02307466666667, "fusion_lat": 0.0, "is_disabled": 0, "bike_id": "2c35f37c093a121601d7a347d9a5a204", "lat": 38.915892, "rental_uris": {"ios": "https://dc.lft.to/lastmile_qr_scan", "android": "https://dc.lft.to/lastmile_qr_scan"}}, {"type": "electric_scooter", "name": "2fc1408a418f846ed338fad5716b41d7", "fusion_lon": 0.0, "is_reserved": 0, "lon": -76.98522383333334, "fusion_lat": 0.0, "is_disabled": 0, "bike_id": "2fc1408a418f846ed338fad5716b41d7", "lat": 38.88070166666667, "rental_uris": {"ios": "https://dc.lft.to/lastmile_qr_scan", "android": "https://dc.lft.to/lastmile_qr_scan"}}, {"type": "electric_scooter", "name": "64989e5f38815069a9fd25c9806e4ab5", "fusion_lon": 0.0, "is_reserved": 0, "lon": -77.04469316666666, "fusion_lat": 0.0, "is_disabled": 0, "bike_id": "64989e5f38815069a9fd25c9806e4ab5", "lat": 38.899361666666664, "rental_uris": {"ios": "https://dc.lft.to/lastmile_qr_scan", "android": "https://dc.lft.to/lastmile_qr_scan"}}, {"type": "electric_scooter", "name": "5d132d72a8357af5a4274be8cca85252", "fusion_lon": 0.0, "is_reserved": 0, "lon": -76.94880266666667, "fusion_lat": 0.0, "is_disabled": 0, "bike_id": "5d132d72a8357af5a4274be8cca85252", "lat": 38.895577, "rental_uris": {"ios": "https://dc.lft.to/lastmile_qr_scan", "android": "https://dc.lft.to/lastmile_qr_scan"}}, {"type": "electric_scooter", "name": "25a1cebeed0db41b654cf6ddd8e5108e", "fusion_lon": 0.0, "is_reserved": 0, "lon": -77.02096383333334, "fusion_lat": 0.0, "is_disabled": 0, "bike_id": "25a1cebeed0db41b654cf6ddd8e5108e", "lat": 38.932686, "rental_uris": {"ios": "https://dc.lft.to/lastmile_qr_scan", "android": "https://dc.lft.to/lastmile_qr_scan"}}, {"type": "electric_scooter", "name": "e3d2be2dc2474d86d2086b3ca4689ac4", "fusion_lon": 0.0, "is_reserved": 0, "lon": -77.012282, "fusion_lat": 0.0, "is_disabled": 0, "bike_id": "e3d2be2dc2474d86d2086b3ca4689ac4", "lat": 38.8641245, "rental_uris": {"ios": "https://dc.lft.to/lastmile_qr_scan", "android": "https://dc.lft.to/lastmile_qr_scan"}}, {"type": "electric_scooter", "name": "457e91b5e9e4b44760f5d8aa18b203a7", "fusion_lon": 0.0, "is_reserved": 0, "lon": -77.02593483333334, "fusion_lat": 0.0, "is_disabled": 0, "bike_id": "457e91b5e9e4b44760f5d8aa18b203a7", "lat": 38.91693883333333, "rental_uris": {"ios": "https://dc.lft.to/lastmile_qr_scan", "android": "https://dc.lft.to/lastmile_qr_scan"}}, {"type": "electric_scooter", "name": "0529097cec6582d6afeca2000d82c47b", "fusion_lon": 0.0, "is_reserved": 0, "lon": -77.04467366666667, "fusion_lat": 0.0, "is_disabled": 0, "bike_id": "0529097cec6582d6afeca2000d82c47b", "lat": 38.911123333333336, "rental_uris": {"ios": "https://dc.lft.to/lastmile_qr_scan", "android": "https://dc.lft.to/lastmile_qr_scan"}}, {"type": "electric_scooter", "name": "fca554b8ee33481d0204b6e3db25b9de", "fusion_lon": 0.0, "is_reserved": 0, "lon": -77.01204183333333, "fusion_lat": 0.0, "is_disabled": 0, "bike_id": "fca554b8ee33481d0204b6e3db25b9de", "lat": 38.912658, "rental_uris": {"ios": "https://dc.lft.to/lastmile_qr_scan", "android": "https://dc.lft.to/lastmile_qr_scan"}}, {"type": "electric_scooter", "name": "013599b98f710d444d3db5371497e7df", "fusion_lon": 0.0, "is_reserved": 0, "lon": -77.00689533333333, "fusion_lat": 0.0, "is_disabled": 0, "bike_id": "013599b98f710d444d3db5371497e7df", "lat": 38.900737, "rental_uris": {"ios": "https://dc.lft.to/lastmile_qr_scan", "android": "https://dc.lft.to/lastmile_qr_scan"}}, {"type": "electric_scooter", "name": "e1b4654d6d7a1669c5e90202425847fe", "fusion_lon": 0.0, "is_reserved": 0, "lon": -77.05969183333333, "fusion_lat": 0.0, "is_disabled": 0, "bike_id": "e1b4654d6d7a1669c5e90202425847fe", "lat": 38.928327, "rental_uris": {"ios": "https://dc.lft.to/lastmile_qr_scan", "android": "https://dc.lft.to/lastmile_qr_scan"}}, {"type": "electric_scooter", "name": "f79a328cd98fd315faba90e21629b448", "fusion_lon": 0.0, "is_reserved": 0, "lon": -76.98734083333333, "fusion_lat": 0.0, "is_disabled": 0, "bike_id": "f79a328cd98fd315faba90e21629b448", "lat": 38.90803066666667, "rental_uris": {"ios": "https://dc.lft.to/lastmile_qr_scan", "android": "https://dc.lft.to/lastmile_qr_scan"}}, {"type": "electric_scooter", "name": "07da31fba854f7444e30afc2ca65dea0", "fusion_lon": 0.0, "is_reserved": 0, "lon": -77.04466883333333, "fusion_lat": 0.0, "is_disabled": 0, "bike_id": "07da31fba854f7444e30afc2ca65dea0", "lat": 38.91415683333334, "rental_uris": {"ios": "https://dc.lft.to/lastmile_qr_scan", "android": "https://dc.lft.to/lastmile_qr_scan"}}, {"type": "electric_scooter", "name": "c2faa078e60e007870afd97dee836d77", "fusion_lon": 0.0, "is_reserved": 0, "lon": -77.03661933333333, "fusion_lat": 0.0, "is_disabled": 0, "bike_id": "c2faa078e60e007870afd97dee836d77", "lat": 38.9224215, "rental_uris": {"ios": "https://dc.lft.to/lastmile_qr_scan", "android": "https://dc.lft.to/lastmile_qr_scan"}}, {"type": "electric_scooter", "name": "e441e4ed8475186bdd8aaef17dc59d5e", "fusion_lon": 0.0, "is_reserved": 0, "lon": -77.0490645, "fusion_lat": 0.0, "is_disabled": 0, "bike_id": "e441e4ed8475186bdd8aaef17dc59d5e", "lat": 38.888414833333336, "rental_uris": {"ios": "https://dc.lft.to/lastmile_qr_scan", "android": "https://dc.lft.to/lastmile_qr_scan"}}, {"type": "electric_scooter", "name": "0a2f54c7a772d0c8037d8dc4a816c093", "fusion_lon": 0.0, "is_reserved": 0, "lon": -77.04265283333334, "fusion_lat": 0.0, "is_disabled": 0, "bike_id": "0a2f54c7a772d0c8037d8dc4a816c093", "lat": 38.9229515, "rental_uris": {"ios": "https://dc.lft.to/lastmile_qr_scan", "android": "https://dc.lft.to/lastmile_qr_scan"}}, {"type": "electric_scooter", "name": "69956c5fc99b6c32efa46d9b0dc66c4f", "fusion_lon": 0.0, "is_reserved": 0, "lon": -76.98513966666667, "fusion_lat": 0.0, "is_disabled": 0, "bike_id": "69956c5fc99b6c32efa46d9b0dc66c4f", "lat": 38.88074433333333, "rental_uris": {"ios": "https://dc.lft.to/lastmile_qr_scan", "android": "https://dc.lft.to/lastmile_qr_scan"}}, {"type": "electric_scooter", "name": "0761a4c154e38a8024fe43c74a6ba41f", "fusion_lon": 0.0, "is_reserved": 0, "lon": -77.05326116666667, "fusion_lat": 0.0, "is_disabled": 0, "bike_id": "0761a4c154e38a8024fe43c74a6ba41f", "lat": 38.915578833333335, "rental_uris": {"ios": "https://dc.lft.to/lastmile_qr_scan", "android": "https://dc.lft.to/lastmile_qr_scan"}}, {"type": "electric_scooter", "name": "943b80cc574104e71da3c9fc9b8e02e4", "fusion_lon": 0.0, "is_reserved": 0, "lon": -77.03392216666667, "fusion_lat": 0.0, "is_disabled": 0, "bike_id": "943b80cc574104e71da3c9fc9b8e02e4", "lat": 38.919223333333335, "rental_uris": {"ios": "https://dc.lft.to/lastmile_qr_scan", "android": "https://dc.lft.to/lastmile_qr_scan"}}, {"type": "electric_scooter", "name": "9a0911c56e953a74cfcc1a8d873459e9", "fusion_lon": 0.0, "is_reserved": 0, "lon": -77.04332733333334, "fusion_lat": 0.0, "is_disabled": 0, "bike_id": "9a0911c56e953a74cfcc1a8d873459e9", "lat": 38.892273833333334, "rental_uris": {"ios": "https://dc.lft.to/lastmile_qr_scan", "android": "https://dc.lft.to/lastmile_qr_scan"}}, {"type": "electric_bike", "name": "ded8cad3c008196019de801ce04ad678", "fusion_lon": 0.0, "is_reserved": 0, "lon": -77.06455433333333, "fusion_lat": 0.0, "is_disabled": 0, "bike_id": "ded8cad3c008196019de801ce04ad678", "lat": 38.97397, "rental_uris": {"ios": "https://dc.lft.to/lastmile_qr_scan", "android": "https://dc.lft.to/lastmile_qr_scan"}}, {"type": "electric_scooter", "name": "2e0562470a75188df87a4814837414d7", "fusion_lon": 0.0, "is_reserved": 0, "lon": -77.01175116666667, "fusion_lat": 0.0, "is_disabled": 0, "bike_id": "2e0562470a75188df87a4814837414d7", "lat": 38.915683333333334, "rental_uris": {"ios": "https://dc.lft.to/lastmile_qr_scan", "android": "https://dc.lft.to/lastmile_qr_scan"}}, {"type": "electric_scooter", "name": "5c74e1f6c0372ab98aa261c8e111750b", "fusion_lon": 0.0, "is_reserved": 0, "lon": -76.92982816666667, "fusion_lat": 0.0, "is_disabled": 0, "bike_id": "5c74e1f6c0372ab98aa261c8e111750b", "lat": 38.901403, "rental_uris": {"ios": "https://dc.lft.to/lastmile_qr_scan", "android": "https://dc.lft.to/lastmile_qr_scan"}}, {"type": "electric_scooter", "name": "36ee919fd22a7207fc23a03db91c0f5d", "fusion_lon": 0.0, "is_reserved": 0, "lon": -77.04142166666666, "fusion_lat": 0.0, "is_disabled": 0, "bike_id": "36ee919fd22a7207fc23a03db91c0f5d", "lat": 38.926475333333336, "rental_uris": {"ios": "https://dc.lft.to/lastmile_qr_scan", "android": "https://dc.lft.to/lastmile_qr_scan"}}, {"type": "electric_scooter", "name": "82ceabaa3ee0673de4a099a76a4c7567", "fusion_lon": 0.0, "is_reserved": 0, "lon": -77.045105, "fusion_lat": 0.0, "is_disabled": 0, "bike_id": "82ceabaa3ee0673de4a099a76a4c7567", "lat": 38.90586616666667, "rental_uris": {"ios": "https://dc.lft.to/lastmile_qr_scan", "android": "https://dc.lft.to/lastmile_qr_scan"}}, {"type": "electric_scooter", "name": "27e81490abfbd62bb0937ab34a4bf3aa", "fusion_lon": 0.0, "is_reserved": 0, "lon": -77.03204916666667, "fusion_lat": 0.0, "is_disabled": 0, "bike_id": "27e81490abfbd62bb0937ab34a4bf3aa", "lat": 38.9169175, "rental_uris": {"ios": "https://dc.lft.to/lastmile_qr_scan", "android": "https://dc.lft.to/lastmile_qr_scan"}}, {"type": "electric_scooter", "name": "c0c58d8eb82342cb7fe9ada1ca894979", "fusion_lon": 0.0, "is_reserved": 0, "lon": -76.98515316666666, "fusion_lat": 0.0, "is_disabled": 0, "bike_id": "c0c58d8eb82342cb7fe9ada1ca894979", "lat": 38.880776, "rental_uris": {"ios": "https://dc.lft.to/lastmile_qr_scan", "android": "https://dc.lft.to/lastmile_qr_scan"}}, {"type": "electric_scooter", "name": "b6373c5e8bc8bec48267c0015f653c22", "fusion_lon": 0.0, "is_reserved": 0, "lon": -77.02490133333333, "fusion_lat": 0.0, "is_disabled": 0, "bike_id": "b6373c5e8bc8bec48267c0015f653c22", "lat": 38.93863483333333, "rental_uris": {"ios": "https://dc.lft.to/lastmile_qr_scan", "android": "https://dc.lft.to/lastmile_qr_scan"}}, {"type": "electric_scooter", "name": "d71f5c2e28be10f940e47e909bc4952a", "fusion_lon": 0.0, "is_reserved": 0, "lon": -77.03856833333333, "fusion_lat": 0.0, "is_disabled": 0, "bike_id": "d71f5c2e28be10f940e47e909bc4952a", "lat": 38.917141, "rental_uris": {"ios": "https://dc.lft.to/lastmile_qr_scan", "android": "https://dc.lft.to/lastmile_qr_scan"}}, {"type": "electric_scooter", "name": "eb79b256f11850c9a60fbedfa32405c7", "fusion_lon": 0.0, "is_reserved": 0, "lon": -77.04872383333333, "fusion_lat": 0.0, "is_disabled": 0, "bike_id": "eb79b256f11850c9a60fbedfa32405c7", "lat": 38.893237, "rental_uris": {"ios": "https://dc.lft.to/lastmile_qr_scan", "android": "https://dc.lft.to/lastmile_qr_scan"}}, {"type": "electric_scooter", "name": "29535c4c2721d01e5f9a20c28f453993", "fusion_lon": 0.0, "is_reserved": 0, "lon": -76.9760525, "fusion_lat": 0.0, "is_disabled": 0, "bike_id": "29535c4c2721d01e5f9a20c28f453993", "lat": 38.86990683333333, "rental_uris": {"ios": "https://dc.lft.to/lastmile_qr_scan", "android": "https://dc.lft.to/lastmile_qr_scan"}}, {"type": "electric_scooter", "name": "64910c7a7c3285a91d17d2e415653aa7", "fusion_lon": 0.0, "is_reserved": 0, "lon": -77.02834266666666, "fusion_lat": 0.0, "is_disabled": 0, "bike_id": "64910c7a7c3285a91d17d2e415653aa7", "lat": 38.8872595, "rental_uris": {"ios": "https://dc.lft.to/lastmile_qr_scan", "android": "https://dc.lft.to/lastmile_qr_scan"}}, {"type": "electric_scooter", "name": "dca817cee8b4944266ebb8323ef07a09", "fusion_lon": 0.0, "is_reserved": 0, "lon": -77.08829983333334, "fusion_lat": 0.0, "is_disabled": 0, "bike_id": "dca817cee8b4944266ebb8323ef07a09", "lat": 38.943091833333334, "rental_uris": {"ios": "https://dc.lft.to/lastmile_qr_scan", "android": "https://dc.lft.to/lastmile_qr_scan"}}, {"type": "electric_scooter", "name": "51a39257a757e4ccebd72fc6f548b262", "fusion_lon": 0.0, "is_reserved": 0, "lon": -77.04338566666667, "fusion_lat": 0.0, "is_disabled": 0, "bike_id": "51a39257a757e4ccebd72fc6f548b262", "lat": 38.90813716666667, "rental_uris": {"ios": "https://dc.lft.to/lastmile_qr_scan", "android": "https://dc.lft.to/lastmile_qr_scan"}}, {"type": "electric_scooter", "name": "0dd29c7cc93fc88f173886a96356f970", "fusion_lon": 0.0, "is_reserved": 0, "lon": -77.03238766666666, "fusion_lat": 0.0, "is_disabled": 0, "bike_id": "0dd29c7cc93fc88f173886a96356f970", "lat": 38.90465566666666, "rental_uris": {"ios": "https://dc.lft.to/lastmile_qr_scan", "android": "https://dc.lft.to/lastmile_qr_scan"}}, {"type": "electric_scooter", "name": "fb9474b0ba466051ff5b1e436b6e03ee", "fusion_lon": 0.0, "is_reserved": 0, "lon": -76.98889416666667, "fusion_lat": 0.0, "is_disabled": 0, "bike_id": "fb9474b0ba466051ff5b1e436b6e03ee", "lat": 38.86652566666667, "rental_uris": {"ios": "https://dc.lft.to/lastmile_qr_scan", "android": "https://dc.lft.to/lastmile_qr_scan"}}, {"type": "electric_scooter", "name": "acf4ef68df844940cf21aa6a4b9d003a", "fusion_lon": 0.0, "is_reserved": 0, "lon": -77.01469333333333, "fusion_lat": 0.0, "is_disabled": 0, "bike_id": "acf4ef68df844940cf21aa6a4b9d003a", "lat": 38.91495183333333, "rental_uris": {"ios": "https://dc.lft.to/lastmile_qr_scan", "android": "https://dc.lft.to/lastmile_qr_scan"}}, {"type": "electric_scooter", "name": "37835a6233e19e319791817ba8f8f2e3", "fusion_lon": 0.0, "is_reserved": 0, "lon": -77.03589716666667, "fusion_lat": 0.0, "is_disabled": 0, "bike_id": "37835a6233e19e319791817ba8f8f2e3", "lat": 38.93674933333333, "rental_uris": {"ios": "https://dc.lft.to/lastmile_qr_scan", "android": "https://dc.lft.to/lastmile_qr_scan"}}, {"type": "electric_bike", "name": "dcfd29f4859eb34e3812357557d3d029", "fusion_lon": 0.0, "is_reserved": 0, "lon": -77.08068666666667, "fusion_lat": 0.0, "is_disabled": 0, "bike_id": "dcfd29f4859eb34e3812357557d3d029", "lat": 39.05282066666667, "rental_uris": {"ios": "https://dc.lft.to/lastmile_qr_scan", "android": "https://dc.lft.to/lastmile_qr_scan"}}, {"type": "electric_scooter", "name": "26c7bb258b21da90b61d84a7469df1f7", "fusion_lon": 0.0, "is_reserved": 0, "lon": -77.04615966666667, "fusion_lat": 0.0, "is_disabled": 0, "bike_id": "26c7bb258b21da90b61d84a7469df1f7", "lat": 38.9154435, "rental_uris": {"ios": "https://dc.lft.to/lastmile_qr_scan", "android": "https://dc.lft.to/lastmile_qr_scan"}}, {"type": "electric_bike", "name": "de9510ff8f4322bc66a4e3775dc2465a", "fusion_lon": 0.0, "is_reserved": 0, "lon": -76.96525816666667, "fusion_lat": 0.0, "is_disabled": 0, "bike_id": "de9510ff8f4322bc66a4e3775dc2465a", "lat": 38.874778, "rental_uris": {"ios": "https://dc.lft.to/lastmile_qr_scan", "android": "https://dc.lft.to/lastmile_qr_scan"}}, {"type": "electric_scooter", "name": "4f95d73f6b605ccb7071b916ee628dfd", "fusion_lon": 0.0, "is_reserved": 0, "lon": -76.98818883333334, "fusion_lat": 0.0, "is_disabled": 0, "bike_id": "4f95d73f6b605ccb7071b916ee628dfd", "lat": 38.90064366666667, "rental_uris": {"ios": "https://dc.lft.to/lastmile_qr_scan", "android": "https://dc.lft.to/lastmile_qr_scan"}}, {"type": "electric_scooter", "name": "25fe51cf2395abd50be9699a8ef05229", "fusion_lon": 0.0, "is_reserved": 0, "lon": -77.02297633333333, "fusion_lat": 0.0, "is_disabled": 0, "bike_id": "25fe51cf2395abd50be9699a8ef05229", "lat": 38.90932816666667, "rental_uris": {"ios": "https://dc.lft.to/lastmile_qr_scan", "android": "https://dc.lft.to/lastmile_qr_scan"}}, {"type": "electric_scooter", "name": "302cce0ca47a54c0c12b5dbbe4a249f8", "fusion_lon": 0.0, "is_reserved": 0, "lon": -76.98520983333333, "fusion_lat": 0.0, "is_disabled": 0, "bike_id": "302cce0ca47a54c0c12b5dbbe4a249f8", "lat": 38.860105833333336, "rental_uris": {"ios": "https://dc.lft.to/lastmile_qr_scan", "android": "https://dc.lft.to/lastmile_qr_scan"}}, {"type": "electric_scooter", "name": "77f4dd15571bd7f8090085e46d736481", "fusion_lon": 0.0, "is_reserved": 0, "lon": -77.0304225, "fusion_lat": 0.0, "is_disabled": 0, "bike_id": "77f4dd15571bd7f8090085e46d736481", "lat": 38.88424416666667, "rental_uris": {"ios": "https://dc.lft.to/lastmile_qr_scan", "android": "https://dc.lft.to/lastmile_qr_scan"}}, {"type": "electric_scooter", "name": "de009cefae9b6f4fbc0193a00744f6d5", "fusion_lon": 0.0, "is_reserved": 0, "lon": -76.99511516666666, "fusion_lat": 0.0, "is_disabled": 0, "bike_id": "de009cefae9b6f4fbc0193a00744f6d5", "lat": 38.88126616666667, "rental_uris": {"ios": "https://dc.lft.to/lastmile_qr_scan", "android": "https://dc.lft.to/lastmile_qr_scan"}}, {"type": "electric_scooter", "name": "e6f8bb7ff257ab9c41b1498b82cc5de6", "fusion_lon": 0.0, "is_reserved": 0, "lon": -76.93185066666666, "fusion_lat": 0.0, "is_disabled": 0, "bike_id": "e6f8bb7ff257ab9c41b1498b82cc5de6", "lat": 38.89875983333334, "rental_uris": {"ios": "https://dc.lft.to/lastmile_qr_scan", "android": "https://dc.lft.to/lastmile_qr_scan"}}, {"type": "electric_scooter", "name": "196041904876c5cdef4019fced92dc5f", "fusion_lon": 0.0, "is_reserved": 0, "lon": -77.05066783333334, "fusion_lat": 0.0, "is_disabled": 0, "bike_id": "196041904876c5cdef4019fced92dc5f", "lat": 38.92420083333333, "rental_uris": {"ios": "https://dc.lft.to/lastmile_qr_scan", "android": "https://dc.lft.to/lastmile_qr_scan"}}, {"type": "electric_scooter", "name": "7c8516557af86c5d61a2ee90a8e184aa", "fusion_lon": 0.0, "is_reserved": 0, "lon": -77.00556783333333, "fusion_lat": 0.0, "is_disabled": 0, "bike_id": "7c8516557af86c5d61a2ee90a8e184aa", "lat": 38.874716166666666, "rental_uris": {"ios": "https://dc.lft.to/lastmile_qr_scan", "android": "https://dc.lft.to/lastmile_qr_scan"}}, {"type": "electric_scooter", "name": "3bac887e7542aa264fa8cf146b0aec3b", "fusion_lon": 0.0, "is_reserved": 0, "lon": -77.04915716666666, "fusion_lat": 0.0, "is_disabled": 0, "bike_id": "3bac887e7542aa264fa8cf146b0aec3b", "lat": 38.914199833333335, "rental_uris": {"ios": "https://dc.lft.to/lastmile_qr_scan", "android": "https://dc.lft.to/lastmile_qr_scan"}}, {"type": "electric_scooter", "name": "22cdb520f9323aef579a4f547bcaaecc", "fusion_lon": 0.0, "is_reserved": 0, "lon": -76.98691633333334, "fusion_lat": 0.0, "is_disabled": 0, "bike_id": "22cdb520f9323aef579a4f547bcaaecc", "lat": 38.9070115, "rental_uris": {"ios": "https://dc.lft.to/lastmile_qr_scan", "android": "https://dc.lft.to/lastmile_qr_scan"}}, {"type": "electric_scooter", "name": "baa5a06f9e7840cc9add53d5f459e2ba", "fusion_lon": 0.0, "is_reserved": 0, "lon": -77.0117145, "fusion_lat": 0.0, "is_disabled": 0, "bike_id": "baa5a06f9e7840cc9add53d5f459e2ba", "lat": 38.9157085, "rental_uris": {"ios": "https://dc.lft.to/lastmile_qr_scan", "android": "https://dc.lft.to/lastmile_qr_scan"}}, {"type": "electric_scooter", "name": "38e1ff412abbf3087fa11203eb822a61", "fusion_lon": 0.0, "is_reserved": 0, "lon": -77.02120316666667, "fusion_lat": 0.0, "is_disabled": 0, "bike_id": "38e1ff412abbf3087fa11203eb822a61", "lat": 38.92252, "rental_uris": {"ios": "https://dc.lft.to/lastmile_qr_scan", "android": "https://dc.lft.to/lastmile_qr_scan"}}, {"type": "electric_scooter", "name": "c13880c9eaf5639a0d191b3dbfb3ed91", "fusion_lon": 0.0, "is_reserved": 0, "lon": -77.02172183333333, "fusion_lat": 0.0, "is_disabled": 0, "bike_id": "c13880c9eaf5639a0d191b3dbfb3ed91", "lat": 38.943000166666664, "rental_uris": {"ios": "https://dc.lft.to/lastmile_qr_scan", "android": "https://dc.lft.to/lastmile_qr_scan"}}, {"type": "electric_scooter", "name": "5397ed414fc55dd138c5abc1d514f905", "fusion_lon": 0.0, "is_reserved": 0, "lon": -77.03835316666667, "fusion_lat": 0.0, "is_disabled": 0, "bike_id": "5397ed414fc55dd138c5abc1d514f905", "lat": 38.90811733333334, "rental_uris": {"ios": "https://dc.lft.to/lastmile_qr_scan", "android": "https://dc.lft.to/lastmile_qr_scan"}}, {"type": "electric_scooter", "name": "e334a1d91a784a94bb923d3680cbe89d", "fusion_lon": 0.0, "is_reserved": 0, "lon": -76.95098216666666, "fusion_lat": 0.0, "is_disabled": 0, "bike_id": "e334a1d91a784a94bb923d3680cbe89d", "lat": 38.888185166666666, "rental_uris": {"ios": "https://dc.lft.to/lastmile_qr_scan", "android": "https://dc.lft.to/lastmile_qr_scan"}}, {"type": "electric_scooter", "name": "ca8e650a3d53882798f8658eddc6f2f7", "fusion_lon": 0.0, "is_reserved": 0, "lon": -77.03523816666667, "fusion_lat": 0.0, "is_disabled": 0, "bike_id": "ca8e650a3d53882798f8658eddc6f2f7", "lat": 38.92309566666667, "rental_uris": {"ios": "https://dc.lft.to/lastmile_qr_scan", "android": "https://dc.lft.to/lastmile_qr_scan"}}, {"type": "electric_scooter", "name": "77be971c61219022528ee14100e46e74", "fusion_lon": 0.0, "is_reserved": 0, "lon": -77.03064516666667, "fusion_lat": 0.0, "is_disabled": 0, "bike_id": "77be971c61219022528ee14100e46e74", "lat": 38.90932316666667, "rental_uris": {"ios": "https://dc.lft.to/lastmile_qr_scan", "android": "https://dc.lft.to/lastmile_qr_scan"}}, {"type": "electric_scooter", "name": "4eb1cbb3f47b3247baf82a0c1e306c36", "fusion_lon": 0.0, "is_reserved": 0, "lon": -77.0277975, "fusion_lat": 0.0, "is_disabled": 0, "bike_id": "4eb1cbb3f47b3247baf82a0c1e306c36", "lat": 38.95616166666667, "rental_uris": {"ios": "https://dc.lft.to/lastmile_qr_scan", "android": "https://dc.lft.to/lastmile_qr_scan"}}, {"type": "electric_scooter", "name": "3ecb897f60f79cf1b608641bc56d1764", "fusion_lon": 0.0, "is_reserved": 0, "lon": -77.0238465, "fusion_lat": 0.0, "is_disabled": 0, "bike_id": "3ecb897f60f79cf1b608641bc56d1764", "lat": 38.9000785, "rental_uris": {"ios": "https://dc.lft.to/lastmile_qr_scan", "android": "https://dc.lft.to/lastmile_qr_scan"}}, {"type": "electric_scooter", "name": "687a21300d556c0c277f9710c64c1ea3", "fusion_lon": 0.0, "is_reserved": 0, "lon": -76.99270216666666, "fusion_lat": 0.0, "is_disabled": 0, "bike_id": "687a21300d556c0c277f9710c64c1ea3", "lat": 38.89298516666667, "rental_uris": {"ios": "https://dc.lft.to/lastmile_qr_scan", "android": "https://dc.lft.to/lastmile_qr_scan"}}, {"type": "electric_scooter", "name": "e0291740cc9f5fb0196a0100e63abf74", "fusion_lon": 0.0, "is_reserved": 0, "lon": -77.03183316666667, "fusion_lat": 0.0, "is_disabled": 0, "bike_id": "e0291740cc9f5fb0196a0100e63abf74", "lat": 38.91741966666667, "rental_uris": {"ios": "https://dc.lft.to/lastmile_qr_scan", "android": "https://dc.lft.to/lastmile_qr_scan"}}, {"type": "electric_scooter", "name": "e04a19738475e95ebb991443495e9f38", "fusion_lon": 0.0, "is_reserved": 0, "lon": -77.03191266666667, "fusion_lat": 0.0, "is_disabled": 0, "bike_id": "e04a19738475e95ebb991443495e9f38", "lat": 38.90790716666667, "rental_uris": {"ios": "https://dc.lft.to/lastmile_qr_scan", "android": "https://dc.lft.to/lastmile_qr_scan"}}, {"type": "electric_scooter", "name": "86c0d95e2ef6cd4877d322fc6cc1803a", "fusion_lon": 0.0, "is_reserved": 0, "lon": -77.04449716666667, "fusion_lat": 0.0, "is_disabled": 0, "bike_id": "86c0d95e2ef6cd4877d322fc6cc1803a", "lat": 38.9187295, "rental_uris": {"ios": "https://dc.lft.to/lastmile_qr_scan", "android": "https://dc.lft.to/lastmile_qr_scan"}}, {"type": "electric_scooter", "name": "d46fd76e5dc5ca60aaf0477cd1f30277", "fusion_lon": 0.0, "is_reserved": 0, "lon": -77.03348983333333, "fusion_lat": 0.0, "is_disabled": 0, "bike_id": "d46fd76e5dc5ca60aaf0477cd1f30277", "lat": 38.8994085, "rental_uris": {"ios": "https://dc.lft.to/lastmile_qr_scan", "android": "https://dc.lft.to/lastmile_qr_scan"}}, {"type": "electric_scooter", "name": "4d1e2eab662f9425a75d614ea470db21", "fusion_lon": 0.0, "is_reserved": 0, "lon": -77.03366716666666, "fusion_lat": 0.0, "is_disabled": 0, "bike_id": "4d1e2eab662f9425a75d614ea470db21", "lat": 38.89944083333334, "rental_uris": {"ios": "https://dc.lft.to/lastmile_qr_scan", "android": "https://dc.lft.to/lastmile_qr_scan"}}, {"type": "electric_bike", "name": "a03c29c4d824318d3e11a29d1b064854", "fusion_lon": 0.0, "is_reserved": 0, "lon": -77.17190466666666, "fusion_lat": 0.0, "is_disabled": 0, "bike_id": "a03c29c4d824318d3e11a29d1b064854", "lat": 38.88289566666667, "rental_uris": {"ios": "https://dc.lft.to/lastmile_qr_scan", "android": "https://dc.lft.to/lastmile_qr_scan"}}, {"type": "electric_scooter", "name": "9b96f2f60e48119f359949f23c4a0510", "fusion_lon": 0.0, "is_reserved": 0, "lon": -77.01281533333334, "fusion_lat": 0.0, "is_disabled": 0, "bike_id": "9b96f2f60e48119f359949f23c4a0510", "lat": 38.892306, "rental_uris": {"ios": "https://dc.lft.to/lastmile_qr_scan", "android": "https://dc.lft.to/lastmile_qr_scan"}}, {"type": "electric_scooter", "name": "ef858269ebd26003ecbd91ad00a916bf", "fusion_lon": 0.0, "is_reserved": 0, "lon": -76.94573516666667, "fusion_lat": 0.0, "is_disabled": 0, "bike_id": "ef858269ebd26003ecbd91ad00a916bf", "lat": 38.89936016666667, "rental_uris": {"ios": "https://dc.lft.to/lastmile_qr_scan", "android": "https://dc.lft.to/lastmile_qr_scan"}}, {"type": "electric_scooter", "name": "0af06f25b99ebeeaf91d20f466500b73", "fusion_lon": 0.0, "is_reserved": 0, "lon": -76.9337845, "fusion_lat": 0.0, "is_disabled": 0, "bike_id": "0af06f25b99ebeeaf91d20f466500b73", "lat": 38.89910016666666, "rental_uris": {"ios": "https://dc.lft.to/lastmile_qr_scan", "android": "https://dc.lft.to/lastmile_qr_scan"}}, {"type": "electric_scooter", "name": "b024f3335af93e62c5fa228911bc32fb", "fusion_lon": 0.0, "is_reserved": 0, "lon": -77.0383745, "fusion_lat": 0.0, "is_disabled": 0, "bike_id": "b024f3335af93e62c5fa228911bc32fb", "lat": 38.93242, "rental_uris": {"ios": "https://dc.lft.to/lastmile_qr_scan", "android": "https://dc.lft.to/lastmile_qr_scan"}}, {"type": "electric_scooter", "name": "b9097cb1f874459ca827a80a538f8715", "fusion_lon": 0.0, "is_reserved": 0, "lon": -77.03475616666667, "fusion_lat": 0.0, "is_disabled": 0, "bike_id": "b9097cb1f874459ca827a80a538f8715", "lat": 38.91717916666666, "rental_uris": {"ios": "https://dc.lft.to/lastmile_qr_scan", "android": "https://dc.lft.to/lastmile_qr_scan"}}, {"type": "electric_bike", "name": "dc65e0c1a5c657d418ae4ac2aa109810", "fusion_lon": 0.0, "is_reserved": 0, "lon": -77.119865, "fusion_lat": 0.0, "is_disabled": 0, "bike_id": "dc65e0c1a5c657d418ae4ac2aa109810", "lat": 38.847295333333335, "rental_uris": {"ios": "https://dc.lft.to/lastmile_qr_scan", "android": "https://dc.lft.to/lastmile_qr_scan"}}, {"type": "electric_scooter", "name": "db0bb03d2edcb5f831fde7b93e4b98c6", "fusion_lon": 0.0, "is_reserved": 0, "lon": -77.04655466666667, "fusion_lat": 0.0, "is_disabled": 0, "bike_id": "db0bb03d2edcb5f831fde7b93e4b98c6", "lat": 38.90130683333334, "rental_uris": {"ios": "https://dc.lft.to/lastmile_qr_scan", "android": "https://dc.lft.to/lastmile_qr_scan"}}, {"type": "electric_scooter", "name": "d73db8ad0bdfc1398aee2f1271e14bd1", "fusion_lon": 0.0, "is_reserved": 0, "lon": -77.022025, "fusion_lat": 0.0, "is_disabled": 0, "bike_id": "d73db8ad0bdfc1398aee2f1271e14bd1", "lat": 38.905288666666664, "rental_uris": {"ios": "https://dc.lft.to/lastmile_qr_scan", "android": "https://dc.lft.to/lastmile_qr_scan"}}, {"type": "electric_scooter", "name": "101f959b1ea628dc3658a5612df326f5", "fusion_lon": 0.0, "is_reserved": 0, "lon": -77.07343116666667, "fusion_lat": 0.0, "is_disabled": 0, "bike_id": "101f959b1ea628dc3658a5612df326f5", "lat": 38.91266516666666, "rental_uris": {"ios": "https://dc.lft.to/lastmile_qr_scan", "android": "https://dc.lft.to/lastmile_qr_scan"}}, {"type": "electric_scooter", "name": "ecbe9f90e3b1733df7f4325b75276220", "fusion_lon": 0.0, "is_reserved": 0, "lon": -77.00014783333333, "fusion_lat": 0.0, "is_disabled": 0, "bike_id": "ecbe9f90e3b1733df7f4325b75276220", "lat": 38.87400783333333, "rental_uris": {"ios": "https://dc.lft.to/lastmile_qr_scan", "android": "https://dc.lft.to/lastmile_qr_scan"}}, {"type": "electric_scooter", "name": "44724d141b968af585f0535ca5aeb50f", "fusion_lon": 0.0, "is_reserved": 0, "lon": -77.01646816666667, "fusion_lat": 0.0, "is_disabled": 0, "bike_id": "44724d141b968af585f0535ca5aeb50f", "lat": 38.90394216666667, "rental_uris": {"ios": "https://dc.lft.to/lastmile_qr_scan", "android": "https://dc.lft.to/lastmile_qr_scan"}}, {"type": "electric_scooter", "name": "73b84a38bde2a8a8a03aeed3cbb2ef4e", "fusion_lon": 0.0, "is_reserved": 0, "lon": -76.97581683333334, "fusion_lat": 0.0, "is_disabled": 0, "bike_id": "73b84a38bde2a8a8a03aeed3cbb2ef4e", "lat": 38.9033655, "rental_uris": {"ios": "https://dc.lft.to/lastmile_qr_scan", "android": "https://dc.lft.to/lastmile_qr_scan"}},