{"data": {"bikes": [{"bike_id": "18fbc6e41473014a02ee4fd01bcaf556", "type": "electric_scooter", "is_disabled": 0, "lat": 38.928015333333335, "rental_uris": {"ios": "https://dc.lft.to/lastmile_qr_scan", "android": "https://dc.lft.to/lastmile_qr_scan"}, "is_reserved": 0, "fusion_lon": 0.0, "fusion_lat": 0.0, "lon": -77.03590583333333, "name": "18fbc6e41473014a02ee4fd01bcaf556"}, {"bike_id": "ce303f40fc745dcdf3912545819291d7", "type": "electric_scooter", "is_disabled": 0, "lat": 38.925844, "rental_uris": {"ios": "https://dc.lft.to/lastmile_qr_scan", "android": "https://dc.lft.to/lastmile_qr_scan"}, "is_reserved": 0, "fusion_lon": 0.0, "fusion_lat": 0.0, "lon": -77.037405, "name": "ce303f40fc745dcdf3912545819291d7"}, {"bike_id": "1295db7e237de0dc0230525cc614679a", "type": "electric_scooter", "is_disabled": 0, "lat": 38.915408, "rental_uris": {"ios": "https://dc.lft.to/lastmile_qr_scan", "android": "https://dc.lft.to/lastmile_qr_scan"}, "is_reserved": 0, "fusion_lon": 0.0, "fusion_lat": 0.0, "lon": -77.03853233333334, "name": "1295db7e237de0dc0230525cc614679a"}, {"bike_id": "0dd6058fdacfa1edeae8cfb204ecda8f", "type": "electric_scooter", "is_disabled": 0, "lat": 38.927711333333335, "rental_uris": {"ios": "https://dc.lft.to/lastmile_qr_scan", "android": "https://dc.lft.to/lastmile_qr_scan"}, "is_reserved": 0, "fusion_lon": 0.0, "fusion_lat": 0.0, "lon": -76.98757333333333, "name": "0dd6058fdacfa1edeae8cfb204ecda8f"}, {"bike_id": "7648ff1ec0300ee300ae4bff40923fdf", "type": "electric_scooter", "is_disabled": 0, "lat": 38.957355666666665, "rental_uris": {"ios": "https://dc.lft.to/lastmile_qr_scan", "android": "https://dc.lft.to/lastmile_qr_scan"}, "is_reserved": 0, "fusion_lon": 0.0, "fusion_lat": 0.0, "lon": -77.02400533333333, "name": "7648ff1ec0300ee300ae4bff40923fdf"}, {"bike_id": "6c6119beb41d0c7840a7716d376bea7e", "type": "electric_scooter", "is_disabled": 0, "lat": 38.922772, "rental_uris": {"ios": "https://dc.lft.to/lastmile_qr_scan", "android": "https://dc.lft.to/lastmile_qr_scan"}, "is_reserved": 0, "fusion_lon": 0.0, "fusion_lat": 0.0, "lon": -76.9945565, "name": "6c6119beb41d0c7840a7716d376bea7e"}, {"bike_id": "c4f24b2b3645dde0364855ee8865e603", "type": "electric_bike", "is_disabled": 0, "lat": 38.912493, "rental_uris": {"ios": "https://dc.lft.to/lastmile_qr_scan", "android": "https://dc.lft.to/lastmile_qr_scan"}, "is_reserved": 0, "fusion_lon": 0.0, "fusion_lat": 0.0, "lon": -77.087373, "name": "c4f24b2b3645dde0364855ee8865e603"}, {"bike_id": "b68a18d7678c36a109ba475e392cfc97", "type": "electric_bike", "is_disabled": 0, "lat": 38.937755833333334, "rental_uris": {"ios": "https://dc.lft.to/lastmile_qr_scan", "android": "https://dc.lft.to/lastmile_qr_scan"}, "is_reserved": 0, "fusion_lon": 0.0, "fusion_lat": 0.0, "lon": -77.01914, "name": "b68a18d7678c36a109ba475e392cfc97"}, {"bike_id": "a29011dd6df07d16a3b324a652583d49", "type": "electric_scooter", "is_disabled": 0, "lat": 38.866876833333336, "rental_uris": {"ios": "https://dc.lft.to/lastmile_qr_scan", "android": "https://dc.lft.to/lastmile_qr_scan"}, "is_reserved": 0, "fusion_lon": 0.0, "fusion_lat": 0.0, "lon": -76.9857605, "name": "a29011dd6df07d16a3b324a652583d49"}, {"bike_id": "3799d64ad4a8ea17bb9871793d3e0261", "type": "electric_scooter", "is_disabled": 0, "lat": 38.89604883333333, "rental_uris": {"ios": "https://dc.lft.to/lastmile_qr_scan", "android": "https://dc.lft.to/lastmile_qr_scan"}, "is_reserved": 0, "fusion_lon": 0.0, "fusion_lat": 0.0, "lon": -77.01083033333333, "name": "3799d64ad4a8ea17bb9871793d3e0261"}, {"bike_id": "08794df538330a47c397510935ba7deb", "type": "electric_scooter", "is_disabled": 0, "lat": 38.898433, "rental_uris": {"ios": "https://dc.lft.to/lastmile_qr_scan", "android": "https://dc.lft.to/lastmile_qr_scan"}, "is_reserved": 0, "fusion_lon": 0.0, "fusion_lat": 0.0, "lon": -76.91955666666667, "name": "08794df538330a47c397510935ba7deb"}, {"bike_id": "010e3a269340ef33f547d0f97996c6da", "type": "electric_scooter", "is_disabled": 0, "lat": 38.884175666666664, "rental_uris": {"ios": "https://dc.lft.to/lastmile_qr_scan", "android": "https://dc.lft.to/lastmile_qr_scan"}, "is_reserved": 0, "fusion_lon": 0.0, "fusion_lat": 0.0, "lon": -77.0178135, "name": "010e3a269340ef33f547d0f97996c6da"}, {"bike_id": "119138e166dd9a34bac66a4809f9ec1f", "type": "electric_scooter", "is_disabled": 0, "lat": 38.92324033333333, "rental_uris": {"ios": "https://dc.lft.to/lastmile_qr_scan", "android": "https://dc.lft.to/lastmile_qr_scan"}, "is_reserved": 0, "fusion_lon": 0.0, "fusion_lat": 0.0, "lon": -77.021361, "name": "119138e166dd9a34bac66a4809f9ec1f"}, {"bike_id": "cea635a767a58a9abe1d137a7fff5bbb", "type": "electric_scooter", "is_disabled": 0, "lat": 38.920078, "rental_uris": {"ios": "https://dc.lft.to/lastmile_qr_scan", "android": "https://dc.lft.to/lastmile_qr_scan"}, "is_reserved": 0, "fusion_lon": 0.0, "fusion_lat": 0.0, "lon": -76.98499566666666, "name": "cea635a767a58a9abe1d137a7fff5bbb"}, {"bike_id": "fd2d5c8d8112e65eedd610409f57d6fb", "type": "electric_scooter", "is_disabled": 0, "lat": 38.907505666666665, "rental_uris": {"ios": "https://dc.lft.to/lastmile_qr_scan", "android": "https://dc.lft.to/lastmile_qr_scan"}, "is_reserved": 0, "fusion_lon": 0.0, "fusion_lat": 0.0, "lon": -77.043379, "name": "fd2d5c8d8112e65eedd610409f57d6fb"}, {"bike_id": "d3f983a0b03a17febb1e98cb1472b12e", "type": "electric_scooter", "is_disabled": 0, "lat": 38.9170645, "rental_uris": {"ios": "https://dc.lft.to/lastmile_qr_scan", "android": "https://dc.lft.to/lastmile_qr_scan"}, "is_reserved": 0, "fusion_lon": 0.0, "fusion_lat": 0.0, "lon": -77.034748, "name": "d3f983a0b03a17febb1e98cb1472b12e"}, {"bike_id": "6f34a413e2e46f36c1b9742e7af835ec", "type": "electric_scooter", "is_disabled": 0, "lat": 38.917053333333335, "rental_uris": {"ios": "https://dc.lft.to/lastmile_qr_scan", "android": "https://dc.lft.to/lastmile_qr_scan"}, "is_reserved": 0, "fusion_lon": 0.0, "fusion_lat": 0.0, "lon": -77.095782, "name": "6f34a413e2e46f36c1b9742e7af835ec"}, {"bike_id": "069d63a0381e5c961fe14ca02748227f", "type": "electric_scooter", "is_disabled": 0, "lat": 38.914213333333336, "rental_uris": {"ios": "https://dc.lft.to/lastmile_qr_scan", "android": "https://dc.lft.to/lastmile_qr_scan"}, "is_reserved": 0, "fusion_lon": 0.0, "fusion_lat": 0.0, "lon": -77.03173566666666, "name": "069d63a0381e5c961fe14ca02748227f"}, {"bike_id": "09e0a876e7903ebe88680741b666bad1", "type": "electric_scooter", "is_disabled": 0, "lat": 38.911773833333335, "rental_uris": {"ios": "https://dc.lft.to/lastmile_qr_scan", "android": "https://dc.lft.to/lastmile_qr_scan"}, "is_reserved": 0, "fusion_lon": 0.0, "fusion_lat": 0.0, "lon": -77.0685915, "name": "09e0a876e7903ebe88680741b666bad1"}, {"bike_id": "3b92267f83f9e8ed810ab025676168be", "type": "electric_bike", "is_disabled": 0, "lat": 38.8895385, "rental_uris": {"ios": "https://dc.lft.to/lastmile_qr_scan", "android": "https://dc.lft.to/lastmile_qr_scan"}, "is_reserved": 0, "fusion_lon": 0.0, "fusion_lat": 0.0, "lon": -77.091419, "name": "3b92267f83f9e8ed810ab025676168be"}, {"bike_id": "81f85c6f19001438a668a050f8bd73dd", "type": "electric_scooter", "is_disabled": 0, "lat": 38.92167366666666, "rental_uris": {"ios": "https://dc.lft.to/lastmile_qr_scan", "android": "https://dc.lft.to/lastmile_qr_scan"}, "is_reserved": 0, "fusion_lon": 0.0, "fusion_lat": 0.0, "lon": -77.03848866666667, "name": "81f85c6f19001438a668a050f8bd73dd"}, {"bike_id": "c407ec39bce68f3b92e9c23ffcd2caec", "type": "electric_scooter", "is_disabled": 0, "lat": 38.906068833333336, "rental_uris": {"ios": "https://dc.lft.to/lastmile_qr_scan", "android": "https://dc.lft.to/lastmile_qr_scan"}, "is_reserved": 0, "fusion_lon": 0.0, "fusion_lat": 0.0, "lon": -77.0629635, "name": "c407ec39bce68f3b92e9c23ffcd2caec"}, {"bike_id": "e41b2aa8f9be65362cb282c59be1a37d", "type": "electric_scooter", "is_disabled": 0, "lat": 38.89964166666667, "rental_uris": {"ios": "https://dc.lft.to/lastmile_qr_scan", "android": "https://dc.lft.to/lastmile_qr_scan"}, "is_reserved": 0, "fusion_lon": 0.0, "fusion_lat": 0.0, "lon": -77.01570716666667, "name": "e41b2aa8f9be65362cb282c59be1a37d"}, {"bike_id": "d191c3d5b1568c0c4da627b5dabee300", "type": "electric_scooter", "is_disabled": 0, "lat": 38.89694, "rental_uris": {"ios": "https://dc.lft.to/lastmile_qr_scan", "android": "https://dc.lft.to/lastmile_qr_scan"}, "is_reserved": 0, "fusion_lon": 0.0, "fusion_lat": 0.0, "lon": -76.99959366666667, "name": "d191c3d5b1568c0c4da627b5dabee300"}, {"bike_id": "0b0e78d303d734aa7f096d84d5742b5c", "type": "electric_scooter", "is_disabled": 0, "lat": 38.92794466666667, "rental_uris": {"ios": "https://dc.lft.to/lastmile_qr_scan", "android": "https://dc.lft.to/lastmile_qr_scan"}, "is_reserved": 0, "fusion_lon": 0.0, "fusion_lat": 0.0, "lon": -77.02207733333333, "name": "0b0e78d303d734aa7f096d84d5742b5c"}, {"bike_id": "4c794500c9680112a6bbc67744c979bf", "type": "electric_scooter", "is_disabled": 0, "lat": 38.949037, "rental_uris": {"ios": "https://dc.lft.to/lastmile_qr_scan", "android": "https://dc.lft.to/lastmile_qr_scan"}, "is_reserved": 0, "fusion_lon": 0.0, "fusion_lat": 0.0, "lon": -77.0207795, "name": "4c794500c9680112a6bbc67744c979bf"}, {"bike_id": "cc7ca0f06ab5cd4259831960a38073dd", "type": "electric_scooter", "is_disabled": 0, "lat": 38.922437333333335, "rental_uris": {"ios": "https://dc.lft.to/lastmile_qr_scan", "android": "https://dc.lft.to/lastmile_qr_scan"}, "is_reserved": 0, "fusion_lon": 0.0, "fusion_lat": 0.0, "lon": -77.035244, "name": "cc7ca0f06ab5cd4259831960a38073dd"}, {"bike_id": "a35212f708f563e3cd1226db77e553f8", "type": "electric_scooter", "is_disabled": 0, "lat": 38.915525833333334, "rental_uris": {"ios": "https://dc.lft.to/lastmile_qr_scan", "android": "https://dc.lft.to/lastmile_qr_scan"}, "is_reserved": 0, "fusion_lon": 0.0, "fusion_lat": 0.0, "lon": -77.02636916666667, "name": "a35212f708f563e3cd1226db77e553f8"}, {"bike_id": "b2a92fbc6ba77b06ea277471e5d33e9a", "type": "electric_scooter", "is_disabled": 0, "lat": 38.844306833333334, "rental_uris": {"ios": "https://dc.lft.to/lastmile_qr_scan", "android": "https://dc.lft.to/lastmile_qr_scan"}, "is_reserved": 0, "fusion_lon": 0.0, "fusion_lat": 0.0, "lon": -76.9986585, "name": "b2a92fbc6ba77b06ea277471e5d33e9a"}, {"bike_id": "ed6d71fd7d8b1523a06735e7c8f95e44", "type": "electric_scooter", "is_disabled": 0, "lat": 38.912668333333336, "rental_uris": {"ios": "https://dc.lft.to/lastmile_qr_scan", "android": "https://dc.lft.to/lastmile_qr_scan"}, "is_reserved": 0, "fusion_lon": 0.0, "fusion_lat": 0.0, "lon": -77.030243, "name": "ed6d71fd7d8b1523a06735e7c8f95e44"}, {"bike_id": "35682697db29198f335f12514c7f7842", "type": "electric_scooter", "is_disabled": 0, "lat": 38.91785766666667, "rental_uris": {"ios": "https://dc.lft.to/lastmile_qr_scan", "android": "https://dc.lft.to/lastmile_qr_scan"}, "is_reserved": 0, "fusion_lon": 0.0, "fusion_lat": 0.0, "lon": -77.036398, "name": "35682697db29198f335f12514c7f7842"}, {"bike_id": "e3e222e007aaf2203ecac9dc09c2c624", "type": "electric_scooter", "is_disabled": 0, "lat": 38.890009166666665, "rental_uris": {"ios": "https://dc.lft.to/lastmile_qr_scan", "android": "https://dc.lft.to/lastmile_qr_scan"}, "is_reserved": 0, "fusion_lon": 0.0, "fusion_lat": 0.0, "lon": -77.0490165, "name": "e3e222e007aaf2203ecac9dc09c2c624"}, {"bike_id": "766cd558c2fc4aaeb96e1f56fa0deb2c", "type": "electric_scooter", "is_disabled": 0, "lat": 38.909555833333336, "rental_uris": {"ios": "https://dc.lft.to/lastmile_qr_scan", "android": "https://dc.lft.to/lastmile_qr_scan"}, "is_reserved": 0, "fusion_lon": 0.0, "fusion_lat": 0.0, "lon": -77.045416, "name": "766cd558c2fc4aaeb96e1f56fa0deb2c"}, {"bike_id": "14ad55bc5c45e62e72e96362692de513", "type": "electric_scooter", "is_disabled": 0, "lat": 38.90722133333333, "rental_uris": {"ios": "https://dc.lft.to/lastmile_qr_scan", "android": "https://dc.lft.to/lastmile_qr_scan"}, "is_reserved": 0, "fusion_lon": 0.0, "fusion_lat": 0.0, "lon": -77.04344733333333, "name": "14ad55bc5c45e62e72e96362692de513"}, {"bike_id": "7b09cebc5b8912d4209df4b15b9d79c7", "type": "electric_scooter", "is_disabled": 0, "lat": 38.9237615, "rental_uris": {"ios": "https://dc.lft.to/lastmile_qr_scan", "android": "https://dc.lft.to/lastmile_qr_scan"}, "is_reserved": 0, "fusion_lon": 0.0, "fusion_lat": 0.0, "lon": -77.050278, "name": "7b09cebc5b8912d4209df4b15b9d79c7"}, {"bike_id": "a3d150cd1ac333428367c30aec7a4096", "type": "electric_scooter", "is_disabled": 0, "lat": 38.9114545, "rental_uris": {"ios": "https://dc.lft.to/lastmile_qr_scan", "android": "https://dc.lft.to/lastmile_qr_scan"}, "is_reserved": 0, "fusion_lon": 0.0, "fusion_lat": 0.0, "lon": -77.029518, "name": "a3d150cd1ac333428367c30aec7a4096"}, {"bike_id": "a1c36deadfce55284a3a75f41f2519e6", "type": "electric_scooter", "is_disabled": 0, "lat": 38.898273833333334, "rental_uris": {"ios": "https://dc.lft.to/lastmile_qr_scan", "android": "https://dc.lft.to/lastmile_qr_scan"}, "is_reserved": 0, "fusion_lon": 0.0, "fusion_lat": 0.0, "lon": -77.02212566666667, "name": "a1c36deadfce55284a3a75f41f2519e6"}, {"bike_id": "d1a0479565a7019e70caf6ceaa730cc7", "type": "electric_scooter", "is_disabled": 0, "lat": 38.902434666666664, "rental_uris": {"ios": "https://dc.lft.to/lastmile_qr_scan", "android": "https://dc.lft.to/lastmile_qr_scan"}, "is_reserved": 0, "fusion_lon": 0.0, "fusion_lat": 0.0, "lon": -77.0182825, "name": "d1a0479565a7019e70caf6ceaa730cc7"}, {"bike_id": "f9f868f26e1de064f2c89a0684792730", "type": "electric_bike", "is_disabled": 0, "lat": 38.831578666666665, "rental_uris": {"ios": "https://dc.lft.to/lastmile_qr_scan", "android": "https://dc.lft.to/lastmile_qr_scan"}, "is_reserved": 0, "fusion_lon": 0.0, "fusion_lat": 0.0, "lon": -76.99549116666667, "name": "f9f868f26e1de064f2c89a0684792730"}, {"bike_id": "db34f6355292d6e64194cda968559b04", "type": "electric_scooter", "is_disabled": 0, "lat": 38.89723566666667, "rental_uris": {"ios": "https://dc.lft.to/lastmile_qr_scan", "android": "https://dc.lft.to/lastmile_qr_scan"}, "is_reserved": 0, "fusion_lon": 0.0, "fusion_lat": 0.0, "lon": -77.02495483333334, "name": "db34f6355292d6e64194cda968559b04"}, {"bike_id": "3f3c6b24866c6e2ff2163261810bf6d4", "type": "electric_scooter", "is_disabled": 0, "lat": 38.90086616666667, "rental_uris": {"ios": "https://dc.lft.to/lastmile_qr_scan", "android": "https://dc.lft.to/lastmile_qr_scan"}, "is_reserved": 0, "fusion_lon": 0.0, "fusion_lat": 0.0, "lon": -77.03056266666667, "name": "3f3c6b24866c6e2ff2163261810bf6d4"}, {"bike_id": "ba06bce328b3f5d45076f4a3e2dd9ee0", "type": "electric_scooter", "is_disabled": 0, "lat": 38.91549283333333, "rental_uris": {"ios": "https://dc.lft.to/lastmile_qr_scan", "android": "https://dc.lft.to/lastmile_qr_scan"}, "is_reserved": 0, "fusion_lon": 0.0, "fusion_lat": 0.0, "lon": -77.03116666666666, "name": "ba06bce328b3f5d45076f4a3e2dd9ee0"}, {"bike_id": "0096a294a7ac69c0278463e2a7dda413", "type": "electric_scooter", "is_disabled": 0, "lat": 38.920393, "rental_uris": {"ios": "https://dc.lft.to/lastmile_qr_scan", "android": "https://dc.lft.to/lastmile_qr_scan"}, "is_reserved": 0, "fusion_lon": 0.0, "fusion_lat": 0.0, "lon": -77.0340505, "name": "0096a294a7ac69c0278463e2a7dda413"}, {"bike_id": "41ba120f988b4fa7a28d68bcc5704883", "type": "electric_scooter", "is_disabled": 0, "lat": 38.916864333333336, "rental_uris": {"ios": "https://dc.lft.to/lastmile_qr_scan", "android": "https://dc.lft.to/lastmile_qr_scan"}, "is_reserved": 0, "fusion_lon": 0.0, "fusion_lat": 0.0, "lon": -77.0296675, "name": "41ba120f988b4fa7a28d68bcc5704883"}, {"bike_id": "a224f68fe64d4cdf66b384a1e1bf2f3c", "type": "electric_scooter", "is_disabled": 0, "lat": 38.9198225, "rental_uris": {"ios": "https://dc.lft.to/lastmile_qr_scan", "android": "https://dc.lft.to/lastmile_qr_scan"}, "is_reserved": 0, "fusion_lon": 0.0, "fusion_lat": 0.0, "lon": -77.03966216666667, "name": "a224f68fe64d4cdf66b384a1e1bf2f3c"}, {"bike_id": "0d1c902606d8bd14afb0c16a1c266b37", "type": "electric_scooter", "is_disabled": 0, "lat": 38.914192166666666, "rental_uris": {"ios": "https://dc.lft.to/lastmile_qr_scan", "android": "https://dc.lft.to/lastmile_qr_scan"}, "is_reserved": 0, "fusion_lon": 0.0, "fusion_lat": 0.0, "lon": -77.03176483333333, "name": "0d1c902606d8bd14afb0c16a1c266b37"}, {"bike_id": "20269a76541065666864f6f597ba8c9b", "type": "electric_scooter", "is_disabled": 0, "lat": 38.854537, "rental_uris": {"ios": "https://dc.lft.to/lastmile_qr_scan", "android": "https://dc.lft.to/lastmile_qr_scan"}, "is_reserved": 0, "fusion_lon": 0.0, "fusion_lat": 0.0, "lon": -76.97227383333333, "name": "20269a76541065666864f6f597ba8c9b"}, {"bike_id": "0abf7bf9a92ae88be0e42cc2aad2e450", "type": "electric_scooter", "is_disabled": 0, "lat": 38.9271, "rental_uris": {"ios": "https://dc.lft.to/lastmile_qr_scan", "android": "https://dc.lft.to/lastmile_qr_scan"}, "is_reserved": 0, "fusion_lon": 0.0, "fusion_lat": 0.0, "lon": -77.02094966666667, "name": "0abf7bf9a92ae88be0e42cc2aad2e450"}, {"bike_id": "180af8aca90d5e49ebb1a143693e2b46", "type": "electric_scooter", "is_disabled": 0, "lat": 38.92324266666667, "rental_uris": {"ios": "https://dc.lft.to/lastmile_qr_scan", "android": "https://dc.lft.to/lastmile_qr_scan"}, "is_reserved": 0, "fusion_lon": 0.0, "fusion_lat": 0.0, "lon": -77.02966266666667, "name": "180af8aca90d5e49ebb1a143693e2b46"}, {"bike_id": "a028e4c74611974020e6431b1107d6be", "type": "electric_scooter", "is_disabled": 0, "lat": 38.9216035, "rental_uris": {"ios": "https://dc.lft.to/lastmile_qr_scan", "android": "https://dc.lft.to/lastmile_qr_scan"}, "is_reserved": 0, "fusion_lon": 0.0, "fusion_lat": 0.0, "lon": -77.034404, "name": "a028e4c74611974020e6431b1107d6be"}, {"bike_id": "0a9e31ee50e304cb0925fe819aa36914", "type": "electric_scooter", "is_disabled": 0, "lat": 38.88300266666667, "rental_uris": {"ios": "https://dc.lft.to/lastmile_qr_scan", "android": "https://dc.lft.to/lastmile_qr_scan"}, "is_reserved": 0, "fusion_lon": 0.0, "fusion_lat": 0.0, "lon": -76.94854733333334, "name": "0a9e31ee50e304cb0925fe819aa36914"}, {"bike_id": "b47b7773f859a9b309997ba3d0ef99e9", "type": "electric_scooter", "is_disabled": 0, "lat": 38.91042866666667, "rental_uris": {"ios": "https://dc.lft.to/lastmile_qr_scan", "android": "https://dc.lft.to/lastmile_qr_scan"}, "is_reserved": 0, "fusion_lon": 0.0, "fusion_lat": 0.0, "lon": -77.04339666666667, "name": "b47b7773f859a9b309997ba3d0ef99e9"}, {"bike_id": "5cc130054dc81e300386d55216038171", "type": "electric_bike", "is_disabled": 0, "lat": 38.969599, "rental_uris": {"ios": "https://dc.lft.to/lastmile_qr_scan", "android": "https://dc.lft.to/lastmile_qr_scan"}, "is_reserved": 0, "fusion_lon": 0.0, "fusion_lat": 0.0, "lon": -76.95748966666666, "name": "5cc130054dc81e300386d55216038171"}, {"bike_id": "df356e4af9c2d47aef3cbfeb0068dcfd", "type": "electric_scooter", "is_disabled": 0, "lat": 38.924699833333335, "rental_uris": {"ios": "https://dc.lft.to/lastmile_qr_scan", "android": "https://dc.lft.to/lastmile_qr_scan"}, "is_reserved": 0, "fusion_lon": 0.0, "fusion_lat": 0.0, "lon": -77.0283515, "name": "df356e4af9c2d47aef3cbfeb0068dcfd"}, {"bike_id": "a8e2002e38b8d46445f79f30325138ee", "type": "electric_scooter", "is_disabled": 0, "lat": 38.9072125, "rental_uris": {"ios": "https://dc.lft.to/lastmile_qr_scan", "android": "https://dc.lft.to/lastmile_qr_scan"}, "is_reserved": 0, "fusion_lon": 0.0, "fusion_lat": 0.0, "lon": -77.043436, "name": "a8e2002e38b8d46445f79f30325138ee"}, {"bike_id": "a8eb1535c805f5722c86d65f85d32995", "type": "electric_scooter", "is_disabled": 0, "lat": 38.90700116666667, "rental_uris": {"ios": "https://dc.lft.to/lastmile_qr_scan", "android": "https://dc.lft.to/lastmile_qr_scan"}, "is_reserved": 0, "fusion_lon": 0.0, "fusion_lat": 0.0, "lon": -76.98727366666667, "name": "a8eb1535c805f5722c86d65f85d32995"}, {"bike_id": "9c8c7381608ac7f5a6841346ec68f471", "type": "electric_scooter", "is_disabled": 0, "lat": 38.9205785, "rental_uris": {"ios": "https://dc.lft.to/lastmile_qr_scan", "android": "https://dc.lft.to/lastmile_qr_scan"}, "is_reserved": 0, "fusion_lon": 0.0, "fusion_lat": 0.0, "lon": -76.99884433333334, "name": "9c8c7381608ac7f5a6841346ec68f471"}, {"bike_id": "3375a0790b5fbf85f884fa2f430d3149", "type": "electric_scooter", "is_disabled": 0, "lat": 38.92365233333334, "rental_uris": {"ios": "https://dc.lft.to/lastmile_qr_scan", "android": "https://dc.lft.to/lastmile_qr_scan"}, "is_reserved": 0, "fusion_lon": 0.0, "fusion_lat": 0.0, "lon": -77.076436, "name": "3375a0790b5fbf85f884fa2f430d3149"}, {"bike_id": "f93c8736c9c6220450d986d6df7b851a", "type": "electric_scooter", "is_disabled": 0, "lat": 38.880663166666665, "rental_uris": {"ios": "https://dc.lft.to/lastmile_qr_scan", "android": "https://dc.lft.to/lastmile_qr_scan"}, "is_reserved": 0, "fusion_lon": 0.0, "fusion_lat": 0.0, "lon": -77.02557366666667, "name": "f93c8736c9c6220450d986d6df7b851a"}, {"bike_id": "82cf86532c59b55fbdca5ff5dd45d422", "type": "electric_scooter", "is_disabled": 0, "lat": 38.89919483333333, "rental_uris": {"ios": "https://dc.lft.to/lastmile_qr_scan", "android": "https://dc.lft.to/lastmile_qr_scan"}, "is_reserved": 0, "fusion_lon": 0.0, "fusion_lat": 0.0, "lon": -76.93364416666667, "name": "82cf86532c59b55fbdca5ff5dd45d422"}, {"bike_id": "48984216b216a7c9fc36790b047d110d", "type": "electric_scooter", "is_disabled": 0, "lat": 38.902375166666666, "rental_uris": {"ios": "https://dc.lft.to/lastmile_qr_scan", "android": "https://dc.lft.to/lastmile_qr_scan"}, "is_reserved": 0, "fusion_lon": 0.0, "fusion_lat": 0.0, "lon": -77.04130016666667, "name": "48984216b216a7c9fc36790b047d110d"}, {"bike_id": "51362a9cebaef95b7ff6b25cb52f9c25", "type": "electric_scooter", "is_disabled": 0, "lat": 38.91713466666667, "rental_uris": {"ios": "https://dc.lft.to/lastmile_qr_scan", "android": "https://dc.lft.to/lastmile_qr_scan"}, "is_reserved": 0, "fusion_lon": 0.0, "fusion_lat": 0.0, "lon": -77.03152633333333, "name": "51362a9cebaef95b7ff6b25cb52f9c25"}, {"bike_id": "c5f69b638c0f7da7f74df9be273f11e9", "type": "electric_scooter", "is_disabled": 0, "lat": 38.919972666666666, "rental_uris": {"ios": "https://dc.lft.to/lastmile_qr_scan", "android": "https://dc.lft.to/lastmile_qr_scan"}, "is_reserved": 0, "fusion_lon": 0.0, "fusion_lat": 0.0, "lon": -77.01785633333333, "name": "c5f69b638c0f7da7f74df9be273f11e9"}, {"bike_id": "fc27ff11311f0dd98bf1ea2ec6476c52", "type": "electric_scooter", "is_disabled": 0, "lat": 38.934568666666664, "rental_uris": {"ios": "https://dc.lft.to/lastmile_qr_scan", "android": "https://dc.lft.to/lastmile_qr_scan"}, "is_reserved": 0, "fusion_lon": 0.0, "fusion_lat": 0.0, "lon": -77.04536033333333, "name": "fc27ff11311f0dd98bf1ea2ec6476c52"}, {"bike_id": "88645da9fea8dd8411d730514ea24672", "type": "electric_scooter", "is_disabled": 0, "lat": 38.908601, "rental_uris": {"ios": "https://dc.lft.to/lastmile_qr_scan", "android": "https://dc.lft.to/lastmile_qr_scan"}, "is_reserved": 0, "fusion_lon": 0.0, "fusion_lat": 0.0, "lon": -77.0222945, "name": "88645da9fea8dd8411d730514ea24672"}, {"bike_id": "6cadee15b1cd92f07bf69cc33de092e9", "type": "electric_scooter", "is_disabled": 0, "lat": 38.902435, "rental_uris": {"ios": "https://dc.lft.to/lastmile_qr_scan", "android": "https://dc.lft.to/lastmile_qr_scan"}, "is_reserved": 0, "fusion_lon": 0.0, "fusion_lat": 0.0, "lon": -77.00203816666667, "name": "6cadee15b1cd92f07bf69cc33de092e9"}, {"bike_id": "50a65d88762ce3e20f3605d89207c63e", "type": "electric_scooter", "is_disabled": 0, "lat": 38.906263333333335, "rental_uris": {"ios": "https://dc.lft.to/lastmile_qr_scan", "android": "https://dc.lft.to/lastmile_qr_scan"}, "is_reserved": 0, "fusion_lon": 0.0, "fusion_lat": 0.0, "lon": -77.055595, "name": "50a65d88762ce3e20f3605d89207c63e"}, {"bike_id": "0dbe8bac378db7c90955d6112d66c5ff", "type": "electric_scooter", "is_disabled": 0, "lat": 38.928731, "rental_uris": {"ios": "https://dc.lft.to/lastmile_qr_scan", "android": "https://dc.lft.to/lastmile_qr_scan"}, "is_reserved": 0, "fusion_lon": 0.0, "fusion_lat": 0.0, "lon": -77.033626, "name": "0dbe8bac378db7c90955d6112d66c5ff"}, {"bike_id": "0355707577e5e8efceecf2dd39696665", "type": "electric_scooter", "is_disabled": 0, "lat": 38.876953, "rental_uris": {"ios": "https://dc.lft.to/lastmile_qr_scan", "android": "https://dc.lft.to/lastmile_qr_scan"}, "is_reserved": 0, "fusion_lon": 0.0, "fusion_lat": 0.0, "lon": -77.01660516666666, "name": "0355707577e5e8efceecf2dd39696665"}, {"bike_id": "0340f05de77e6cbbbd9c904e32272f2d", "type": "electric_bike", "is_disabled": 0, "lat": 38.857287, "rental_uris": {"ios": "https://dc.lft.to/lastmile_qr_scan", "android": "https://dc.lft.to/lastmile_qr_scan"}, "is_reserved": 0, "fusion_lon": 0.0, "fusion_lat": 0.0, "lon": -77.07975233333333, "name": "0340f05de77e6cbbbd9c904e32272f2d"}, {"bike_id": "f230f52326165f40ef99eb8e9e3b4ae7", "type": "electric_bike", "is_disabled": 0, "lat": 38.9368445, "rental_uris": {"ios": "https://dc.lft.to/lastmile_qr_scan", "android": "https://dc.lft.to/lastmile_qr_scan"}, "is_reserved": 0, "fusion_lon": 0.0, "fusion_lat": 0.0, "lon": -77.05640633333333, "name": "f230f52326165f40ef99eb8e9e3b4ae7"}, {"bike_id": "46ae05c7d318b619f7fe76319b9a160d", "type": "electric_bike", "is_disabled": 0, "lat": 38.908325166666664, "rental_uris": {"ios": "https://dc.lft.to/lastmile_qr_scan", "android": "https://dc.lft.to/lastmile_qr_scan"}, "is_reserved": 0, "fusion_lon": 0.0, "fusion_lat": 0.0, "lon": -76.94159816666667, "name": "46ae05c7d318b619f7fe76319b9a160d"}, {"bike_id": "5e45ad3e7c1a3b51ada8244082376fda", "type": "electric_scooter", "is_disabled": 0, "lat": 38.9300935, "rental_uris": {"ios": "https://dc.lft.to/lastmile_qr_scan", "android": "https://dc.lft.to/lastmile_qr_scan"}, "is_reserved": 0, "fusion_lon": 0.0, "fusion_lat": 0.0, "lon": -77.03774166666666, "name": "5e45ad3e7c1a3b51ada8244082376fda"}, {"bike_id": "a0d3df83c00c1f7236e3461b88254d8b", "type": "electric_scooter", "is_disabled": 0, "lat": 38.93278033333333, "rental_uris": {"ios": "https://dc.lft.to/lastmile_qr_scan", "android": "https://dc.lft.to/lastmile_qr_scan"}, "is_reserved": 0, "fusion_lon": 0.0, "fusion_lat": 0.0, "lon": -77.04031266666667, "name": "a0d3df83c00c1f7236e3461b88254d8b"}, {"bike_id": "772bff4331cb668676712c1715747277", "type": "electric_scooter", "is_disabled": 0, "lat": 38.9070005, "rental_uris": {"ios": "https://dc.lft.to/lastmile_qr_scan", "android": "https://dc.lft.to/lastmile_qr_scan"}, "is_reserved": 0, "fusion_lon": 0.0, "fusion_lat": 0.0, "lon": -77.05336966666667, "name": "772bff4331cb668676712c1715747277"}, {"bike_id": "43efd9cd108b18bf71f763f996e390a5", "type": "electric_scooter", "is_disabled": 0, "lat": 38.92647266666667, "rental_uris": {"ios": "https://dc.lft.to/lastmile_qr_scan", "android": "https://dc.lft.to/lastmile_qr_scan"}, "is_reserved": 0, "fusion_lon": 0.0, "fusion_lat": 0.0, "lon": -77.03732033333333, "name": "43efd9cd108b18bf71f763f996e390a5"}, {"bike_id": "55a99a6315ec9f5ec91ea5796b97e5e1", "type": "electric_bike", "is_disabled": 0, "lat": 38.92929633333333, "rental_uris": {"ios": "https://dc.lft.to/lastmile_qr_scan", "android": "https://dc.lft.to/lastmile_qr_scan"}, "is_reserved": 0, "fusion_lon": 0.0, "fusion_lat": 0.0, "lon": -77.03656583333333, "name": "55a99a6315ec9f5ec91ea5796b97e5e1"}, {"bike_id": "e0694ea706e7571fc5f64282c5e74700", "type": "electric_scooter", "is_disabled": 0, "lat": 38.892419833333335, "rental_uris": {"ios": "https://dc.lft.to/lastmile_qr_scan", "android": "https://dc.lft.to/lastmile_qr_scan"}, "is_reserved": 0, "fusion_lon": 0.0, "fusion_lat": 0.0, "lon": -77.039572, "name": "e0694ea706e7571fc5f64282c5e74700"}, {"bike_id": "64673106c32f4626eb196c2bd53261a1", "type": "electric_bike", "is_disabled": 0, "lat": 38.872947833333335, "rental_uris": {"ios": "https://dc.lft.to/lastmile_qr_scan", "android": "https://dc.lft.to/lastmile_qr_scan"}, "is_reserved": 0, "fusion_lon": 0.0, "fusion_lat": 0.0, "lon": -76.96981083333333, "name": "64673106c32f4626eb196c2bd53261a1"}, {"bike_id": "e01a3829f2d8cf97753fee2e769e3eb1", "type": "electric_scooter", "is_disabled": 0, "lat": 38.907279, "rental_uris": {"ios": "https://dc.lft.to/lastmile_qr_scan", "android": "https://dc.lft.to/lastmile_qr_scan"}, "is_reserved": 0, "fusion_lon": 0.0, "fusion_lat": 0.0, "lon": -77.0058215, "name": "e01a3829f2d8cf97753fee2e769e3eb1"}, {"bike_id": "7c1f1201b93e56342d0feb79aa9cde2f", "type": "electric_scooter", "is_disabled": 0, "lat": 38.863687166666665, "rental_uris": {"ios": "https://dc.lft.to/lastmile_qr_scan", "android": "https://dc.lft.to/lastmile_qr_scan"}, "is_reserved": 0, "fusion_lon": 0.0, "fusion_lat": 0.0, "lon": -76.99054933333333, "name": "7c1f1201b93e56342d0feb79aa9cde2f"}, {"bike_id": "1e4cdc00341288ffb32c1db0f63afc20", "type": "electric_scooter", "is_disabled": 0, "lat": 38.92710666666667, "rental_uris": {"ios": "https://dc.lft.to/lastmile_qr_scan", "android": "https://dc.lft.to/lastmile_qr_scan"}, "is_reserved": 0, "fusion_lon": 0.0, "fusion_lat": 0.0, "lon": -77.02096233333333, "name": "1e4cdc00341288ffb32c1db0f63afc20"}, {"bike_id": "b9d45821192c2d6b15cb76a792414732", "type": "electric_scooter", "is_disabled": 0, "lat": 38.93734716666667, "rental_uris": {"ios": "https://dc.lft.to/lastmile_qr_scan", "android": "https://dc.lft.to/lastmile_qr_scan"}, "is_reserved": 0, "fusion_lon": 0.0, "fusion_lat": 0.0, "lon": -77.05968683333333, "name": "b9d45821192c2d6b15cb76a792414732"}, {"bike_id": "bef4db41065f05146622162ffc4dea0b", "type": "electric_scooter", "is_disabled": 0, "lat": 38.90239233333333, "rental_uris": {"ios": "https://dc.lft.to/lastmile_qr_scan", "android": "https://dc.lft.to/lastmile_qr_scan"}, "is_reserved": 0, "fusion_lon": 0.0, "fusion_lat": 0.0, "lon": -77.0179295, "name": "bef4db41065f05146622162ffc4dea0b"}, {"bike_id": "9dfb2d7c56adb744f9e8b3f8787dc60e", "type": "electric_scooter", "is_disabled": 0, "lat": 38.90548533333333, "rental_uris": {"ios": "https://dc.lft.to/lastmile_qr_scan", "android": "https://dc.lft.to/lastmile_qr_scan"}, "is_reserved": 0, "fusion_lon": 0.0, "fusion_lat": 0.0, "lon": -77.00553666666667, "name": "9dfb2d7c56adb744f9e8b3f8787dc60e"}, {"bike_id": "06e3e10430c033e2a8b4ced851c6bb77", "type": "electric_scooter", "is_disabled": 0, "lat": 38.90729983333333, "rental_uris": {"ios": "https://dc.lft.to/lastmile_qr_scan", "android": "https://dc.lft.to/lastmile_qr_scan"}, "is_reserved": 0, "fusion_lon": 0.0, "fusion_lat": 0.0, "lon": -77.025448, "name": "06e3e10430c033e2a8b4ced851c6bb77"}, {"bike_id": "9c8c866a0d8735875eb01b1d2a40061e", "type": "electric_scooter", "is_disabled": 0, "lat": 38.916350666666666, "rental_uris": {"ios": "https://dc.lft.to/lastmile_qr_scan", "android": "https://dc.lft.to/lastmile_qr_scan"}, "is_reserved": 0, "fusion_lon": 0.0, "fusion_lat": 0.0, "lon": -77.04813416666667, "name": "9c8c866a0d8735875eb01b1d2a40061e"}, {"bike_id": "170f3dd28d849c3a2cc4413bc81b1c3e", "type": "electric_scooter", "is_disabled": 0, "lat": 38.90809, "rental_uris": {"ios": "https://dc.lft.to/lastmile_qr_scan", "android": "https://dc.lft.to/lastmile_qr_scan"}, "is_reserved": 0, "fusion_lon": 0.0, "fusion_lat": 0.0, "lon": -77.02033233333333, "name": "170f3dd28d849c3a2cc4413bc81b1c3e"}, {"bike_id": "75c5bae01a960cbf613b3c5310528727", "type": "electric_scooter", "is_disabled": 0, "lat": 38.923428333333334, "rental_uris": {"ios": "https://dc.lft.to/lastmile_qr_scan", "android": "https://dc.lft.to/lastmile_qr_scan"}, "is_reserved": 0, "fusion_lon": 0.0, "fusion_lat": 0.0, "lon": -77.03519966666667, "name": "75c5bae01a960cbf613b3c5310528727"}, {"bike_id": "980805575d10135b0e87df868f77d5fc", "type": "electric_scooter", "is_disabled": 0, "lat": 38.873935, "rental_uris": {"ios": "https://dc.lft.to/lastmile_qr_scan", "android": "https://dc.lft.to/lastmile_qr_scan"}, "is_reserved": 0, "fusion_lon": 0.0, "fusion_lat": 0.0, "lon": -77.00185916666666, "name": "980805575d10135b0e87df868f77d5fc"}, {"bike_id": "dcc07ef39ac9074776e0eff9b63cd3c8", "type": "electric_scooter", "is_disabled": 0, "lat": 38.887027333333336, "rental_uris": {"ios": "https://dc.lft.to/lastmile_qr_scan", "android": "https://dc.lft.to/lastmile_qr_scan"}, "is_reserved": 0, "fusion_lon": 0.0, "fusion_lat": 0.0, "lon": -77.01370366666667, "name": "dcc07ef39ac9074776e0eff9b63cd3c8"}, {"bike_id": "f36f476c7caee4dd43528c5aa1f7284d", "type": "electric_scooter", "is_disabled": 0, "lat": 38.86256566666667, "rental_uris": {"ios": "https://dc.lft.to/lastmile_qr_scan", "android": "https://dc.lft.to/lastmile_qr_scan"}, "is_reserved": 0, "fusion_lon": 0.0, "fusion_lat": 0.0, "lon": -76.9926225, "name": "f36f476c7caee4dd43528c5aa1f7284d"}, {"bike_id": "52eebfc1032147d54591c39c79927e30", "type": "electric_scooter", "is_disabled": 0, "lat": 38.91245416666667, "rental_uris": {"ios": "https://dc.lft.to/lastmile_qr_scan", "android": "https://dc.lft.to/lastmile_qr_scan"}, "is_reserved": 0, "fusion_lon": 0.0, "fusion_lat": 0.0, "lon": -77.02223316666667, "name": "52eebfc1032147d54591c39c79927e30"}, {"bike_id": "ebfce3f44ac907f7b46a3b8bf283db8f", "type": "electric_bike", "is_disabled": 0, "lat": 38.948684666666665, "rental_uris": {"ios": "https://dc.lft.to/lastmile_qr_scan", "android": "https://dc.lft.to/lastmile_qr_scan"}, "is_reserved": 0, "fusion_lon": 0.0, "fusion_lat": 0.0, "lon": -77.02202533333333, "name": "ebfce3f44ac907f7b46a3b8bf283db8f"}, {"bike_id": "5b9a4723e59f3a98eb28f24f7bd2fad5", "type": "electric_scooter", "is_disabled": 0, "lat": 38.94292633333333, "rental_uris": {"ios": "https://dc.lft.to/lastmile_qr_scan", "android": "https://dc.lft.to/lastmile_qr_scan"}, "is_reserved": 0, "fusion_lon": 0.0, "fusion_lat": 0.0, "lon": -77.02173633333334, "name": "5b9a4723e59f3a98eb28f24f7bd2fad5"}, {"bike_id": "e5dac98527abea3fdca7f78da8c7c9b0", "type": "electric_scooter", "is_disabled": 0, "lat": 38.89493916666667, "rental_uris": {"ios": "https://dc.lft.to/lastmile_qr_scan", "android": "https://dc.lft.to/lastmile_qr_scan"}, "is_reserved": 0, "fusion_lon": 0.0, "fusion_lat": 0.0, "lon": -77.01123883333334, "name": "e5dac98527abea3fdca7f78da8c7c9b0"}, {"bike_id": "cc367454bd5b48f61f2b2f2aad1d0a42", "type": "electric_scooter", "is_disabled": 0, "lat": 38.93742833333334, "rental_uris": {"ios": "https://dc.lft.to/lastmile_qr_scan", "android": "https://dc.lft.to/lastmile_qr_scan"}, "is_reserved": 0, "fusion_lon": 0.0, "fusion_lat": 0.0, "lon": -77.035776, "name": "cc367454bd5b48f61f2b2f2aad1d0a42"}, {"bike_id": "63135588ea6ae4ca043f10da8b989140", "type": "electric_scooter", "is_disabled": 0, "lat": 38.90709283333333, "rental_uris": {"ios": "https://dc.lft.to/lastmile_qr_scan", "android": "https://dc.lft.to/lastmile_qr_scan"}, "is_reserved": 0, "fusion_lon": 0.0, "fusion_lat": 0.0, "lon": -77.02385333333334, "name": "63135588ea6ae4ca043f10da8b989140"}, {"bike_id": "49befc62450d647c29baf11e8def01a6", "type": "electric_scooter", "is_disabled": 0, "lat": 38.94068266666667, "rental_uris": {"ios": "https://dc.lft.to/lastmile_qr_scan", "android": "https://dc.lft.to/lastmile_qr_scan"}, "is_reserved": 0, "fusion_lon": 0.0, "fusion_lat": 0.0, "lon": -77.06111966666667, "name": "49befc62450d647c29baf11e8def01a6"}, {"bike_id": "e4d4fe8951507b752f74a0c43e8a6387", "type": "electric_scooter", "is_disabled": 0, "lat": 38.90552983333333, "rental_uris": {"ios": "https://dc.lft.to/lastmile_qr_scan", "android": "https://dc.lft.to/lastmile_qr_scan"}, "is_reserved": 0, "fusion_lon": 0.0, "fusion_lat": 0.0, "lon": -77.00567733333334, "name": "e4d4fe8951507b752f74a0c43e8a6387"}, {"bike_id": "566c0b7b1d5c58542db6a779efed618b", "type": "electric_scooter", "is_disabled": 0, "lat": 38.92583116666667, "rental_uris": {"ios": "https://dc.lft.to/lastmile_qr_scan", "android": "https://dc.lft.to/lastmile_qr_scan"}, "is_reserved": 0, "fusion_lon": 0.0, "fusion_lat": 0.0, "lon": -77.03025016666666, "name": "566c0b7b1d5c58542db6a779efed618b"}, {"bike_id": "83d0d14d18778f924bc66451009c1f07", "type": "electric_scooter", "is_disabled": 0, "lat": 38.912607666666666, "rental_uris": {"ios": "https://dc.lft.to/lastmile_qr_scan", "android": "https://dc.lft.to/lastmile_qr_scan"}, "is_reserved": 0, "fusion_lon": 0.0, "fusion_lat": 0.0, "lon": -77.03270416666666, "name": "83d0d14d18778f924bc66451009c1f07"}, {"bike_id": "65a91ff5d4d79974cf1a824db12bdd31", "type": "electric_scooter", "is_disabled": 0, "lat": 38.917091, "rental_uris": {"ios": "https://dc.lft.to/lastmile_qr_scan", "android": "https://dc.lft.to/lastmile_qr_scan"}, "is_reserved": 0, "fusion_lon": 0.0, "fusion_lat": 0.0, "lon": -77.0347585, "name": "65a91ff5d4d79974cf1a824db12bdd31"}, {"bike_id": "0f2bf267d346083ccd1991a28a2ae052", "type": "electric_scooter", "is_disabled": 0, "lat": 38.93390933333333, "rental_uris": {"ios": "https://dc.lft.to/lastmile_qr_scan", "android": "https://dc.lft.to/lastmile_qr_scan"}, "is_reserved": 0, "fusion_lon": 0.0, "fusion_lat": 0.0, "lon": -77.02224166666667, "name": "0f2bf267d346083ccd1991a28a2ae052"}, {"bike_id": "66cb91ad6397f080789ed76a559c53dd", "type": "electric_scooter", "is_disabled": 0, "lat": 38.916746, "rental_uris": {"ios": "https://dc.lft.to/lastmile_qr_scan", "android": "https://dc.lft.to/lastmile_qr_scan"}, "is_reserved": 0, "fusion_lon": 0.0, "fusion_lat": 0.0, "lon": -77.02397433333333, "name": "66cb91ad6397f080789ed76a559c53dd"}, {"bike_id": "b82efdba94531d197cfc0460371a96c1", "type": "electric_scooter", "is_disabled": 0, "lat": 38.91376266666666, "rental_uris": {"ios": "https://dc.lft.to/lastmile_qr_scan", "android": "https://dc.lft.to/lastmile_qr_scan"}, "is_reserved": 0, "fusion_lon": 0.0, "fusion_lat": 0.0, "lon": -77.04127583333333, "name": "b82efdba94531d197cfc0460371a96c1"}, {"bike_id": "805bb7460842e2ad04f53bfe45f35379", "type": "electric_scooter", "is_disabled": 0, "lat": 38.91264266666667, "rental_uris": {"ios": "https://dc.lft.to/lastmile_qr_scan", "android": "https://dc.lft.to/lastmile_qr_scan"}, "is_reserved": 0, "fusion_lon": 0.0, "fusion_lat": 0.0, "lon": -77.04707366666666, "name": "805bb7460842e2ad04f53bfe45f35379"}, {"bike_id": "a8b5743dc03ec16928e0fbc0381a99c0", "type": "electric_scooter", "is_disabled": 0, "lat": 38.911145833333336, "rental_uris": {"ios": "https://dc.lft.to/lastmile_qr_scan", "android": "https://dc.lft.to/lastmile_qr_scan"}, "is_reserved": 0, "fusion_lon": 0.0, "fusion_lat": 0.0, "lon": -77.040075, "name": "a8b5743dc03ec16928e0fbc0381a99c0"}, {"bike_id": "6c628a5bd90b00f52aa00b7b5ce57e90", "type": "electric_scooter", "is_disabled": 0, "lat": 38.929402333333336, "rental_uris": {"ios": "https://dc.lft.to/lastmile_qr_scan", "android": "https://dc.lft.to/lastmile_qr_scan"}, "is_reserved": 0, "fusion_lon": 0.0, "fusion_lat": 0.0, "lon": -77.02330083333334, "name": "6c628a5bd90b00f52aa00b7b5ce57e90"}, {"bike_id": "c0c37bb19473d9f4567446084f9b5d99", "type": "electric_scooter", "is_disabled": 0, "lat": 38.96740883333333, "rental_uris": {"ios": "https://dc.lft.to/lastmile_qr_scan", "android": "https://dc.lft.to/lastmile_qr_scan"}, "is_reserved": 0, "fusion_lon": 0.0, "fusion_lat": 0.0, "lon": -77.05515433333333, "name": "c0c37bb19473d9f4567446084f9b5d99"}, {"bike_id": "919923474405e6ad371e3923c6060f68", "type": "electric_scooter", "is_disabled": 0, "lat": 38.919419500000004, "rental_uris": {"ios": "https://dc.lft.to/lastmile_qr_scan", "android": "https://dc.lft.to/lastmile_qr_scan"}, "is_reserved": 0, "fusion_lon": 0.0, "fusion_lat": 0.0, "lon": -77.04501, "name": "919923474405e6ad371e3923c6060f68"}, {"bike_id": "f04a2d57bb28b6af709e1448fffbea0f", "type": "electric_scooter", "is_disabled": 0, "lat": 38.928377166666664, "rental_uris": {"ios": "https://dc.lft.to/lastmile_qr_scan", "android": "https://dc.lft.to/lastmile_qr_scan"}, "is_reserved": 0, "fusion_lon": 0.0, "fusion_lat": 0.0, "lon": -77.02972933333334, "name": "f04a2d57bb28b6af709e1448fffbea0f"}, {"bike_id": "2fcc7bcff4adf51cb9636953c18f8918", "type": "electric_bike", "is_disabled": 0, "lat": 38.878903333333334, "rental_uris": {"ios": "https://dc.lft.to/lastmile_qr_scan", "android": "https://dc.lft.to/lastmile_qr_scan"}, "is_reserved": 0, "fusion_lon": 0.0, "fusion_lat": 0.0, "lon": -77.09613283333333, "name": "2fcc7bcff4adf51cb9636953c18f8918"}, {"bike_id": "7dbfda39eac46bb8d2f1782d44ae45e2", "type": "electric_scooter", "is_disabled": 0, "lat": 38.87792266666666, "rental_uris": {"ios": "https://dc.lft.to/lastmile_qr_scan", "android": "https://dc.lft.to/lastmile_qr_scan"}, "is_reserved": 0, "fusion_lon": 0.0, "fusion_lat": 0.0, "lon": -77.00123333333333, "name": "7dbfda39eac46bb8d2f1782d44ae45e2"}, {"bike_id": "247123ac9e8be18b2dc0ad6c4e593b69", "type": "electric_scooter", "is_disabled": 0, "lat": 38.9049725, "rental_uris": {"ios": "https://dc.lft.to/lastmile_qr_scan", "android": "https://dc.lft.to/lastmile_qr_scan"}, "is_reserved": 0, "fusion_lon": 0.0, "fusion_lat": 0.0, "lon": -76.99952416666666, "name": "247123ac9e8be18b2dc0ad6c4e593b69"}, {"bike_id": "bd487a4d4148cd0c3bf476488e95d897", "type": "electric_bike", "is_disabled": 0, "lat": 38.965159666666665, "rental_uris": {"ios": "https://dc.lft.to/lastmile_qr_scan", "android": "https://dc.lft.to/lastmile_qr_scan"}, "is_reserved": 0, "fusion_lon": 0.0, "fusion_lat": 0.0, "lon": -77.02829416666667, "name": "bd487a4d4148cd0c3bf476488e95d897"}, {"bike_id": "d70cbd8199507197601bf53116db894e", "type": "electric_scooter", "is_disabled": 0, "lat": 38.9116185, "rental_uris": {"ios": "https://dc.lft.to/lastmile_qr_scan", "android": "https://dc.lft.to/lastmile_qr_scan"}, "is_reserved": 0, "fusion_lon": 0.0, "fusion_lat": 0.0, "lon": -77.01619266666667, "name": "d70cbd8199507197601bf53116db894e"}, {"bike_id": "afbe2bf4eb0df6834f3518653e0070b8", "type": "electric_scooter", "is_disabled": 0, "lat": 38.90844933333333, "rental_uris": {"ios": "https://dc.lft.to/lastmile_qr_scan", "android": "https://dc.lft.to/lastmile_qr_scan"}, "is_reserved": 0, "fusion_lon": 0.0, "fusion_lat": 0.0, "lon": -77.03347983333333, "name": "afbe2bf4eb0df6834f3518653e0070b8"}, {"bike_id": "4ee5e2bc8052191365609e7aad4b1506", "type": "electric_bike", "is_disabled": 0, "lat": 38.9426265, "rental_uris": {"ios": "https://dc.lft.to/lastmile_qr_scan", "android": "https://dc.lft.to/lastmile_qr_scan"}, "is_reserved": 0, "fusion_lon": 0.0, "fusion_lat": 0.0, "lon": -76.99068683333333, "name": "4ee5e2bc8052191365609e7aad4b1506"}, {"bike_id": "74040f58ca798ff58b73d8b1309c07e3", "type": "electric_scooter", "is_disabled": 0, "lat": 38.86688933333333, "rental_uris": {"ios": "https://dc.lft.to/lastmile_qr_scan", "android": "https://dc.lft.to/lastmile_qr_scan"}, "is_reserved": 0, "fusion_lon": 0.0, "fusion_lat": 0.0, "lon": -76.98560683333334, "name": "74040f58ca798ff58b73d8b1309c07e3"}, {"bike_id": "36eb429da3e9af531afe29da6e28aaa6", "type": "electric_scooter", "is_disabled": 0, "lat": 38.91666083333333, "rental_uris": {"ios": "https://dc.lft.to/lastmile_qr_scan", "android": "https://dc.lft.to/lastmile_qr_scan"}, "is_reserved": 0, "fusion_lon": 0.0, "fusion_lat": 0.0, "lon": -77.0468615, "name": "36eb429da3e9af531afe29da6e28aaa6"}, {"bike_id": "f8499831d9c192675ac90a06e99d245d", "type": "electric_scooter", "is_disabled": 0, "lat": 38.89500833333334, "rental_uris": {"ios": "https://dc.lft.to/lastmile_qr_scan", "android": "https://dc.lft.to/lastmile_qr_scan"}, "is_reserved": 0, "fusion_lon": 0.0, "fusion_lat": 0.0, "lon": -76.93476783333334, "name": "f8499831d9c192675ac90a06e99d245d"}, {"bike_id": "e3d88e7cd730dee13ce4646ffdbdffa1", "type": "electric_scooter", "is_disabled": 0, "lat": 38.951204833333335, "rental_uris": {"ios": "https://dc.lft.to/lastmile_qr_scan", "android": "https://dc.lft.to/lastmile_qr_scan"}, "is_reserved": 0, "fusion_lon": 0.0, "fusion_lat": 0.0, "lon": -77.01432533333333, "name": "e3d88e7cd730dee13ce4646ffdbdffa1"}, {"bike_id": "d0abe72fb2042c323423af3dc62c53d0", "type": "electric_bike", "is_disabled": 0, "lat": 38.848381833333335, "rental_uris": {"ios": "https://dc.lft.to/lastmile_qr_scan", "android": "https://dc.lft.to/lastmile_qr_scan"}, "is_reserved": 0, "fusion_lon": 0.0, "fusion_lat": 0.0, "lon": -77.0791025, "name": "d0abe72fb2042c323423af3dc62c53d0"}, {"bike_id": "0703fbb329870a3491b669c85f5d6075", "type": "electric_scooter", "is_disabled": 0, "lat": 38.92862, "rental_uris": {"ios": "https://dc.lft.to/lastmile_qr_scan", "android": "https://dc.lft.to/lastmile_qr_scan"}, "is_reserved": 0, "fusion_lon": 0.0, "fusion_lat": 0.0, "lon": -77.03708333333333, "name": "0703fbb329870a3491b669c85f5d6075"}, {"bike_id": "0e425be4093db0e2c7f21c1a1e23226a", "type": "electric_scooter", "is_disabled": 0, "lat": 38.925392333333335, "rental_uris": {"ios": "https://dc.lft.to/lastmile_qr_scan", "android": "https://dc.lft.to/lastmile_qr_scan"}, "is_reserved": 0, "fusion_lon": 0.0, "fusion_lat": 0.0, "lon": -77.03354283333333, "name": "0e425be4093db0e2c7f21c1a1e23226a"}, {"bike_id": "e948c4cd0cef914e497b42921cd552fd", "type": "electric_scooter", "is_disabled": 0, "lat": 38.9493445, "rental_uris": {"ios": "https://dc.lft.to/lastmile_qr_scan", "android": "https://dc.lft.to/lastmile_qr_scan"}, "is_reserved": 0, "fusion_lon": 0.0, "fusion_lat": 0.0, "lon": -77.0653305, "name": "e948c4cd0cef914e497b42921cd552fd"}, {"bike_id": "efdc3f24687b0104a947c36bd96f96d9", "type": "electric_scooter", "is_disabled": 0, "lat": 38.87631666666667, "rental_uris": {"ios": "https://dc.lft.to/lastmile_qr_scan", "android": "https://dc.lft.to/lastmile_qr_scan"}, "is_reserved": 0, "fusion_lon": 0.0, "fusion_lat": 0.0, "lon": -76.96524833333334, "name": "efdc3f24687b0104a947c36bd96f96d9"}, {"bike_id": "3f807fc30edd637bece311a00b08f11d", "type": "electric_scooter", "is_disabled": 0, "lat": 38.900496, "rental_uris": {"ios": "https://dc.lft.to/lastmile_qr_scan", "android": "https://dc.lft.to/lastmile_qr_scan"}, "is_reserved": 0, "fusion_lon": 0.0, "fusion_lat": 0.0, "lon": -77.01322516666667, "name": "3f807fc30edd637bece311a00b08f11d"}, {"bike_id": "c4570d59654a1a03021a14b5cd60a131", "type": "electric_scooter", "is_disabled": 0, "lat": 38.906035333333335, "rental_uris": {"ios": "https://dc.lft.to/lastmile_qr_scan", "android": "https://dc.lft.to/lastmile_qr_scan"}, "is_reserved": 0, "fusion_lon": 0.0, "fusion_lat": 0.0, "lon": -77.0065875, "name": "c4570d59654a1a03021a14b5cd60a131"}, {"bike_id": "a67a76f8a3e85322bc2e55bb06c89fb5", "type": "electric_scooter", "is_disabled": 0, "lat": 38.906334666666666, "rental_uris": {"ios": "https://dc.lft.to/lastmile_qr_scan", "android": "https://dc.lft.to/lastmile_qr_scan"}, "is_reserved": 0, "fusion_lon": 0.0, "fusion_lat": 0.0, "lon": -77.03141466666666, "name": "a67a76f8a3e85322bc2e55bb06c89fb5"}, {"bike_id": "4fdc7f0c2d4034e37e6e8797b3257074", "type": "electric_scooter", "is_disabled": 0, "lat": 38.93930966666667, "rental_uris": {"ios": "https://dc.lft.to/lastmile_qr_scan", "android": "https://dc.lft.to/lastmile_qr_scan"}, "is_reserved": 0, "fusion_lon": 0.0, "fusion_lat": 0.0, "lon": -77.03681966666667, "name": "4fdc7f0c2d4034e37e6e8797b3257074"}, {"bike_id": "936dbedde67024b8106f242f54af6626", "type": "electric_scooter", "is_disabled": 0, "lat": 38.91692466666667, "rental_uris": {"ios": "https://dc.lft.to/lastmile_qr_scan", "android": "https://dc.lft.to/lastmile_qr_scan"}, "is_reserved": 0, "fusion_lon": 0.0, "fusion_lat": 0.0, "lon": -77.02873933333333, "name": "936dbedde67024b8106f242f54af6626"}, {"bike_id": "07edeb1c25abd9288be2006ba9715b72", "type": "electric_scooter", "is_disabled": 0, "lat": 38.900680666666666, "rental_uris": {"ios": "https://dc.lft.to/lastmile_qr_scan", "android": "https://dc.lft.to/lastmile_qr_scan"}, "is_reserved": 0, "fusion_lon": 0.0, "fusion_lat": 0.0, "lon": -76.92740883333333, "name": "07edeb1c25abd9288be2006ba9715b72"}, {"bike_id": "aa0948741b65d46d32d82bbf629c012f", "type": "electric_scooter", "is_disabled": 0, "lat": 38.950002, "rental_uris": {"ios": "https://dc.lft.to/lastmile_qr_scan", "android": "https://dc.lft.to/lastmile_qr_scan"}, "is_reserved": 0, "fusion_lon": 0.0, "fusion_lat": 0.0, "lon": -77.0182975, "name": "aa0948741b65d46d32d82bbf629c012f"}, {"bike_id": "4ad0cdb7c61f4b7f92cbdac5f52840d8", "type": "electric_scooter", "is_disabled": 0, "lat": 38.905005333333335, "rental_uris": {"ios": "https://dc.lft.to/lastmile_qr_scan", "android": "https://dc.lft.to/lastmile_qr_scan"}, "is_reserved": 0, "fusion_lon": 0.0, "fusion_lat": 0.0, "lon": -77.06884833333334, "name": "4ad0cdb7c61f4b7f92cbdac5f52840d8"}, {"bike_id": "7bbc6797fd52d3a3666f2245ae34cb89", "type": "electric_scooter", "is_disabled": 0, "lat": 38.92803266666667, "rental_uris": {"ios": "https://dc.lft.to/lastmile_qr_scan", "android": "https://dc.lft.to/lastmile_qr_scan"}, "is_reserved": 0, "fusion_lon": 0.0, "fusion_lat": 0.0, "lon": -77.02387466666667, "name": "7bbc6797fd52d3a3666f2245ae34cb89"}, {"bike_id": "16dadcf3daab1e7bf4ded7cb3bb7680f", "type": "electric_scooter", "is_disabled": 0, "lat": 38.9224855, "rental_uris": {"ios": "https://dc.lft.to/lastmile_qr_scan", "android": "https://dc.lft.to/lastmile_qr_scan"}, "is_reserved": 0, "fusion_lon": 0.0, "fusion_lat": 0.0, "lon": -77.0196565, "name": "16dadcf3daab1e7bf4ded7cb3bb7680f"}, {"bike_id": "28b478dd28fce323457cb1b5b7ff8575", "type": "electric_bike", "is_disabled": 0, "lat": 38.970538, "rental_uris": {"ios": "https://dc.lft.to/lastmile_qr_scan", "android": "https://dc.lft.to/lastmile_qr_scan"}, "is_reserved": 0, "fusion_lon": 0.0, "fusion_lat": 0.0, "lon": -76.93612783333333, "name": "28b478dd28fce323457cb1b5b7ff8575"}, {"bike_id": "060674f66aba859d0154a9210cc9b075", "type": "electric_scooter", "is_disabled": 0, "lat": 38.88161616666667, "rental_uris": {"ios": "https://dc.lft.to/lastmile_qr_scan", "android": "https://dc.lft.to/lastmile_qr_scan"}, "is_reserved": 0, "fusion_lon": 0.0, "fusion_lat": 0.0, "lon": -77.02764183333333, "name": "060674f66aba859d0154a9210cc9b075"}, {"bike_id": "34707effd15e5534e09fee593241693a", "type": "electric_scooter", "is_disabled": 0, "lat": 38.863694333333335, "rental_uris": {"ios": "https://dc.lft.to/lastmile_qr_scan", "android": "https://dc.lft.to/lastmile_qr_scan"}, "is_reserved": 0, "fusion_lon": 0.0, "fusion_lat": 0.0, "lon": -76.99054283333334, "name": "34707effd15e5534e09fee593241693a"}, {"bike_id": "d5ed3746d6d70e92bee86f915cc073c4", "type": "electric_scooter", "is_disabled": 0, "lat": 38.903128833333334, "rental_uris": {"ios": "https://dc.lft.to/lastmile_qr_scan", "android": "https://dc.lft.to/lastmile_qr_scan"}, "is_reserved": 0, "fusion_lon": 0.0, "fusion_lat": 0.0, "lon": -76.99135516666666, "name": "d5ed3746d6d70e92bee86f915cc073c4"}, {"bike_id": "6c845147a4eb31e00970c98af30780d4", "type": "electric_scooter", "is_disabled": 0, "lat": 38.917749, "rental_uris": {"ios": "https://dc.lft.to/lastmile_qr_scan", "android": "https://dc.lft.to/lastmile_qr_scan"}, "is_reserved": 0, "fusion_lon": 0.0, "fusion_lat": 0.0, "lon": -77.04764416666667, "name": "6c845147a4eb31e00970c98af30780d4"}, {"bike_id": "6ecb633da5da995ab53b6f956d0c60b6", "type": "electric_scooter", "is_disabled": 0, "lat": 38.90033716666667, "rental_uris": {"ios": "https://dc.lft.to/lastmile_qr_scan", "android": "https://dc.lft.to/lastmile_qr_scan"}, "is_reserved": 0, "fusion_lon": 0.0, "fusion_lat": 0.0, "lon": -77.00184516666667, "name": "6ecb633da5da995ab53b6f956d0c60b6"}, {"bike_id": "5c97e4e6dab2030cb7ff9e2a33adfaa1", "type": "electric_scooter", "is_disabled": 0, "lat": 38.89719683333333, "rental_uris": {"ios": "https://dc.lft.to/lastmile_qr_scan", "android": "https://dc.lft.to/lastmile_qr_scan"}, "is_reserved": 0, "fusion_lon": 0.0, "fusion_lat": 0.0, "lon": -77.0229335, "name": "5c97e4e6dab2030cb7ff9e2a33adfaa1"}, {"bike_id": "77957f7866c052a7c2ee92b96f5304d6", "type": "electric_scooter", "is_disabled": 0, "lat": 38.9286445, "rental_uris": {"ios": "https://dc.lft.to/lastmile_qr_scan", "android": "https://dc.lft.to/lastmile_qr_scan"}, "is_reserved": 0, "fusion_lon": 0.0, "fusion_lat": 0.0, "lon": -77.0371475, "name": "77957f7866c052a7c2ee92b96f5304d6"}, {"bike_id": "7c13cc52d89b246faf8514e6065a6b9a", "type": "electric_scooter", "is_disabled": 0, "lat": 38.95576233333333, "rental_uris": {"ios": "https://dc.lft.to/lastmile_qr_scan", "android": "https://dc.lft.to/lastmile_qr_scan"}, "is_reserved": 0, "fusion_lon": 0.0, "fusion_lat": 0.0, "lon": -77.08038566666667, "name": "7c13cc52d89b246faf8514e6065a6b9a"}, {"bike_id": "771d9d65af310476f151b35db731e4d8", "type": "electric_scooter", "is_disabled": 0, "lat": 38.92841683333333, "rental_uris": {"ios": "https://dc.lft.to/lastmile_qr_scan", "android": "https://dc.lft.to/lastmile_qr_scan"}, "is_reserved": 0, "fusion_lon": 0.0, "fusion_lat": 0.0, "lon": -77.05506466666667, "name": "771d9d65af310476f151b35db731e4d8"}, {"bike_id": "b2b10cb27edd68f7db261f4d1a57ade0", "type": "electric_scooter", "is_disabled": 0, "lat": 38.878500833333334, "rental_uris": {"ios": "https://dc.lft.to/lastmile_qr_scan", "android": "https://dc.lft.to/lastmile_qr_scan"}, "is_reserved": 0, "fusion_lon": 0.0, "fusion_lat": 0.0, "lon": -77.00854516666666, "name": "b2b10cb27edd68f7db261f4d1a57ade0"}, {"bike_id": "74eef7395997caeb39078c4665bc4631", "type": "electric_scooter", "is_disabled": 0, "lat": 38.984314499999996, "rental_uris": {"ios": "https://dc.lft.to/lastmile_qr_scan", "android": "https://dc.lft.to/lastmile_qr_scan"}, "is_reserved": 0, "fusion_lon": 0.0, "fusion_lat": 0.0, "lon": -77.02675, "name": "74eef7395997caeb39078c4665bc4631"}, {"bike_id": "a6715b707343e260c4e5fc55c5fde2a1", "type": "electric_bike", "is_disabled": 0, "lat": 38.8097555, "rental_uris": {"ios": "https://dc.lft.to/lastmile_qr_scan", "android": "https://dc.lft.to/lastmile_qr_scan"}, "is_reserved": 0, "fusion_lon": 0.0, "fusion_lat": 0.0, "lon": -77.0863135, "name": "a6715b707343e260c4e5fc55c5fde2a1"}, {"bike_id": "e736c5a238d8a8f47402c2e557b01a7b", "type": "electric_bike", "is_disabled": 0, "lat": 39.0374365, "rental_uris": {"ios": "https://dc.lft.to/lastmile_qr_scan", "android": "https://dc.lft.to/lastmile_qr_scan"}, "is_reserved": 0, "fusion_lon": 0.0, "fusion_lat": 0.0, "lon": -77.05480216666666, "name": "e736c5a238d8a8f47402c2e557b01a7b"}, {"bike_id": "c445d23a59cd287c4d88c8b1ac976555", "type": "electric_scooter", "is_disabled": 0, "lat": 38.91685483333333, "rental_uris": {"ios": "https://dc.lft.to/lastmile_qr_scan", "android": "https://dc.lft.to/lastmile_qr_scan"}, "is_reserved": 0, "fusion_lon": 0.0, "fusion_lat": 0.0, "lon": -77.023553, "name": "c445d23a59cd287c4d88c8b1ac976555"}, {"bike_id": "f643e5df4129ba23093e2d221e8300f9", "type": "electric_scooter", "is_disabled": 0, "lat": 38.957099666666664, "rental_uris": {"ios": "https://dc.lft.to/lastmile_qr_scan", "android": "https://dc.lft.to/lastmile_qr_scan"}, "is_reserved": 0, "fusion_lon": 0.0, "fusion_lat": 0.0, "lon": -77.0774685, "name": "f643e5df4129ba23093e2d221e8300f9"}, {"bike_id": "0247bd221ecdda5947817d626077e09b", "type": "electric_scooter", "is_disabled": 0, "lat": 38.908325, "rental_uris": {"ios": "https://dc.lft.to/lastmile_qr_scan", "android": "https://dc.lft.to/lastmile_qr_scan"}, "is_reserved": 0, "fusion_lon": 0.0, "fusion_lat": 0.0, "lon": -77.021693, "name": "0247bd221ecdda5947817d626077e09b"}, {"bike_id": "4bea321df1180db05e1f89f4aec7a319", "type": "electric_bike", "is_disabled": 0, "lat": 38.91975983333333, "rental_uris": {"ios": "https://dc.lft.to/lastmile_qr_scan", "android": "https://dc.lft.to/lastmile_qr_scan"}, "is_reserved": 0, "fusion_lon": 0.0, "fusion_lat": 0.0, "lon": -77.00357816666667, "name": "4bea321df1180db05e1f89f4aec7a319"}, {"bike_id": "105ef8d06d5a276a72f0669941c49c1f", "type": "electric_scooter", "is_disabled": 0, "lat": 38.88987483333333, "rental_uris": {"ios": "https://dc.lft.to/lastmile_qr_scan", "android": "https://dc.lft.to/lastmile_qr_scan"}, "is_reserved": 0, "fusion_lon": 0.0, "fusion_lat": 0.0, "lon": -77.00123733333334, "name": "105ef8d06d5a276a72f0669941c49c1f"}, {"bike_id": "1cf4baa4e1f1c40833f631366d4bd3ca", "type": "electric_bike", "is_disabled": 0, "lat": 38.90834366666667, "rental_uris": {"ios": "https://dc.lft.to/lastmile_qr_scan", "android": "https://dc.lft.to/lastmile_qr_scan"}, "is_reserved": 0, "fusion_lon": 0.0, "fusion_lat": 0.0, "lon": -76.94158216666666, "name": "1cf4baa4e1f1c40833f631366d4bd3ca"}, {"bike_id": "1dd447a7f820a9a7ea85e827e22b441f", "type": "electric_bike", "is_disabled": 0, "lat": 38.88129633333333, "rental_uris": {"ios": "https://dc.lft.to/lastmile_qr_scan", "android": "https://dc.lft.to/lastmile_qr_scan"}, "is_reserved": 0, "fusion_lon": 0.0, "fusion_lat": 0.0, "lon": -77.093507, "name": "1dd447a7f820a9a7ea85e827e22b441f"}, {"bike_id": "ee30f49fc63a3c205c3030090e608823", "type": "electric_scooter", "is_disabled": 0, "lat": 38.877416, "rental_uris": {"ios": "https://dc.lft.to/lastmile_qr_scan", "android": "https://dc.lft.to/lastmile_qr_scan"}, "is_reserved": 0, "fusion_lon": 0.0, "fusion_lat": 0.0, "lon": -76.997217, "name": "ee30f49fc63a3c205c3030090e608823"}, {"bike_id": "2ae3b97a49d236a73283852af6d63249", "type": "electric_scooter", "is_disabled": 0, "lat": 38.8935585, "rental_uris": {"ios": "https://dc.lft.to/lastmile_qr_scan", "android": "https://dc.lft.to/lastmile_qr_scan"}, "is_reserved": 0, "fusion_lon": 0.0, "fusion_lat": 0.0, "lon": -76.99277766666667, "name": "2ae3b97a49d236a73283852af6d63249"}, {"bike_id": "20b5609ddc2d4701842f53f3335c2abb", "type": "electric_scooter", "is_disabled": 0, "lat": 38.9096805, "rental_uris": {"ios": "https://dc.lft.to/lastmile_qr_scan", "android": "https://dc.lft.to/lastmile_qr_scan"}, "is_reserved": 0, "fusion_lon": 0.0, "fusion_lat": 0.0, "lon": -77.032285, "name": "20b5609ddc2d4701842f53f3335c2abb"}, {"bike_id": "5dccd4db2a0d0600adb138ccbbfe221f", "type": "electric_bike", "is_disabled": 0, "lat": 39.05494083333333, "rental_uris": {"ios": "https://dc.lft.to/lastmile_qr_scan", "android": "https://dc.lft.to/lastmile_qr_scan"}, "is_reserved": 0, "fusion_lon": 0.0, "fusion_lat": 0.0, "lon": -77.11789733333333, "name": "5dccd4db2a0d0600adb138ccbbfe221f"}, {"bike_id": "83f6f87e0d25e10aeba6a632f0222039", "type": "electric_scooter", "is_disabled": 0, "lat": 38.87637016666667, "rental_uris": {"ios": "https://dc.lft.to/lastmile_qr_scan", "android": "https://dc.lft.to/lastmile_qr_scan"}, "is_reserved": 0, "fusion_lon": 0.0, "fusion_lat": 0.0, "lon": -77.00419966666666, "name": "83f6f87e0d25e10aeba6a632f0222039"}, {"bike_id": "d8d9ecdabbb6b6134a3d5267f6ba6b0f", "type": "electric_scooter", "is_disabled": 0, "lat": 38.91628583333333, "rental_uris": {"ios": "https://dc.lft.to/lastmile_qr_scan", "android": "https://dc.lft.to/lastmile_qr_scan"}, "is_reserved": 0, "fusion_lon": 0.0, "fusion_lat": 0.0, "lon": -77.0401695, "name": "d8d9ecdabbb6b6134a3d5267f6ba6b0f"}, {"bike_id": "7c0d027347fe94a6d552632089730ac9", "type": "electric_scooter", "is_disabled": 0, "lat": 38.9157805, "rental_uris": {"ios": "https://dc.lft.to/lastmile_qr_scan", "android": "https://dc.lft.to/lastmile_qr_scan"}, "is_reserved": 0, "fusion_lon": 0.0, "fusion_lat": 0.0, "lon": -77.02417766666667, "name": "7c0d027347fe94a6d552632089730ac9"}, {"bike_id": "c463f5465f2bf2686ea50a37d5cc3b7b", "type": "electric_scooter", "is_disabled": 0, "lat": 38.92034666666667, "rental_uris": {"ios": "https://dc.lft.to/lastmile_qr_scan", "android": "https://dc.lft.to/lastmile_qr_scan"}, "is_reserved": 0, "fusion_lon": 0.0, "fusion_lat": 0.0, "lon": -77.01308766666666, "name": "c463f5465f2bf2686ea50a37d5cc3b7b"}, {"bike_id": "c8c20744c290d43b46e03c7127c6d4a3", "type": "electric_scooter", "is_disabled": 0, "lat": 38.931752333333336, "rental_uris": {"ios": "https://dc.lft.to/lastmile_qr_scan", "android": "https://dc.lft.to/lastmile_qr_scan"}, "is_reserved": 0, "fusion_lon": 0.0, "fusion_lat": 0.0, "lon": -77.03163216666667, "name": "c8c20744c290d43b46e03c7127c6d4a3"}, {"bike_id": "b137efcc90ea6bd5140fccb5bd721366", "type": "electric_scooter", "is_disabled": 0, "lat": 38.917025333333335, "rental_uris": {"ios": "https://dc.lft.to/lastmile_qr_scan", "android": "https://dc.lft.to/lastmile_qr_scan"}, "is_reserved": 0, "fusion_lon": 0.0, "fusion_lat": 0.0, "lon": -77.02880916666666, "name": "b137efcc90ea6bd5140fccb5bd721366"}, {"bike_id": "284225c493b5b3c84bb17f6ab2c4c6eb", "type": "electric_scooter", "is_disabled": 0, "lat": 38.905825, "rental_uris": {"ios": "https://dc.lft.to/lastmile_qr_scan", "android": "https://dc.lft.to/lastmile_qr_scan"}, "is_reserved": 0, "fusion_lon": 0.0, "fusion_lat": 0.0, "lon": -76.9843315, "name": "284225c493b5b3c84bb17f6ab2c4c6eb"}, {"bike_id": "4ed616d06a0c55bfee11e69a0e65a2c5", "type": "electric_scooter", "is_disabled": 0, "lat": 38.901202166666664, "rental_uris": {"ios": "https://dc.lft.to/lastmile_qr_scan", "android": "https://dc.lft.to/lastmile_qr_scan"}, "is_reserved": 0, "fusion_lon": 0.0, "fusion_lat": 0.0, "lon": -77.05011083333333, "name": "4ed616d06a0c55bfee11e69a0e65a2c5"}, {"bike_id": "5ebcbeafd97daec5957c2e0e41751a24", "type": "electric_scooter", "is_disabled": 0, "lat": 38.94206233333333, "rental_uris": {"ios": "https://dc.lft.to/lastmile_qr_scan", "android": "https://dc.lft.to/lastmile_qr_scan"}, "is_reserved": 0, "fusion_lon": 0.0, "fusion_lat": 0.0, "lon": -77.01736366666667, "name": "5ebcbeafd97daec5957c2e0e41751a24"}, {"bike_id": "6fe44260925e8cff377d25d2e187d618", "type": "electric_scooter", "is_disabled": 0, "lat": 38.9391985, "rental_uris": {"ios": "https://dc.lft.to/lastmile_qr_scan", "android": "https://dc.lft.to/lastmile_qr_scan"}, "is_reserved": 0, "fusion_lon": 0.0, "fusion_lat": 0.0, "lon": -77.06049483333334, "name": "6fe44260925e8cff377d25d2e187d618"}, {"bike_id": "519b58e5da674484fc16493a8df499ea", "type": "electric_scooter", "is_disabled": 0, "lat": 38.91561, "rental_uris": {"ios": "https://dc.lft.to/lastmile_qr_scan", "android": "https://dc.lft.to/lastmile_qr_scan"}, "is_reserved": 0, "fusion_lon": 0.0, "fusion_lat": 0.0, "lon": -77.03178033333333, "name": "519b58e5da674484fc16493a8df499ea"}, {"bike_id": "769ef4022681aeb07bc989a01e4a3f60", "type": "electric_bike", "is_disabled": 0, "lat": 38.87307283333333, "rental_uris": {"ios": "https://dc.lft.to/lastmile_qr_scan", "android": "https://dc.lft.to/lastmile_qr_scan"}, "is_reserved": 0, "fusion_lon": 0.0, "fusion_lat": 0.0, "lon": -77.13940283333334, "name": "769ef4022681aeb07bc989a01e4a3f60"}, {"bike_id": "fe0ca984e7f9291a93d11fd3ab062f4e", "type": "electric_scooter", "is_disabled": 0, "lat": 38.884787833333334, "rental_uris": {"ios": "https://dc.lft.to/lastmile_qr_scan", "android": "https://dc.lft.to/lastmile_qr_scan"}, "is_reserved": 0, "fusion_lon": 0.0, "fusion_lat": 0.0, "lon": -76.98213983333333, "name": "fe0ca984e7f9291a93d11fd3ab062f4e"}, {"bike_id": "31922956db8b1f1bd97ba04d05a28b81", "type": "electric_scooter", "is_disabled": 0, "lat": 38.916349833333335, "rental_uris": {"ios": "https://dc.lft.to/lastmile_qr_scan", "android": "https://dc.lft.to/lastmile_qr_scan"}, "is_reserved": 0, "fusion_lon": 0.0, "fusion_lat": 0.0, "lon": -77.02557316666666, "name": "31922956db8b1f1bd97ba04d05a28b81"}, {"bike_id": "a784b018da85774e5a1d80eabc3d60ef", "type": "electric_scooter", "is_disabled": 0, "lat": 38.920653, "rental_uris": {"ios": "https://dc.lft.to/lastmile_qr_scan", "android": "https://dc.lft.to/lastmile_qr_scan"}, "is_reserved": 0, "fusion_lon": 0.0, "fusion_lat": 0.0, "lon": -77.02838183333333, "name": "a784b018da85774e5a1d80eabc3d60ef"}, {"bike_id": "f633626ffd74b8d6f27899d285b623f1", "type": "electric_scooter", "is_disabled": 0, "lat": 38.925076, "rental_uris": {"ios": "https://dc.lft.to/lastmile_qr_scan", "android": "https://dc.lft.to/lastmile_qr_scan"}, "is_reserved": 0, "fusion_lon": 0.0, "fusion_lat": 0.0, "lon": -77.03806916666667, "name": "f633626ffd74b8d6f27899d285b623f1"}, {"bike_id": "7322add65ef12417678acee18ee177c3", "type": "electric_scooter", "is_disabled": 0, "lat": 38.922403, "rental_uris": {"ios": "https://dc.lft.to/lastmile_qr_scan", "android": "https://dc.lft.to/lastmile_qr_scan"}, "is_reserved": 0, "fusion_lon": 0.0, "fusion_lat": 0.0, "lon": -77.073108, "name": "7322add65ef12417678acee18ee177c3"}, {"bike_id": "b3ae5314682d97bd02eb3d105d6c18b1", "type": "electric_scooter", "is_disabled": 0, "lat": 38.87826583333333, "rental_uris": {"ios": "https://dc.lft.to/lastmile_qr_scan", "android": "https://dc.lft.to/lastmile_qr_scan"}, "is_reserved": 0, "fusion_lon": 0.0, "fusion_lat": 0.0, "lon": -77.02234616666667, "name": "b3ae5314682d97bd02eb3d105d6c18b1"}, {"bike_id": "1786abea9d6bf5fb4683e4f2febd9c12", "type": "electric_scooter", "is_disabled": 0, "lat": 38.8764955, "rental_uris": {"ios": "https://dc.lft.to/lastmile_qr_scan", "android": "https://dc.lft.to/lastmile_qr_scan"}, "is_reserved": 0, "fusion_lon": 0.0, "fusion_lat": 0.0, "lon": -76.96507333333334, "name": "1786abea9d6bf5fb4683e4f2febd9c12"}, {"bike_id": "7a0b6f3e67cea2a39c7a6bfd2af16643", "type": "electric_scooter", "is_disabled": 0, "lat": 38.9214825, "rental_uris": {"ios": "https://dc.lft.to/lastmile_qr_scan", "android": "https://dc.lft.to/lastmile_qr_scan"}, "is_reserved": 0, "fusion_lon": 0.0, "fusion_lat": 0.0, "lon": -77.0413255, "name": "7a0b6f3e67cea2a39c7a6bfd2af16643"}, {"bike_id": "b19077ddce8343e1284232d4d2e69955", "type": "electric_scooter", "is_disabled": 0, "lat": 38.93577166666667, "rental_uris": {"ios": "https://dc.lft.to/lastmile_qr_scan", "android": "https://dc.lft.to/lastmile_qr_scan"}, "is_reserved": 0, "fusion_lon": 0.0, "fusion_lat": 0.0, "lon": -77.03258583333333, "name": "b19077ddce8343e1284232d4d2e69955"}, {"bike_id": "5b26b62779a8667beb8202340282d133", "type": "electric_bike", "is_disabled": 0, "lat": 38.908699666666664, "rental_uris": {"ios": "https://dc.lft.to/lastmile_qr_scan", "android": "https://dc.lft.to/lastmile_qr_scan"}, "is_reserved": 0, "fusion_lon": 0.0, "fusion_lat": 0.0, "lon": -76.99136783333333, "name": "5b26b62779a8667beb8202340282d133"}, {"bike_id": "bc4c78b798e8009ec4e743a039925dab", "type": "electric_scooter", "is_disabled": 0, "lat": 38.913815666666665, "rental_uris": {"ios": "https://dc.lft.to/lastmile_qr_scan", "android": "https://dc.lft.to/lastmile_qr_scan"}, "is_reserved": 0, "fusion_lon": 0.0, "fusion_lat": 0.0, "lon": -77.01707983333333, "name": "bc4c78b798e8009ec4e743a039925dab"}, {"bike_id": "ecc0a182a9efd3fe923acfe81262d797", "type": "electric_scooter", "is_disabled": 0, "lat": 38.93482616666667, "rental_uris": {"ios": "https://dc.lft.to/lastmile_qr_scan", "android": "https://dc.lft.to/lastmile_qr_scan"}, "is_reserved": 0, "fusion_lon": 0.0, "fusion_lat": 0.0, "lon": -77.07283283333334, "name": "ecc0a182a9efd3fe923acfe81262d797"}, {"bike_id": "568e749d306d66e809c8e97947b2d825", "type": "electric_scooter", "is_disabled": 0, "lat": 38.87935683333333, "rental_uris": {"ios": "https://dc.lft.to/lastmile_qr_scan", "android": "https://dc.lft.to/lastmile_qr_scan"}, "is_reserved": 0, "fusion_lon": 0.0, "fusion_lat": 0.0, "lon": -77.01645766666667, "name": "568e749d306d66e809c8e97947b2d825"}, {"bike_id": "d97440bdf1a6e2da27e763d2e170b5a1", "type": "electric_scooter", "is_disabled": 0, "lat": 38.922524, "rental_uris": {"ios": "https://dc.lft.to/lastmile_qr_scan", "android": "https://dc.lft.to/lastmile_qr_scan"}, "is_reserved": 0, "fusion_lon": 0.0, "fusion_lat": 0.0, "lon": -77.0194955, "name": "d97440bdf1a6e2da27e763d2e170b5a1"}, {"bike_id": "120fcaf983c6555c8e380bcfac945f92", "type": "electric_scooter", "is_disabled": 0, "lat": 38.89870966666667, "rental_uris": {"ios": "https://dc.lft.to/lastmile_qr_scan", "android": "https://dc.lft.to/lastmile_qr_scan"}, "is_reserved": 0, "fusion_lon": 0.0, "fusion_lat": 0.0, "lon": -76.94664233333333, "name": "120fcaf983c6555c8e380bcfac945f92"}, {"bike_id": "b8ed7dfd19bbc6cb1bf772869605d97b", "type": "electric_bike", "is_disabled": 0, "lat": 38.873071833333334, "rental_uris": {"ios": "https://dc.lft.to/lastmile_qr_scan", "android": "https://dc.lft.to/lastmile_qr_scan"}, "is_reserved": 0, "fusion_lon": 0.0, "fusion_lat": 0.0, "lon": -77.01093933333334, "name": "b8ed7dfd19bbc6cb1bf772869605d97b"}, {"bike_id": "eaf2712b20ebb19ce750f48ab9a1b52e", "type": "electric_scooter", "is_disabled": 0, "lat": 38.917124666666666, "rental_uris": {"ios": "https://dc.lft.to/lastmile_qr_scan", "android": "https://dc.lft.to/lastmile_qr_scan"}, "is_reserved": 0, "fusion_lon": 0.0, "fusion_lat": 0.0, "lon": -77.0260425, "name": "eaf2712b20ebb19ce750f48ab9a1b52e"}, {"bike_id": "b3efd23e756de823b69b63824b80058d", "type": "electric_scooter", "is_disabled": 0, "lat": 38.91557916666667, "rental_uris": {"ios": "https://dc.lft.to/lastmile_qr_scan", "android": "https://dc.lft.to/lastmile_qr_scan"}, "is_reserved": 0, "fusion_lon": 0.0, "fusion_lat": 0.0, "lon": -77.025711, "name": "b3efd23e756de823b69b63824b80058d"}, {"bike_id": "a08887b81d160add43f997f3074078a9", "type": "electric_scooter", "is_disabled": 0, "lat": 38.880811, "rental_uris": {"ios": "https://dc.lft.to/lastmile_qr_scan", "android": "https://dc.lft.to/lastmile_qr_scan"}, "is_reserved": 0, "fusion_lon": 0.0, "fusion_lat": 0.0, "lon": -76.99510683333334, "name": "a08887b81d160add43f997f3074078a9"}, {"bike_id": "fe94cec1a0c2fc163c1eef7e08e954a8", "type": "electric_scooter", "is_disabled": 0, "lat": 38.93996633333333, "rental_uris": {"ios": "https://dc.lft.to/lastmile_qr_scan", "android": "https://dc.lft.to/lastmile_qr_scan"}, "is_reserved": 0, "fusion_lon": 0.0, "fusion_lat": 0.0, "lon": -77.01689583333334, "name": "fe94cec1a0c2fc163c1eef7e08e954a8"}, {"bike_id": "8294a3c6f0089066271ee777e38491a9", "type": "electric_bike", "is_disabled": 0, "lat": 38.85358083333333, "rental_uris": {"ios": "https://dc.lft.to/lastmile_qr_scan", "android": "https://dc.lft.to/lastmile_qr_scan"}, "is_reserved": 0, "fusion_lon": 0.0, "fusion_lat": 0.0, "lon": -77.08688033333334, "name": "8294a3c6f0089066271ee777e38491a9"}, {"bike_id": "00f8a42408a223789810c818a162c456", "type": "electric_scooter", "is_disabled": 0, "lat": 38.865079333333334, "rental_uris": {"ios": "https://dc.lft.to/lastmile_qr_scan", "android": "https://dc.lft.to/lastmile_qr_scan"}, "is_reserved": 0, "fusion_lon": 0.0, "fusion_lat": 0.0, "lon": -76.9900205, "name": "00f8a42408a223789810c818a162c456"}, {"bike_id": "a2ba1abeb7cae939fc53e88ee96fffb9", "type": "electric_scooter", "is_disabled": 0, "lat": 38.920186666666666, "rental_uris": {"ios": "https://dc.lft.to/lastmile_qr_scan", "android": "https://dc.lft.to/lastmile_qr_scan"}, "is_reserved": 0, "fusion_lon": 0.0, "fusion_lat": 0.0, "lon": -77.01291333333333, "name": "a2ba1abeb7cae939fc53e88ee96fffb9"}, {"bike_id": "3e4319c937b467bf4d34c1158f051a62", "type": "electric_scooter", "is_disabled": 0, "lat": 38.914925833333335, "rental_uris": {"ios": "https://dc.lft.to/lastmile_qr_scan", "android": "https://dc.lft.to/lastmile_qr_scan"}, "is_reserved": 0, "fusion_lon": 0.0, "fusion_lat": 0.0, "lon": -77.00288333333333, "name": "3e4319c937b467bf4d34c1158f051a62"}, {"bike_id": "69b1ab597e72b2f25b915366270c357a", "type": "electric_scooter", "is_disabled": 0, "lat": 38.928711, "rental_uris": {"ios": "https://dc.lft.to/lastmile_qr_scan", "android": "https://dc.lft.to/lastmile_qr_scan"}, "is_reserved": 0, "fusion_lon": 0.0, "fusion_lat": 0.0, "lon": -77.0217395, "name": "69b1ab597e72b2f25b915366270c357a"}, {"bike_id": "8c1f769580613e74285bc31f9c317d64", "type": "electric_scooter", "is_disabled": 0, "lat": 38.90193633333333, "rental_uris": {"ios": "https://dc.lft.to/lastmile_qr_scan", "android": "https://dc.lft.to/lastmile_qr_scan"}, "is_reserved": 0, "fusion_lon": 0.0, "fusion_lat": 0.0, "lon": -77.0396805, "name": "8c1f769580613e74285bc31f9c317d64"}, {"bike_id": "bce7335f84484313c34b394010ab31fc", "type": "electric_scooter", "is_disabled": 0, "lat": 38.9111655, "rental_uris": {"ios": "https://dc.lft.to/lastmile_qr_scan", "android": "https://dc.lft.to/lastmile_qr_scan"}, "is_reserved": 0, "fusion_lon": 0.0, "fusion_lat": 0.0, "lon": -77.04219983333333, "name": "bce7335f84484313c34b394010ab31fc"}, {"bike_id": "6e1fa1b1bbdd660eeacd2d8759b66919", "type": "electric_scooter", "is_disabled": 0, "lat": 38.90374883333333, "rental_uris": {"ios": "https://dc.lft.to/lastmile_qr_scan", "android": "https://dc.lft.to/lastmile_qr_scan"}, "is_reserved": 0, "fusion_lon": 0.0, "fusion_lat": 0.0, "lon": -77.05331883333334, "name": "6e1fa1b1bbdd660eeacd2d8759b66919"}, {"bike_id": "6d525316cf8279fa645746e1ffbffe0b", "type": "electric_scooter", "is_disabled": 0, "lat": 38.91746233333333, "rental_uris": {"ios": "https://dc.lft.to/lastmile_qr_scan", "android": "https://dc.lft.to/lastmile_qr_scan"}, "is_reserved": 0, "fusion_lon": 0.0, "fusion_lat": 0.0, "lon": -77.03198466666667, "name": "6d525316cf8279fa645746e1ffbffe0b"}, {"bike_id": "ba453a74d2984c6dfb0dd039366f213e", "type": "electric_scooter", "is_disabled": 0, "lat": 38.88181316666667, "rental_uris": {"ios": "https://dc.lft.to/lastmile_qr_scan", "android": "https://dc.lft.to/lastmile_qr_scan"}, "is_reserved": 0, "fusion_lon": 0.0, "fusion_lat": 0.0, "lon": -77.03739883333333, "name": "ba453a74d2984c6dfb0dd039366f213e"}, {"bike_id": "63194641c1e9ddfd5854af8952beabd8", "type": "electric_scooter", "is_disabled": 0, "lat": 38.916345166666666, "rental_uris": {"ios": "https://dc.lft.to/lastmile_qr_scan", "android": "https://dc.lft.to/lastmile_qr_scan"}, "is_reserved": 0, "fusion_lon": 0.0, "fusion_lat": 0.0, "lon": -77.02553733333333, "name": "63194641c1e9ddfd5854af8952beabd8"}, {"bike_id": "a8c6d698bd4d89072900ef141d55f749", "type": "electric_scooter", "is_disabled": 0, "lat": 38.964494, "rental_uris": {"ios": "https://dc.lft.to/lastmile_qr_scan", "android": "https://dc.lft.to/lastmile_qr_scan"}, "is_reserved": 0, "fusion_lon": 0.0, "fusion_lat": 0.0, "lon": -77.02062, "name": "a8c6d698bd4d89072900ef141d55f749"}, {"bike_id": "5859bf4868436a290ee3de1f79f568f1", "type": "electric_scooter", "is_disabled": 0, "lat": 38.92356866666667, "rental_uris": {"ios": "https://dc.lft.to/lastmile_qr_scan", "android": "https://dc.lft.to/lastmile_qr_scan"}, "is_reserved": 0, "fusion_lon": 0.0, "fusion_lat": 0.0, "lon": -77.0390555, "name": "5859bf4868436a290ee3de1f79f568f1"}, {"bike_id": "027972669e06f68663b60ac0fcdf9c2b", "type": "electric_scooter", "is_disabled": 0, "lat": 38.89802183333333, "rental_uris": {"ios": "https://dc.lft.to/lastmile_qr_scan", "android": "https://dc.lft.to/lastmile_qr_scan"}, "is_reserved": 0, "fusion_lon": 0.0, "fusion_lat": 0.0, "lon": -77.02185166666666, "name": "027972669e06f68663b60ac0fcdf9c2b"}, {"bike_id": "664de0ef28a3aa4d86df4e9bc1d857d9", "type": "electric_scooter", "is_disabled": 0, "lat": 38.95220466666667, "rental_uris": {"ios": "https://dc.lft.to/lastmile_qr_scan", "android": "https://dc.lft.to/lastmile_qr_scan"}, "is_reserved": 0, "fusion_lon": 0.0, "fusion_lat": 0.0, "lon": -77.07068766666667, "name": "664de0ef28a3aa4d86df4e9bc1d857d9"}, {"bike_id": "4f0a0a04988682bde542b6cf481328f3", "type": "electric_scooter", "is_disabled": 0, "lat": 38.9166055, "rental_uris": {"ios": "https://dc.lft.to/lastmile_qr_scan", "android": "https://dc.lft.to/lastmile_qr_scan"}, "is_reserved": 0, "fusion_lon": 0.0, "fusion_lat": 0.0, "lon": -76.97907316666667, "name": "4f0a0a04988682bde542b6cf481328f3"}, {"bike_id": "b0468dfec02a08df3a37f64319ab523c", "type": "electric_scooter", "is_disabled": 0, "lat": 38.9006995, "rental_uris": {"ios": "https://dc.lft.to/lastmile_qr_scan", "android": "https://dc.lft.to/lastmile_qr_scan"}, "is_reserved": 0, "fusion_lon": 0.0, "fusion_lat": 0.0, "lon": -77.01730566666667, "name": "b0468dfec02a08df3a37f64319ab523c"}, {"bike_id": "e682e2712501af47b9f230c14581f6ea", "type": "electric_bike", "is_disabled": 0, "lat": 38.951774, "rental_uris": {"ios": "https://dc.lft.to/lastmile_qr_scan", "android": "https://dc.lft.to/lastmile_qr_scan"}, "is_reserved": 0, "fusion_lon": 0.0, "fusion_lat": 0.0, "lon": -76.97730666666666, "name": "e682e2712501af47b9f230c14581f6ea"}, {"bike_id": "cbb6614f1e1364e79b5b5110e18d96a2", "type": "electric_scooter", "is_disabled": 0, "lat": 38.9249355, "rental_uris": {"ios": "https://dc.lft.to/lastmile_qr_scan", "android": "https://dc.lft.to/lastmile_qr_scan"}, "is_reserved": 0, "fusion_lon": 0.0, "fusion_lat": 0.0, "lon": -77.031815, "name": "cbb6614f1e1364e79b5b5110e18d96a2"}, {"bike_id": "0057d32b547f5cc1c33c6ff2da7f097e", "type": "electric_bike", "is_disabled": 0, "lat": 38.98771133333334, "rental_uris": {"ios": "https://dc.lft.to/lastmile_qr_scan", "android": "https://dc.lft.to/lastmile_qr_scan"}, "is_reserved": 0, "fusion_lon": 0.0, "fusion_lat": 0.0, "lon": -77.140559, "name": "0057d32b547f5cc1c33c6ff2da7f097e"}, {"bike_id": "61b2ac8073750304c84c13f1985b4b95", "type": "electric_scooter", "is_disabled": 0, "lat": 38.93368016666667, "rental_uris": {"ios": "https://dc.lft.to/lastmile_qr_scan", "android": "https://dc.lft.to/lastmile_qr_scan"}, "is_reserved": 0, "fusion_lon": 0.0, "fusion_lat": 0.0, "lon": -77.02646583333333, "name": "61b2ac8073750304c84c13f1985b4b95"}, {"bike_id": "d70071e57ab62070a27619e9d066be2c", "type": "electric_scooter", "is_disabled": 0, "lat": 38.929626666666664, "rental_uris": {"ios": "https://dc.lft.to/lastmile_qr_scan", "android": "https://dc.lft.to/lastmile_qr_scan"}, "is_reserved": 0, "fusion_lon": 0.0, "fusion_lat": 0.0, "lon": -77.01142516666667, "name": "d70071e57ab62070a27619e9d066be2c"}, {"bike_id": "284c0b01edc0ae40f22f9583ec9a2b8d", "type": "electric_scooter", "is_disabled": 0, "lat": 38.92327216666666, "rental_uris": {"ios": "https://dc.lft.to/lastmile_qr_scan", "android": "https://dc.lft.to/lastmile_qr_scan"}, "is_reserved": 0, "fusion_lon": 0.0, "fusion_lat": 0.0, "lon": -77.00885383333333, "name": "284c0b01edc0ae40f22f9583ec9a2b8d"}, {"bike_id": "8f4294b77225f1f0b6705059584a2be2", "type": "electric_scooter", "is_disabled": 0, "lat": 38.9050765, "rental_uris": {"ios": "https://dc.lft.to/lastmile_qr_scan", "android": "https://dc.lft.to/lastmile_qr_scan"}, "is_reserved": 0, "fusion_lon": 0.0, "fusion_lat": 0.0, "lon": -77.04359283333334, "name": "8f4294b77225f1f0b6705059584a2be2"}, {"bike_id": "90775f6ee88f646eff6598077ec0020f", "type": "electric_scooter", "is_disabled": 0, "lat": 38.93576683333333, "rental_uris": {"ios": "https://dc.lft.to/lastmile_qr_scan", "android": "https://dc.lft.to/lastmile_qr_scan"}, "is_reserved": 0, "fusion_lon": 0.0, "fusion_lat": 0.0, "lon": -77.03804683333334, "name": "90775f6ee88f646eff6598077ec0020f"}, {"bike_id": "f16c26669d6bc4c68b6024db8eda1419", "type": "electric_bike", "is_disabled": 0, "lat": 38.91000433333333, "rental_uris": {"ios": "https://dc.lft.to/lastmile_qr_scan", "android": "https://dc.lft.to/lastmile_qr_scan"}, "is_reserved": 0, "fusion_lon": 0.0, "fusion_lat": 0.0, "lon": -77.05715983333333, "name": "f16c26669d6bc4c68b6024db8eda1419"}, {"bike_id": "2ad31e5ac8876fbfb403af0d9bbb81f8", "type": "electric_scooter", "is_disabled": 0, "lat": 38.901703833333336, "rental_uris": {"ios": "https://dc.lft.to/lastmile_qr_scan", "android": "https://dc.lft.to/lastmile_qr_scan"}, "is_reserved": 0, "fusion_lon": 0.0, "fusion_lat": 0.0, "lon": -77.0229585, "name": "2ad31e5ac8876fbfb403af0d9bbb81f8"}, {"bike_id": "c426ee2a55066c92abded2667d632ca8", "type": "electric_scooter", "is_disabled": 0, "lat": 38.90237066666667, "rental_uris": {"ios": "https://dc.lft.to/lastmile_qr_scan", "android": "https://dc.lft.to/lastmile_qr_scan"}, "is_reserved": 0, "fusion_lon": 0.0, "fusion_lat": 0.0, "lon": -77.0020065, "name": "c426ee2a55066c92abded2667d632ca8"}, {"bike_id": "e91c846ceb69b159affb9debb8feef90", "type": "electric_scooter", "is_disabled": 0, "lat": 38.9142975, "rental_uris": {"ios": "https://dc.lft.to/lastmile_qr_scan", "android": "https://dc.lft.to/lastmile_qr_scan"}, "is_reserved": 0, "fusion_lon": 0.0, "fusion_lat": 0.0, "lon": -77.03174616666666, "name": "e91c846ceb69b159affb9debb8feef90"}, {"bike_id": "9bce4a122af896056e9634ca7a67200f", "type": "electric_scooter", "is_disabled": 0, "lat": 38.895355333333335, "rental_uris": {"ios": "https://dc.lft.to/lastmile_qr_scan", "android": "https://dc.lft.to/lastmile_qr_scan"}, "is_reserved": 0, "fusion_lon": 0.0, "fusion_lat": 0.0, "lon": -76.94895233333334, "name": "9bce4a122af896056e9634ca7a67200f"}, {"bike_id": "6e9a20bfb59887f9e73c8be6c2249b85", "type": "electric_scooter", "is_disabled": 0, "lat": 38.9413405, "rental_uris": {"ios": "https://dc.lft.to/lastmile_qr_scan", "android": "https://dc.lft.to/lastmile_qr_scan"}, "is_reserved": 0, "fusion_lon": 0.0, "fusion_lat": 0.0, "lon": -77.02321016666667, "name": "6e9a20bfb59887f9e73c8be6c2249b85"}, {"bike_id": "8f9eb6f7223534dfeb028943eedcc4b2", "type": "electric_scooter", "is_disabled": 0, "lat": 38.89738466666667, "rental_uris": {"ios": "https://dc.lft.to/lastmile_qr_scan", "android": "https://dc.lft.to/lastmile_qr_scan"}, "is_reserved": 0, "fusion_lon": 0.0, "fusion_lat": 0.0, "lon": -76.9472375, "name": "8f9eb6f7223534dfeb028943eedcc4b2"}, {"bike_id": "bc5ca34fc5dbf9120fe41c8ee70b9aa4", "type": "electric_scooter", "is_disabled": 0, "lat": 38.89926833333333, "rental_uris": {"ios": "https://dc.lft.to/lastmile_qr_scan", "android": "https://dc.lft.to/lastmile_qr_scan"}, "is_reserved": 0, "fusion_lon": 0.0, "fusion_lat": 0.0, "lon": -77.0217065, "name": "bc5ca34fc5dbf9120fe41c8ee70b9aa4"}, {"bike_id": "87002aa2bc152b57dadf606ec0193ad7", "type": "electric_scooter", "is_disabled": 0, "lat": 38.9322435, "rental_uris": {"ios": "https://dc.lft.to/lastmile_qr_scan", "android": "https://dc.lft.to/lastmile_qr_scan"}, "is_reserved": 0, "fusion_lon": 0.0, "fusion_lat": 0.0, "lon": -76.99704133333333, "name": "87002aa2bc152b57dadf606ec0193ad7"}, {"bike_id": "35ec914700be78c1ac53dfdff15a3ebd", "type": "electric_scooter", "is_disabled": 0, "lat": 38.912302, "rental_uris": {"ios": "https://dc.lft.to/lastmile_qr_scan", "android": "https://dc.lft.to/lastmile_qr_scan"}, "is_reserved": 0, "fusion_lon": 0.0, "fusion_lat": 0.0, "lon": -77.03216483333334, "name": "35ec914700be78c1ac53dfdff15a3ebd"}, {"bike_id": "1ba6d2d29a40a66e60cc41e8e0e92516", "type": "electric_scooter", "is_disabled": 0, "lat": 38.93640633333333, "rental_uris": {"ios": "https://dc.lft.to/lastmile_qr_scan", "android": "https://dc.lft.to/lastmile_qr_scan"}, "is_reserved": 0, "fusion_lon": 0.0, "fusion_lat": 0.0, "lon": -77.058816, "name": "1ba6d2d29a40a66e60cc41e8e0e92516"}, {"bike_id": "13be091aee7b2ab43507bf315f5f9226", "type": "electric_scooter", "is_disabled": 0, "lat": 38.92798833333333, "rental_uris": {"ios": "https://dc.lft.to/lastmile_qr_scan", "android": "https://dc.lft.to/lastmile_qr_scan"}, "is_reserved": 0, "fusion_lon": 0.0, "fusion_lat": 0.0, "lon": -77.02131816666666, "name": "13be091aee7b2ab43507bf315f5f9226"}, {"bike_id": "dd753ea8ec586b74be3a86ad24c00aa7", "type": "electric_bike", "is_disabled": 0, "lat": 38.92969133333333, "rental_uris": {"ios": "https://dc.lft.to/lastmile_qr_scan", "android": "https://dc.lft.to/lastmile_qr_scan"}, "is_reserved": 0, "fusion_lon": 0.0, "fusion_lat": 0.0, "lon": -77.18565083333333, "name": "dd753ea8ec586b74be3a86ad24c00aa7"}, {"bike_id": "3be8a974f7cab6dfc14450ac00317a81", "type": "electric_scooter", "is_disabled": 0, "lat": 38.902814666666664, "rental_uris": {"ios": "https://dc.lft.to/lastmile_qr_scan", "android": "https://dc.lft.to/lastmile_qr_scan"}, "is_reserved": 0, "fusion_lon": 0.0, "fusion_lat": 0.0, "lon": -77.05801683333334, "name": "3be8a974f7cab6dfc14450ac00317a81"}, {"bike_id": "7012b53a0393ba4e2b67ce85c8a026b5", "type": "electric_scooter", "is_disabled": 0, "lat": 38.911179, "rental_uris": {"ios": "https://dc.lft.to/lastmile_qr_scan", "android": "https://dc.lft.to/lastmile_qr_scan"}, "is_reserved": 0, "fusion_lon": 0.0, "fusion_lat": 0.0, "lon": -77.01155916666667, "name": "7012b53a0393ba4e2b67ce85c8a026b5"}, {"bike_id": "8e76e966aa4d62853c76a3634c32afa0", "type": "electric_scooter", "is_disabled": 0, "lat": 38.932543333333335, "rental_uris": {"ios": "https://dc.lft.to/lastmile_qr_scan", "android": "https://dc.lft.to/lastmile_qr_scan"}, "is_reserved": 0, "fusion_lon": 0.0, "fusion_lat": 0.0, "lon": -77.020032, "name": "8e76e966aa4d62853c76a3634c32afa0"}, {"bike_id": "933868bd97e8696af62d33fcd84ddcb4", "type": "electric_bike", "is_disabled": 0, "lat": 38.861512833333336, "rental_uris": {"ios": "https://dc.lft.to/lastmile_qr_scan", "android": "https://dc.lft.to/lastmile_qr_scan"}, "is_reserved": 0, "fusion_lon": 0.0, "fusion_lat": 0.0, "lon": -77.09145066666666, "name": "933868bd97e8696af62d33fcd84ddcb4"}, {"bike_id": "c33fc74c8ce652ede10229ed6121a354", "type": "electric_scooter", "is_disabled": 0, "lat": 38.916379166666665, "rental_uris": {"ios": "https://dc.lft.to/lastmile_qr_scan", "android": "https://dc.lft.to/lastmile_qr_scan"}, "is_reserved": 0, "fusion_lon": 0.0, "fusion_lat": 0.0, "lon": -77.01429233333333, "name": "c33fc74c8ce652ede10229ed6121a354"}, {"bike_id": "667ff56c30604e05cd95cc8beb918176", "type": "electric_bike", "is_disabled": 0, "lat": 38.905387, "rental_uris": {"ios": "https://dc.lft.to/lastmile_qr_scan", "android": "https://dc.lft.to/lastmile_qr_scan"}, "is_reserved": 0, "fusion_lon": 0.0, "fusion_lat": 0.0, "lon": -77.0591205, "name": "667ff56c30604e05cd95cc8beb918176"}, {"bike_id": "43da7aed281e2ba3a4ebb4fa4040fb5e", "type": "electric_scooter", "is_disabled": 0, "lat": 38.90808966666667, "rental_uris": {"ios": "https://dc.lft.to/lastmile_qr_scan", "android": "https://dc.lft.to/lastmile_qr_scan"}, "is_reserved": 0, "fusion_lon": 0.0, "fusion_lat": 0.0, "lon": -77.0320205, "name": "43da7aed281e2ba3a4ebb4fa4040fb5e"}, {"bike_id": "ca5a0a88a4271587fe1da02ca582de5e", "type": "electric_scooter", "is_disabled": 0, "lat": 38.898424, "rental_uris": {"ios": "https://dc.lft.to/lastmile_qr_scan", "android": "https://dc.lft.to/lastmile_qr_scan"}, "is_reserved": 0, "fusion_lon": 0.0, "fusion_lat": 0.0, "lon": -76.94629933333333, "name": "ca5a0a88a4271587fe1da02ca582de5e"}, {"bike_id": "193a384443dd5597c9cd88c2fd69d495", "type": "electric_scooter", "is_disabled": 0, "lat": 38.924504666666664, "rental_uris": {"ios": "https://dc.lft.to/lastmile_qr_scan", "android": "https://dc.lft.to/lastmile_qr_scan"}, "is_reserved": 0, "fusion_lon": 0.0, "fusion_lat": 0.0, "lon": -77.03342433333333, "name": "193a384443dd5597c9cd88c2fd69d495"}, {"bike_id": "f913c2c252d1a8f3e67909bc2820c6ce", "type": "electric_scooter", "is_disabled": 0, "lat": 38.923263166666665, "rental_uris": {"ios": "https://dc.lft.to/lastmile_qr_scan", "android": "https://dc.lft.to/lastmile_qr_scan"}, "is_reserved": 0, "fusion_lon": 0.0, "fusion_lat": 0.0, "lon": -77.0542175, "name": "f913c2c252d1a8f3e67909bc2820c6ce"}, {"bike_id": "5257eb50f68e2a4c1762dc148a95b6da", "type": "electric_scooter", "is_disabled": 0, "lat": 38.922356, "rental_uris": {"ios": "https://dc.lft.to/lastmile_qr_scan", "android": "https://dc.lft.to/lastmile_qr_scan"}, "is_reserved": 0, "fusion_lon": 0.0, "fusion_lat": 0.0, "lon": -76.97338983333333, "name": "5257eb50f68e2a4c1762dc148a95b6da"}, {"bike_id": "2b131f229add01361a368f8663d93f94", "type": "electric_bike", "is_disabled": 0, "lat": 38.815088, "rental_uris": {"ios": "https://dc.lft.to/lastmile_qr_scan", "android": "https://dc.lft.to/lastmile_qr_scan"}, "is_reserved": 0, "fusion_lon": 0.0, "fusion_lat": 0.0, "lon": -77.12652716666666, "name": "2b131f229add01361a368f8663d93f94"}, {"bike_id": "7b1fcf3bf20ef56914a6ced352737029", "type": "electric_bike", "is_disabled": 0, "lat": 38.79612633333333, "rental_uris": {"ios": "https://dc.lft.to/lastmile_qr_scan", "android": "https://dc.lft.to/lastmile_qr_scan"}, "is_reserved": 0, "fusion_lon": 0.0, "fusion_lat": 0.0, "lon": -76.9974275, "name": "7b1fcf3bf20ef56914a6ced352737029"}, {"bike_id": "d7e34a7c68283ea0a9b757608528a93b", "type": "electric_scooter", "is_disabled": 0, "lat": 38.9047925, "rental_uris": {"ios": "https://dc.lft.to/lastmile_qr_scan", "android": "https://dc.lft.to/lastmile_qr_scan"}, "is_reserved": 0, "fusion_lon": 0.0, "fusion_lat": 0.0, "lon": -77.06108566666667, "name": "d7e34a7c68283ea0a9b757608528a93b"}, {"bike_id": "6340c79b160ebcd08739b2e7a999165f", "type": "electric_scooter", "is_disabled": 0, "lat": 38.89747633333333, "rental_uris": {"ios": "https://dc.lft.to/lastmile_qr_scan", "android": "https://dc.lft.to/lastmile_qr_scan"}, "is_reserved": 0, "fusion_lon": 0.0, "fusion_lat": 0.0, "lon": -76.993833, "name": "6340c79b160ebcd08739b2e7a999165f"}, {"bike_id": "46c7088d223120110d15314ce207f31f", "type": "electric_scooter", "is_disabled": 0, "lat": 38.89884633333333, "rental_uris": {"ios": "https://dc.lft.to/lastmile_qr_scan", "android": "https://dc.lft.to/lastmile_qr_scan"}, "is_reserved": 0, "fusion_lon": 0.0, "fusion_lat": 0.0, "lon": -76.9317615, "name": "46c7088d223120110d15314ce207f31f"}, {"bike_id": "5f966dd0b513c64aba2757b934404127", "type": "electric_scooter", "is_disabled": 0, "lat": 38.90277283333333, "rental_uris": {"ios": "https://dc.lft.to/lastmile_qr_scan", "android": "https://dc.lft.to/lastmile_qr_scan"}, "is_reserved": 0, "fusion_lon": 0.0, "fusion_lat": 0.0, "lon": -77.03378633333334, "name": "5f966dd0b513c64aba2757b934404127"}, {"bike_id": "768b164b1747733c604a3b4f706906ba", "type": "electric_scooter", "is_disabled": 0, "lat": 38.89845116666667, "rental_uris": {"ios": "https://dc.lft.to/lastmile_qr_scan", "android": "https://dc.lft.to/lastmile_qr_scan"}, "is_reserved": 0, "fusion_lon": 0.0, "fusion_lat": 0.0, "lon": -76.9463095, "name": "768b164b1747733c604a3b4f706906ba"}, {"bike_id": "96f19a83b91278accb90d90afe3ab6fc", "type": "electric_scooter", "is_disabled": 0, "lat": 38.976761, "rental_uris": {"ios": "https://dc.lft.to/lastmile_qr_scan", "android": "https://dc.lft.to/lastmile_qr_scan"}, "is_reserved": 0, "fusion_lon": 0.0, "fusion_lat": 0.0, "lon": -77.0166025, "name": "96f19a83b91278accb90d90afe3ab6fc"}, {"bike_id": "6953cfb3d56883cfe0e1348f6b0f5eaa", "type": "electric_scooter", "is_disabled": 0, "lat": 38.926495833333334, "rental_uris": {"ios": "https://dc.lft.to/lastmile_qr_scan", "android": "https://dc.lft.to/lastmile_qr_scan"}, "is_reserved": 0, "fusion_lon": 0.0, "fusion_lat": 0.0, "lon": -77.02453316666667, "name": "6953cfb3d56883cfe0e1348f6b0f5eaa"}, {"bike_id": "e1cdef9e6e51cb50b013667a9b524b4d", "type": "electric_scooter", "is_disabled": 0, "lat": 38.92486316666667, "rental_uris": {"ios": "https://dc.lft.to/lastmile_qr_scan", "android": "https://dc.lft.to/lastmile_qr_scan"}, "is_reserved": 0, "fusion_lon": 0.0, "fusion_lat": 0.0, "lon": -77.05213116666667, "name": "e1cdef9e6e51cb50b013667a9b524b4d"}, {"bike_id": "5f2dcb8ec75440fda6d3605ad49efb96", "type": "electric_bike", "is_disabled": 0, "lat": 38.90640883333333, "rental_uris": {"ios": "https://dc.lft.to/lastmile_qr_scan", "android": "https://dc.lft.to/lastmile_qr_scan"}, "is_reserved": 0, "fusion_lon": 0.0, "fusion_lat": 0.0, "lon": -77.0512245, "name": "5f2dcb8ec75440fda6d3605ad49efb96"}, {"bike_id": "28096b76aff7be534014bf7efae2778d", "type": "electric_scooter", "is_disabled": 0, "lat": 38.88427083333333, "rental_uris": {"ios": "https://dc.lft.to/lastmile_qr_scan", "android": "https://dc.lft.to/lastmile_qr_scan"}, "is_reserved": 0, "fusion_lon": 0.0, "fusion_lat": 0.0, "lon": -76.95755, "name": "28096b76aff7be534014bf7efae2778d"}, {"bike_id": "71310c7250b9e58a58ef6d153d6f9826", "type": "electric_bike", "is_disabled": 0, "lat": 38.804184666666664, "rental_uris": {"ios": "https://dc.lft.to/lastmile_qr_scan", "android": "https://dc.lft.to/lastmile_qr_scan"}, "is_reserved": 0, "fusion_lon": 0.0, "fusion_lat": 0.0, "lon": -77.055571, "name": "71310c7250b9e58a58ef6d153d6f9826"}, {"bike_id": "e1c16b3e526ea16b4884b5c73de180b5", "type": "electric_scooter", "is_disabled": 0, "lat": 38.905500833333335, "rental_uris": {"ios": "https://dc.lft.to/lastmile_qr_scan", "android": "https://dc.lft.to/lastmile_qr_scan"}, "is_reserved": 0, "fusion_lon": 0.0, "fusion_lat": 0.0, "lon": -77.0061755, "name": "e1c16b3e526ea16b4884b5c73de180b5"}, {"bike_id": "5039bf2c92abc3e0979d94711d9f7f07", "type": "electric_scooter", "is_disabled": 0, "lat": 38.907265333333335, "rental_uris": {"ios": "https://dc.lft.to/lastmile_qr_scan", "android": "https://dc.lft.to/lastmile_qr_scan"}, "is_reserved": 0, "fusion_lon": 0.0, "fusion_lat": 0.0, "lon": -77.0102425, "name": "5039bf2c92abc3e0979d94711d9f7f07"}, {"bike_id": "af9ac7cea294f8c410992e14f3caa977", "type": "electric_bike", "is_disabled": 0, "lat": 38.899966, "rental_uris": {"ios": "https://dc.lft.to/lastmile_qr_scan", "android": "https://dc.lft.to/lastmile_qr_scan"}, "is_reserved": 0, "fusion_lon": 0.0, "fusion_lat": 0.0, "lon": -77.075458, "name": "af9ac7cea294f8c410992e14f3caa977"}, {"bike_id": "1cddfc1152394e78d0d09483f635bfbb", "type": "electric_bike", "is_disabled": 0, "lat": 38.953302, "rental_uris": {"ios": "https://dc.lft.to/lastmile_qr_scan", "android": "https://dc.lft.to/lastmile_qr_scan"}, "is_reserved": 0, "fusion_lon": 0.0, "fusion_lat": 0.0, "lon": -76.98246683333333, "name": "1cddfc1152394e78d0d09483f635bfbb"}, {"bike_id": "9d9fdde5c1bda42af0e83839db90d5d4", "type": "electric_scooter", "is_disabled": 0, "lat": 38.922543166666664, "rental_uris": {"ios": "https://dc.lft.to/lastmile_qr_scan", "android": "https://dc.lft.to/lastmile_qr_scan"}, "is_reserved": 0, "fusion_lon": 0.0, "fusion_lat": 0.0, "lon": -76.99443083333334, "name": "9d9fdde5c1bda42af0e83839db90d5d4"}, {"bike_id": "1615a8d976fb2b5826ac7271683c62a8", "type": "electric_scooter", "is_disabled": 0, "lat": 38.92233783333333, "rental_uris": {"ios": "https://dc.lft.to/lastmile_qr_scan", "android": "https://dc.lft.to/lastmile_qr_scan"}, "is_reserved": 0, "fusion_lon": 0.0, "fusion_lat": 0.0, "lon": -76.97344833333334, "name": "1615a8d976fb2b5826ac7271683c62a8"}, {"bike_id": "f2f29b17a6e89ba4198c540835eac7d8", "type": "electric_bike", "is_disabled": 0, "lat": 38.8772625, "rental_uris": {"ios": "https://dc.lft.to/lastmile_qr_scan", "android": "https://dc.lft.to/lastmile_qr_scan"}, "is_reserved": 0, "fusion_lon": 0.0, "fusion_lat": 0.0, "lon": -77.00334666666667, "name": "f2f29b17a6e89ba4198c540835eac7d8"}, {"bike_id": "c5d94794346cf874856a9079710184bb", "type": "electric_scooter", "is_disabled": 0, "lat": 38.9225385, "rental_uris": {"ios": "https://dc.lft.to/lastmile_qr_scan", "android": "https://dc.lft.to/lastmile_qr_scan"}, "is_reserved": 0, "fusion_lon": 0.0, "fusion_lat": 0.0, "lon": -77.0390295, "name": "c5d94794346cf874856a9079710184bb"}, {"bike_id": "15953f86c8a1b15223b3eed8fdc4e9e1", "type": "electric_bike", "is_disabled": 0, "lat": 38.81171416666667, "rental_uris": {"ios": "https://dc.lft.to/lastmile_qr_scan", "android": "https://dc.lft.to/lastmile_qr_scan"}, "is_reserved": 0, "fusion_lon": 0.0, "fusion_lat": 0.0, "lon": -77.069648, "name": "15953f86c8a1b15223b3eed8fdc4e9e1"}, {"bike_id": "186cc3d8b3dce69bf2aeca7cf5962314", "type": "electric_scooter", "is_disabled": 0, "lat": 38.91966333333333, "rental_uris": {"ios": "https://dc.lft.to/lastmile_qr_scan", "android": "https://dc.lft.to/lastmile_qr_scan"}, "is_reserved": 0, "fusion_lon": 0.0, "fusion_lat": 0.0, "lon": -77.042167, "name": "186cc3d8b3dce69bf2aeca7cf5962314"}, {"bike_id": "2e44fd028ef24a3f5bd2e7051ee62b22", "type": "electric_scooter", "is_disabled": 0, "lat": 38.90555, "rental_uris": {"ios": "https://dc.lft.to/lastmile_qr_scan", "android": "https://dc.lft.to/lastmile_qr_scan"}, "is_reserved": 0, "fusion_lon": 0.0, "fusion_lat": 0.0, "lon": -76.99621216666667, "name": "2e44fd028ef24a3f5bd2e7051ee62b22"}, {"bike_id": "196b9fb2978949d1c1f6fb0c93dcd566", "type": "electric_scooter", "is_disabled": 0, "lat": 38.92876866666667, "rental_uris": {"ios": "https://dc.lft.to/lastmile_qr_scan", "android": "https://dc.lft.to/lastmile_qr_scan"}, "is_reserved": 0, "fusion_lon": 0.0, "fusion_lat": 0.0, "lon": -77.0342805, "name": "196b9fb2978949d1c1f6fb0c93dcd566"}, {"bike_id": "69f9c8c529204d96458096115c24193a", "type": "electric_bike", "is_disabled": 0, "lat": 38.8730205, "rental_uris": {"ios": "https://dc.lft.to/lastmile_qr_scan", "android": "https://dc.lft.to/lastmile_qr_scan"}, "is_reserved": 0, "fusion_lon": 0.0, "fusion_lat": 0.0, "lon": -77.13926433333333, "name": "69f9c8c529204d96458096115c24193a"}, {"bike_id": "babf0df9f39918950e2fdf906c6e0e5c", "type": "electric_scooter", "is_disabled": 0, "lat": 38.91140983333333, "rental_uris": {"ios": "https://dc.lft.to/lastmile_qr_scan", "android": "https://dc.lft.to/lastmile_qr_scan"}, "is_reserved": 0, "fusion_lon": 0.0, "fusion_lat": 0.0, "lon": -76.9901305, "name": "babf0df9f39918950e2fdf906c6e0e5c"}, {"bike_id": "4851aa91293b9874845cd966711826c6", "type": "electric_scooter", "is_disabled": 0, "lat": 38.92432183333333, "rental_uris": {"ios": "https://dc.lft.to/lastmile_qr_scan", "android": "https://dc.lft.to/lastmile_qr_scan"}, "is_reserved": 0, "fusion_lon": 0.0, "fusion_lat": 0.0, "lon": -77.04245316666666, "name": "4851aa91293b9874845cd966711826c6"}, {"bike_id": "15d4c3e9048173210a7a31a01505f020", "type": "electric_scooter", "is_disabled": 0, "lat": 38.95316166666667, "rental_uris": {"ios": "https://dc.lft.to/lastmile_qr_scan", "android": "https://dc.lft.to/lastmile_qr_scan"}, "is_reserved": 0, "fusion_lon": 0.0, "fusion_lat": 0.0, "lon": -77.06982083333334, "name": "15d4c3e9048173210a7a31a01505f020"}, {"bike_id": "b6757fbc604a35bafdf2e00d39879bef", "type": "electric_scooter", "is_disabled": 0, "lat": 38.933655333333334, "rental_uris": {"ios": "https://dc.lft.to/lastmile_qr_scan", "android": "https://dc.lft.to/lastmile_qr_scan"}, "is_reserved": 0, "fusion_lon": 0.0, "fusion_lat": 0.0, "lon": -77.06201733333333, "name": "b6757fbc604a35bafdf2e00d39879bef"}, {"bike_id": "e32f5f663c4ff927e8b88af635dec1d1", "type": "electric_scooter", "is_disabled": 0, "lat": 38.93587266666667, "rental_uris": {"ios": "https://dc.lft.to/lastmile_qr_scan", "android": "https://dc.lft.to/lastmile_qr_scan"}, "is_reserved": 0, "fusion_lon": 0.0, "fusion_lat": 0.0, "lon": -77.0380235, "name": "e32f5f663c4ff927e8b88af635dec1d1"}, {"bike_id": "2a67675d1635d81dee154b2bf03ae241", "type": "electric_scooter", "is_disabled": 0, "lat": 38.93869433333333, "rental_uris": {"ios": "https://dc.lft.to/lastmile_qr_scan", "android": "https://dc.lft.to/lastmile_qr_scan"}, "is_reserved": 0, "fusion_lon": 0.0, "fusion_lat": 0.0, "lon": -77.02703066666666, "name": "2a67675d1635d81dee154b2bf03ae241"}, {"bike_id": "5f2154ae12204978187c1c444d3c459d", "type": "electric_scooter", "is_disabled": 0, "lat": 38.902455833333335, "rental_uris": {"ios": "https://dc.lft.to/lastmile_qr_scan", "android": "https://dc.lft.to/lastmile_qr_scan"}, "is_reserved": 0, "fusion_lon": 0.0, "fusion_lat": 0.0, "lon": -77.02662416666666, "name": "5f2154ae12204978187c1c444d3c459d"}, {"bike_id": "0e8ca8cc5b86830d933dca830b8c6ab2", "type": "electric_scooter", "is_disabled": 0, "lat": 38.8949485, "rental_uris": {"ios": "https://dc.lft.to/lastmile_qr_scan", "android": "https://dc.lft.to/lastmile_qr_scan"}, "is_reserved": 0, "fusion_lon": 0.0, "fusion_lat": 0.0, "lon": -77.01101133333333, "name": "0e8ca8cc5b86830d933dca830b8c6ab2"}, {"bike_id": "eac74dab5137b67b789975c8cc27ffbf", "type": "electric_scooter", "is_disabled": 0, "lat": 38.907183333333336, "rental_uris": {"ios": "https://dc.lft.to/lastmile_qr_scan", "android": "https://dc.lft.to/lastmile_qr_scan"}, "is_reserved": 0, "fusion_lon": 0.0, "fusion_lat": 0.0, "lon": -77.04338516666667, "name": "eac74dab5137b67b789975c8cc27ffbf"}, {"bike_id": "f66e0432b9c6e12d32e262a2620dcfae", "type": "electric_scooter", "is_disabled": 0, "lat": 38.884502833333336, "rental_uris": {"ios": "https://dc.lft.to/lastmile_qr_scan", "android": "https://dc.lft.to/lastmile_qr_scan"}, "is_reserved": 0, "fusion_lon": 0.0, "fusion_lat": 0.0, "lon": -76.95095583333334, "name": "f66e0432b9c6e12d32e262a2620dcfae"}, {"bike_id": "adcb21610d1da0bea0e531eb1025fd62", "type": "electric_scooter", "is_disabled": 0, "lat": 38.90565016666667, "rental_uris": {"ios": "https://dc.lft.to/lastmile_qr_scan", "android": "https://dc.lft.to/lastmile_qr_scan"}, "is_reserved": 0, "fusion_lon": 0.0, "fusion_lat": 0.0, "lon": -77.00633466666666, "name": "adcb21610d1da0bea0e531eb1025fd62"}, {"bike_id": "729dbdcde936c0830e51d1f4ea5c4cf4", "type": "electric_bike", "is_disabled": 0, "lat": 38.85893166666666, "rental_uris": {"ios": "https://dc.lft.to/lastmile_qr_scan", "android": "https://dc.lft.to/lastmile_qr_scan"}, "is_reserved": 0, "fusion_lon": 0.0, "fusion_lat": 0.0, "lon": -77.118655, "name": "729dbdcde936c0830e51d1f4ea5c4cf4"},