{"data": {"bikes": [{"rental_uris": {"ios": "https://dc.lft.to/lastmile_qr_scan", "android": "https://dc.lft.to/lastmile_qr_scan"}, "type": "electric_scooter", "name": "d4af676565227eca3382a5f1fb9ece73", "is_reserved": 0, "lon": -77.06372416666666, "is_disabled": 0, "fusion_lat": 0.0, "lat": 38.93561733333333, "bike_id": "d4af676565227eca3382a5f1fb9ece73", "fusion_lon": 0.0}, {"rental_uris": {"ios": "https://dc.lft.to/lastmile_qr_scan", "android": "https://dc.lft.to/lastmile_qr_scan"}, "type": "electric_scooter", "name": "3a744254c33ea160c75826de664df6bd", "is_reserved": 0, "lon": -77.0380305, "is_disabled": 0, "fusion_lat": 0.0, "lat": 38.93222266666667, "bike_id": "3a744254c33ea160c75826de664df6bd", "fusion_lon": 0.0}, {"rental_uris": {"ios": "https://dc.lft.to/lastmile_qr_scan", "android": "https://dc.lft.to/lastmile_qr_scan"}, "type": "electric_scooter", "name": "d26a84b56b78115576206634da7cc994", "is_reserved": 0, "lon": -77.03360633333334, "is_disabled": 0, "fusion_lat": 0.0, "lat": 38.92161316666667, "bike_id": "d26a84b56b78115576206634da7cc994", "fusion_lon": 0.0}, {"rental_uris": {"ios": "https://dc.lft.to/lastmile_qr_scan", "android": "https://dc.lft.to/lastmile_qr_scan"}, "type": "electric_scooter", "name": "ad3ce192edb6226949acd2daee1a0fc3", "is_reserved": 0, "lon": -77.021259, "is_disabled": 0, "fusion_lat": 0.0, "lat": 38.9328605, "bike_id": "ad3ce192edb6226949acd2daee1a0fc3", "fusion_lon": 0.0}, {"rental_uris": {"ios": "https://dc.lft.to/lastmile_qr_scan", "android": "https://dc.lft.to/lastmile_qr_scan"}, "type": "electric_scooter", "name": "4d052b71fa3b1080734f3de08551f9b4", "is_reserved": 0, "lon": -77.02122566666667, "is_disabled": 0, "fusion_lat": 0.0, "lat": 38.908769, "bike_id": "4d052b71fa3b1080734f3de08551f9b4", "fusion_lon": 0.0}, {"rental_uris": {"ios": "https://dc.lft.to/lastmile_qr_scan", "android": "https://dc.lft.to/lastmile_qr_scan"}, "type": "electric_scooter", "name": "5cee1ed1f81de03fd30eb6613be4d18e", "is_reserved": 0, "lon": -77.04857, "is_disabled": 0, "fusion_lat": 0.0, "lat": 38.90475516666667, "bike_id": "5cee1ed1f81de03fd30eb6613be4d18e", "fusion_lon": 0.0}, {"rental_uris": {"ios": "https://dc.lft.to/lastmile_qr_scan", "android": "https://dc.lft.to/lastmile_qr_scan"}, "type": "electric_bike", "name": "a47cfe80b6d7ad54330c303af03d95fa", "is_reserved": 0, "lon": -76.99584933333334, "is_disabled": 0, "fusion_lat": 0.0, "lat": 38.862189666666666, "bike_id": "a47cfe80b6d7ad54330c303af03d95fa", "fusion_lon": 0.0}, {"rental_uris": {"ios": "https://dc.lft.to/lastmile_qr_scan", "android": "https://dc.lft.to/lastmile_qr_scan"}, "type": "electric_scooter", "name": "c40a5ec4bb903e7b77342d3d34cfa478", "is_reserved": 0, "lon": -76.94707583333333, "is_disabled": 0, "fusion_lat": 0.0, "lat": 38.89297533333333, "bike_id": "c40a5ec4bb903e7b77342d3d34cfa478", "fusion_lon": 0.0}, {"rental_uris": {"ios": "https://dc.lft.to/lastmile_qr_scan", "android": "https://dc.lft.to/lastmile_qr_scan"}, "type": "electric_scooter", "name": "1e09bf915ab3034e5ffa6b483e390014", "is_reserved": 0, "lon": -77.0414435, "is_disabled": 0, "fusion_lat": 0.0, "lat": 38.90717583333333, "bike_id": "1e09bf915ab3034e5ffa6b483e390014", "fusion_lon": 0.0}, {"rental_uris": {"ios": "https://dc.lft.to/lastmile_qr_scan", "android": "https://dc.lft.to/lastmile_qr_scan"}, "type": "electric_bike", "name": "777a0858905c3811b4569353187d3325", "is_reserved": 0, "lon": -77.12648766666666, "is_disabled": 0, "fusion_lat": 0.0, "lat": 38.819069999999996, "bike_id": "777a0858905c3811b4569353187d3325", "fusion_lon": 0.0}, {"rental_uris": {"ios": "https://dc.lft.to/lastmile_qr_scan", "android": "https://dc.lft.to/lastmile_qr_scan"}, "type": "electric_scooter", "name": "ba1716cbfedeb46d617ef6131c610e5d", "is_reserved": 0, "lon": -77.04629083333333, "is_disabled": 0, "fusion_lat": 0.0, "lat": 38.89741216666667, "bike_id": "ba1716cbfedeb46d617ef6131c610e5d", "fusion_lon": 0.0}, {"rental_uris": {"ios": "https://dc.lft.to/lastmile_qr_scan", "android": "https://dc.lft.to/lastmile_qr_scan"}, "type": "electric_scooter", "name": "4cca35523f647d0aec96aec8923991fa", "is_reserved": 0, "lon": -76.9282775, "is_disabled": 0, "fusion_lat": 0.0, "lat": 38.9017975, "bike_id": "4cca35523f647d0aec96aec8923991fa", "fusion_lon": 0.0}, {"rental_uris": {"ios": "https://dc.lft.to/lastmile_qr_scan", "android": "https://dc.lft.to/lastmile_qr_scan"}, "type": "electric_scooter", "name": "cafe03b01584838d22714385f82494ed", "is_reserved": 0, "lon": -77.0247305, "is_disabled": 0, "fusion_lat": 0.0, "lat": 38.91816633333333, "bike_id": "cafe03b01584838d22714385f82494ed", "fusion_lon": 0.0}, {"rental_uris": {"ios": "https://dc.lft.to/lastmile_qr_scan", "android": "https://dc.lft.to/lastmile_qr_scan"}, "type": "electric_scooter", "name": "3e94cd2e9a83ec40497d0386417a3fd9", "is_reserved": 0, "lon": -77.04992133333333, "is_disabled": 0, "fusion_lat": 0.0, "lat": 38.90110116666666, "bike_id": "3e94cd2e9a83ec40497d0386417a3fd9", "fusion_lon": 0.0}, {"rental_uris": {"ios": "https://dc.lft.to/lastmile_qr_scan", "android": "https://dc.lft.to/lastmile_qr_scan"}, "type": "electric_scooter", "name": "c00065cd05daeaffa4ce9ca6dfa7ab86", "is_reserved": 0, "lon": -77.022299, "is_disabled": 0, "fusion_lat": 0.0, "lat": 38.89218, "bike_id": "c00065cd05daeaffa4ce9ca6dfa7ab86", "fusion_lon": 0.0}, {"rental_uris": {"ios": "https://dc.lft.to/lastmile_qr_scan", "android": "https://dc.lft.to/lastmile_qr_scan"}, "type": "electric_scooter", "name": "bace7414491910f658cfcd1c04c0a634", "is_reserved": 0, "lon": -77.027586, "is_disabled": 0, "fusion_lat": 0.0, "lat": 38.912030666666666, "bike_id": "bace7414491910f658cfcd1c04c0a634", "fusion_lon": 0.0}, {"rental_uris": {"ios": "https://dc.lft.to/lastmile_qr_scan", "android": "https://dc.lft.to/lastmile_qr_scan"}, "type": "electric_scooter", "name": "21698db5568b2c20d3357ad63096c2af", "is_reserved": 0, "lon": -77.02790333333333, "is_disabled": 0, "fusion_lat": 0.0, "lat": 38.90619183333333, "bike_id": "21698db5568b2c20d3357ad63096c2af", "fusion_lon": 0.0}, {"rental_uris": {"ios": "https://dc.lft.to/lastmile_qr_scan", "android": "https://dc.lft.to/lastmile_qr_scan"}, "type": "electric_scooter", "name": "63e58e9452ea0aaafcbf51642882fa51", "is_reserved": 0, "lon": -77.0200885, "is_disabled": 0, "fusion_lat": 0.0, "lat": 38.898670333333335, "bike_id": "63e58e9452ea0aaafcbf51642882fa51", "fusion_lon": 0.0}, {"rental_uris": {"ios": "https://dc.lft.to/lastmile_qr_scan", "android": "https://dc.lft.to/lastmile_qr_scan"}, "type": "electric_scooter", "name": "78f6735c1419da6fa1aa982dbcdd57da", "is_reserved": 0, "lon": -77.02028566666667, "is_disabled": 0, "fusion_lat": 0.0, "lat": 38.93641733333333, "bike_id": "78f6735c1419da6fa1aa982dbcdd57da", "fusion_lon": 0.0}, {"rental_uris": {"ios": "https://dc.lft.to/lastmile_qr_scan", "android": "https://dc.lft.to/lastmile_qr_scan"}, "type": "electric_scooter", "name": "7e14f4e69aff10e39331985bd8b78856", "is_reserved": 0, "lon": -77.04564033333334, "is_disabled": 0, "fusion_lat": 0.0, "lat": 38.9177765, "bike_id": "7e14f4e69aff10e39331985bd8b78856", "fusion_lon": 0.0}, {"rental_uris": {"ios": "https://dc.lft.to/lastmile_qr_scan", "android": "https://dc.lft.to/lastmile_qr_scan"}, "type": "electric_scooter", "name": "06f8d517924c72e876fbd0a193f77928", "is_reserved": 0, "lon": -77.03208766666667, "is_disabled": 0, "fusion_lat": 0.0, "lat": 38.90893366666667, "bike_id": "06f8d517924c72e876fbd0a193f77928", "fusion_lon": 0.0}, {"rental_uris": {"ios": "https://dc.lft.to/lastmile_qr_scan", "android": "https://dc.lft.to/lastmile_qr_scan"}, "type": "electric_scooter", "name": "127507b499b899029fdb2af2408d1699", "is_reserved": 0, "lon": -76.965061, "is_disabled": 0, "fusion_lat": 0.0, "lat": 38.8764815, "bike_id": "127507b499b899029fdb2af2408d1699", "fusion_lon": 0.0}, {"rental_uris": {"ios": "https://dc.lft.to/lastmile_qr_scan", "android": "https://dc.lft.to/lastmile_qr_scan"}, "type": "electric_scooter", "name": "69d3f45087ee660f92051f4c02882936", "is_reserved": 0, "lon": -76.922348, "is_disabled": 0, "fusion_lat": 0.0, "lat": 38.899959333333335, "bike_id": "69d3f45087ee660f92051f4c02882936", "fusion_lon": 0.0}, {"rental_uris": {"ios": "https://dc.lft.to/lastmile_qr_scan", "android": "https://dc.lft.to/lastmile_qr_scan"}, "type": "electric_bike", "name": "0efd7744600155690137773cc2b474eb", "is_reserved": 0, "lon": -77.06634983333333, "is_disabled": 0, "fusion_lat": 0.0, "lat": 38.949677666666666, "bike_id": "0efd7744600155690137773cc2b474eb", "fusion_lon": 0.0}, {"rental_uris": {"ios": "https://dc.lft.to/lastmile_qr_scan", "android": "https://dc.lft.to/lastmile_qr_scan"}, "type": "electric_scooter", "name": "56b3f4d8b2039b397a0b0b837c26b071", "is_reserved": 0, "lon": -77.04593766666666, "is_disabled": 0, "fusion_lat": 0.0, "lat": 38.91419333333333, "bike_id": "56b3f4d8b2039b397a0b0b837c26b071", "fusion_lon": 0.0}, {"rental_uris": {"ios": "https://dc.lft.to/lastmile_qr_scan", "android": "https://dc.lft.to/lastmile_qr_scan"}, "type": "electric_scooter", "name": "8af64d7bafb8bf12c8399ddbb396a4f5", "is_reserved": 0, "lon": -77.0435025, "is_disabled": 0, "fusion_lat": 0.0, "lat": 38.907146833333336, "bike_id": "8af64d7bafb8bf12c8399ddbb396a4f5", "fusion_lon": 0.0}, {"rental_uris": {"ios": "https://dc.lft.to/lastmile_qr_scan", "android": "https://dc.lft.to/lastmile_qr_scan"}, "type": "electric_scooter", "name": "80f853865d455bd419e649f478620e20", "is_reserved": 0, "lon": -77.019076, "is_disabled": 0, "fusion_lat": 0.0, "lat": 38.91734366666667, "bike_id": "80f853865d455bd419e649f478620e20", "fusion_lon": 0.0}, {"rental_uris": {"ios": "https://dc.lft.to/lastmile_qr_scan", "android": "https://dc.lft.to/lastmile_qr_scan"}, "type": "electric_scooter", "name": "dd61743010469d88d29bc640cd6d1d07", "is_reserved": 0, "lon": -77.04782666666667, "is_disabled": 0, "fusion_lat": 0.0, "lat": 38.908647333333334, "bike_id": "dd61743010469d88d29bc640cd6d1d07", "fusion_lon": 0.0}, {"rental_uris": {"ios": "https://dc.lft.to/lastmile_qr_scan", "android": "https://dc.lft.to/lastmile_qr_scan"}, "type": "electric_scooter", "name": "3e0658ed5d00340e4c2809e563124ae7", "is_reserved": 0, "lon": -77.03177116666667, "is_disabled": 0, "fusion_lat": 0.0, "lat": 38.892218666666665, "bike_id": "3e0658ed5d00340e4c2809e563124ae7", "fusion_lon": 0.0}, {"rental_uris": {"ios": "https://dc.lft.to/lastmile_qr_scan", "android": "https://dc.lft.to/lastmile_qr_scan"}, "type": "electric_scooter", "name": "4fc3cb77206768553cabd42cf070a4e4", "is_reserved": 0, "lon": -77.009848, "is_disabled": 0, "fusion_lat": 0.0, "lat": 38.92027183333333, "bike_id": "4fc3cb77206768553cabd42cf070a4e4", "fusion_lon": 0.0}, {"rental_uris": {"ios": "https://dc.lft.to/lastmile_qr_scan", "android": "https://dc.lft.to/lastmile_qr_scan"}, "type": "electric_scooter", "name": "314ea7dd35d1293404f20c43254aa25a", "is_reserved": 0, "lon": -77.0022255, "is_disabled": 0, "fusion_lat": 0.0, "lat": 38.89449316666666, "bike_id": "314ea7dd35d1293404f20c43254aa25a", "fusion_lon": 0.0}, {"rental_uris": {"ios": "https://dc.lft.to/lastmile_qr_scan", "android": "https://dc.lft.to/lastmile_qr_scan"}, "type": "electric_scooter", "name": "11f4e89459e47cca2fdcd29e137a94ae", "is_reserved": 0, "lon": -77.00922866666667, "is_disabled": 0, "fusion_lat": 0.0, "lat": 38.907605, "bike_id": "11f4e89459e47cca2fdcd29e137a94ae", "fusion_lon": 0.0}, {"rental_uris": {"ios": "https://dc.lft.to/lastmile_qr_scan", "android": "https://dc.lft.to/lastmile_qr_scan"}, "type": "electric_bike", "name": "fb8557b1b24e9e6cef23722a9d4d66f3", "is_reserved": 0, "lon": -77.05091583333333, "is_disabled": 0, "fusion_lat": 0.0, "lat": 38.813308666666664, "bike_id": "fb8557b1b24e9e6cef23722a9d4d66f3", "fusion_lon": 0.0}, {"rental_uris": {"ios": "https://dc.lft.to/lastmile_qr_scan", "android": "https://dc.lft.to/lastmile_qr_scan"}, "type": "electric_scooter", "name": "b85ae4d1ca6f673c3bfa1d4698e25391", "is_reserved": 0, "lon": -77.04359916666667, "is_disabled": 0, "fusion_lat": 0.0, "lat": 38.92148916666667, "bike_id": "b85ae4d1ca6f673c3bfa1d4698e25391", "fusion_lon": 0.0}, {"rental_uris": {"ios": "https://dc.lft.to/lastmile_qr_scan", "android": "https://dc.lft.to/lastmile_qr_scan"}, "type": "electric_scooter", "name": "12f44ff41e9e48549c53421a33c2fbca", "is_reserved": 0, "lon": -77.014894, "is_disabled": 0, "fusion_lat": 0.0, "lat": 38.887413, "bike_id": "12f44ff41e9e48549c53421a33c2fbca", "fusion_lon": 0.0}, {"rental_uris": {"ios": "https://dc.lft.to/lastmile_qr_scan", "android": "https://dc.lft.to/lastmile_qr_scan"}, "type": "electric_scooter", "name": "b4ea9ce3351e19833226e92d0fe2dae4", "is_reserved": 0, "lon": -77.038534, "is_disabled": 0, "fusion_lat": 0.0, "lat": 38.91275266666667, "bike_id": "b4ea9ce3351e19833226e92d0fe2dae4", "fusion_lon": 0.0}, {"rental_uris": {"ios": "https://dc.lft.to/lastmile_qr_scan", "android": "https://dc.lft.to/lastmile_qr_scan"}, "type": "electric_scooter", "name": "cff93a777b1e5496b23ce9fc87601db4", "is_reserved": 0, "lon": -77.02493033333333, "is_disabled": 0, "fusion_lat": 0.0, "lat": 38.925939, "bike_id": "cff93a777b1e5496b23ce9fc87601db4", "fusion_lon": 0.0}, {"rental_uris": {"ios": "https://dc.lft.to/lastmile_qr_scan", "android": "https://dc.lft.to/lastmile_qr_scan"}, "type": "electric_scooter", "name": "1d82604c7b8028c79950aa0a69f95fb9", "is_reserved": 0, "lon": -77.07275366666667, "is_disabled": 0, "fusion_lat": 0.0, "lat": 38.93540633333333, "bike_id": "1d82604c7b8028c79950aa0a69f95fb9", "fusion_lon": 0.0}, {"rental_uris": {"ios": "https://dc.lft.to/lastmile_qr_scan", "android": "https://dc.lft.to/lastmile_qr_scan"}, "type": "electric_scooter", "name": "57d1712ae47efe6dbad96015fa69902b", "is_reserved": 0, "lon": -77.02068983333334, "is_disabled": 0, "fusion_lat": 0.0, "lat": 38.908484666666666, "bike_id": "57d1712ae47efe6dbad96015fa69902b", "fusion_lon": 0.0}, {"rental_uris": {"ios": "https://dc.lft.to/lastmile_qr_scan", "android": "https://dc.lft.to/lastmile_qr_scan"}, "type": "electric_bike", "name": "4bc32cbfe6329f818376360f6804f9cc", "is_reserved": 0, "lon": -76.973251, "is_disabled": 0, "fusion_lat": 0.0, "lat": 38.865084333333336, "bike_id": "4bc32cbfe6329f818376360f6804f9cc", "fusion_lon": 0.0}, {"rental_uris": {"ios": "https://dc.lft.to/lastmile_qr_scan", "android": "https://dc.lft.to/lastmile_qr_scan"}, "type": "electric_scooter", "name": "08c9c781ebd39c23bcdde91403ce79b0", "is_reserved": 0, "lon": -77.034403, "is_disabled": 0, "fusion_lat": 0.0, "lat": 38.909748, "bike_id": "08c9c781ebd39c23bcdde91403ce79b0", "fusion_lon": 0.0}, {"rental_uris": {"ios": "https://dc.lft.to/lastmile_qr_scan", "android": "https://dc.lft.to/lastmile_qr_scan"}, "type": "electric_scooter", "name": "6fc42540843df21a69a2e6625a082216", "is_reserved": 0, "lon": -77.05230883333333, "is_disabled": 0, "fusion_lat": 0.0, "lat": 38.89848116666667, "bike_id": "6fc42540843df21a69a2e6625a082216", "fusion_lon": 0.0}, {"rental_uris": {"ios": "https://dc.lft.to/lastmile_qr_scan", "android": "https://dc.lft.to/lastmile_qr_scan"}, "type": "electric_scooter", "name": "1d19e703a0e55e499122d98244ece2b4", "is_reserved": 0, "lon": -77.001331, "is_disabled": 0, "fusion_lat": 0.0, "lat": 38.87367783333333, "bike_id": "1d19e703a0e55e499122d98244ece2b4", "fusion_lon": 0.0}, {"rental_uris": {"ios": "https://dc.lft.to/lastmile_qr_scan", "android": "https://dc.lft.to/lastmile_qr_scan"}, "type": "electric_bike", "name": "f33996ec75d5685dfb2a8beeba0c6f4f", "is_reserved": 0, "lon": -77.07523433333333, "is_disabled": 0, "fusion_lat": 0.0, "lat": 38.84282266666666, "bike_id": "f33996ec75d5685dfb2a8beeba0c6f4f", "fusion_lon": 0.0}, {"rental_uris": {"ios": "https://dc.lft.to/lastmile_qr_scan", "android": "https://dc.lft.to/lastmile_qr_scan"}, "type": "electric_scooter", "name": "ccf95ae28fb8c7f59818e3e9d7c654dc", "is_reserved": 0, "lon": -77.04592583333333, "is_disabled": 0, "fusion_lat": 0.0, "lat": 38.9184755, "bike_id": "ccf95ae28fb8c7f59818e3e9d7c654dc", "fusion_lon": 0.0}, {"rental_uris": {"ios": "https://dc.lft.to/lastmile_qr_scan", "android": "https://dc.lft.to/lastmile_qr_scan"}, "type": "electric_scooter", "name": "ab71b6f1ef1357b9632d4021be859c74", "is_reserved": 0, "lon": -77.05323266666667, "is_disabled": 0, "fusion_lat": 0.0, "lat": 38.90450533333333, "bike_id": "ab71b6f1ef1357b9632d4021be859c74", "fusion_lon": 0.0}, {"rental_uris": {"ios": "https://dc.lft.to/lastmile_qr_scan", "android": "https://dc.lft.to/lastmile_qr_scan"}, "type": "electric_scooter", "name": "73f864961f3b27153060aba2faf60b3a", "is_reserved": 0, "lon": -77.02478116666667, "is_disabled": 0, "fusion_lat": 0.0, "lat": 38.901660666666665, "bike_id": "73f864961f3b27153060aba2faf60b3a", "fusion_lon": 0.0}, {"rental_uris": {"ios": "https://dc.lft.to/lastmile_qr_scan", "android": "https://dc.lft.to/lastmile_qr_scan"}, "type": "electric_scooter", "name": "6f0cc5b9cd2c53c25142fd5b18e9fef1", "is_reserved": 0, "lon": -77.03697966666667, "is_disabled": 0, "fusion_lat": 0.0, "lat": 38.93278166666666, "bike_id": "6f0cc5b9cd2c53c25142fd5b18e9fef1", "fusion_lon": 0.0}, {"rental_uris": {"ios": "https://dc.lft.to/lastmile_qr_scan", "android": "https://dc.lft.to/lastmile_qr_scan"}, "type": "electric_scooter", "name": "5bfd48daf96c01777b09c4702bb0ce70", "is_reserved": 0, "lon": -77.032277, "is_disabled": 0, "fusion_lat": 0.0, "lat": 38.898910666666666, "bike_id": "5bfd48daf96c01777b09c4702bb0ce70", "fusion_lon": 0.0}, {"rental_uris": {"ios": "https://dc.lft.to/lastmile_qr_scan", "android": "https://dc.lft.to/lastmile_qr_scan"}, "type": "electric_scooter", "name": "6eacf19159982477d92ad3400173a1b0", "is_reserved": 0, "lon": -77.02585883333333, "is_disabled": 0, "fusion_lat": 0.0, "lat": 38.9203585, "bike_id": "6eacf19159982477d92ad3400173a1b0", "fusion_lon": 0.0}, {"rental_uris": {"ios": "https://dc.lft.to/lastmile_qr_scan", "android": "https://dc.lft.to/lastmile_qr_scan"}, "type": "electric_scooter", "name": "146f7522f57a0320f9953c8cddc760fe", "is_reserved": 0, "lon": -77.00918916666667, "is_disabled": 0, "fusion_lat": 0.0, "lat": 38.897440833333334, "bike_id": "146f7522f57a0320f9953c8cddc760fe", "fusion_lon": 0.0}, {"rental_uris": {"ios": "https://dc.lft.to/lastmile_qr_scan", "android": "https://dc.lft.to/lastmile_qr_scan"}, "type": "electric_scooter", "name": "d45419a17bc589c3abeb821bff141fdc", "is_reserved": 0, "lon": -77.01528916666666, "is_disabled": 0, "fusion_lat": 0.0, "lat": 38.879453833333336, "bike_id": "d45419a17bc589c3abeb821bff141fdc", "fusion_lon": 0.0}, {"rental_uris": {"ios": "https://dc.lft.to/lastmile_qr_scan", "android": "https://dc.lft.to/lastmile_qr_scan"}, "type": "electric_scooter", "name": "aab27c5e3c951e891da73518aeec0080", "is_reserved": 0, "lon": -77.03197633333333, "is_disabled": 0, "fusion_lat": 0.0, "lat": 38.907047166666665, "bike_id": "aab27c5e3c951e891da73518aeec0080", "fusion_lon": 0.0}, {"rental_uris": {"ios": "https://dc.lft.to/lastmile_qr_scan", "android": "https://dc.lft.to/lastmile_qr_scan"}, "type": "electric_scooter", "name": "19e05e2c496eaa6b6d8df7f7648eeee0", "is_reserved": 0, "lon": -77.04998566666667, "is_disabled": 0, "fusion_lat": 0.0, "lat": 38.90492066666667, "bike_id": "19e05e2c496eaa6b6d8df7f7648eeee0", "fusion_lon": 0.0}, {"rental_uris": {"ios": "https://dc.lft.to/lastmile_qr_scan", "android": "https://dc.lft.to/lastmile_qr_scan"}, "type": "electric_scooter", "name": "e57e64dc1b63d41919258d9814555ed0", "is_reserved": 0, "lon": -77.04778416666667, "is_disabled": 0, "fusion_lat": 0.0, "lat": 38.897705333333334, "bike_id": "e57e64dc1b63d41919258d9814555ed0", "fusion_lon": 0.0}, {"rental_uris": {"ios": "https://dc.lft.to/lastmile_qr_scan", "android": "https://dc.lft.to/lastmile_qr_scan"}, "type": "electric_scooter", "name": "6276e28a392abdbdd3bab7a88e99b13b", "is_reserved": 0, "lon": -77.035622, "is_disabled": 0, "fusion_lat": 0.0, "lat": 38.904773666666664, "bike_id": "6276e28a392abdbdd3bab7a88e99b13b", "fusion_lon": 0.0}, {"rental_uris": {"ios": "https://dc.lft.to/lastmile_qr_scan", "android": "https://dc.lft.to/lastmile_qr_scan"}, "type": "electric_scooter", "name": "9353e43d2e7c049bbcd49c6874b9a315", "is_reserved": 0, "lon": -77.022831, "is_disabled": 0, "fusion_lat": 0.0, "lat": 38.92083016666667, "bike_id": "9353e43d2e7c049bbcd49c6874b9a315", "fusion_lon": 0.0}, {"rental_uris": {"ios": "https://dc.lft.to/lastmile_qr_scan", "android": "https://dc.lft.to/lastmile_qr_scan"}, "type": "electric_scooter", "name": "8bb9d4cf199ce92871e85dbd9abf72f2", "is_reserved": 0, "lon": -76.983762, "is_disabled": 0, "fusion_lat": 0.0, "lat": 38.860246833333335, "bike_id": "8bb9d4cf199ce92871e85dbd9abf72f2", "fusion_lon": 0.0}, {"rental_uris": {"ios": "https://dc.lft.to/lastmile_qr_scan", "android": "https://dc.lft.to/lastmile_qr_scan"}, "type": "electric_scooter", "name": "16c43a0bf61c8310e8e109dcb21cbf42", "is_reserved": 0, "lon": -77.00481466666666, "is_disabled": 0, "fusion_lat": 0.0, "lat": 38.90527733333333, "bike_id": "16c43a0bf61c8310e8e109dcb21cbf42", "fusion_lon": 0.0}, {"rental_uris": {"ios": "https://dc.lft.to/lastmile_qr_scan", "android": "https://dc.lft.to/lastmile_qr_scan"}, "type": "electric_scooter", "name": "7f361b401597c44ffae00dee553709ac", "is_reserved": 0, "lon": -77.05327033333333, "is_disabled": 0, "fusion_lat": 0.0, "lat": 38.90721216666667, "bike_id": "7f361b401597c44ffae00dee553709ac", "fusion_lon": 0.0}, {"rental_uris": {"ios": "https://dc.lft.to/lastmile_qr_scan", "android": "https://dc.lft.to/lastmile_qr_scan"}, "type": "electric_scooter", "name": "a845b6ce26972eb3c7822d5ffd538393", "is_reserved": 0, "lon": -77.0231105, "is_disabled": 0, "fusion_lat": 0.0, "lat": 38.917645, "bike_id": "a845b6ce26972eb3c7822d5ffd538393", "fusion_lon": 0.0}, {"rental_uris": {"ios": "https://dc.lft.to/lastmile_qr_scan", "android": "https://dc.lft.to/lastmile_qr_scan"}, "type": "electric_scooter", "name": "53f7b78e91cd7d7a09acd8727475ba35", "is_reserved": 0, "lon": -77.037531, "is_disabled": 0, "fusion_lat": 0.0, "lat": 38.929147, "bike_id": "53f7b78e91cd7d7a09acd8727475ba35", "fusion_lon": 0.0}, {"rental_uris": {"ios": "https://dc.lft.to/lastmile_qr_scan", "android": "https://dc.lft.to/lastmile_qr_scan"}, "type": "electric_scooter", "name": "2a576e09e825598566ebe5e6e2748944", "is_reserved": 0, "lon": -77.07461916666666, "is_disabled": 0, "fusion_lat": 0.0, "lat": 38.9207085, "bike_id": "2a576e09e825598566ebe5e6e2748944", "fusion_lon": 0.0}, {"rental_uris": {"ios": "https://dc.lft.to/lastmile_qr_scan", "android": "https://dc.lft.to/lastmile_qr_scan"}, "type": "electric_scooter", "name": "3c2c78f54a91124214f7f44f7e8e8e8a", "is_reserved": 0, "lon": -77.0082045, "is_disabled": 0, "fusion_lat": 0.0, "lat": 38.87655866666667, "bike_id": "3c2c78f54a91124214f7f44f7e8e8e8a", "fusion_lon": 0.0}, {"rental_uris": {"ios": "https://dc.lft.to/lastmile_qr_scan", "android": "https://dc.lft.to/lastmile_qr_scan"}, "type": "electric_scooter", "name": "caafcf4b2d86d994ea973375d8c4f40d", "is_reserved": 0, "lon": -77.04801216666667, "is_disabled": 0, "fusion_lat": 0.0, "lat": 38.8922465, "bike_id": "caafcf4b2d86d994ea973375d8c4f40d", "fusion_lon": 0.0}, {"rental_uris": {"ios": "https://dc.lft.to/lastmile_qr_scan", "android": "https://dc.lft.to/lastmile_qr_scan"}, "type": "electric_scooter", "name": "54a5af11dbb145d6c24d6095e42c675c", "is_reserved": 0, "lon": -77.04413183333334, "is_disabled": 0, "fusion_lat": 0.0, "lat": 38.925974, "bike_id": "54a5af11dbb145d6c24d6095e42c675c", "fusion_lon": 0.0}, {"rental_uris": {"ios": "https://dc.lft.to/lastmile_qr_scan", "android": "https://dc.lft.to/lastmile_qr_scan"}, "type": "electric_scooter", "name": "9f8d210a76788acf5211895cf8f60e4d", "is_reserved": 0, "lon": -77.0209885, "is_disabled": 0, "fusion_lat": 0.0, "lat": 38.93120966666667, "bike_id": "9f8d210a76788acf5211895cf8f60e4d", "fusion_lon": 0.0}, {"rental_uris": {"ios": "https://dc.lft.to/lastmile_qr_scan", "android": "https://dc.lft.to/lastmile_qr_scan"}, "type": "electric_scooter", "name": "5a14bdc547f3bf2e90b1c962672fb788", "is_reserved": 0, "lon": -77.02339216666667, "is_disabled": 0, "fusion_lat": 0.0, "lat": 38.92704233333333, "bike_id": "5a14bdc547f3bf2e90b1c962672fb788", "fusion_lon": 0.0}, {"rental_uris": {"ios": "https://dc.lft.to/lastmile_qr_scan", "android": "https://dc.lft.to/lastmile_qr_scan"}, "type": "electric_scooter", "name": "35813699ab43a526d2e283b852a9291a", "is_reserved": 0, "lon": -77.03498416666666, "is_disabled": 0, "fusion_lat": 0.0, "lat": 38.928589, "bike_id": "35813699ab43a526d2e283b852a9291a", "fusion_lon": 0.0}, {"rental_uris": {"ios": "https://dc.lft.to/lastmile_qr_scan", "android": "https://dc.lft.to/lastmile_qr_scan"}, "type": "electric_scooter", "name": "41cde8f12efb39afa234538eb4eef08d", "is_reserved": 0, "lon": -77.02302283333333, "is_disabled": 0, "fusion_lat": 0.0, "lat": 38.91053616666667, "bike_id": "41cde8f12efb39afa234538eb4eef08d", "fusion_lon": 0.0}, {"rental_uris": {"ios": "https://dc.lft.to/lastmile_qr_scan", "android": "https://dc.lft.to/lastmile_qr_scan"}, "type": "electric_scooter", "name": "5cd90da519789f522e7c32676ec03f7b", "is_reserved": 0, "lon": -77.04487933333333, "is_disabled": 0, "fusion_lat": 0.0, "lat": 38.907913, "bike_id": "5cd90da519789f522e7c32676ec03f7b", "fusion_lon": 0.0}, {"rental_uris": {"ios": "https://dc.lft.to/lastmile_qr_scan", "android": "https://dc.lft.to/lastmile_qr_scan"}, "type": "electric_scooter", "name": "c72482a30f147e0c35496cdcf23bb476", "is_reserved": 0, "lon": -77.03915083333334, "is_disabled": 0, "fusion_lat": 0.0, "lat": 38.908153666666664, "bike_id": "c72482a30f147e0c35496cdcf23bb476", "fusion_lon": 0.0}, {"rental_uris": {"ios": "https://dc.lft.to/lastmile_qr_scan", "android": "https://dc.lft.to/lastmile_qr_scan"}, "type": "electric_scooter", "name": "684c3a1aa8bfe0787ce55a674f157b80", "is_reserved": 0, "lon": -77.02395716666666, "is_disabled": 0, "fusion_lat": 0.0, "lat": 38.917540833333334, "bike_id": "684c3a1aa8bfe0787ce55a674f157b80", "fusion_lon": 0.0}, {"rental_uris": {"ios": "https://dc.lft.to/lastmile_qr_scan", "android": "https://dc.lft.to/lastmile_qr_scan"}, "type": "electric_scooter", "name": "77fb1aa8013aa0b6f9b80ac65ba98542", "is_reserved": 0, "lon": -76.984481, "is_disabled": 0, "fusion_lat": 0.0, "lat": 38.9146425, "bike_id": "77fb1aa8013aa0b6f9b80ac65ba98542", "fusion_lon": 0.0}, {"rental_uris": {"ios": "https://dc.lft.to/lastmile_qr_scan", "android": "https://dc.lft.to/lastmile_qr_scan"}, "type": "electric_scooter", "name": "f0427c3db608756da737808ba9108c17", "is_reserved": 0, "lon": -76.98554416666667, "is_disabled": 0, "fusion_lat": 0.0, "lat": 38.889944166666666, "bike_id": "f0427c3db608756da737808ba9108c17", "fusion_lon": 0.0}, {"rental_uris": {"ios": "https://dc.lft.to/lastmile_qr_scan", "android": "https://dc.lft.to/lastmile_qr_scan"}, "type": "electric_bike", "name": "34719282ba5a2e13d0621de0b3147be6", "is_reserved": 0, "lon": -77.020097, "is_disabled": 0, "fusion_lat": 0.0, "lat": 38.96441866666667, "bike_id": "34719282ba5a2e13d0621de0b3147be6", "fusion_lon": 0.0}, {"rental_uris": {"ios": "https://dc.lft.to/lastmile_qr_scan", "android": "https://dc.lft.to/lastmile_qr_scan"}, "type": "electric_scooter", "name": "2830febd54b768814dd612d3843ed345", "is_reserved": 0, "lon": -77.01855216666667, "is_disabled": 0, "fusion_lat": 0.0, "lat": 38.94891233333333, "bike_id": "2830febd54b768814dd612d3843ed345", "fusion_lon": 0.0}, {"rental_uris": {"ios": "https://dc.lft.to/lastmile_qr_scan", "android": "https://dc.lft.to/lastmile_qr_scan"}, "type": "electric_scooter", "name": "619eb56a610cc3f7cb283622299cdcbd", "is_reserved": 0, "lon": -77.02329633333333, "is_disabled": 0, "fusion_lat": 0.0, "lat": 38.922939666666664, "bike_id": "619eb56a610cc3f7cb283622299cdcbd", "fusion_lon": 0.0}, {"rental_uris": {"ios": "https://dc.lft.to/lastmile_qr_scan", "android": "https://dc.lft.to/lastmile_qr_scan"}, "type": "electric_scooter", "name": "5be8dd68f721f797b82e6361f2f8c0ac", "is_reserved": 0, "lon": -77.03049016666667, "is_disabled": 0, "fusion_lat": 0.0, "lat": 38.884122166666664, "bike_id": "5be8dd68f721f797b82e6361f2f8c0ac", "fusion_lon": 0.0}, {"rental_uris": {"ios": "https://dc.lft.to/lastmile_qr_scan", "android": "https://dc.lft.to/lastmile_qr_scan"}, "type": "electric_scooter", "name": "63df58dda1889a7afb7fe8ac8c87f92d", "is_reserved": 0, "lon": -77.042133, "is_disabled": 0, "fusion_lat": 0.0, "lat": 38.9212615, "bike_id": "63df58dda1889a7afb7fe8ac8c87f92d", "fusion_lon": 0.0}, {"rental_uris": {"ios": "https://dc.lft.to/lastmile_qr_scan", "android": "https://dc.lft.to/lastmile_qr_scan"}, "type": "electric_scooter", "name": "d080f5086545d1eeffbd55b424de8a1b", "is_reserved": 0, "lon": -76.98261716666667, "is_disabled": 0, "fusion_lat": 0.0, "lat": 38.86626433333333, "bike_id": "d080f5086545d1eeffbd55b424de8a1b", "fusion_lon": 0.0}, {"rental_uris": {"ios": "https://dc.lft.to/lastmile_qr_scan", "android": "https://dc.lft.to/lastmile_qr_scan"}, "type": "electric_bike", "name": "f3e51413fb10f99e5f4a6d716bf0414c", "is_reserved": 0, "lon": -77.07952383333334, "is_disabled": 0, "fusion_lat": 0.0, "lat": 38.84893, "bike_id": "f3e51413fb10f99e5f4a6d716bf0414c", "fusion_lon": 0.0}, {"rental_uris": {"ios": "https://dc.lft.to/lastmile_qr_scan", "android": "https://dc.lft.to/lastmile_qr_scan"}, "type": "electric_scooter", "name": "13e93496cdfd2d90646894533b0484ef", "is_reserved": 0, "lon": -77.03658316666667, "is_disabled": 0, "fusion_lat": 0.0, "lat": 38.92282483333334, "bike_id": "13e93496cdfd2d90646894533b0484ef", "fusion_lon": 0.0}, {"rental_uris": {"ios": "https://dc.lft.to/lastmile_qr_scan", "android": "https://dc.lft.to/lastmile_qr_scan"}, "type": "electric_scooter", "name": "1ec75f157fbb8c4ebbc9bd558d2639f2", "is_reserved": 0, "lon": -77.0204175, "is_disabled": 0, "fusion_lat": 0.0, "lat": 38.922466666666665, "bike_id": "1ec75f157fbb8c4ebbc9bd558d2639f2", "fusion_lon": 0.0}, {"rental_uris": {"ios": "https://dc.lft.to/lastmile_qr_scan", "android": "https://dc.lft.to/lastmile_qr_scan"}, "type": "electric_scooter", "name": "76112cd2fbc388bbfe7d725318782714", "is_reserved": 0, "lon": -77.03443183333333, "is_disabled": 0, "fusion_lat": 0.0, "lat": 38.90971066666667, "bike_id": "76112cd2fbc388bbfe7d725318782714", "fusion_lon": 0.0}, {"rental_uris": {"ios": "https://dc.lft.to/lastmile_qr_scan", "android": "https://dc.lft.to/lastmile_qr_scan"}, "type": "electric_scooter", "name": "2e0f384a1a4fec960e227c9c2e2323e6", "is_reserved": 0, "lon": -77.00095683333333, "is_disabled": 0, "fusion_lat": 0.0, "lat": 38.88124583333333, "bike_id": "2e0f384a1a4fec960e227c9c2e2323e6", "fusion_lon": 0.0}, {"rental_uris": {"ios": "https://dc.lft.to/lastmile_qr_scan", "android": "https://dc.lft.to/lastmile_qr_scan"}, "type": "electric_scooter", "name": "cf12952ac827be59e47a04f4351692e5", "is_reserved": 0, "lon": -77.019756, "is_disabled": 0, "fusion_lat": 0.0, "lat": 38.899506333333335, "bike_id": "cf12952ac827be59e47a04f4351692e5", "fusion_lon": 0.0}, {"rental_uris": {"ios": "https://dc.lft.to/lastmile_qr_scan", "android": "https://dc.lft.to/lastmile_qr_scan"}, "type": "electric_scooter", "name": "922e03ef79dc234ab0a773c685160c0b", "is_reserved": 0, "lon": -77.0404315, "is_disabled": 0, "fusion_lat": 0.0, "lat": 38.930104, "bike_id": "922e03ef79dc234ab0a773c685160c0b", "fusion_lon": 0.0}, {"rental_uris": {"ios": "https://dc.lft.to/lastmile_qr_scan", "android": "https://dc.lft.to/lastmile_qr_scan"}, "type": "electric_scooter", "name": "fc38d512a35538c1f140f127ea32ae4c", "is_reserved": 0, "lon": -77.00428283333333, "is_disabled": 0, "fusion_lat": 0.0, "lat": 38.885086, "bike_id": "fc38d512a35538c1f140f127ea32ae4c", "fusion_lon": 0.0}, {"rental_uris": {"ios": "https://dc.lft.to/lastmile_qr_scan", "android": "https://dc.lft.to/lastmile_qr_scan"}, "type": "electric_scooter", "name": "cbf04d3f23837fdf2cec998932cef02d", "is_reserved": 0, "lon": -77.02273266666667, "is_disabled": 0, "fusion_lat": 0.0, "lat": 38.92470633333333, "bike_id": "cbf04d3f23837fdf2cec998932cef02d", "fusion_lon": 0.0}, {"rental_uris": {"ios": "https://dc.lft.to/lastmile_qr_scan", "android": "https://dc.lft.to/lastmile_qr_scan"}, "type": "electric_scooter", "name": "41ccdea87eed91b4491e546b1c9bd03d", "is_reserved": 0, "lon": -77.0378105, "is_disabled": 0, "fusion_lat": 0.0, "lat": 38.915759333333334, "bike_id": "41ccdea87eed91b4491e546b1c9bd03d", "fusion_lon": 0.0}, {"rental_uris": {"ios": "https://dc.lft.to/lastmile_qr_scan", "android": "https://dc.lft.to/lastmile_qr_scan"}, "type": "electric_scooter", "name": "46d19d67b7af0bb6195e10835788980a", "is_reserved": 0, "lon": -77.02305616666666, "is_disabled": 0, "fusion_lat": 0.0, "lat": 38.96127533333333, "bike_id": "46d19d67b7af0bb6195e10835788980a", "fusion_lon": 0.0}, {"rental_uris": {"ios": "https://dc.lft.to/lastmile_qr_scan", "android": "https://dc.lft.to/lastmile_qr_scan"}, "type": "electric_scooter", "name": "864aec1195881c09f1e3b96b72146388", "is_reserved": 0, "lon": -77.04425533333334, "is_disabled": 0, "fusion_lat": 0.0, "lat": 38.897362, "bike_id": "864aec1195881c09f1e3b96b72146388", "fusion_lon": 0.0}, {"rental_uris": {"ios": "https://dc.lft.to/lastmile_qr_scan", "android": "https://dc.lft.to/lastmile_qr_scan"}, "type": "electric_scooter", "name": "da1053b33fba2b221ac2df72834d4a33", "is_reserved": 0, "lon": -77.018681, "is_disabled": 0, "fusion_lat": 0.0, "lat": 38.95147766666667, "bike_id": "da1053b33fba2b221ac2df72834d4a33", "fusion_lon": 0.0}, {"rental_uris": {"ios": "https://dc.lft.to/lastmile_qr_scan", "android": "https://dc.lft.to/lastmile_qr_scan"}, "type": "electric_scooter", "name": "dd1059060091a5c400a311989a1c4fc7", "is_reserved": 0, "lon": -76.99439383333333, "is_disabled": 0, "fusion_lat": 0.0, "lat": 38.959233, "bike_id": "dd1059060091a5c400a311989a1c4fc7", "fusion_lon": 0.0}, {"rental_uris": {"ios": "https://dc.lft.to/lastmile_qr_scan", "android": "https://dc.lft.to/lastmile_qr_scan"}, "type": "electric_scooter", "name": "b1969b03deb344f60581e6b1e9e2417f", "is_reserved": 0, "lon": -76.9720475, "is_disabled": 0, "fusion_lat": 0.0, "lat": 38.924532, "bike_id": "b1969b03deb344f60581e6b1e9e2417f", "fusion_lon": 0.0}, {"rental_uris": {"ios": "https://dc.lft.to/lastmile_qr_scan", "android": "https://dc.lft.to/lastmile_qr_scan"}, "type": "electric_scooter", "name": "7ae4e2dc67d1c5127e36135796f49160", "is_reserved": 0, "lon": -77.03063433333334, "is_disabled": 0, "fusion_lat": 0.0, "lat": 38.922526166666664, "bike_id": "7ae4e2dc67d1c5127e36135796f49160", "fusion_lon": 0.0}, {"rental_uris": {"ios": "https://dc.lft.to/lastmile_qr_scan", "android": "https://dc.lft.to/lastmile_qr_scan"}, "type": "electric_scooter", "name": "058b93f43f63f86f6c73472a43ed176e", "is_reserved": 0, "lon": -76.989296, "is_disabled": 0, "fusion_lat": 0.0, "lat": 38.878653166666666, "bike_id": "058b93f43f63f86f6c73472a43ed176e", "fusion_lon": 0.0}, {"rental_uris": {"ios": "https://dc.lft.to/lastmile_qr_scan", "android": "https://dc.lft.to/lastmile_qr_scan"}, "type": "electric_scooter", "name": "25c0fc0a0414a002a7ce3c0980e00042", "is_reserved": 0, "lon": -77.04134883333333, "is_disabled": 0, "fusion_lat": 0.0, "lat": 38.93274233333333, "bike_id": "25c0fc0a0414a002a7ce3c0980e00042", "fusion_lon": 0.0}, {"rental_uris": {"ios": "https://dc.lft.to/lastmile_qr_scan", "android": "https://dc.lft.to/lastmile_qr_scan"}, "type": "electric_scooter", "name": "ee8fb0bf6ba98c0141243157d6a435ac", "is_reserved": 0, "lon": -77.00833466666667, "is_disabled": 0, "fusion_lat": 0.0, "lat": 38.879490833333335, "bike_id": "ee8fb0bf6ba98c0141243157d6a435ac", "fusion_lon": 0.0}, {"rental_uris": {"ios": "https://dc.lft.to/lastmile_qr_scan", "android": "https://dc.lft.to/lastmile_qr_scan"}, "type": "electric_scooter", "name": "6bf234bead60ef3b43081d845101b5df", "is_reserved": 0, "lon": -77.03127866666667, "is_disabled": 0, "fusion_lat": 0.0, "lat": 38.915542, "bike_id": "6bf234bead60ef3b43081d845101b5df", "fusion_lon": 0.0}, {"rental_uris": {"ios": "https://dc.lft.to/lastmile_qr_scan", "android": "https://dc.lft.to/lastmile_qr_scan"}, "type": "electric_bike", "name": "e6e608b2c9c36bc7a30bcb1749195e75", "is_reserved": 0, "lon": -77.04303016666667, "is_disabled": 0, "fusion_lat": 0.0, "lat": 39.034246333333336, "bike_id": "e6e608b2c9c36bc7a30bcb1749195e75", "fusion_lon": 0.0}, {"rental_uris": {"ios": "https://dc.lft.to/lastmile_qr_scan", "android": "https://dc.lft.to/lastmile_qr_scan"}, "type": "electric_scooter", "name": "59ba4bda08427bab7bdb51e46bb2f3e3", "is_reserved": 0, "lon": -77.056248, "is_disabled": 0, "fusion_lat": 0.0, "lat": 38.906861166666665, "bike_id": "59ba4bda08427bab7bdb51e46bb2f3e3", "fusion_lon": 0.0}, {"rental_uris": {"ios": "https://dc.lft.to/lastmile_qr_scan", "android": "https://dc.lft.to/lastmile_qr_scan"}, "type": "electric_scooter", "name": "18723fbbb74643d51e842e623e3d1122", "is_reserved": 0, "lon": -77.0271895, "is_disabled": 0, "fusion_lat": 0.0, "lat": 38.91221, "bike_id": "18723fbbb74643d51e842e623e3d1122", "fusion_lon": 0.0}, {"rental_uris": {"ios": "https://dc.lft.to/lastmile_qr_scan", "android": "https://dc.lft.to/lastmile_qr_scan"}, "type": "electric_scooter", "name": "a331ab9732203aef31481866159645fd", "is_reserved": 0, "lon": -76.98102533333333, "is_disabled": 0, "fusion_lat": 0.0, "lat": 38.902447, "bike_id": "a331ab9732203aef31481866159645fd", "fusion_lon": 0.0}, {"rental_uris": {"ios": "https://dc.lft.to/lastmile_qr_scan", "android": "https://dc.lft.to/lastmile_qr_scan"}, "type": "electric_scooter", "name": "2e8d0ac9fca4e540646ec538cf68a19d", "is_reserved": 0, "lon": -77.00316066666667, "is_disabled": 0, "fusion_lat": 0.0, "lat": 38.918930333333336, "bike_id": "2e8d0ac9fca4e540646ec538cf68a19d", "fusion_lon": 0.0}, {"rental_uris": {"ios": "https://dc.lft.to/lastmile_qr_scan", "android": "https://dc.lft.to/lastmile_qr_scan"}, "type": "electric_scooter", "name": "e3b6a5f42f507dee712b522bd49db3ed", "is_reserved": 0, "lon": -77.03220033333334, "is_disabled": 0, "fusion_lat": 0.0, "lat": 38.88709016666667, "bike_id": "e3b6a5f42f507dee712b522bd49db3ed", "fusion_lon": 0.0}, {"rental_uris": {"ios": "https://dc.lft.to/lastmile_qr_scan", "android": "https://dc.lft.to/lastmile_qr_scan"}, "type": "electric_scooter", "name": "4e65ac98ad82f482735f4bfd8153b78d", "is_reserved": 0, "lon": -77.04644633333334, "is_disabled": 0, "fusion_lat": 0.0, "lat": 38.8972625, "bike_id": "4e65ac98ad82f482735f4bfd8153b78d", "fusion_lon": 0.0}, {"rental_uris": {"ios": "https://dc.lft.to/lastmile_qr_scan", "android": "https://dc.lft.to/lastmile_qr_scan"}, "type": "electric_scooter", "name": "fdc0fc414d460b75356ef61f31ba850e", "is_reserved": 0, "lon": -77.01757983333333, "is_disabled": 0, "fusion_lat": 0.0, "lat": 38.902519833333336, "bike_id": "fdc0fc414d460b75356ef61f31ba850e", "fusion_lon": 0.0}, {"rental_uris": {"ios": "https://dc.lft.to/lastmile_qr_scan", "android": "https://dc.lft.to/lastmile_qr_scan"}, "type": "electric_bike", "name": "79493f8b23e6afcaedaef15dfb345776", "is_reserved": 0, "lon": -77.1135805, "is_disabled": 0, "fusion_lat": 0.0, "lat": 38.8419395, "bike_id": "79493f8b23e6afcaedaef15dfb345776", "fusion_lon": 0.0}, {"rental_uris": {"ios": "https://dc.lft.to/lastmile_qr_scan", "android": "https://dc.lft.to/lastmile_qr_scan"}, "type": "electric_scooter", "name": "c62da6784cf88e247bf0b18ec00dbc64", "is_reserved": 0, "lon": -77.03210316666667, "is_disabled": 0, "fusion_lat": 0.0, "lat": 38.91205016666667, "bike_id": "c62da6784cf88e247bf0b18ec00dbc64", "fusion_lon": 0.0}, {"rental_uris": {"ios": "https://dc.lft.to/lastmile_qr_scan", "android": "https://dc.lft.to/lastmile_qr_scan"}, "type": "electric_scooter", "name": "45b9f14bf57c71ef6f5f0a68810dabf7", "is_reserved": 0, "lon": -76.99347033333333, "is_disabled": 0, "fusion_lat": 0.0, "lat": 38.87688266666667, "bike_id": "45b9f14bf57c71ef6f5f0a68810dabf7", "fusion_lon": 0.0}, {"rental_uris": {"ios": "https://dc.lft.to/lastmile_qr_scan", "android": "https://dc.lft.to/lastmile_qr_scan"}, "type": "electric_scooter", "name": "09b34c420017fe61d54dd8fc60b0d47a", "is_reserved": 0, "lon": -77.04256333333333, "is_disabled": 0, "fusion_lat": 0.0, "lat": 38.9071965, "bike_id": "09b34c420017fe61d54dd8fc60b0d47a", "fusion_lon": 0.0}, {"rental_uris": {"ios": "https://dc.lft.to/lastmile_qr_scan", "android": "https://dc.lft.to/lastmile_qr_scan"}, "type": "electric_scooter", "name": "c42fd542823a758aaa39881436e48ace", "is_reserved": 0, "lon": -77.017931, "is_disabled": 0, "fusion_lat": 0.0, "lat": 38.90028383333333, "bike_id": "c42fd542823a758aaa39881436e48ace", "fusion_lon": 0.0}, {"rental_uris": {"ios": "https://dc.lft.to/lastmile_qr_scan", "android": "https://dc.lft.to/lastmile_qr_scan"}, "type": "electric_scooter", "name": "ba7d380202045996e59a4adc4818b454", "is_reserved": 0, "lon": -77.02101083333334, "is_disabled": 0, "fusion_lat": 0.0, "lat": 38.91199, "bike_id": "ba7d380202045996e59a4adc4818b454", "fusion_lon": 0.0}, {"rental_uris": {"ios": "https://dc.lft.to/lastmile_qr_scan", "android": "https://dc.lft.to/lastmile_qr_scan"}, "type": "electric_scooter", "name": "b334d49eb971e9ae8cd8c19690a2573e", "is_reserved": 0, "lon": -77.04946466666667, "is_disabled": 0, "fusion_lat": 0.0, "lat": 38.920189666666666, "bike_id": "b334d49eb971e9ae8cd8c19690a2573e", "fusion_lon": 0.0}, {"rental_uris": {"ios": "https://dc.lft.to/lastmile_qr_scan", "android": "https://dc.lft.to/lastmile_qr_scan"}, "type": "electric_scooter", "name": "cebd0b001e507163ce69c24b661aa54f", "is_reserved": 0, "lon": -76.98942416666667, "is_disabled": 0, "fusion_lat": 0.0, "lat": 38.9039295, "bike_id": "cebd0b001e507163ce69c24b661aa54f", "fusion_lon": 0.0}, {"rental_uris": {"ios": "https://dc.lft.to/lastmile_qr_scan", "android": "https://dc.lft.to/lastmile_qr_scan"}, "type": "electric_scooter", "name": "845724caa2fc31275c5cb12cd69a8518", "is_reserved": 0, "lon": -77.0295925, "is_disabled": 0, "fusion_lat": 0.0, "lat": 38.922607166666666, "bike_id": "845724caa2fc31275c5cb12cd69a8518", "fusion_lon": 0.0}, {"rental_uris": {"ios": "https://dc.lft.to/lastmile_qr_scan", "android": "https://dc.lft.to/lastmile_qr_scan"}, "type": "electric_scooter", "name": "50f56f4002edcc49294c19fde786778e", "is_reserved": 0, "lon": -77.04855816666667, "is_disabled": 0, "fusion_lat": 0.0, "lat": 38.904710666666666, "bike_id": "50f56f4002edcc49294c19fde786778e", "fusion_lon": 0.0}, {"rental_uris": {"ios": "https://dc.lft.to/lastmile_qr_scan", "android": "https://dc.lft.to/lastmile_qr_scan"}, "type": "electric_scooter", "name": "54c3ffc7aa0230ebd2690e7b9663fcd6", "is_reserved": 0, "lon": -77.04146483333334, "is_disabled": 0, "fusion_lat": 0.0, "lat": 38.903619666666664, "bike_id": "54c3ffc7aa0230ebd2690e7b9663fcd6", "fusion_lon": 0.0}, {"rental_uris": {"ios": "https://dc.lft.to/lastmile_qr_scan", "android": "https://dc.lft.to/lastmile_qr_scan"}, "type": "electric_scooter", "name": "397f3dffc61644b129074c51ccbb1710", "is_reserved": 0, "lon": -77.04642033333333, "is_disabled": 0, "fusion_lat": 0.0, "lat": 38.897282833333335, "bike_id": "397f3dffc61644b129074c51ccbb1710", "fusion_lon": 0.0}, {"rental_uris": {"ios": "https://dc.lft.to/lastmile_qr_scan", "android": "https://dc.lft.to/lastmile_qr_scan"}, "type": "electric_scooter", "name": "021fb42e8ba7000453ac11e1876a83cf", "is_reserved": 0, "lon": -77.00059616666667, "is_disabled": 0, "fusion_lat": 0.0, "lat": 38.96134683333333, "bike_id": "021fb42e8ba7000453ac11e1876a83cf", "fusion_lon": 0.0}, {"rental_uris": {"ios": "https://dc.lft.to/lastmile_qr_scan", "android": "https://dc.lft.to/lastmile_qr_scan"}, "type": "electric_scooter", "name": "3f85943bed3b30d3117dbe9d351db2c3", "is_reserved": 0, "lon": -77.02805683333334, "is_disabled": 0, "fusion_lat": 0.0, "lat": 38.907313333333335, "bike_id": "3f85943bed3b30d3117dbe9d351db2c3", "fusion_lon": 0.0}, {"rental_uris": {"ios": "https://dc.lft.to/lastmile_qr_scan", "android": "https://dc.lft.to/lastmile_qr_scan"}, "type": "electric_scooter", "name": "1b8abae3a84d0ea25da897190daadf4a", "is_reserved": 0, "lon": -76.97631166666666, "is_disabled": 0, "fusion_lat": 0.0, "lat": 38.905709333333334, "bike_id": "1b8abae3a84d0ea25da897190daadf4a", "fusion_lon": 0.0}, {"rental_uris": {"ios": "https://dc.lft.to/lastmile_qr_scan", "android": "https://dc.lft.to/lastmile_qr_scan"}, "type": "electric_scooter", "name": "9af7c65e8260306c1dc23bdbc7fa176d", "is_reserved": 0, "lon": -77.052539, "is_disabled": 0, "fusion_lat": 0.0, "lat": 38.923705166666664, "bike_id": "9af7c65e8260306c1dc23bdbc7fa176d", "fusion_lon": 0.0}, {"rental_uris": {"ios": "https://dc.lft.to/lastmile_qr_scan", "android": "https://dc.lft.to/lastmile_qr_scan"}, "type": "electric_scooter", "name": "23fbb8c603fdd84ac1af1113839b0ffd", "is_reserved": 0, "lon": -77.03491133333333, "is_disabled": 0, "fusion_lat": 0.0, "lat": 38.93279666666667, "bike_id": "23fbb8c603fdd84ac1af1113839b0ffd", "fusion_lon": 0.0}, {"rental_uris": {"ios": "https://dc.lft.to/lastmile_qr_scan", "android": "https://dc.lft.to/lastmile_qr_scan"}, "type": "electric_bike", "name": "a373c5c242ea854ec616d225ded14b82", "is_reserved": 0, "lon": -77.2341, "is_disabled": 0, "fusion_lat": 0.0, "lat": 38.8757555, "bike_id": "a373c5c242ea854ec616d225ded14b82", "fusion_lon": 0.0}, {"rental_uris": {"ios": "https://dc.lft.to/lastmile_qr_scan", "android": "https://dc.lft.to/lastmile_qr_scan"}, "type": "electric_scooter", "name": "683f93607b6f6ec15b99d2a131bfe95a", "is_reserved": 0, "lon": -77.055224, "is_disabled": 0, "fusion_lat": 0.0, "lat": 38.89728016666667, "bike_id": "683f93607b6f6ec15b99d2a131bfe95a", "fusion_lon": 0.0}, {"rental_uris": {"ios": "https://dc.lft.to/lastmile_qr_scan", "android": "https://dc.lft.to/lastmile_qr_scan"}, "type": "electric_scooter", "name": "4f3f53a42afb53b15df531267eef7def", "is_reserved": 0, "lon": -77.05214033333333, "is_disabled": 0, "fusion_lat": 0.0, "lat": 38.90022733333333, "bike_id": "4f3f53a42afb53b15df531267eef7def", "fusion_lon": 0.0}, {"rental_uris": {"ios": "https://dc.lft.to/lastmile_qr_scan", "android": "https://dc.lft.to/lastmile_qr_scan"}, "type": "electric_scooter", "name": "7e72efdd8f389a69ecd31c93b0111329", "is_reserved": 0, "lon": -77.00913116666666, "is_disabled": 0, "fusion_lat": 0.0, "lat": 38.8990075, "bike_id": "7e72efdd8f389a69ecd31c93b0111329", "fusion_lon": 0.0}, {"rental_uris": {"ios": "https://dc.lft.to/lastmile_qr_scan", "android": "https://dc.lft.to/lastmile_qr_scan"}, "type": "electric_scooter", "name": "bee1fde31224ef8712c7a262b627c82b", "is_reserved": 0, "lon": -77.06470416666667, "is_disabled": 0, "fusion_lat": 0.0, "lat": 38.91026516666667, "bike_id": "bee1fde31224ef8712c7a262b627c82b", "fusion_lon": 0.0}, {"rental_uris": {"ios": "https://dc.lft.to/lastmile_qr_scan", "android": "https://dc.lft.to/lastmile_qr_scan"}, "type": "electric_scooter", "name": "b6a54ed5659a159a7c5b528e3738172c", "is_reserved": 0, "lon": -77.00756816666667, "is_disabled": 0, "fusion_lat": 0.0, "lat": 38.92525583333333, "bike_id": "b6a54ed5659a159a7c5b528e3738172c", "fusion_lon": 0.0}, {"rental_uris": {"ios": "https://dc.lft.to/lastmile_qr_scan", "android": "https://dc.lft.to/lastmile_qr_scan"}, "type": "electric_scooter", "name": "27dcb02c7ea332c9665bb173dc6b3d30", "is_reserved": 0, "lon": -77.0041125, "is_disabled": 0, "fusion_lat": 0.0, "lat": 38.905649333333336, "bike_id": "27dcb02c7ea332c9665bb173dc6b3d30", "fusion_lon": 0.0}, {"rental_uris": {"ios": "https://dc.lft.to/lastmile_qr_scan", "android": "https://dc.lft.to/lastmile_qr_scan"}, "type": "electric_scooter", "name": "35fef4aa67e303eaceef5c5f5445b50a", "is_reserved": 0, "lon": -77.02693816666667, "is_disabled": 0, "fusion_lat": 0.0, "lat": 38.923323333333336, "bike_id": "35fef4aa67e303eaceef5c5f5445b50a", "fusion_lon": 0.0}, {"rental_uris": {"ios": "https://dc.lft.to/lastmile_qr_scan", "android": "https://dc.lft.to/lastmile_qr_scan"}, "type": "electric_scooter", "name": "6ddf77e0a021124e1cfa4d8109ecb1ab", "is_reserved": 0, "lon": -77.05051383333333, "is_disabled": 0, "fusion_lat": 0.0, "lat": 38.9007335, "bike_id": "6ddf77e0a021124e1cfa4d8109ecb1ab", "fusion_lon": 0.0}, {"rental_uris": {"ios": "https://dc.lft.to/lastmile_qr_scan", "android": "https://dc.lft.to/lastmile_qr_scan"}, "type": "electric_scooter", "name": "4d45d59d6aaf34dc99a8f82ef30ad5f4", "is_reserved": 0, "lon": -77.047384, "is_disabled": 0, "fusion_lat": 0.0, "lat": 38.908468, "bike_id": "4d45d59d6aaf34dc99a8f82ef30ad5f4", "fusion_lon": 0.0}, {"rental_uris": {"ios": "https://dc.lft.to/lastmile_qr_scan", "android": "https://dc.lft.to/lastmile_qr_scan"}, "type": "electric_scooter", "name": "1372330ce020b5031fdc16bc5dcf9a5c", "is_reserved": 0, "lon": -76.97934266666667, "is_disabled": 0, "fusion_lat": 0.0, "lat": 38.906576666666666, "bike_id": "1372330ce020b5031fdc16bc5dcf9a5c", "fusion_lon": 0.0}, {"rental_uris": {"ios": "https://dc.lft.to/lastmile_qr_scan", "android": "https://dc.lft.to/lastmile_qr_scan"}, "type": "electric_scooter", "name": "381f2e7962bb03724165caa49098a9df", "is_reserved": 0, "lon": -77.02699583333333, "is_disabled": 0, "fusion_lat": 0.0, "lat": 38.91800283333333, "bike_id": "381f2e7962bb03724165caa49098a9df", "fusion_lon": 0.0}, {"rental_uris": {"ios": "https://dc.lft.to/lastmile_qr_scan", "android": "https://dc.lft.to/lastmile_qr_scan"}, "type": "electric_scooter", "name": "de57ab558162c038a7d7e2939d6cce13", "is_reserved": 0, "lon": -77.036618, "is_disabled": 0, "fusion_lat": 0.0, "lat": 38.922851333333334, "bike_id": "de57ab558162c038a7d7e2939d6cce13", "fusion_lon": 0.0}, {"rental_uris": {"ios": "https://dc.lft.to/lastmile_qr_scan", "android": "https://dc.lft.to/lastmile_qr_scan"}, "type": "electric_bike", "name": "4c3eebc4c251814a588eaed32cdc2c25", "is_reserved": 0, "lon": -77.00137566666666, "is_disabled": 0, "fusion_lat": 0.0, "lat": 38.995035, "bike_id": "4c3eebc4c251814a588eaed32cdc2c25", "fusion_lon": 0.0}, {"rental_uris": {"ios": "https://dc.lft.to/lastmile_qr_scan", "android": "https://dc.lft.to/lastmile_qr_scan"}, "type": "electric_scooter", "name": "1a30e2cd4e2a6ae772a40ffa8803b207", "is_reserved": 0, "lon": -77.02202566666666, "is_disabled": 0, "fusion_lat": 0.0, "lat": 38.8949335, "bike_id": "1a30e2cd4e2a6ae772a40ffa8803b207", "fusion_lon": 0.0}, {"rental_uris": {"ios": "https://dc.lft.to/lastmile_qr_scan", "android": "https://dc.lft.to/lastmile_qr_scan"}, "type": "electric_scooter", "name": "069133193c93ffbc15805af44953f3a7", "is_reserved": 0, "lon": -77.03186316666667, "is_disabled": 0, "fusion_lat": 0.0, "lat": 38.91350583333333, "bike_id": "069133193c93ffbc15805af44953f3a7", "fusion_lon": 0.0}, {"rental_uris": {"ios": "https://dc.lft.to/lastmile_qr_scan", "android": "https://dc.lft.to/lastmile_qr_scan"}, "type": "electric_scooter", "name": "ec9ab1966e2b4e40df01f795a590cad4", "is_reserved": 0, "lon": -77.01906083333333, "is_disabled": 0, "fusion_lat": 0.0, "lat": 38.89478866666666, "bike_id": "ec9ab1966e2b4e40df01f795a590cad4", "fusion_lon": 0.0}, {"rental_uris": {"ios": "https://dc.lft.to/lastmile_qr_scan", "android": "https://dc.lft.to/lastmile_qr_scan"}, "type": "electric_scooter", "name": "6603fc75b9cea1ccb9b442e2aa3fc212", "is_reserved": 0, "lon": -77.046928, "is_disabled": 0, "fusion_lat": 0.0, "lat": 38.92098683333333, "bike_id": "6603fc75b9cea1ccb9b442e2aa3fc212", "fusion_lon": 0.0}, {"rental_uris": {"ios": "https://dc.lft.to/lastmile_qr_scan", "android": "https://dc.lft.to/lastmile_qr_scan"}, "type": "electric_scooter", "name": "f41f142f78c85b6044636c72b6c547eb", "is_reserved": 0, "lon": -77.02129583333334, "is_disabled": 0, "fusion_lat": 0.0, "lat": 38.92410066666667, "bike_id": "f41f142f78c85b6044636c72b6c547eb", "fusion_lon": 0.0}, {"rental_uris": {"ios": "https://dc.lft.to/lastmile_qr_scan", "android": "https://dc.lft.to/lastmile_qr_scan"}, "type": "electric_bike", "name": "e34cdaae6d3806397924fd0922ead8d0", "is_reserved": 0, "lon": -76.958208, "is_disabled": 0, "fusion_lat": 0.0, "lat": 38.919964, "bike_id": "e34cdaae6d3806397924fd0922ead8d0", "fusion_lon": 0.0}, {"rental_uris": {"ios": "https://dc.lft.to/lastmile_qr_scan", "android": "https://dc.lft.to/lastmile_qr_scan"}, "type": "electric_scooter", "name": "da64949dc3ee8b8c8a7df7b12a027765", "is_reserved": 0, "lon": -77.0211975, "is_disabled": 0, "fusion_lat": 0.0, "lat": 38.92350316666667, "bike_id": "da64949dc3ee8b8c8a7df7b12a027765", "fusion_lon": 0.0}, {"rental_uris": {"ios": "https://dc.lft.to/lastmile_qr_scan", "android": "https://dc.lft.to/lastmile_qr_scan"}, "type": "electric_scooter", "name": "e8f4b6d8d4f6196f43220ce61ac02b71", "is_reserved": 0, "lon": -76.94855866666667, "is_disabled": 0, "fusion_lat": 0.0, "lat": 38.88295683333333, "bike_id": "e8f4b6d8d4f6196f43220ce61ac02b71", "fusion_lon": 0.0}, {"rental_uris": {"ios": "https://dc.lft.to/lastmile_qr_scan", "android": "https://dc.lft.to/lastmile_qr_scan"}, "type": "electric_scooter", "name": "083d738586fd5202e61e257987a45b15", "is_reserved": 0, "lon": -76.98215666666667, "is_disabled": 0, "fusion_lat": 0.0, "lat": 38.901909333333336, "bike_id": "083d738586fd5202e61e257987a45b15", "fusion_lon": 0.0}, {"rental_uris": {"ios": "https://dc.lft.to/lastmile_qr_scan", "android": "https://dc.lft.to/lastmile_qr_scan"}, "type": "electric_scooter", "name": "e6509e2831cfa8d168cce21935c9f54a", "is_reserved": 0, "lon": -77.03431783333333, "is_disabled": 0, "fusion_lat": 0.0, "lat": 38.92861466666667, "bike_id": "e6509e2831cfa8d168cce21935c9f54a", "fusion_lon": 0.0}, {"rental_uris": {"ios": "https://dc.lft.to/lastmile_qr_scan", "android": "https://dc.lft.to/lastmile_qr_scan"}, "type": "electric_scooter", "name": "952a8f89b30d034a1b963c42e7ce100c", "is_reserved": 0, "lon": -77.0035695, "is_disabled": 0, "fusion_lat": 0.0, "lat": 38.892671666666665, "bike_id": "952a8f89b30d034a1b963c42e7ce100c", "fusion_lon": 0.0}, {"rental_uris": {"ios": "https://dc.lft.to/lastmile_qr_scan", "android": "https://dc.lft.to/lastmile_qr_scan"}, "type": "electric_scooter", "name": "f5b167aa374ed4bef2dc6052709cdec9", "is_reserved": 0, "lon": -76.988895, "is_disabled": 0, "fusion_lat": 0.0, "lat": 38.899520833333334, "bike_id": "f5b167aa374ed4bef2dc6052709cdec9", "fusion_lon": 0.0}, {"rental_uris": {"ios": "https://dc.lft.to/lastmile_qr_scan", "android": "https://dc.lft.to/lastmile_qr_scan"}, "type": "electric_scooter", "name": "02149faadfc87eab23a4a55c558c9bbd", "is_reserved": 0, "lon": -77.01574716666667, "is_disabled": 0, "fusion_lat": 0.0, "lat": 38.916818, "bike_id": "02149faadfc87eab23a4a55c558c9bbd", "fusion_lon": 0.0}, {"rental_uris": {"ios": "https://dc.lft.to/lastmile_qr_scan", "android": "https://dc.lft.to/lastmile_qr_scan"}, "type": "electric_scooter", "name": "be8f8b1e5054210141f4a22d82d6b1f3", "is_reserved": 0, "lon": -76.99101216666666, "is_disabled": 0, "fusion_lat": 0.0, "lat": 38.85729333333333, "bike_id": "be8f8b1e5054210141f4a22d82d6b1f3", "fusion_lon": 0.0}, {"rental_uris": {"ios": "https://dc.lft.to/lastmile_qr_scan", "android": "https://dc.lft.to/lastmile_qr_scan"}, "type": "electric_scooter", "name": "3c5768201b95c5e3276a5f36bd3edcf6", "is_reserved": 0, "lon": -77.03224633333333, "is_disabled": 0, "fusion_lat": 0.0, "lat": 38.906960166666664, "bike_id": "3c5768201b95c5e3276a5f36bd3edcf6", "fusion_lon": 0.0}, {"rental_uris": {"ios": "https://dc.lft.to/lastmile_qr_scan", "android": "https://dc.lft.to/lastmile_qr_scan"}, "type": "electric_scooter", "name": "aa119e0636eedbfe14c6cfc941b300ae", "is_reserved": 0, "lon": -77.03936233333333, "is_disabled": 0, "fusion_lat": 0.0, "lat": 38.91413283333333, "bike_id": "aa119e0636eedbfe14c6cfc941b300ae", "fusion_lon": 0.0}, {"rental_uris": {"ios": "https://dc.lft.to/lastmile_qr_scan", "android": "https://dc.lft.to/lastmile_qr_scan"}, "type": "electric_scooter", "name": "c7e0894532c0b3af63543ef873143695", "is_reserved": 0, "lon": -77.04367566666667, "is_disabled": 0, "fusion_lat": 0.0, "lat": 38.892159, "bike_id": "c7e0894532c0b3af63543ef873143695", "fusion_lon": 0.0}, {"rental_uris": {"ios": "https://dc.lft.to/lastmile_qr_scan", "android": "https://dc.lft.to/lastmile_qr_scan"}, "type": "electric_scooter", "name": "08a9cdf9c9d8e974f42ad8bb0b99bd97", "is_reserved": 0, "lon": -77.02073883333334, "is_disabled": 0, "fusion_lat": 0.0, "lat": 38.92698166666667, "bike_id": "08a9cdf9c9d8e974f42ad8bb0b99bd97", "fusion_lon": 0.0}, {"rental_uris": {"ios": "https://dc.lft.to/lastmile_qr_scan", "android": "https://dc.lft.to/lastmile_qr_scan"}, "type": "electric_scooter", "name": "f74af0fbe91a47f50ca8093e403cafef", "is_reserved": 0, "lon": -77.00867116666667, "is_disabled": 0, "fusion_lat": 0.0, "lat": 38.8974275, "bike_id": "f74af0fbe91a47f50ca8093e403cafef", "fusion_lon": 0.0}, {"rental_uris": {"ios": "https://dc.lft.to/lastmile_qr_scan", "android": "https://dc.lft.to/lastmile_qr_scan"}, "type": "electric_scooter", "name": "09fa4742191ad30650f34609aa575bba", "is_reserved": 0, "lon": -77.02172516666667, "is_disabled": 0, "fusion_lat": 0.0, "lat": 38.899120833333335, "bike_id": "09fa4742191ad30650f34609aa575bba", "fusion_lon": 0.0}, {"rental_uris": {"ios": "https://dc.lft.to/lastmile_qr_scan", "android": "https://dc.lft.to/lastmile_qr_scan"}, "type": "electric_scooter", "name": "826dda81bf7bcfd3d58f2a0ec837e688", "is_reserved": 0, "lon": -77.04185866666667, "is_disabled": 0, "fusion_lat": 0.0, "lat": 38.91118483333333, "bike_id": "826dda81bf7bcfd3d58f2a0ec837e688", "fusion_lon": 0.0}, {"rental_uris": {"ios": "https://dc.lft.to/lastmile_qr_scan", "android": "https://dc.lft.to/lastmile_qr_scan"}, "type": "electric_scooter", "name": "5be08f86d97cd0743c6a32a5a7c13990", "is_reserved": 0, "lon": -77.02979616666667, "is_disabled": 0, "fusion_lat": 0.0, "lat": 38.922492, "bike_id": "5be08f86d97cd0743c6a32a5a7c13990", "fusion_lon": 0.0}, {"rental_uris": {"ios": "https://dc.lft.to/lastmile_qr_scan", "android": "https://dc.lft.to/lastmile_qr_scan"}, "type": "electric_scooter", "name": "ab1b43b2f86c073523518ccabb3bad23", "is_reserved": 0, "lon": -77.04159483333333, "is_disabled": 0, "fusion_lat": 0.0, "lat": 38.915693833333336, "bike_id": "ab1b43b2f86c073523518ccabb3bad23", "fusion_lon": 0.0}, {"rental_uris": {"ios": "https://dc.lft.to/lastmile_qr_scan", "android": "https://dc.lft.to/lastmile_qr_scan"}, "type": "electric_scooter", "name": "4eaa2a9901b20ef040155dd21c99c4a7", "is_reserved": 0, "lon": -76.971545, "is_disabled": 0, "fusion_lat": 0.0, "lat": 38.91617183333334, "bike_id": "4eaa2a9901b20ef040155dd21c99c4a7", "fusion_lon": 0.0}, {"rental_uris": {"ios": "https://dc.lft.to/lastmile_qr_scan", "android": "https://dc.lft.to/lastmile_qr_scan"}, "type": "electric_scooter", "name": "a1b413dccac896bac5bfca8f9e8e6aae", "is_reserved": 0, "lon": -77.00218033333333, "is_disabled": 0, "fusion_lat": 0.0, "lat": 38.90029166666667, "bike_id": "a1b413dccac896bac5bfca8f9e8e6aae", "fusion_lon": 0.0}, {"rental_uris": {"ios": "https://dc.lft.to/lastmile_qr_scan", "android": "https://dc.lft.to/lastmile_qr_scan"}, "type": "electric_scooter", "name": "a9885fcf0c559f1edfd464255c205adf", "is_reserved": 0, "lon": -77.05369166666667, "is_disabled": 0, "fusion_lat": 0.0, "lat": 38.92329216666667, "bike_id": "a9885fcf0c559f1edfd464255c205adf", "fusion_lon": 0.0}, {"rental_uris": {"ios": "https://dc.lft.to/lastmile_qr_scan", "android": "https://dc.lft.to/lastmile_qr_scan"}, "type": "electric_scooter", "name": "8aa899a7f98ccd985aaeeb739921df3d", "is_reserved": 0, "lon": -77.03661116666666, "is_disabled": 0, "fusion_lat": 0.0, "lat": 38.91318016666666, "bike_id": "8aa899a7f98ccd985aaeeb739921df3d", "fusion_lon": 0.0}, {"rental_uris": {"ios": "https://dc.lft.to/lastmile_qr_scan", "android": "https://dc.lft.to/lastmile_qr_scan"}, "type": "electric_scooter", "name": "21c2069a20cf5e77f97e1aab154bb289", "is_reserved": 0, "lon": -77.0126985, "is_disabled": 0, "fusion_lat": 0.0, "lat": 38.8972445, "bike_id": "21c2069a20cf5e77f97e1aab154bb289", "fusion_lon": 0.0}, {"rental_uris": {"ios": "https://dc.lft.to/lastmile_qr_scan", "android": "https://dc.lft.to/lastmile_qr_scan"}, "type": "electric_scooter", "name": "4cb7821a9b732e4ae8a16acff7ea4430", "is_reserved": 0, "lon": -77.01903983333334, "is_disabled": 0, "fusion_lat": 0.0, "lat": 38.937128, "bike_id": "4cb7821a9b732e4ae8a16acff7ea4430", "fusion_lon": 0.0}, {"rental_uris": {"ios": "https://dc.lft.to/lastmile_qr_scan", "android": "https://dc.lft.to/lastmile_qr_scan"}, "type": "electric_scooter", "name": "5a0137fd360d14e72d87e833b2fc9e43", "is_reserved": 0, "lon": -77.01090033333334, "is_disabled": 0, "fusion_lat": 0.0, "lat": 38.89525483333333, "bike_id": "5a0137fd360d14e72d87e833b2fc9e43", "fusion_lon": 0.0}, {"rental_uris": {"ios": "https://dc.lft.to/lastmile_qr_scan", "android": "https://dc.lft.to/lastmile_qr_scan"}, "type": "electric_scooter", "name": "e604561b2bc2b0869f04141d912deca7", "is_reserved": 0, "lon": -77.0467565, "is_disabled": 0, "fusion_lat": 0.0, "lat": 38.9054955, "bike_id": "e604561b2bc2b0869f04141d912deca7", "fusion_lon": 0.0}, {"rental_uris": {"ios": "https://dc.lft.to/lastmile_qr_scan", "android": "https://dc.lft.to/lastmile_qr_scan"}, "type": "electric_scooter", "name": "234b357842691adb8194ece366b77173", "is_reserved": 0, "lon": -77.0376205, "is_disabled": 0, "fusion_lat": 0.0, "lat": 38.9232245, "bike_id": "234b357842691adb8194ece366b77173", "fusion_lon": 0.0}, {"rental_uris": {"ios": "https://dc.lft.to/lastmile_qr_scan", "android": "https://dc.lft.to/lastmile_qr_scan"}, "type": "electric_scooter", "name": "df757bcb26877c7363998c481e090462", "is_reserved": 0, "lon": -77.018607, "is_disabled": 0, "fusion_lat": 0.0, "lat": 38.8946585, "bike_id": "df757bcb26877c7363998c481e090462", "fusion_lon": 0.0}, {"rental_uris": {"ios": "https://dc.lft.to/lastmile_qr_scan", "android": "https://dc.lft.to/lastmile_qr_scan"}, "type": "electric_scooter", "name": "5918f17ecf3eed7b7d2c00516084659a", "is_reserved": 0, "lon": -76.99911816666666, "is_disabled": 0, "fusion_lat": 0.0, "lat": 38.9245495, "bike_id": "5918f17ecf3eed7b7d2c00516084659a", "fusion_lon": 0.0}, {"rental_uris": {"ios": "https://dc.lft.to/lastmile_qr_scan", "android": "https://dc.lft.to/lastmile_qr_scan"}, "type": "electric_scooter", "name": "e86916ba080d792836d064792caf9ee0", "is_reserved": 0, "lon": -77.04363583333334, "is_disabled": 0, "fusion_lat": 0.0, "lat": 38.89215383333333, "bike_id": "e86916ba080d792836d064792caf9ee0", "fusion_lon": 0.0}, {"rental_uris": {"ios": "https://dc.lft.to/lastmile_qr_scan", "android": "https://dc.lft.to/lastmile_qr_scan"}, "type": "electric_scooter", "name": "3e866f7628a4532c65d6c8f381c97375", "is_reserved": 0, "lon": -77.03186783333334, "is_disabled": 0, "fusion_lat": 0.0, "lat": 38.91348, "bike_id": "3e866f7628a4532c65d6c8f381c97375", "fusion_lon": 0.0}, {"rental_uris": {"ios": "https://dc.lft.to/lastmile_qr_scan", "android": "https://dc.lft.to/lastmile_qr_scan"}, "type": "electric_scooter", "name": "10189bfe18f0e034de72de91bc60b283", "is_reserved": 0, "lon": -77.04238933333333, "is_disabled": 0, "fusion_lat": 0.0, "lat": 38.90568066666667, "bike_id": "10189bfe18f0e034de72de91bc60b283", "fusion_lon": 0.0}, {"rental_uris": {"ios": "https://dc.lft.to/lastmile_qr_scan", "android": "https://dc.lft.to/lastmile_qr_scan"}, "type": "electric_scooter", "name": "7b4dab1f9e6d43fd40d6368ddb1679e4", "is_reserved": 0, "lon": -77.01042616666666, "is_disabled": 0, "fusion_lat": 0.0, "lat": 38.911017666666666, "bike_id": "7b4dab1f9e6d43fd40d6368ddb1679e4", "fusion_lon": 0.0}, {"rental_uris": {"ios": "https://dc.lft.to/lastmile_qr_scan", "android": "https://dc.lft.to/lastmile_qr_scan"}, "type": "electric_scooter", "name": "71fb2778c552c66fe265fb67a4fddf11", "is_reserved": 0, "lon": -77.0020205, "is_disabled": 0, "fusion_lat": 0.0, "lat": 38.89285433333333, "bike_id": "71fb2778c552c66fe265fb67a4fddf11", "fusion_lon": 0.0}, {"rental_uris": {"ios": "https://dc.lft.to/lastmile_qr_scan", "android": "https://dc.lft.to/lastmile_qr_scan"}, "type": "electric_bike", "name": "baf915dc14f750b3463a4b8f4af7df63", "is_reserved": 0, "lon": -77.00767083333334, "is_disabled": 0, "fusion_lat": 0.0, "lat": 38.997820833333336, "bike_id": "baf915dc14f750b3463a4b8f4af7df63", "fusion_lon": 0.0}, {"rental_uris": {"ios": "https://dc.lft.to/lastmile_qr_scan", "android": "https://dc.lft.to/lastmile_qr_scan"}, "type": "electric_bike", "name": "164a216b5967228f51098ae5e413a477", "is_reserved": 0, "lon": -77.032851, "is_disabled": 0, "fusion_lat": 0.0, "lat": 38.93565, "bike_id": "164a216b5967228f51098ae5e413a477", "fusion_lon": 0.0}, {"rental_uris": {"ios": "https://dc.lft.to/lastmile_qr_scan", "android": "https://dc.lft.to/lastmile_qr_scan"}, "type": "electric_scooter", "name": "ab7b1e7fdaf4634d5e8e71fa551fe0fb", "is_reserved": 0, "lon": -76.93425983333333, "is_disabled": 0, "fusion_lat": 0.0, "lat": 38.89913116666666, "bike_id": "ab7b1e7fdaf4634d5e8e71fa551fe0fb", "fusion_lon": 0.0}, {"rental_uris": {"ios": "https://dc.lft.to/lastmile_qr_scan", "android": "https://dc.lft.to/lastmile_qr_scan"}, "type": "electric_scooter", "name": "c0826bc696303b128d7ba1802512a2a7", "is_reserved": 0, "lon": -76.9949305, "is_disabled": 0, "fusion_lat": 0.0, "lat": 38.862143, "bike_id": "c0826bc696303b128d7ba1802512a2a7", "fusion_lon": 0.0}, {"rental_uris": {"ios": "https://dc.lft.to/lastmile_qr_scan", "android": "https://dc.lft.to/lastmile_qr_scan"}, "type": "electric_scooter", "name": "15aaf4a8593ff9e1e96d5974641952c1", "is_reserved": 0, "lon": -76.99569033333333, "is_disabled": 0, "fusion_lat": 0.0, "lat": 38.920242, "bike_id": "15aaf4a8593ff9e1e96d5974641952c1", "fusion_lon": 0.0}, {"rental_uris": {"ios": "https://dc.lft.to/lastmile_qr_scan", "android": "https://dc.lft.to/lastmile_qr_scan"}, "type": "electric_scooter", "name": "0f294738498a429600b05ef255d4d7e1", "is_reserved": 0, "lon": -77.02889683333333, "is_disabled": 0, "fusion_lat": 0.0, "lat": 38.91683966666667, "bike_id": "0f294738498a429600b05ef255d4d7e1", "fusion_lon": 0.0}, {"rental_uris": {"ios": "https://dc.lft.to/lastmile_qr_scan", "android": "https://dc.lft.to/lastmile_qr_scan"}, "type": "electric_scooter", "name": "55d79785819b70557e151898b9900cda", "is_reserved": 0, "lon": -77.04495333333334, "is_disabled": 0, "fusion_lat": 0.0, "lat": 38.914381666666664, "bike_id": "55d79785819b70557e151898b9900cda", "fusion_lon": 0.0}, {"rental_uris": {"ios": "https://dc.lft.to/lastmile_qr_scan", "android": "https://dc.lft.to/lastmile_qr_scan"}, "type": "electric_scooter", "name": "bad8bba30b9dfb9b749854bcb1802b15", "is_reserved": 0, "lon": -77.04547416666666, "is_disabled": 0, "fusion_lat": 0.0, "lat": 38.9338725, "bike_id": "bad8bba30b9dfb9b749854bcb1802b15", "fusion_lon": 0.0}, {"rental_uris": {"ios": "https://dc.lft.to/lastmile_qr_scan", "android": "https://dc.lft.to/lastmile_qr_scan"}, "type": "electric_scooter", "name": "c7ada4e685d0629f4380871534ccdaed", "is_reserved": 0, "lon": -77.01986566666666, "is_disabled": 0, "fusion_lat": 0.0, "lat": 38.88717483333333, "bike_id": "c7ada4e685d0629f4380871534ccdaed", "fusion_lon": 0.0}, {"rental_uris": {"ios": "https://dc.lft.to/lastmile_qr_scan", "android": "https://dc.lft.to/lastmile_qr_scan"}, "type": "electric_scooter", "name": "cf9b35f5f496a0662916a1a1bafa86c0", "is_reserved": 0, "lon": -77.03201116666666, "is_disabled": 0, "fusion_lat": 0.0, "lat": 38.92015816666667, "bike_id": "cf9b35f5f496a0662916a1a1bafa86c0", "fusion_lon": 0.0}, {"rental_uris": {"ios": "https://dc.lft.to/lastmile_qr_scan", "android": "https://dc.lft.to/lastmile_qr_scan"}, "type": "electric_scooter", "name": "ed35132c2dbac48bb45e665e7fad9902", "is_reserved": 0, "lon": -77.03551766666666, "is_disabled": 0, "fusion_lat": 0.0, "lat": 38.91889233333333, "bike_id": "ed35132c2dbac48bb45e665e7fad9902", "fusion_lon": 0.0}, {"rental_uris": {"ios": "https://dc.lft.to/lastmile_qr_scan", "android": "https://dc.lft.to/lastmile_qr_scan"}, "type": "electric_scooter", "name": "a7005fe7e913a5f3f14a2e2bfb64e4e2", "is_reserved": 0, "lon": -77.01770866666666, "is_disabled": 0, "fusion_lat": 0.0, "lat": 38.887253, "bike_id": "a7005fe7e913a5f3f14a2e2bfb64e4e2", "fusion_lon": 0.0}, {"rental_uris": {"ios": "https://dc.lft.to/lastmile_qr_scan", "android": "https://dc.lft.to/lastmile_qr_scan"}, "type": "electric_scooter", "name": "fe32df5afa72fccf15d2b29fd246fd21", "is_reserved": 0, "lon": -77.03959533333334, "is_disabled": 0, "fusion_lat": 0.0, "lat": 38.893325, "bike_id": "fe32df5afa72fccf15d2b29fd246fd21", "fusion_lon": 0.0}, {"rental_uris": {"ios": "https://dc.lft.to/lastmile_qr_scan", "android": "https://dc.lft.to/lastmile_qr_scan"}, "type": "electric_scooter", "name": "3caee200881b55f0cb088ef16cc6c9c2", "is_reserved": 0, "lon": -77.02812933333334, "is_disabled": 0, "fusion_lat": 0.0, "lat": 38.89982466666667, "bike_id": "3caee200881b55f0cb088ef16cc6c9c2", "fusion_lon": 0.0}, {"rental_uris": {"ios": "https://dc.lft.to/lastmile_qr_scan", "android": "https://dc.lft.to/lastmile_qr_scan"}, "type": "electric_scooter", "name": "c73f3cda868e9d441e8ba276bc9ad28e", "is_reserved": 0, "lon": -77.03903666666666, "is_disabled": 0, "fusion_lat": 0.0, "lat": 38.91263933333333, "bike_id": "c73f3cda868e9d441e8ba276bc9ad28e", "fusion_lon": 0.0}, {"rental_uris": {"ios": "https://dc.lft.to/lastmile_qr_scan", "android": "https://dc.lft.to/lastmile_qr_scan"}, "type": "electric_scooter", "name": "9c5b4b878b3c28e625129e9f60ee49bb", "is_reserved": 0, "lon": -77.0270495, "is_disabled": 0, "fusion_lat": 0.0, "lat": 38.904506833333336, "bike_id": "9c5b4b878b3c28e625129e9f60ee49bb", "fusion_lon": 0.0}, {"rental_uris": {"ios": "https://dc.lft.to/lastmile_qr_scan", "android": "https://dc.lft.to/lastmile_qr_scan"}, "type": "electric_scooter", "name": "0be85561dac482da3deea608660ee150", "is_reserved": 0, "lon": -77.06421166666667, "is_disabled": 0, "fusion_lat": 0.0, "lat": 38.913986666666666, "bike_id": "0be85561dac482da3deea608660ee150", "fusion_lon": 0.0}, {"rental_uris": {"ios": "https://dc.lft.to/lastmile_qr_scan", "android": "https://dc.lft.to/lastmile_qr_scan"}, "type": "electric_scooter", "name": "87cf8de807fdbea80d32fc1f9ee5c178", "is_reserved": 0, "lon": -77.02068466666667, "is_disabled": 0, "fusion_lat": 0.0, "lat": 38.93112966666666, "bike_id": "87cf8de807fdbea80d32fc1f9ee5c178", "fusion_lon": 0.0}, {"rental_uris": {"ios": "https://dc.lft.to/lastmile_qr_scan", "android": "https://dc.lft.to/lastmile_qr_scan"}, "type": "electric_scooter", "name": "f08832dee27ebcd406ac245d77a2e69d", "is_reserved": 0, "lon": -77.02954966666667, "is_disabled": 0, "fusion_lat": 0.0, "lat": 38.905047, "bike_id": "f08832dee27ebcd406ac245d77a2e69d", "fusion_lon": 0.0}, {"rental_uris": {"ios": "https://dc.lft.to/lastmile_qr_scan", "android": "https://dc.lft.to/lastmile_qr_scan"}, "type": "electric_scooter", "name": "e9cfd112362bac0f444fe80388d978e4", "is_reserved": 0, "lon": -77.04210266666666, "is_disabled": 0, "fusion_lat": 0.0, "lat": 38.903763, "bike_id": "e9cfd112362bac0f444fe80388d978e4", "fusion_lon": 0.0}, {"rental_uris": {"ios": "https://dc.lft.to/lastmile_qr_scan", "android": "https://dc.lft.to/lastmile_qr_scan"}, "type": "electric_scooter", "name": "9f9f83967518e7ddf1240c3585869bb6", "is_reserved": 0, "lon": -77.00985766666666, "is_disabled": 0, "fusion_lat": 0.0, "lat": 38.90551983333334, "bike_id": "9f9f83967518e7ddf1240c3585869bb6", "fusion_lon": 0.0}, {"rental_uris": {"ios": "https://dc.lft.to/lastmile_qr_scan", "android": "https://dc.lft.to/lastmile_qr_scan"}, "type": "electric_scooter", "name": "c240bc762152408a1a2adca51b262412", "is_reserved": 0, "lon": -77.00557183333333, "is_disabled": 0, "fusion_lat": 0.0, "lat": 38.87466833333333, "bike_id": "c240bc762152408a1a2adca51b262412", "fusion_lon": 0.0}, {"rental_uris": {"ios": "https://dc.lft.to/lastmile_qr_scan", "android": "https://dc.lft.to/lastmile_qr_scan"}, "type": "electric_scooter", "name": "a6425a22d9157082045ead1942481b48", "is_reserved": 0, "lon": -77.02476666666666, "is_disabled": 0, "fusion_lat": 0.0, "lat": 38.9181705, "bike_id": "a6425a22d9157082045ead1942481b48", "fusion_lon": 0.0}, {"rental_uris": {"ios": "https://dc.lft.to/lastmile_qr_scan", "android": "https://dc.lft.to/lastmile_qr_scan"}, "type": "electric_scooter", "name": "25d572a81fcd8f72b663d5ecac4aacda", "is_reserved": 0, "lon": -77.00886733333333, "is_disabled": 0, "fusion_lat": 0.0, "lat": 38.91711633333333, "bike_id": "25d572a81fcd8f72b663d5ecac4aacda", "fusion_lon": 0.0}, {"rental_uris": {"ios": "https://dc.lft.to/lastmile_qr_scan", "android": "https://dc.lft.to/lastmile_qr_scan"}, "type": "electric_scooter", "name": "5c967ca55335538e6df444a7199e8cb7", "is_reserved": 0, "lon": -77.03068066666667, "is_disabled": 0, "fusion_lat": 0.0, "lat": 38.9345085, "bike_id": "5c967ca55335538e6df444a7199e8cb7", "fusion_lon": 0.0}, {"rental_uris": {"ios": "https://dc.lft.to/lastmile_qr_scan", "android": "https://dc.lft.to/lastmile_qr_scan"}, "type": "electric_scooter", "name": "b87dd895e339a964726ef73522bdd6b2", "is_reserved": 0, "lon": -76.9370185, "is_disabled": 0, "fusion_lat": 0.0, "lat": 38.890182833333334, "bike_id": "b87dd895e339a964726ef73522bdd6b2", "fusion_lon": 0.0}, {"rental_uris": {"ios": "https://dc.lft.to/lastmile_qr_scan", "android": "https://dc.lft.to/lastmile_qr_scan"}, "type": "electric_scooter", "name": "9be3acfcaa8a8eb2951b587260c0caa9", "is_reserved": 0, "lon": -77.031933, "is_disabled": 0, "fusion_lat": 0.0, "lat": 38.9082915, "bike_id": "9be3acfcaa8a8eb2951b587260c0caa9", "fusion_lon": 0.0}, {"rental_uris": {"ios": "https://dc.lft.to/lastmile_qr_scan", "android": "https://dc.lft.to/lastmile_qr_scan"}, "type": "electric_scooter", "name": "61444950d1a70d84953bc762a76afb5a", "is_reserved": 0, "lon": -77.022238, "is_disabled": 0, "fusion_lat": 0.0, "lat": 38.920841333333335, "bike_id": "61444950d1a70d84953bc762a76afb5a", "fusion_lon": 0.0}, {"rental_uris": {"ios": "https://dc.lft.to/lastmile_qr_scan", "android": "https://dc.lft.to/lastmile_qr_scan"}, "type": "electric_scooter", "name": "75f5ccfce103bbf474bfca43ae6a41f0", "is_reserved": 0, "lon": -76.99422016666666, "is_disabled": 0, "fusion_lat": 0.0, "lat": 38.91685833333333, "bike_id": "75f5ccfce103bbf474bfca43ae6a41f0", "fusion_lon": 0.0}, {"rental_uris": {"ios": "https://dc.lft.to/lastmile_qr_scan", "android": "https://dc.lft.to/lastmile_qr_scan"}, "type": "electric_scooter", "name": "17728a35d032d12afddcfd1f6538650e", "is_reserved": 0, "lon": -77.02604683333334, "is_disabled": 0, "fusion_lat": 0.0, "lat": 38.89304666666666, "bike_id": "17728a35d032d12afddcfd1f6538650e", "fusion_lon": 0.0}, {"rental_uris": {"ios": "https://dc.lft.to/lastmile_qr_scan", "android": "https://dc.lft.to/lastmile_qr_scan"}, "type": "electric_scooter", "name": "a9f2d252f68f96d0b49cc1812a8f072b", "is_reserved": 0, "lon": -77.03794766666667, "is_disabled": 0, "fusion_lat": 0.0, "lat": 38.91539, "bike_id": "a9f2d252f68f96d0b49cc1812a8f072b", "fusion_lon": 0.0}, {"rental_uris": {"ios": "https://dc.lft.to/lastmile_qr_scan", "android": "https://dc.lft.to/lastmile_qr_scan"}, "type": "electric_scooter", "name": "d433563f8989a8675de672d7c0d6b29e", "is_reserved": 0, "lon": -77.02420316666667, "is_disabled": 0, "fusion_lat": 0.0, "lat": 38.9032005, "bike_id": "d433563f8989a8675de672d7c0d6b29e", "fusion_lon": 0.0}, {"rental_uris": {"ios": "https://dc.lft.to/lastmile_qr_scan", "android": "https://dc.lft.to/lastmile_qr_scan"}, "type": "electric_scooter", "name": "e9ef901de5b9bc1ff592fc9daa714ee7", "is_reserved": 0, "lon": -77.03214783333334, "is_disabled": 0, "fusion_lat": 0.0, "lat": 38.9096015, "bike_id": "e9ef901de5b9bc1ff592fc9daa714ee7", "fusion_lon": 0.0}, {"rental_uris": {"ios": "https://dc.lft.to/lastmile_qr_scan", "android": "https://dc.lft.to/lastmile_qr_scan"}, "type": "electric_scooter", "name": "c006a17fd7eeb839ba37af80d768fc72", "is_reserved": 0, "lon": -77.04730616666667, "is_disabled": 0, "fusion_lat": 0.0, "lat": 38.89546766666667, "bike_id": "c006a17fd7eeb839ba37af80d768fc72", "fusion_lon": 0.0}, {"rental_uris": {"ios": "https://dc.lft.to/lastmile_qr_scan", "android": "https://dc.lft.to/lastmile_qr_scan"}, "type": "electric_scooter", "name": "2ca32c3189502890bfb5282e1b8ba91d", "is_reserved": 0, "lon": -77.0160305, "is_disabled": 0, "fusion_lat": 0.0, "lat": 38.91004916666667, "bike_id": "2ca32c3189502890bfb5282e1b8ba91d", "fusion_lon": 0.0}, {"rental_uris": {"ios": "https://dc.lft.to/lastmile_qr_scan", "android": "https://dc.lft.to/lastmile_qr_scan"}, "type": "electric_scooter", "name": "317a127e59ed7908d4e4f99a5f1b3272", "is_reserved": 0, "lon": -77.020915, "is_disabled": 0, "fusion_lat": 0.0, "lat": 38.929036833333335, "bike_id": "317a127e59ed7908d4e4f99a5f1b3272", "fusion_lon": 0.0}, {"rental_uris": {"ios": "https://dc.lft.to/lastmile_qr_scan", "android": "https://dc.lft.to/lastmile_qr_scan"}, "type": "electric_scooter", "name": "cfe4240fe9e485347f2ec0d4d62a7b4f", "is_reserved": 0, "lon": -77.04520683333334, "is_disabled": 0, "fusion_lat": 0.0, "lat": 38.91815733333333, "bike_id": "cfe4240fe9e485347f2ec0d4d62a7b4f", "fusion_lon": 0.0}, {"rental_uris": {"ios": "https://dc.lft.to/lastmile_qr_scan", "android": "https://dc.lft.to/lastmile_qr_scan"}, "type": "electric_scooter", "name": "81d26d67180fed7ca08cf6c9915e31c2", "is_reserved": 0, "lon": -77.03184, "is_disabled": 0, "fusion_lat": 0.0, "lat": 38.920057, "bike_id": "81d26d67180fed7ca08cf6c9915e31c2", "fusion_lon": 0.0}, {"rental_uris": {"ios": "https://dc.lft.to/lastmile_qr_scan", "android": "https://dc.lft.to/lastmile_qr_scan"}, "type": "electric_scooter", "name": "103c66328f6f712e45d4ba6b7207d41f", "is_reserved": 0, "lon": -77.0415745, "is_disabled": 0, "fusion_lat": 0.0, "lat": 38.91571716666667, "bike_id": "103c66328f6f712e45d4ba6b7207d41f", "fusion_lon": 0.0}, {"rental_uris": {"ios": "https://dc.lft.to/lastmile_qr_scan", "android": "https://dc.lft.to/lastmile_qr_scan"}, "type": "electric_scooter", "name": "7c7081e03d69e0da3d206202ad36d281", "is_reserved": 0, "lon": -77.03968133333333, "is_disabled": 0, "fusion_lat": 0.0, "lat": 38.931510333333335, "bike_id": "7c7081e03d69e0da3d206202ad36d281", "fusion_lon": 0.0}, {"rental_uris": {"ios": "https://dc.lft.to/lastmile_qr_scan", "android": "https://dc.lft.to/lastmile_qr_scan"}, "type": "electric_scooter", "name": "744bf70638f4a611d1e8e9ec8d4e9173", "is_reserved": 0, "lon": -77.01075666666667, "is_disabled": 0, "fusion_lat": 0.0, "lat": 38.9118625, "bike_id": "744bf70638f4a611d1e8e9ec8d4e9173", "fusion_lon": 0.0}, {"rental_uris": {"ios": "https://dc.lft.to/lastmile_qr_scan", "android": "https://dc.lft.to/lastmile_qr_scan"}, "type": "electric_scooter", "name": "d992016de7e003dec7a853e2c5fcd9af", "is_reserved": 0, "lon": -77.045595, "is_disabled": 0, "fusion_lat": 0.0, "lat": 38.918279166666665, "bike_id": "d992016de7e003dec7a853e2c5fcd9af", "fusion_lon": 0.0}, {"rental_uris": {"ios": "https://dc.lft.to/lastmile_qr_scan", "android": "https://dc.lft.to/lastmile_qr_scan"}, "type": "electric_scooter", "name": "b500976b513ea7d9d8ae20b57d060568", "is_reserved": 0, "lon": -77.04670216666666, "is_disabled": 0, "fusion_lat": 0.0, "lat": 38.896198, "bike_id": "b500976b513ea7d9d8ae20b57d060568", "fusion_lon": 0.0}, {"rental_uris": {"ios": "https://dc.lft.to/lastmile_qr_scan", "android": "https://dc.lft.to/lastmile_qr_scan"}, "type": "electric_scooter", "name": "4319338bc46e886d5323cdd9b541a52b", "is_reserved": 0, "lon": -77.03247783333333, "is_disabled": 0, "fusion_lat": 0.0, "lat": 38.91711083333333, "bike_id": "4319338bc46e886d5323cdd9b541a52b", "fusion_lon": 0.0}, {"rental_uris": {"ios": "https://dc.lft.to/lastmile_qr_scan", "android": "https://dc.lft.to/lastmile_qr_scan"}, "type": "electric_scooter", "name": "5c134a0847bbdb88e9ec5910982c678f", "is_reserved": 0, "lon": -77.02414566666667, "is_disabled": 0, "fusion_lat": 0.0, "lat": 38.92993466666667, "bike_id": "5c134a0847bbdb88e9ec5910982c678f", "fusion_lon": 0.0}, {"rental_uris": {"ios": "https://dc.lft.to/lastmile_qr_scan", "android": "https://dc.lft.to/lastmile_qr_scan"}, "type": "electric_bike", "name": "9aa334be04453cca31e6b745a7a5522f", "is_reserved": 0, "lon": -77.06949916666667, "is_disabled": 0, "fusion_lat": 0.0, "lat": 38.83623433333333, "bike_id": "9aa334be04453cca31e6b745a7a5522f", "fusion_lon": 0.0}, {"rental_uris": {"ios": "https://dc.lft.to/lastmile_qr_scan", "android": "https://dc.lft.to/lastmile_qr_scan"}, "type": "electric_scooter", "name": "9ad30c301dbea5672a4895dd8f201fb4", "is_reserved": 0, "lon": -77.0070805, "is_disabled": 0, "fusion_lat": 0.0, "lat": 38.877090833333334, "bike_id": "9ad30c301dbea5672a4895dd8f201fb4", "fusion_lon": 0.0}, {"rental_uris": {"ios": "https://dc.lft.to/lastmile_qr_scan", "android": "https://dc.lft.to/lastmile_qr_scan"}, "type": "electric_scooter", "name": "280d29c0b779d2ea5318f0fd60da0cd8", "is_reserved": 0, "lon": -77.0482005, "is_disabled": 0, "fusion_lat": 0.0, "lat": 38.91489583333333, "bike_id": "280d29c0b779d2ea5318f0fd60da0cd8", "fusion_lon": 0.0}, {"rental_uris": {"ios": "https://dc.lft.to/lastmile_qr_scan", "android": "https://dc.lft.to/lastmile_qr_scan"}, "type": "electric_scooter", "name": "be0159fa44f6a3c24449d075c6b4bbba", "is_reserved": 0, "lon": -76.9918095, "is_disabled": 0, "fusion_lat": 0.0, "lat": 38.90502583333333, "bike_id": "be0159fa44f6a3c24449d075c6b4bbba", "fusion_lon": 0.0}, {"rental_uris": {"ios": "https://dc.lft.to/lastmile_qr_scan", "android": "https://dc.lft.to/lastmile_qr_scan"}, "type": "electric_bike", "name": "dbb30cb35a1e4500eddc108b50b09de1", "is_reserved": 0, "lon": -76.9935305, "is_disabled": 0, "fusion_lat": 0.0, "lat": 38.845058333333334, "bike_id": "dbb30cb35a1e4500eddc108b50b09de1", "fusion_lon": 0.0}, {"rental_uris": {"ios": "https://dc.lft.to/lastmile_qr_scan", "android": "https://dc.lft.to/lastmile_qr_scan"}, "type": "electric_scooter", "name": "879769dad75cbb4d1b78988417221b86", "is_reserved": 0, "lon": -77.0467575, "is_disabled": 0, "fusion_lat": 0.0, "lat": 38.90547483333334, "bike_id": "879769dad75cbb4d1b78988417221b86", "fusion_lon": 0.0}, {"rental_uris": {"ios": "https://dc.lft.to/lastmile_qr_scan", "android": "https://dc.lft.to/lastmile_qr_scan"}, "type": "electric_scooter", "name": "535d89fe3c060b9a193d1759fdc0e4a7", "is_reserved": 0, "lon": -76.99589766666666, "is_disabled": 0, "fusion_lat": 0.0, "lat": 38.90939733333333, "bike_id": "535d89fe3c060b9a193d1759fdc0e4a7", "fusion_lon": 0.0}, {"rental_uris": {"ios": "https://dc.lft.to/lastmile_qr_scan", "android": "https://dc.lft.to/lastmile_qr_scan"}, "type": "electric_scooter", "name": "5e5b1c4a3a21669cb28f3f41d64eee86", "is_reserved": 0, "lon": -76.973306, "is_disabled": 0, "fusion_lat": 0.0, "lat": 38.90407833333333, "bike_id": "5e5b1c4a3a21669cb28f3f41d64eee86", "fusion_lon": 0.0}, {"rental_uris": {"ios": "https://dc.lft.to/lastmile_qr_scan", "android": "https://dc.lft.to/lastmile_qr_scan"}, "type": "electric_scooter", "name": "6295d24c14d3673342a2bee21346f9b1", "is_reserved": 0, "lon": -77.02415383333333, "is_disabled": 0, "fusion_lat": 0.0, "lat": 38.90958233333333, "bike_id": "6295d24c14d3673342a2bee21346f9b1", "fusion_lon": 0.0}, {"rental_uris": {"ios": "https://dc.lft.to/lastmile_qr_scan", "android": "https://dc.lft.to/lastmile_qr_scan"}, "type": "electric_scooter", "name": "fe6cd8c6a8006a096bae0283f9358b54", "is_reserved": 0, "lon": -76.965643, "is_disabled": 0, "fusion_lat": 0.0, "lat": 38.876074333333335, "bike_id": "fe6cd8c6a8006a096bae0283f9358b54", "fusion_lon": 0.0}, {"rental_uris": {"ios": "https://dc.lft.to/lastmile_qr_scan", "android": "https://dc.lft.to/lastmile_qr_scan"}, "type": "electric_scooter", "name": "2b2fca271e606bc74e15fad7bf7a8333", "is_reserved": 0, "lon": -76.94385216666667, "is_disabled": 0, "fusion_lat": 0.0, "lat": 38.89115866666667, "bike_id": "2b2fca271e606bc74e15fad7bf7a8333", "fusion_lon": 0.0}, {"rental_uris": {"ios": "https://dc.lft.to/lastmile_qr_scan", "android": "https://dc.lft.to/lastmile_qr_scan"}, "type": "electric_scooter", "name": "ad653767f171ee06b0f8392f3f4783f2", "is_reserved": 0, "lon": -77.03657866666667, "is_disabled": 0, "fusion_lat": 0.0, "lat": 38.92282616666667, "bike_id": "ad653767f171ee06b0f8392f3f4783f2", "fusion_lon": 0.0}, {"rental_uris": {"ios": "https://dc.lft.to/lastmile_qr_scan", "android": "https://dc.lft.to/lastmile_qr_scan"}, "type": "electric_scooter", "name": "45c5f04e5000e4cb5b862a06d96318de", "is_reserved": 0, "lon": -77.07069433333334, "is_disabled": 0, "fusion_lat": 0.0, "lat": 38.89722883333334, "bike_id": "45c5f04e5000e4cb5b862a06d96318de", "fusion_lon": 0.0}, {"rental_uris": {"ios": "https://dc.lft.to/lastmile_qr_scan", "android": "https://dc.lft.to/lastmile_qr_scan"}, "type": "electric_scooter", "name": "23df5f55767477a97bb1f2b23fedc5ed", "is_reserved": 0, "lon": -77.03812983333333, "is_disabled": 0, "fusion_lat": 0.0, "lat": 38.915514333333334, "bike_id": "23df5f55767477a97bb1f2b23fedc5ed", "fusion_lon": 0.0}, {"rental_uris": {"ios": "https://dc.lft.to/lastmile_qr_scan", "android": "https://dc.lft.to/lastmile_qr_scan"}, "type": "electric_bike", "name": "a152a46a901b1d815eb8908cefdd6073", "is_reserved": 0, "lon": -77.07013766666667, "is_disabled": 0, "fusion_lat": 0.0, "lat": 38.841088166666665, "bike_id": "a152a46a901b1d815eb8908cefdd6073", "fusion_lon": 0.0}, {"rental_uris": {"ios": "https://dc.lft.to/lastmile_qr_scan", "android": "https://dc.lft.to/lastmile_qr_scan"}, "type": "electric_scooter", "name": "2dc6cf205b03fa527562b0d6c4bf9258", "is_reserved": 0, "lon": -77.04405116666666, "is_disabled": 0, "fusion_lat": 0.0, "lat": 38.929534333333336, "bike_id": "2dc6cf205b03fa527562b0d6c4bf9258", "fusion_lon": 0.0}, {"rental_uris": {"ios": "https://dc.lft.to/lastmile_qr_scan", "android": "https://dc.lft.to/lastmile_qr_scan"}, "type": "electric_scooter", "name": "e42d1a6f94387d5982f30a21d9e59d0b", "is_reserved": 0, "lon": -77.0532075, "is_disabled": 0, "fusion_lat": 0.0, "lat": 38.90269033333333, "bike_id": "e42d1a6f94387d5982f30a21d9e59d0b", "fusion_lon": 0.0}, {"rental_uris": {"ios": "https://dc.lft.to/lastmile_qr_scan", "android": "https://dc.lft.to/lastmile_qr_scan"}, "type": "electric_scooter", "name": "e75b087dd24df142d30455e4e38f4ac0", "is_reserved": 0, "lon": -77.04084616666667, "is_disabled": 0, "fusion_lat": 0.0, "lat": 38.947902666666664, "bike_id": "e75b087dd24df142d30455e4e38f4ac0", "fusion_lon": 0.0}, {"rental_uris": {"ios": "https://dc.lft.to/lastmile_qr_scan", "android": "https://dc.lft.to/lastmile_qr_scan"}, "type": "electric_scooter", "name": "e72e542b8448d6d420b7b742a88aeb02", "is_reserved": 0, "lon": -77.04222066666667, "is_disabled": 0, "fusion_lat": 0.0, "lat": 38.91119233333333, "bike_id": "e72e542b8448d6d420b7b742a88aeb02", "fusion_lon": 0.0}, {"rental_uris": {"ios": "https://dc.lft.to/lastmile_qr_scan", "android": "https://dc.lft.to/lastmile_qr_scan"}, "type": "electric_scooter", "name": "fb1f678ac7e02063609d750ef07b69d2", "is_reserved": 0, "lon": -77.03432033333333, "is_disabled": 0, "fusion_lat": 0.0, "lat": 38.90553933333333, "bike_id": "fb1f678ac7e02063609d750ef07b69d2", "fusion_lon": 0.0}, {"rental_uris": {"ios": "https://dc.lft.to/lastmile_qr_scan", "android": "https://dc.lft.to/lastmile_qr_scan"}, "type": "electric_scooter", "name": "d85bef33283fe8bcc586415a9296cc23", "is_reserved": 0, "lon": -77.03876433333333, "is_disabled": 0, "fusion_lat": 0.0, "lat": 38.903542333333334, "bike_id": "d85bef33283fe8bcc586415a9296cc23", "fusion_lon": 0.0}, {"rental_uris": {"ios": "https://dc.lft.to/lastmile_qr_scan", "android": "https://dc.lft.to/lastmile_qr_scan"}, "type": "electric_scooter", "name": "d7ef2eda86c6ac8c51a02837c608a06a", "is_reserved": 0, "lon": -77.02574766666666, "is_disabled": 0, "fusion_lat": 0.0, "lat": 38.88421316666667, "bike_id": "d7ef2eda86c6ac8c51a02837c608a06a", "fusion_lon": 0.0}, {"rental_uris": {"ios": "https://dc.lft.to/lastmile_qr_scan", "android": "https://dc.lft.to/lastmile_qr_scan"}, "type": "electric_scooter", "name": "c68dc6d17ffcebd0bb2868112101e4e7", "is_reserved": 0, "lon": -77.0403275, "is_disabled": 0, "fusion_lat": 0.0, "lat": 38.92163683333333, "bike_id": "c68dc6d17ffcebd0bb2868112101e4e7", "fusion_lon": 0.0}, {"rental_uris": {"ios": "https://dc.lft.to/lastmile_qr_scan", "android": "https://dc.lft.to/lastmile_qr_scan"}, "type": "electric_scooter", "name": "a907fbe08e6f3dedd797eee867236019", "is_reserved": 0, "lon": -77.04367483333333, "is_disabled": 0, "fusion_lat": 0.0, "lat": 38.897260833333334, "bike_id": "a907fbe08e6f3dedd797eee867236019", "fusion_lon": 0.0}, {"rental_uris": {"ios": "https://dc.lft.to/lastmile_qr_scan", "android": "https://dc.lft.to/lastmile_qr_scan"}, "type": "electric_scooter", "name": "8d3c9db3b1fd3938b27c72d64351acfe", "is_reserved": 0, "lon": -77.03395866666666, "is_disabled": 0, "fusion_lat": 0.0, "lat": 38.9240095, "bike_id": "8d3c9db3b1fd3938b27c72d64351acfe", "fusion_lon": 0.0}, {"rental_uris": {"ios": "https://dc.lft.to/lastmile_qr_scan", "android": "https://dc.lft.to/lastmile_qr_scan"}, "type": "electric_bike", "name": "a99b4692966fb5e1bcccfaa60d0d921f", "is_reserved": 0, "lon": -76.980107, "is_disabled": 0, "fusion_lat": 0.0, "lat": 38.8531815, "bike_id": "a99b4692966fb5e1bcccfaa60d0d921f", "fusion_lon": 0.0}, {"rental_uris": {"ios": "https://dc.lft.to/lastmile_qr_scan", "android": "https://dc.lft.to/lastmile_qr_scan"}, "type": "electric_scooter", "name": "944ee130af89eb00c9c7a367d0ee4809", "is_reserved": 0, "lon": -77.02432233333333, "is_disabled": 0, "fusion_lat": 0.0, "lat": 38.920544666666665, "bike_id": "944ee130af89eb00c9c7a367d0ee4809", "fusion_lon": 0.0}, {"rental_uris": {"ios": "https://dc.lft.to/lastmile_qr_scan", "android": "https://dc.lft.to/lastmile_qr_scan"}, "type": "electric_scooter", "name": "81935de4fde4097c9431773f6e8b217b", "is_reserved": 0, "lon": -77.02483866666667, "is_disabled": 0, "fusion_lat": 0.0, "lat": 38.93515416666666, "bike_id": "81935de4fde4097c9431773f6e8b217b", "fusion_lon": 0.0}, {"rental_uris": {"ios": "https://dc.lft.to/lastmile_qr_scan", "android": "https://dc.lft.to/lastmile_qr_scan"}, "type": "electric_scooter", "name": "61b84d01caa204ae4ba75313b148ebec", "is_reserved": 0, "lon": -77.00750633333334, "is_disabled": 0, "fusion_lat": 0.0, "lat": 38.91108916666666, "bike_id": "61b84d01caa204ae4ba75313b148ebec", "fusion_lon": 0.0}, {"rental_uris": {"ios": "https://dc.lft.to/lastmile_qr_scan", "android": "https://dc.lft.to/lastmile_qr_scan"}, "type": "electric_scooter", "name": "32108b8bac54daf8cd2e29994c25b012", "is_reserved": 0, "lon": -76.940698, "is_disabled": 0, "fusion_lat": 0.0, "lat": 38.885819166666664, "bike_id": "32108b8bac54daf8cd2e29994c25b012", "fusion_lon": 0.0}, {"rental_uris": {"ios": "https://dc.lft.to/lastmile_qr_scan", "android": "https://dc.lft.to/lastmile_qr_scan"}, "type": "electric_scooter", "name": "7bffaaa23f5874f5da9714b7fb29538f", "is_reserved": 0, "lon": -77.03265783333333, "is_disabled": 0, "fusion_lat": 0.0, "lat": 38.932355666666666, "bike_id": "7bffaaa23f5874f5da9714b7fb29538f", "fusion_lon": 0.0}, {"rental_uris": {"ios": "https://dc.lft.to/lastmile_qr_scan", "android": "https://dc.lft.to/lastmile_qr_scan"}, "type": "electric_scooter", "name": "9456c41b5464cda5e4932959a5f0de40", "is_reserved": 0, "lon": -77.02551766666667, "is_disabled": 0, "fusion_lat": 0.0, "lat": 38.95167416666666, "bike_id": "9456c41b5464cda5e4932959a5f0de40", "fusion_lon": 0.0}, {"rental_uris": {"ios": "https://dc.lft.to/lastmile_qr_scan", "android": "https://dc.lft.to/lastmile_qr_scan"}, "type": "electric_scooter", "name": "d21a32bd878e758e2032550319796234", "is_reserved": 0, "lon": -77.01947483333333, "is_disabled": 0, "fusion_lat": 0.0, "lat": 38.92415, "bike_id": "d21a32bd878e758e2032550319796234", "fusion_lon": 0.0}, {"rental_uris": {"ios": "https://dc.lft.to/lastmile_qr_scan", "android": "https://dc.lft.to/lastmile_qr_scan"}, "type": "electric_scooter", "name": "7360def53fbb389c965a6af3aa147aa3", "is_reserved": 0, "lon": -76.995113, "is_disabled": 0, "fusion_lat": 0.0, "lat": 38.909761333333336, "bike_id": "7360def53fbb389c965a6af3aa147aa3", "fusion_lon": 0.0}, {"rental_uris": {"ios": "https://dc.lft.to/lastmile_qr_scan", "android": "https://dc.lft.to/lastmile_qr_scan"}, "type": "electric_scooter", "name": "cfedcf1ab9cf944498fc3b591de90676", "is_reserved": 0, "lon": -77.01757283333333, "is_disabled": 0, "fusion_lat": 0.0, "lat": 38.90267016666667, "bike_id": "cfedcf1ab9cf944498fc3b591de90676", "fusion_lon": 0.0}, {"rental_uris": {"ios": "https://dc.lft.to/lastmile_qr_scan", "android": "https://dc.lft.to/lastmile_qr_scan"}, "type": "electric_scooter", "name": "6a43c9267489d5a7b8ff822a9a825cf7", "is_reserved": 0, "lon": -77.00596366666667, "is_disabled": 0, "fusion_lat": 0.0, "lat": 38.87959633333333, "bike_id": "6a43c9267489d5a7b8ff822a9a825cf7", "fusion_lon": 0.0}, {"rental_uris": {"ios": "https://dc.lft.to/lastmile_qr_scan", "android": "https://dc.lft.to/lastmile_qr_scan"}, "type": "electric_scooter", "name": "067c52648e99aa2e99c4caa19b9bbbff", "is_reserved": 0, "lon": -77.04431183333334, "is_disabled": 0, "fusion_lat": 0.0, "lat": 38.91870016666667, "bike_id": "067c52648e99aa2e99c4caa19b9bbbff", "fusion_lon": 0.0}, {"rental_uris": {"ios": "https://dc.lft.to/lastmile_qr_scan", "android": "https://dc.lft.to/lastmile_qr_scan"}, "type": "electric_scooter", "name": "813ef9a535636f5ef46785586d5b3676", "is_reserved": 0, "lon": -76.95289966666667, "is_disabled": 0, "fusion_lat": 0.0, "lat": 38.88514816666667, "bike_id": "813ef9a535636f5ef46785586d5b3676", "fusion_lon": 0.0}, {"rental_uris": {"ios": "https://dc.lft.to/lastmile_qr_scan", "android": "https://dc.lft.to/lastmile_qr_scan"}, "type": "electric_scooter", "name": "7463db87d6eec2f29766612f3b1106f8", "is_reserved": 0, "lon": -77.03243733333333, "is_disabled": 0, "fusion_lat": 0.0, "lat": 38.919901833333334, "bike_id": "7463db87d6eec2f29766612f3b1106f8", "fusion_lon": 0.0}, {"rental_uris": {"ios": "https://dc.lft.to/lastmile_qr_scan", "android": "https://dc.lft.to/lastmile_qr_scan"}, "type": "electric_scooter", "name": "3314d65fbfa21b80ea0349575a844bcd", "is_reserved": 0, "lon": -77.05279316666666, "is_disabled": 0, "fusion_lat": 0.0, "lat": 38.92555866666667, "bike_id": "3314d65fbfa21b80ea0349575a844bcd", "fusion_lon": 0.0}, {"rental_uris": {"ios": "https://dc.lft.to/lastmile_qr_scan", "android": "https://dc.lft.to/lastmile_qr_scan"}, "type": "electric_scooter", "name": "b9f70fab47d5213a9ba5e8809c279f89", "is_reserved": 0, "lon": -77.04326866666666, "is_disabled": 0, "fusion_lat": 0.0, "lat": 38.926160833333334, "bike_id": "b9f70fab47d5213a9ba5e8809c279f89", "fusion_lon": 0.0}, {"rental_uris": {"ios": "https://dc.lft.to/lastmile_qr_scan", "android": "https://dc.lft.to/lastmile_qr_scan"}, "type": "electric_scooter", "name": "d2775bab48b98da18901c64a74ddefa6", "is_reserved": 0, "lon": -77.00923816666666, "is_disabled": 0, "fusion_lat": 0.0, "lat": 38.89689466666667, "bike_id": "d2775bab48b98da18901c64a74ddefa6", "fusion_lon": 0.0}, {"rental_uris": {"ios": "https://dc.lft.to/lastmile_qr_scan", "android": "https://dc.lft.to/lastmile_qr_scan"}, "type": "electric_scooter", "name": "bbdea18c18867adbc01b15c1f357f90d", "is_reserved": 0, "lon": -77.033214, "is_disabled": 0, "fusion_lat": 0.0, "lat": 38.9180305, "bike_id": "bbdea18c18867adbc01b15c1f357f90d", "fusion_lon": 0.0}, {"rental_uris": {"ios": "https://dc.lft.to/lastmile_qr_scan", "android": "https://dc.lft.to/lastmile_qr_scan"}, "type": "electric_scooter", "name": "1536aa492c054b368e416f683cbd5773", "is_reserved": 0, "lon": -77.02500433333333, "is_disabled": 0, "fusion_lat": 0.0, "lat": 38.897432333333334, "bike_id": "1536aa492c054b368e416f683cbd5773", "fusion_lon": 0.0}, {"rental_uris": {"ios": "https://dc.lft.to/lastmile_qr_scan", "android": "https://dc.lft.to/lastmile_qr_scan"}, "type": "electric_scooter", "name": "8eb8dbe5589fb6ab795829e8d80a5ff6", "is_reserved": 0, "lon": -77.02552766666666, "is_disabled": 0, "fusion_lat": 0.0, "lat": 38.930884, "bike_id": "8eb8dbe5589fb6ab795829e8d80a5ff6", "fusion_lon": 0.0}, {"rental_uris": {"ios": "https://dc.lft.to/lastmile_qr_scan", "android": "https://dc.lft.to/lastmile_qr_scan"}, "type": "electric_scooter", "name": "d4c016a095f782d8b1bdb5a3d4ed7399", "is_reserved": 0, "lon": -77.04754283333334, "is_disabled": 0, "fusion_lat": 0.0, "lat": 38.918624, "bike_id": "d4c016a095f782d8b1bdb5a3d4ed7399", "fusion_lon": 0.0}, {"rental_uris": {"ios": "https://dc.lft.to/lastmile_qr_scan", "android": "https://dc.lft.to/lastmile_qr_scan"}, "type": "electric_scooter", "name": "839e7b0632d77ea3cc0b2497e041d858", "is_reserved": 0, "lon": -77.03928933333333, "is_disabled": 0, "fusion_lat": 0.0, "lat": 38.901476833333334, "bike_id": "839e7b0632d77ea3cc0b2497e041d858", "fusion_lon": 0.0}, {"rental_uris": {"ios": "https://dc.lft.to/lastmile_qr_scan", "android": "https://dc.lft.to/lastmile_qr_scan"}, "type": "electric_scooter", "name": "d6c6f339457a64cc0f30ba5aa24c4397", "is_reserved": 0, "lon": -77.05002583333334, "is_disabled": 0, "fusion_lat": 0.0, "lat": 38.9012055, "bike_id": "d6c6f339457a64cc0f30ba5aa24c4397", "fusion_lon": 0.0}, {"rental_uris": {"ios": "https://dc.lft.to/lastmile_qr_scan", "android": "https://dc.lft.to/lastmile_qr_scan"}, "type": "electric_scooter", "name": "572262429bc2ddc6f1111db7c057438f", "is_reserved": 0, "lon": -77.038513, "is_disabled": 0, "fusion_lat": 0.0, "lat": 38.93122133333333, "bike_id": "572262429bc2ddc6f1111db7c057438f", "fusion_lon": 0.0}, {"rental_uris": {"ios": "https://dc.lft.to/lastmile_qr_scan", "android": "https://dc.lft.to/lastmile_qr_scan"}, "type": "electric_scooter", "name": "bddf247a287012c5efa77c4adab64f80", "is_reserved": 0, "lon": -77.0094485, "is_disabled": 0, "fusion_lat": 0.0, "lat": 38.89491133333333, "bike_id": "bddf247a287012c5efa77c4adab64f80", "fusion_lon": 0.0}, {"rental_uris": {"ios": "https://dc.lft.to/lastmile_qr_scan", "android": "https://dc.lft.to/lastmile_qr_scan"}, "type": "electric_scooter", "name": "39ec5f82c4b19a491e573710cef0ded8", "is_reserved": 0, "lon": -77.02727233333333, "is_disabled": 0, "fusion_lat": 0.0, "lat": 38.905720333333335, "bike_id": "39ec5f82c4b19a491e573710cef0ded8", "fusion_lon": 0.0}, {"rental_uris": {"ios": "https://dc.lft.to/lastmile_qr_scan", "android": "https://dc.lft.to/lastmile_qr_scan"}, "type": "electric_scooter", "name": "aafdf3c38cfc91b517b9d1758c41c1a0", "is_reserved": 0, "lon": -77.02259716666667, "is_disabled": 0, "fusion_lat": 0.0, "lat": 38.928226, "bike_id": "aafdf3c38cfc91b517b9d1758c41c1a0", "fusion_lon": 0.0}, {"rental_uris": {"ios": "https://dc.lft.to/lastmile_qr_scan", "android": "https://dc.lft.to/lastmile_qr_scan"}, "type": "electric_scooter", "name": "b0052e3f4fd02aefe8a3ed8a69a2957a", "is_reserved": 0, "lon": -77.021711, "is_disabled": 0, "fusion_lat": 0.0, "lat": 38.914767, "bike_id": "b0052e3f4fd02aefe8a3ed8a69a2957a", "fusion_lon": 0.0}, {"rental_uris": {"ios": "https://dc.lft.to/lastmile_qr_scan", "android": "https://dc.lft.to/lastmile_qr_scan"}, "type": "electric_scooter", "name": "d62d4a62c8fc300f7ee26f1a74f765d9", "is_reserved": 0, "lon": -77.02701383333333, "is_disabled": 0, "fusion_lat": 0.0, "lat": 38.91807516666667, "bike_id": "d62d4a62c8fc300f7ee26f1a74f765d9", "fusion_lon": 0.0}, {"rental_uris": {"ios": "https://dc.lft.to/lastmile_qr_scan", "android": "https://dc.lft.to/lastmile_qr_scan"}, "type": "electric_scooter", "name": "297301350b10024075aa9d570b4055bb", "is_reserved": 0, "lon": -77.05021816666667, "is_disabled": 0, "fusion_lat": 0.0, "lat": 38.92354233333333, "bike_id": "297301350b10024075aa9d570b4055bb", "fusion_lon": 0.0}, {"rental_uris": {"ios": "https://dc.lft.to/lastmile_qr_scan", "android": "https://dc.lft.to/lastmile_qr_scan"}, "type": "electric_scooter", "name": "82ec7a19bae185a0391b8a13941d5019", "is_reserved": 0, "lon": -77.01128033333333, "is_disabled": 0, "fusion_lat": 0.0, "lat": 38.9161745, "bike_id": "82ec7a19bae185a0391b8a13941d5019", "fusion_lon": 0.0}, {"rental_uris": {"ios": "https://dc.lft.to/lastmile_qr_scan", "android": "https://dc.lft.to/lastmile_qr_scan"}, "type": "electric_scooter", "name": "c16b1425be18436850eaae908d638134", "is_reserved": 0, "lon": -77.0547605, "is_disabled": 0, "fusion_lat": 0.0, "lat": 38.8972785, "bike_id": "c16b1425be18436850eaae908d638134", "fusion_lon": 0.0}, {"rental_uris": {"ios": "https://dc.lft.to/lastmile_qr_scan", "android": "https://dc.lft.to/lastmile_qr_scan"}, "type": "electric_scooter", "name": "52f938aefcdad5cbfcfa28a56020bc52", "is_reserved": 0, "lon": -77.02476733333333, "is_disabled": 0, "fusion_lat": 0.0, "lat": 38.91814683333333, "bike_id": "52f938aefcdad5cbfcfa28a56020bc52", "fusion_lon": 0.0},