{"data": {"bikes": [{"lon": -77.02136833333333, "fusion_lon": 0.0, "bike_id": "77da386a2d41c9f888f1e09890f7c28e", "type": "electric_scooter", "name": "77da386a2d41c9f888f1e09890f7c28e", "rental_uris": {"android": "https://dc.lft.to/lastmile_qr_scan", "ios": "https://dc.lft.to/lastmile_qr_scan"}, "is_disabled": 0, "fusion_lat": 0.0, "lat": 38.91118516666667, "is_reserved": 0}, {"lon": -77.0483015, "fusion_lon": 0.0, "bike_id": "e5ad8633492751a823a9e95d08dbd3f0", "type": "electric_scooter", "name": "e5ad8633492751a823a9e95d08dbd3f0", "rental_uris": {"android": "https://dc.lft.to/lastmile_qr_scan", "ios": "https://dc.lft.to/lastmile_qr_scan"}, "is_disabled": 0, "fusion_lat": 0.0, "lat": 38.9037225, "is_reserved": 0}, {"lon": -77.019127, "fusion_lon": 0.0, "bike_id": "3f0060d37fb2e584e66696563331ecd5", "type": "electric_bike", "name": "3f0060d37fb2e584e66696563331ecd5", "rental_uris": {"android": "https://dc.lft.to/lastmile_qr_scan", "ios": "https://dc.lft.to/lastmile_qr_scan"}, "is_disabled": 0, "fusion_lat": 0.0, "lat": 38.93774066666667, "is_reserved": 0}, {"lon": -77.02615916666667, "fusion_lon": 0.0, "bike_id": "026b3770ba20233cc9079a6407a143bf", "type": "electric_scooter", "name": "026b3770ba20233cc9079a6407a143bf", "rental_uris": {"android": "https://dc.lft.to/lastmile_qr_scan", "ios": "https://dc.lft.to/lastmile_qr_scan"}, "is_disabled": 0, "fusion_lat": 0.0, "lat": 38.914147, "is_reserved": 0}, {"lon": -77.01748, "fusion_lon": 0.0, "bike_id": "0a448a8488a20115cf20970cbef25103", "type": "electric_scooter", "name": "0a448a8488a20115cf20970cbef25103", "rental_uris": {"android": "https://dc.lft.to/lastmile_qr_scan", "ios": "https://dc.lft.to/lastmile_qr_scan"}, "is_disabled": 0, "fusion_lat": 0.0, "lat": 38.902651166666665, "is_reserved": 0}, {"lon": -77.025988, "fusion_lon": 0.0, "bike_id": "5c4aa53e805e6a8202038954ddb1748a", "type": "electric_scooter", "name": "5c4aa53e805e6a8202038954ddb1748a", "rental_uris": {"android": "https://dc.lft.to/lastmile_qr_scan", "ios": "https://dc.lft.to/lastmile_qr_scan"}, "is_disabled": 0, "fusion_lat": 0.0, "lat": 38.927939, "is_reserved": 0}, {"lon": -77.023089, "fusion_lon": 0.0, "bike_id": "d0b298a89bbdd3bb785ac9b221314567", "type": "electric_scooter", "name": "d0b298a89bbdd3bb785ac9b221314567", "rental_uris": {"android": "https://dc.lft.to/lastmile_qr_scan", "ios": "https://dc.lft.to/lastmile_qr_scan"}, "is_disabled": 0, "fusion_lat": 0.0, "lat": 38.91584833333334, "is_reserved": 0}, {"lon": -77.0639065, "fusion_lon": 0.0, "bike_id": "9420a3bc1eba94abd45cee30a3fc13a2", "type": "electric_scooter", "name": "9420a3bc1eba94abd45cee30a3fc13a2", "rental_uris": {"android": "https://dc.lft.to/lastmile_qr_scan", "ios": "https://dc.lft.to/lastmile_qr_scan"}, "is_disabled": 0, "fusion_lat": 0.0, "lat": 38.94418366666667, "is_reserved": 0}, {"lon": -77.02275366666667, "fusion_lon": 0.0, "bike_id": "3253c12841d9176f24d45fbf47715b23", "type": "electric_scooter", "name": "3253c12841d9176f24d45fbf47715b23", "rental_uris": {"android": "https://dc.lft.to/lastmile_qr_scan", "ios": "https://dc.lft.to/lastmile_qr_scan"}, "is_disabled": 0, "fusion_lat": 0.0, "lat": 38.9178035, "is_reserved": 0}, {"lon": -77.01409483333333, "fusion_lon": 0.0, "bike_id": "e030407cf05305ad5e440606ac58d97f", "type": "electric_scooter", "name": "e030407cf05305ad5e440606ac58d97f", "rental_uris": {"android": "https://dc.lft.to/lastmile_qr_scan", "ios": "https://dc.lft.to/lastmile_qr_scan"}, "is_disabled": 0, "fusion_lat": 0.0, "lat": 38.91916783333333, "is_reserved": 0}, {"lon": -77.0345825, "fusion_lon": 0.0, "bike_id": "812c09404c3e0d008701cc38148d7bbf", "type": "electric_scooter", "name": "812c09404c3e0d008701cc38148d7bbf", "rental_uris": {"android": "https://dc.lft.to/lastmile_qr_scan", "ios": "https://dc.lft.to/lastmile_qr_scan"}, "is_disabled": 0, "fusion_lat": 0.0, "lat": 38.909715, "is_reserved": 0}, {"lon": -77.04868766666667, "fusion_lon": 0.0, "bike_id": "eeafadfa6cd234f2b84cb808294ce7d0", "type": "electric_scooter", "name": "eeafadfa6cd234f2b84cb808294ce7d0", "rental_uris": {"android": "https://dc.lft.to/lastmile_qr_scan", "ios": "https://dc.lft.to/lastmile_qr_scan"}, "is_disabled": 0, "fusion_lat": 0.0, "lat": 38.89997183333333, "is_reserved": 0}, {"lon": -76.931525, "fusion_lon": 0.0, "bike_id": "ddc1cadaf36e829c96e0fba7f20f58eb", "type": "electric_scooter", "name": "ddc1cadaf36e829c96e0fba7f20f58eb", "rental_uris": {"android": "https://dc.lft.to/lastmile_qr_scan", "ios": "https://dc.lft.to/lastmile_qr_scan"}, "is_disabled": 0, "fusion_lat": 0.0, "lat": 38.897687166666664, "is_reserved": 0}, {"lon": -76.987962, "fusion_lon": 0.0, "bike_id": "cddbb44233c3cf3146cfb345e6572545", "type": "electric_scooter", "name": "cddbb44233c3cf3146cfb345e6572545", "rental_uris": {"android": "https://dc.lft.to/lastmile_qr_scan", "ios": "https://dc.lft.to/lastmile_qr_scan"}, "is_disabled": 0, "fusion_lat": 0.0, "lat": 38.9123195, "is_reserved": 0}, {"lon": -77.0480445, "fusion_lon": 0.0, "bike_id": "c943d3b4105d0ba9f02687efb8420a92", "type": "electric_scooter", "name": "c943d3b4105d0ba9f02687efb8420a92", "rental_uris": {"android": "https://dc.lft.to/lastmile_qr_scan", "ios": "https://dc.lft.to/lastmile_qr_scan"}, "is_disabled": 0, "fusion_lat": 0.0, "lat": 38.91941966666667, "is_reserved": 0}, {"lon": -77.04674966666667, "fusion_lon": 0.0, "bike_id": "4c3df7e3ae46526916e8315a628ca1e9", "type": "electric_scooter", "name": "4c3df7e3ae46526916e8315a628ca1e9", "rental_uris": {"android": "https://dc.lft.to/lastmile_qr_scan", "ios": "https://dc.lft.to/lastmile_qr_scan"}, "is_disabled": 0, "fusion_lat": 0.0, "lat": 38.894547, "is_reserved": 0}, {"lon": -77.03669283333333, "fusion_lon": 0.0, "bike_id": "d163e02a40e054862ecc1cacd46bfcef", "type": "electric_scooter", "name": "d163e02a40e054862ecc1cacd46bfcef", "rental_uris": {"android": "https://dc.lft.to/lastmile_qr_scan", "ios": "https://dc.lft.to/lastmile_qr_scan"}, "is_disabled": 0, "fusion_lat": 0.0, "lat": 38.9267715, "is_reserved": 0}, {"lon": -77.03268266666667, "fusion_lon": 0.0, "bike_id": "d7aed01506f03e0968f5c8a371757ace", "type": "electric_scooter", "name": "d7aed01506f03e0968f5c8a371757ace", "rental_uris": {"android": "https://dc.lft.to/lastmile_qr_scan", "ios": "https://dc.lft.to/lastmile_qr_scan"}, "is_disabled": 0, "fusion_lat": 0.0, "lat": 38.91989616666667, "is_reserved": 0}, {"lon": -77.01227466666667, "fusion_lon": 0.0, "bike_id": "12a0fea98d086e2b60f462d73889503b", "type": "electric_scooter", "name": "12a0fea98d086e2b60f462d73889503b", "rental_uris": {"android": "https://dc.lft.to/lastmile_qr_scan", "ios": "https://dc.lft.to/lastmile_qr_scan"}, "is_disabled": 0, "fusion_lat": 0.0, "lat": 38.911069499999996, "is_reserved": 0}, {"lon": -77.01585066666667, "fusion_lon": 0.0, "bike_id": "48a17652d382443c6a6fc3b23ccdf9e4", "type": "electric_scooter", "name": "48a17652d382443c6a6fc3b23ccdf9e4", "rental_uris": {"android": "https://dc.lft.to/lastmile_qr_scan", "ios": "https://dc.lft.to/lastmile_qr_scan"}, "is_disabled": 0, "fusion_lat": 0.0, "lat": 38.91573833333333, "is_reserved": 0}, {"lon": -77.03152966666667, "fusion_lon": 0.0, "bike_id": "47bca5bd7f47e18f291d3d5be6205646", "type": "electric_scooter", "name": "47bca5bd7f47e18f291d3d5be6205646", "rental_uris": {"android": "https://dc.lft.to/lastmile_qr_scan", "ios": "https://dc.lft.to/lastmile_qr_scan"}, "is_disabled": 0, "fusion_lat": 0.0, "lat": 38.9156405, "is_reserved": 0}, {"lon": -77.03324783333333, "fusion_lon": 0.0, "bike_id": "47a4d5f888ed0d0cf740240a9d600ef6", "type": "electric_bike", "name": "47a4d5f888ed0d0cf740240a9d600ef6", "rental_uris": {"android": "https://dc.lft.to/lastmile_qr_scan", "ios": "https://dc.lft.to/lastmile_qr_scan"}, "is_disabled": 0, "fusion_lat": 0.0, "lat": 38.920499666666664, "is_reserved": 0}, {"lon": -76.94652616666667, "fusion_lon": 0.0, "bike_id": "183e4854f4744cad7fe590d24ffdd5d1", "type": "electric_scooter", "name": "183e4854f4744cad7fe590d24ffdd5d1", "rental_uris": {"android": "https://dc.lft.to/lastmile_qr_scan", "ios": "https://dc.lft.to/lastmile_qr_scan"}, "is_disabled": 0, "fusion_lat": 0.0, "lat": 38.898278833333336, "is_reserved": 0}, {"lon": -77.04729283333333, "fusion_lon": 0.0, "bike_id": "d9e438c26b706e3e52ed470574e0f042", "type": "electric_scooter", "name": "d9e438c26b706e3e52ed470574e0f042", "rental_uris": {"android": "https://dc.lft.to/lastmile_qr_scan", "ios": "https://dc.lft.to/lastmile_qr_scan"}, "is_disabled": 0, "fusion_lat": 0.0, "lat": 38.903786, "is_reserved": 0}, {"lon": -77.05269883333334, "fusion_lon": 0.0, "bike_id": "239744594caa3bdcc1eb4559cc3f3712", "type": "electric_scooter", "name": "239744594caa3bdcc1eb4559cc3f3712", "rental_uris": {"android": "https://dc.lft.to/lastmile_qr_scan", "ios": "https://dc.lft.to/lastmile_qr_scan"}, "is_disabled": 0, "fusion_lat": 0.0, "lat": 38.904991333333335, "is_reserved": 0}, {"lon": -77.02384666666667, "fusion_lon": 0.0, "bike_id": "1e18e4e5fcbba9716cb2839c819bc268", "type": "electric_scooter", "name": "1e18e4e5fcbba9716cb2839c819bc268", "rental_uris": {"android": "https://dc.lft.to/lastmile_qr_scan", "ios": "https://dc.lft.to/lastmile_qr_scan"}, "is_disabled": 0, "fusion_lat": 0.0, "lat": 38.912910833333335, "is_reserved": 0}, {"lon": -77.08968716666666, "fusion_lon": 0.0, "bike_id": "18954cf7413083bb88207248ac677d55", "type": "electric_scooter", "name": "18954cf7413083bb88207248ac677d55", "rental_uris": {"android": "https://dc.lft.to/lastmile_qr_scan", "ios": "https://dc.lft.to/lastmile_qr_scan"}, "is_disabled": 0, "fusion_lat": 0.0, "lat": 38.93428633333333, "is_reserved": 0}, {"lon": -77.00109383333333, "fusion_lon": 0.0, "bike_id": "4d167b4fac78d8cc21f0a4193578a05c", "type": "electric_scooter", "name": "4d167b4fac78d8cc21f0a4193578a05c", "rental_uris": {"android": "https://dc.lft.to/lastmile_qr_scan", "ios": "https://dc.lft.to/lastmile_qr_scan"}, "is_disabled": 0, "fusion_lat": 0.0, "lat": 38.916300666666665, "is_reserved": 0}, {"lon": -77.0108435, "fusion_lon": 0.0, "bike_id": "f24b876590b54e2330534525e41d03a9", "type": "electric_scooter", "name": "f24b876590b54e2330534525e41d03a9", "rental_uris": {"android": "https://dc.lft.to/lastmile_qr_scan", "ios": "https://dc.lft.to/lastmile_qr_scan"}, "is_disabled": 0, "fusion_lat": 0.0, "lat": 38.91745483333333, "is_reserved": 0}, {"lon": -77.04162566666666, "fusion_lon": 0.0, "bike_id": "70fe49d48fdb2168a676d46db6148069", "type": "electric_scooter", "name": "70fe49d48fdb2168a676d46db6148069", "rental_uris": {"android": "https://dc.lft.to/lastmile_qr_scan", "ios": "https://dc.lft.to/lastmile_qr_scan"}, "is_disabled": 0, "fusion_lat": 0.0, "lat": 38.91443066666667, "is_reserved": 0}, {"lon": -76.97396583333334, "fusion_lon": 0.0, "bike_id": "35691a60a51be6992a34653e65cfd36b", "type": "electric_bike", "name": "35691a60a51be6992a34653e65cfd36b", "rental_uris": {"android": "https://dc.lft.to/lastmile_qr_scan", "ios": "https://dc.lft.to/lastmile_qr_scan"}, "is_disabled": 0, "fusion_lat": 0.0, "lat": 38.84535233333333, "is_reserved": 0}, {"lon": -77.00454066666667, "fusion_lon": 0.0, "bike_id": "7b7a0fc7023074073ee6ac0b5ab1f372", "type": "electric_scooter", "name": "7b7a0fc7023074073ee6ac0b5ab1f372", "rental_uris": {"android": "https://dc.lft.to/lastmile_qr_scan", "ios": "https://dc.lft.to/lastmile_qr_scan"}, "is_disabled": 0, "fusion_lat": 0.0, "lat": 38.876606333333335, "is_reserved": 0}, {"lon": -77.01945616666667, "fusion_lon": 0.0, "bike_id": "efa7ba8171936760cb2c89b8ab0b7fcd", "type": "electric_scooter", "name": "efa7ba8171936760cb2c89b8ab0b7fcd", "rental_uris": {"android": "https://dc.lft.to/lastmile_qr_scan", "ios": "https://dc.lft.to/lastmile_qr_scan"}, "is_disabled": 0, "fusion_lat": 0.0, "lat": 38.924193, "is_reserved": 0}, {"lon": -77.0400005, "fusion_lon": 0.0, "bike_id": "8662c99d6fd9b96be7ea9a52a0c5542b", "type": "electric_scooter", "name": "8662c99d6fd9b96be7ea9a52a0c5542b", "rental_uris": {"android": "https://dc.lft.to/lastmile_qr_scan", "ios": "https://dc.lft.to/lastmile_qr_scan"}, "is_disabled": 0, "fusion_lat": 0.0, "lat": 38.9035495, "is_reserved": 0}, {"lon": -77.0414485, "fusion_lon": 0.0, "bike_id": "78f940d57adeefa3ce8fcd8c22c1a516", "type": "electric_scooter", "name": "78f940d57adeefa3ce8fcd8c22c1a516", "rental_uris": {"android": "https://dc.lft.to/lastmile_qr_scan", "ios": "https://dc.lft.to/lastmile_qr_scan"}, "is_disabled": 0, "fusion_lat": 0.0, "lat": 38.916822333333336, "is_reserved": 0}, {"lon": -77.04598833333333, "fusion_lon": 0.0, "bike_id": "e6e1c568787b4ebefdd60cfc724b40c6", "type": "electric_scooter", "name": "e6e1c568787b4ebefdd60cfc724b40c6", "rental_uris": {"android": "https://dc.lft.to/lastmile_qr_scan", "ios": "https://dc.lft.to/lastmile_qr_scan"}, "is_disabled": 0, "fusion_lat": 0.0, "lat": 38.91518716666667, "is_reserved": 0}, {"lon": -77.02209416666666, "fusion_lon": 0.0, "bike_id": "2cceaaaeb7f6f3c723b817d07fa52712", "type": "electric_scooter", "name": "2cceaaaeb7f6f3c723b817d07fa52712", "rental_uris": {"android": "https://dc.lft.to/lastmile_qr_scan", "ios": "https://dc.lft.to/lastmile_qr_scan"}, "is_disabled": 0, "fusion_lat": 0.0, "lat": 38.896212, "is_reserved": 0}, {"lon": -77.024066, "fusion_lon": 0.0, "bike_id": "1ff5a90f544bec8660cf8b712a7a6509", "type": "electric_scooter", "name": "1ff5a90f544bec8660cf8b712a7a6509", "rental_uris": {"android": "https://dc.lft.to/lastmile_qr_scan", "ios": "https://dc.lft.to/lastmile_qr_scan"}, "is_disabled": 0, "fusion_lat": 0.0, "lat": 38.916775666666666, "is_reserved": 0}, {"lon": -77.035454, "fusion_lon": 0.0, "bike_id": "9d08e8de687cb46a8fab4a15afc1f04f", "type": "electric_scooter", "name": "9d08e8de687cb46a8fab4a15afc1f04f", "rental_uris": {"android": "https://dc.lft.to/lastmile_qr_scan", "ios": "https://dc.lft.to/lastmile_qr_scan"}, "is_disabled": 0, "fusion_lat": 0.0, "lat": 38.92518366666667, "is_reserved": 0}, {"lon": -77.09991166666667, "fusion_lon": 0.0, "bike_id": "669e8b8bd4cd7b2595c492b17c571711", "type": "electric_bike", "name": "669e8b8bd4cd7b2595c492b17c571711", "rental_uris": {"android": "https://dc.lft.to/lastmile_qr_scan", "ios": "https://dc.lft.to/lastmile_qr_scan"}, "is_disabled": 0, "fusion_lat": 0.0, "lat": 38.85894833333333, "is_reserved": 0}, {"lon": -76.99029233333333, "fusion_lon": 0.0, "bike_id": "6c608217d212cd07c74af2b9868074ec", "type": "electric_scooter", "name": "6c608217d212cd07c74af2b9868074ec", "rental_uris": {"android": "https://dc.lft.to/lastmile_qr_scan", "ios": "https://dc.lft.to/lastmile_qr_scan"}, "is_disabled": 0, "fusion_lat": 0.0, "lat": 38.88880366666667, "is_reserved": 0}, {"lon": -77.0278185, "fusion_lon": 0.0, "bike_id": "49ca127f39b39b50bff0ccdd3b78913a", "type": "electric_scooter", "name": "49ca127f39b39b50bff0ccdd3b78913a", "rental_uris": {"android": "https://dc.lft.to/lastmile_qr_scan", "ios": "https://dc.lft.to/lastmile_qr_scan"}, "is_disabled": 0, "fusion_lat": 0.0, "lat": 38.9276775, "is_reserved": 0}, {"lon": -77.00891816666666, "fusion_lon": 0.0, "bike_id": "95c02fd6aa83304c83b2977485633ebf", "type": "electric_scooter", "name": "95c02fd6aa83304c83b2977485633ebf", "rental_uris": {"android": "https://dc.lft.to/lastmile_qr_scan", "ios": "https://dc.lft.to/lastmile_qr_scan"}, "is_disabled": 0, "fusion_lat": 0.0, "lat": 38.87671816666667, "is_reserved": 0}, {"lon": -77.00319183333333, "fusion_lon": 0.0, "bike_id": "05c08ad0fc1216accf6406290a3cf5ed", "type": "electric_scooter", "name": "05c08ad0fc1216accf6406290a3cf5ed", "rental_uris": {"android": "https://dc.lft.to/lastmile_qr_scan", "ios": "https://dc.lft.to/lastmile_qr_scan"}, "is_disabled": 0, "fusion_lat": 0.0, "lat": 38.919369333333336, "is_reserved": 0}, {"lon": -76.96983083333333, "fusion_lon": 0.0, "bike_id": "8ab4c9ec45926f828b67b08518a54892", "type": "electric_scooter", "name": "8ab4c9ec45926f828b67b08518a54892", "rental_uris": {"android": "https://dc.lft.to/lastmile_qr_scan", "ios": "https://dc.lft.to/lastmile_qr_scan"}, "is_disabled": 0, "fusion_lat": 0.0, "lat": 38.87865983333333, "is_reserved": 0}, {"lon": -77.02973066666667, "fusion_lon": 0.0, "bike_id": "26ffb1a267ac80bc1895ccd7e52a3565", "type": "electric_scooter", "name": "26ffb1a267ac80bc1895ccd7e52a3565", "rental_uris": {"android": "https://dc.lft.to/lastmile_qr_scan", "ios": "https://dc.lft.to/lastmile_qr_scan"}, "is_disabled": 0, "fusion_lat": 0.0, "lat": 38.90520566666667, "is_reserved": 0}, {"lon": -77.00070183333334, "fusion_lon": 0.0, "bike_id": "dc6716e5edc7f61ad8981eb4e45a9be6", "type": "electric_scooter", "name": "dc6716e5edc7f61ad8981eb4e45a9be6", "rental_uris": {"android": "https://dc.lft.to/lastmile_qr_scan", "ios": "https://dc.lft.to/lastmile_qr_scan"}, "is_disabled": 0, "fusion_lat": 0.0, "lat": 38.88682166666667, "is_reserved": 0}, {"lon": -76.94260383333334, "fusion_lon": 0.0, "bike_id": "8216438a7a43d9267477307b919d8da4", "type": "electric_scooter", "name": "8216438a7a43d9267477307b919d8da4", "rental_uris": {"android": "https://dc.lft.to/lastmile_qr_scan", "ios": "https://dc.lft.to/lastmile_qr_scan"}, "is_disabled": 0, "fusion_lat": 0.0, "lat": 38.898488666666665, "is_reserved": 0}, {"lon": -77.0197395, "fusion_lon": 0.0, "bike_id": "6ed553f6037a5216af98b01fef2fb760", "type": "electric_scooter", "name": "6ed553f6037a5216af98b01fef2fb760", "rental_uris": {"android": "https://dc.lft.to/lastmile_qr_scan", "ios": "https://dc.lft.to/lastmile_qr_scan"}, "is_disabled": 0, "fusion_lat": 0.0, "lat": 38.88412683333333, "is_reserved": 0}, {"lon": -77.04621166666666, "fusion_lon": 0.0, "bike_id": "84c0083e419a6a879fc8589e203dcdee", "type": "electric_scooter", "name": "84c0083e419a6a879fc8589e203dcdee", "rental_uris": {"android": "https://dc.lft.to/lastmile_qr_scan", "ios": "https://dc.lft.to/lastmile_qr_scan"}, "is_disabled": 0, "fusion_lat": 0.0, "lat": 38.91803083333333, "is_reserved": 0}, {"lon": -76.99144783333334, "fusion_lon": 0.0, "bike_id": "fa86970f18ab33946d1384fd01181f11", "type": "electric_scooter", "name": "fa86970f18ab33946d1384fd01181f11", "rental_uris": {"android": "https://dc.lft.to/lastmile_qr_scan", "ios": "https://dc.lft.to/lastmile_qr_scan"}, "is_disabled": 0, "fusion_lat": 0.0, "lat": 38.885322, "is_reserved": 0}, {"lon": -76.92681983333334, "fusion_lon": 0.0, "bike_id": "417b92c3066e86c7b4fb451e9edb687d", "type": "electric_scooter", "name": "417b92c3066e86c7b4fb451e9edb687d", "rental_uris": {"android": "https://dc.lft.to/lastmile_qr_scan", "ios": "https://dc.lft.to/lastmile_qr_scan"}, "is_disabled": 0, "fusion_lat": 0.0, "lat": 38.88848516666667, "is_reserved": 0}, {"lon": -77.0133085, "fusion_lon": 0.0, "bike_id": "3c85bfbc3f30bab05ca85fd60f5f2ba6", "type": "electric_scooter", "name": "3c85bfbc3f30bab05ca85fd60f5f2ba6", "rental_uris": {"android": "https://dc.lft.to/lastmile_qr_scan", "ios": "https://dc.lft.to/lastmile_qr_scan"}, "is_disabled": 0, "fusion_lat": 0.0, "lat": 38.900770666666666, "is_reserved": 0}, {"lon": -77.01356016666666, "fusion_lon": 0.0, "bike_id": "531fe0a3d64714728a837f5f406ba24c", "type": "electric_scooter", "name": "531fe0a3d64714728a837f5f406ba24c", "rental_uris": {"android": "https://dc.lft.to/lastmile_qr_scan", "ios": "https://dc.lft.to/lastmile_qr_scan"}, "is_disabled": 0, "fusion_lat": 0.0, "lat": 38.91256083333333, "is_reserved": 0}, {"lon": -77.02696833333333, "fusion_lon": 0.0, "bike_id": "7bc8b06da5b90c73e01a96e873b79332", "type": "electric_scooter", "name": "7bc8b06da5b90c73e01a96e873b79332", "rental_uris": {"android": "https://dc.lft.to/lastmile_qr_scan", "ios": "https://dc.lft.to/lastmile_qr_scan"}, "is_disabled": 0, "fusion_lat": 0.0, "lat": 38.94980066666667, "is_reserved": 0}, {"lon": -77.038997, "fusion_lon": 0.0, "bike_id": "6f3cf1bde69122264f2f538fdbaaa5a2", "type": "electric_scooter", "name": "6f3cf1bde69122264f2f538fdbaaa5a2", "rental_uris": {"android": "https://dc.lft.to/lastmile_qr_scan", "ios": "https://dc.lft.to/lastmile_qr_scan"}, "is_disabled": 0, "fusion_lat": 0.0, "lat": 38.90359483333334, "is_reserved": 0}, {"lon": -77.01083766666666, "fusion_lon": 0.0, "bike_id": "feadef8579492a36f044b70b5338493b", "type": "electric_bike", "name": "feadef8579492a36f044b70b5338493b", "rental_uris": {"android": "https://dc.lft.to/lastmile_qr_scan", "ios": "https://dc.lft.to/lastmile_qr_scan"}, "is_disabled": 0, "fusion_lat": 0.0, "lat": 38.8730795, "is_reserved": 0}, {"lon": -77.0513245, "fusion_lon": 0.0, "bike_id": "8ad32ffd7dd27959d15a8c85b3732790", "type": "electric_scooter", "name": "8ad32ffd7dd27959d15a8c85b3732790", "rental_uris": {"android": "https://dc.lft.to/lastmile_qr_scan", "ios": "https://dc.lft.to/lastmile_qr_scan"}, "is_disabled": 0, "fusion_lat": 0.0, "lat": 38.90647633333333, "is_reserved": 0}, {"lon": -76.93073333333334, "fusion_lon": 0.0, "bike_id": "d8d296dd6d6b29a51dd9c8e3c449a10d", "type": "electric_scooter", "name": "d8d296dd6d6b29a51dd9c8e3c449a10d", "rental_uris": {"android": "https://dc.lft.to/lastmile_qr_scan", "ios": "https://dc.lft.to/lastmile_qr_scan"}, "is_disabled": 0, "fusion_lat": 0.0, "lat": 38.90165116666667, "is_reserved": 0}, {"lon": -77.04512383333334, "fusion_lon": 0.0, "bike_id": "e64dfe5417a6b85bb81bd68f4b789e87", "type": "electric_scooter", "name": "e64dfe5417a6b85bb81bd68f4b789e87", "rental_uris": {"android": "https://dc.lft.to/lastmile_qr_scan", "ios": "https://dc.lft.to/lastmile_qr_scan"}, "is_disabled": 0, "fusion_lat": 0.0, "lat": 38.918275, "is_reserved": 0}, {"lon": -77.02846616666666, "fusion_lon": 0.0, "bike_id": "bff6a295b577ea4d7d65c0ccf5a27fd6", "type": "electric_scooter", "name": "bff6a295b577ea4d7d65c0ccf5a27fd6", "rental_uris": {"android": "https://dc.lft.to/lastmile_qr_scan", "ios": "https://dc.lft.to/lastmile_qr_scan"}, "is_disabled": 0, "fusion_lat": 0.0, "lat": 38.91706416666667, "is_reserved": 0}, {"lon": -77.050085, "fusion_lon": 0.0, "bike_id": "2bb30faf319ba6fdf04238659e6eb0c2", "type": "electric_bike", "name": "2bb30faf319ba6fdf04238659e6eb0c2", "rental_uris": {"android": "https://dc.lft.to/lastmile_qr_scan", "ios": "https://dc.lft.to/lastmile_qr_scan"}, "is_disabled": 0, "fusion_lat": 0.0, "lat": 38.8376075, "is_reserved": 0}, {"lon": -77.07959816666667, "fusion_lon": 0.0, "bike_id": "d9ae3f0bc9a82ce78cd2108d29cb9262", "type": "electric_scooter", "name": "d9ae3f0bc9a82ce78cd2108d29cb9262", "rental_uris": {"android": "https://dc.lft.to/lastmile_qr_scan", "ios": "https://dc.lft.to/lastmile_qr_scan"}, "is_disabled": 0, "fusion_lat": 0.0, "lat": 38.94560116666667, "is_reserved": 0}, {"lon": -77.032258, "fusion_lon": 0.0, "bike_id": "305f4ebb16f5f171a5dfc7819326b760", "type": "electric_scooter", "name": "305f4ebb16f5f171a5dfc7819326b760", "rental_uris": {"android": "https://dc.lft.to/lastmile_qr_scan", "ios": "https://dc.lft.to/lastmile_qr_scan"}, "is_disabled": 0, "fusion_lat": 0.0, "lat": 38.909816666666664, "is_reserved": 0}, {"lon": -77.05009483333333, "fusion_lon": 0.0, "bike_id": "192d7b168287f79172fa09dd6b5ece8b", "type": "electric_scooter", "name": "192d7b168287f79172fa09dd6b5ece8b", "rental_uris": {"android": "https://dc.lft.to/lastmile_qr_scan", "ios": "https://dc.lft.to/lastmile_qr_scan"}, "is_disabled": 0, "fusion_lat": 0.0, "lat": 38.8978935, "is_reserved": 0}, {"lon": -77.02801233333334, "fusion_lon": 0.0, "bike_id": "1f0195940cefbb6bfee998988a0a4c2b", "type": "electric_scooter", "name": "1f0195940cefbb6bfee998988a0a4c2b", "rental_uris": {"android": "https://dc.lft.to/lastmile_qr_scan", "ios": "https://dc.lft.to/lastmile_qr_scan"}, "is_disabled": 0, "fusion_lat": 0.0, "lat": 38.89912116666667, "is_reserved": 0}, {"lon": -77.02279783333333, "fusion_lon": 0.0, "bike_id": "4b90c0ee76e0dc40340c0b0bc886328a", "type": "electric_scooter", "name": "4b90c0ee76e0dc40340c0b0bc886328a", "rental_uris": {"android": "https://dc.lft.to/lastmile_qr_scan", "ios": "https://dc.lft.to/lastmile_qr_scan"}, "is_disabled": 0, "fusion_lat": 0.0, "lat": 38.917855, "is_reserved": 0}, {"lon": -77.05740916666667, "fusion_lon": 0.0, "bike_id": "b15428318fb630887cf928e1f8e40083", "type": "electric_scooter", "name": "b15428318fb630887cf928e1f8e40083", "rental_uris": {"android": "https://dc.lft.to/lastmile_qr_scan", "ios": "https://dc.lft.to/lastmile_qr_scan"}, "is_disabled": 0, "fusion_lat": 0.0, "lat": 38.9339105, "is_reserved": 0}, {"lon": -77.02478583333334, "fusion_lon": 0.0, "bike_id": "f1e3d034d0364a5ffc33587a6751972c", "type": "electric_scooter", "name": "f1e3d034d0364a5ffc33587a6751972c", "rental_uris": {"android": "https://dc.lft.to/lastmile_qr_scan", "ios": "https://dc.lft.to/lastmile_qr_scan"}, "is_disabled": 0, "fusion_lat": 0.0, "lat": 38.9309515, "is_reserved": 0}, {"lon": -77.05474633333333, "fusion_lon": 0.0, "bike_id": "07c2346d0259811bdf3a9d432bd0dbe7", "type": "electric_scooter", "name": "07c2346d0259811bdf3a9d432bd0dbe7", "rental_uris": {"android": "https://dc.lft.to/lastmile_qr_scan", "ios": "https://dc.lft.to/lastmile_qr_scan"}, "is_disabled": 0, "fusion_lat": 0.0, "lat": 38.8973085, "is_reserved": 0}, {"lon": -76.98548533333333, "fusion_lon": 0.0, "bike_id": "c3eff0423d4ef606c61758dbe5a8047c", "type": "electric_scooter", "name": "c3eff0423d4ef606c61758dbe5a8047c", "rental_uris": {"android": "https://dc.lft.to/lastmile_qr_scan", "ios": "https://dc.lft.to/lastmile_qr_scan"}, "is_disabled": 0, "fusion_lat": 0.0, "lat": 38.883592, "is_reserved": 0}, {"lon": -77.03239316666667, "fusion_lon": 0.0, "bike_id": "282e01121e2a676d49bb1e7151e02c38", "type": "electric_scooter", "name": "282e01121e2a676d49bb1e7151e02c38", "rental_uris": {"android": "https://dc.lft.to/lastmile_qr_scan", "ios": "https://dc.lft.to/lastmile_qr_scan"}, "is_disabled": 0, "fusion_lat": 0.0, "lat": 38.923841333333336, "is_reserved": 0}, {"lon": -77.0044595, "fusion_lon": 0.0, "bike_id": "e4e00f584358c696a5aa7d271e2d4696", "type": "electric_scooter", "name": "e4e00f584358c696a5aa7d271e2d4696", "rental_uris": {"android": "https://dc.lft.to/lastmile_qr_scan", "ios": "https://dc.lft.to/lastmile_qr_scan"}, "is_disabled": 0, "fusion_lat": 0.0, "lat": 38.876622, "is_reserved": 0}, {"lon": -76.99806933333333, "fusion_lon": 0.0, "bike_id": "97425b52d7c06ef601c0dcc61a064bcd", "type": "electric_scooter", "name": "97425b52d7c06ef601c0dcc61a064bcd", "rental_uris": {"android": "https://dc.lft.to/lastmile_qr_scan", "ios": "https://dc.lft.to/lastmile_qr_scan"}, "is_disabled": 0, "fusion_lat": 0.0, "lat": 38.90132533333333, "is_reserved": 0}, {"lon": -76.95755733333333, "fusion_lon": 0.0, "bike_id": "6265030845f548c98a3afee7022c6776", "type": "electric_scooter", "name": "6265030845f548c98a3afee7022c6776", "rental_uris": {"android": "https://dc.lft.to/lastmile_qr_scan", "ios": "https://dc.lft.to/lastmile_qr_scan"}, "is_disabled": 0, "fusion_lat": 0.0, "lat": 38.884290666666665, "is_reserved": 0}, {"lon": -77.00513333333333, "fusion_lon": 0.0, "bike_id": "fb6931717d2bb83e78bea22478798aa9", "type": "electric_scooter", "name": "fb6931717d2bb83e78bea22478798aa9", "rental_uris": {"android": "https://dc.lft.to/lastmile_qr_scan", "ios": "https://dc.lft.to/lastmile_qr_scan"}, "is_disabled": 0, "fusion_lat": 0.0, "lat": 38.89597966666667, "is_reserved": 0}, {"lon": -76.98675316666667, "fusion_lon": 0.0, "bike_id": "abbf46abef779abeea04e0a9ec83a19b", "type": "electric_scooter", "name": "abbf46abef779abeea04e0a9ec83a19b", "rental_uris": {"android": "https://dc.lft.to/lastmile_qr_scan", "ios": "https://dc.lft.to/lastmile_qr_scan"}, "is_disabled": 0, "fusion_lat": 0.0, "lat": 38.90678283333333, "is_reserved": 0}, {"lon": -77.03179366666667, "fusion_lon": 0.0, "bike_id": "61a43c681c3b40fe88302c6f1210d6cb", "type": "electric_scooter", "name": "61a43c681c3b40fe88302c6f1210d6cb", "rental_uris": {"android": "https://dc.lft.to/lastmile_qr_scan", "ios": "https://dc.lft.to/lastmile_qr_scan"}, "is_disabled": 0, "fusion_lat": 0.0, "lat": 38.917746, "is_reserved": 0}, {"lon": -76.995452, "fusion_lon": 0.0, "bike_id": "e40b86f343d036118c39de6db451af3b", "type": "electric_scooter", "name": "e40b86f343d036118c39de6db451af3b", "rental_uris": {"android": "https://dc.lft.to/lastmile_qr_scan", "ios": "https://dc.lft.to/lastmile_qr_scan"}, "is_disabled": 0, "fusion_lat": 0.0, "lat": 38.926607833333335, "is_reserved": 0}, {"lon": -77.04482016666667, "fusion_lon": 0.0, "bike_id": "205e8d8e2b06f087f174af038a12175d", "type": "electric_scooter", "name": "205e8d8e2b06f087f174af038a12175d", "rental_uris": {"android": "https://dc.lft.to/lastmile_qr_scan", "ios": "https://dc.lft.to/lastmile_qr_scan"}, "is_disabled": 0, "fusion_lat": 0.0, "lat": 38.8952235, "is_reserved": 0}, {"lon": -77.04171116666667, "fusion_lon": 0.0, "bike_id": "cfbb2da66b70ffe3746371e99bc62e40", "type": "electric_scooter", "name": "cfbb2da66b70ffe3746371e99bc62e40", "rental_uris": {"android": "https://dc.lft.to/lastmile_qr_scan", "ios": "https://dc.lft.to/lastmile_qr_scan"}, "is_disabled": 0, "fusion_lat": 0.0, "lat": 38.9183635, "is_reserved": 0}, {"lon": -77.04366383333333, "fusion_lon": 0.0, "bike_id": "58852abed51c3816fec810dfdd628ab4", "type": "electric_scooter", "name": "58852abed51c3816fec810dfdd628ab4", "rental_uris": {"android": "https://dc.lft.to/lastmile_qr_scan", "ios": "https://dc.lft.to/lastmile_qr_scan"}, "is_disabled": 0, "fusion_lat": 0.0, "lat": 38.892212, "is_reserved": 0}, {"lon": -77.017498, "fusion_lon": 0.0, "bike_id": "09883f196058585c57c1924f25a466b4", "type": "electric_scooter", "name": "09883f196058585c57c1924f25a466b4", "rental_uris": {"android": "https://dc.lft.to/lastmile_qr_scan", "ios": "https://dc.lft.to/lastmile_qr_scan"}, "is_disabled": 0, "fusion_lat": 0.0, "lat": 38.902648166666665, "is_reserved": 0}, {"lon": -77.0199635, "fusion_lon": 0.0, "bike_id": "4142650388db19f1db18e7f5cb193474", "type": "electric_scooter", "name": "4142650388db19f1db18e7f5cb193474", "rental_uris": {"android": "https://dc.lft.to/lastmile_qr_scan", "ios": "https://dc.lft.to/lastmile_qr_scan"}, "is_disabled": 0, "fusion_lat": 0.0, "lat": 38.8953645, "is_reserved": 0}, {"lon": -76.95580683333333, "fusion_lon": 0.0, "bike_id": "06f5c538ed358934829827caf4fa018d", "type": "electric_scooter", "name": "06f5c538ed358934829827caf4fa018d", "rental_uris": {"android": "https://dc.lft.to/lastmile_qr_scan", "ios": "https://dc.lft.to/lastmile_qr_scan"}, "is_disabled": 0, "fusion_lat": 0.0, "lat": 38.886136666666665, "is_reserved": 0}, {"lon": -77.03643066666666, "fusion_lon": 0.0, "bike_id": "1f1ec17c607310ba0b8d0bdf51ad7ed8", "type": "electric_scooter", "name": "1f1ec17c607310ba0b8d0bdf51ad7ed8", "rental_uris": {"android": "https://dc.lft.to/lastmile_qr_scan", "ios": "https://dc.lft.to/lastmile_qr_scan"}, "is_disabled": 0, "fusion_lat": 0.0, "lat": 38.926996, "is_reserved": 0}, {"lon": -76.99481716666666, "fusion_lon": 0.0, "bike_id": "e5b5061f7f28c39e1de77c2980f85fc7", "type": "electric_scooter", "name": "e5b5061f7f28c39e1de77c2980f85fc7", "rental_uris": {"android": "https://dc.lft.to/lastmile_qr_scan", "ios": "https://dc.lft.to/lastmile_qr_scan"}, "is_disabled": 0, "fusion_lat": 0.0, "lat": 38.862168, "is_reserved": 0}, {"lon": -77.03898666666667, "fusion_lon": 0.0, "bike_id": "16660eaecb2410e4b77120e331cb1d1d", "type": "electric_scooter", "name": "16660eaecb2410e4b77120e331cb1d1d", "rental_uris": {"android": "https://dc.lft.to/lastmile_qr_scan", "ios": "https://dc.lft.to/lastmile_qr_scan"}, "is_disabled": 0, "fusion_lat": 0.0, "lat": 38.92273183333333, "is_reserved": 0}, {"lon": -77.0434175, "fusion_lon": 0.0, "bike_id": "45cd214e2c8e225e6ed4e184b072a5a4", "type": "electric_scooter", "name": "45cd214e2c8e225e6ed4e184b072a5a4", "rental_uris": {"android": "https://dc.lft.to/lastmile_qr_scan", "ios": "https://dc.lft.to/lastmile_qr_scan"}, "is_disabled": 0, "fusion_lat": 0.0, "lat": 38.90424083333333, "is_reserved": 0}, {"lon": -77.02202766666667, "fusion_lon": 0.0, "bike_id": "5876eb8528ba03e577984b33ed440cec", "type": "electric_scooter", "name": "5876eb8528ba03e577984b33ed440cec", "rental_uris": {"android": "https://dc.lft.to/lastmile_qr_scan", "ios": "https://dc.lft.to/lastmile_qr_scan"}, "is_disabled": 0, "fusion_lat": 0.0, "lat": 38.94800266666667, "is_reserved": 0}, {"lon": -77.0328315, "fusion_lon": 0.0, "bike_id": "55c263855c4b71b41e2ac07d7134da1e", "type": "electric_scooter", "name": "55c263855c4b71b41e2ac07d7134da1e", "rental_uris": {"android": "https://dc.lft.to/lastmile_qr_scan", "ios": "https://dc.lft.to/lastmile_qr_scan"}, "is_disabled": 0, "fusion_lat": 0.0, "lat": 38.898815666666664, "is_reserved": 0}, {"lon": -77.04777333333334, "fusion_lon": 0.0, "bike_id": "0e843b23bf88db8bf9ae668c01732854", "type": "electric_scooter", "name": "0e843b23bf88db8bf9ae668c01732854", "rental_uris": {"android": "https://dc.lft.to/lastmile_qr_scan", "ios": "https://dc.lft.to/lastmile_qr_scan"}, "is_disabled": 0, "fusion_lat": 0.0, "lat": 38.8972815, "is_reserved": 0}, {"lon": -77.031851, "fusion_lon": 0.0, "bike_id": "92d4653a00165edef1ae9d0e85859458", "type": "electric_scooter", "name": "92d4653a00165edef1ae9d0e85859458", "rental_uris": {"android": "https://dc.lft.to/lastmile_qr_scan", "ios": "https://dc.lft.to/lastmile_qr_scan"}, "is_disabled": 0, "fusion_lat": 0.0, "lat": 38.91862316666667, "is_reserved": 0}, {"lon": -77.01763266666667, "fusion_lon": 0.0, "bike_id": "bb3387112690e377c126ef1d173759c0", "type": "electric_scooter", "name": "bb3387112690e377c126ef1d173759c0", "rental_uris": {"android": "https://dc.lft.to/lastmile_qr_scan", "ios": "https://dc.lft.to/lastmile_qr_scan"}, "is_disabled": 0, "fusion_lat": 0.0, "lat": 38.877951833333334, "is_reserved": 0}, {"lon": -77.02405933333333, "fusion_lon": 0.0, "bike_id": "bf6f5c45e348ec3b6f073df046b2f76f", "type": "electric_scooter", "name": "bf6f5c45e348ec3b6f073df046b2f76f", "rental_uris": {"android": "https://dc.lft.to/lastmile_qr_scan", "ios": "https://dc.lft.to/lastmile_qr_scan"}, "is_disabled": 0, "fusion_lat": 0.0, "lat": 38.914092, "is_reserved": 0}, {"lon": -77.040903, "fusion_lon": 0.0, "bike_id": "975028ae311c13f50d6c8995190d1698", "type": "electric_scooter", "name": "975028ae311c13f50d6c8995190d1698", "rental_uris": {"android": "https://dc.lft.to/lastmile_qr_scan", "ios": "https://dc.lft.to/lastmile_qr_scan"}, "is_disabled": 0, "fusion_lat": 0.0, "lat": 38.911164666666664, "is_reserved": 0}, {"lon": -77.00040416666667, "fusion_lon": 0.0, "bike_id": "82661db6c5a715ae1889882349c7217d", "type": "electric_scooter", "name": "82661db6c5a715ae1889882349c7217d", "rental_uris": {"android": "https://dc.lft.to/lastmile_qr_scan", "ios": "https://dc.lft.to/lastmile_qr_scan"}, "is_disabled": 0, "fusion_lat": 0.0, "lat": 38.89415116666667, "is_reserved": 0}, {"lon": -77.0519955, "fusion_lon": 0.0, "bike_id": "c6877562d0402896f35f93cbeda4771c", "type": "electric_scooter", "name": "c6877562d0402896f35f93cbeda4771c", "rental_uris": {"android": "https://dc.lft.to/lastmile_qr_scan", "ios": "https://dc.lft.to/lastmile_qr_scan"}, "is_disabled": 0, "fusion_lat": 0.0, "lat": 38.9030905, "is_reserved": 0}, {"lon": -77.05388816666667, "fusion_lon": 0.0, "bike_id": "fa0ee75d3527d9130d5e302d25a9bcfb", "type": "electric_bike", "name": "fa0ee75d3527d9130d5e302d25a9bcfb", "rental_uris": {"android": "https://dc.lft.to/lastmile_qr_scan", "ios": "https://dc.lft.to/lastmile_qr_scan"}, "is_disabled": 0, "fusion_lat": 0.0, "lat": 38.804528, "is_reserved": 0}, {"lon": -76.98064816666667, "fusion_lon": 0.0, "bike_id": "cef039f6cd13b90865f92231380b37b5", "type": "electric_scooter", "name": "cef039f6cd13b90865f92231380b37b5", "rental_uris": {"android": "https://dc.lft.to/lastmile_qr_scan", "ios": "https://dc.lft.to/lastmile_qr_scan"}, "is_disabled": 0, "fusion_lat": 0.0, "lat": 38.899429, "is_reserved": 0}, {"lon": -77.03232366666667, "fusion_lon": 0.0, "bike_id": "53abe42fefa99dbcada66d14b17ce72f", "type": "electric_scooter", "name": "53abe42fefa99dbcada66d14b17ce72f", "rental_uris": {"android": "https://dc.lft.to/lastmile_qr_scan", "ios": "https://dc.lft.to/lastmile_qr_scan"}, "is_disabled": 0, "fusion_lat": 0.0, "lat": 38.90974716666667, "is_reserved": 0}, {"lon": -77.05212733333333, "fusion_lon": 0.0, "bike_id": "7c9274bb8d6da3d29bb676ae361c1339", "type": "electric_scooter", "name": "7c9274bb8d6da3d29bb676ae361c1339", "rental_uris": {"android": "https://dc.lft.to/lastmile_qr_scan", "ios": "https://dc.lft.to/lastmile_qr_scan"}, "is_disabled": 0, "fusion_lat": 0.0, "lat": 38.9248605, "is_reserved": 0}, {"lon": -76.9903315, "fusion_lon": 0.0, "bike_id": "c7c2f46a51f911a2bd64c469bcc4405c", "type": "electric_scooter", "name": "c7c2f46a51f911a2bd64c469bcc4405c", "rental_uris": {"android": "https://dc.lft.to/lastmile_qr_scan", "ios": "https://dc.lft.to/lastmile_qr_scan"}, "is_disabled": 0, "fusion_lat": 0.0, "lat": 38.8984935, "is_reserved": 0}, {"lon": -77.02662866666667, "fusion_lon": 0.0, "bike_id": "240315f1edb8c6fbc2ee3da703359d21", "type": "electric_scooter", "name": "240315f1edb8c6fbc2ee3da703359d21", "rental_uris": {"android": "https://dc.lft.to/lastmile_qr_scan", "ios": "https://dc.lft.to/lastmile_qr_scan"}, "is_disabled": 0, "fusion_lat": 0.0, "lat": 38.93099866666667, "is_reserved": 0}, {"lon": -77.11321983333333, "fusion_lon": 0.0, "bike_id": "7279940269e1a9ae496865439a9dd946", "type": "electric_bike", "name": "7279940269e1a9ae496865439a9dd946", "rental_uris": {"android": "https://dc.lft.to/lastmile_qr_scan", "ios": "https://dc.lft.to/lastmile_qr_scan"}, "is_disabled": 0, "fusion_lat": 0.0, "lat": 38.81210566666667, "is_reserved": 0}, {"lon": -77.025019, "fusion_lon": 0.0, "bike_id": "a36f0325f67a33c477c5c14bbcd3f779", "type": "electric_scooter", "name": "a36f0325f67a33c477c5c14bbcd3f779", "rental_uris": {"android": "https://dc.lft.to/lastmile_qr_scan", "ios": "https://dc.lft.to/lastmile_qr_scan"}, "is_disabled": 0, "fusion_lat": 0.0, "lat": 38.939483833333334, "is_reserved": 0}, {"lon": -77.0344525, "fusion_lon": 0.0, "bike_id": "650420bff026025d09b6ef0b9e990eb5", "type": "electric_scooter", "name": "650420bff026025d09b6ef0b9e990eb5", "rental_uris": {"android": "https://dc.lft.to/lastmile_qr_scan", "ios": "https://dc.lft.to/lastmile_qr_scan"}, "is_disabled": 0, "fusion_lat": 0.0, "lat": 38.907358, "is_reserved": 0}, {"lon": -76.99906783333333, "fusion_lon": 0.0, "bike_id": "cc3789f7b4d80808ed263ff9c13246bd", "type": "electric_scooter", "name": "cc3789f7b4d80808ed263ff9c13246bd", "rental_uris": {"android": "https://dc.lft.to/lastmile_qr_scan", "ios": "https://dc.lft.to/lastmile_qr_scan"}, "is_disabled": 0, "fusion_lat": 0.0, "lat": 38.932127, "is_reserved": 0}, {"lon": -77.04228466666666, "fusion_lon": 0.0, "bike_id": "7813cd650be2b3c74adaebc6d57c9f1d", "type": "electric_scooter", "name": "7813cd650be2b3c74adaebc6d57c9f1d", "rental_uris": {"android": "https://dc.lft.to/lastmile_qr_scan", "ios": "https://dc.lft.to/lastmile_qr_scan"}, "is_disabled": 0, "fusion_lat": 0.0, "lat": 38.91107, "is_reserved": 0}, {"lon": -77.03865766666667, "fusion_lon": 0.0, "bike_id": "52e3adfadb73d4083664d13a56b1a29a", "type": "electric_scooter", "name": "52e3adfadb73d4083664d13a56b1a29a", "rental_uris": {"android": "https://dc.lft.to/lastmile_qr_scan", "ios": "https://dc.lft.to/lastmile_qr_scan"}, "is_disabled": 0, "fusion_lat": 0.0, "lat": 38.916913, "is_reserved": 0}, {"lon": -77.04677333333333, "fusion_lon": 0.0, "bike_id": "d5fd314adaa303122ba7f2cb3af8a7ba", "type": "electric_scooter", "name": "d5fd314adaa303122ba7f2cb3af8a7ba", "rental_uris": {"android": "https://dc.lft.to/lastmile_qr_scan", "ios": "https://dc.lft.to/lastmile_qr_scan"}, "is_disabled": 0, "fusion_lat": 0.0, "lat": 38.895587666666664, "is_reserved": 0}, {"lon": -77.05337383333334, "fusion_lon": 0.0, "bike_id": "d0cbfd80559e534219ff82fe9e7bf454", "type": "electric_bike", "name": "d0cbfd80559e534219ff82fe9e7bf454", "rental_uris": {"android": "https://dc.lft.to/lastmile_qr_scan", "ios": "https://dc.lft.to/lastmile_qr_scan"}, "is_disabled": 0, "fusion_lat": 0.0, "lat": 39.04081816666667, "is_reserved": 0}, {"lon": -76.95096233333334, "fusion_lon": 0.0, "bike_id": "80fa4cf7b7be1b26ccc73dbc762483a6", "type": "electric_scooter", "name": "80fa4cf7b7be1b26ccc73dbc762483a6", "rental_uris": {"android": "https://dc.lft.to/lastmile_qr_scan", "ios": "https://dc.lft.to/lastmile_qr_scan"}, "is_disabled": 0, "fusion_lat": 0.0, "lat": 38.884508333333336, "is_reserved": 0}, {"lon": -77.03831583333333, "fusion_lon": 0.0, "bike_id": "3b8da445162035deb931bf9eb0320bf4", "type": "electric_scooter", "name": "3b8da445162035deb931bf9eb0320bf4", "rental_uris": {"android": "https://dc.lft.to/lastmile_qr_scan", "ios": "https://dc.lft.to/lastmile_qr_scan"}, "is_disabled": 0, "fusion_lat": 0.0, "lat": 38.91108883333333, "is_reserved": 0}, {"lon": -77.05254783333334, "fusion_lon": 0.0, "bike_id": "610aecc1886e6c41e849d6119ec096d4", "type": "electric_scooter", "name": "610aecc1886e6c41e849d6119ec096d4", "rental_uris": {"android": "https://dc.lft.to/lastmile_qr_scan", "ios": "https://dc.lft.to/lastmile_qr_scan"}, "is_disabled": 0, "fusion_lat": 0.0, "lat": 38.925671, "is_reserved": 0}, {"lon": -77.03354466666667, "fusion_lon": 0.0, "bike_id": "d7dbca6c6d7d28feb50750fcd9cf0bf8", "type": "electric_scooter", "name": "d7dbca6c6d7d28feb50750fcd9cf0bf8", "rental_uris": {"android": "https://dc.lft.to/lastmile_qr_scan", "ios": "https://dc.lft.to/lastmile_qr_scan"}, "is_disabled": 0, "fusion_lat": 0.0, "lat": 38.935838333333336, "is_reserved": 0}, {"lon": -77.03182166666667, "fusion_lon": 0.0, "bike_id": "3cde7e03f2d86b6af9a50cecb8b5978e", "type": "electric_scooter", "name": "3cde7e03f2d86b6af9a50cecb8b5978e", "rental_uris": {"android": "https://dc.lft.to/lastmile_qr_scan", "ios": "https://dc.lft.to/lastmile_qr_scan"}, "is_disabled": 0, "fusion_lat": 0.0, "lat": 38.915525833333334, "is_reserved": 0}, {"lon": -77.01147566666667, "fusion_lon": 0.0, "bike_id": "15c5172f0c8fbc304cb8808ad825426f", "type": "electric_scooter", "name": "15c5172f0c8fbc304cb8808ad825426f", "rental_uris": {"android": "https://dc.lft.to/lastmile_qr_scan", "ios": "https://dc.lft.to/lastmile_qr_scan"}, "is_disabled": 0, "fusion_lat": 0.0, "lat": 38.91108933333334, "is_reserved": 0}, {"lon": -76.96107483333333, "fusion_lon": 0.0, "bike_id": "8bf37115d1c636fe27437d270f718e64", "type": "electric_bike", "name": "8bf37115d1c636fe27437d270f718e64", "rental_uris": {"android": "https://dc.lft.to/lastmile_qr_scan", "ios": "https://dc.lft.to/lastmile_qr_scan"}, "is_disabled": 0, "fusion_lat": 0.0, "lat": 38.9286375, "is_reserved": 0}, {"lon": -77.03138416666667, "fusion_lon": 0.0, "bike_id": "d7ab12e37961cb103c7244c5b24d9cdc", "type": "electric_scooter", "name": "d7ab12e37961cb103c7244c5b24d9cdc", "rental_uris": {"android": "https://dc.lft.to/lastmile_qr_scan", "ios": "https://dc.lft.to/lastmile_qr_scan"}, "is_disabled": 0, "fusion_lat": 0.0, "lat": 38.9043955, "is_reserved": 0}, {"lon": -77.00490366666666, "fusion_lon": 0.0, "bike_id": "6baab26c829b595460c7d097d1ec7dd7", "type": "electric_scooter", "name": "6baab26c829b595460c7d097d1ec7dd7", "rental_uris": {"android": "https://dc.lft.to/lastmile_qr_scan", "ios": "https://dc.lft.to/lastmile_qr_scan"}, "is_disabled": 0, "fusion_lat": 0.0, "lat": 38.8746685, "is_reserved": 0}, {"lon": -77.02689766666667, "fusion_lon": 0.0, "bike_id": "12b06b4d27be5b9206e830d28f64ef9c", "type": "electric_scooter", "name": "12b06b4d27be5b9206e830d28f64ef9c", "rental_uris": {"android": "https://dc.lft.to/lastmile_qr_scan", "ios": "https://dc.lft.to/lastmile_qr_scan"}, "is_disabled": 0, "fusion_lat": 0.0, "lat": 38.92676133333333, "is_reserved": 0}, {"lon": -77.0162495, "fusion_lon": 0.0, "bike_id": "3d5af7f63c11657962e5f54fd869943f", "type": "electric_scooter", "name": "3d5af7f63c11657962e5f54fd869943f", "rental_uris": {"android": "https://dc.lft.to/lastmile_qr_scan", "ios": "https://dc.lft.to/lastmile_qr_scan"}, "is_disabled": 0, "fusion_lat": 0.0, "lat": 38.90313716666667, "is_reserved": 0}, {"lon": -77.0354365, "fusion_lon": 0.0, "bike_id": "f75df97186bba3e30fb4edd6b7076dc8", "type": "electric_scooter", "name": "f75df97186bba3e30fb4edd6b7076dc8", "rental_uris": {"android": "https://dc.lft.to/lastmile_qr_scan", "ios": "https://dc.lft.to/lastmile_qr_scan"}, "is_disabled": 0, "fusion_lat": 0.0, "lat": 38.903585166666666, "is_reserved": 0}, {"lon": -77.08486216666667, "fusion_lon": 0.0, "bike_id": "3dadd52621fe8f4da34977c9a6601261", "type": "electric_scooter", "name": "3dadd52621fe8f4da34977c9a6601261", "rental_uris": {"android": "https://dc.lft.to/lastmile_qr_scan", "ios": "https://dc.lft.to/lastmile_qr_scan"}, "is_disabled": 0, "fusion_lat": 0.0, "lat": 38.939054166666665, "is_reserved": 0}, {"lon": -76.99920716666666, "fusion_lon": 0.0, "bike_id": "dfd6d102fd9a3b2f923dc378171e003e", "type": "electric_scooter", "name": "dfd6d102fd9a3b2f923dc378171e003e", "rental_uris": {"android": "https://dc.lft.to/lastmile_qr_scan", "ios": "https://dc.lft.to/lastmile_qr_scan"}, "is_disabled": 0, "fusion_lat": 0.0, "lat": 38.909259666666664, "is_reserved": 0}, {"lon": -77.00227, "fusion_lon": 0.0, "bike_id": "6ad18bf088ca37e211f03a8533fdc369", "type": "electric_scooter", "name": "6ad18bf088ca37e211f03a8533fdc369", "rental_uris": {"android": "https://dc.lft.to/lastmile_qr_scan", "ios": "https://dc.lft.to/lastmile_qr_scan"}, "is_disabled": 0, "fusion_lat": 0.0, "lat": 38.885139833333334, "is_reserved": 0}, {"lon": -77.04173466666667, "fusion_lon": 0.0, "bike_id": "88ddd1aa2ee7a0ac3113cad646536537", "type": "electric_scooter", "name": "88ddd1aa2ee7a0ac3113cad646536537", "rental_uris": {"android": "https://dc.lft.to/lastmile_qr_scan", "ios": "https://dc.lft.to/lastmile_qr_scan"}, "is_disabled": 0, "fusion_lat": 0.0, "lat": 38.920554333333335, "is_reserved": 0}, {"lon": -77.0175595, "fusion_lon": 0.0, "bike_id": "0d8e34eef045996b5d2fb2b1f2689636", "type": "electric_scooter", "name": "0d8e34eef045996b5d2fb2b1f2689636", "rental_uris": {"android": "https://dc.lft.to/lastmile_qr_scan", "ios": "https://dc.lft.to/lastmile_qr_scan"}, "is_disabled": 0, "fusion_lat": 0.0, "lat": 38.92100833333333, "is_reserved": 0}, {"lon": -77.02481433333334, "fusion_lon": 0.0, "bike_id": "aa596d4b8d3ee15a12b6a3b614a72722", "type": "electric_scooter", "name": "aa596d4b8d3ee15a12b6a3b614a72722", "rental_uris": {"android": "https://dc.lft.to/lastmile_qr_scan", "ios": "https://dc.lft.to/lastmile_qr_scan"}, "is_disabled": 0, "fusion_lat": 0.0, "lat": 38.93965516666667, "is_reserved": 0}, {"lon": -77.02208333333333, "fusion_lon": 0.0, "bike_id": "4e5f57563483521c4658cd7ea7d7a83c", "type": "electric_scooter", "name": "4e5f57563483521c4658cd7ea7d7a83c", "rental_uris": {"android": "https://dc.lft.to/lastmile_qr_scan", "ios": "https://dc.lft.to/lastmile_qr_scan"}, "is_disabled": 0, "fusion_lat": 0.0, "lat": 38.927927333333336, "is_reserved": 0}, {"lon": -76.98546466666667, "fusion_lon": 0.0, "bike_id": "88e3fae264813400b40cf54322c1e9ba", "type": "electric_scooter", "name": "88e3fae264813400b40cf54322c1e9ba", "rental_uris": {"android": "https://dc.lft.to/lastmile_qr_scan", "ios": "https://dc.lft.to/lastmile_qr_scan"}, "is_disabled": 0, "fusion_lat": 0.0, "lat": 38.86690016666667, "is_reserved": 0}, {"lon": -77.03854316666667, "fusion_lon": 0.0, "bike_id": "e28aa84deb28ba8a8add9ff615208c48", "type": "electric_scooter", "name": "e28aa84deb28ba8a8add9ff615208c48", "rental_uris": {"android": "https://dc.lft.to/lastmile_qr_scan", "ios": "https://dc.lft.to/lastmile_qr_scan"}, "is_disabled": 0, "fusion_lat": 0.0, "lat": 38.9130545, "is_reserved": 0}, {"lon": -77.00957183333334, "fusion_lon": 0.0, "bike_id": "48e5b28540f46eed6b0463d88aa424ac", "type": "electric_scooter", "name": "48e5b28540f46eed6b0463d88aa424ac", "rental_uris": {"android": "https://dc.lft.to/lastmile_qr_scan", "ios": "https://dc.lft.to/lastmile_qr_scan"}, "is_disabled": 0, "fusion_lat": 0.0, "lat": 38.8975935, "is_reserved": 0}, {"lon": -77.02962866666667, "fusion_lon": 0.0, "bike_id": "36bd6109e8214a42bce1d0d63b6cf8b7", "type": "electric_scooter", "name": "36bd6109e8214a42bce1d0d63b6cf8b7", "rental_uris": {"android": "https://dc.lft.to/lastmile_qr_scan", "ios": "https://dc.lft.to/lastmile_qr_scan"}, "is_disabled": 0, "fusion_lat": 0.0, "lat": 38.9129615, "is_reserved": 0}, {"lon": -76.9800535, "fusion_lon": 0.0, "bike_id": "84369b9fef01026b2dbb6d73c57756c8", "type": "electric_scooter", "name": "84369b9fef01026b2dbb6d73c57756c8", "rental_uris": {"android": "https://dc.lft.to/lastmile_qr_scan", "ios": "https://dc.lft.to/lastmile_qr_scan"}, "is_disabled": 0, "fusion_lat": 0.0, "lat": 38.864298833333336, "is_reserved": 0}, {"lon": -77.031944, "fusion_lon": 0.0, "bike_id": "ccf3909c4eb4f10a3ce1aadcfbbad83e", "type": "electric_scooter", "name": "ccf3909c4eb4f10a3ce1aadcfbbad83e", "rental_uris": {"android": "https://dc.lft.to/lastmile_qr_scan", "ios": "https://dc.lft.to/lastmile_qr_scan"}, "is_disabled": 0, "fusion_lat": 0.0, "lat": 38.9248285, "is_reserved": 0}, {"lon": -77.0400775, "fusion_lon": 0.0, "bike_id": "63d72e941441b62901442acec8fb53c2", "type": "electric_scooter", "name": "63d72e941441b62901442acec8fb53c2", "rental_uris": {"android": "https://dc.lft.to/lastmile_qr_scan", "ios": "https://dc.lft.to/lastmile_qr_scan"}, "is_disabled": 0, "fusion_lat": 0.0, "lat": 38.89636333333333, "is_reserved": 0}, {"lon": -77.01626233333333, "fusion_lon": 0.0, "bike_id": "cb0f1a2647ef76cbf7769dd1ac4e15ac", "type": "electric_scooter", "name": "cb0f1a2647ef76cbf7769dd1ac4e15ac", "rental_uris": {"android": "https://dc.lft.to/lastmile_qr_scan", "ios": "https://dc.lft.to/lastmile_qr_scan"}, "is_disabled": 0, "fusion_lat": 0.0, "lat": 38.901922166666665, "is_reserved": 0}, {"lon": -77.00132866666667, "fusion_lon": 0.0, "bike_id": "303e4833adbefda6c68878c7b8fefe51", "type": "electric_scooter", "name": "303e4833adbefda6c68878c7b8fefe51", "rental_uris": {"android": "https://dc.lft.to/lastmile_qr_scan", "ios": "https://dc.lft.to/lastmile_qr_scan"}, "is_disabled": 0, "fusion_lat": 0.0, "lat": 38.892675, "is_reserved": 0}, {"lon": -77.03839316666667, "fusion_lon": 0.0, "bike_id": "5beb15e6a14a7500e8cef41a0d4fe09d", "type": "electric_scooter", "name": "5beb15e6a14a7500e8cef41a0d4fe09d", "rental_uris": {"android": "https://dc.lft.to/lastmile_qr_scan", "ios": "https://dc.lft.to/lastmile_qr_scan"}, "is_disabled": 0, "fusion_lat": 0.0, "lat": 38.90272783333333, "is_reserved": 0}, {"lon": -76.999966, "fusion_lon": 0.0, "bike_id": "4471da12ab82b2e8d117039560bee6bc", "type": "electric_scooter", "name": "4471da12ab82b2e8d117039560bee6bc", "rental_uris": {"android": "https://dc.lft.to/lastmile_qr_scan", "ios": "https://dc.lft.to/lastmile_qr_scan"}, "is_disabled": 0, "fusion_lat": 0.0, "lat": 38.874715333333334, "is_reserved": 0}, {"lon": -77.02558916666666, "fusion_lon": 0.0, "bike_id": "eb5484e99c5bdb7b81e9419487ec8e48", "type": "electric_scooter", "name": "eb5484e99c5bdb7b81e9419487ec8e48", "rental_uris": {"android": "https://dc.lft.to/lastmile_qr_scan", "ios": "https://dc.lft.to/lastmile_qr_scan"}, "is_disabled": 0, "fusion_lat": 0.0, "lat": 38.94177533333333, "is_reserved": 0}, {"lon": -77.02303533333334, "fusion_lon": 0.0, "bike_id": "bf470b89c76f635727d21e7e11322ad7", "type": "electric_scooter", "name": "bf470b89c76f635727d21e7e11322ad7", "rental_uris": {"android": "https://dc.lft.to/lastmile_qr_scan", "ios": "https://dc.lft.to/lastmile_qr_scan"}, "is_disabled": 0, "fusion_lat": 0.0, "lat": 38.917282, "is_reserved": 0}, {"lon": -77.00035866666667, "fusion_lon": 0.0, "bike_id": "ab1fddc51445fa3b76919d3cfee5bfd6", "type": "electric_scooter", "name": "ab1fddc51445fa3b76919d3cfee5bfd6", "rental_uris": {"android": "https://dc.lft.to/lastmile_qr_scan", "ios": "https://dc.lft.to/lastmile_qr_scan"}, "is_disabled": 0, "fusion_lat": 0.0, "lat": 38.92365183333333, "is_reserved": 0}, {"lon": -77.00651116666667, "fusion_lon": 0.0, "bike_id": "b99950fd7fec7548540ce28813c9bb4b", "type": "electric_scooter", "name": "b99950fd7fec7548540ce28813c9bb4b", "rental_uris": {"android": "https://dc.lft.to/lastmile_qr_scan", "ios": "https://dc.lft.to/lastmile_qr_scan"}, "is_disabled": 0, "fusion_lat": 0.0, "lat": 38.90001766666666, "is_reserved": 0}, {"lon": -76.99040033333333, "fusion_lon": 0.0, "bike_id": "48b424488af43d5fd36208ae54e53ee0", "type": "electric_scooter", "name": "48b424488af43d5fd36208ae54e53ee0", "rental_uris": {"android": "https://dc.lft.to/lastmile_qr_scan", "ios": "https://dc.lft.to/lastmile_qr_scan"}, "is_disabled": 0, "fusion_lat": 0.0, "lat": 38.86391916666667, "is_reserved": 0}, {"lon": -77.00596283333333, "fusion_lon": 0.0, "bike_id": "c1010d9a557d0c33ae0ca91e7499546e", "type": "electric_scooter", "name": "c1010d9a557d0c33ae0ca91e7499546e", "rental_uris": {"android": "https://dc.lft.to/lastmile_qr_scan", "ios": "https://dc.lft.to/lastmile_qr_scan"}, "is_disabled": 0, "fusion_lat": 0.0, "lat": 38.87651833333334, "is_reserved": 0}, {"lon": -77.0591855, "fusion_lon": 0.0, "bike_id": "6c5b67412dd507f1a81d5e64f90f7834", "type": "electric_scooter", "name": "6c5b67412dd507f1a81d5e64f90f7834", "rental_uris": {"android": "https://dc.lft.to/lastmile_qr_scan", "ios": "https://dc.lft.to/lastmile_qr_scan"}, "is_disabled": 0, "fusion_lat": 0.0, "lat": 38.902682, "is_reserved": 0}, {"lon": -77.02853416666666, "fusion_lon": 0.0, "bike_id": "702ad9128165fab8785f2858ba1565a1", "type": "electric_scooter", "name": "702ad9128165fab8785f2858ba1565a1", "rental_uris": {"android": "https://dc.lft.to/lastmile_qr_scan", "ios": "https://dc.lft.to/lastmile_qr_scan"}, "is_disabled": 0, "fusion_lat": 0.0, "lat": 38.893593333333335, "is_reserved": 0}, {"lon": -77.01455933333334, "fusion_lon": 0.0, "bike_id": "3dd7d151c482ab79ecd3c1156afa8afe", "type": "electric_scooter", "name": "3dd7d151c482ab79ecd3c1156afa8afe", "rental_uris": {"android": "https://dc.lft.to/lastmile_qr_scan", "ios": "https://dc.lft.to/lastmile_qr_scan"}, "is_disabled": 0, "fusion_lat": 0.0, "lat": 38.91581133333333, "is_reserved": 0}, {"lon": -77.00195183333334, "fusion_lon": 0.0, "bike_id": "3aa63d63b2e1c46a6246480425cae7e9", "type": "electric_scooter", "name": "3aa63d63b2e1c46a6246480425cae7e9", "rental_uris": {"android": "https://dc.lft.to/lastmile_qr_scan", "ios": "https://dc.lft.to/lastmile_qr_scan"}, "is_disabled": 0, "fusion_lat": 0.0, "lat": 38.90239483333333, "is_reserved": 0}, {"lon": -77.0318445, "fusion_lon": 0.0, "bike_id": "65d710572d24e382081c63211529cc6c", "type": "electric_scooter", "name": "65d710572d24e382081c63211529cc6c", "rental_uris": {"android": "https://dc.lft.to/lastmile_qr_scan", "ios": "https://dc.lft.to/lastmile_qr_scan"}, "is_disabled": 0, "fusion_lat": 0.0, "lat": 38.918525833333334, "is_reserved": 0}, {"lon": -77.0222505, "fusion_lon": 0.0, "bike_id": "8a4528baa83f8b9066fe47fbad978f90", "type": "electric_scooter", "name": "8a4528baa83f8b9066fe47fbad978f90", "rental_uris": {"android": "https://dc.lft.to/lastmile_qr_scan", "ios": "https://dc.lft.to/lastmile_qr_scan"}, "is_disabled": 0, "fusion_lat": 0.0, "lat": 38.89218483333333, "is_reserved": 0}, {"lon": -76.99818416666666, "fusion_lon": 0.0, "bike_id": "9ee05283e4b377fa50a46de4dc1fc056", "type": "electric_bike", "name": "9ee05283e4b377fa50a46de4dc1fc056", "rental_uris": {"android": "https://dc.lft.to/lastmile_qr_scan", "ios": "https://dc.lft.to/lastmile_qr_scan"}, "is_disabled": 0, "fusion_lat": 0.0, "lat": 38.924028, "is_reserved": 0}, {"lon": -77.03927866666666, "fusion_lon": 0.0, "bike_id": "ca71035622d774d16b5042d2a210dae8", "type": "electric_scooter", "name": "ca71035622d774d16b5042d2a210dae8", "rental_uris": {"android": "https://dc.lft.to/lastmile_qr_scan", "ios": "https://dc.lft.to/lastmile_qr_scan"}, "is_disabled": 0, "fusion_lat": 0.0, "lat": 38.91259216666667, "is_reserved": 0}, {"lon": -77.038295, "fusion_lon": 0.0, "bike_id": "77804e2902f89597dd0ecd4ad67162c2", "type": "electric_scooter", "name": "77804e2902f89597dd0ecd4ad67162c2", "rental_uris": {"android": "https://dc.lft.to/lastmile_qr_scan", "ios": "https://dc.lft.to/lastmile_qr_scan"}, "is_disabled": 0, "fusion_lat": 0.0, "lat": 38.94196516666667, "is_reserved": 0}, {"lon": -77.0000085, "fusion_lon": 0.0, "bike_id": "00f589431e16b1cac0cd032750243627", "type": "electric_scooter", "name": "00f589431e16b1cac0cd032750243627", "rental_uris": {"android": "https://dc.lft.to/lastmile_qr_scan", "ios": "https://dc.lft.to/lastmile_qr_scan"}, "is_disabled": 0, "fusion_lat": 0.0, "lat": 38.906706166666666, "is_reserved": 0}, {"lon": -77.04704816666667, "fusion_lon": 0.0, "bike_id": "2fb49b9940b158069c7bd872bba92607", "type": "electric_scooter", "name": "2fb49b9940b158069c7bd872bba92607", "rental_uris": {"android": "https://dc.lft.to/lastmile_qr_scan", "ios": "https://dc.lft.to/lastmile_qr_scan"}, "is_disabled": 0, "fusion_lat": 0.0, "lat": 38.92191833333333, "is_reserved": 0}, {"lon": -77.02977533333333, "fusion_lon": 0.0, "bike_id": "84ac3959f731611becb44022b59514cc", "type": "electric_scooter", "name": "84ac3959f731611becb44022b59514cc", "rental_uris": {"android": "https://dc.lft.to/lastmile_qr_scan", "ios": "https://dc.lft.to/lastmile_qr_scan"}, "is_disabled": 0, "fusion_lat": 0.0, "lat": 38.8903935, "is_reserved": 0}, {"lon": -76.983568, "fusion_lon": 0.0, "bike_id": "10c33ce598e714c0969ff945b1993ccb", "type": "electric_bike", "name": "10c33ce598e714c0969ff945b1993ccb", "rental_uris": {"android": "https://dc.lft.to/lastmile_qr_scan", "ios": "https://dc.lft.to/lastmile_qr_scan"}, "is_disabled": 0, "fusion_lat": 0.0, "lat": 38.862593, "is_reserved": 0}, {"lon": -77.00819116666666, "fusion_lon": 0.0, "bike_id": "6139ab59730e6b630af63f81caa83bb7", "type": "electric_scooter", "name": "6139ab59730e6b630af63f81caa83bb7", "rental_uris": {"android": "https://dc.lft.to/lastmile_qr_scan", "ios": "https://dc.lft.to/lastmile_qr_scan"}, "is_disabled": 0, "fusion_lat": 0.0, "lat": 38.83166, "is_reserved": 0}, {"lon": -77.03222116666667, "fusion_lon": 0.0, "bike_id": "c2a956e76303782fe69adb8f8145a699", "type": "electric_scooter", "name": "c2a956e76303782fe69adb8f8145a699", "rental_uris": {"android": "https://dc.lft.to/lastmile_qr_scan", "ios": "https://dc.lft.to/lastmile_qr_scan"}, "is_disabled": 0, "fusion_lat": 0.0, "lat": 38.91404083333333, "is_reserved": 0}, {"lon": -77.03542133333333, "fusion_lon": 0.0, "bike_id": "488a417553aea944f2cd059e72693441", "type": "electric_scooter", "name": "488a417553aea944f2cd059e72693441", "rental_uris": {"android": "https://dc.lft.to/lastmile_qr_scan", "ios": "https://dc.lft.to/lastmile_qr_scan"}, "is_disabled": 0, "fusion_lat": 0.0, "lat": 38.91861683333333, "is_reserved": 0}, {"lon": -77.02721666666666, "fusion_lon": 0.0, "bike_id": "10c0069ceed2d674b50a4b326a9f060b", "type": "electric_scooter", "name": "10c0069ceed2d674b50a4b326a9f060b", "rental_uris": {"android": "https://dc.lft.to/lastmile_qr_scan", "ios": "https://dc.lft.to/lastmile_qr_scan"}, "is_disabled": 0, "fusion_lat": 0.0, "lat": 38.90789066666667, "is_reserved": 0}, {"lon": -76.90420633333333, "fusion_lon": 0.0, "bike_id": "fd2bd9d823a06bf41e52ff26675bb839", "type": "electric_bike", "name": "fd2bd9d823a06bf41e52ff26675bb839", "rental_uris": {"android": "https://dc.lft.to/lastmile_qr_scan", "ios": "https://dc.lft.to/lastmile_qr_scan"}, "is_disabled": 0, "fusion_lat": 0.0, "lat": 38.940553666666666, "is_reserved": 0}, {"lon": -77.04528, "fusion_lon": 0.0, "bike_id": "7d1068f142ab04b24212c52c9abb183e", "type": "electric_scooter", "name": "7d1068f142ab04b24212c52c9abb183e", "rental_uris": {"android": "https://dc.lft.to/lastmile_qr_scan", "ios": "https://dc.lft.to/lastmile_qr_scan"}, "is_disabled": 0, "fusion_lat": 0.0, "lat": 38.89471366666667, "is_reserved": 0}, {"lon": -77.03830533333333, "fusion_lon": 0.0, "bike_id": "1494a5defa89cd0809fd26a4e3c833db", "type": "electric_scooter", "name": "1494a5defa89cd0809fd26a4e3c833db", "rental_uris": {"android": "https://dc.lft.to/lastmile_qr_scan", "ios": "https://dc.lft.to/lastmile_qr_scan"}, "is_disabled": 0, "fusion_lat": 0.0, "lat": 38.90328366666667, "is_reserved": 0}, {"lon": -77.05265166666666, "fusion_lon": 0.0, "bike_id": "bb8592ab38c5a7183256979293b4448b", "type": "electric_scooter", "name": "bb8592ab38c5a7183256979293b4448b", "rental_uris": {"android": "https://dc.lft.to/lastmile_qr_scan", "ios": "https://dc.lft.to/lastmile_qr_scan"}, "is_disabled": 0, "fusion_lat": 0.0, "lat": 38.92372, "is_reserved": 0}, {"lon": -77.03149666666667, "fusion_lon": 0.0, "bike_id": "627bc1f803e12cf140364991cdb22f96", "type": "electric_scooter", "name": "627bc1f803e12cf140364991cdb22f96", "rental_uris": {"android": "https://dc.lft.to/lastmile_qr_scan", "ios": "https://dc.lft.to/lastmile_qr_scan"}, "is_disabled": 0, "fusion_lat": 0.0, "lat": 38.91276233333333, "is_reserved": 0}, {"lon": -77.03242316666666, "fusion_lon": 0.0, "bike_id": "6b89c5ae037ac2e6f8a2b7bd489272f4", "type": "electric_scooter", "name": "6b89c5ae037ac2e6f8a2b7bd489272f4", "rental_uris": {"android": "https://dc.lft.to/lastmile_qr_scan", "ios": "https://dc.lft.to/lastmile_qr_scan"}, "is_disabled": 0, "fusion_lat": 0.0, "lat": 38.8972535, "is_reserved": 0}, {"lon": -77.022939, "fusion_lon": 0.0, "bike_id": "e926b0d6deacf9d5fe404d0d9c617d29", "type": "electric_scooter", "name": "e926b0d6deacf9d5fe404d0d9c617d29", "rental_uris": {"android": "https://dc.lft.to/lastmile_qr_scan", "ios": "https://dc.lft.to/lastmile_qr_scan"}, "is_disabled": 0, "fusion_lat": 0.0, "lat": 38.916819333333336, "is_reserved": 0}, {"lon": -77.02707983333333, "fusion_lon": 0.0, "bike_id": "2314a7e73b67f6714a297052c8910f12", "type": "electric_scooter", "name": "2314a7e73b67f6714a297052c8910f12", "rental_uris": {"android": "https://dc.lft.to/lastmile_qr_scan", "ios": "https://dc.lft.to/lastmile_qr_scan"}, "is_disabled": 0, "fusion_lat": 0.0, "lat": 38.91719233333333, "is_reserved": 0}, {"lon": -76.9373225, "fusion_lon": 0.0, "bike_id": "ea9972e415e38c4486005ca295526b3d", "type": "electric_scooter", "name": "ea9972e415e38c4486005ca295526b3d", "rental_uris": {"android": "https://dc.lft.to/lastmile_qr_scan", "ios": "https://dc.lft.to/lastmile_qr_scan"}, "is_disabled": 0, "fusion_lat": 0.0, "lat": 38.890162833333335, "is_reserved": 0}, {"lon": -77.03883633333334, "fusion_lon": 0.0, "bike_id": "54dfc3043cf16b25c573df7da6761311", "type": "electric_scooter", "name": "54dfc3043cf16b25c573df7da6761311", "rental_uris": {"android": "https://dc.lft.to/lastmile_qr_scan", "ios": "https://dc.lft.to/lastmile_qr_scan"}, "is_disabled": 0, "fusion_lat": 0.0, "lat": 38.914679, "is_reserved": 0}, {"lon": -76.96014866666667, "fusion_lon": 0.0, "bike_id": "551365e759a024a2d822a308ab0503de", "type": "electric_scooter", "name": "551365e759a024a2d822a308ab0503de", "rental_uris": {"android": "https://dc.lft.to/lastmile_qr_scan", "ios": "https://dc.lft.to/lastmile_qr_scan"}, "is_disabled": 0, "fusion_lat": 0.0, "lat": 38.86933916666667, "is_reserved": 0}, {"lon": -77.0388145, "fusion_lon": 0.0, "bike_id": "7e3132f8bc104ae87f6989506def147b", "type": "electric_scooter", "name": "7e3132f8bc104ae87f6989506def147b", "rental_uris": {"android": "https://dc.lft.to/lastmile_qr_scan", "ios": "https://dc.lft.to/lastmile_qr_scan"}, "is_disabled": 0, "fusion_lat": 0.0, "lat": 38.91706466666667, "is_reserved": 0}, {"lon": -77.03405766666667, "fusion_lon": 0.0, "bike_id": "24dbe7d9d2b0b4691b3247e04e9d4eb8", "type": "electric_scooter", "name": "24dbe7d9d2b0b4691b3247e04e9d4eb8", "rental_uris": {"android": "https://dc.lft.to/lastmile_qr_scan", "ios": "https://dc.lft.to/lastmile_qr_scan"}, "is_disabled": 0, "fusion_lat": 0.0, "lat": 38.923159166666665, "is_reserved": 0}, {"lon": -77.03424766666667, "fusion_lon": 0.0, "bike_id": "0a6fe16ee9083e3b0369e9f586894c23", "type": "electric_scooter", "name": "0a6fe16ee9083e3b0369e9f586894c23", "rental_uris": {"android": "https://dc.lft.to/lastmile_qr_scan", "ios": "https://dc.lft.to/lastmile_qr_scan"}, "is_disabled": 0, "fusion_lat": 0.0, "lat": 38.9273945, "is_reserved": 0}, {"lon": -77.03438383333334, "fusion_lon": 0.0, "bike_id": "9d21a23e861f3f35ce1caa7f24915e61", "type": "electric_scooter", "name": "9d21a23e861f3f35ce1caa7f24915e61", "rental_uris": {"android": "https://dc.lft.to/lastmile_qr_scan", "ios": "https://dc.lft.to/lastmile_qr_scan"}, "is_disabled": 0, "fusion_lat": 0.0, "lat": 38.918024333333335, "is_reserved": 0}, {"lon": -77.015502, "fusion_lon": 0.0, "bike_id": "9ab316db471d847744ccf6cf0d5ab127", "type": "electric_scooter", "name": "9ab316db471d847744ccf6cf0d5ab127", "rental_uris": {"android": "https://dc.lft.to/lastmile_qr_scan", "ios": "https://dc.lft.to/lastmile_qr_scan"}, "is_disabled": 0, "fusion_lat": 0.0, "lat": 38.916044666666664, "is_reserved": 0}, {"lon": -77.023878, "fusion_lon": 0.0, "bike_id": "450dd626bd10557ed781b60f99d42a8d", "type": "electric_scooter", "name": "450dd626bd10557ed781b60f99d42a8d", "rental_uris": {"android": "https://dc.lft.to/lastmile_qr_scan", "ios": "https://dc.lft.to/lastmile_qr_scan"}, "is_disabled": 0, "fusion_lat": 0.0, "lat": 38.90701166666667, "is_reserved": 0}, {"lon": -77.02025466666667, "fusion_lon": 0.0, "bike_id": "f9b853fa2839dc19079916c0b2e4725c", "type": "electric_scooter", "name": "f9b853fa2839dc19079916c0b2e4725c", "rental_uris": {"android": "https://dc.lft.to/lastmile_qr_scan", "ios": "https://dc.lft.to/lastmile_qr_scan"}, "is_disabled": 0, "fusion_lat": 0.0, "lat": 38.901589333333334, "is_reserved": 0}, {"lon": -77.044547, "fusion_lon": 0.0, "bike_id": "ef4dfad7d8ad96c8f7caf4c4433b0d81", "type": "electric_bike", "name": "ef4dfad7d8ad96c8f7caf4c4433b0d81", "rental_uris": {"android": "https://dc.lft.to/lastmile_qr_scan", "ios": "https://dc.lft.to/lastmile_qr_scan"}, "is_disabled": 0, "fusion_lat": 0.0, "lat": 38.915466, "is_reserved": 0}, {"lon": -77.036576, "fusion_lon": 0.0, "bike_id": "14c962d84146ba9468798d268227f549", "type": "electric_scooter", "name": "14c962d84146ba9468798d268227f549", "rental_uris": {"android": "https://dc.lft.to/lastmile_qr_scan", "ios": "https://dc.lft.to/lastmile_qr_scan"}, "is_disabled": 0, "fusion_lat": 0.0, "lat": 38.929828, "is_reserved": 0}, {"lon": -76.92901366666666, "fusion_lon": 0.0, "bike_id": "7622047eb2fd9d9c82082c57dd88fdb6", "type": "electric_scooter", "name": "7622047eb2fd9d9c82082c57dd88fdb6", "rental_uris": {"android": "https://dc.lft.to/lastmile_qr_scan", "ios": "https://dc.lft.to/lastmile_qr_scan"}, "is_disabled": 0, "fusion_lat": 0.0, "lat": 38.90186816666667, "is_reserved": 0}, {"lon": -76.9482695, "fusion_lon": 0.0, "bike_id": "21ac43452a3d63fc8c95d0409275d638", "type": "electric_scooter", "name": "21ac43452a3d63fc8c95d0409275d638", "rental_uris": {"android": "https://dc.lft.to/lastmile_qr_scan", "ios": "https://dc.lft.to/lastmile_qr_scan"}, "is_disabled": 0, "fusion_lat": 0.0, "lat": 38.884124666666665, "is_reserved": 0}, {"lon": -77.0238035, "fusion_lon": 0.0, "bike_id": "b056e3818e1d0ecfb4d8009df34ad7f7", "type": "electric_scooter", "name": "b056e3818e1d0ecfb4d8009df34ad7f7", "rental_uris": {"android": "https://dc.lft.to/lastmile_qr_scan", "ios": "https://dc.lft.to/lastmile_qr_scan"}, "is_disabled": 0, "fusion_lat": 0.0, "lat": 38.892005, "is_reserved": 0}, {"lon": -77.01438983333334, "fusion_lon": 0.0, "bike_id": "0d61fb10c7d7e740a20f6a3b19aca361", "type": "electric_scooter", "name": "0d61fb10c7d7e740a20f6a3b19aca361", "rental_uris": {"android": "https://dc.lft.to/lastmile_qr_scan", "ios": "https://dc.lft.to/lastmile_qr_scan"}, "is_disabled": 0, "fusion_lat": 0.0, "lat": 38.919591833333335, "is_reserved": 0}, {"lon": -77.02958183333334, "fusion_lon": 0.0, "bike_id": "c6653c1367e5cf8edc09ec4757b86868", "type": "electric_scooter", "name": "c6653c1367e5cf8edc09ec4757b86868", "rental_uris": {"android": "https://dc.lft.to/lastmile_qr_scan", "ios": "https://dc.lft.to/lastmile_qr_scan"}, "is_disabled": 0, "fusion_lat": 0.0, "lat": 38.90732783333333, "is_reserved": 0}, {"lon": -77.04289033333333, "fusion_lon": 0.0, "bike_id": "00258ed2e191d272e5ab3d9350902d74", "type": "electric_bike", "name": "00258ed2e191d272e5ab3d9350902d74", "rental_uris": {"android": "https://dc.lft.to/lastmile_qr_scan", "ios": "https://dc.lft.to/lastmile_qr_scan"}, "is_disabled": 0, "fusion_lat": 0.0, "lat": 38.83097383333333, "is_reserved": 0}, {"lon": -77.029827, "fusion_lon": 0.0, "bike_id": "2459f475c82c8ece0f136ae165051065", "type": "electric_scooter", "name": "2459f475c82c8ece0f136ae165051065", "rental_uris": {"android": "https://dc.lft.to/lastmile_qr_scan", "ios": "https://dc.lft.to/lastmile_qr_scan"}, "is_disabled": 0, "fusion_lat": 0.0, "lat": 38.897374, "is_reserved": 0}, {"lon": -77.0276155, "fusion_lon": 0.0, "bike_id": "f80b3c9ed45bd51e4f189dfa528d95e4", "type": "electric_scooter", "name": "f80b3c9ed45bd51e4f189dfa528d95e4", "rental_uris": {"android": "https://dc.lft.to/lastmile_qr_scan", "ios": "https://dc.lft.to/lastmile_qr_scan"}, "is_disabled": 0, "fusion_lat": 0.0, "lat": 38.934593666666665, "is_reserved": 0}, {"lon": -77.03031, "fusion_lon": 0.0, "bike_id": "91bed96e56e293746911e4ed32373f97", "type": "electric_scooter", "name": "91bed96e56e293746911e4ed32373f97", "rental_uris": {"android": "https://dc.lft.to/lastmile_qr_scan", "ios": "https://dc.lft.to/lastmile_qr_scan"}, "is_disabled": 0, "fusion_lat": 0.0, "lat": 38.922569333333335, "is_reserved": 0}, {"lon": -76.983378, "fusion_lon": 0.0, "bike_id": "c84ba73aebd40ba0336f57167e68450f", "type": "electric_scooter", "name": "c84ba73aebd40ba0336f57167e68450f", "rental_uris": {"android": "https://dc.lft.to/lastmile_qr_scan", "ios": "https://dc.lft.to/lastmile_qr_scan"}, "is_disabled": 0, "fusion_lat": 0.0, "lat": 38.86563316666667, "is_reserved": 0}, {"lon": -77.03505616666666, "fusion_lon": 0.0, "bike_id": "ac7ce89019d03d59ad1347b302d0756f", "type": "electric_scooter", "name": "ac7ce89019d03d59ad1347b302d0756f", "rental_uris": {"android": "https://dc.lft.to/lastmile_qr_scan", "ios": "https://dc.lft.to/lastmile_qr_scan"}, "is_disabled": 0, "fusion_lat": 0.0, "lat": 38.9026555, "is_reserved": 0}, {"lon": -77.07747033333334, "fusion_lon": 0.0, "bike_id": "92a70754d6d789f82f0c5e867e3ce753", "type": "electric_scooter", "name": "92a70754d6d789f82f0c5e867e3ce753", "rental_uris": {"android": "https://dc.lft.to/lastmile_qr_scan", "ios": "https://dc.lft.to/lastmile_qr_scan"}, "is_disabled": 0, "fusion_lat": 0.0, "lat": 38.91998016666667, "is_reserved": 0}, {"lon": -77.011997, "fusion_lon": 0.0, "bike_id": "e97922ab37900149db63b7d9b7b437f1", "type": "electric_scooter", "name": "e97922ab37900149db63b7d9b7b437f1", "rental_uris": {"android": "https://dc.lft.to/lastmile_qr_scan", "ios": "https://dc.lft.to/lastmile_qr_scan"}, "is_disabled": 0, "fusion_lat": 0.0, "lat": 38.900099, "is_reserved": 0}, {"lon": -77.03710666666667, "fusion_lon": 0.0, "bike_id": "b77ad5a617e7b0d8a3becd0fdaa0501a", "type": "electric_bike", "name": "b77ad5a617e7b0d8a3becd0fdaa0501a", "rental_uris": {"android": "https://dc.lft.to/lastmile_qr_scan", "ios": "https://dc.lft.to/lastmile_qr_scan"}, "is_disabled": 0, "fusion_lat": 0.0, "lat": 38.9355605, "is_reserved": 0}, {"lon": -77.03898433333333, "fusion_lon": 0.0, "bike_id": "2e44512ee14d347054185445142a5e64", "type": "electric_scooter", "name": "2e44512ee14d347054185445142a5e64", "rental_uris": {"android": "https://dc.lft.to/lastmile_qr_scan", "ios": "https://dc.lft.to/lastmile_qr_scan"}, "is_disabled": 0, "fusion_lat": 0.0, "lat": 38.9221355, "is_reserved": 0}, {"lon": -77.0318645, "fusion_lon": 0.0, "bike_id": "cf7a0aaa65def5f1da317c4860efbe7c", "type": "electric_scooter", "name": "cf7a0aaa65def5f1da317c4860efbe7c", "rental_uris": {"android": "https://dc.lft.to/lastmile_qr_scan", "ios": "https://dc.lft.to/lastmile_qr_scan"}, "is_disabled": 0, "fusion_lat": 0.0, "lat": 38.919649, "is_reserved": 0}, {"lon": -77.0485055, "fusion_lon": 0.0, "bike_id": "2585188699feec21634e6d261ad485b2", "type": "electric_scooter", "name": "2585188699feec21634e6d261ad485b2", "rental_uris": {"android": "https://dc.lft.to/lastmile_qr_scan", "ios": "https://dc.lft.to/lastmile_qr_scan"}, "is_disabled": 0, "fusion_lat": 0.0, "lat": 38.915192166666664, "is_reserved": 0}, {"lon": -77.00299516666666, "fusion_lon": 0.0, "bike_id": "3219bf8896e6a3063bea279397b0726a", "type": "electric_bike", "name": "3219bf8896e6a3063bea279397b0726a", "rental_uris": {"android": "https://dc.lft.to/lastmile_qr_scan", "ios": "https://dc.lft.to/lastmile_qr_scan"}, "is_disabled": 0, "fusion_lat": 0.0, "lat": 38.8336895, "is_reserved": 0}, {"lon": -77.0526045, "fusion_lon": 0.0, "bike_id": "8081a0d8cdfbc7d8c52fb8dd57faf1ad", "type": "electric_scooter", "name": "8081a0d8cdfbc7d8c52fb8dd57faf1ad", "rental_uris": {"android": "https://dc.lft.to/lastmile_qr_scan", "ios": "https://dc.lft.to/lastmile_qr_scan"}, "is_disabled": 0, "fusion_lat": 0.0, "lat": 38.927817, "is_reserved": 0}, {"lon": -77.03430116666667, "fusion_lon": 0.0, "bike_id": "16c408823ec145af29d474eb808ccd62", "type": "electric_scooter", "name": "16c408823ec145af29d474eb808ccd62", "rental_uris": {"android": "https://dc.lft.to/lastmile_qr_scan", "ios": "https://dc.lft.to/lastmile_qr_scan"}, "is_disabled": 0, "fusion_lat": 0.0, "lat": 38.90318516666667, "is_reserved": 0}, {"lon": -77.03323966666666, "fusion_lon": 0.0, "bike_id": "88964f3eae7e9afaad29be6cdd6fef78", "type": "electric_scooter", "name": "88964f3eae7e9afaad29be6cdd6fef78", "rental_uris": {"android": "https://dc.lft.to/lastmile_qr_scan", "ios": "https://dc.lft.to/lastmile_qr_scan"}, "is_disabled": 0, "fusion_lat": 0.0, "lat": 38.913203, "is_reserved": 0}, {"lon": -77.18741133333333, "fusion_lon": 0.0, "bike_id": "9a4328de06c545590cd2f62bed9edc11", "type": "electric_bike", "name": "9a4328de06c545590cd2f62bed9edc11", "rental_uris": {"android": "https://dc.lft.to/lastmile_qr_scan", "ios": "https://dc.lft.to/lastmile_qr_scan"}, "is_disabled": 0, "fusion_lat": 0.0, "lat": 38.89356883333333, "is_reserved": 0}, {"lon": -77.0515555, "fusion_lon": 0.0, "bike_id": "3ec8f1e00c769f3f725b269b55eaf77e", "type": "electric_scooter", "name": "3ec8f1e00c769f3f725b269b55eaf77e", "rental_uris": {"android": "https://dc.lft.to/lastmile_qr_scan", "ios": "https://dc.lft.to/lastmile_qr_scan"}, "is_disabled": 0, "fusion_lat": 0.0, "lat": 38.901098166666664, "is_reserved": 0}, {"lon": -77.03958733333333, "fusion_lon": 0.0, "bike_id": "b60a594a6d2c3b2b16a4a4050a7653c8", "type": "electric_scooter", "name": "b60a594a6d2c3b2b16a4a4050a7653c8", "rental_uris": {"android": "https://dc.lft.to/lastmile_qr_scan", "ios": "https://dc.lft.to/lastmile_qr_scan"}, "is_disabled": 0, "fusion_lat": 0.0, "lat": 38.89627516666667, "is_reserved": 0}, {"lon": -77.02364183333333, "fusion_lon": 0.0, "bike_id": "0618d07f177ec4b7de1670853ae2ee48", "type": "electric_scooter", "name": "0618d07f177ec4b7de1670853ae2ee48", "rental_uris": {"android": "https://dc.lft.to/lastmile_qr_scan", "ios": "https://dc.lft.to/lastmile_qr_scan"}, "is_disabled": 0, "fusion_lat": 0.0, "lat": 38.925042166666664, "is_reserved": 0}, {"lon": -77.0029845, "fusion_lon": 0.0, "bike_id": "3fecac87a38363e3e83e8db0ecac0ef3", "type": "electric_scooter", "name": "3fecac87a38363e3e83e8db0ecac0ef3", "rental_uris": {"android": "https://dc.lft.to/lastmile_qr_scan", "ios": "https://dc.lft.to/lastmile_qr_scan"}, "is_disabled": 0, "fusion_lat": 0.0, "lat": 38.894933, "is_reserved": 0}, {"lon": -77.01190266666667, "fusion_lon": 0.0, "bike_id": "d4f9242575deb1abb7f1e6b54d8a7625", "type": "electric_scooter", "name": "d4f9242575deb1abb7f1e6b54d8a7625", "rental_uris": {"android": "https://dc.lft.to/lastmile_qr_scan", "ios": "https://dc.lft.to/lastmile_qr_scan"}, "is_disabled": 0, "fusion_lat": 0.0, "lat": 38.9002535, "is_reserved": 0}, {"lon": -76.99807816666667, "fusion_lon": 0.0, "bike_id": "f959083bfcbc4e1a73ec6d61e4eff8a7", "type": "electric_scooter", "name": "f959083bfcbc4e1a73ec6d61e4eff8a7", "rental_uris": {"android": "https://dc.lft.to/lastmile_qr_scan", "ios": "https://dc.lft.to/lastmile_qr_scan"}, "is_disabled": 0, "fusion_lat": 0.0, "lat": 38.90011666666667, "is_reserved": 0}, {"lon": -77.02724733333334, "fusion_lon": 0.0, "bike_id": "322f85499e1121760f339be32a3ebbe4", "type": "electric_scooter", "name": "322f85499e1121760f339be32a3ebbe4", "rental_uris": {"android": "https://dc.lft.to/lastmile_qr_scan", "ios": "https://dc.lft.to/lastmile_qr_scan"}, "is_disabled": 0, "fusion_lat": 0.0, "lat": 38.92467533333333, "is_reserved": 0}, {"lon": -77.0322865, "fusion_lon": 0.0, "bike_id": "cdee6fb7efc1b880d5e57d129d656207", "type": "electric_scooter", "name": "cdee6fb7efc1b880d5e57d129d656207", "rental_uris": {"android": "https://dc.lft.to/lastmile_qr_scan", "ios": "https://dc.lft.to/lastmile_qr_scan"}, "is_disabled": 0, "fusion_lat": 0.0, "lat": 38.925931166666665, "is_reserved": 0}, {"lon": -77.00309716666666, "fusion_lon": 0.0, "bike_id": "81bf246588ce32f15cda47e87e765bbc", "type": "electric_scooter", "name": "81bf246588ce32f15cda47e87e765bbc", "rental_uris": {"android": "https://dc.lft.to/lastmile_qr_scan", "ios": "https://dc.lft.to/lastmile_qr_scan"}, "is_disabled": 0, "fusion_lat": 0.0, "lat": 38.877205000000004, "is_reserved": 0}, {"lon": -77.06052583333333, "fusion_lon": 0.0, "bike_id": "afa29a298e31f020c4aa2276b19c6810", "type": "electric_scooter", "name": "afa29a298e31f020c4aa2276b19c6810", "rental_uris": {"android": "https://dc.lft.to/lastmile_qr_scan", "ios": "https://dc.lft.to/lastmile_qr_scan"}, "is_disabled": 0, "fusion_lat": 0.0, "lat": 38.93914316666667, "is_reserved": 0}, {"lon": -77.02427966666667, "fusion_lon": 0.0, "bike_id": "c936c5fadc26373f53a1f99308ab80ff", "type": "electric_scooter", "name": "c936c5fadc26373f53a1f99308ab80ff", "rental_uris": {"android": "https://dc.lft.to/lastmile_qr_scan", "ios": "https://dc.lft.to/lastmile_qr_scan"}, "is_disabled": 0, "fusion_lat": 0.0, "lat": 38.896906, "is_reserved": 0}, {"lon": -76.983702, "fusion_lon": 0.0, "bike_id": "96ac7fb7658ac1b2303aad7e5b57635f", "type": "electric_bike", "name": "96ac7fb7658ac1b2303aad7e5b57635f", "rental_uris": {"android": "https://dc.lft.to/lastmile_qr_scan", "ios": "https://dc.lft.to/lastmile_qr_scan"}, "is_disabled": 0, "fusion_lat": 0.0, "lat": 38.914700833333335, "is_reserved": 0}, {"lon": -77.03518466666667, "fusion_lon": 0.0, "bike_id": "1262c6e7c26592910e9e7d29ca901934", "type": "electric_scooter", "name": "1262c6e7c26592910e9e7d29ca901934", "rental_uris": {"android": "https://dc.lft.to/lastmile_qr_scan", "ios": "https://dc.lft.to/lastmile_qr_scan"}, "is_disabled": 0, "fusion_lat": 0.0, "lat": 38.935887, "is_reserved": 0}, {"lon": -76.99004333333333, "fusion_lon": 0.0, "bike_id": "9f7ce09e51809d381a84d57408f95d6d", "type": "electric_scooter", "name": "9f7ce09e51809d381a84d57408f95d6d", "rental_uris": {"android": "https://dc.lft.to/lastmile_qr_scan", "ios": "https://dc.lft.to/lastmile_qr_scan"}, "is_disabled": 0, "fusion_lat": 0.0, "lat": 38.86506283333333, "is_reserved": 0}, {"lon": -77.00201483333333, "fusion_lon": 0.0, "bike_id": "bce659d560f07b39c6a75f6c0e54c9ae", "type": "electric_scooter", "name": "bce659d560f07b39c6a75f6c0e54c9ae", "rental_uris": {"android": "https://dc.lft.to/lastmile_qr_scan", "ios": "https://dc.lft.to/lastmile_qr_scan"}, "is_disabled": 0, "fusion_lat": 0.0, "lat": 38.90246416666667, "is_reserved": 0}, {"lon": -76.95294633333333, "fusion_lon": 0.0, "bike_id": "590277eaad9838fa723d07f79abca46e", "type": "electric_bike", "name": "590277eaad9838fa723d07f79abca46e", "rental_uris": {"android": "https://dc.lft.to/lastmile_qr_scan", "ios": "https://dc.lft.to/lastmile_qr_scan"}, "is_disabled": 0, "fusion_lat": 0.0, "lat": 38.862299166666666, "is_reserved": 0}, {"lon": -77.02194683333333, "fusion_lon": 0.0, "bike_id": "4b6bc0d90723e2f0b21392f3df586597", "type": "electric_scooter", "name": "4b6bc0d90723e2f0b21392f3df586597", "rental_uris": {"android": "https://dc.lft.to/lastmile_qr_scan", "ios": "https://dc.lft.to/lastmile_qr_scan"}, "is_disabled": 0, "fusion_lat": 0.0, "lat": 38.9149495, "is_reserved": 0}, {"lon": -77.04523016666667, "fusion_lon": 0.0, "bike_id": "cfa99278433790c3d678c6b7bfa4e030", "type": "electric_scooter", "name": "cfa99278433790c3d678c6b7bfa4e030", "rental_uris": {"android": "https://dc.lft.to/lastmile_qr_scan", "ios": "https://dc.lft.to/lastmile_qr_scan"}, "is_disabled": 0, "fusion_lat": 0.0, "lat": 38.903509166666666, "is_reserved": 0}, {"lon": -76.97701466666666, "fusion_lon": 0.0, "bike_id": "cb6d642366e76e0d6231ee9da9754648", "type": "electric_bike", "name": "cb6d642366e76e0d6231ee9da9754648", "rental_uris": {"android": "https://dc.lft.to/lastmile_qr_scan", "ios": "https://dc.lft.to/lastmile_qr_scan"}, "is_disabled": 0, "fusion_lat": 0.0, "lat": 38.901628333333335, "is_reserved": 0}, {"lon": -77.00347716666667, "fusion_lon": 0.0, "bike_id": "3557377f7c18a8916466bff352c57e8f", "type": "electric_scooter", "name": "3557377f7c18a8916466bff352c57e8f", "rental_uris": {"android": "https://dc.lft.to/lastmile_qr_scan", "ios": "https://dc.lft.to/lastmile_qr_scan"}, "is_disabled": 0, "fusion_lat": 0.0, "lat": 38.8843955, "is_reserved": 0}, {"lon": -77.02709266666666, "fusion_lon": 0.0, "bike_id": "609cb667df19a332349560141e3ab3c0", "type": "electric_scooter", "name": "609cb667df19a332349560141e3ab3c0", "rental_uris": {"android": "https://dc.lft.to/lastmile_qr_scan", "ios": "https://dc.lft.to/lastmile_qr_scan"}, "is_disabled": 0, "fusion_lat": 0.0, "lat": 38.90670016666667, "is_reserved": 0}, {"lon": -77.04157633333334, "fusion_lon": 0.0, "bike_id": "fac19aee0fdcee658d860152406b5608", "type": "electric_scooter", "name": "fac19aee0fdcee658d860152406b5608", "rental_uris": {"android": "https://dc.lft.to/lastmile_qr_scan", "ios": "https://dc.lft.to/lastmile_qr_scan"}, "is_disabled": 0, "fusion_lat": 0.0, "lat": 38.918660333333335, "is_reserved": 0}, {"lon": -77.052235, "fusion_lon": 0.0, "bike_id": "aa616422e59dc21b87410c7e315524c2", "type": "electric_scooter", "name": "aa616422e59dc21b87410c7e315524c2", "rental_uris": {"android": "https://dc.lft.to/lastmile_qr_scan", "ios": "https://dc.lft.to/lastmile_qr_scan"}, "is_disabled": 0, "fusion_lat": 0.0, "lat": 38.92436383333333, "is_reserved": 0}, {"lon": -76.983401, "fusion_lon": 0.0, "bike_id": "ee3cdd3d6657d64e6f397fee15ee0112", "type": "electric_scooter", "name": "ee3cdd3d6657d64e6f397fee15ee0112", "rental_uris": {"android": "https://dc.lft.to/lastmile_qr_scan", "ios": "https://dc.lft.to/lastmile_qr_scan"}, "is_disabled": 0, "fusion_lat": 0.0, "lat": 38.8656365, "is_reserved": 0}, {"lon": -77.03728366666667, "fusion_lon": 0.0, "bike_id": "dfdedeab83df71c332576ae8d58683b7", "type": "electric_scooter", "name": "dfdedeab83df71c332576ae8d58683b7", "rental_uris": {"android": "https://dc.lft.to/lastmile_qr_scan", "ios": "https://dc.lft.to/lastmile_qr_scan"}, "is_disabled": 0, "fusion_lat": 0.0, "lat": 38.90234616666667, "is_reserved": 0}, {"lon": -77.05857183333333, "fusion_lon": 0.0, "bike_id": "52c94d2fba9d4e72731da21516916234", "type": "electric_scooter", "name": "52c94d2fba9d4e72731da21516916234", "rental_uris": {"android": "https://dc.lft.to/lastmile_qr_scan", "ios": "https://dc.lft.to/lastmile_qr_scan"}, "is_disabled": 0, "fusion_lat": 0.0, "lat": 38.93609266666667, "is_reserved": 0}, {"lon": -77.00450433333333, "fusion_lon": 0.0, "bike_id": "5811d1be6943021877fea1e66ed63291", "type": "electric_scooter", "name": "5811d1be6943021877fea1e66ed63291", "rental_uris": {"android": "https://dc.lft.to/lastmile_qr_scan", "ios": "https://dc.lft.to/lastmile_qr_scan"}, "is_disabled": 0, "fusion_lat": 0.0, "lat": 38.911714, "is_reserved": 0}, {"lon": -76.9998065, "fusion_lon": 0.0, "bike_id": "070d15bdae7c3eaa20897f99a06be83b", "type": "electric_scooter", "name": "070d15bdae7c3eaa20897f99a06be83b", "rental_uris": {"android": "https://dc.lft.to/lastmile_qr_scan", "ios": "https://dc.lft.to/lastmile_qr_scan"}, "is_disabled": 0, "fusion_lat": 0.0, "lat": 38.874946333333334, "is_reserved": 0}, {"lon": -77.06401983333333, "fusion_lon": 0.0, "bike_id": "b300408ed5015b34c14327a4de498b0c", "type": "electric_scooter", "name": "b300408ed5015b34c14327a4de498b0c", "rental_uris": {"android": "https://dc.lft.to/lastmile_qr_scan", "ios": "https://dc.lft.to/lastmile_qr_scan"}, "is_disabled": 0, "fusion_lat": 0.0, "lat": 38.94412716666667, "is_reserved": 0}, {"lon": -77.01419116666666, "fusion_lon": 0.0, "bike_id": "b6a636d6e11fd9ea45ab3cbc72c092c2", "type": "electric_scooter", "name": "b6a636d6e11fd9ea45ab3cbc72c092c2", "rental_uris": {"android": "https://dc.lft.to/lastmile_qr_scan", "ios": "https://dc.lft.to/lastmile_qr_scan"}, "is_disabled": 0, "fusion_lat": 0.0, "lat": 38.89223033333333, "is_reserved": 0}, {"lon": -77.00669416666666, "fusion_lon": 0.0, "bike_id": "ccd9061ce009e5d6579e498fb33b6d18", "type": "electric_bike", "name": "ccd9061ce009e5d6579e498fb33b6d18", "rental_uris": {"android": "https://dc.lft.to/lastmile_qr_scan", "ios": "https://dc.lft.to/lastmile_qr_scan"}, "is_disabled": 0, "fusion_lat": 0.0, "lat": 38.945102166666665, "is_reserved": 0}, {"lon": -77.0612875, "fusion_lon": 0.0, "bike_id": "ba2d5a0d3dfbe63069242e022073c596", "type": "electric_scooter", "name": "ba2d5a0d3dfbe63069242e022073c596", "rental_uris": {"android": "https://dc.lft.to/lastmile_qr_scan", "ios": "https://dc.lft.to/lastmile_qr_scan"}, "is_disabled": 0, "fusion_lat": 0.0, "lat": 38.94359583333333, "is_reserved": 0}, {"lon": -77.026964, "fusion_lon": 0.0, "bike_id": "291db2517054c5cbb324e0467bba6eca", "type": "electric_scooter", "name": "291db2517054c5cbb324e0467bba6eca", "rental_uris": {"android": "https://dc.lft.to/lastmile_qr_scan", "ios": "https://dc.lft.to/lastmile_qr_scan"}, "is_disabled": 0, "fusion_lat": 0.0, "lat": 38.908463166666664, "is_reserved": 0}, {"lon": -77.0281585, "fusion_lon": 0.0, "bike_id": "8dfe2451415fb964600f8bf9283874f6", "type": "electric_scooter", "name": "8dfe2451415fb964600f8bf9283874f6", "rental_uris": {"android": "https://dc.lft.to/lastmile_qr_scan", "ios": "https://dc.lft.to/lastmile_qr_scan"}, "is_disabled": 0, "fusion_lat": 0.0, "lat": 38.908959333333335, "is_reserved": 0}, {"lon": -77.02236916666666, "fusion_lon": 0.0, "bike_id": "a4774786cecaebe4ed5d550e4969a433", "type": "electric_scooter", "name": "a4774786cecaebe4ed5d550e4969a433", "rental_uris": {"android": "https://dc.lft.to/lastmile_qr_scan", "ios": "https://dc.lft.to/lastmile_qr_scan"}, "is_disabled": 0, "fusion_lat": 0.0, "lat": 38.92220666666667, "is_reserved": 0}, {"lon": -76.99978766666666, "fusion_lon": 0.0, "bike_id": "5e30b58f4c0ffac11262759fa3d58f99", "type": "electric_scooter", "name": "5e30b58f4c0ffac11262759fa3d58f99", "rental_uris": {"android": "https://dc.lft.to/lastmile_qr_scan", "ios": "https://dc.lft.to/lastmile_qr_scan"}, "is_disabled": 0, "fusion_lat": 0.0, "lat": 38.87919216666667, "is_reserved": 0}, {"lon": -77.072292, "fusion_lon": 0.0, "bike_id": "8ae2da00308fc13404f0ef53e122b4d2", "type": "electric_scooter", "name": "8ae2da00308fc13404f0ef53e122b4d2", "rental_uris": {"android": "https://dc.lft.to/lastmile_qr_scan", "ios": "https://dc.lft.to/lastmile_qr_scan"}, "is_disabled": 0, "fusion_lat": 0.0, "lat": 38.9319185, "is_reserved": 0}, {"lon": -76.99883216666667, "fusion_lon": 0.0, "bike_id": "0bc43861f4ebd354620a039a8c560acb", "type": "electric_scooter", "name": "0bc43861f4ebd354620a039a8c560acb", "rental_uris": {"android": "https://dc.lft.to/lastmile_qr_scan", "ios": "https://dc.lft.to/lastmile_qr_scan"}, "is_disabled": 0, "fusion_lat": 0.0, "lat": 38.90879783333333, "is_reserved": 0}, {"lon": -77.04229433333333, "fusion_lon": 0.0, "bike_id": "9d96f65f832a16a2e61e6229ab9f098e", "type": "electric_scooter", "name": "9d96f65f832a16a2e61e6229ab9f098e", "rental_uris": {"android": "https://dc.lft.to/lastmile_qr_scan", "ios": "https://dc.lft.to/lastmile_qr_scan"}, "is_disabled": 0, "fusion_lat": 0.0, "lat": 38.920559, "is_reserved": 0}, {"lon": -77.03150683333334, "fusion_lon": 0.0, "bike_id": "f6c04896ddd1123e5f75e5b7e90199eb", "type": "electric_scooter", "name": "f6c04896ddd1123e5f75e5b7e90199eb", "rental_uris": {"android": "https://dc.lft.to/lastmile_qr_scan", "ios": "https://dc.lft.to/lastmile_qr_scan"}, "is_disabled": 0, "fusion_lat": 0.0, "lat": 38.91119616666667, "is_reserved": 0}, {"lon": -77.02870116666666, "fusion_lon": 0.0, "bike_id": "ff3cfcd2495b9da4bc366f68e18a7b4f", "type": "electric_scooter", "name": "ff3cfcd2495b9da4bc366f68e18a7b4f", "rental_uris": {"android": "https://dc.lft.to/lastmile_qr_scan", "ios": "https://dc.lft.to/lastmile_qr_scan"}, "is_disabled": 0, "fusion_lat": 0.0, "lat": 38.91555966666667, "is_reserved": 0}, {"lon": -76.99065616666667, "fusion_lon": 0.0, "bike_id": "c341970d9403df8fdfe910b8ca388549", "type": "electric_scooter", "name": "c341970d9403df8fdfe910b8ca388549", "rental_uris": {"android": "https://dc.lft.to/lastmile_qr_scan", "ios": "https://dc.lft.to/lastmile_qr_scan"}, "is_disabled": 0, "fusion_lat": 0.0, "lat": 38.863722333333335, "is_reserved": 0}, {"lon": -76.995445, "fusion_lon": 0.0, "bike_id": "e64717b4e8e216a92972f7debbf6a389", "type": "electric_bike", "name": "e64717b4e8e216a92972f7debbf6a389", "rental_uris": {"android": "https://dc.lft.to/lastmile_qr_scan", "ios": "https://dc.lft.to/lastmile_qr_scan"}, "is_disabled": 0, "fusion_lat": 0.0, "lat": 38.83160316666667, "is_reserved": 0}, {"lon": -77.01969416666667, "fusion_lon": 0.0, "bike_id": "cddfedbfb0b54ebfe169e68f550c2ffc", "type": "electric_scooter", "name": "cddfedbfb0b54ebfe169e68f550c2ffc", "rental_uris": {"android": "https://dc.lft.to/lastmile_qr_scan", "ios": "https://dc.lft.to/lastmile_qr_scan"}, "is_disabled": 0, "fusion_lat": 0.0, "lat": 38.9774705, "is_reserved": 0}, {"lon": -76.949597, "fusion_lon": 0.0, "bike_id": "359d222dd12ee99cae371f2900556854", "type": "electric_scooter", "name": "359d222dd12ee99cae371f2900556854", "rental_uris": {"android": "https://dc.lft.to/lastmile_qr_scan", "ios": "https://dc.lft.to/lastmile_qr_scan"}, "is_disabled": 0, "fusion_lat": 0.0, "lat": 38.89466383333333, "is_reserved": 0}, {"lon": -77.02221033333333, "fusion_lon": 0.0, "bike_id": "40600c0613a665d1d5f30650e849384b", "type": "electric_scooter", "name": "40600c0613a665d1d5f30650e849384b", "rental_uris": {"android": "https://dc.lft.to/lastmile_qr_scan", "ios": "https://dc.lft.to/lastmile_qr_scan"}, "is_disabled": 0, "fusion_lat": 0.0, "lat": 38.91415283333333, "is_reserved": 0}, {"lon": -76.99255333333333, "fusion_lon": 0.0, "bike_id": "50156484692a94036f8a59573b3f5708", "type": "electric_scooter", "name": "50156484692a94036f8a59573b3f5708", "rental_uris": {"android": "https://dc.lft.to/lastmile_qr_scan", "ios": "https://dc.lft.to/lastmile_qr_scan"}, "is_disabled": 0, "fusion_lat": 0.0, "lat": 38.892745166666664, "is_reserved": 0}, {"lon": -77.03933133333334, "fusion_lon": 0.0, "bike_id": "126358ccba6f1ba37217e9691b14a6d8", "type": "electric_scooter", "name": "126358ccba6f1ba37217e9691b14a6d8", "rental_uris": {"android": "https://dc.lft.to/lastmile_qr_scan", "ios": "https://dc.lft.to/lastmile_qr_scan"}, "is_disabled": 0, "fusion_lat": 0.0, "lat": 38.9029155, "is_reserved": 0}, {"lon": -77.04839383333334, "fusion_lon": 0.0, "bike_id": "06d019f79b7d9df71a4d047b6c56b62f", "type": "electric_scooter", "name": "06d019f79b7d9df71a4d047b6c56b62f", "rental_uris": {"android": "https://dc.lft.to/lastmile_qr_scan", "ios": "https://dc.lft.to/lastmile_qr_scan"}, "is_disabled": 0, "fusion_lat": 0.0, "lat": 38.911713, "is_reserved": 0}, {"lon": -77.03654483333334, "fusion_lon": 0.0, "bike_id": "41a3972938e2fc0bbe006305ec0b0035", "type": "electric_scooter", "name": "41a3972938e2fc0bbe006305ec0b0035", "rental_uris": {"android": "https://dc.lft.to/lastmile_qr_scan", "ios": "https://dc.lft.to/lastmile_qr_scan"}, "is_disabled": 0, "fusion_lat": 0.0, "lat": 38.911296166666666, "is_reserved": 0}, {"lon": -77.02121116666666, "fusion_lon": 0.0, "bike_id": "2923a6ea8d3646a9976f484256ca60ed", "type": "electric_bike", "name": "2923a6ea8d3646a9976f484256ca60ed", "rental_uris": {"android": "https://dc.lft.to/lastmile_qr_scan", "ios": "https://dc.lft.to/lastmile_qr_scan"}, "is_disabled": 0, "fusion_lat": 0.0, "lat": 38.935992, "is_reserved": 0}, {"lon": -77.03714933333333, "fusion_lon": 0.0, "bike_id": "54942239e5c0fea6d11ed8e145350d8d", "type": "electric_scooter", "name": "54942239e5c0fea6d11ed8e145350d8d", "rental_uris": {"android": "https://dc.lft.to/lastmile_qr_scan", "ios": "https://dc.lft.to/lastmile_qr_scan"}, "is_disabled": 0, "fusion_lat": 0.0, "lat": 38.928657, "is_reserved": 0}, {"lon": -77.0247415, "fusion_lon": 0.0, "bike_id": "194ce7deb3bf6c05d1d035371504381f", "type": "electric_scooter", "name": "194ce7deb3bf6c05d1d035371504381f", "rental_uris": {"android": "https://dc.lft.to/lastmile_qr_scan", "ios": "https://dc.lft.to/lastmile_qr_scan"}, "is_disabled": 0, "fusion_lat": 0.0, "lat": 38.917014333333334, "is_reserved": 0}, {"lon": -77.03835366666667, "fusion_lon": 0.0, "bike_id": "7845e6c07f7dff0e5e344f91841e2e36", "type": "electric_scooter", "name": "7845e6c07f7dff0e5e344f91841e2e36", "rental_uris": {"android": "https://dc.lft.to/lastmile_qr_scan", "ios": "https://dc.lft.to/lastmile_qr_scan"}, "is_disabled": 0, "fusion_lat": 0.0, "lat": 38.91112066666667, "is_reserved": 0}, {"lon": -76.98715833333333, "fusion_lon": 0.0, "bike_id": "5b05514eefca0c7bfa68d8ce5f00597c", "type": "electric_scooter", "name": "5b05514eefca0c7bfa68d8ce5f00597c", "rental_uris": {"android": "https://dc.lft.to/lastmile_qr_scan", "ios": "https://dc.lft.to/lastmile_qr_scan"}, "is_disabled": 0, "fusion_lat": 0.0, "lat": 38.866263833333335, "is_reserved": 0}, {"lon": -77.03207083333334, "fusion_lon": 0.0, "bike_id": "8da9d00858a699ff228f01263eb61204", "type": "electric_scooter", "name": "8da9d00858a699ff228f01263eb61204", "rental_uris": {"android": "https://dc.lft.to/lastmile_qr_scan", "ios": "https://dc.lft.to/lastmile_qr_scan"}, "is_disabled": 0, "fusion_lat": 0.0, "lat": 38.892379, "is_reserved": 0}, {"lon": -76.99816316666667, "fusion_lon": 0.0, "bike_id": "cbbc3d5361c5ae7763ef2a6702d9824f", "type": "electric_bike", "name": "cbbc3d5361c5ae7763ef2a6702d9824f", "rental_uris": {"android": "https://dc.lft.to/lastmile_qr_scan", "ios": "https://dc.lft.to/lastmile_qr_scan"}, "is_disabled": 0, "fusion_lat": 0.0, "lat": 38.819743833333334, "is_reserved": 0}, {"lon": -77.04495, "fusion_lon": 0.0, "bike_id": "304487a9765360713ee1205e8a137da5", "type": "electric_scooter", "name": "304487a9765360713ee1205e8a137da5", "rental_uris": {"android": "https://dc.lft.to/lastmile_qr_scan", "ios": "https://dc.lft.to/lastmile_qr_scan"}, "is_disabled": 0, "fusion_lat": 0.0, "lat": 38.89747116666667, "is_reserved": 0}, {"lon": -77.014008, "fusion_lon": 0.0, "bike_id": "8f33722f24e632fa25fc3a9d98e3103f", "type": "electric_scooter", "name": "8f33722f24e632fa25fc3a9d98e3103f", "rental_uris": {"android": "https://dc.lft.to/lastmile_qr_scan", "ios": "https://dc.lft.to/lastmile_qr_scan"}, "is_disabled": 0, "fusion_lat": 0.0, "lat": 38.9423445, "is_reserved": 0}, {"lon": -77.019858, "fusion_lon": 0.0, "bike_id": "95d47bc7cc9da41059353dbd261efd02", "type": "electric_scooter", "name": "95d47bc7cc9da41059353dbd261efd02", "rental_uris": {"android": "https://dc.lft.to/lastmile_qr_scan", "ios": "https://dc.lft.to/lastmile_qr_scan"}, "is_disabled": 0, "fusion_lat": 0.0, "lat": 38.88724633333333, "is_reserved": 0}, {"lon": -77.010757, "fusion_lon": 0.0, "bike_id": "5bbdda99ee399284e96ff392e674cefa", "type": "electric_scooter", "name": "5bbdda99ee399284e96ff392e674cefa", "rental_uris": {"android": "https://dc.lft.to/lastmile_qr_scan", "ios": "https://dc.lft.to/lastmile_qr_scan"}, "is_disabled": 0, "fusion_lat": 0.0, "lat": 38.909661166666666, "is_reserved": 0}, {"lon": -77.02635066666667, "fusion_lon": 0.0, "bike_id": "17428ec6f864385f4845fc71c88b2bca", "type": "electric_scooter", "name": "17428ec6f864385f4845fc71c88b2bca", "rental_uris": {"android": "https://dc.lft.to/lastmile_qr_scan", "ios": "https://dc.lft.to/lastmile_qr_scan"}, "is_disabled": 0, "fusion_lat": 0.0, "lat": 38.89459883333333, "is_reserved": 0}, {"lon": -77.03559283333334, "fusion_lon": 0.0, "bike_id": "911b07a01565cc8cd5932ddcf33007c7", "type": "electric_scooter", "name": "911b07a01565cc8cd5932ddcf33007c7", "rental_uris": {"android": "https://dc.lft.to/lastmile_qr_scan", "ios": "https://dc.lft.to/lastmile_qr_scan"}, "is_disabled": 0, "fusion_lat": 0.0, "lat": 38.903831, "is_reserved": 0}, {"lon": -77.015282, "fusion_lon": 0.0, "bike_id": "22d09243878b980913b09f5cf7172c93", "type": "electric_bike", "name": "22d09243878b980913b09f5cf7172c93", "rental_uris": {"android": "https://dc.lft.to/lastmile_qr_scan", "ios": "https://dc.lft.to/lastmile_qr_scan"}, "is_disabled": 0, "fusion_lat": 0.0, "lat": 38.9512275, "is_reserved": 0}, {"lon": -76.97367033333333, "fusion_lon": 0.0, "bike_id": "d8fbfc589f3ab5b53810273996ab2ad5", "type": "electric_bike", "name": "d8fbfc589f3ab5b53810273996ab2ad5", "rental_uris": {"android": "https://dc.lft.to/lastmile_qr_scan", "ios": "https://dc.lft.to/lastmile_qr_scan"}, "is_disabled": 0, "fusion_lat": 0.0, "lat": 38.96315766666667, "is_reserved": 0}, {"lon": -77.04071266666666, "fusion_lon": 0.0, "bike_id": "5307307ba65b61a20c6f91bc3ed6ba91", "type": "electric_scooter", "name": "5307307ba65b61a20c6f91bc3ed6ba91", "rental_uris": {"android": "https://dc.lft.to/lastmile_qr_scan", "ios": "https://dc.lft.to/lastmile_qr_scan"}, "is_disabled": 0, "fusion_lat": 0.0, "lat": 38.90732416666667, "is_reserved": 0}, {"lon": -76.93022483333333, "fusion_lon": 0.0, "bike_id": "bb62b72dc311dd6bccac030fa59af35f", "type": "electric_scooter", "name": "bb62b72dc311dd6bccac030fa59af35f", "rental_uris": {"android": "https://dc.lft.to/lastmile_qr_scan", "ios": "https://dc.lft.to/lastmile_qr_scan"}, "is_disabled": 0, "fusion_lat": 0.0, "lat": 38.9016445, "is_reserved": 0}, {"lon": -77.00145983333333, "fusion_lon": 0.0, "bike_id": "458c6abb89f74e37b43e7c621e540e99", "type": "electric_scooter", "name": "458c6abb89f74e37b43e7c621e540e99", "rental_uris": {"android": "https://dc.lft.to/lastmile_qr_scan", "ios": "https://dc.lft.to/lastmile_qr_scan"}, "is_disabled": 0, "fusion_lat": 0.0, "lat": 38.87311666666667, "is_reserved": 0}, {"lon": -77.0830845, "fusion_lon": 0.0, "bike_id": "c39c03fb612147eac9443e4d7708f0b0", "type": "electric_scooter", "name": "c39c03fb612147eac9443e4d7708f0b0", "rental_uris": {"android": "https://dc.lft.to/lastmile_qr_scan", "ios": "https://dc.lft.to/lastmile_qr_scan"}, "is_disabled": 0, "fusion_lat": 0.0, "lat": 38.92853566666667, "is_reserved": 0}, {"lon": -77.03217666666667, "fusion_lon": 0.0, "bike_id": "4a93ddbd02ba17db794ddfbfb31d0bc7", "type": "electric_scooter", "name": "4a93ddbd02ba17db794ddfbfb31d0bc7", "rental_uris": {"android": "https://dc.lft.to/lastmile_qr_scan", "ios": "https://dc.lft.to/lastmile_qr_scan"}, "is_disabled": 0, "fusion_lat": 0.0, "lat": 38.9259345, "is_reserved": 0}, {"lon": -76.97254033333333, "fusion_lon": 0.0, "bike_id": "cc5865792be64705ebe2ff9cafd6a89f", "type": "electric_bike", "name": "cc5865792be64705ebe2ff9cafd6a89f", "rental_uris": {"android": "https://dc.lft.to/lastmile_qr_scan", "ios": "https://dc.lft.to/lastmile_qr_scan"}, "is_disabled": 0, "fusion_lat": 0.0, "lat": 38.95746883333333, "is_reserved": 0}, {"lon": -77.0169395, "fusion_lon": 0.0, "bike_id": "2d3ca22c8dc97326f1d0a55b59bf5ae5", "type": "electric_scooter", "name": "2d3ca22c8dc97326f1d0a55b59bf5ae5", "rental_uris": {"android": "https://dc.lft.to/lastmile_qr_scan", "ios": "https://dc.lft.to/lastmile_qr_scan"}, "is_disabled": 0, "fusion_lat": 0.0, "lat": 38.974921333333334, "is_reserved": 0}, {"lon": -77.034669, "fusion_lon": 0.0, "bike_id": "36fe7511cb0563693d73d88788fec117", "type": "electric_scooter", "name": "36fe7511cb0563693d73d88788fec117", "rental_uris": {"android": "https://dc.lft.to/lastmile_qr_scan", "ios": "https://dc.lft.to/lastmile_qr_scan"}, "is_disabled": 0, "fusion_lat": 0.0, "lat": 38.90424183333333, "is_reserved": 0}, {"lon": -76.9962185, "fusion_lon": 0.0, "bike_id": "59e1d57d4686118e49622e374cd64d34", "type": "electric_scooter", "name": "59e1d57d4686118e49622e374cd64d34", "rental_uris": {"android": "https://dc.lft.to/lastmile_qr_scan", "ios": "https://dc.lft.to/lastmile_qr_scan"}, "is_disabled": 0, "fusion_lat": 0.0, "lat": 38.90068433333333, "is_reserved": 0}, {"lon": -77.01365416666667, "fusion_lon": 0.0, "bike_id": "94639c2d177919105f1f8f3f4102b565", "type": "electric_scooter", "name": "94639c2d177919105f1f8f3f4102b565", "rental_uris": {"android": "https://dc.lft.to/lastmile_qr_scan", "ios": "https://dc.lft.to/lastmile_qr_scan"}, "is_disabled": 0, "fusion_lat": 0.0, "lat": 38.9191315, "is_reserved": 0},