{"data": {"bikes": [{"is_disabled": 0, "rental_uris": {"android": "https://dc.lft.to/lastmile_qr_scan", "ios": "https://dc.lft.to/lastmile_qr_scan"}, "is_reserved": 0, "name": "e5dc795224820cfd2a5dae1e4a1458d5", "lon": -77.03111983333334, "type": "electric_scooter", "bike_id": "e5dc795224820cfd2a5dae1e4a1458d5", "fusion_lon": 0.0, "lat": 38.92018683333333, "fusion_lat": 0.0}, {"is_disabled": 0, "rental_uris": {"android": "https://dc.lft.to/lastmile_qr_scan", "ios": "https://dc.lft.to/lastmile_qr_scan"}, "is_reserved": 0, "name": "f939b38c96d6ff9057a7deaa403298e5", "lon": -77.04171616666666, "type": "electric_scooter", "bike_id": "f939b38c96d6ff9057a7deaa403298e5", "fusion_lon": 0.0, "lat": 38.92008116666667, "fusion_lat": 0.0}, {"is_disabled": 0, "rental_uris": {"android": "https://dc.lft.to/lastmile_qr_scan", "ios": "https://dc.lft.to/lastmile_qr_scan"}, "is_reserved": 0, "name": "5eb046a16db823ea98844cb7ed7ae55d", "lon": -77.0413555, "type": "electric_bike", "bike_id": "5eb046a16db823ea98844cb7ed7ae55d", "fusion_lon": 0.0, "lat": 38.94402216666667, "fusion_lat": 0.0}, {"is_disabled": 0, "rental_uris": {"android": "https://dc.lft.to/lastmile_qr_scan", "ios": "https://dc.lft.to/lastmile_qr_scan"}, "is_reserved": 0, "name": "18442e92c5a7f058fdce1c83a8971ec9", "lon": -77.0238805, "type": "electric_scooter", "bike_id": "18442e92c5a7f058fdce1c83a8971ec9", "fusion_lon": 0.0, "lat": 38.928042166666664, "fusion_lat": 0.0}, {"is_disabled": 0, "rental_uris": {"android": "https://dc.lft.to/lastmile_qr_scan", "ios": "https://dc.lft.to/lastmile_qr_scan"}, "is_reserved": 0, "name": "b5e1b3e57c25550e8af26c99a31a4e1a", "lon": -77.04581133333333, "type": "electric_scooter", "bike_id": "b5e1b3e57c25550e8af26c99a31a4e1a", "fusion_lon": 0.0, "lat": 38.92429, "fusion_lat": 0.0}, {"is_disabled": 0, "rental_uris": {"android": "https://dc.lft.to/lastmile_qr_scan", "ios": "https://dc.lft.to/lastmile_qr_scan"}, "is_reserved": 0, "name": "5bd6cc410a7c6966cf694999fc52475c", "lon": -77.00923816666666, "type": "electric_scooter", "bike_id": "5bd6cc410a7c6966cf694999fc52475c", "fusion_lon": 0.0, "lat": 38.89652516666666, "fusion_lat": 0.0}, {"is_disabled": 0, "rental_uris": {"android": "https://dc.lft.to/lastmile_qr_scan", "ios": "https://dc.lft.to/lastmile_qr_scan"}, "is_reserved": 0, "name": "a6ec33a5481deb19516075b0d9d78c9a", "lon": -77.03873766666666, "type": "electric_scooter", "bike_id": "a6ec33a5481deb19516075b0d9d78c9a", "fusion_lon": 0.0, "lat": 38.92161616666667, "fusion_lat": 0.0}, {"is_disabled": 0, "rental_uris": {"android": "https://dc.lft.to/lastmile_qr_scan", "ios": "https://dc.lft.to/lastmile_qr_scan"}, "is_reserved": 0, "name": "46e32f279bde34097382db88a92d2721", "lon": -77.03692633333333, "type": "electric_scooter", "bike_id": "46e32f279bde34097382db88a92d2721", "fusion_lon": 0.0, "lat": 38.92647016666667, "fusion_lat": 0.0}, {"is_disabled": 0, "rental_uris": {"android": "https://dc.lft.to/lastmile_qr_scan", "ios": "https://dc.lft.to/lastmile_qr_scan"}, "is_reserved": 0, "name": "faf06bbc8ec86ebf1e9341673f87df21", "lon": -77.0200365, "type": "electric_scooter", "bike_id": "faf06bbc8ec86ebf1e9341673f87df21", "fusion_lon": 0.0, "lat": 38.966339833333336, "fusion_lat": 0.0}, {"is_disabled": 0, "rental_uris": {"android": "https://dc.lft.to/lastmile_qr_scan", "ios": "https://dc.lft.to/lastmile_qr_scan"}, "is_reserved": 0, "name": "8820e3ccc81f3630fff34b863dee58fb", "lon": -77.02703333333334, "type": "electric_scooter", "bike_id": "8820e3ccc81f3630fff34b863dee58fb", "fusion_lon": 0.0, "lat": 38.897187, "fusion_lat": 0.0}, {"is_disabled": 0, "rental_uris": {"android": "https://dc.lft.to/lastmile_qr_scan", "ios": "https://dc.lft.to/lastmile_qr_scan"}, "is_reserved": 0, "name": "f81417cf33c08ec7f629638da70516b3", "lon": -77.024272, "type": "electric_scooter", "bike_id": "f81417cf33c08ec7f629638da70516b3", "fusion_lon": 0.0, "lat": 38.9072205, "fusion_lat": 0.0}, {"is_disabled": 0, "rental_uris": {"android": "https://dc.lft.to/lastmile_qr_scan", "ios": "https://dc.lft.to/lastmile_qr_scan"}, "is_reserved": 0, "name": "33f424fa22d89f1c9d491f8322041a71", "lon": -77.03681816666666, "type": "electric_scooter", "bike_id": "33f424fa22d89f1c9d491f8322041a71", "fusion_lon": 0.0, "lat": 38.9181195, "fusion_lat": 0.0}, {"is_disabled": 0, "rental_uris": {"android": "https://dc.lft.to/lastmile_qr_scan", "ios": "https://dc.lft.to/lastmile_qr_scan"}, "is_reserved": 0, "name": "fc563443c2692ceadaf69a3c716dd19f", "lon": -77.0150475, "type": "electric_scooter", "bike_id": "fc563443c2692ceadaf69a3c716dd19f", "fusion_lon": 0.0, "lat": 38.910219833333336, "fusion_lat": 0.0}, {"is_disabled": 0, "rental_uris": {"android": "https://dc.lft.to/lastmile_qr_scan", "ios": "https://dc.lft.to/lastmile_qr_scan"}, "is_reserved": 0, "name": "2581f235fd48bea77c625a824d9846a7", "lon": -77.02338966666667, "type": "electric_scooter", "bike_id": "2581f235fd48bea77c625a824d9846a7", "fusion_lon": 0.0, "lat": 38.922362166666666, "fusion_lat": 0.0}, {"is_disabled": 0, "rental_uris": {"android": "https://dc.lft.to/lastmile_qr_scan", "ios": "https://dc.lft.to/lastmile_qr_scan"}, "is_reserved": 0, "name": "4ec7d89d12a4a33ca682496b2c1cf5bf", "lon": -76.99034183333333, "type": "electric_scooter", "bike_id": "4ec7d89d12a4a33ca682496b2c1cf5bf", "fusion_lon": 0.0, "lat": 38.89882983333333, "fusion_lat": 0.0}, {"is_disabled": 0, "rental_uris": {"android": "https://dc.lft.to/lastmile_qr_scan", "ios": "https://dc.lft.to/lastmile_qr_scan"}, "is_reserved": 0, "name": "7491eb7b550e3a3b001c32ebeda7577f", "lon": -77.00337083333334, "type": "electric_scooter", "bike_id": "7491eb7b550e3a3b001c32ebeda7577f", "fusion_lon": 0.0, "lat": 38.889880833333336, "fusion_lat": 0.0}, {"is_disabled": 0, "rental_uris": {"android": "https://dc.lft.to/lastmile_qr_scan", "ios": "https://dc.lft.to/lastmile_qr_scan"}, "is_reserved": 0, "name": "894b1794f9b827a21ed7fce29eaee0b0", "lon": -77.03206266666666, "type": "electric_scooter", "bike_id": "894b1794f9b827a21ed7fce29eaee0b0", "fusion_lon": 0.0, "lat": 38.91688166666667, "fusion_lat": 0.0}, {"is_disabled": 0, "rental_uris": {"android": "https://dc.lft.to/lastmile_qr_scan", "ios": "https://dc.lft.to/lastmile_qr_scan"}, "is_reserved": 0, "name": "6a5fd11b34e3e3596662e5c644a512f0", "lon": -77.03808983333333, "type": "electric_scooter", "bike_id": "6a5fd11b34e3e3596662e5c644a512f0", "fusion_lon": 0.0, "lat": 38.9307955, "fusion_lat": 0.0}, {"is_disabled": 0, "rental_uris": {"android": "https://dc.lft.to/lastmile_qr_scan", "ios": "https://dc.lft.to/lastmile_qr_scan"}, "is_reserved": 0, "name": "069eb09924a8fed7e5277ef5859027b1", "lon": -77.02307166666667, "type": "electric_scooter", "bike_id": "069eb09924a8fed7e5277ef5859027b1", "fusion_lon": 0.0, "lat": 38.91776633333333, "fusion_lat": 0.0}, {"is_disabled": 0, "rental_uris": {"android": "https://dc.lft.to/lastmile_qr_scan", "ios": "https://dc.lft.to/lastmile_qr_scan"}, "is_reserved": 0, "name": "bb19cc587ee7a5889b1370ce1d5aa4d9", "lon": -77.05345216666667, "type": "electric_scooter", "bike_id": "bb19cc587ee7a5889b1370ce1d5aa4d9", "fusion_lon": 0.0, "lat": 38.904977333333335, "fusion_lat": 0.0}, {"is_disabled": 0, "rental_uris": {"android": "https://dc.lft.to/lastmile_qr_scan", "ios": "https://dc.lft.to/lastmile_qr_scan"}, "is_reserved": 0, "name": "6c1f337182c462615d192fcfe21b6fe1", "lon": -77.0428365, "type": "electric_scooter", "bike_id": "6c1f337182c462615d192fcfe21b6fe1", "fusion_lon": 0.0, "lat": 38.917048666666666, "fusion_lat": 0.0}, {"is_disabled": 0, "rental_uris": {"android": "https://dc.lft.to/lastmile_qr_scan", "ios": "https://dc.lft.to/lastmile_qr_scan"}, "is_reserved": 0, "name": "1a497d4f820e8d9b24cf953e68a3b808", "lon": -77.08436716666667, "type": "electric_bike", "bike_id": "1a497d4f820e8d9b24cf953e68a3b808", "fusion_lon": 0.0, "lat": 38.810278833333335, "fusion_lat": 0.0}, {"is_disabled": 0, "rental_uris": {"android": "https://dc.lft.to/lastmile_qr_scan", "ios": "https://dc.lft.to/lastmile_qr_scan"}, "is_reserved": 0, "name": "c5c08c0333628d6e3495191c81a6eba4", "lon": -77.0276365, "type": "electric_scooter", "bike_id": "c5c08c0333628d6e3495191c81a6eba4", "fusion_lon": 0.0, "lat": 38.943010666666666, "fusion_lat": 0.0}, {"is_disabled": 0, "rental_uris": {"android": "https://dc.lft.to/lastmile_qr_scan", "ios": "https://dc.lft.to/lastmile_qr_scan"}, "is_reserved": 0, "name": "ff9f63d872ecb0b2ad12fa30f084482c", "lon": -76.97907216666667, "type": "electric_scooter", "bike_id": "ff9f63d872ecb0b2ad12fa30f084482c", "fusion_lon": 0.0, "lat": 38.90431616666667, "fusion_lat": 0.0}, {"is_disabled": 0, "rental_uris": {"android": "https://dc.lft.to/lastmile_qr_scan", "ios": "https://dc.lft.to/lastmile_qr_scan"}, "is_reserved": 0, "name": "ccb9f2f524d8bdd4bad3a4ecf8076ef9", "lon": -77.03482533333333, "type": "electric_scooter", "bike_id": "ccb9f2f524d8bdd4bad3a4ecf8076ef9", "fusion_lon": 0.0, "lat": 38.9024715, "fusion_lat": 0.0}, {"is_disabled": 0, "rental_uris": {"android": "https://dc.lft.to/lastmile_qr_scan", "ios": "https://dc.lft.to/lastmile_qr_scan"}, "is_reserved": 0, "name": "00b867b7c49380aff5eed0c6a7e14fc3", "lon": -76.94826333333333, "type": "electric_scooter", "bike_id": "00b867b7c49380aff5eed0c6a7e14fc3", "fusion_lon": 0.0, "lat": 38.885213666666665, "fusion_lat": 0.0}, {"is_disabled": 0, "rental_uris": {"android": "https://dc.lft.to/lastmile_qr_scan", "ios": "https://dc.lft.to/lastmile_qr_scan"}, "is_reserved": 0, "name": "83d0c1ddbd45f660da7c09d8b5d0ff34", "lon": -77.00950016666667, "type": "electric_scooter", "bike_id": "83d0c1ddbd45f660da7c09d8b5d0ff34", "fusion_lon": 0.0, "lat": 38.89508216666667, "fusion_lat": 0.0}, {"is_disabled": 0, "rental_uris": {"android": "https://dc.lft.to/lastmile_qr_scan", "ios": "https://dc.lft.to/lastmile_qr_scan"}, "is_reserved": 0, "name": "b57d7289707602fcce64d1d85dd35810", "lon": -76.99743483333333, "type": "electric_scooter", "bike_id": "b57d7289707602fcce64d1d85dd35810", "fusion_lon": 0.0, "lat": 38.89939666666667, "fusion_lat": 0.0}, {"is_disabled": 0, "rental_uris": {"android": "https://dc.lft.to/lastmile_qr_scan", "ios": "https://dc.lft.to/lastmile_qr_scan"}, "is_reserved": 0, "name": "7717f60e9383a6705154c67d4047fe74", "lon": -77.0022515, "type": "electric_scooter", "bike_id": "7717f60e9383a6705154c67d4047fe74", "fusion_lon": 0.0, "lat": 38.91339883333333, "fusion_lat": 0.0}, {"is_disabled": 0, "rental_uris": {"android": "https://dc.lft.to/lastmile_qr_scan", "ios": "https://dc.lft.to/lastmile_qr_scan"}, "is_reserved": 0, "name": "0dfbfe569a9d4a94c1e03073e7cb3bca", "lon": -76.97505783333334, "type": "electric_bike", "bike_id": "0dfbfe569a9d4a94c1e03073e7cb3bca", "fusion_lon": 0.0, "lat": 38.919385, "fusion_lat": 0.0}, {"is_disabled": 0, "rental_uris": {"android": "https://dc.lft.to/lastmile_qr_scan", "ios": "https://dc.lft.to/lastmile_qr_scan"}, "is_reserved": 0, "name": "a2939460166d1bbe7ce29d24a26b90a4", "lon": -77.04350433333333, "type": "electric_scooter", "bike_id": "a2939460166d1bbe7ce29d24a26b90a4", "fusion_lon": 0.0, "lat": 38.904768, "fusion_lat": 0.0}, {"is_disabled": 0, "rental_uris": {"android": "https://dc.lft.to/lastmile_qr_scan", "ios": "https://dc.lft.to/lastmile_qr_scan"}, "is_reserved": 0, "name": "5f685b01c186a75cfe015426d41bf6e5", "lon": -77.02720933333333, "type": "electric_scooter", "bike_id": "5f685b01c186a75cfe015426d41bf6e5", "fusion_lon": 0.0, "lat": 38.90858933333333, "fusion_lat": 0.0}, {"is_disabled": 0, "rental_uris": {"android": "https://dc.lft.to/lastmile_qr_scan", "ios": "https://dc.lft.to/lastmile_qr_scan"}, "is_reserved": 0, "name": "fdc40dda0b84a1e31672365b8578d9f7", "lon": -77.0099015, "type": "electric_scooter", "bike_id": "fdc40dda0b84a1e31672365b8578d9f7", "fusion_lon": 0.0, "lat": 38.897355833333336, "fusion_lat": 0.0}, {"is_disabled": 0, "rental_uris": {"android": "https://dc.lft.to/lastmile_qr_scan", "ios": "https://dc.lft.to/lastmile_qr_scan"}, "is_reserved": 0, "name": "cada1a159239f4709c3de671e58d8d3d", "lon": -77.0852765, "type": "electric_bike", "bike_id": "cada1a159239f4709c3de671e58d8d3d", "fusion_lon": 0.0, "lat": 38.85649083333333, "fusion_lat": 0.0}, {"is_disabled": 0, "rental_uris": {"android": "https://dc.lft.to/lastmile_qr_scan", "ios": "https://dc.lft.to/lastmile_qr_scan"}, "is_reserved": 0, "name": "8baffbe81a98e3c19ff6cd7a4219fa44", "lon": -76.96527683333333, "type": "electric_scooter", "bike_id": "8baffbe81a98e3c19ff6cd7a4219fa44", "fusion_lon": 0.0, "lat": 38.876353333333334, "fusion_lat": 0.0}, {"is_disabled": 0, "rental_uris": {"android": "https://dc.lft.to/lastmile_qr_scan", "ios": "https://dc.lft.to/lastmile_qr_scan"}, "is_reserved": 0, "name": "55843d1c446710478930d6560bd5a529", "lon": -76.93348183333333, "type": "electric_scooter", "bike_id": "55843d1c446710478930d6560bd5a529", "fusion_lon": 0.0, "lat": 38.899071666666664, "fusion_lat": 0.0}, {"is_disabled": 0, "rental_uris": {"android": "https://dc.lft.to/lastmile_qr_scan", "ios": "https://dc.lft.to/lastmile_qr_scan"}, "is_reserved": 0, "name": "77ffadf73c1aac15618498356232f3f1", "lon": -77.01111016666667, "type": "electric_scooter", "bike_id": "77ffadf73c1aac15618498356232f3f1", "fusion_lon": 0.0, "lat": 38.903646, "fusion_lat": 0.0}, {"is_disabled": 0, "rental_uris": {"android": "https://dc.lft.to/lastmile_qr_scan", "ios": "https://dc.lft.to/lastmile_qr_scan"}, "is_reserved": 0, "name": "a093c597c03ad49e46564aac05d29535", "lon": -77.00359033333334, "type": "electric_scooter", "bike_id": "a093c597c03ad49e46564aac05d29535", "fusion_lon": 0.0, "lat": 38.91106583333333, "fusion_lat": 0.0}, {"is_disabled": 0, "rental_uris": {"android": "https://dc.lft.to/lastmile_qr_scan", "ios": "https://dc.lft.to/lastmile_qr_scan"}, "is_reserved": 0, "name": "e541705030d13311677a1e53a5fd4003", "lon": -77.0314815, "type": "electric_scooter", "bike_id": "e541705030d13311677a1e53a5fd4003", "fusion_lon": 0.0, "lat": 38.88750533333334, "fusion_lat": 0.0}, {"is_disabled": 0, "rental_uris": {"android": "https://dc.lft.to/lastmile_qr_scan", "ios": "https://dc.lft.to/lastmile_qr_scan"}, "is_reserved": 0, "name": "f6e87d0559a9ddab3fd0b11ce5bd6c1a", "lon": -76.99391233333333, "type": "electric_scooter", "bike_id": "f6e87d0559a9ddab3fd0b11ce5bd6c1a", "fusion_lon": 0.0, "lat": 38.910183, "fusion_lat": 0.0}, {"is_disabled": 0, "rental_uris": {"android": "https://dc.lft.to/lastmile_qr_scan", "ios": "https://dc.lft.to/lastmile_qr_scan"}, "is_reserved": 0, "name": "2f24e01e71389f91f02beab1f310c0ba", "lon": -77.04997833333333, "type": "electric_scooter", "bike_id": "2f24e01e71389f91f02beab1f310c0ba", "fusion_lon": 0.0, "lat": 38.90526466666667, "fusion_lat": 0.0}, {"is_disabled": 0, "rental_uris": {"android": "https://dc.lft.to/lastmile_qr_scan", "ios": "https://dc.lft.to/lastmile_qr_scan"}, "is_reserved": 0, "name": "6414e4e3001d084f80dd07258a6c8e7e", "lon": -77.03217683333334, "type": "electric_scooter", "bike_id": "6414e4e3001d084f80dd07258a6c8e7e", "fusion_lon": 0.0, "lat": 38.900435333333334, "fusion_lat": 0.0}, {"is_disabled": 0, "rental_uris": {"android": "https://dc.lft.to/lastmile_qr_scan", "ios": "https://dc.lft.to/lastmile_qr_scan"}, "is_reserved": 0, "name": "979e14a567e4f09ad088f92478bb8bd2", "lon": -77.0242385, "type": "electric_scooter", "bike_id": "979e14a567e4f09ad088f92478bb8bd2", "fusion_lon": 0.0, "lat": 38.89639116666667, "fusion_lat": 0.0}, {"is_disabled": 0, "rental_uris": {"android": "https://dc.lft.to/lastmile_qr_scan", "ios": "https://dc.lft.to/lastmile_qr_scan"}, "is_reserved": 0, "name": "57b9fda1001951dd8413c42bbe238799", "lon": -77.01759416666667, "type": "electric_scooter", "bike_id": "57b9fda1001951dd8413c42bbe238799", "fusion_lon": 0.0, "lat": 38.876865333333335, "fusion_lat": 0.0}, {"is_disabled": 0, "rental_uris": {"android": "https://dc.lft.to/lastmile_qr_scan", "ios": "https://dc.lft.to/lastmile_qr_scan"}, "is_reserved": 0, "name": "6110aeada0c246995cc869da81dd77b3", "lon": -76.99051316666667, "type": "electric_scooter", "bike_id": "6110aeada0c246995cc869da81dd77b3", "fusion_lon": 0.0, "lat": 38.8635255, "fusion_lat": 0.0}, {"is_disabled": 0, "rental_uris": {"android": "https://dc.lft.to/lastmile_qr_scan", "ios": "https://dc.lft.to/lastmile_qr_scan"}, "is_reserved": 0, "name": "297c9fae33da92a1cdf0367b6a3a4deb", "lon": -77.0101135, "type": "electric_scooter", "bike_id": "297c9fae33da92a1cdf0367b6a3a4deb", "fusion_lon": 0.0, "lat": 38.8797025, "fusion_lat": 0.0}, {"is_disabled": 0, "rental_uris": {"android": "https://dc.lft.to/lastmile_qr_scan", "ios": "https://dc.lft.to/lastmile_qr_scan"}, "is_reserved": 0, "name": "262a5ffb0b14cccb2873f3c47cc4234f", "lon": -77.00574916666666, "type": "electric_scooter", "bike_id": "262a5ffb0b14cccb2873f3c47cc4234f", "fusion_lon": 0.0, "lat": 38.92816883333333, "fusion_lat": 0.0}, {"is_disabled": 0, "rental_uris": {"android": "https://dc.lft.to/lastmile_qr_scan", "ios": "https://dc.lft.to/lastmile_qr_scan"}, "is_reserved": 0, "name": "400accb6c76578ffdb686e89d66c71cb", "lon": -77.02950983333334, "type": "electric_scooter", "bike_id": "400accb6c76578ffdb686e89d66c71cb", "fusion_lon": 0.0, "lat": 38.90171566666667, "fusion_lat": 0.0}, {"is_disabled": 0, "rental_uris": {"android": "https://dc.lft.to/lastmile_qr_scan", "ios": "https://dc.lft.to/lastmile_qr_scan"}, "is_reserved": 0, "name": "8e9896f3e3ce0b35affd2b0d3d898b46", "lon": -77.02225683333333, "type": "electric_scooter", "bike_id": "8e9896f3e3ce0b35affd2b0d3d898b46", "fusion_lon": 0.0, "lat": 38.89223283333333, "fusion_lat": 0.0}, {"is_disabled": 0, "rental_uris": {"android": "https://dc.lft.to/lastmile_qr_scan", "ios": "https://dc.lft.to/lastmile_qr_scan"}, "is_reserved": 0, "name": "d2a920cb38e34428ea97c8623309f39d", "lon": -76.99518066666667, "type": "electric_scooter", "bike_id": "d2a920cb38e34428ea97c8623309f39d", "fusion_lon": 0.0, "lat": 38.894868333333335, "fusion_lat": 0.0}, {"is_disabled": 0, "rental_uris": {"android": "https://dc.lft.to/lastmile_qr_scan", "ios": "https://dc.lft.to/lastmile_qr_scan"}, "is_reserved": 0, "name": "d2086140a7ba47602d4170e9f1da92cb", "lon": -77.03546916666667, "type": "electric_scooter", "bike_id": "d2086140a7ba47602d4170e9f1da92cb", "fusion_lon": 0.0, "lat": 38.92473, "fusion_lat": 0.0}, {"is_disabled": 0, "rental_uris": {"android": "https://dc.lft.to/lastmile_qr_scan", "ios": "https://dc.lft.to/lastmile_qr_scan"}, "is_reserved": 0, "name": "e0a19bc5737afaa383a4e812b0833342", "lon": -76.9428885, "type": "electric_scooter", "bike_id": "e0a19bc5737afaa383a4e812b0833342", "fusion_lon": 0.0, "lat": 38.883094666666665, "fusion_lat": 0.0}, {"is_disabled": 0, "rental_uris": {"android": "https://dc.lft.to/lastmile_qr_scan", "ios": "https://dc.lft.to/lastmile_qr_scan"}, "is_reserved": 0, "name": "445972f248f55ece35cee3e760c0faea", "lon": -77.07381116666667, "type": "electric_bike", "bike_id": "445972f248f55ece35cee3e760c0faea", "fusion_lon": 0.0, "lat": 38.961961333333335, "fusion_lat": 0.0}, {"is_disabled": 0, "rental_uris": {"android": "https://dc.lft.to/lastmile_qr_scan", "ios": "https://dc.lft.to/lastmile_qr_scan"}, "is_reserved": 0, "name": "25706ac8f0c008ce5199e55c8a3852d9", "lon": -77.01215166666667, "type": "electric_scooter", "bike_id": "25706ac8f0c008ce5199e55c8a3852d9", "fusion_lon": 0.0, "lat": 38.918280333333335, "fusion_lat": 0.0}, {"is_disabled": 0, "rental_uris": {"android": "https://dc.lft.to/lastmile_qr_scan", "ios": "https://dc.lft.to/lastmile_qr_scan"}, "is_reserved": 0, "name": "233d1caa2848d992e3840105c1cdb52c", "lon": -76.92232516666667, "type": "electric_scooter", "bike_id": "233d1caa2848d992e3840105c1cdb52c", "fusion_lon": 0.0, "lat": 38.900006, "fusion_lat": 0.0}, {"is_disabled": 0, "rental_uris": {"android": "https://dc.lft.to/lastmile_qr_scan", "ios": "https://dc.lft.to/lastmile_qr_scan"}, "is_reserved": 0, "name": "f253e5961cde2d59a03c6991890a0914", "lon": -77.02201566666666, "type": "electric_scooter", "bike_id": "f253e5961cde2d59a03c6991890a0914", "fusion_lon": 0.0, "lat": 38.89966416666667, "fusion_lat": 0.0}, {"is_disabled": 0, "rental_uris": {"android": "https://dc.lft.to/lastmile_qr_scan", "ios": "https://dc.lft.to/lastmile_qr_scan"}, "is_reserved": 0, "name": "50c14c3fc420dfbfce5caa9d5813f8dd", "lon": -77.04647283333334, "type": "electric_scooter", "bike_id": "50c14c3fc420dfbfce5caa9d5813f8dd", "fusion_lon": 0.0, "lat": 38.893479666666664, "fusion_lat": 0.0}, {"is_disabled": 0, "rental_uris": {"android": "https://dc.lft.to/lastmile_qr_scan", "ios": "https://dc.lft.to/lastmile_qr_scan"}, "is_reserved": 0, "name": "d42c45108d9e1c9866159ab6924f7389", "lon": -77.00391983333333, "type": "electric_scooter", "bike_id": "d42c45108d9e1c9866159ab6924f7389", "fusion_lon": 0.0, "lat": 38.91077, "fusion_lat": 0.0}, {"is_disabled": 0, "rental_uris": {"android": "https://dc.lft.to/lastmile_qr_scan", "ios": "https://dc.lft.to/lastmile_qr_scan"}, "is_reserved": 0, "name": "aa75e42a22900655dc7bf6fb3dced180", "lon": -77.0293255, "type": "electric_scooter", "bike_id": "aa75e42a22900655dc7bf6fb3dced180", "fusion_lon": 0.0, "lat": 38.89520816666667, "fusion_lat": 0.0}, {"is_disabled": 0, "rental_uris": {"android": "https://dc.lft.to/lastmile_qr_scan", "ios": "https://dc.lft.to/lastmile_qr_scan"}, "is_reserved": 0, "name": "bee967e6d70ba43a8bea1127f8c7b0e5", "lon": -77.03739133333333, "type": "electric_scooter", "bike_id": "bee967e6d70ba43a8bea1127f8c7b0e5", "fusion_lon": 0.0, "lat": 38.91199133333333, "fusion_lat": 0.0}, {"is_disabled": 0, "rental_uris": {"android": "https://dc.lft.to/lastmile_qr_scan", "ios": "https://dc.lft.to/lastmile_qr_scan"}, "is_reserved": 0, "name": "02bb41fc792d59034c0990622d066674", "lon": -77.0033035, "type": "electric_scooter", "bike_id": "02bb41fc792d59034c0990622d066674", "fusion_lon": 0.0, "lat": 38.88317033333333, "fusion_lat": 0.0}, {"is_disabled": 0, "rental_uris": {"android": "https://dc.lft.to/lastmile_qr_scan", "ios": "https://dc.lft.to/lastmile_qr_scan"}, "is_reserved": 0, "name": "d1c8f8e77637f8a4ae69606d49d8951c", "lon": -76.98338816666667, "type": "electric_scooter", "bike_id": "d1c8f8e77637f8a4ae69606d49d8951c", "fusion_lon": 0.0, "lat": 38.912737666666665, "fusion_lat": 0.0}, {"is_disabled": 0, "rental_uris": {"android": "https://dc.lft.to/lastmile_qr_scan", "ios": "https://dc.lft.to/lastmile_qr_scan"}, "is_reserved": 0, "name": "e2701cf803ca5b3d0382578b41dc4d43", "lon": -77.04877733333333, "type": "electric_scooter", "bike_id": "e2701cf803ca5b3d0382578b41dc4d43", "fusion_lon": 0.0, "lat": 38.90113983333333, "fusion_lat": 0.0}, {"is_disabled": 0, "rental_uris": {"android": "https://dc.lft.to/lastmile_qr_scan", "ios": "https://dc.lft.to/lastmile_qr_scan"}, "is_reserved": 0, "name": "bd10eda1d10f9b25e19ae644276919ca", "lon": -76.99866033333333, "type": "electric_scooter", "bike_id": "bd10eda1d10f9b25e19ae644276919ca", "fusion_lon": 0.0, "lat": 38.900220166666664, "fusion_lat": 0.0}, {"is_disabled": 0, "rental_uris": {"android": "https://dc.lft.to/lastmile_qr_scan", "ios": "https://dc.lft.to/lastmile_qr_scan"}, "is_reserved": 0, "name": "4cae48db3a75a6459ab9955f641ade81", "lon": -77.01630933333334, "type": "electric_scooter", "bike_id": "4cae48db3a75a6459ab9955f641ade81", "fusion_lon": 0.0, "lat": 38.88297633333333, "fusion_lat": 0.0}, {"is_disabled": 0, "rental_uris": {"android": "https://dc.lft.to/lastmile_qr_scan", "ios": "https://dc.lft.to/lastmile_qr_scan"}, "is_reserved": 0, "name": "07f9c2eed336f29e69e7c1f38ae36bd5", "lon": -76.995364, "type": "electric_scooter", "bike_id": "07f9c2eed336f29e69e7c1f38ae36bd5", "fusion_lon": 0.0, "lat": 38.862524666666665, "fusion_lat": 0.0}, {"is_disabled": 0, "rental_uris": {"android": "https://dc.lft.to/lastmile_qr_scan", "ios": "https://dc.lft.to/lastmile_qr_scan"}, "is_reserved": 0, "name": "b1525e8c4fca92da427c39129ef30f52", "lon": -76.9789875, "type": "electric_bike", "bike_id": "b1525e8c4fca92da427c39129ef30f52", "fusion_lon": 0.0, "lat": 38.85495316666667, "fusion_lat": 0.0}, {"is_disabled": 0, "rental_uris": {"android": "https://dc.lft.to/lastmile_qr_scan", "ios": "https://dc.lft.to/lastmile_qr_scan"}, "is_reserved": 0, "name": "50a898ab803de28dab12b2949026285c", "lon": -76.90816716666667, "type": "electric_bike", "bike_id": "50a898ab803de28dab12b2949026285c", "fusion_lon": 0.0, "lat": 38.994601833333334, "fusion_lat": 0.0}, {"is_disabled": 0, "rental_uris": {"android": "https://dc.lft.to/lastmile_qr_scan", "ios": "https://dc.lft.to/lastmile_qr_scan"}, "is_reserved": 0, "name": "73c5c1c17c78b44d35eb32e0dfd69bd9", "lon": -77.032043, "type": "electric_scooter", "bike_id": "73c5c1c17c78b44d35eb32e0dfd69bd9", "fusion_lon": 0.0, "lat": 38.9107485, "fusion_lat": 0.0}, {"is_disabled": 0, "rental_uris": {"android": "https://dc.lft.to/lastmile_qr_scan", "ios": "https://dc.lft.to/lastmile_qr_scan"}, "is_reserved": 0, "name": "286444d3c9f5ce0f028ddaf9e46e87a8", "lon": -77.0509895, "type": "electric_scooter", "bike_id": "286444d3c9f5ce0f028ddaf9e46e87a8", "fusion_lon": 0.0, "lat": 38.923466, "fusion_lat": 0.0}, {"is_disabled": 0, "rental_uris": {"android": "https://dc.lft.to/lastmile_qr_scan", "ios": "https://dc.lft.to/lastmile_qr_scan"}, "is_reserved": 0, "name": "c9700fc84b4451b8de74863e73e2c052", "lon": -77.00836433333333, "type": "electric_scooter", "bike_id": "c9700fc84b4451b8de74863e73e2c052", "fusion_lon": 0.0, "lat": 38.876413666666664, "fusion_lat": 0.0}, {"is_disabled": 0, "rental_uris": {"android": "https://dc.lft.to/lastmile_qr_scan", "ios": "https://dc.lft.to/lastmile_qr_scan"}, "is_reserved": 0, "name": "10dce1f77865c7b67779705d3ce42dee", "lon": -76.94897483333334, "type": "electric_scooter", "bike_id": "10dce1f77865c7b67779705d3ce42dee", "fusion_lon": 0.0, "lat": 38.8953515, "fusion_lat": 0.0}, {"is_disabled": 0, "rental_uris": {"android": "https://dc.lft.to/lastmile_qr_scan", "ios": "https://dc.lft.to/lastmile_qr_scan"}, "is_reserved": 0, "name": "aac5bda3487c6836127154b793b8e82b", "lon": -77.03442583333333, "type": "electric_scooter", "bike_id": "aac5bda3487c6836127154b793b8e82b", "fusion_lon": 0.0, "lat": 38.91500583333333, "fusion_lat": 0.0}, {"is_disabled": 0, "rental_uris": {"android": "https://dc.lft.to/lastmile_qr_scan", "ios": "https://dc.lft.to/lastmile_qr_scan"}, "is_reserved": 0, "name": "14a4ead150a8436aaafe9be0191ffb03", "lon": -77.0195255, "type": "electric_scooter", "bike_id": "14a4ead150a8436aaafe9be0191ffb03", "fusion_lon": 0.0, "lat": 38.947029666666666, "fusion_lat": 0.0}, {"is_disabled": 0, "rental_uris": {"android": "https://dc.lft.to/lastmile_qr_scan", "ios": "https://dc.lft.to/lastmile_qr_scan"}, "is_reserved": 0, "name": "0201023f48061d9375d1f37a8fff0c0d", "lon": -76.91595816666667, "type": "electric_bike", "bike_id": "0201023f48061d9375d1f37a8fff0c0d", "fusion_lon": 0.0, "lat": 38.8801285, "fusion_lat": 0.0}, {"is_disabled": 0, "rental_uris": {"android": "https://dc.lft.to/lastmile_qr_scan", "ios": "https://dc.lft.to/lastmile_qr_scan"}, "is_reserved": 0, "name": "da7d4f0ccb5cc1db2ca341d4509f9e16", "lon": -77.031669, "type": "electric_scooter", "bike_id": "da7d4f0ccb5cc1db2ca341d4509f9e16", "fusion_lon": 0.0, "lat": 38.916246, "fusion_lat": 0.0}, {"is_disabled": 0, "rental_uris": {"android": "https://dc.lft.to/lastmile_qr_scan", "ios": "https://dc.lft.to/lastmile_qr_scan"}, "is_reserved": 0, "name": "92f902828e8ec7aefea2032c4574699c", "lon": -76.9575765, "type": "electric_scooter", "bike_id": "92f902828e8ec7aefea2032c4574699c", "fusion_lon": 0.0, "lat": 38.884325833333335, "fusion_lat": 0.0}, {"is_disabled": 0, "rental_uris": {"android": "https://dc.lft.to/lastmile_qr_scan", "ios": "https://dc.lft.to/lastmile_qr_scan"}, "is_reserved": 0, "name": "aa5f7ad63c3bacad12d226afdef152ca", "lon": -76.94999016666667, "type": "electric_scooter", "bike_id": "aa5f7ad63c3bacad12d226afdef152ca", "fusion_lon": 0.0, "lat": 38.893991666666665, "fusion_lat": 0.0}, {"is_disabled": 0, "rental_uris": {"android": "https://dc.lft.to/lastmile_qr_scan", "ios": "https://dc.lft.to/lastmile_qr_scan"}, "is_reserved": 0, "name": "e92a23052c377ec388cd4760eb151fdf", "lon": -77.03466433333334, "type": "electric_scooter", "bike_id": "e92a23052c377ec388cd4760eb151fdf", "fusion_lon": 0.0, "lat": 38.90983816666667, "fusion_lat": 0.0}, {"is_disabled": 0, "rental_uris": {"android": "https://dc.lft.to/lastmile_qr_scan", "ios": "https://dc.lft.to/lastmile_qr_scan"}, "is_reserved": 0, "name": "e6e08dad49eed39f33d9f1a4ac3963ca", "lon": -77.02528316666667, "type": "electric_scooter", "bike_id": "e6e08dad49eed39f33d9f1a4ac3963ca", "fusion_lon": 0.0, "lat": 38.90576133333333, "fusion_lat": 0.0}, {"is_disabled": 0, "rental_uris": {"android": "https://dc.lft.to/lastmile_qr_scan", "ios": "https://dc.lft.to/lastmile_qr_scan"}, "is_reserved": 0, "name": "6c0c4a0dcff42e21b16438c87f5b3290", "lon": -77.00338066666667, "type": "electric_scooter", "bike_id": "6c0c4a0dcff42e21b16438c87f5b3290", "fusion_lon": 0.0, "lat": 38.893564833333336, "fusion_lat": 0.0}, {"is_disabled": 0, "rental_uris": {"android": "https://dc.lft.to/lastmile_qr_scan", "ios": "https://dc.lft.to/lastmile_qr_scan"}, "is_reserved": 0, "name": "24f3d37c0302ad597b08e710aa8c7e80", "lon": -76.99499533333334, "type": "electric_scooter", "bike_id": "24f3d37c0302ad597b08e710aa8c7e80", "fusion_lon": 0.0, "lat": 38.862452166666664, "fusion_lat": 0.0}, {"is_disabled": 0, "rental_uris": {"android": "https://dc.lft.to/lastmile_qr_scan", "ios": "https://dc.lft.to/lastmile_qr_scan"}, "is_reserved": 0, "name": "5bcc5b1ae1a8e70ca73df9a4e733d644", "lon": -77.04482866666666, "type": "electric_scooter", "bike_id": "5bcc5b1ae1a8e70ca73df9a4e733d644", "fusion_lon": 0.0, "lat": 38.90843266666667, "fusion_lat": 0.0}, {"is_disabled": 0, "rental_uris": {"android": "https://dc.lft.to/lastmile_qr_scan", "ios": "https://dc.lft.to/lastmile_qr_scan"}, "is_reserved": 0, "name": "0991c738726ead6ebd5fb2465ded4d14", "lon": -77.04655633333333, "type": "electric_scooter", "bike_id": "0991c738726ead6ebd5fb2465ded4d14", "fusion_lon": 0.0, "lat": 38.89340583333333, "fusion_lat": 0.0}, {"is_disabled": 0, "rental_uris": {"android": "https://dc.lft.to/lastmile_qr_scan", "ios": "https://dc.lft.to/lastmile_qr_scan"}, "is_reserved": 0, "name": "3b26084f5d9b69af3f8b726e0b478f9c", "lon": -77.05025966666666, "type": "electric_scooter", "bike_id": "3b26084f5d9b69af3f8b726e0b478f9c", "fusion_lon": 0.0, "lat": 38.89577383333334, "fusion_lat": 0.0}, {"is_disabled": 0, "rental_uris": {"android": "https://dc.lft.to/lastmile_qr_scan", "ios": "https://dc.lft.to/lastmile_qr_scan"}, "is_reserved": 0, "name": "de8cbeeb00bdafe4ae4376e07e1e0fd2", "lon": -76.966836, "type": "electric_bike", "bike_id": "de8cbeeb00bdafe4ae4376e07e1e0fd2", "fusion_lon": 0.0, "lat": 38.958938, "fusion_lat": 0.0}, {"is_disabled": 0, "rental_uris": {"android": "https://dc.lft.to/lastmile_qr_scan", "ios": "https://dc.lft.to/lastmile_qr_scan"}, "is_reserved": 0, "name": "c544046ad7aaca594c486657e96705a4", "lon": -77.019896, "type": "electric_scooter", "bike_id": "c544046ad7aaca594c486657e96705a4", "fusion_lon": 0.0, "lat": 38.87583, "fusion_lat": 0.0}, {"is_disabled": 0, "rental_uris": {"android": "https://dc.lft.to/lastmile_qr_scan", "ios": "https://dc.lft.to/lastmile_qr_scan"}, "is_reserved": 0, "name": "c954fb0678204d697c2328685e27c8fd", "lon": -77.03187466666667, "type": "electric_scooter", "bike_id": "c954fb0678204d697c2328685e27c8fd", "fusion_lon": 0.0, "lat": 38.8923675, "fusion_lat": 0.0}, {"is_disabled": 0, "rental_uris": {"android": "https://dc.lft.to/lastmile_qr_scan", "ios": "https://dc.lft.to/lastmile_qr_scan"}, "is_reserved": 0, "name": "9ddc7e03427aeaad5fc256856fc3a198", "lon": -77.05192083333333, "type": "electric_scooter", "bike_id": "9ddc7e03427aeaad5fc256856fc3a198", "fusion_lon": 0.0, "lat": 38.9255325, "fusion_lat": 0.0}, {"is_disabled": 0, "rental_uris": {"android": "https://dc.lft.to/lastmile_qr_scan", "ios": "https://dc.lft.to/lastmile_qr_scan"}, "is_reserved": 0, "name": "b6ba817ec5b130da2f2ee41f734287a3", "lon": -77.0388125, "type": "electric_scooter", "bike_id": "b6ba817ec5b130da2f2ee41f734287a3", "fusion_lon": 0.0, "lat": 38.91267533333333, "fusion_lat": 0.0}, {"is_disabled": 0, "rental_uris": {"android": "https://dc.lft.to/lastmile_qr_scan", "ios": "https://dc.lft.to/lastmile_qr_scan"}, "is_reserved": 0, "name": "aeba9998bd1c79c31806d496f52ae2a4", "lon": -77.04600516666666, "type": "electric_scooter", "bike_id": "aeba9998bd1c79c31806d496f52ae2a4", "fusion_lon": 0.0, "lat": 38.91719883333333, "fusion_lat": 0.0}, {"is_disabled": 0, "rental_uris": {"android": "https://dc.lft.to/lastmile_qr_scan", "ios": "https://dc.lft.to/lastmile_qr_scan"}, "is_reserved": 0, "name": "97223ff52cf255da24a463c3294b57d3", "lon": -77.010291, "type": "electric_scooter", "bike_id": "97223ff52cf255da24a463c3294b57d3", "fusion_lon": 0.0, "lat": 38.91121183333333, "fusion_lat": 0.0}, {"is_disabled": 0, "rental_uris": {"android": "https://dc.lft.to/lastmile_qr_scan", "ios": "https://dc.lft.to/lastmile_qr_scan"}, "is_reserved": 0, "name": "1e8d4fd5c353fa1481afc2964d8b89ab", "lon": -77.06527816666667, "type": "electric_scooter", "bike_id": "1e8d4fd5c353fa1481afc2964d8b89ab", "fusion_lon": 0.0, "lat": 38.90521833333333, "fusion_lat": 0.0}, {"is_disabled": 0, "rental_uris": {"android": "https://dc.lft.to/lastmile_qr_scan", "ios": "https://dc.lft.to/lastmile_qr_scan"}, "is_reserved": 0, "name": "5d74b00d6df3b9145efb6355620d7f3f", "lon": -77.02417183333333, "type": "electric_scooter", "bike_id": "5d74b00d6df3b9145efb6355620d7f3f", "fusion_lon": 0.0, "lat": 38.909639166666665, "fusion_lat": 0.0}, {"is_disabled": 0, "rental_uris": {"android": "https://dc.lft.to/lastmile_qr_scan", "ios": "https://dc.lft.to/lastmile_qr_scan"}, "is_reserved": 0, "name": "6f531ca46b75c580079e0a0175511297", "lon": -77.08057533333333, "type": "electric_bike", "bike_id": "6f531ca46b75c580079e0a0175511297", "fusion_lon": 0.0, "lat": 38.84845333333333, "fusion_lat": 0.0}, {"is_disabled": 0, "rental_uris": {"android": "https://dc.lft.to/lastmile_qr_scan", "ios": "https://dc.lft.to/lastmile_qr_scan"}, "is_reserved": 0, "name": "8ed1b76c768ae0e735f834e068ec5d1b", "lon": -77.02226883333333, "type": "electric_scooter", "bike_id": "8ed1b76c768ae0e735f834e068ec5d1b", "fusion_lon": 0.0, "lat": 38.88747133333333, "fusion_lat": 0.0}, {"is_disabled": 0, "rental_uris": {"android": "https://dc.lft.to/lastmile_qr_scan", "ios": "https://dc.lft.to/lastmile_qr_scan"}, "is_reserved": 0, "name": "eafcb850e4c588b4118733a0198a7e29", "lon": -77.04357133333333, "type": "electric_scooter", "bike_id": "eafcb850e4c588b4118733a0198a7e29", "fusion_lon": 0.0, "lat": 38.91128966666667, "fusion_lat": 0.0}, {"is_disabled": 0, "rental_uris": {"android": "https://dc.lft.to/lastmile_qr_scan", "ios": "https://dc.lft.to/lastmile_qr_scan"}, "is_reserved": 0, "name": "bd11f78c70b72ec6ddd825ae77b2a278", "lon": -77.054185, "type": "electric_scooter", "bike_id": "bd11f78c70b72ec6ddd825ae77b2a278", "fusion_lon": 0.0, "lat": 38.928249666666666, "fusion_lat": 0.0}, {"is_disabled": 0, "rental_uris": {"android": "https://dc.lft.to/lastmile_qr_scan", "ios": "https://dc.lft.to/lastmile_qr_scan"}, "is_reserved": 0, "name": "7632664648335d7c6436aa08a0951854", "lon": -77.041728, "type": "electric_scooter", "bike_id": "7632664648335d7c6436aa08a0951854", "fusion_lon": 0.0, "lat": 38.91550633333333, "fusion_lat": 0.0}, {"is_disabled": 0, "rental_uris": {"android": "https://dc.lft.to/lastmile_qr_scan", "ios": "https://dc.lft.to/lastmile_qr_scan"}, "is_reserved": 0, "name": "b31d4a0df93ee293be459fd84196c8fd", "lon": -77.03630366666667, "type": "electric_scooter", "bike_id": "b31d4a0df93ee293be459fd84196c8fd", "fusion_lon": 0.0, "lat": 38.956051, "fusion_lat": 0.0}, {"is_disabled": 0, "rental_uris": {"android": "https://dc.lft.to/lastmile_qr_scan", "ios": "https://dc.lft.to/lastmile_qr_scan"}, "is_reserved": 0, "name": "33ba295ae4e8b5579079330603c5e143", "lon": -76.99517616666667, "type": "electric_scooter", "bike_id": "33ba295ae4e8b5579079330603c5e143", "fusion_lon": 0.0, "lat": 38.894884, "fusion_lat": 0.0}, {"is_disabled": 0, "rental_uris": {"android": "https://dc.lft.to/lastmile_qr_scan", "ios": "https://dc.lft.to/lastmile_qr_scan"}, "is_reserved": 0, "name": "c4525e0be10d80851f8efe7f89224fa8", "lon": -77.032891, "type": "electric_scooter", "bike_id": "c4525e0be10d80851f8efe7f89224fa8", "fusion_lon": 0.0, "lat": 38.92374016666667, "fusion_lat": 0.0}, {"is_disabled": 0, "rental_uris": {"android": "https://dc.lft.to/lastmile_qr_scan", "ios": "https://dc.lft.to/lastmile_qr_scan"}, "is_reserved": 0, "name": "794039664d0d251ebb511d919732265f", "lon": -77.04608266666666, "type": "electric_scooter", "bike_id": "794039664d0d251ebb511d919732265f", "fusion_lon": 0.0, "lat": 38.90259483333333, "fusion_lat": 0.0}, {"is_disabled": 0, "rental_uris": {"android": "https://dc.lft.to/lastmile_qr_scan", "ios": "https://dc.lft.to/lastmile_qr_scan"}, "is_reserved": 0, "name": "38cf3790bb8079207c09298a53d27ac2", "lon": -77.01757433333333, "type": "electric_scooter", "bike_id": "38cf3790bb8079207c09298a53d27ac2", "fusion_lon": 0.0, "lat": 38.87685716666667, "fusion_lat": 0.0}, {"is_disabled": 0, "rental_uris": {"android": "https://dc.lft.to/lastmile_qr_scan", "ios": "https://dc.lft.to/lastmile_qr_scan"}, "is_reserved": 0, "name": "fb73843854e6905d3bbcc0d7023007f1", "lon": -77.0915905, "type": "electric_bike", "bike_id": "fb73843854e6905d3bbcc0d7023007f1", "fusion_lon": 0.0, "lat": 38.96765716666667, "fusion_lat": 0.0}, {"is_disabled": 0, "rental_uris": {"android": "https://dc.lft.to/lastmile_qr_scan", "ios": "https://dc.lft.to/lastmile_qr_scan"}, "is_reserved": 0, "name": "2d2ad28d606ad0c75f03b3731b6de492", "lon": -77.04662216666667, "type": "electric_scooter", "bike_id": "2d2ad28d606ad0c75f03b3731b6de492", "fusion_lon": 0.0, "lat": 38.893034666666665, "fusion_lat": 0.0}, {"is_disabled": 0, "rental_uris": {"android": "https://dc.lft.to/lastmile_qr_scan", "ios": "https://dc.lft.to/lastmile_qr_scan"}, "is_reserved": 0, "name": "2987b69e848aba1be7f0b9b5ee0b0790", "lon": -77.06120333333334, "type": "electric_bike", "bike_id": "2987b69e848aba1be7f0b9b5ee0b0790", "fusion_lon": 0.0, "lat": 38.94368083333333, "fusion_lat": 0.0}, {"is_disabled": 0, "rental_uris": {"android": "https://dc.lft.to/lastmile_qr_scan", "ios": "https://dc.lft.to/lastmile_qr_scan"}, "is_reserved": 0, "name": "6d74338439301037446e3348bccaaa73", "lon": -76.99705183333333, "type": "electric_scooter", "bike_id": "6d74338439301037446e3348bccaaa73", "fusion_lon": 0.0, "lat": 38.8386865, "fusion_lat": 0.0}, {"is_disabled": 0, "rental_uris": {"android": "https://dc.lft.to/lastmile_qr_scan", "ios": "https://dc.lft.to/lastmile_qr_scan"}, "is_reserved": 0, "name": "24cd512c413709d98a105a41b27bf3b8", "lon": -76.94617283333334, "type": "electric_bike", "bike_id": "24cd512c413709d98a105a41b27bf3b8", "fusion_lon": 0.0, "lat": 38.83239116666667, "fusion_lat": 0.0}, {"is_disabled": 0, "rental_uris": {"android": "https://dc.lft.to/lastmile_qr_scan", "ios": "https://dc.lft.to/lastmile_qr_scan"}, "is_reserved": 0, "name": "24e0d8b162b9cde0c698f3556a1a107b", "lon": -76.98684183333333, "type": "electric_scooter", "bike_id": "24e0d8b162b9cde0c698f3556a1a107b", "fusion_lon": 0.0, "lat": 38.85815433333333, "fusion_lat": 0.0}, {"is_disabled": 0, "rental_uris": {"android": "https://dc.lft.to/lastmile_qr_scan", "ios": "https://dc.lft.to/lastmile_qr_scan"}, "is_reserved": 0, "name": "afc437c06f86edac781a2369fb72b4f1", "lon": -77.02460916666666, "type": "electric_scooter", "bike_id": "afc437c06f86edac781a2369fb72b4f1", "fusion_lon": 0.0, "lat": 38.93718416666667, "fusion_lat": 0.0}, {"is_disabled": 0, "rental_uris": {"android": "https://dc.lft.to/lastmile_qr_scan", "ios": "https://dc.lft.to/lastmile_qr_scan"}, "is_reserved": 0, "name": "7c4598ba06197b34135fe2d3169251b9", "lon": -77.02383366666666, "type": "electric_scooter", "bike_id": "7c4598ba06197b34135fe2d3169251b9", "fusion_lon": 0.0, "lat": 38.896078333333335, "fusion_lat": 0.0}, {"is_disabled": 0, "rental_uris": {"android": "https://dc.lft.to/lastmile_qr_scan", "ios": "https://dc.lft.to/lastmile_qr_scan"}, "is_reserved": 0, "name": "9c95d8bc086df90f16af63e6c9e9a844", "lon": -77.0402885, "type": "electric_scooter", "bike_id": "9c95d8bc086df90f16af63e6c9e9a844", "fusion_lon": 0.0, "lat": 38.904750166666666, "fusion_lat": 0.0}, {"is_disabled": 0, "rental_uris": {"android": "https://dc.lft.to/lastmile_qr_scan", "ios": "https://dc.lft.to/lastmile_qr_scan"}, "is_reserved": 0, "name": "1fa5a0b8f25025df306a82868296e0e4", "lon": -77.0449115, "type": "electric_scooter", "bike_id": "1fa5a0b8f25025df306a82868296e0e4", "fusion_lon": 0.0, "lat": 38.903662833333335, "fusion_lat": 0.0}, {"is_disabled": 0, "rental_uris": {"android": "https://dc.lft.to/lastmile_qr_scan", "ios": "https://dc.lft.to/lastmile_qr_scan"}, "is_reserved": 0, "name": "a47113e0b4aa44991ddff608ed17bab5", "lon": -77.195462, "type": "electric_bike", "bike_id": "a47113e0b4aa44991ddff608ed17bab5", "fusion_lon": 0.0, "lat": 39.11525783333333, "fusion_lat": 0.0}, {"is_disabled": 0, "rental_uris": {"android": "https://dc.lft.to/lastmile_qr_scan", "ios": "https://dc.lft.to/lastmile_qr_scan"}, "is_reserved": 0, "name": "42d6921f17e47ec2bb8fbb2009ff2596", "lon": -77.01766933333333, "type": "electric_scooter", "bike_id": "42d6921f17e47ec2bb8fbb2009ff2596", "fusion_lon": 0.0, "lat": 38.88596483333333, "fusion_lat": 0.0}, {"is_disabled": 0, "rental_uris": {"android": "https://dc.lft.to/lastmile_qr_scan", "ios": "https://dc.lft.to/lastmile_qr_scan"}, "is_reserved": 0, "name": "bb4a42e54747cf0fde7ee46a70386731", "lon": -77.02550183333334, "type": "electric_scooter", "bike_id": "bb4a42e54747cf0fde7ee46a70386731", "fusion_lon": 0.0, "lat": 38.9163235, "fusion_lat": 0.0}, {"is_disabled": 0, "rental_uris": {"android": "https://dc.lft.to/lastmile_qr_scan", "ios": "https://dc.lft.to/lastmile_qr_scan"}, "is_reserved": 0, "name": "0eb20767885d268d13105107c026e192", "lon": -77.0235045, "type": "electric_scooter", "bike_id": "0eb20767885d268d13105107c026e192", "fusion_lon": 0.0, "lat": 38.94300033333333, "fusion_lat": 0.0}, {"is_disabled": 0, "rental_uris": {"android": "https://dc.lft.to/lastmile_qr_scan", "ios": "https://dc.lft.to/lastmile_qr_scan"}, "is_reserved": 0, "name": "84ae17e8c3984afc1b9495c31c8a5c77", "lon": -77.04674983333334, "type": "electric_scooter", "bike_id": "84ae17e8c3984afc1b9495c31c8a5c77", "fusion_lon": 0.0, "lat": 38.9157625, "fusion_lat": 0.0}, {"is_disabled": 0, "rental_uris": {"android": "https://dc.lft.to/lastmile_qr_scan", "ios": "https://dc.lft.to/lastmile_qr_scan"}, "is_reserved": 0, "name": "aac514d05f2f7d676dfbce0f3ac91ee5", "lon": -77.05913, "type": "electric_scooter", "bike_id": "aac514d05f2f7d676dfbce0f3ac91ee5", "fusion_lon": 0.0, "lat": 38.90541966666667, "fusion_lat": 0.0}, {"is_disabled": 0, "rental_uris": {"android": "https://dc.lft.to/lastmile_qr_scan", "ios": "https://dc.lft.to/lastmile_qr_scan"}, "is_reserved": 0, "name": "832cf6ce2792ed30fce7a52e540dc619", "lon": -77.04976166666667, "type": "electric_bike", "bike_id": "832cf6ce2792ed30fce7a52e540dc619", "fusion_lon": 0.0, "lat": 38.992492, "fusion_lat": 0.0}, {"is_disabled": 0, "rental_uris": {"android": "https://dc.lft.to/lastmile_qr_scan", "ios": "https://dc.lft.to/lastmile_qr_scan"}, "is_reserved": 0, "name": "3eb8d66cf9f7ee985b8f60b38d3d16d3", "lon": -76.98096666666666, "type": "electric_bike", "bike_id": "3eb8d66cf9f7ee985b8f60b38d3d16d3", "fusion_lon": 0.0, "lat": 38.8571925, "fusion_lat": 0.0}, {"is_disabled": 0, "rental_uris": {"android": "https://dc.lft.to/lastmile_qr_scan", "ios": "https://dc.lft.to/lastmile_qr_scan"}, "is_reserved": 0, "name": "6000615a4be09dfbaa3d678a9212e5c5", "lon": -77.00050566666667, "type": "electric_scooter", "bike_id": "6000615a4be09dfbaa3d678a9212e5c5", "fusion_lon": 0.0, "lat": 38.919016666666664, "fusion_lat": 0.0}, {"is_disabled": 0, "rental_uris": {"android": "https://dc.lft.to/lastmile_qr_scan", "ios": "https://dc.lft.to/lastmile_qr_scan"}, "is_reserved": 0, "name": "2a9d5e08c4ab3791335acc357fa23abb", "lon": -77.042135, "type": "electric_scooter", "bike_id": "2a9d5e08c4ab3791335acc357fa23abb", "fusion_lon": 0.0, "lat": 38.92327266666667, "fusion_lat": 0.0}, {"is_disabled": 0, "rental_uris": {"android": "https://dc.lft.to/lastmile_qr_scan", "ios": "https://dc.lft.to/lastmile_qr_scan"}, "is_reserved": 0, "name": "ac2a6ada8c4a97e65f29adf219454aa5", "lon": -77.03222983333333, "type": "electric_scooter", "bike_id": "ac2a6ada8c4a97e65f29adf219454aa5", "fusion_lon": 0.0, "lat": 38.916533666666666, "fusion_lat": 0.0}, {"is_disabled": 0, "rental_uris": {"android": "https://dc.lft.to/lastmile_qr_scan", "ios": "https://dc.lft.to/lastmile_qr_scan"}, "is_reserved": 0, "name": "13a32f293ff8f42e24e605888979ba78", "lon": -77.0334665, "type": "electric_scooter", "bike_id": "13a32f293ff8f42e24e605888979ba78", "fusion_lon": 0.0, "lat": 38.89235983333333, "fusion_lat": 0.0}, {"is_disabled": 0, "rental_uris": {"android": "https://dc.lft.to/lastmile_qr_scan", "ios": "https://dc.lft.to/lastmile_qr_scan"}, "is_reserved": 0, "name": "1c03fc0603518fdbfe2f4bff14bfac95", "lon": -77.04612116666667, "type": "electric_scooter", "bike_id": "1c03fc0603518fdbfe2f4bff14bfac95", "fusion_lon": 0.0, "lat": 38.902628, "fusion_lat": 0.0}, {"is_disabled": 0, "rental_uris": {"android": "https://dc.lft.to/lastmile_qr_scan", "ios": "https://dc.lft.to/lastmile_qr_scan"}, "is_reserved": 0, "name": "1733b30557e5afd70298c464a5c3f3a8", "lon": -77.05058916666667, "type": "electric_scooter", "bike_id": "1733b30557e5afd70298c464a5c3f3a8", "fusion_lon": 0.0, "lat": 38.91643633333333, "fusion_lat": 0.0}, {"is_disabled": 0, "rental_uris": {"android": "https://dc.lft.to/lastmile_qr_scan", "ios": "https://dc.lft.to/lastmile_qr_scan"}, "is_reserved": 0, "name": "81e5e4e7bd7e58319dd7a8c5a7c52bb9", "lon": -76.98571566666666, "type": "electric_scooter", "bike_id": "81e5e4e7bd7e58319dd7a8c5a7c52bb9", "fusion_lon": 0.0, "lat": 38.9103765, "fusion_lat": 0.0}, {"is_disabled": 0, "rental_uris": {"android": "https://dc.lft.to/lastmile_qr_scan", "ios": "https://dc.lft.to/lastmile_qr_scan"}, "is_reserved": 0, "name": "6deae461949e96ec2e744a77dcee2964", "lon": -77.03461333333334, "type": "electric_scooter", "bike_id": "6deae461949e96ec2e744a77dcee2964", "fusion_lon": 0.0, "lat": 38.9043625, "fusion_lat": 0.0}, {"is_disabled": 0, "rental_uris": {"android": "https://dc.lft.to/lastmile_qr_scan", "ios": "https://dc.lft.to/lastmile_qr_scan"}, "is_reserved": 0, "name": "5f402f2dbed9de1f7e67531acbe419c3", "lon": -77.03187783333334, "type": "electric_scooter", "bike_id": "5f402f2dbed9de1f7e67531acbe419c3", "fusion_lon": 0.0, "lat": 38.908340333333335, "fusion_lat": 0.0}, {"is_disabled": 0, "rental_uris": {"android": "https://dc.lft.to/lastmile_qr_scan", "ios": "https://dc.lft.to/lastmile_qr_scan"}, "is_reserved": 0, "name": "edd4fce98356fc2cac3875ca0e739399", "lon": -76.948926, "type": "electric_scooter", "bike_id": "edd4fce98356fc2cac3875ca0e739399", "fusion_lon": 0.0, "lat": 38.895885, "fusion_lat": 0.0}, {"is_disabled": 0, "rental_uris": {"android": "https://dc.lft.to/lastmile_qr_scan", "ios": "https://dc.lft.to/lastmile_qr_scan"}, "is_reserved": 0, "name": "9b2f06ee34899b7f3db7043b55f5fae9", "lon": -77.0350065, "type": "electric_scooter", "bike_id": "9b2f06ee34899b7f3db7043b55f5fae9", "fusion_lon": 0.0, "lat": 38.923546, "fusion_lat": 0.0}, {"is_disabled": 0, "rental_uris": {"android": "https://dc.lft.to/lastmile_qr_scan", "ios": "https://dc.lft.to/lastmile_qr_scan"}, "is_reserved": 0, "name": "1bb0372b0a8678701f4d594614da92d0", "lon": -76.99519316666667, "type": "electric_scooter", "bike_id": "1bb0372b0a8678701f4d594614da92d0", "fusion_lon": 0.0, "lat": 38.894846333333334, "fusion_lat": 0.0}, {"is_disabled": 0, "rental_uris": {"android": "https://dc.lft.to/lastmile_qr_scan", "ios": "https://dc.lft.to/lastmile_qr_scan"}, "is_reserved": 0, "name": "fba7bf777d12b795c1e9df8a1338dc22", "lon": -77.03858233333334, "type": "electric_scooter", "bike_id": "fba7bf777d12b795c1e9df8a1338dc22", "fusion_lon": 0.0, "lat": 38.91840533333333, "fusion_lat": 0.0}, {"is_disabled": 0, "rental_uris": {"android": "https://dc.lft.to/lastmile_qr_scan", "ios": "https://dc.lft.to/lastmile_qr_scan"}, "is_reserved": 0, "name": "abf14d70e4cc451fad5474a5c108a06c", "lon": -77.024111, "type": "electric_scooter", "bike_id": "abf14d70e4cc451fad5474a5c108a06c", "fusion_lon": 0.0, "lat": 38.916815166666666, "fusion_lat": 0.0}, {"is_disabled": 0, "rental_uris": {"android": "https://dc.lft.to/lastmile_qr_scan", "ios": "https://dc.lft.to/lastmile_qr_scan"}, "is_reserved": 0, "name": "cfedda97808c55087dd90ed0c02258cb", "lon": -76.95208566666666, "type": "electric_bike", "bike_id": "cfedda97808c55087dd90ed0c02258cb", "fusion_lon": 0.0, "lat": 38.9367115, "fusion_lat": 0.0}, {"is_disabled": 0, "rental_uris": {"android": "https://dc.lft.to/lastmile_qr_scan", "ios": "https://dc.lft.to/lastmile_qr_scan"}, "is_reserved": 0, "name": "6d287bf6d07b1f834bc1e6f957ae0af7", "lon": -77.0433805, "type": "electric_scooter", "bike_id": "6d287bf6d07b1f834bc1e6f957ae0af7", "fusion_lon": 0.0, "lat": 38.8982515, "fusion_lat": 0.0}, {"is_disabled": 0, "rental_uris": {"android": "https://dc.lft.to/lastmile_qr_scan", "ios": "https://dc.lft.to/lastmile_qr_scan"}, "is_reserved": 0, "name": "a23796843bae707a97aa06fa00b93bf7", "lon": -77.01015083333333, "type": "electric_scooter", "bike_id": "a23796843bae707a97aa06fa00b93bf7", "fusion_lon": 0.0, "lat": 38.906337, "fusion_lat": 0.0}, {"is_disabled": 0, "rental_uris": {"android": "https://dc.lft.to/lastmile_qr_scan", "ios": "https://dc.lft.to/lastmile_qr_scan"}, "is_reserved": 0, "name": "f86e2c72660a7a6b2f9ee5a1d04a2da0", "lon": -77.011659, "type": "electric_scooter", "bike_id": "f86e2c72660a7a6b2f9ee5a1d04a2da0", "fusion_lon": 0.0, "lat": 38.89748433333333, "fusion_lat": 0.0}, {"is_disabled": 0, "rental_uris": {"android": "https://dc.lft.to/lastmile_qr_scan", "ios": "https://dc.lft.to/lastmile_qr_scan"}, "is_reserved": 0, "name": "bdefecd47fc59074ff620b5e87475fb2", "lon": -77.047525, "type": "electric_scooter", "bike_id": "bdefecd47fc59074ff620b5e87475fb2", "fusion_lon": 0.0, "lat": 38.9071935, "fusion_lat": 0.0}, {"is_disabled": 0, "rental_uris": {"android": "https://dc.lft.to/lastmile_qr_scan", "ios": "https://dc.lft.to/lastmile_qr_scan"}, "is_reserved": 0, "name": "aadc615264728ef7183c753f3992ac82", "lon": -77.0323225, "type": "electric_scooter", "bike_id": "aadc615264728ef7183c753f3992ac82", "fusion_lon": 0.0, "lat": 38.928918833333334, "fusion_lat": 0.0}, {"is_disabled": 0, "rental_uris": {"android": "https://dc.lft.to/lastmile_qr_scan", "ios": "https://dc.lft.to/lastmile_qr_scan"}, "is_reserved": 0, "name": "d2dd5047d6239e3e62f8896e3ddfbfa8", "lon": -76.9873075, "type": "electric_scooter", "bike_id": "d2dd5047d6239e3e62f8896e3ddfbfa8", "fusion_lon": 0.0, "lat": 38.86720283333333, "fusion_lat": 0.0}, {"is_disabled": 0, "rental_uris": {"android": "https://dc.lft.to/lastmile_qr_scan", "ios": "https://dc.lft.to/lastmile_qr_scan"}, "is_reserved": 0, "name": "b41b42982a6eabdc6895da4eba9f9a1d", "lon": -77.0198655, "type": "electric_scooter", "bike_id": "b41b42982a6eabdc6895da4eba9f9a1d", "fusion_lon": 0.0, "lat": 38.877897, "fusion_lat": 0.0}, {"is_disabled": 0, "rental_uris": {"android": "https://dc.lft.to/lastmile_qr_scan", "ios": "https://dc.lft.to/lastmile_qr_scan"}, "is_reserved": 0, "name": "fce0cd16aed5347c58676b117caa3ba7", "lon": -77.0347605, "type": "electric_scooter", "bike_id": "fce0cd16aed5347c58676b117caa3ba7", "fusion_lon": 0.0, "lat": 38.902833666666666, "fusion_lat": 0.0}, {"is_disabled": 0, "rental_uris": {"android": "https://dc.lft.to/lastmile_qr_scan", "ios": "https://dc.lft.to/lastmile_qr_scan"}, "is_reserved": 0, "name": "84416b5690661e46f70fd9a5991030fa", "lon": -77.02347416666667, "type": "electric_scooter", "bike_id": "84416b5690661e46f70fd9a5991030fa", "fusion_lon": 0.0, "lat": 38.922659, "fusion_lat": 0.0}, {"is_disabled": 0, "rental_uris": {"android": "https://dc.lft.to/lastmile_qr_scan", "ios": "https://dc.lft.to/lastmile_qr_scan"}, "is_reserved": 0, "name": "90d1588efadfcdd32f6081d38c06dbb8", "lon": -77.03852366666666, "type": "electric_scooter", "bike_id": "90d1588efadfcdd32f6081d38c06dbb8", "fusion_lon": 0.0, "lat": 38.92660683333333, "fusion_lat": 0.0}, {"is_disabled": 0, "rental_uris": {"android": "https://dc.lft.to/lastmile_qr_scan", "ios": "https://dc.lft.to/lastmile_qr_scan"}, "is_reserved": 0, "name": "553bb1d00407afa9d537e763895c222d", "lon": -77.031999, "type": "electric_scooter", "bike_id": "553bb1d00407afa9d537e763895c222d", "fusion_lon": 0.0, "lat": 38.90749316666667, "fusion_lat": 0.0}, {"is_disabled": 0, "rental_uris": {"android": "https://dc.lft.to/lastmile_qr_scan", "ios": "https://dc.lft.to/lastmile_qr_scan"}, "is_reserved": 0, "name": "bc05579f1186672c1ced9ca75d6f84ca", "lon": -77.003294, "type": "electric_scooter", "bike_id": "bc05579f1186672c1ced9ca75d6f84ca", "fusion_lon": 0.0, "lat": 38.893528833333335, "fusion_lat": 0.0}, {"is_disabled": 0, "rental_uris": {"android": "https://dc.lft.to/lastmile_qr_scan", "ios": "https://dc.lft.to/lastmile_qr_scan"}, "is_reserved": 0, "name": "54b5f111440139e9471dedf8fe22afc3", "lon": -77.03251533333334, "type": "electric_scooter", "bike_id": "54b5f111440139e9471dedf8fe22afc3", "fusion_lon": 0.0, "lat": 38.9149105, "fusion_lat": 0.0}, {"is_disabled": 0, "rental_uris": {"android": "https://dc.lft.to/lastmile_qr_scan", "ios": "https://dc.lft.to/lastmile_qr_scan"}, "is_reserved": 0, "name": "08c67977aee6340e98ab0fe2a10814ab", "lon": -77.04864783333333, "type": "electric_scooter", "bike_id": "08c67977aee6340e98ab0fe2a10814ab", "fusion_lon": 0.0, "lat": 38.89225033333334, "fusion_lat": 0.0}, {"is_disabled": 0, "rental_uris": {"android": "https://dc.lft.to/lastmile_qr_scan", "ios": "https://dc.lft.to/lastmile_qr_scan"}, "is_reserved": 0, "name": "87f686f2c3dffc1d814d623301efebe7", "lon": -77.035819, "type": "electric_scooter", "bike_id": "87f686f2c3dffc1d814d623301efebe7", "fusion_lon": 0.0, "lat": 38.9076935, "fusion_lat": 0.0}, {"is_disabled": 0, "rental_uris": {"android": "https://dc.lft.to/lastmile_qr_scan", "ios": "https://dc.lft.to/lastmile_qr_scan"}, "is_reserved": 0, "name": "7c65cca1a0610b740acb76aa27bf216f", "lon": -77.04148366666666, "type": "electric_scooter", "bike_id": "7c65cca1a0610b740acb76aa27bf216f", "fusion_lon": 0.0, "lat": 38.8992775, "fusion_lat": 0.0}, {"is_disabled": 0, "rental_uris": {"android": "https://dc.lft.to/lastmile_qr_scan", "ios": "https://dc.lft.to/lastmile_qr_scan"}, "is_reserved": 0, "name": "ff34b946657b4d581724507b0248dbac", "lon": -77.03214083333333, "type": "electric_scooter", "bike_id": "ff34b946657b4d581724507b0248dbac", "fusion_lon": 0.0, "lat": 38.8922355, "fusion_lat": 0.0}, {"is_disabled": 0, "rental_uris": {"android": "https://dc.lft.to/lastmile_qr_scan", "ios": "https://dc.lft.to/lastmile_qr_scan"}, "is_reserved": 0, "name": "7e1039ce1a3e689597bfb7b05e130752", "lon": -77.02225516666667, "type": "electric_scooter", "bike_id": "7e1039ce1a3e689597bfb7b05e130752", "fusion_lon": 0.0, "lat": 38.935533166666666, "fusion_lat": 0.0}, {"is_disabled": 0, "rental_uris": {"android": "https://dc.lft.to/lastmile_qr_scan", "ios": "https://dc.lft.to/lastmile_qr_scan"}, "is_reserved": 0, "name": "10ae135c54a018d2bf5fba02230c1a85", "lon": -76.9075995, "type": "electric_bike", "bike_id": "10ae135c54a018d2bf5fba02230c1a85", "fusion_lon": 0.0, "lat": 38.9244365, "fusion_lat": 0.0}, {"is_disabled": 0, "rental_uris": {"android": "https://dc.lft.to/lastmile_qr_scan", "ios": "https://dc.lft.to/lastmile_qr_scan"}, "is_reserved": 0, "name": "eacdad33979e056e53802c7b17b041ec", "lon": -77.04685883333333, "type": "electric_scooter", "bike_id": "eacdad33979e056e53802c7b17b041ec", "fusion_lon": 0.0, "lat": 38.91584183333333, "fusion_lat": 0.0}, {"is_disabled": 0, "rental_uris": {"android": "https://dc.lft.to/lastmile_qr_scan", "ios": "https://dc.lft.to/lastmile_qr_scan"}, "is_reserved": 0, "name": "71b2d227b8d5f4d32bd1d53fd3763e99", "lon": -77.024834, "type": "electric_scooter", "bike_id": "71b2d227b8d5f4d32bd1d53fd3763e99", "fusion_lon": 0.0, "lat": 38.938823166666666, "fusion_lat": 0.0}, {"is_disabled": 0, "rental_uris": {"android": "https://dc.lft.to/lastmile_qr_scan", "ios": "https://dc.lft.to/lastmile_qr_scan"}, "is_reserved": 0, "name": "2861445bf894274fda4a10ca1c65f541", "lon": -77.05106183333334, "type": "electric_scooter", "bike_id": "2861445bf894274fda4a10ca1c65f541", "fusion_lon": 0.0, "lat": 38.92362283333333, "fusion_lat": 0.0}, {"is_disabled": 0, "rental_uris": {"android": "https://dc.lft.to/lastmile_qr_scan", "ios": "https://dc.lft.to/lastmile_qr_scan"}, "is_reserved": 0, "name": "d60866ab5ca54097720da4818c8ff1d2", "lon": -77.0315245, "type": "electric_scooter", "bike_id": "d60866ab5ca54097720da4818c8ff1d2", "fusion_lon": 0.0, "lat": 38.92003283333333, "fusion_lat": 0.0}, {"is_disabled": 0, "rental_uris": {"android": "https://dc.lft.to/lastmile_qr_scan", "ios": "https://dc.lft.to/lastmile_qr_scan"}, "is_reserved": 0, "name": "75ed7014d65601bcd21c071af2ebf6c3", "lon": -76.94469, "type": "electric_scooter", "bike_id": "75ed7014d65601bcd21c071af2ebf6c3", "fusion_lon": 0.0, "lat": 38.90282033333333, "fusion_lat": 0.0}, {"is_disabled": 0, "rental_uris": {"android": "https://dc.lft.to/lastmile_qr_scan", "ios": "https://dc.lft.to/lastmile_qr_scan"}, "is_reserved": 0, "name": "eaa8a492610f1f7157011790ea20a06b", "lon": -76.94996666666667, "type": "electric_scooter", "bike_id": "eaa8a492610f1f7157011790ea20a06b", "fusion_lon": 0.0, "lat": 38.893909666666666, "fusion_lat": 0.0}, {"is_disabled": 0, "rental_uris": {"android": "https://dc.lft.to/lastmile_qr_scan", "ios": "https://dc.lft.to/lastmile_qr_scan"}, "is_reserved": 0, "name": "05f9dac825fc4d773122cfedfdf0b76f", "lon": -76.94636783333333, "type": "electric_scooter", "bike_id": "05f9dac825fc4d773122cfedfdf0b76f", "fusion_lon": 0.0, "lat": 38.8984515, "fusion_lat": 0.0}, {"is_disabled": 0, "rental_uris": {"android": "https://dc.lft.to/lastmile_qr_scan", "ios": "https://dc.lft.to/lastmile_qr_scan"}, "is_reserved": 0, "name": "559f305ba0dadaeae1e5045a2364a339", "lon": -77.04759533333333, "type": "electric_scooter", "bike_id": "559f305ba0dadaeae1e5045a2364a339", "fusion_lon": 0.0, "lat": 38.900726666666664, "fusion_lat": 0.0}, {"is_disabled": 0, "rental_uris": {"android": "https://dc.lft.to/lastmile_qr_scan", "ios": "https://dc.lft.to/lastmile_qr_scan"}, "is_reserved": 0, "name": "e025d136b0e64a29b97d0897b076f2eb", "lon": -76.9291575, "type": "electric_bike", "bike_id": "e025d136b0e64a29b97d0897b076f2eb", "fusion_lon": 0.0, "lat": 38.98032583333333, "fusion_lat": 0.0}, {"is_disabled": 0, "rental_uris": {"android": "https://dc.lft.to/lastmile_qr_scan", "ios": "https://dc.lft.to/lastmile_qr_scan"}, "is_reserved": 0, "name": "788ae6cc2a8cdb3edbebf7fc0e212310", "lon": -77.0359155, "type": "electric_scooter", "bike_id": "788ae6cc2a8cdb3edbebf7fc0e212310", "fusion_lon": 0.0, "lat": 38.907014, "fusion_lat": 0.0}, {"is_disabled": 0, "rental_uris": {"android": "https://dc.lft.to/lastmile_qr_scan", "ios": "https://dc.lft.to/lastmile_qr_scan"}, "is_reserved": 0, "name": "adcb10736e750c800fcaaa67d5dcda69", "lon": -77.0449765, "type": "electric_scooter", "bike_id": "adcb10736e750c800fcaaa67d5dcda69", "fusion_lon": 0.0, "lat": 38.906771666666664, "fusion_lat": 0.0}, {"is_disabled": 0, "rental_uris": {"android": "https://dc.lft.to/lastmile_qr_scan", "ios": "https://dc.lft.to/lastmile_qr_scan"}, "is_reserved": 0, "name": "cad8c6e274de2b40067b817237ef9b3d", "lon": -77.02271683333333, "type": "electric_scooter", "bike_id": "cad8c6e274de2b40067b817237ef9b3d", "fusion_lon": 0.0, "lat": 38.8970815, "fusion_lat": 0.0}, {"is_disabled": 0, "rental_uris": {"android": "https://dc.lft.to/lastmile_qr_scan", "ios": "https://dc.lft.to/lastmile_qr_scan"}, "is_reserved": 0, "name": "f409392e1ea9072f302ac3396f7e02f1", "lon": -77.0424315, "type": "electric_scooter", "bike_id": "f409392e1ea9072f302ac3396f7e02f1", "fusion_lon": 0.0, "lat": 38.922275666666664, "fusion_lat": 0.0}, {"is_disabled": 0, "rental_uris": {"android": "https://dc.lft.to/lastmile_qr_scan", "ios": "https://dc.lft.to/lastmile_qr_scan"}, "is_reserved": 0, "name": "86f322e9cccd848f588a72061b626de3", "lon": -77.02641533333333, "type": "electric_scooter", "bike_id": "86f322e9cccd848f588a72061b626de3", "fusion_lon": 0.0, "lat": 38.895812, "fusion_lat": 0.0}, {"is_disabled": 0, "rental_uris": {"android": "https://dc.lft.to/lastmile_qr_scan", "ios": "https://dc.lft.to/lastmile_qr_scan"}, "is_reserved": 0, "name": "a408ead8759ab92feb0b64a56fd8caf0", "lon": -77.02181233333333, "type": "electric_scooter", "bike_id": "a408ead8759ab92feb0b64a56fd8caf0", "fusion_lon": 0.0, "lat": 38.89738833333333, "fusion_lat": 0.0}, {"is_disabled": 0, "rental_uris": {"android": "https://dc.lft.to/lastmile_qr_scan", "ios": "https://dc.lft.to/lastmile_qr_scan"}, "is_reserved": 0, "name": "225bb304d12fccbfdfa80eb384797422", "lon": -77.0378875, "type": "electric_scooter", "bike_id": "225bb304d12fccbfdfa80eb384797422", "fusion_lon": 0.0, "lat": 38.90573583333333, "fusion_lat": 0.0}, {"is_disabled": 0, "rental_uris": {"android": "https://dc.lft.to/lastmile_qr_scan", "ios": "https://dc.lft.to/lastmile_qr_scan"}, "is_reserved": 0, "name": "cfe0f19abcfffb77a82b459c5240d2e8", "lon": -77.04595, "type": "electric_scooter", "bike_id": "cfe0f19abcfffb77a82b459c5240d2e8", "fusion_lon": 0.0, "lat": 38.91720333333333, "fusion_lat": 0.0}, {"is_disabled": 0, "rental_uris": {"android": "https://dc.lft.to/lastmile_qr_scan", "ios": "https://dc.lft.to/lastmile_qr_scan"}, "is_reserved": 0, "name": "58583cc1b279cffe5d47d684a2b69e97", "lon": -77.03524, "type": "electric_scooter", "bike_id": "58583cc1b279cffe5d47d684a2b69e97", "fusion_lon": 0.0, "lat": 38.922623, "fusion_lat": 0.0}, {"is_disabled": 0, "rental_uris": {"android": "https://dc.lft.to/lastmile_qr_scan", "ios": "https://dc.lft.to/lastmile_qr_scan"}, "is_reserved": 0, "name": "b6dba35cbbba7718d21abede9a5e99b0", "lon": -76.99812133333333, "type": "electric_scooter", "bike_id": "b6dba35cbbba7718d21abede9a5e99b0", "fusion_lon": 0.0, "lat": 38.876718, "fusion_lat": 0.0}, {"is_disabled": 0, "rental_uris": {"android": "https://dc.lft.to/lastmile_qr_scan", "ios": "https://dc.lft.to/lastmile_qr_scan"}, "is_reserved": 0, "name": "9913838f7712ad0db55c543383aad39e", "lon": -77.05068566666667, "type": "electric_scooter", "bike_id": "9913838f7712ad0db55c543383aad39e", "fusion_lon": 0.0, "lat": 38.900572833333335, "fusion_lat": 0.0}, {"is_disabled": 0, "rental_uris": {"android": "https://dc.lft.to/lastmile_qr_scan", "ios": "https://dc.lft.to/lastmile_qr_scan"}, "is_reserved": 0, "name": "20155120e75eca0df7255d7ef18d3c2e", "lon": -77.0249125, "type": "electric_scooter", "bike_id": "20155120e75eca0df7255d7ef18d3c2e", "fusion_lon": 0.0, "lat": 38.941882, "fusion_lat": 0.0}, {"is_disabled": 0, "rental_uris": {"android": "https://dc.lft.to/lastmile_qr_scan", "ios": "https://dc.lft.to/lastmile_qr_scan"}, "is_reserved": 0, "name": "1d3564463778ba63ced7db251934e8c4", "lon": -77.04332366666667, "type": "electric_scooter", "bike_id": "1d3564463778ba63ced7db251934e8c4", "fusion_lon": 0.0, "lat": 38.8989725, "fusion_lat": 0.0}, {"is_disabled": 0, "rental_uris": {"android": "https://dc.lft.to/lastmile_qr_scan", "ios": "https://dc.lft.to/lastmile_qr_scan"}, "is_reserved": 0, "name": "913e0640b8ac5426f2b4c60f310f4242", "lon": -77.013906, "type": "electric_scooter", "bike_id": "913e0640b8ac5426f2b4c60f310f4242", "fusion_lon": 0.0, "lat": 38.91951, "fusion_lat": 0.0}, {"is_disabled": 0, "rental_uris": {"android": "https://dc.lft.to/lastmile_qr_scan", "ios": "https://dc.lft.to/lastmile_qr_scan"}, "is_reserved": 0, "name": "f2fb0e214e029197d738f4794e8d212f", "lon": -77.0297425, "type": "electric_scooter", "bike_id": "f2fb0e214e029197d738f4794e8d212f", "fusion_lon": 0.0, "lat": 38.92037633333333, "fusion_lat": 0.0}, {"is_disabled": 0, "rental_uris": {"android": "https://dc.lft.to/lastmile_qr_scan", "ios": "https://dc.lft.to/lastmile_qr_scan"}, "is_reserved": 0, "name": "3d5aec5c92bba9d597bc2212273e2346", "lon": -77.02179033333333, "type": "electric_scooter", "bike_id": "3d5aec5c92bba9d597bc2212273e2346", "fusion_lon": 0.0, "lat": 38.8949595, "fusion_lat": 0.0}, {"is_disabled": 0, "rental_uris": {"android": "https://dc.lft.to/lastmile_qr_scan", "ios": "https://dc.lft.to/lastmile_qr_scan"}, "is_reserved": 0, "name": "0ef49a42ddd1b7dcee6fb2fb4c628a0f", "lon": -76.98616366666667, "type": "electric_scooter", "bike_id": "0ef49a42ddd1b7dcee6fb2fb4c628a0f", "fusion_lon": 0.0, "lat": 38.882946, "fusion_lat": 0.0}, {"is_disabled": 0, "rental_uris": {"android": "https://dc.lft.to/lastmile_qr_scan", "ios": "https://dc.lft.to/lastmile_qr_scan"}, "is_reserved": 0, "name": "b22e93956017acf49a76f83bce26849c", "lon": -77.02162233333334, "type": "electric_scooter", "bike_id": "b22e93956017acf49a76f83bce26849c", "fusion_lon": 0.0, "lat": 38.92618516666667, "fusion_lat": 0.0}, {"is_disabled": 0, "rental_uris": {"android": "https://dc.lft.to/lastmile_qr_scan", "ios": "https://dc.lft.to/lastmile_qr_scan"}, "is_reserved": 0, "name": "67764a8903f85a4a06958d47022ac979", "lon": -77.04498033333333, "type": "electric_scooter", "bike_id": "67764a8903f85a4a06958d47022ac979", "fusion_lon": 0.0, "lat": 38.905294, "fusion_lat": 0.0}, {"is_disabled": 0, "rental_uris": {"android": "https://dc.lft.to/lastmile_qr_scan", "ios": "https://dc.lft.to/lastmile_qr_scan"}, "is_reserved": 0, "name": "63cc2201ab268d7c810fa10e0fe267fc", "lon": -77.04357366666666, "type": "electric_scooter", "bike_id": "63cc2201ab268d7c810fa10e0fe267fc", "fusion_lon": 0.0, "lat": 38.9216745, "fusion_lat": 0.0}, {"is_disabled": 0, "rental_uris": {"android": "https://dc.lft.to/lastmile_qr_scan", "ios": "https://dc.lft.to/lastmile_qr_scan"}, "is_reserved": 0, "name": "a2ec6c521b5e9feca3f613b7dc6b7b5d", "lon": -77.02807966666667, "type": "electric_scooter", "bike_id": "a2ec6c521b5e9feca3f613b7dc6b7b5d", "fusion_lon": 0.0, "lat": 38.907431833333334, "fusion_lat": 0.0}, {"is_disabled": 0, "rental_uris": {"android": "https://dc.lft.to/lastmile_qr_scan", "ios": "https://dc.lft.to/lastmile_qr_scan"}, "is_reserved": 0, "name": "5aae0c66590e82d1331d3fd5c356a4c5", "lon": -76.98615316666667, "type": "electric_scooter", "bike_id": "5aae0c66590e82d1331d3fd5c356a4c5", "fusion_lon": 0.0, "lat": 38.9035145, "fusion_lat": 0.0}, {"is_disabled": 0, "rental_uris": {"android": "https://dc.lft.to/lastmile_qr_scan", "ios": "https://dc.lft.to/lastmile_qr_scan"}, "is_reserved": 0, "name": "8de31ec058ec964209e233abc9d6e938", "lon": -77.0898005, "type": "electric_scooter", "bike_id": "8de31ec058ec964209e233abc9d6e938", "fusion_lon": 0.0, "lat": 38.916352, "fusion_lat": 0.0}, {"is_disabled": 0, "rental_uris": {"android": "https://dc.lft.to/lastmile_qr_scan", "ios": "https://dc.lft.to/lastmile_qr_scan"}, "is_reserved": 0, "name": "79c905aa4a230cf1919a57242e22bacb", "lon": -77.02781416666667, "type": "electric_scooter", "bike_id": "79c905aa4a230cf1919a57242e22bacb", "fusion_lon": 0.0, "lat": 38.91017516666667, "fusion_lat": 0.0}, {"is_disabled": 0, "rental_uris": {"android": "https://dc.lft.to/lastmile_qr_scan", "ios": "https://dc.lft.to/lastmile_qr_scan"}, "is_reserved": 0, "name": "f363d88e94c94132a8d4b58bf399008a", "lon": -76.99488933333333, "type": "electric_scooter", "bike_id": "f363d88e94c94132a8d4b58bf399008a", "fusion_lon": 0.0, "lat": 38.862368333333336, "fusion_lat": 0.0}, {"is_disabled": 0, "rental_uris": {"android": "https://dc.lft.to/lastmile_qr_scan", "ios": "https://dc.lft.to/lastmile_qr_scan"}, "is_reserved": 0, "name": "226c56e89f2ef7ee4b0927a00d80b8ad", "lon": -77.069029, "type": "electric_scooter", "bike_id": "226c56e89f2ef7ee4b0927a00d80b8ad", "fusion_lon": 0.0, "lat": 38.907905166666666, "fusion_lat": 0.0}, {"is_disabled": 0, "rental_uris": {"android": "https://dc.lft.to/lastmile_qr_scan", "ios": "https://dc.lft.to/lastmile_qr_scan"}, "is_reserved": 0, "name": "7392594668d77e97180ed49eb8c16d5f", "lon": -77.03237716666666, "type": "electric_scooter", "bike_id": "7392594668d77e97180ed49eb8c16d5f", "fusion_lon": 0.0, "lat": 38.9015025, "fusion_lat": 0.0}, {"is_disabled": 0, "rental_uris": {"android": "https://dc.lft.to/lastmile_qr_scan", "ios": "https://dc.lft.to/lastmile_qr_scan"}, "is_reserved": 0, "name": "ed67f3c920f21a6c82e7c300e51e7760", "lon": -77.03184616666667, "type": "electric_scooter", "bike_id": "ed67f3c920f21a6c82e7c300e51e7760", "fusion_lon": 0.0, "lat": 38.89179216666667, "fusion_lat": 0.0}, {"is_disabled": 0, "rental_uris": {"android": "https://dc.lft.to/lastmile_qr_scan", "ios": "https://dc.lft.to/lastmile_qr_scan"}, "is_reserved": 0, "name": "09849fc4d4b6e8d74394673c8720a18f", "lon": -77.03012733333334, "type": "electric_scooter", "bike_id": "09849fc4d4b6e8d74394673c8720a18f", "fusion_lon": 0.0, "lat": 38.8982415, "fusion_lat": 0.0}, {"is_disabled": 0, "rental_uris": {"android": "https://dc.lft.to/lastmile_qr_scan", "ios": "https://dc.lft.to/lastmile_qr_scan"}, "is_reserved": 0, "name": "83d83f123a6ac0810f116db2a2ac0612", "lon": -77.0220855, "type": "electric_scooter", "bike_id": "83d83f123a6ac0810f116db2a2ac0612", "fusion_lon": 0.0, "lat": 38.914218, "fusion_lat": 0.0}, {"is_disabled": 0, "rental_uris": {"android": "https://dc.lft.to/lastmile_qr_scan", "ios": "https://dc.lft.to/lastmile_qr_scan"}, "is_reserved": 0, "name": "e2c2c821980b0883bac1fc6c5039ec32", "lon": -77.0346175, "type": "electric_scooter", "bike_id": "e2c2c821980b0883bac1fc6c5039ec32", "fusion_lon": 0.0, "lat": 38.92155066666667, "fusion_lat": 0.0}, {"is_disabled": 0, "rental_uris": {"android": "https://dc.lft.to/lastmile_qr_scan", "ios": "https://dc.lft.to/lastmile_qr_scan"}, "is_reserved": 0, "name": "df6a174f06f92cf1cda025ac429e41b6", "lon": -77.02596166666666, "type": "electric_scooter", "bike_id": "df6a174f06f92cf1cda025ac429e41b6", "fusion_lon": 0.0, "lat": 38.90437416666666, "fusion_lat": 0.0}, {"is_disabled": 0, "rental_uris": {"android": "https://dc.lft.to/lastmile_qr_scan", "ios": "https://dc.lft.to/lastmile_qr_scan"}, "is_reserved": 0, "name": "3155a216bf8bc3337a15c38d0914c9a7", "lon": -76.87494966666667, "type": "electric_bike", "bike_id": "3155a216bf8bc3337a15c38d0914c9a7", "fusion_lon": 0.0, "lat": 38.99092666666667, "fusion_lat": 0.0}, {"is_disabled": 0, "rental_uris": {"android": "https://dc.lft.to/lastmile_qr_scan", "ios": "https://dc.lft.to/lastmile_qr_scan"}, "is_reserved": 0, "name": "ee5821ec0ae6eccdc2a0442f4e889210", "lon": -77.0423395, "type": "electric_scooter", "bike_id": "ee5821ec0ae6eccdc2a0442f4e889210", "fusion_lon": 0.0, "lat": 38.90973783333333, "fusion_lat": 0.0}, {"is_disabled": 0, "rental_uris": {"android": "https://dc.lft.to/lastmile_qr_scan", "ios": "https://dc.lft.to/lastmile_qr_scan"}, "is_reserved": 0, "name": "822865d6d9409c6e79990cbd2422a051", "lon": -77.02809133333334, "type": "electric_scooter", "bike_id": "822865d6d9409c6e79990cbd2422a051", "fusion_lon": 0.0, "lat": 38.96217383333333, "fusion_lat": 0.0}, {"is_disabled": 0, "rental_uris": {"android": "https://dc.lft.to/lastmile_qr_scan", "ios": "https://dc.lft.to/lastmile_qr_scan"}, "is_reserved": 0, "name": "26b71ad3a92cf2d70841f3e0f85c9041", "lon": -77.01407016666667, "type": "electric_scooter", "bike_id": "26b71ad3a92cf2d70841f3e0f85c9041", "fusion_lon": 0.0, "lat": 38.92807333333333, "fusion_lat": 0.0}, {"is_disabled": 0, "rental_uris": {"android": "https://dc.lft.to/lastmile_qr_scan", "ios": "https://dc.lft.to/lastmile_qr_scan"}, "is_reserved": 0, "name": "100c8fbbd684f951cdfd60419d92ffa8", "lon": -77.02150933333333, "type": "electric_scooter", "bike_id": "100c8fbbd684f951cdfd60419d92ffa8", "fusion_lon": 0.0, "lat": 38.92609566666667, "fusion_lat": 0.0}, {"is_disabled": 0, "rental_uris": {"android": "https://dc.lft.to/lastmile_qr_scan", "ios": "https://dc.lft.to/lastmile_qr_scan"}, "is_reserved": 0, "name": "b72ffcdc3c73727ec4f3962486e4fe3c", "lon": -77.04901283333334, "type": "electric_bike", "bike_id": "b72ffcdc3c73727ec4f3962486e4fe3c", "fusion_lon": 0.0, "lat": 38.874977666666666, "fusion_lat": 0.0}, {"is_disabled": 0, "rental_uris": {"android": "https://dc.lft.to/lastmile_qr_scan", "ios": "https://dc.lft.to/lastmile_qr_scan"}, "is_reserved": 0, "name": "f06f4d87496f15f23257d0ef9fb95c94", "lon": -77.01795983333334, "type": "electric_scooter", "bike_id": "f06f4d87496f15f23257d0ef9fb95c94", "fusion_lon": 0.0, "lat": 38.941228, "fusion_lat": 0.0}, {"is_disabled": 0, "rental_uris": {"android": "https://dc.lft.to/lastmile_qr_scan", "ios": "https://dc.lft.to/lastmile_qr_scan"}, "is_reserved": 0, "name": "e9ef737b2cca5e92cd5f60583c9753a1", "lon": -77.03405233333334, "type": "electric_scooter", "bike_id": "e9ef737b2cca5e92cd5f60583c9753a1", "fusion_lon": 0.0, "lat": 38.902028666666666, "fusion_lat": 0.0}, {"is_disabled": 0, "rental_uris": {"android": "https://dc.lft.to/lastmile_qr_scan", "ios": "https://dc.lft.to/lastmile_qr_scan"}, "is_reserved": 0, "name": "6d13c8d89627774a62f57ddd61b0a8b4", "lon": -77.00200866666667, "type": "electric_scooter", "bike_id": "6d13c8d89627774a62f57ddd61b0a8b4", "fusion_lon": 0.0, "lat": 38.88683433333333, "fusion_lat": 0.0}, {"is_disabled": 0, "rental_uris": {"android": "https://dc.lft.to/lastmile_qr_scan", "ios": "https://dc.lft.to/lastmile_qr_scan"}, "is_reserved": 0, "name": "24b67659aa57d5db2912766af27e31cc", "lon": -77.03524916666667, "type": "electric_scooter", "bike_id": "24b67659aa57d5db2912766af27e31cc", "fusion_lon": 0.0, "lat": 38.92161933333333, "fusion_lat": 0.0}, {"is_disabled": 0, "rental_uris": {"android": "https://dc.lft.to/lastmile_qr_scan", "ios": "https://dc.lft.to/lastmile_qr_scan"}, "is_reserved": 0, "name": "752714eb034ef6d0610c0296a09e7d90", "lon": -77.03815233333333, "type": "electric_scooter", "bike_id": "752714eb034ef6d0610c0296a09e7d90", "fusion_lon": 0.0, "lat": 38.915037166666664, "fusion_lat": 0.0}, {"is_disabled": 0, "rental_uris": {"android": "https://dc.lft.to/lastmile_qr_scan", "ios": "https://dc.lft.to/lastmile_qr_scan"}, "is_reserved": 0, "name": "f83886b75f7c6685491486bfea684ff6", "lon": -77.02298183333333, "type": "electric_scooter", "bike_id": "f83886b75f7c6685491486bfea684ff6", "fusion_lon": 0.0, "lat": 38.916961666666666, "fusion_lat": 0.0}, {"is_disabled": 0, "rental_uris": {"android": "https://dc.lft.to/lastmile_qr_scan", "ios": "https://dc.lft.to/lastmile_qr_scan"}, "is_reserved": 0, "name": "55166b9c288ad2c3eac2872544b2f9ca", "lon": -77.04248533333333, "type": "electric_scooter", "bike_id": "55166b9c288ad2c3eac2872544b2f9ca", "fusion_lon": 0.0, "lat": 38.92223366666666, "fusion_lat": 0.0}, {"is_disabled": 0, "rental_uris": {"android": "https://dc.lft.to/lastmile_qr_scan", "ios": "https://dc.lft.to/lastmile_qr_scan"}, "is_reserved": 0, "name": "b4a43d9f03521a19da25f0bf3476f866", "lon": -77.10028333333334, "type": "electric_bike", "bike_id": "b4a43d9f03521a19da25f0bf3476f866", "fusion_lon": 0.0, "lat": 38.99066333333333, "fusion_lat": 0.0}, {"is_disabled": 0, "rental_uris": {"android": "https://dc.lft.to/lastmile_qr_scan", "ios": "https://dc.lft.to/lastmile_qr_scan"}, "is_reserved": 0, "name": "7a94a4cde65da28b9d27f093261b44fd", "lon": -77.02936016666666, "type": "electric_scooter", "bike_id": "7a94a4cde65da28b9d27f093261b44fd", "fusion_lon": 0.0, "lat": 38.9142005, "fusion_lat": 0.0}, {"is_disabled": 0, "rental_uris": {"android": "https://dc.lft.to/lastmile_qr_scan", "ios": "https://dc.lft.to/lastmile_qr_scan"}, "is_reserved": 0, "name": "810311d1370f5514b842294cb053b2b7", "lon": -77.02520316666667, "type": "electric_scooter", "bike_id": "810311d1370f5514b842294cb053b2b7", "fusion_lon": 0.0, "lat": 38.88048216666667, "fusion_lat": 0.0}, {"is_disabled": 0, "rental_uris": {"android": "https://dc.lft.to/lastmile_qr_scan", "ios": "https://dc.lft.to/lastmile_qr_scan"}, "is_reserved": 0, "name": "d58ff0326f2e64ef27601f418610d1a0", "lon": -76.9896935, "type": "electric_scooter", "bike_id": "d58ff0326f2e64ef27601f418610d1a0", "fusion_lon": 0.0, "lat": 38.902467, "fusion_lat": 0.0}, {"is_disabled": 0, "rental_uris": {"android": "https://dc.lft.to/lastmile_qr_scan", "ios": "https://dc.lft.to/lastmile_qr_scan"}, "is_reserved": 0, "name": "3938b6187f35647a3866d35fa3f6745f", "lon": -77.00605716666666, "type": "electric_scooter", "bike_id": "3938b6187f35647a3866d35fa3f6745f", "fusion_lon": 0.0, "lat": 38.905822, "fusion_lat": 0.0}, {"is_disabled": 0, "rental_uris": {"android": "https://dc.lft.to/lastmile_qr_scan", "ios": "https://dc.lft.to/lastmile_qr_scan"}, "is_reserved": 0, "name": "8a3d9edb346ad94866a04a16fc1ba2d3", "lon": -77.03674633333334, "type": "electric_scooter", "bike_id": "8a3d9edb346ad94866a04a16fc1ba2d3", "fusion_lon": 0.0, "lat": 38.903014166666665, "fusion_lat": 0.0}, {"is_disabled": 0, "rental_uris": {"android": "https://dc.lft.to/lastmile_qr_scan", "ios": "https://dc.lft.to/lastmile_qr_scan"}, "is_reserved": 0, "name": "0274201770ca11092a3b46a0b5c19319", "lon": -76.949538, "type": "electric_bike", "bike_id": "0274201770ca11092a3b46a0b5c19319", "fusion_lon": 0.0, "lat": 38.935124, "fusion_lat": 0.0}, {"is_disabled": 0, "rental_uris": {"android": "https://dc.lft.to/lastmile_qr_scan", "ios": "https://dc.lft.to/lastmile_qr_scan"}, "is_reserved": 0, "name": "404cee0f52bcc693b10942725f3522ba", "lon": -77.031921, "type": "electric_scooter", "bike_id": "404cee0f52bcc693b10942725f3522ba", "fusion_lon": 0.0, "lat": 38.919301, "fusion_lat": 0.0}, {"is_disabled": 0, "rental_uris": {"android": "https://dc.lft.to/lastmile_qr_scan", "ios": "https://dc.lft.to/lastmile_qr_scan"}, "is_reserved": 0, "name": "04ebb91f6a61f8baca9ee642726fbc53", "lon": -77.01105733333333, "type": "electric_scooter", "bike_id": "04ebb91f6a61f8baca9ee642726fbc53", "fusion_lon": 0.0, "lat": 38.90361716666666, "fusion_lat": 0.0}, {"is_disabled": 0, "rental_uris": {"android": "https://dc.lft.to/lastmile_qr_scan", "ios": "https://dc.lft.to/lastmile_qr_scan"}, "is_reserved": 0, "name": "3529d9fb883145771ffa56c5b71c48d0", "lon": -76.999593, "type": "electric_scooter", "bike_id": "3529d9fb883145771ffa56c5b71c48d0", "fusion_lon": 0.0, "lat": 38.842891, "fusion_lat": 0.0}, {"is_disabled": 0, "rental_uris": {"android": "https://dc.lft.to/lastmile_qr_scan", "ios": "https://dc.lft.to/lastmile_qr_scan"}, "is_reserved": 0, "name": "cd3540be2e25ce19c35ae586004c5d1d", "lon": -77.01610016666666, "type": "electric_scooter", "bike_id": "cd3540be2e25ce19c35ae586004c5d1d", "fusion_lon": 0.0, "lat": 38.87244366666667, "fusion_lat": 0.0}, {"is_disabled": 0, "rental_uris": {"android": "https://dc.lft.to/lastmile_qr_scan", "ios": "https://dc.lft.to/lastmile_qr_scan"}, "is_reserved": 0, "name": "cb47af45b20f79aa4dd9e9e0f6399b1e", "lon": -77.03170466666667, "type": "electric_scooter", "bike_id": "cb47af45b20f79aa4dd9e9e0f6399b1e", "fusion_lon": 0.0, "lat": 38.91623833333333, "fusion_lat": 0.0}, {"is_disabled": 0, "rental_uris": {"android": "https://dc.lft.to/lastmile_qr_scan", "ios": "https://dc.lft.to/lastmile_qr_scan"}, "is_reserved": 0, "name": "66dc768d85e708bf96a06557491f348b", "lon": -77.050065, "type": "electric_scooter", "bike_id": "66dc768d85e708bf96a06557491f348b", "fusion_lon": 0.0, "lat": 38.89230766666667, "fusion_lat": 0.0}, {"is_disabled": 0, "rental_uris": {"android": "https://dc.lft.to/lastmile_qr_scan", "ios": "https://dc.lft.to/lastmile_qr_scan"}, "is_reserved": 0, "name": "d9f222c6919b2be578643f342b2ed746", "lon": -77.04357033333334, "type": "electric_scooter", "bike_id": "d9f222c6919b2be578643f342b2ed746", "fusion_lon": 0.0, "lat": 38.90842816666667, "fusion_lat": 0.0}, {"is_disabled": 0, "rental_uris": {"android": "https://dc.lft.to/lastmile_qr_scan", "ios": "https://dc.lft.to/lastmile_qr_scan"}, "is_reserved": 0, "name": "00e00993673788e4ac868fbb6bb3712c", "lon": -77.024148, "type": "electric_scooter", "bike_id": "00e00993673788e4ac868fbb6bb3712c", "fusion_lon": 0.0, "lat": 38.91260166666667, "fusion_lat": 0.0}, {"is_disabled": 0, "rental_uris": {"android": "https://dc.lft.to/lastmile_qr_scan", "ios": "https://dc.lft.to/lastmile_qr_scan"}, "is_reserved": 0, "name": "7a819d1b07fb7f904a25e778770ba8bc", "lon": -76.993926, "type": "electric_scooter", "bike_id": "7a819d1b07fb7f904a25e778770ba8bc", "fusion_lon": 0.0, "lat": 38.92169966666667, "fusion_lat": 0.0}, {"is_disabled": 0, "rental_uris": {"android": "https://dc.lft.to/lastmile_qr_scan", "ios": "https://dc.lft.to/lastmile_qr_scan"}, "is_reserved": 0, "name": "b3dd1cf2a33acd8d4ff8f67923e7a658", "lon": -77.0281595, "type": "electric_bike", "bike_id": "b3dd1cf2a33acd8d4ff8f67923e7a658", "fusion_lon": 0.0, "lat": 38.99379783333333, "fusion_lat": 0.0}, {"is_disabled": 0, "rental_uris": {"android": "https://dc.lft.to/lastmile_qr_scan", "ios": "https://dc.lft.to/lastmile_qr_scan"}, "is_reserved": 0, "name": "90a2726d915f80d8731c869ac8788acc", "lon": -77.03317, "type": "electric_scooter", "bike_id": "90a2726d915f80d8731c869ac8788acc", "fusion_lon": 0.0, "lat": 38.9182445, "fusion_lat": 0.0}, {"is_disabled": 0, "rental_uris": {"android": "https://dc.lft.to/lastmile_qr_scan", "ios": "https://dc.lft.to/lastmile_qr_scan"}, "is_reserved": 0, "name": "d83f265f004a231697b44d8a9f4a5719", "lon": -77.03898933333333, "type": "electric_scooter", "bike_id": "d83f265f004a231697b44d8a9f4a5719", "fusion_lon": 0.0, "lat": 38.925041666666665, "fusion_lat": 0.0}, {"is_disabled": 0, "rental_uris": {"android": "https://dc.lft.to/lastmile_qr_scan", "ios": "https://dc.lft.to/lastmile_qr_scan"}, "is_reserved": 0, "name": "d7225e2d3b8a0f1c52636e2acc2b7abd", "lon": -76.9463325, "type": "electric_scooter", "bike_id": "d7225e2d3b8a0f1c52636e2acc2b7abd", "fusion_lon": 0.0, "lat": 38.898483, "fusion_lat": 0.0}, {"is_disabled": 0, "rental_uris": {"android": "https://dc.lft.to/lastmile_qr_scan", "ios": "https://dc.lft.to/lastmile_qr_scan"}, "is_reserved": 0, "name": "e962e1574b009b4fcca20f75a403ae74", "lon": -77.0269325, "type": "electric_scooter", "bike_id": "e962e1574b009b4fcca20f75a403ae74", "fusion_lon": 0.0, "lat": 38.9363895, "fusion_lat": 0.0}, {"is_disabled": 0, "rental_uris": {"android": "https://dc.lft.to/lastmile_qr_scan", "ios": "https://dc.lft.to/lastmile_qr_scan"}, "is_reserved": 0, "name": "bfde2c246826beaa71c8789edd29820d", "lon": -77.0441615, "type": "electric_scooter", "bike_id": "bfde2c246826beaa71c8789edd29820d", "fusion_lon": 0.0, "lat": 38.894103666666666, "fusion_lat": 0.0}, {"is_disabled": 0, "rental_uris": {"android": "https://dc.lft.to/lastmile_qr_scan", "ios": "https://dc.lft.to/lastmile_qr_scan"}, "is_reserved": 0, "name": "781503dee450463f70d251424b2772fb", "lon": -77.04365833333334, "type": "electric_scooter", "bike_id": "781503dee450463f70d251424b2772fb", "fusion_lon": 0.0, "lat": 38.904793166666664, "fusion_lat": 0.0}, {"is_disabled": 0, "rental_uris": {"android": "https://dc.lft.to/lastmile_qr_scan", "ios": "https://dc.lft.to/lastmile_qr_scan"}, "is_reserved": 0, "name": "40cbd87e6f1b7d1d5c02acf3940b8c97", "lon": -77.03196616666666, "type": "electric_scooter", "bike_id": "40cbd87e6f1b7d1d5c02acf3940b8c97", "fusion_lon": 0.0, "lat": 38.89373583333333, "fusion_lat": 0.0}, {"is_disabled": 0, "rental_uris": {"android": "https://dc.lft.to/lastmile_qr_scan", "ios": "https://dc.lft.to/lastmile_qr_scan"}, "is_reserved": 0, "name": "9cda4a87b82eb0fd40fa689daaed83eb", "lon": -77.04692283333333, "type": "electric_scooter", "bike_id": "9cda4a87b82eb0fd40fa689daaed83eb", "fusion_lon": 0.0, "lat": 38.90597316666667, "fusion_lat": 0.0}, {"is_disabled": 0, "rental_uris": {"android": "https://dc.lft.to/lastmile_qr_scan", "ios": "https://dc.lft.to/lastmile_qr_scan"}, "is_reserved": 0, "name": "c7dd6c312b4f272f8656d281af820fd6", "lon": -76.98993616666667, "type": "electric_scooter", "bike_id": "c7dd6c312b4f272f8656d281af820fd6", "fusion_lon": 0.0, "lat": 38.86434833333333, "fusion_lat": 0.0}, {"is_disabled": 0, "rental_uris": {"android": "https://dc.lft.to/lastmile_qr_scan", "ios": "https://dc.lft.to/lastmile_qr_scan"}, "is_reserved": 0, "name": "8d7d8c34a4322371cc517356955c9109", "lon": -77.05009433333333, "type": "electric_scooter", "bike_id": "8d7d8c34a4322371cc517356955c9109", "fusion_lon": 0.0, "lat": 38.893647333333334, "fusion_lat": 0.0}, {"is_disabled": 0, "rental_uris": {"android": "https://dc.lft.to/lastmile_qr_scan", "ios": "https://dc.lft.to/lastmile_qr_scan"}, "is_reserved": 0, "name": "51b82fc5115f176842c9f208eec75e1f", "lon": -77.03837466666667, "type": "electric_scooter", "bike_id": "51b82fc5115f176842c9f208eec75e1f", "fusion_lon": 0.0, "lat": 38.9111285, "fusion_lat": 0.0}, {"is_disabled": 0, "rental_uris": {"android": "https://dc.lft.to/lastmile_qr_scan", "ios": "https://dc.lft.to/lastmile_qr_scan"}, "is_reserved": 0, "name": "fb4a9a82190d406ce4bd381619fca3da", "lon": -77.0442425, "type": "electric_scooter", "bike_id": "fb4a9a82190d406ce4bd381619fca3da", "fusion_lon": 0.0, "lat": 38.903740166666665, "fusion_lat": 0.0}, {"is_disabled": 0, "rental_uris": {"android": "https://dc.lft.to/lastmile_qr_scan", "ios": "https://dc.lft.to/lastmile_qr_scan"}, "is_reserved": 0, "name": "28215bb2ce9a9f41236f653adbc89826", "lon": -77.02165983333333, "type": "electric_scooter", "bike_id": "28215bb2ce9a9f41236f653adbc89826", "fusion_lon": 0.0, "lat": 38.894236666666664, "fusion_lat": 0.0}, {"is_disabled": 0, "rental_uris": {"android": "https://dc.lft.to/lastmile_qr_scan", "ios": "https://dc.lft.to/lastmile_qr_scan"}, "is_reserved": 0, "name": "83410e5ded20e55994efcc9ce5f2e7f0", "lon": -77.00568716666666, "type": "electric_scooter", "bike_id": "83410e5ded20e55994efcc9ce5f2e7f0", "fusion_lon": 0.0, "lat": 38.8850755, "fusion_lat": 0.0}, {"is_disabled": 0, "rental_uris": {"android": "https://dc.lft.to/lastmile_qr_scan", "ios": "https://dc.lft.to/lastmile_qr_scan"}, "is_reserved": 0, "name": "d5cb19c9a587bdcec9c4bd05b70e9e56", "lon": -77.04530166666666, "type": "electric_scooter", "bike_id": "d5cb19c9a587bdcec9c4bd05b70e9e56", "fusion_lon": 0.0, "lat": 38.90383716666667, "fusion_lat": 0.0}, {"is_disabled": 0, "rental_uris": {"android": "https://dc.lft.to/lastmile_qr_scan", "ios": "https://dc.lft.to/lastmile_qr_scan"}, "is_reserved": 0, "name": "145de5356e2218e4de3bbf0c756d9b47", "lon": -77.0335375, "type": "electric_scooter", "bike_id": "145de5356e2218e4de3bbf0c756d9b47", "fusion_lon": 0.0, "lat": 38.898467333333336, "fusion_lat": 0.0}, {"is_disabled": 0, "rental_uris": {"android": "https://dc.lft.to/lastmile_qr_scan", "ios": "https://dc.lft.to/lastmile_qr_scan"}, "is_reserved": 0, "name": "6ae11a2cbca0da26eaa714de162a37b4", "lon": -77.036423, "type": "electric_scooter", "bike_id": "6ae11a2cbca0da26eaa714de162a37b4", "fusion_lon": 0.0, "lat": 38.90996783333333, "fusion_lat": 0.0}, {"is_disabled": 0, "rental_uris": {"android": "https://dc.lft.to/lastmile_qr_scan", "ios": "https://dc.lft.to/lastmile_qr_scan"}, "is_reserved": 0, "name": "d66c31fad94b0f6b9c469b827a6825bd", "lon": -76.9794835, "type": "electric_scooter", "bike_id": "d66c31fad94b0f6b9c469b827a6825bd", "fusion_lon": 0.0, "lat": 38.90505516666666, "fusion_lat": 0.0}, {"is_disabled": 0, "rental_uris": {"android": "https://dc.lft.to/lastmile_qr_scan", "ios": "https://dc.lft.to/lastmile_qr_scan"}, "is_reserved": 0, "name": "b31871892a7c941772b5c1c0bdc7572a", "lon": -77.03444483333334, "type": "electric_scooter", "bike_id": "b31871892a7c941772b5c1c0bdc7572a", "fusion_lon": 0.0, "lat": 38.902662666666664, "fusion_lat": 0.0}, {"is_disabled": 0, "rental_uris": {"android": "https://dc.lft.to/lastmile_qr_scan", "ios": "https://dc.lft.to/lastmile_qr_scan"}, "is_reserved": 0, "name": "f961e8a5e23aa7723125d54cfd711ac3", "lon": -77.02009783333334, "type": "electric_scooter", "bike_id": "f961e8a5e23aa7723125d54cfd711ac3", "fusion_lon": 0.0, "lat": 38.924211166666666, "fusion_lat": 0.0}, {"is_disabled": 0, "rental_uris": {"android": "https://dc.lft.to/lastmile_qr_scan", "ios": "https://dc.lft.to/lastmile_qr_scan"}, "is_reserved": 0, "name": "bed9f65afe80992167ea0f007e01347b", "lon": -77.01987516666667, "type": "electric_scooter", "bike_id": "bed9f65afe80992167ea0f007e01347b", "fusion_lon": 0.0, "lat": 38.88593083333333, "fusion_lat": 0.0}, {"is_disabled": 0, "rental_uris": {"android": "https://dc.lft.to/lastmile_qr_scan", "ios": "https://dc.lft.to/lastmile_qr_scan"}, "is_reserved": 0, "name": "7127dbd8b774c052af2781ea21a243c7", "lon": -76.98211883333333, "type": "electric_bike", "bike_id": "7127dbd8b774c052af2781ea21a243c7", "fusion_lon": 0.0, "lat": 38.985018, "fusion_lat": 0.0}, {"is_disabled": 0, "rental_uris": {"android": "https://dc.lft.to/lastmile_qr_scan", "ios": "https://dc.lft.to/lastmile_qr_scan"}, "is_reserved": 0, "name": "34ebbb2ecce02f9c99d46d6fe884e860", "lon": -77.0322355, "type": "electric_scooter", "bike_id": "34ebbb2ecce02f9c99d46d6fe884e860", "fusion_lon": 0.0, "lat": 38.892299333333334, "fusion_lat": 0.0}, {"is_disabled": 0, "rental_uris": {"android": "https://dc.lft.to/lastmile_qr_scan", "ios": "https://dc.lft.to/lastmile_qr_scan"}, "is_reserved": 0, "name": "778a120805f87ce20d2b3e38d23554ae", "lon": -77.02691566666667, "type": "electric_scooter", "bike_id": "778a120805f87ce20d2b3e38d23554ae", "fusion_lon": 0.0, "lat": 38.920715666666666, "fusion_lat": 0.0}, {"is_disabled": 0, "rental_uris": {"android": "https://dc.lft.to/lastmile_qr_scan", "ios": "https://dc.lft.to/lastmile_qr_scan"}, "is_reserved": 0, "name": "f37baf96f98ebc5c6e6a22da750661d6", "lon": -77.04377416666667, "type": "electric_scooter", "bike_id": "f37baf96f98ebc5c6e6a22da750661d6", "fusion_lon": 0.0, "lat": 38.902756, "fusion_lat": 0.0}, {"is_disabled": 0, "rental_uris": {"android": "https://dc.lft.to/lastmile_qr_scan", "ios": "https://dc.lft.to/lastmile_qr_scan"}, "is_reserved": 0, "name": "a789deaa722df311856f7234da217ab5", "lon": -77.04845816666666, "type": "electric_scooter", "bike_id": "a789deaa722df311856f7234da217ab5", "fusion_lon": 0.0, "lat": 38.88840166666667, "fusion_lat": 0.0}, {"is_disabled": 0, "rental_uris": {"android": "https://dc.lft.to/lastmile_qr_scan", "ios": "https://dc.lft.to/lastmile_qr_scan"}, "is_reserved": 0, "name": "bcddff561bd51c2b056c9b1f7560a0bf", "lon": -77.03181683333334, "type": "electric_scooter", "bike_id": "bcddff561bd51c2b056c9b1f7560a0bf", "fusion_lon": 0.0, "lat": 38.91917466666666, "fusion_lat": 0.0}, {"is_disabled": 0, "rental_uris": {"android": "https://dc.lft.to/lastmile_qr_scan", "ios": "https://dc.lft.to/lastmile_qr_scan"}, "is_reserved": 0, "name": "c37a9cf8a98c55f53a660436ed875114", "lon": -77.03162066666667, "type": "electric_scooter", "bike_id": "c37a9cf8a98c55f53a660436ed875114", "fusion_lon": 0.0, "lat": 38.927293, "fusion_lat": 0.0}, {"is_disabled": 0, "rental_uris": {"android": "https://dc.lft.to/lastmile_qr_scan", "ios": "https://dc.lft.to/lastmile_qr_scan"}, "is_reserved": 0, "name": "75d3205c460ad35554abc30b52a3878d", "lon": -77.03758716666667, "type": "electric_scooter", "bike_id": "75d3205c460ad35554abc30b52a3878d", "fusion_lon": 0.0, "lat": 38.929123, "fusion_lat": 0.0}, {"is_disabled": 0, "rental_uris": {"android": "https://dc.lft.to/lastmile_qr_scan", "ios": "https://dc.lft.to/lastmile_qr_scan"}, "is_reserved": 0, "name": "1be6583cbd97ff4dd007a85adea56379", "lon": -77.05973166666666, "type": "electric_scooter", "bike_id": "1be6583cbd97ff4dd007a85adea56379", "fusion_lon": 0.0, "lat": 38.905286333333336, "fusion_lat": 0.0}, {"is_disabled": 0, "rental_uris": {"android": "https://dc.lft.to/lastmile_qr_scan", "ios": "https://dc.lft.to/lastmile_qr_scan"}, "is_reserved": 0, "name": "1f21c7805962b54151adea9e40b25b5c", "lon": -77.02371333333333, "type": "electric_scooter", "bike_id": "1f21c7805962b54151adea9e40b25b5c", "fusion_lon": 0.0, "lat": 38.88770933333333, "fusion_lat": 0.0}, {"is_disabled": 0, "rental_uris": {"android": "https://dc.lft.to/lastmile_qr_scan", "ios": "https://dc.lft.to/lastmile_qr_scan"}, "is_reserved": 0, "name": "52fb073a378b278a739e68883c2eaaab", "lon": -77.03448333333333, "type": "electric_scooter", "bike_id": "52fb073a378b278a739e68883c2eaaab", "fusion_lon": 0.0, "lat": 38.907272166666665, "fusion_lat": 0.0}, {"is_disabled": 0, "rental_uris": {"android": "https://dc.lft.to/lastmile_qr_scan", "ios": "https://dc.lft.to/lastmile_qr_scan"}, "is_reserved": 0, "name": "33ec7f38152c7c604d70ebfe96030e6d", "lon": -77.01256933333333, "type": "electric_scooter", "bike_id": "33ec7f38152c7c604d70ebfe96030e6d", "fusion_lon": 0.0, "lat": 38.8763535, "fusion_lat": 0.0}, {"is_disabled": 0, "rental_uris": {"android": "https://dc.lft.to/lastmile_qr_scan", "ios": "https://dc.lft.to/lastmile_qr_scan"}, "is_reserved": 0, "name": "fd9ef243daac8a806e7fe8eb243245c5", "lon": -77.02841683333334, "type": "electric_scooter", "bike_id": "fd9ef243daac8a806e7fe8eb243245c5", "fusion_lon": 0.0, "lat": 38.934177166666665, "fusion_lat": 0.0}, {"is_disabled": 0, "rental_uris": {"android": "https://dc.lft.to/lastmile_qr_scan", "ios": "https://dc.lft.to/lastmile_qr_scan"}, "is_reserved": 0, "name": "e588bb1c1fc55f22b10efa7580dab0ea", "lon": -77.039651, "type": "electric_scooter", "bike_id": "e588bb1c1fc55f22b10efa7580dab0ea", "fusion_lon": 0.0, "lat": 38.9315545, "fusion_lat": 0.0}, {"is_disabled": 0, "rental_uris": {"android": "https://dc.lft.to/lastmile_qr_scan", "ios": "https://dc.lft.to/lastmile_qr_scan"}, "is_reserved": 0, "name": "55000e591b2c79bde5fd27996188f5ab", "lon": -77.03518283333334, "type": "electric_scooter", "bike_id": "55000e591b2c79bde5fd27996188f5ab", "fusion_lon": 0.0, "lat": 38.93599716666667, "fusion_lat": 0.0}, {"is_disabled": 0, "rental_uris": {"android": "https://dc.lft.to/lastmile_qr_scan", "ios": "https://dc.lft.to/lastmile_qr_scan"}, "is_reserved": 0, "name": "1cd6e32cba5a23eba322c6f6f8804b91", "lon": -77.0175725, "type": "electric_scooter", "bike_id": "1cd6e32cba5a23eba322c6f6f8804b91", "fusion_lon": 0.0, "lat": 38.8769205, "fusion_lat": 0.0}, {"is_disabled": 0, "rental_uris": {"android": "https://dc.lft.to/lastmile_qr_scan", "ios": "https://dc.lft.to/lastmile_qr_scan"}, "is_reserved": 0, "name": "e3c8e8ceca037042f1296674545c3b76", "lon": -77.02127966666667, "type": "electric_scooter", "bike_id": "e3c8e8ceca037042f1296674545c3b76", "fusion_lon": 0.0, "lat": 38.887496, "fusion_lat": 0.0}, {"is_disabled": 0, "rental_uris": {"android": "https://dc.lft.to/lastmile_qr_scan", "ios": "https://dc.lft.to/lastmile_qr_scan"}, "is_reserved": 0, "name": "2350b2edf824f2188ae46644d37956f9", "lon": -76.93412733333334, "type": "electric_bike", "bike_id": "2350b2edf824f2188ae46644d37956f9", "fusion_lon": 0.0, "lat": 38.94629783333333, "fusion_lat": 0.0}, {"is_disabled": 0, "rental_uris": {"android": "https://dc.lft.to/lastmile_qr_scan", "ios": "https://dc.lft.to/lastmile_qr_scan"}, "is_reserved": 0, "name": "44170e2bf4c41811f9d461079b4639bb", "lon": -77.02919433333334, "type": "electric_scooter", "bike_id": "44170e2bf4c41811f9d461079b4639bb", "fusion_lon": 0.0, "lat": 38.93876083333333, "fusion_lat": 0.0}, {"is_disabled": 0, "rental_uris": {"android": "https://dc.lft.to/lastmile_qr_scan", "ios": "https://dc.lft.to/lastmile_qr_scan"}, "is_reserved": 0, "name": "0d536f60a0bb106b1061299d46b57f65", "lon": -77.01576083333333, "type": "electric_scooter", "bike_id": "0d536f60a0bb106b1061299d46b57f65", "fusion_lon": 0.0, "lat": 38.8766175, "fusion_lat": 0.0}, {"is_disabled": 0, "rental_uris": {"android": "https://dc.lft.to/lastmile_qr_scan", "ios": "https://dc.lft.to/lastmile_qr_scan"}, "is_reserved": 0, "name": "3d51f96619ca0e6555b873e03bd5ca11", "lon": -77.0253225, "type": "electric_scooter", "bike_id": "3d51f96619ca0e6555b873e03bd5ca11", "fusion_lon": 0.0, "lat": 38.902711833333335, "fusion_lat": 0.0}, {"is_disabled": 0, "rental_uris": {"android": "https://dc.lft.to/lastmile_qr_scan", "ios": "https://dc.lft.to/lastmile_qr_scan"}, "is_reserved": 0, "name": "8f2fe0f906b699ec0399ef7acd89c2ae", "lon": -76.965457, "type": "electric_scooter", "bike_id": "8f2fe0f906b699ec0399ef7acd89c2ae", "fusion_lon": 0.0, "lat": 38.91882966666667, "fusion_lat": 0.0}, {"is_disabled": 0, "rental_uris": {"android": "https://dc.lft.to/lastmile_qr_scan", "ios": "https://dc.lft.to/lastmile_qr_scan"}, "is_reserved": 0, "name": "3c6ad06f5cc9557870355ee1c58e9ec7", "lon": -77.02359, "type": "electric_scooter", "bike_id": "3c6ad06f5cc9557870355ee1c58e9ec7", "fusion_lon": 0.0, "lat": 38.925165166666666, "fusion_lat": 0.0}, {"is_disabled": 0, "rental_uris": {"android": "https://dc.lft.to/lastmile_qr_scan", "ios": "https://dc.lft.to/lastmile_qr_scan"}, "is_reserved": 0, "name": "10b631c20dbae744f1097eb45a69a845", "lon": -77.02903533333334, "type": "electric_bike", "bike_id": "10b631c20dbae744f1097eb45a69a845", "fusion_lon": 0.0, "lat": 38.895418166666666, "fusion_lat": 0.0}, {"is_disabled": 0, "rental_uris": {"android": "https://dc.lft.to/lastmile_qr_scan", "ios": "https://dc.lft.to/lastmile_qr_scan"}, "is_reserved": 0, "name": "6ebd4feb0bd90a1b62dca5c93cf01479", "lon": -77.036103, "type": "electric_scooter", "bike_id": "6ebd4feb0bd90a1b62dca5c93cf01479", "fusion_lon": 0.0, "lat": 38.93483583333333, "fusion_lat": 0.0}, {"is_disabled": 0, "rental_uris": {"android": "https://dc.lft.to/lastmile_qr_scan", "ios": "https://dc.lft.to/lastmile_qr_scan"}, "is_reserved": 0, "name": "9697b3a2997797de91edf74dff49a08b", "lon": -77.0366675, "type": "electric_scooter", "bike_id": "9697b3a2997797de91edf74dff49a08b", "fusion_lon": 0.0, "lat": 38.9233495, "fusion_lat": 0.0}, {"is_disabled": 0, "rental_uris": {"android": "https://dc.lft.to/lastmile_qr_scan", "ios": "https://dc.lft.to/lastmile_qr_scan"}, "is_reserved": 0, "name": "06c8d780c9988c916686826b4022e4e2", "lon": -77.005657, "type": "electric_scooter", "bike_id": "06c8d780c9988c916686826b4022e4e2", "fusion_lon": 0.0, "lat": 38.885055666666666, "fusion_lat": 0.0}, {"is_disabled": 0, "rental_uris": {"android": "https://dc.lft.to/lastmile_qr_scan", "ios": "https://dc.lft.to/lastmile_qr_scan"}, "is_reserved": 0, "name": "bfa538c5a4137610c62a718127a482b4", "lon": -76.9318925, "type": "electric_scooter", "bike_id": "bfa538c5a4137610c62a718127a482b4", "fusion_lon": 0.0, "lat": 38.898807166666664, "fusion_lat": 0.0}, {"is_disabled": 0, "rental_uris": {"android": "https://dc.lft.to/lastmile_qr_scan", "ios": "https://dc.lft.to/lastmile_qr_scan"}, "is_reserved": 0, "name": "b2a33de6e22907637f62741ca5098429", "lon": -77.02893833333333, "type": "electric_bike", "bike_id": "b2a33de6e22907637f62741ca5098429", "fusion_lon": 0.0, "lat": 38.998145, "fusion_lat": 0.0}, {"is_disabled": 0, "rental_uris": {"android": "https://dc.lft.to/lastmile_qr_scan", "ios": "https://dc.lft.to/lastmile_qr_scan"}, "is_reserved": 0, "name": "5dbcc39f8ed7e7ca6d893c988b78b0d9", "lon": -77.229403, "type": "electric_bike", "bike_id": "5dbcc39f8ed7e7ca6d893c988b78b0d9", "fusion_lon": 0.0, "lat": 38.931898833333335, "fusion_lat": 0.0}, {"is_disabled": 0, "rental_uris": {"android": "https://dc.lft.to/lastmile_qr_scan", "ios": "https://dc.lft.to/lastmile_qr_scan"}, "is_reserved": 0, "name": "c7b83356b34f2f91a95b777df31efed0", "lon": -77.12268016666667, "type": "electric_bike", "bike_id": "c7b83356b34f2f91a95b777df31efed0", "fusion_lon": 0.0, "lat": 38.897339333333335, "fusion_lat": 0.0}, {"is_disabled": 0, "rental_uris": {"android": "https://dc.lft.to/lastmile_qr_scan", "ios": "https://dc.lft.to/lastmile_qr_scan"}, "is_reserved": 0, "name": "ebb6e3418b12fc7c2a9e3424f269489e", "lon": -77.022318, "type": "electric_scooter", "bike_id": "ebb6e3418b12fc7c2a9e3424f269489e", "fusion_lon": 0.0, "lat": 38.892270333333336, "fusion_lat": 0.0}, {"is_disabled": 0, "rental_uris": {"android": "https://dc.lft.to/lastmile_qr_scan", "ios": "https://dc.lft.to/lastmile_qr_scan"}, "is_reserved": 0, "name": "6edd44668817073caeaf59d8c96bd1b6", "lon": -76.91656616666667, "type": "electric_bike", "bike_id": "6edd44668817073caeaf59d8c96bd1b6", "fusion_lon": 0.0, "lat": 38.8686305, "fusion_lat": 0.0}, {"is_disabled": 0, "rental_uris": {"android": "https://dc.lft.to/lastmile_qr_scan", "ios": "https://dc.lft.to/lastmile_qr_scan"}, "is_reserved": 0, "name": "80c5e0f3cefb39704951929057c28495", "lon": -77.00653366666667, "type": "electric_scooter", "bike_id": "80c5e0f3cefb39704951929057c28495", "fusion_lon": 0.0, "lat": 38.900101, "fusion_lat": 0.0}, {"is_disabled": 0, "rental_uris": {"android": "https://dc.lft.to/lastmile_qr_scan", "ios": "https://dc.lft.to/lastmile_qr_scan"},