{"data": {"bikes": [{"fusion_lat": 0.0, "name": "4262edbdd6a2561b113f1ed2140a64e2", "is_disabled": 0, "rental_uris": {"android": "https://dc.lft.to/lastmile_qr_scan", "ios": "https://dc.lft.to/lastmile_qr_scan"}, "fusion_lon": 0.0, "lat": 38.905204499999996, "bike_id": "4262edbdd6a2561b113f1ed2140a64e2", "type": "electric_scooter", "is_reserved": 0, "lon": -77.06784233333333}, {"fusion_lat": 0.0, "name": "6288028a6065bb6e8657d44b8a69cd6d", "is_disabled": 0, "rental_uris": {"android": "https://dc.lft.to/lastmile_qr_scan", "ios": "https://dc.lft.to/lastmile_qr_scan"}, "fusion_lon": 0.0, "lat": 38.89671633333333, "bike_id": "6288028a6065bb6e8657d44b8a69cd6d", "type": "electric_scooter", "is_reserved": 0, "lon": -76.93209033333333}, {"fusion_lat": 0.0, "name": "bc01bd2f2a387f319a76686ac1636b35", "is_disabled": 0, "rental_uris": {"android": "https://dc.lft.to/lastmile_qr_scan", "ios": "https://dc.lft.to/lastmile_qr_scan"}, "fusion_lon": 0.0, "lat": 38.90732416666667, "bike_id": "bc01bd2f2a387f319a76686ac1636b35", "type": "electric_scooter", "is_reserved": 0, "lon": -77.03183016666667}, {"fusion_lat": 0.0, "name": "dcf2f95e81412b98831267b7f74ff143", "is_disabled": 0, "rental_uris": {"android": "https://dc.lft.to/lastmile_qr_scan", "ios": "https://dc.lft.to/lastmile_qr_scan"}, "fusion_lon": 0.0, "lat": 38.9324105, "bike_id": "dcf2f95e81412b98831267b7f74ff143", "type": "electric_bike", "is_reserved": 0, "lon": -76.97425116666666}, {"fusion_lat": 0.0, "name": "92cc5bf7cf6051ffc715150f169daecd", "is_disabled": 0, "rental_uris": {"android": "https://dc.lft.to/lastmile_qr_scan", "ios": "https://dc.lft.to/lastmile_qr_scan"}, "fusion_lon": 0.0, "lat": 38.932744666666665, "bike_id": "92cc5bf7cf6051ffc715150f169daecd", "type": "electric_scooter", "is_reserved": 0, "lon": -77.01916916666667}, {"fusion_lat": 0.0, "name": "c694eede6be6867a3ad0623baa0b8311", "is_disabled": 0, "rental_uris": {"android": "https://dc.lft.to/lastmile_qr_scan", "ios": "https://dc.lft.to/lastmile_qr_scan"}, "fusion_lon": 0.0, "lat": 38.9247365, "bike_id": "c694eede6be6867a3ad0623baa0b8311", "type": "electric_bike", "is_reserved": 0, "lon": -77.23334466666667}, {"fusion_lat": 0.0, "name": "f359b1c7af06f38283372d0cbd07a6f8", "is_disabled": 0, "rental_uris": {"android": "https://dc.lft.to/lastmile_qr_scan", "ios": "https://dc.lft.to/lastmile_qr_scan"}, "fusion_lon": 0.0, "lat": 38.905470666666666, "bike_id": "f359b1c7af06f38283372d0cbd07a6f8", "type": "electric_scooter", "is_reserved": 0, "lon": -76.98329916666667}, {"fusion_lat": 0.0, "name": "1ee409610dae403fa6b348761b69ff31", "is_disabled": 0, "rental_uris": {"android": "https://dc.lft.to/lastmile_qr_scan", "ios": "https://dc.lft.to/lastmile_qr_scan"}, "fusion_lon": 0.0, "lat": 38.89737933333333, "bike_id": "1ee409610dae403fa6b348761b69ff31", "type": "electric_scooter", "is_reserved": 0, "lon": -77.04631916666666}, {"fusion_lat": 0.0, "name": "3870f94939dba344275e7df2f8f71253", "is_disabled": 0, "rental_uris": {"android": "https://dc.lft.to/lastmile_qr_scan", "ios": "https://dc.lft.to/lastmile_qr_scan"}, "fusion_lon": 0.0, "lat": 38.8983275, "bike_id": "3870f94939dba344275e7df2f8f71253", "type": "electric_scooter", "is_reserved": 0, "lon": -77.02795633333334}, {"fusion_lat": 0.0, "name": "8a4928fd76c93a1f981c5b9255ea8da8", "is_disabled": 0, "rental_uris": {"android": "https://dc.lft.to/lastmile_qr_scan", "ios": "https://dc.lft.to/lastmile_qr_scan"}, "fusion_lon": 0.0, "lat": 38.931748, "bike_id": "8a4928fd76c93a1f981c5b9255ea8da8", "type": "electric_scooter", "is_reserved": 0, "lon": -77.05647866666666}, {"fusion_lat": 0.0, "name": "53b167a1c2e2d33bb10e815895dcf9c7", "is_disabled": 0, "rental_uris": {"android": "https://dc.lft.to/lastmile_qr_scan", "ios": "https://dc.lft.to/lastmile_qr_scan"}, "fusion_lon": 0.0, "lat": 38.91274683333333, "bike_id": "53b167a1c2e2d33bb10e815895dcf9c7", "type": "electric_scooter", "is_reserved": 0, "lon": -77.03185383333333}, {"fusion_lat": 0.0, "name": "b04ca1b9f62ca9f4d7cad0671915df3d", "is_disabled": 0, "rental_uris": {"android": "https://dc.lft.to/lastmile_qr_scan", "ios": "https://dc.lft.to/lastmile_qr_scan"}, "fusion_lon": 0.0, "lat": 38.93486, "bike_id": "b04ca1b9f62ca9f4d7cad0671915df3d", "type": "electric_scooter", "is_reserved": 0, "lon": -77.04535866666667}, {"fusion_lat": 0.0, "name": "dac284c50f27c24a3a8f541f6b1486f2", "is_disabled": 0, "rental_uris": {"android": "https://dc.lft.to/lastmile_qr_scan", "ios": "https://dc.lft.to/lastmile_qr_scan"}, "fusion_lon": 0.0, "lat": 38.90570866666667, "bike_id": "dac284c50f27c24a3a8f541f6b1486f2", "type": "electric_scooter", "is_reserved": 0, "lon": -77.04194916666667}, {"fusion_lat": 0.0, "name": "ffe7682b8e9e906fa754c45445557f86", "is_disabled": 0, "rental_uris": {"android": "https://dc.lft.to/lastmile_qr_scan", "ios": "https://dc.lft.to/lastmile_qr_scan"}, "fusion_lon": 0.0, "lat": 38.931914166666665, "bike_id": "ffe7682b8e9e906fa754c45445557f86", "type": "electric_scooter", "is_reserved": 0, "lon": -77.04298816666666}, {"fusion_lat": 0.0, "name": "389b7b4d30133103afb7702b47e371f0", "is_disabled": 0, "rental_uris": {"android": "https://dc.lft.to/lastmile_qr_scan", "ios": "https://dc.lft.to/lastmile_qr_scan"}, "fusion_lon": 0.0, "lat": 38.924427, "bike_id": "389b7b4d30133103afb7702b47e371f0", "type": "electric_scooter", "is_reserved": 0, "lon": -77.01869083333334}, {"fusion_lat": 0.0, "name": "0e0aa980c06444a5b3b07b3b297e040a", "is_disabled": 0, "rental_uris": {"android": "https://dc.lft.to/lastmile_qr_scan", "ios": "https://dc.lft.to/lastmile_qr_scan"}, "fusion_lon": 0.0, "lat": 38.84140766666667, "bike_id": "0e0aa980c06444a5b3b07b3b297e040a", "type": "electric_bike", "is_reserved": 0, "lon": -76.9475855}, {"fusion_lat": 0.0, "name": "785c10e869f41abfaeeae5082bd05480", "is_disabled": 0, "rental_uris": {"android": "https://dc.lft.to/lastmile_qr_scan", "ios": "https://dc.lft.to/lastmile_qr_scan"}, "fusion_lon": 0.0, "lat": 38.917253, "bike_id": "785c10e869f41abfaeeae5082bd05480", "type": "electric_scooter", "is_reserved": 0, "lon": -77.028991}, {"fusion_lat": 0.0, "name": "f333c846e388e4b359ff3b45132e368b", "is_disabled": 0, "rental_uris": {"android": "https://dc.lft.to/lastmile_qr_scan", "ios": "https://dc.lft.to/lastmile_qr_scan"}, "fusion_lon": 0.0, "lat": 38.88381183333333, "bike_id": "f333c846e388e4b359ff3b45132e368b", "type": "electric_scooter", "is_reserved": 0, "lon": -77.0052535}, {"fusion_lat": 0.0, "name": "64e9c556ed2219009579f9f6226c522e", "is_disabled": 0, "rental_uris": {"android": "https://dc.lft.to/lastmile_qr_scan", "ios": "https://dc.lft.to/lastmile_qr_scan"}, "fusion_lon": 0.0, "lat": 38.9200865, "bike_id": "64e9c556ed2219009579f9f6226c522e", "type": "electric_scooter", "is_reserved": 0, "lon": -77.0416965}, {"fusion_lat": 0.0, "name": "72c2b8bd8b20c7f1c592a990d63bc661", "is_disabled": 0, "rental_uris": {"android": "https://dc.lft.to/lastmile_qr_scan", "ios": "https://dc.lft.to/lastmile_qr_scan"}, "fusion_lon": 0.0, "lat": 38.92693166666667, "bike_id": "72c2b8bd8b20c7f1c592a990d63bc661", "type": "electric_scooter", "is_reserved": 0, "lon": -77.02583316666667}, {"fusion_lat": 0.0, "name": "7a96dfdeaea6ccfc4e0d8686aaaf7dca", "is_disabled": 0, "rental_uris": {"android": "https://dc.lft.to/lastmile_qr_scan", "ios": "https://dc.lft.to/lastmile_qr_scan"}, "fusion_lon": 0.0, "lat": 38.84762383333333, "bike_id": "7a96dfdeaea6ccfc4e0d8686aaaf7dca", "type": "electric_bike", "is_reserved": 0, "lon": -76.96639166666667}, {"fusion_lat": 0.0, "name": "7bf7d47bbf6ff2e64ec63a9263085640", "is_disabled": 0, "rental_uris": {"android": "https://dc.lft.to/lastmile_qr_scan", "ios": "https://dc.lft.to/lastmile_qr_scan"}, "fusion_lon": 0.0, "lat": 38.914125166666665, "bike_id": "7bf7d47bbf6ff2e64ec63a9263085640", "type": "electric_scooter", "is_reserved": 0, "lon": -77.04072583333334}, {"fusion_lat": 0.0, "name": "c8337d1b80565f4eb5e55b0ad28c383a", "is_disabled": 0, "rental_uris": {"android": "https://dc.lft.to/lastmile_qr_scan", "ios": "https://dc.lft.to/lastmile_qr_scan"}, "fusion_lon": 0.0, "lat": 38.93483583333333, "bike_id": "c8337d1b80565f4eb5e55b0ad28c383a", "type": "electric_scooter", "is_reserved": 0, "lon": -77.0340395}, {"fusion_lat": 0.0, "name": "6ff2d5ad9758cf50c4af51f1820b8850", "is_disabled": 0, "rental_uris": {"android": "https://dc.lft.to/lastmile_qr_scan", "ios": "https://dc.lft.to/lastmile_qr_scan"}, "fusion_lon": 0.0, "lat": 38.909844166666666, "bike_id": "6ff2d5ad9758cf50c4af51f1820b8850", "type": "electric_scooter", "is_reserved": 0, "lon": -77.03835783333334}, {"fusion_lat": 0.0, "name": "8aa3d39752a79a276ed546079f0be7d2", "is_disabled": 0, "rental_uris": {"android": "https://dc.lft.to/lastmile_qr_scan", "ios": "https://dc.lft.to/lastmile_qr_scan"}, "fusion_lon": 0.0, "lat": 38.93129866666666, "bike_id": "8aa3d39752a79a276ed546079f0be7d2", "type": "electric_scooter", "is_reserved": 0, "lon": -77.03601316666666}, {"fusion_lat": 0.0, "name": "83e95696a95320865a42badea1d98b4d", "is_disabled": 0, "rental_uris": {"android": "https://dc.lft.to/lastmile_qr_scan", "ios": "https://dc.lft.to/lastmile_qr_scan"}, "fusion_lon": 0.0, "lat": 38.907607666666664, "bike_id": "83e95696a95320865a42badea1d98b4d", "type": "electric_scooter", "is_reserved": 0, "lon": -77.03553516666666}, {"fusion_lat": 0.0, "name": "ca3ccce79a0fad17e7dd6daa9ec5c712", "is_disabled": 0, "rental_uris": {"android": "https://dc.lft.to/lastmile_qr_scan", "ios": "https://dc.lft.to/lastmile_qr_scan"}, "fusion_lon": 0.0, "lat": 38.8442525, "bike_id": "ca3ccce79a0fad17e7dd6daa9ec5c712", "type": "electric_scooter", "is_reserved": 0, "lon": -76.99780166666666}, {"fusion_lat": 0.0, "name": "1b37ccfbc48938b40f8adde8a5b627ab", "is_disabled": 0, "rental_uris": {"android": "https://dc.lft.to/lastmile_qr_scan", "ios": "https://dc.lft.to/lastmile_qr_scan"}, "fusion_lon": 0.0, "lat": 38.886617333333334, "bike_id": "1b37ccfbc48938b40f8adde8a5b627ab", "type": "electric_scooter", "is_reserved": 0, "lon": -77.03387783333334}, {"fusion_lat": 0.0, "name": "c4aa124164168cc63f1b720ba41af52f", "is_disabled": 0, "rental_uris": {"android": "https://dc.lft.to/lastmile_qr_scan", "ios": "https://dc.lft.to/lastmile_qr_scan"}, "fusion_lon": 0.0, "lat": 38.9167965, "bike_id": "c4aa124164168cc63f1b720ba41af52f", "type": "electric_scooter", "is_reserved": 0, "lon": -77.02715416666666}, {"fusion_lat": 0.0, "name": "6d400605ae05acb222328af351aca4d2", "is_disabled": 0, "rental_uris": {"android": "https://dc.lft.to/lastmile_qr_scan", "ios": "https://dc.lft.to/lastmile_qr_scan"}, "fusion_lon": 0.0, "lat": 38.895858, "bike_id": "6d400605ae05acb222328af351aca4d2", "type": "electric_scooter", "is_reserved": 0, "lon": -77.022}, {"fusion_lat": 0.0, "name": "b78048897e2122cd33c90efe878dffa5", "is_disabled": 0, "rental_uris": {"android": "https://dc.lft.to/lastmile_qr_scan", "ios": "https://dc.lft.to/lastmile_qr_scan"}, "fusion_lon": 0.0, "lat": 38.9023085, "bike_id": "b78048897e2122cd33c90efe878dffa5", "type": "electric_scooter", "is_reserved": 0, "lon": -77.04354416666666}, {"fusion_lat": 0.0, "name": "835d346958b4457152c66c22a2fe9fd3", "is_disabled": 0, "rental_uris": {"android": "https://dc.lft.to/lastmile_qr_scan", "ios": "https://dc.lft.to/lastmile_qr_scan"}, "fusion_lon": 0.0, "lat": 38.92483266666667, "bike_id": "835d346958b4457152c66c22a2fe9fd3", "type": "electric_scooter", "is_reserved": 0, "lon": -77.05211016666667}, {"fusion_lat": 0.0, "name": "bed7a2256ab2df774692fb4dd7e142c3", "is_disabled": 0, "rental_uris": {"android": "https://dc.lft.to/lastmile_qr_scan", "ios": "https://dc.lft.to/lastmile_qr_scan"}, "fusion_lon": 0.0, "lat": 38.9075825, "bike_id": "bed7a2256ab2df774692fb4dd7e142c3", "type": "electric_scooter", "is_reserved": 0, "lon": -77.03824483333334}, {"fusion_lat": 0.0, "name": "284bc383dc2e143ce5729ab84fcaaa7d", "is_disabled": 0, "rental_uris": {"android": "https://dc.lft.to/lastmile_qr_scan", "ios": "https://dc.lft.to/lastmile_qr_scan"}, "fusion_lon": 0.0, "lat": 38.898437, "bike_id": "284bc383dc2e143ce5729ab84fcaaa7d", "type": "electric_scooter", "is_reserved": 0, "lon": -76.9816255}, {"fusion_lat": 0.0, "name": "f21b2870ada91252da29091b3f09bc55", "is_disabled": 0, "rental_uris": {"android": "https://dc.lft.to/lastmile_qr_scan", "ios": "https://dc.lft.to/lastmile_qr_scan"}, "fusion_lon": 0.0, "lat": 38.9250985, "bike_id": "f21b2870ada91252da29091b3f09bc55", "type": "electric_scooter", "is_reserved": 0, "lon": -77.03881683333333}, {"fusion_lat": 0.0, "name": "9635a720470528d3494c1d2aa0ea309a", "is_disabled": 0, "rental_uris": {"android": "https://dc.lft.to/lastmile_qr_scan", "ios": "https://dc.lft.to/lastmile_qr_scan"}, "fusion_lon": 0.0, "lat": 39.0048235, "bike_id": "9635a720470528d3494c1d2aa0ea309a", "type": "electric_bike", "is_reserved": 0, "lon": -77.02186183333333}, {"fusion_lat": 0.0, "name": "7bf1e2ac42a3d31ad28dd6e1b8574222", "is_disabled": 0, "rental_uris": {"android": "https://dc.lft.to/lastmile_qr_scan", "ios": "https://dc.lft.to/lastmile_qr_scan"}, "fusion_lon": 0.0, "lat": 38.90031916666667, "bike_id": "7bf1e2ac42a3d31ad28dd6e1b8574222", "type": "electric_scooter", "is_reserved": 0, "lon": -77.01171766666667}, {"fusion_lat": 0.0, "name": "8f85423ccb1b42287b11df75a5a87f13", "is_disabled": 0, "rental_uris": {"android": "https://dc.lft.to/lastmile_qr_scan", "ios": "https://dc.lft.to/lastmile_qr_scan"}, "fusion_lon": 0.0, "lat": 38.8873795, "bike_id": "8f85423ccb1b42287b11df75a5a87f13", "type": "electric_scooter", "is_reserved": 0, "lon": -77.03175433333334}, {"fusion_lat": 0.0, "name": "f9e6654271edac837797e9d0327bbbd5", "is_disabled": 0, "rental_uris": {"android": "https://dc.lft.to/lastmile_qr_scan", "ios": "https://dc.lft.to/lastmile_qr_scan"}, "fusion_lon": 0.0, "lat": 38.932278, "bike_id": "f9e6654271edac837797e9d0327bbbd5", "type": "electric_scooter", "is_reserved": 0, "lon": -77.04411516666667}, {"fusion_lat": 0.0, "name": "68cc656b633bad52fda248eed2c30d76", "is_disabled": 0, "rental_uris": {"android": "https://dc.lft.to/lastmile_qr_scan", "ios": "https://dc.lft.to/lastmile_qr_scan"}, "fusion_lon": 0.0, "lat": 38.835851, "bike_id": "68cc656b633bad52fda248eed2c30d76", "type": "electric_bike", "is_reserved": 0, "lon": -76.99012633333334}, {"fusion_lat": 0.0, "name": "0c6ed9cde7a06e1b226e75ef83f55882", "is_disabled": 0, "rental_uris": {"android": "https://dc.lft.to/lastmile_qr_scan", "ios": "https://dc.lft.to/lastmile_qr_scan"}, "fusion_lon": 0.0, "lat": 38.913263, "bike_id": "0c6ed9cde7a06e1b226e75ef83f55882", "type": "electric_scooter", "is_reserved": 0, "lon": -77.01969116666666}, {"fusion_lat": 0.0, "name": "3d8f445940fdbd7926986463ebdea4c9", "is_disabled": 0, "rental_uris": {"android": "https://dc.lft.to/lastmile_qr_scan", "ios": "https://dc.lft.to/lastmile_qr_scan"}, "fusion_lon": 0.0, "lat": 38.899660833333336, "bike_id": "3d8f445940fdbd7926986463ebdea4c9", "type": "electric_scooter", "is_reserved": 0, "lon": -77.01988766666666}, {"fusion_lat": 0.0, "name": "3d88e4853c9e3c781764c00b182b78e0", "is_disabled": 0, "rental_uris": {"android": "https://dc.lft.to/lastmile_qr_scan", "ios": "https://dc.lft.to/lastmile_qr_scan"}, "fusion_lon": 0.0, "lat": 38.883997666666666, "bike_id": "3d88e4853c9e3c781764c00b182b78e0", "type": "electric_scooter", "is_reserved": 0, "lon": -77.0295315}, {"fusion_lat": 0.0, "name": "75de24c5ce11fe3a7836a04cb28e97cf", "is_disabled": 0, "rental_uris": {"android": "https://dc.lft.to/lastmile_qr_scan", "ios": "https://dc.lft.to/lastmile_qr_scan"}, "fusion_lon": 0.0, "lat": 38.91752983333333, "bike_id": "75de24c5ce11fe3a7836a04cb28e97cf", "type": "electric_scooter", "is_reserved": 0, "lon": -77.012149}, {"fusion_lat": 0.0, "name": "3040da7fa942f81702feff3e3559d62e", "is_disabled": 0, "rental_uris": {"android": "https://dc.lft.to/lastmile_qr_scan", "ios": "https://dc.lft.to/lastmile_qr_scan"}, "fusion_lon": 0.0, "lat": 38.882013666666666, "bike_id": "3040da7fa942f81702feff3e3559d62e", "type": "electric_scooter", "is_reserved": 0, "lon": -77.01765116666667}, {"fusion_lat": 0.0, "name": "250b53d9de4c84d4e1954822cb9249b5", "is_disabled": 0, "rental_uris": {"android": "https://dc.lft.to/lastmile_qr_scan", "ios": "https://dc.lft.to/lastmile_qr_scan"}, "fusion_lon": 0.0, "lat": 38.90971966666667, "bike_id": "250b53d9de4c84d4e1954822cb9249b5", "type": "electric_scooter", "is_reserved": 0, "lon": -77.0484035}, {"fusion_lat": 0.0, "name": "03b2e1b6f91af1686b8bea249e31b35f", "is_disabled": 0, "rental_uris": {"android": "https://dc.lft.to/lastmile_qr_scan", "ios": "https://dc.lft.to/lastmile_qr_scan"}, "fusion_lon": 0.0, "lat": 38.827942, "bike_id": "03b2e1b6f91af1686b8bea249e31b35f", "type": "electric_bike", "is_reserved": 0, "lon": -77.1248685}, {"fusion_lat": 0.0, "name": "da19b035a7389aea581e120e97f3a84d", "is_disabled": 0, "rental_uris": {"android": "https://dc.lft.to/lastmile_qr_scan", "ios": "https://dc.lft.to/lastmile_qr_scan"}, "fusion_lon": 0.0, "lat": 38.9396575, "bike_id": "da19b035a7389aea581e120e97f3a84d", "type": "electric_scooter", "is_reserved": 0, "lon": -77.03285933333333}, {"fusion_lat": 0.0, "name": "0c82d54e72628a95e8b40b0762d58d0d", "is_disabled": 0, "rental_uris": {"android": "https://dc.lft.to/lastmile_qr_scan", "ios": "https://dc.lft.to/lastmile_qr_scan"}, "fusion_lon": 0.0, "lat": 38.892327, "bike_id": "0c82d54e72628a95e8b40b0762d58d0d", "type": "electric_scooter", "is_reserved": 0, "lon": -77.0220575}, {"fusion_lat": 0.0, "name": "e9502f85d427bcd466aaeab857da2c6a", "is_disabled": 0, "rental_uris": {"android": "https://dc.lft.to/lastmile_qr_scan", "ios": "https://dc.lft.to/lastmile_qr_scan"}, "fusion_lon": 0.0, "lat": 38.918518166666665, "bike_id": "e9502f85d427bcd466aaeab857da2c6a", "type": "electric_scooter", "is_reserved": 0, "lon": -77.02453033333333}, {"fusion_lat": 0.0, "name": "01a590e17529a9273f4e9f58372252eb", "is_disabled": 0, "rental_uris": {"android": "https://dc.lft.to/lastmile_qr_scan", "ios": "https://dc.lft.to/lastmile_qr_scan"}, "fusion_lon": 0.0, "lat": 38.931177166666664, "bike_id": "01a590e17529a9273f4e9f58372252eb", "type": "electric_scooter", "is_reserved": 0, "lon": -77.02087316666666}, {"fusion_lat": 0.0, "name": "8ef4cf5430b947ecf98e379995633581", "is_disabled": 0, "rental_uris": {"android": "https://dc.lft.to/lastmile_qr_scan", "ios": "https://dc.lft.to/lastmile_qr_scan"}, "fusion_lon": 0.0, "lat": 38.89216183333333, "bike_id": "8ef4cf5430b947ecf98e379995633581", "type": "electric_scooter", "is_reserved": 0, "lon": -77.02661583333334}, {"fusion_lat": 0.0, "name": "4e74591f8fea0e0c16c023e12d52025f", "is_disabled": 0, "rental_uris": {"android": "https://dc.lft.to/lastmile_qr_scan", "ios": "https://dc.lft.to/lastmile_qr_scan"}, "fusion_lon": 0.0, "lat": 38.844275333333336, "bike_id": "4e74591f8fea0e0c16c023e12d52025f", "type": "electric_scooter", "is_reserved": 0, "lon": -76.9978035}, {"fusion_lat": 0.0, "name": "8529acb539545b20666c8eca5dd25e1d", "is_disabled": 0, "rental_uris": {"android": "https://dc.lft.to/lastmile_qr_scan", "ios": "https://dc.lft.to/lastmile_qr_scan"}, "fusion_lon": 0.0, "lat": 38.8852165, "bike_id": "8529acb539545b20666c8eca5dd25e1d", "type": "electric_scooter", "is_reserved": 0, "lon": -76.97710683333334}, {"fusion_lat": 0.0, "name": "2645cc1aa6e64d5bb39132dab83e212e", "is_disabled": 0, "rental_uris": {"android": "https://dc.lft.to/lastmile_qr_scan", "ios": "https://dc.lft.to/lastmile_qr_scan"}, "fusion_lon": 0.0, "lat": 38.90631416666667, "bike_id": "2645cc1aa6e64d5bb39132dab83e212e", "type": "electric_scooter", "is_reserved": 0, "lon": -77.02599733333334}, {"fusion_lat": 0.0, "name": "3062e6995c352520c0307927ef5cbaa0", "is_disabled": 0, "rental_uris": {"android": "https://dc.lft.to/lastmile_qr_scan", "ios": "https://dc.lft.to/lastmile_qr_scan"}, "fusion_lon": 0.0, "lat": 38.91122633333333, "bike_id": "3062e6995c352520c0307927ef5cbaa0", "type": "electric_scooter", "is_reserved": 0, "lon": -77.08129016666666}, {"fusion_lat": 0.0, "name": "a3f2a0681be9423cbde09ac431ad5a39", "is_disabled": 0, "rental_uris": {"android": "https://dc.lft.to/lastmile_qr_scan", "ios": "https://dc.lft.to/lastmile_qr_scan"}, "fusion_lon": 0.0, "lat": 38.897415333333335, "bike_id": "a3f2a0681be9423cbde09ac431ad5a39", "type": "electric_scooter", "is_reserved": 0, "lon": -77.00371066666666}, {"fusion_lat": 0.0, "name": "9408e7eaf06889ebe70184ae91e566c1", "is_disabled": 0, "rental_uris": {"android": "https://dc.lft.to/lastmile_qr_scan", "ios": "https://dc.lft.to/lastmile_qr_scan"}, "fusion_lon": 0.0, "lat": 38.90761166666667, "bike_id": "9408e7eaf06889ebe70184ae91e566c1", "type": "electric_scooter", "is_reserved": 0, "lon": -77.03832816666667}, {"fusion_lat": 0.0, "name": "f8d0753dc3783e6f0e92fa367553a95c", "is_disabled": 0, "rental_uris": {"android": "https://dc.lft.to/lastmile_qr_scan", "ios": "https://dc.lft.to/lastmile_qr_scan"}, "fusion_lon": 0.0, "lat": 38.89319583333333, "bike_id": "f8d0753dc3783e6f0e92fa367553a95c", "type": "electric_bike", "is_reserved": 0, "lon": -76.95123383333333}, {"fusion_lat": 0.0, "name": "3ad52a489267739d2acf2e490b7d1df0", "is_disabled": 0, "rental_uris": {"android": "https://dc.lft.to/lastmile_qr_scan", "ios": "https://dc.lft.to/lastmile_qr_scan"}, "fusion_lon": 0.0, "lat": 38.905215166666665, "bike_id": "3ad52a489267739d2acf2e490b7d1df0", "type": "electric_scooter", "is_reserved": 0, "lon": -77.06788233333333}, {"fusion_lat": 0.0, "name": "f8b07af71036d45114bf204350b354a7", "is_disabled": 0, "rental_uris": {"android": "https://dc.lft.to/lastmile_qr_scan", "ios": "https://dc.lft.to/lastmile_qr_scan"}, "fusion_lon": 0.0, "lat": 38.90066016666667, "bike_id": "f8b07af71036d45114bf204350b354a7", "type": "electric_scooter", "is_reserved": 0, "lon": -77.01616716666666}, {"fusion_lat": 0.0, "name": "5e6ae877aadddc5d66cf106c49071dbd", "is_disabled": 0, "rental_uris": {"android": "https://dc.lft.to/lastmile_qr_scan", "ios": "https://dc.lft.to/lastmile_qr_scan"}, "fusion_lon": 0.0, "lat": 38.9229045, "bike_id": "5e6ae877aadddc5d66cf106c49071dbd", "type": "electric_scooter", "is_reserved": 0, "lon": -77.04206466666666}, {"fusion_lat": 0.0, "name": "0e7cec24a59b2ed71f28164baa8c8c59", "is_disabled": 0, "rental_uris": {"android": "https://dc.lft.to/lastmile_qr_scan", "ios": "https://dc.lft.to/lastmile_qr_scan"}, "fusion_lon": 0.0, "lat": 38.910178333333334, "bike_id": "0e7cec24a59b2ed71f28164baa8c8c59", "type": "electric_scooter", "is_reserved": 0, "lon": -77.05270866666666}, {"fusion_lat": 0.0, "name": "db67dfb733a897d4fc277f292f84899f", "is_disabled": 0, "rental_uris": {"android": "https://dc.lft.to/lastmile_qr_scan", "ios": "https://dc.lft.to/lastmile_qr_scan"}, "fusion_lon": 0.0, "lat": 38.8974495, "bike_id": "db67dfb733a897d4fc277f292f84899f", "type": "electric_scooter", "is_reserved": 0, "lon": -77.00202533333334}, {"fusion_lat": 0.0, "name": "3c1363adb16cfe8bcb979ffc23623a7e", "is_disabled": 0, "rental_uris": {"android": "https://dc.lft.to/lastmile_qr_scan", "ios": "https://dc.lft.to/lastmile_qr_scan"}, "fusion_lon": 0.0, "lat": 38.883840166666666, "bike_id": "3c1363adb16cfe8bcb979ffc23623a7e", "type": "electric_scooter", "is_reserved": 0, "lon": -76.93054766666667}, {"fusion_lat": 0.0, "name": "8b3feb35b9ef20c55c6650099bf6b431", "is_disabled": 0, "rental_uris": {"android": "https://dc.lft.to/lastmile_qr_scan", "ios": "https://dc.lft.to/lastmile_qr_scan"}, "fusion_lon": 0.0, "lat": 38.93035783333333, "bike_id": "8b3feb35b9ef20c55c6650099bf6b431", "type": "electric_scooter", "is_reserved": 0, "lon": -77.0378835}, {"fusion_lat": 0.0, "name": "3fef59be4907097a346c2379aab07826", "is_disabled": 0, "rental_uris": {"android": "https://dc.lft.to/lastmile_qr_scan", "ios": "https://dc.lft.to/lastmile_qr_scan"}, "fusion_lon": 0.0, "lat": 38.914705833333336, "bike_id": "3fef59be4907097a346c2379aab07826", "type": "electric_scooter", "is_reserved": 0, "lon": -77.03215383333334}, {"fusion_lat": 0.0, "name": "c119b9d6abbb330cb96ad1edb331d2ff", "is_disabled": 0, "rental_uris": {"android": "https://dc.lft.to/lastmile_qr_scan", "ios": "https://dc.lft.to/lastmile_qr_scan"}, "fusion_lon": 0.0, "lat": 38.8836295, "bike_id": "c119b9d6abbb330cb96ad1edb331d2ff", "type": "electric_scooter", "is_reserved": 0, "lon": -77.01358433333333}, {"fusion_lat": 0.0, "name": "fcf23c9b458f1936b8ac5c050be5afad", "is_disabled": 0, "rental_uris": {"android": "https://dc.lft.to/lastmile_qr_scan", "ios": "https://dc.lft.to/lastmile_qr_scan"}, "fusion_lon": 0.0, "lat": 38.91928516666667, "bike_id": "fcf23c9b458f1936b8ac5c050be5afad", "type": "electric_scooter", "is_reserved": 0, "lon": -77.02661283333333}, {"fusion_lat": 0.0, "name": "f33c238ca241e0c985ef0a9cfd5d9254", "is_disabled": 0, "rental_uris": {"android": "https://dc.lft.to/lastmile_qr_scan", "ios": "https://dc.lft.to/lastmile_qr_scan"}, "fusion_lon": 0.0, "lat": 38.907396166666665, "bike_id": "f33c238ca241e0c985ef0a9cfd5d9254", "type": "electric_scooter", "is_reserved": 0, "lon": -77.043268}, {"fusion_lat": 0.0, "name": "820f0269c83ca2570ecb9e8ba04af1f2", "is_disabled": 0, "rental_uris": {"android": "https://dc.lft.to/lastmile_qr_scan", "ios": "https://dc.lft.to/lastmile_qr_scan"}, "fusion_lon": 0.0, "lat": 38.9155925, "bike_id": "820f0269c83ca2570ecb9e8ba04af1f2", "type": "electric_scooter", "is_reserved": 0, "lon": -77.0450715}, {"fusion_lat": 0.0, "name": "e8ca3a942cf504b2dd54064c3f897488", "is_disabled": 0, "rental_uris": {"android": "https://dc.lft.to/lastmile_qr_scan", "ios": "https://dc.lft.to/lastmile_qr_scan"}, "fusion_lon": 0.0, "lat": 38.91842833333333, "bike_id": "e8ca3a942cf504b2dd54064c3f897488", "type": "electric_scooter", "is_reserved": 0, "lon": -77.0238645}, {"fusion_lat": 0.0, "name": "aa9c1b09833940bb8474470127bc6400", "is_disabled": 0, "rental_uris": {"android": "https://dc.lft.to/lastmile_qr_scan", "ios": "https://dc.lft.to/lastmile_qr_scan"}, "fusion_lon": 0.0, "lat": 38.888982666666664, "bike_id": "aa9c1b09833940bb8474470127bc6400", "type": "electric_scooter", "is_reserved": 0, "lon": -76.9921035}, {"fusion_lat": 0.0, "name": "1423be5a256873dcbbb176beaace0ea9", "is_disabled": 0, "rental_uris": {"android": "https://dc.lft.to/lastmile_qr_scan", "ios": "https://dc.lft.to/lastmile_qr_scan"}, "fusion_lon": 0.0, "lat": 38.932319, "bike_id": "1423be5a256873dcbbb176beaace0ea9", "type": "electric_scooter", "is_reserved": 0, "lon": -77.029818}, {"fusion_lat": 0.0, "name": "2aaf17ca0f0eaf39161bb3501d4a0ec1", "is_disabled": 0, "rental_uris": {"android": "https://dc.lft.to/lastmile_qr_scan", "ios": "https://dc.lft.to/lastmile_qr_scan"}, "fusion_lon": 0.0, "lat": 38.91989783333333, "bike_id": "2aaf17ca0f0eaf39161bb3501d4a0ec1", "type": "electric_scooter", "is_reserved": 0, "lon": -77.04152866666666}, {"fusion_lat": 0.0, "name": "31471c83a97c7280f7d6f9684604d841", "is_disabled": 0, "rental_uris": {"android": "https://dc.lft.to/lastmile_qr_scan", "ios": "https://dc.lft.to/lastmile_qr_scan"}, "fusion_lon": 0.0, "lat": 38.89853016666667, "bike_id": "31471c83a97c7280f7d6f9684604d841", "type": "electric_scooter", "is_reserved": 0, "lon": -76.99035683333334}, {"fusion_lat": 0.0, "name": "eaaa0b2b36fbdc4f2da8cc5c61c37185", "is_disabled": 0, "rental_uris": {"android": "https://dc.lft.to/lastmile_qr_scan", "ios": "https://dc.lft.to/lastmile_qr_scan"}, "fusion_lon": 0.0, "lat": 38.87820983333334, "bike_id": "eaaa0b2b36fbdc4f2da8cc5c61c37185", "type": "electric_scooter", "is_reserved": 0, "lon": -77.00135516666667}, {"fusion_lat": 0.0, "name": "0c6e4af213ad0fd00554acd56905e493", "is_disabled": 0, "rental_uris": {"android": "https://dc.lft.to/lastmile_qr_scan", "ios": "https://dc.lft.to/lastmile_qr_scan"}, "fusion_lon": 0.0, "lat": 38.916932833333334, "bike_id": "0c6e4af213ad0fd00554acd56905e493", "type": "electric_scooter", "is_reserved": 0, "lon": -77.03216683333333}, {"fusion_lat": 0.0, "name": "79fa29c2658aae6b311d4a7ab5427364", "is_disabled": 0, "rental_uris": {"android": "https://dc.lft.to/lastmile_qr_scan", "ios": "https://dc.lft.to/lastmile_qr_scan"}, "fusion_lon": 0.0, "lat": 38.865200333333334, "bike_id": "79fa29c2658aae6b311d4a7ab5427364", "type": "electric_bike", "is_reserved": 0, "lon": -76.973328}, {"fusion_lat": 0.0, "name": "858115621921007c1017e53750041d07", "is_disabled": 0, "rental_uris": {"android": "https://dc.lft.to/lastmile_qr_scan", "ios": "https://dc.lft.to/lastmile_qr_scan"}, "fusion_lon": 0.0, "lat": 38.919238666666665, "bike_id": "858115621921007c1017e53750041d07", "type": "electric_scooter", "is_reserved": 0, "lon": -77.03181583333334}, {"fusion_lat": 0.0, "name": "be4cdfcd44bbea057641b7eabeaffee7", "is_disabled": 0, "rental_uris": {"android": "https://dc.lft.to/lastmile_qr_scan", "ios": "https://dc.lft.to/lastmile_qr_scan"}, "fusion_lon": 0.0, "lat": 38.887373, "bike_id": "be4cdfcd44bbea057641b7eabeaffee7", "type": "electric_scooter", "is_reserved": 0, "lon": -77.02257383333334}, {"fusion_lat": 0.0, "name": "4fe796368d2cfc440db909541e568dd8", "is_disabled": 0, "rental_uris": {"android": "https://dc.lft.to/lastmile_qr_scan", "ios": "https://dc.lft.to/lastmile_qr_scan"}, "fusion_lon": 0.0, "lat": 38.849129, "bike_id": "4fe796368d2cfc440db909541e568dd8", "type": "electric_bike", "is_reserved": 0, "lon": -77.099794}, {"fusion_lat": 0.0, "name": "f909c15c8ad0722d98a72ba126e1c841", "is_disabled": 0, "rental_uris": {"android": "https://dc.lft.to/lastmile_qr_scan", "ios": "https://dc.lft.to/lastmile_qr_scan"}, "fusion_lon": 0.0, "lat": 38.91656233333333, "bike_id": "f909c15c8ad0722d98a72ba126e1c841", "type": "electric_scooter", "is_reserved": 0, "lon": -77.03861533333334}, {"fusion_lat": 0.0, "name": "d84f28eb6609be53870c8a7bc6e49496", "is_disabled": 0, "rental_uris": {"android": "https://dc.lft.to/lastmile_qr_scan", "ios": "https://dc.lft.to/lastmile_qr_scan"}, "fusion_lon": 0.0, "lat": 38.9010605, "bike_id": "d84f28eb6609be53870c8a7bc6e49496", "type": "electric_scooter", "is_reserved": 0, "lon": -77.0315855}, {"fusion_lat": 0.0, "name": "b12a4987c930ce2169d017df459adb35", "is_disabled": 0, "rental_uris": {"android": "https://dc.lft.to/lastmile_qr_scan", "ios": "https://dc.lft.to/lastmile_qr_scan"}, "fusion_lon": 0.0, "lat": 38.928119333333335, "bike_id": "b12a4987c930ce2169d017df459adb35", "type": "electric_scooter", "is_reserved": 0, "lon": -77.04358533333334}, {"fusion_lat": 0.0, "name": "522f06502ec1513e5a0f2348f9a50e6e", "is_disabled": 0, "rental_uris": {"android": "https://dc.lft.to/lastmile_qr_scan", "ios": "https://dc.lft.to/lastmile_qr_scan"}, "fusion_lon": 0.0, "lat": 38.898754, "bike_id": "522f06502ec1513e5a0f2348f9a50e6e", "type": "electric_scooter", "is_reserved": 0, "lon": -76.93183633333334}, {"fusion_lat": 0.0, "name": "5aa8389203381d9afbd482550edcf70f", "is_disabled": 0, "rental_uris": {"android": "https://dc.lft.to/lastmile_qr_scan", "ios": "https://dc.lft.to/lastmile_qr_scan"}, "fusion_lon": 0.0, "lat": 38.91116666666667, "bike_id": "5aa8389203381d9afbd482550edcf70f", "type": "electric_scooter", "is_reserved": 0, "lon": -77.00755216666667}, {"fusion_lat": 0.0, "name": "06e3e78198f244c2f2649cbbea6e17d8", "is_disabled": 0, "rental_uris": {"android": "https://dc.lft.to/lastmile_qr_scan", "ios": "https://dc.lft.to/lastmile_qr_scan"}, "fusion_lon": 0.0, "lat": 38.8985435, "bike_id": "06e3e78198f244c2f2649cbbea6e17d8", "type": "electric_scooter", "is_reserved": 0, "lon": -77.03373383333333}, {"fusion_lat": 0.0, "name": "a1160e4255e6364ed7e2bc41c3ab5c86", "is_disabled": 0, "rental_uris": {"android": "https://dc.lft.to/lastmile_qr_scan", "ios": "https://dc.lft.to/lastmile_qr_scan"}, "fusion_lon": 0.0, "lat": 38.907316333333334, "bike_id": "a1160e4255e6364ed7e2bc41c3ab5c86", "type": "electric_scooter", "is_reserved": 0, "lon": -77.04339133333333}, {"fusion_lat": 0.0, "name": "511f25138d98ae9895a9c1613adc21b8", "is_disabled": 0, "rental_uris": {"android": "https://dc.lft.to/lastmile_qr_scan", "ios": "https://dc.lft.to/lastmile_qr_scan"}, "fusion_lon": 0.0, "lat": 38.920214, "bike_id": "511f25138d98ae9895a9c1613adc21b8", "type": "electric_scooter", "is_reserved": 0, "lon": -77.01317133333333}, {"fusion_lat": 0.0, "name": "d4b0568f52a50358e530c028fb4c8d27", "is_disabled": 0, "rental_uris": {"android": "https://dc.lft.to/lastmile_qr_scan", "ios": "https://dc.lft.to/lastmile_qr_scan"}, "fusion_lon": 0.0, "lat": 38.904394, "bike_id": "d4b0568f52a50358e530c028fb4c8d27", "type": "electric_scooter", "is_reserved": 0, "lon": -77.05814283333333}, {"fusion_lat": 0.0, "name": "535debd9b1d839663eb214cbc28e4b25", "is_disabled": 0, "rental_uris": {"android": "https://dc.lft.to/lastmile_qr_scan", "ios": "https://dc.lft.to/lastmile_qr_scan"}, "fusion_lon": 0.0, "lat": 38.919437, "bike_id": "535debd9b1d839663eb214cbc28e4b25", "type": "electric_scooter", "is_reserved": 0, "lon": -77.03214516666667}, {"fusion_lat": 0.0, "name": "47db71dec11fe713419bb7a14917b465", "is_disabled": 0, "rental_uris": {"android": "https://dc.lft.to/lastmile_qr_scan", "ios": "https://dc.lft.to/lastmile_qr_scan"}, "fusion_lon": 0.0, "lat": 38.923415, "bike_id": "47db71dec11fe713419bb7a14917b465", "type": "electric_scooter", "is_reserved": 0, "lon": -77.01910833333334}, {"fusion_lat": 0.0, "name": "e95483dbd3cb82ac242ebe593754a274", "is_disabled": 0, "rental_uris": {"android": "https://dc.lft.to/lastmile_qr_scan", "ios": "https://dc.lft.to/lastmile_qr_scan"}, "fusion_lon": 0.0, "lat": 38.919687333333336, "bike_id": "e95483dbd3cb82ac242ebe593754a274", "type": "electric_scooter", "is_reserved": 0, "lon": -77.04150883333334}, {"fusion_lat": 0.0, "name": "e57ef591f04935d92b1ab64f59d5f5fe", "is_disabled": 0, "rental_uris": {"android": "https://dc.lft.to/lastmile_qr_scan", "ios": "https://dc.lft.to/lastmile_qr_scan"}, "fusion_lon": 0.0, "lat": 38.909902833333334, "bike_id": "e57ef591f04935d92b1ab64f59d5f5fe", "type": "electric_scooter", "is_reserved": 0, "lon": -77.03835116666667}, {"fusion_lat": 0.0, "name": "a6bc9d5f62ad768fac7b882594e86daf", "is_disabled": 0, "rental_uris": {"android": "https://dc.lft.to/lastmile_qr_scan", "ios": "https://dc.lft.to/lastmile_qr_scan"}, "fusion_lon": 0.0, "lat": 38.88448783333333, "bike_id": "a6bc9d5f62ad768fac7b882594e86daf", "type": "electric_scooter", "is_reserved": 0, "lon": -76.9961525}, {"fusion_lat": 0.0, "name": "95420722d923c18ea6e0c91ab6e09fdd", "is_disabled": 0, "rental_uris": {"android": "https://dc.lft.to/lastmile_qr_scan", "ios": "https://dc.lft.to/lastmile_qr_scan"}, "fusion_lon": 0.0, "lat": 38.92006633333333, "bike_id": "95420722d923c18ea6e0c91ab6e09fdd", "type": "electric_scooter", "is_reserved": 0, "lon": -77.04169516666667}, {"fusion_lat": 0.0, "name": "8597dd8f0689d3ee9deba1a7274f851a", "is_disabled": 0, "rental_uris": {"android": "https://dc.lft.to/lastmile_qr_scan", "ios": "https://dc.lft.to/lastmile_qr_scan"}, "fusion_lon": 0.0, "lat": 38.923741, "bike_id": "8597dd8f0689d3ee9deba1a7274f851a", "type": "electric_scooter", "is_reserved": 0, "lon": -77.0517775}, {"fusion_lat": 0.0, "name": "ab7896a1703affbf1769054f98ff8917", "is_disabled": 0, "rental_uris": {"android": "https://dc.lft.to/lastmile_qr_scan", "ios": "https://dc.lft.to/lastmile_qr_scan"}, "fusion_lon": 0.0, "lat": 38.900278666666665, "bike_id": "ab7896a1703affbf1769054f98ff8917", "type": "electric_scooter", "is_reserved": 0, "lon": -77.038699}, {"fusion_lat": 0.0, "name": "90dd52c551710c97e96820ded6eafef9", "is_disabled": 0, "rental_uris": {"android": "https://dc.lft.to/lastmile_qr_scan", "ios": "https://dc.lft.to/lastmile_qr_scan"}, "fusion_lon": 0.0, "lat": 38.89546466666667, "bike_id": "90dd52c551710c97e96820ded6eafef9", "type": "electric_scooter", "is_reserved": 0, "lon": -76.98092983333333}, {"fusion_lat": 0.0, "name": "9c5fe990b6be3ef78b3ed987062fad0f", "is_disabled": 0, "rental_uris": {"android": "https://dc.lft.to/lastmile_qr_scan", "ios": "https://dc.lft.to/lastmile_qr_scan"}, "fusion_lon": 0.0, "lat": 38.87726683333333, "bike_id": "9c5fe990b6be3ef78b3ed987062fad0f", "type": "electric_scooter", "is_reserved": 0, "lon": -77.01761033333334}, {"fusion_lat": 0.0, "name": "de9382eada43af2fea80980130229d2b", "is_disabled": 0, "rental_uris": {"android": "https://dc.lft.to/lastmile_qr_scan", "ios": "https://dc.lft.to/lastmile_qr_scan"}, "fusion_lon": 0.0, "lat": 38.91924216666666, "bike_id": "de9382eada43af2fea80980130229d2b", "type": "electric_scooter", "is_reserved": 0, "lon": -77.03182783333334}, {"fusion_lat": 0.0, "name": "350e77c03311107dbaaecea2714d7a58", "is_disabled": 0, "rental_uris": {"android": "https://dc.lft.to/lastmile_qr_scan", "ios": "https://dc.lft.to/lastmile_qr_scan"}, "fusion_lon": 0.0, "lat": 38.8475615, "bike_id": "350e77c03311107dbaaecea2714d7a58", "type": "electric_scooter", "is_reserved": 0, "lon": -76.9950065}, {"fusion_lat": 0.0, "name": "20966e94d9a134b90c437523bddcb484", "is_disabled": 0, "rental_uris": {"android": "https://dc.lft.to/lastmile_qr_scan", "ios": "https://dc.lft.to/lastmile_qr_scan"}, "fusion_lon": 0.0, "lat": 38.8921915, "bike_id": "20966e94d9a134b90c437523bddcb484", "type": "electric_scooter", "is_reserved": 0, "lon": -77.02369}, {"fusion_lat": 0.0, "name": "e9d16f4dd28d9e4c9feef8c79beaacd7", "is_disabled": 0, "rental_uris": {"android": "https://dc.lft.to/lastmile_qr_scan", "ios": "https://dc.lft.to/lastmile_qr_scan"}, "fusion_lon": 0.0, "lat": 38.903373, "bike_id": "e9d16f4dd28d9e4c9feef8c79beaacd7", "type": "electric_scooter", "is_reserved": 0, "lon": -77.06271383333333}, {"fusion_lat": 0.0, "name": "9d371957ccbc3d88709c2ff4edb83556", "is_disabled": 0, "rental_uris": {"android": "https://dc.lft.to/lastmile_qr_scan", "ios": "https://dc.lft.to/lastmile_qr_scan"}, "fusion_lon": 0.0, "lat": 38.89878066666667, "bike_id": "9d371957ccbc3d88709c2ff4edb83556", "type": "electric_scooter", "is_reserved": 0, "lon": -76.93184533333333}, {"fusion_lat": 0.0, "name": "402c789fa00f1aa0e9f4d9010d855254", "is_disabled": 0, "rental_uris": {"android": "https://dc.lft.to/lastmile_qr_scan", "ios": "https://dc.lft.to/lastmile_qr_scan"}, "fusion_lon": 0.0, "lat": 38.901284, "bike_id": "402c789fa00f1aa0e9f4d9010d855254", "type": "electric_scooter", "is_reserved": 0, "lon": -77.026051}, {"fusion_lat": 0.0, "name": "842a0eb7a96ef5d256f59662fa7a03d3", "is_disabled": 0, "rental_uris": {"android": "https://dc.lft.to/lastmile_qr_scan", "ios": "https://dc.lft.to/lastmile_qr_scan"}, "fusion_lon": 0.0, "lat": 39.05255283333333, "bike_id": "842a0eb7a96ef5d256f59662fa7a03d3", "type": "electric_bike", "is_reserved": 0, "lon": -77.08067866666667}, {"fusion_lat": 0.0, "name": "0befb563a7e4e60d260d97bc97d36484", "is_disabled": 0, "rental_uris": {"android": "https://dc.lft.to/lastmile_qr_scan", "ios": "https://dc.lft.to/lastmile_qr_scan"}, "fusion_lon": 0.0, "lat": 38.91803633333333, "bike_id": "0befb563a7e4e60d260d97bc97d36484", "type": "electric_scooter", "is_reserved": 0, "lon": -77.0401655}, {"fusion_lat": 0.0, "name": "03264c99094c9061210c321153be2ba2", "is_disabled": 0, "rental_uris": {"android": "https://dc.lft.to/lastmile_qr_scan", "ios": "https://dc.lft.to/lastmile_qr_scan"}, "fusion_lon": 0.0, "lat": 38.92565033333333, "bike_id": "03264c99094c9061210c321153be2ba2", "type": "electric_scooter", "is_reserved": 0, "lon": -77.0438645}, {"fusion_lat": 0.0, "name": "826c23ab0342026cf5b426e5982d14f2", "is_disabled": 0, "rental_uris": {"android": "https://dc.lft.to/lastmile_qr_scan", "ios": "https://dc.lft.to/lastmile_qr_scan"}, "fusion_lon": 0.0, "lat": 38.89234183333333, "bike_id": "826c23ab0342026cf5b426e5982d14f2", "type": "electric_scooter", "is_reserved": 0, "lon": -77.0468215}, {"fusion_lat": 0.0, "name": "e0d9caeed0e60df696a1fc0b184395c6", "is_disabled": 0, "rental_uris": {"android": "https://dc.lft.to/lastmile_qr_scan", "ios": "https://dc.lft.to/lastmile_qr_scan"}, "fusion_lon": 0.0, "lat": 38.903886, "bike_id": "e0d9caeed0e60df696a1fc0b184395c6", "type": "electric_scooter", "is_reserved": 0, "lon": -77.02484366666667}, {"fusion_lat": 0.0, "name": "5e87a311faa5bad8125db743fff922ea", "is_disabled": 0, "rental_uris": {"android": "https://dc.lft.to/lastmile_qr_scan", "ios": "https://dc.lft.to/lastmile_qr_scan"}, "fusion_lon": 0.0, "lat": 38.907164333333334, "bike_id": "5e87a311faa5bad8125db743fff922ea", "type": "electric_scooter", "is_reserved": 0, "lon": -77.04990816666667}, {"fusion_lat": 0.0, "name": "ae555e0ff5bd60514f593d136d4340ff", "is_disabled": 0, "rental_uris": {"android": "https://dc.lft.to/lastmile_qr_scan", "ios": "https://dc.lft.to/lastmile_qr_scan"}, "fusion_lon": 0.0, "lat": 38.918432833333334, "bike_id": "ae555e0ff5bd60514f593d136d4340ff", "type": "electric_scooter", "is_reserved": 0, "lon": -77.024433}, {"fusion_lat": 0.0, "name": "68dc936e6fcb469c63d3e9bc0e9ef294", "is_disabled": 0, "rental_uris": {"android": "https://dc.lft.to/lastmile_qr_scan", "ios": "https://dc.lft.to/lastmile_qr_scan"}, "fusion_lon": 0.0, "lat": 38.91817733333333, "bike_id": "68dc936e6fcb469c63d3e9bc0e9ef294", "type": "electric_scooter", "is_reserved": 0, "lon": -77.036774}, {"fusion_lat": 0.0, "name": "97f5d78a6a06b98a6b745de4a6387175", "is_disabled": 0, "rental_uris": {"android": "https://dc.lft.to/lastmile_qr_scan", "ios": "https://dc.lft.to/lastmile_qr_scan"}, "fusion_lon": 0.0, "lat": 38.916818166666665, "bike_id": "97f5d78a6a06b98a6b745de4a6387175", "type": "electric_scooter", "is_reserved": 0, "lon": -77.022882}, {"fusion_lat": 0.0, "name": "c97b261c9474837b94dfc1a23bf4f2fa", "is_disabled": 0, "rental_uris": {"android": "https://dc.lft.to/lastmile_qr_scan", "ios": "https://dc.lft.to/lastmile_qr_scan"}, "fusion_lon": 0.0, "lat": 38.8049705, "bike_id": "c97b261c9474837b94dfc1a23bf4f2fa", "type": "electric_bike", "is_reserved": 0, "lon": -77.10160833333333}, {"fusion_lat": 0.0, "name": "bf0564e525da6fb075f735b99400688b", "is_disabled": 0, "rental_uris": {"android": "https://dc.lft.to/lastmile_qr_scan", "ios": "https://dc.lft.to/lastmile_qr_scan"}, "fusion_lon": 0.0, "lat": 38.935848, "bike_id": "bf0564e525da6fb075f735b99400688b", "type": "electric_scooter", "is_reserved": 0, "lon": -77.03344683333333}, {"fusion_lat": 0.0, "name": "513fc03e332d6084c85be2ca027337cb", "is_disabled": 0, "rental_uris": {"android": "https://dc.lft.to/lastmile_qr_scan", "ios": "https://dc.lft.to/lastmile_qr_scan"}, "fusion_lon": 0.0, "lat": 38.92150316666667, "bike_id": "513fc03e332d6084c85be2ca027337cb", "type": "electric_scooter", "is_reserved": 0, "lon": -77.04345383333333}, {"fusion_lat": 0.0, "name": "d9463e47ba7ba81e22f00efc59e2fc5a", "is_disabled": 0, "rental_uris": {"android": "https://dc.lft.to/lastmile_qr_scan", "ios": "https://dc.lft.to/lastmile_qr_scan"}, "fusion_lon": 0.0, "lat": 38.9063025, "bike_id": "d9463e47ba7ba81e22f00efc59e2fc5a", "type": "electric_scooter", "is_reserved": 0, "lon": -77.02534433333334}, {"fusion_lat": 0.0, "name": "7bf3de0f261ad0f7fb4a64ab8d33a43b", "is_disabled": 0, "rental_uris": {"android": "https://dc.lft.to/lastmile_qr_scan", "ios": "https://dc.lft.to/lastmile_qr_scan"}, "fusion_lon": 0.0, "lat": 38.9228905, "bike_id": "7bf3de0f261ad0f7fb4a64ab8d33a43b", "type": "electric_scooter", "is_reserved": 0, "lon": -77.0233185}, {"fusion_lat": 0.0, "name": "51c710100f629dbc3551b5a4d7634844", "is_disabled": 0, "rental_uris": {"android": "https://dc.lft.to/lastmile_qr_scan", "ios": "https://dc.lft.to/lastmile_qr_scan"}, "fusion_lon": 0.0, "lat": 38.91920366666667, "bike_id": "51c710100f629dbc3551b5a4d7634844", "type": "electric_scooter", "is_reserved": 0, "lon": -77.0348935}, {"fusion_lat": 0.0, "name": "e1342e547d6fa686c301f3beae235526", "is_disabled": 0, "rental_uris": {"android": "https://dc.lft.to/lastmile_qr_scan", "ios": "https://dc.lft.to/lastmile_qr_scan"}, "fusion_lon": 0.0, "lat": 38.88725216666667, "bike_id": "e1342e547d6fa686c301f3beae235526", "type": "electric_scooter", "is_reserved": 0, "lon": -77.02169816666667}, {"fusion_lat": 0.0, "name": "b9dfe17c6485ca8ff8d6bc7651a1e994", "is_disabled": 0, "rental_uris": {"android": "https://dc.lft.to/lastmile_qr_scan", "ios": "https://dc.lft.to/lastmile_qr_scan"}, "fusion_lon": 0.0, "lat": 38.8830905, "bike_id": "b9dfe17c6485ca8ff8d6bc7651a1e994", "type": "electric_scooter", "is_reserved": 0, "lon": -77.0139295}, {"fusion_lat": 0.0, "name": "3be9c71721276d4a37d120e6547bb7fb", "is_disabled": 0, "rental_uris": {"android": "https://dc.lft.to/lastmile_qr_scan", "ios": "https://dc.lft.to/lastmile_qr_scan"}, "fusion_lon": 0.0, "lat": 38.9207515, "bike_id": "3be9c71721276d4a37d120e6547bb7fb", "type": "electric_scooter", "is_reserved": 0, "lon": -77.02317183333334}, {"fusion_lat": 0.0, "name": "1f5deacce70cbe2bdf091982ba5245c5", "is_disabled": 0, "rental_uris": {"android": "https://dc.lft.to/lastmile_qr_scan", "ios": "https://dc.lft.to/lastmile_qr_scan"}, "fusion_lon": 0.0, "lat": 38.899859166666666, "bike_id": "1f5deacce70cbe2bdf091982ba5245c5", "type": "electric_scooter", "is_reserved": 0, "lon": -76.99258983333333}, {"fusion_lat": 0.0, "name": "5891f17dcb2eb4cc8c43912a910fd4cf", "is_disabled": 0, "rental_uris": {"android": "https://dc.lft.to/lastmile_qr_scan", "ios": "https://dc.lft.to/lastmile_qr_scan"}, "fusion_lon": 0.0, "lat": 38.8981405, "bike_id": "5891f17dcb2eb4cc8c43912a910fd4cf", "type": "electric_scooter", "is_reserved": 0, "lon": -77.0335105}, {"fusion_lat": 0.0, "name": "a9e0503e1ae76eadbe84f73d32b9342a", "is_disabled": 0, "rental_uris": {"android": "https://dc.lft.to/lastmile_qr_scan", "ios": "https://dc.lft.to/lastmile_qr_scan"}, "fusion_lon": 0.0, "lat": 38.928139333333334, "bike_id": "a9e0503e1ae76eadbe84f73d32b9342a", "type": "electric_scooter", "is_reserved": 0, "lon": -77.04332033333333}, {"fusion_lat": 0.0, "name": "a434729eab80ec98276463d051547261", "is_disabled": 0, "rental_uris": {"android": "https://dc.lft.to/lastmile_qr_scan", "ios": "https://dc.lft.to/lastmile_qr_scan"}, "fusion_lon": 0.0, "lat": 38.87451166666666, "bike_id": "a434729eab80ec98276463d051547261", "type": "electric_scooter", "is_reserved": 0, "lon": -77.00291266666666}, {"fusion_lat": 0.0, "name": "8d598162f0d746e304da10b17a20538f", "is_disabled": 0, "rental_uris": {"android": "https://dc.lft.to/lastmile_qr_scan", "ios": "https://dc.lft.to/lastmile_qr_scan"}, "fusion_lon": 0.0, "lat": 38.93268966666667, "bike_id": "8d598162f0d746e304da10b17a20538f", "type": "electric_scooter", "is_reserved": 0, "lon": -77.0191735}, {"fusion_lat": 0.0, "name": "6b5f85ca079797a4ae8a06593e088105", "is_disabled": 0, "rental_uris": {"android": "https://dc.lft.to/lastmile_qr_scan", "ios": "https://dc.lft.to/lastmile_qr_scan"}, "fusion_lon": 0.0, "lat": 38.920671666666664, "bike_id": "6b5f85ca079797a4ae8a06593e088105", "type": "electric_scooter", "is_reserved": 0, "lon": -77.03807216666667}, {"fusion_lat": 0.0, "name": "ff1e18a3d3d6ed48f1e9a0fa2d74b1ad", "is_disabled": 0, "rental_uris": {"android": "https://dc.lft.to/lastmile_qr_scan", "ios": "https://dc.lft.to/lastmile_qr_scan"}, "fusion_lon": 0.0, "lat": 38.931757833333336, "bike_id": "ff1e18a3d3d6ed48f1e9a0fa2d74b1ad", "type": "electric_scooter", "is_reserved": 0, "lon": -77.02814683333334}, {"fusion_lat": 0.0, "name": "815eae61a1cd5355e23dc944c0b44d63", "is_disabled": 0, "rental_uris": {"android": "https://dc.lft.to/lastmile_qr_scan", "ios": "https://dc.lft.to/lastmile_qr_scan"}, "fusion_lon": 0.0, "lat": 38.940954833333336, "bike_id": "815eae61a1cd5355e23dc944c0b44d63", "type": "electric_scooter", "is_reserved": 0, "lon": -77.03279183333333}, {"fusion_lat": 0.0, "name": "6196e147596e5a7cf9db039de3b8023f", "is_disabled": 0, "rental_uris": {"android": "https://dc.lft.to/lastmile_qr_scan", "ios": "https://dc.lft.to/lastmile_qr_scan"}, "fusion_lon": 0.0, "lat": 38.928450166666664, "bike_id": "6196e147596e5a7cf9db039de3b8023f", "type": "electric_scooter", "is_reserved": 0, "lon": -77.01415233333333}, {"fusion_lat": 0.0, "name": "0b01294a5e34373b9167d7fc147b4038", "is_disabled": 0, "rental_uris": {"android": "https://dc.lft.to/lastmile_qr_scan", "ios": "https://dc.lft.to/lastmile_qr_scan"}, "fusion_lon": 0.0, "lat": 38.91728366666667, "bike_id": "0b01294a5e34373b9167d7fc147b4038", "type": "electric_scooter", "is_reserved": 0, "lon": -77.01902433333333}, {"fusion_lat": 0.0, "name": "9abecf97a3d0c836df9e59e0c2c3cf97", "is_disabled": 0, "rental_uris": {"android": "https://dc.lft.to/lastmile_qr_scan", "ios": "https://dc.lft.to/lastmile_qr_scan"}, "fusion_lon": 0.0, "lat": 38.8602125, "bike_id": "9abecf97a3d0c836df9e59e0c2c3cf97", "type": "electric_bike", "is_reserved": 0, "lon": -77.128067}, {"fusion_lat": 0.0, "name": "6b3ea7dd57826630e6dfd0c4a17a089d", "is_disabled": 0, "rental_uris": {"android": "https://dc.lft.to/lastmile_qr_scan", "ios": "https://dc.lft.to/lastmile_qr_scan"}, "fusion_lon": 0.0, "lat": 38.9308075, "bike_id": "6b3ea7dd57826630e6dfd0c4a17a089d", "type": "electric_scooter", "is_reserved": 0, "lon": -77.07764533333334}, {"fusion_lat": 0.0, "name": "7bb2d11fa0f37d2ee663b8c864773684", "is_disabled": 0, "rental_uris": {"android": "https://dc.lft.to/lastmile_qr_scan", "ios": "https://dc.lft.to/lastmile_qr_scan"}, "fusion_lon": 0.0, "lat": 38.9308305, "bike_id": "7bb2d11fa0f37d2ee663b8c864773684", "type": "electric_scooter", "is_reserved": 0, "lon": -77.0199825}, {"fusion_lat": 0.0, "name": "1d39e2e5e083006fa448488c608f6df2", "is_disabled": 0, "rental_uris": {"android": "https://dc.lft.to/lastmile_qr_scan", "ios": "https://dc.lft.to/lastmile_qr_scan"}, "fusion_lon": 0.0, "lat": 38.906018, "bike_id": "1d39e2e5e083006fa448488c608f6df2", "type": "electric_scooter", "is_reserved": 0, "lon": -77.0259295}, {"fusion_lat": 0.0, "name": "c1c6d013e17ee4b5cbb5f14f039f7c94", "is_disabled": 0, "rental_uris": {"android": "https://dc.lft.to/lastmile_qr_scan", "ios": "https://dc.lft.to/lastmile_qr_scan"}, "fusion_lon": 0.0, "lat": 38.884096166666666, "bike_id": "c1c6d013e17ee4b5cbb5f14f039f7c94", "type": "electric_scooter", "is_reserved": 0, "lon": -77.02959516666667}, {"fusion_lat": 0.0, "name": "de7db618b4ecb050c6ed8615a4902126", "is_disabled": 0, "rental_uris": {"android": "https://dc.lft.to/lastmile_qr_scan", "ios": "https://dc.lft.to/lastmile_qr_scan"}, "fusion_lon": 0.0, "lat": 38.895987166666664, "bike_id": "de7db618b4ecb050c6ed8615a4902126", "type": "electric_scooter", "is_reserved": 0, "lon": -77.02309966666667}, {"fusion_lat": 0.0, "name": "a877136349f7fbd5e94f1ad714204751", "is_disabled": 0, "rental_uris": {"android": "https://dc.lft.to/lastmile_qr_scan", "ios": "https://dc.lft.to/lastmile_qr_scan"}, "fusion_lon": 0.0, "lat": 38.904285333333334, "bike_id": "a877136349f7fbd5e94f1ad714204751", "type": "electric_scooter", "is_reserved": 0, "lon": -76.97951083333334}, {"fusion_lat": 0.0, "name": "7187bb798807d1c1ec697a11ef222f8f", "is_disabled": 0, "rental_uris": {"android": "https://dc.lft.to/lastmile_qr_scan", "ios": "https://dc.lft.to/lastmile_qr_scan"}, "fusion_lon": 0.0, "lat": 38.83604316666667, "bike_id": "7187bb798807d1c1ec697a11ef222f8f", "type": "electric_bike", "is_reserved": 0, "lon": -77.00376933333334}, {"fusion_lat": 0.0, "name": "6c7edcf785d396f508f0e9ed0a35e11f", "is_disabled": 0, "rental_uris": {"android": "https://dc.lft.to/lastmile_qr_scan", "ios": "https://dc.lft.to/lastmile_qr_scan"}, "fusion_lon": 0.0, "lat": 38.89763083333333, "bike_id": "6c7edcf785d396f508f0e9ed0a35e11f", "type": "electric_scooter", "is_reserved": 0, "lon": -77.02594816666667}, {"fusion_lat": 0.0, "name": "099c89824f2bdff19989d176e44a12d2", "is_disabled": 0, "rental_uris": {"android": "https://dc.lft.to/lastmile_qr_scan", "ios": "https://dc.lft.to/lastmile_qr_scan"}, "fusion_lon": 0.0, "lat": 38.9351225, "bike_id": "099c89824f2bdff19989d176e44a12d2", "type": "electric_scooter", "is_reserved": 0, "lon": -77.03289433333333}, {"fusion_lat": 0.0, "name": "69737232995eedb9610680e11fc7ccbc", "is_disabled": 0, "rental_uris": {"android": "https://dc.lft.to/lastmile_qr_scan", "ios": "https://dc.lft.to/lastmile_qr_scan"}, "fusion_lon": 0.0, "lat": 38.918042, "bike_id": "69737232995eedb9610680e11fc7ccbc", "type": "electric_scooter", "is_reserved": 0, "lon": -77.040168}, {"fusion_lat": 0.0, "name": "ae5c18a96f7478a415fe068d8aedcc7e", "is_disabled": 0, "rental_uris": {"android": "https://dc.lft.to/lastmile_qr_scan", "ios": "https://dc.lft.to/lastmile_qr_scan"}, "fusion_lon": 0.0, "lat": 38.9218285, "bike_id": "ae5c18a96f7478a415fe068d8aedcc7e", "type": "electric_scooter", "is_reserved": 0, "lon": -77.02658783333334}, {"fusion_lat": 0.0, "name": "3e9e54f730259613a2ddf6ae71fb832c", "is_disabled": 0, "rental_uris": {"android": "https://dc.lft.to/lastmile_qr_scan", "ios": "https://dc.lft.to/lastmile_qr_scan"}, "fusion_lon": 0.0, "lat": 38.92990483333333, "bike_id": "3e9e54f730259613a2ddf6ae71fb832c", "type": "electric_scooter", "is_reserved": 0, "lon": -77.03474816666666}, {"fusion_lat": 0.0, "name": "1837f4cdac4dc732f6834a2995ec5881", "is_disabled": 0, "rental_uris": {"android": "https://dc.lft.to/lastmile_qr_scan", "ios": "https://dc.lft.to/lastmile_qr_scan"}, "fusion_lon": 0.0, "lat": 38.90360483333333, "bike_id": "1837f4cdac4dc732f6834a2995ec5881", "type": "electric_scooter", "is_reserved": 0, "lon": -77.033985}, {"fusion_lat": 0.0, "name": "0476d60f992cb8fa21ee458bbd0aedf3", "is_disabled": 0, "rental_uris": {"android": "https://dc.lft.to/lastmile_qr_scan", "ios": "https://dc.lft.to/lastmile_qr_scan"}, "fusion_lon": 0.0, "lat": 38.921267, "bike_id": "0476d60f992cb8fa21ee458bbd0aedf3", "type": "electric_scooter", "is_reserved": 0, "lon": -77.04427133333333}, {"fusion_lat": 0.0, "name": "131a655aff3d9acd9eefa1fed43acafd", "is_disabled": 0, "rental_uris": {"android": "https://dc.lft.to/lastmile_qr_scan", "ios": "https://dc.lft.to/lastmile_qr_scan"}, "fusion_lon": 0.0, "lat": 38.8745805, "bike_id": "131a655aff3d9acd9eefa1fed43acafd", "type": "electric_scooter", "is_reserved": 0, "lon": -77.004179}, {"fusion_lat": 0.0, "name": "e7400724fdd957c9396aba19e7e14000", "is_disabled": 0, "rental_uris": {"android": "https://dc.lft.to/lastmile_qr_scan", "ios": "https://dc.lft.to/lastmile_qr_scan"}, "fusion_lon": 0.0, "lat": 38.90800266666667, "bike_id": "e7400724fdd957c9396aba19e7e14000", "type": "electric_scooter", "is_reserved": 0, "lon": -77.04326866666666}, {"fusion_lat": 0.0, "name": "604358560d45ede219c5e5e076a082ba", "is_disabled": 0, "rental_uris": {"android": "https://dc.lft.to/lastmile_qr_scan", "ios": "https://dc.lft.to/lastmile_qr_scan"}, "fusion_lon": 0.0, "lat": 38.930774, "bike_id": "604358560d45ede219c5e5e076a082ba", "type": "electric_scooter", "is_reserved": 0, "lon": -77.03157}, {"fusion_lat": 0.0, "name": "8293cef2650a824d4cfbe1d8c0c530a3", "is_disabled": 0, "rental_uris": {"android": "https://dc.lft.to/lastmile_qr_scan", "ios": "https://dc.lft.to/lastmile_qr_scan"}, "fusion_lon": 0.0, "lat": 38.924592, "bike_id": "8293cef2650a824d4cfbe1d8c0c530a3", "type": "electric_scooter", "is_reserved": 0, "lon": -77.03942383333333}, {"fusion_lat": 0.0, "name": "93977e53a275e7ac39d2f703ec68e831", "is_disabled": 0, "rental_uris": {"android": "https://dc.lft.to/lastmile_qr_scan", "ios": "https://dc.lft.to/lastmile_qr_scan"}, "fusion_lon": 0.0, "lat": 38.93872316666667, "bike_id": "93977e53a275e7ac39d2f703ec68e831", "type": "electric_scooter", "is_reserved": 0, "lon": -77.029153}, {"fusion_lat": 0.0, "name": "54ab185656c4331801ea68026abe98d7", "is_disabled": 0, "rental_uris": {"android": "https://dc.lft.to/lastmile_qr_scan", "ios": "https://dc.lft.to/lastmile_qr_scan"}, "fusion_lon": 0.0, "lat": 38.89899833333333, "bike_id": "54ab185656c4331801ea68026abe98d7", "type": "electric_scooter", "is_reserved": 0, "lon": -77.02174}, {"fusion_lat": 0.0, "name": "99f69365982d19c458309d6daac784da", "is_disabled": 0, "rental_uris": {"android": "https://dc.lft.to/lastmile_qr_scan", "ios": "https://dc.lft.to/lastmile_qr_scan"}, "fusion_lon": 0.0, "lat": 38.89230416666667, "bike_id": "99f69365982d19c458309d6daac784da", "type": "electric_scooter", "is_reserved": 0, "lon": -77.05001883333334}, {"fusion_lat": 0.0, "name": "0a6d35857a4ae9d3bccc5f4c0042d156", "is_disabled": 0, "rental_uris": {"android": "https://dc.lft.to/lastmile_qr_scan", "ios": "https://dc.lft.to/lastmile_qr_scan"}, "fusion_lon": 0.0, "lat": 38.9203135, "bike_id": "0a6d35857a4ae9d3bccc5f4c0042d156", "type": "electric_scooter", "is_reserved": 0, "lon": -76.98994716666667}, {"fusion_lat": 0.0, "name": "0bdedbf59f0484cdbbea4e6ac86d4411", "is_disabled": 0, "rental_uris": {"android": "https://dc.lft.to/lastmile_qr_scan", "ios": "https://dc.lft.to/lastmile_qr_scan"}, "fusion_lon": 0.0, "lat": 38.9595945, "bike_id": "0bdedbf59f0484cdbbea4e6ac86d4411", "type": "electric_bike", "is_reserved": 0, "lon": -77.0305725}, {"fusion_lat": 0.0, "name": "b5707413612ed0629203fa9e4ad04810", "is_disabled": 0, "rental_uris": {"android": "https://dc.lft.to/lastmile_qr_scan", "ios": "https://dc.lft.to/lastmile_qr_scan"}, "fusion_lon": 0.0, "lat": 38.92051716666667, "bike_id": "b5707413612ed0629203fa9e4ad04810", "type": "electric_scooter", "is_reserved": 0, "lon": -77.03406716666667}, {"fusion_lat": 0.0, "name": "d29be7649f531e21076368774a22f0da", "is_disabled": 0, "rental_uris": {"android": "https://dc.lft.to/lastmile_qr_scan", "ios": "https://dc.lft.to/lastmile_qr_scan"}, "fusion_lon": 0.0, "lat": 38.905268666666665, "bike_id": "d29be7649f531e21076368774a22f0da", "type": "electric_scooter", "is_reserved": 0, "lon": -77.04287083333334}, {"fusion_lat": 0.0, "name": "cf45fdb4f6fd68bbbe9d95abb208ae2b", "is_disabled": 0, "rental_uris": {"android": "https://dc.lft.to/lastmile_qr_scan", "ios": "https://dc.lft.to/lastmile_qr_scan"}, "fusion_lon": 0.0, "lat": 38.93449116666667, "bike_id": "cf45fdb4f6fd68bbbe9d95abb208ae2b", "type": "electric_scooter", "is_reserved": 0, "lon": -77.03870366666666}, {"fusion_lat": 0.0, "name": "a5f49b0d56890e403e7e59331a555f0e", "is_disabled": 0, "rental_uris": {"android": "https://dc.lft.to/lastmile_qr_scan", "ios": "https://dc.lft.to/lastmile_qr_scan"}, "fusion_lon": 0.0, "lat": 38.91432866666667, "bike_id": "a5f49b0d56890e403e7e59331a555f0e", "type": "electric_scooter", "is_reserved": 0, "lon": -77.0281335}, {"fusion_lat": 0.0, "name": "9b9322a9e7edcbe0f1e1e7579c7558d7", "is_disabled": 0, "rental_uris": {"android": "https://dc.lft.to/lastmile_qr_scan", "ios": "https://dc.lft.to/lastmile_qr_scan"}, "fusion_lon": 0.0, "lat": 38.914107, "bike_id": "9b9322a9e7edcbe0f1e1e7579c7558d7", "type": "electric_scooter", "is_reserved": 0, "lon": -77.02481983333334}, {"fusion_lat": 0.0, "name": "6e97681a85c11f1f5685a22d02cbd744", "is_disabled": 0, "rental_uris": {"android": "https://dc.lft.to/lastmile_qr_scan", "ios": "https://dc.lft.to/lastmile_qr_scan"}, "fusion_lon": 0.0, "lat": 38.96235866666667, "bike_id": "6e97681a85c11f1f5685a22d02cbd744", "type": "electric_bike", "is_reserved": 0, "lon": -76.9280035}, {"fusion_lat": 0.0, "name": "2298e395c1dbbddc2ca9e7ce0908fecc", "is_disabled": 0, "rental_uris": {"android": "https://dc.lft.to/lastmile_qr_scan", "ios": "https://dc.lft.to/lastmile_qr_scan"}, "fusion_lon": 0.0, "lat": 38.92792633333333, "bike_id": "2298e395c1dbbddc2ca9e7ce0908fecc", "type": "electric_scooter", "is_reserved": 0, "lon": -77.05314366666667}, {"fusion_lat": 0.0, "name": "2998c4576276975bda8f4cf99127b033", "is_disabled": 0, "rental_uris": {"android": "https://dc.lft.to/lastmile_qr_scan", "ios": "https://dc.lft.to/lastmile_qr_scan"}, "fusion_lon": 0.0, "lat": 38.900112666666665, "bike_id": "2998c4576276975bda8f4cf99127b033", "type": "electric_scooter", "is_reserved": 0, "lon": -77.02286533333333}, {"fusion_lat": 0.0, "name": "98fcd2c49f266b863101aa69ad91a27f", "is_disabled": 0, "rental_uris": {"android": "https://dc.lft.to/lastmile_qr_scan", "ios": "https://dc.lft.to/lastmile_qr_scan"}, "fusion_lon": 0.0, "lat": 38.91929983333333, "bike_id": "98fcd2c49f266b863101aa69ad91a27f", "type": "electric_scooter", "is_reserved": 0, "lon": -77.034483}, {"fusion_lat": 0.0, "name": "b6aa4f52182ace384d069b0989861331", "is_disabled": 0, "rental_uris": {"android": "https://dc.lft.to/lastmile_qr_scan", "ios": "https://dc.lft.to/lastmile_qr_scan"}, "fusion_lon": 0.0, "lat": 38.91399366666667, "bike_id": "b6aa4f52182ace384d069b0989861331", "type": "electric_scooter", "is_reserved": 0, "lon": -77.0318325}, {"fusion_lat": 0.0, "name": "d478e1ed519745da508b1bfc8f67daa7", "is_disabled": 0, "rental_uris": {"android": "https://dc.lft.to/lastmile_qr_scan", "ios": "https://dc.lft.to/lastmile_qr_scan"}, "fusion_lon": 0.0, "lat": 38.91119366666667, "bike_id": "d478e1ed519745da508b1bfc8f67daa7", "type": "electric_scooter", "is_reserved": 0, "lon": -77.038264}, {"fusion_lat": 0.0, "name": "04581b8927396fe0ab9a58be81d468f9", "is_disabled": 0, "rental_uris": {"android": "https://dc.lft.to/lastmile_qr_scan", "ios": "https://dc.lft.to/lastmile_qr_scan"}, "fusion_lon": 0.0, "lat": 38.946839833333335, "bike_id": "04581b8927396fe0ab9a58be81d468f9", "type": "electric_bike", "is_reserved": 0, "lon": -76.95671316666666}, {"fusion_lat": 0.0, "name": "fe31462b599eb9b10e27ff839787eec9", "is_disabled": 0, "rental_uris": {"android": "https://dc.lft.to/lastmile_qr_scan", "ios": "https://dc.lft.to/lastmile_qr_scan"}, "fusion_lon": 0.0, "lat": 38.909781, "bike_id": "fe31462b599eb9b10e27ff839787eec9", "type": "electric_scooter", "is_reserved": 0, "lon": -77.03421166666666}, {"fusion_lat": 0.0, "name": "1c43d48af9d9bb524570d764b056968f", "is_disabled": 0, "rental_uris": {"android": "https://dc.lft.to/lastmile_qr_scan", "ios": "https://dc.lft.to/lastmile_qr_scan"}, "fusion_lon": 0.0, "lat": 38.819142166666666, "bike_id": "1c43d48af9d9bb524570d764b056968f", "type": "electric_bike", "is_reserved": 0, "lon": -77.0479645}, {"fusion_lat": 0.0, "name": "1ea725d8c615ef48bc640c77816eaed6", "is_disabled": 0, "rental_uris": {"android": "https://dc.lft.to/lastmile_qr_scan", "ios": "https://dc.lft.to/lastmile_qr_scan"}, "fusion_lon": 0.0, "lat": 38.90575, "bike_id": "1ea725d8c615ef48bc640c77816eaed6", "type": "electric_scooter", "is_reserved": 0, "lon": -77.020923}, {"fusion_lat": 0.0, "name": "c96327c18583cd9b712a796e36bc81d5", "is_disabled": 0, "rental_uris": {"android": "https://dc.lft.to/lastmile_qr_scan", "ios": "https://dc.lft.to/lastmile_qr_scan"}, "fusion_lon": 0.0, "lat": 38.8124375, "bike_id": "c96327c18583cd9b712a796e36bc81d5", "type": "electric_bike", "is_reserved": 0, "lon": -77.117731}, {"fusion_lat": 0.0, "name": "2bd2297cdbcdc1e9799bdaee7f5d48e7", "is_disabled": 0, "rental_uris": {"android": "https://dc.lft.to/lastmile_qr_scan", "ios": "https://dc.lft.to/lastmile_qr_scan"}, "fusion_lon": 0.0, "lat": 38.883041666666664, "bike_id": "2bd2297cdbcdc1e9799bdaee7f5d48e7", "type": "electric_scooter", "is_reserved": 0, "lon": -76.94855783333334}, {"fusion_lat": 0.0, "name": "11c2d056f7c65b433b35177e23c2c6ca", "is_disabled": 0, "rental_uris": {"android": "https://dc.lft.to/lastmile_qr_scan", "ios": "https://dc.lft.to/lastmile_qr_scan"}, "fusion_lon": 0.0, "lat": 38.917088666666665, "bike_id": "11c2d056f7c65b433b35177e23c2c6ca", "type": "electric_scooter", "is_reserved": 0, "lon": -77.03879883333333}, {"fusion_lat": 0.0, "name": "e6b974b0170ab01017b3ab32fde73d88", "is_disabled": 0, "rental_uris": {"android": "https://dc.lft.to/lastmile_qr_scan", "ios": "https://dc.lft.to/lastmile_qr_scan"}, "fusion_lon": 0.0, "lat": 38.927166166666666, "bike_id": "e6b974b0170ab01017b3ab32fde73d88", "type": "electric_scooter", "is_reserved": 0, "lon": -77.03063216666666}, {"fusion_lat": 0.0, "name": "9bcad3b97367890a6e3050a7cfbcedd2", "is_disabled": 0, "rental_uris": {"android": "https://dc.lft.to/lastmile_qr_scan", "ios": "https://dc.lft.to/lastmile_qr_scan"}, "fusion_lon": 0.0, "lat": 38.89108216666666, "bike_id": "9bcad3b97367890a6e3050a7cfbcedd2", "type": "electric_scooter", "is_reserved": 0, "lon": -76.99620033333333}, {"fusion_lat": 0.0, "name": "45110f88c759fd13f227c690657d1f39", "is_disabled": 0, "rental_uris": {"android": "https://dc.lft.to/lastmile_qr_scan", "ios": "https://dc.lft.to/lastmile_qr_scan"}, "fusion_lon": 0.0, "lat": 38.907309, "bike_id": "45110f88c759fd13f227c690657d1f39", "type": "electric_scooter", "is_reserved": 0, "lon": -76.93545383333333}, {"fusion_lat": 0.0, "name": "a4d06122e5084345264224f923f4d865", "is_disabled": 0, "rental_uris": {"android": "https://dc.lft.to/lastmile_qr_scan", "ios": "https://dc.lft.to/lastmile_qr_scan"}, "fusion_lon": 0.0, "lat": 38.807059833333334, "bike_id": "a4d06122e5084345264224f923f4d865", "type": "electric_bike", "is_reserved": 0, "lon": -77.061764}, {"fusion_lat": 0.0, "name": "73691fd771c31b5ba4b07235537b9f1d", "is_disabled": 0, "rental_uris": {"android": "https://dc.lft.to/lastmile_qr_scan", "ios": "https://dc.lft.to/lastmile_qr_scan"}, "fusion_lon": 0.0, "lat": 38.90384933333333, "bike_id": "73691fd771c31b5ba4b07235537b9f1d", "type": "electric_scooter", "is_reserved": 0, "lon": -77.068033}, {"fusion_lat": 0.0, "name": "ee204f585d3b9e393db3025143584542", "is_disabled": 0, "rental_uris": {"android": "https://dc.lft.to/lastmile_qr_scan", "ios": "https://dc.lft.to/lastmile_qr_scan"}, "fusion_lon": 0.0, "lat": 38.9223385, "bike_id": "ee204f585d3b9e393db3025143584542", "type": "electric_scooter", "is_reserved": 0, "lon": -77.04245716666667}, {"fusion_lat": 0.0, "name": "70e9c2eeb088485f46ea05d6c232172f", "is_disabled": 0, "rental_uris": {"android": "https://dc.lft.to/lastmile_qr_scan", "ios": "https://dc.lft.to/lastmile_qr_scan"}, "fusion_lon": 0.0, "lat": 38.925366333333336, "bike_id": "70e9c2eeb088485f46ea05d6c232172f", "type": "electric_scooter", "is_reserved": 0, "lon": -77.0075395}, {"fusion_lat": 0.0, "name": "55532d4e16efa3d31586305444078083", "is_disabled": 0, "rental_uris": {"android": "https://dc.lft.to/lastmile_qr_scan", "ios": "https://dc.lft.to/lastmile_qr_scan"}, "fusion_lon": 0.0, "lat": 38.890156833333336, "bike_id": "55532d4e16efa3d31586305444078083", "type": "electric_scooter", "is_reserved": 0, "lon": -76.93734016666667}, {"fusion_lat": 0.0, "name": "e0327207862e7f92ed03640b7ce8243b", "is_disabled": 0, "rental_uris": {"android": "https://dc.lft.to/lastmile_qr_scan", "ios": "https://dc.lft.to/lastmile_qr_scan"}, "fusion_lon": 0.0, "lat": 38.902161166666666, "bike_id": "e0327207862e7f92ed03640b7ce8243b", "type": "electric_scooter", "is_reserved": 0, "lon": -77.05065933333333}, {"fusion_lat": 0.0, "name": "74e64df1b628e041f917d409d91f91f5", "is_disabled": 0, "rental_uris": {"android": "https://dc.lft.to/lastmile_qr_scan", "ios": "https://dc.lft.to/lastmile_qr_scan"}, "fusion_lon": 0.0, "lat": 38.917083, "bike_id": "74e64df1b628e041f917d409d91f91f5", "type": "electric_scooter", "is_reserved": 0, "lon": -77.03470316666667}, {"fusion_lat": 0.0, "name": "64c79357e1309d6ebd2a9b35840f95e5", "is_disabled": 0, "rental_uris": {"android": "https://dc.lft.to/lastmile_qr_scan", "ios": "https://dc.lft.to/lastmile_qr_scan"}, "fusion_lon": 0.0, "lat": 38.89480283333333, "bike_id": "64c79357e1309d6ebd2a9b35840f95e5", "type": "electric_scooter", "is_reserved": 0, "lon": -77.02185583333333}, {"fusion_lat": 0.0, "name": "bb0e09f35dfbf46700d2652daef0cb64", "is_disabled": 0, "rental_uris": {"android": "https://dc.lft.to/lastmile_qr_scan", "ios": "https://dc.lft.to/lastmile_qr_scan"}, "fusion_lon": 0.0, "lat": 38.90262, "bike_id": "bb0e09f35dfbf46700d2652daef0cb64", "type": "electric_scooter", "is_reserved": 0, "lon": -77.0342805}, {"fusion_lat": 0.0, "name": "1b72e4ceb82d3143301216439d68e29e", "is_disabled": 0, "rental_uris": {"android": "https://dc.lft.to/lastmile_qr_scan", "ios": "https://dc.lft.to/lastmile_qr_scan"}, "fusion_lon": 0.0, "lat": 38.9111095, "bike_id": "1b72e4ceb82d3143301216439d68e29e", "type": "electric_scooter", "is_reserved": 0, "lon": -77.01002133333333}, {"fusion_lat": 0.0, "name": "927b6733fcce6cbbb320969b3f0c3b3a", "is_disabled": 0, "rental_uris": {"android": "https://dc.lft.to/lastmile_qr_scan", "ios": "https://dc.lft.to/lastmile_qr_scan"}, "fusion_lon": 0.0, "lat": 38.89608233333333, "bike_id": "927b6733fcce6cbbb320969b3f0c3b3a", "type": "electric_scooter", "is_reserved": 0, "lon": -76.98105683333333}, {"fusion_lat": 0.0, "name": "88674e8048ae9ba9bbfbd96c2d67a572", "is_disabled": 0, "rental_uris": {"android": "https://dc.lft.to/lastmile_qr_scan", "ios": "https://dc.lft.to/lastmile_qr_scan"}, "fusion_lon": 0.0, "lat": 38.9234245, "bike_id": "88674e8048ae9ba9bbfbd96c2d67a572", "type": "electric_scooter", "is_reserved": 0, "lon": -77.05177533333334}, {"fusion_lat": 0.0, "name": "1ce86aa2c74d9da49f1b1c02c4704976", "is_disabled": 0, "rental_uris": {"android": "https://dc.lft.to/lastmile_qr_scan", "ios": "https://dc.lft.to/lastmile_qr_scan"}, "fusion_lon": 0.0, "lat": 38.943342333333334, "bike_id": "1ce86aa2c74d9da49f1b1c02c4704976", "type": "electric_scooter", "is_reserved": 0, "lon": -77.01548716666667}, {"fusion_lat": 0.0, "name": "32e914df857b21c99e03ff0e77f8c31e", "is_disabled": 0, "rental_uris": {"android": "https://dc.lft.to/lastmile_qr_scan", "ios": "https://dc.lft.to/lastmile_qr_scan"}, "fusion_lon": 0.0, "lat": 38.8997315, "bike_id": "32e914df857b21c99e03ff0e77f8c31e", "type": "electric_scooter", "is_reserved": 0, "lon": -77.052636}, {"fusion_lat": 0.0, "name": "300565e7f27f83f4cb83bdf1b77b5a6d", "is_disabled": 0, "rental_uris": {"android": "https://dc.lft.to/lastmile_qr_scan", "ios": "https://dc.lft.to/lastmile_qr_scan"}, "fusion_lon": 0.0, "lat": 38.9078365, "bike_id": "300565e7f27f83f4cb83bdf1b77b5a6d", "type": "electric_scooter", "is_reserved": 0, "lon": -77.00011233333333}, {"fusion_lat": 0.0, "name": "df57da8fcce3ff51904ffefdd0413414", "is_disabled": 0, "rental_uris": {"android": "https://dc.lft.to/lastmile_qr_scan", "ios": "https://dc.lft.to/lastmile_qr_scan"}, "fusion_lon": 0.0, "lat": 38.92443316666667, "bike_id": "df57da8fcce3ff51904ffefdd0413414", "type": "electric_scooter", "is_reserved": 0, "lon": -77.0006885}, {"fusion_lat": 0.0, "name": "db0f7c83c025092c18782015ae480d25", "is_disabled": 0, "rental_uris": {"android": "https://dc.lft.to/lastmile_qr_scan", "ios": "https://dc.lft.to/lastmile_qr_scan"}, "fusion_lon": 0.0, "lat": 38.90014733333334, "bike_id": "db0f7c83c025092c18782015ae480d25", "type": "electric_scooter", "is_reserved": 0, "lon": -77.01181866666667}, {"fusion_lat": 0.0, "name": "370f84c6b9532594094189edb000d6c1", "is_disabled": 0, "rental_uris": {"android": "https://dc.lft.to/lastmile_qr_scan", "ios": "https://dc.lft.to/lastmile_qr_scan"}, "fusion_lon": 0.0, "lat": 38.887442666666665, "bike_id": "370f84c6b9532594094189edb000d6c1", "type": "electric_scooter", "is_reserved": 0, "lon": -77.00323666666667}, {"fusion_lat": 0.0, "name": "615bbad80fd5b9b9a7e2c6c10dad0c37", "is_disabled": 0, "rental_uris": {"android": "https://dc.lft.to/lastmile_qr_scan", "ios": "https://dc.lft.to/lastmile_qr_scan"}, "fusion_lon": 0.0, "lat": 38.89706233333333, "bike_id": "615bbad80fd5b9b9a7e2c6c10dad0c37", "type": "electric_scooter", "is_reserved": 0, "lon": -77.0275385}, {"fusion_lat": 0.0, "name": "3e26a82652209d036caef4bf8ef79371", "is_disabled": 0, "rental_uris": {"android": "https://dc.lft.to/lastmile_qr_scan", "ios": "https://dc.lft.to/lastmile_qr_scan"}, "fusion_lon": 0.0, "lat": 38.902932, "bike_id": "3e26a82652209d036caef4bf8ef79371", "type": "electric_scooter", "is_reserved": 0, "lon": -77.03942466666666}, {"fusion_lat": 0.0, "name": "553042ee09145756483cb7df703bc3da", "is_disabled": 0, "rental_uris": {"android": "https://dc.lft.to/lastmile_qr_scan", "ios": "https://dc.lft.to/lastmile_qr_scan"}, "fusion_lon": 0.0, "lat": 38.90634133333333, "bike_id": "553042ee09145756483cb7df703bc3da", "type": "electric_scooter", "is_reserved": 0, "lon": -77.02984766666667}, {"fusion_lat": 0.0, "name": "a406f8864f1fea7b0f7d669f608254f3", "is_disabled": 0, "rental_uris": {"android": "https://dc.lft.to/lastmile_qr_scan", "ios": "https://dc.lft.to/lastmile_qr_scan"}, "fusion_lon": 0.0, "lat": 38.8997095, "bike_id": "a406f8864f1fea7b0f7d669f608254f3", "type": "electric_scooter", "is_reserved": 0, "lon": -76.9870865}, {"fusion_lat": 0.0, "name": "a1c6a9186ec4fbfed389943378e86b46", "is_disabled": 0, "rental_uris": {"android": "https://dc.lft.to/lastmile_qr_scan", "ios": "https://dc.lft.to/lastmile_qr_scan"}, "fusion_lon": 0.0, "lat": 38.9207765, "bike_id": "a1c6a9186ec4fbfed389943378e86b46", "type": "electric_bike", "is_reserved": 0, "lon": -76.98946816666667}, {"fusion_lat": 0.0, "name": "4aacca16ba386e9147b981d748fada39", "is_disabled": 0, "rental_uris": {"android": "https://dc.lft.to/lastmile_qr_scan", "ios": "https://dc.lft.to/lastmile_qr_scan"}, "fusion_lon": 0.0, "lat": 38.892268, "bike_id": "4aacca16ba386e9147b981d748fada39", "type": "electric_scooter", "is_reserved": 0, "lon": -77.02267016666667}, {"fusion_lat": 0.0, "name": "9ba3ff125b1710a92f2a139a59497217", "is_disabled": 0, "rental_uris": {"android": "https://dc.lft.to/lastmile_qr_scan", "ios": "https://dc.lft.to/lastmile_qr_scan"}, "fusion_lon": 0.0, "lat": 38.920868, "bike_id": "9ba3ff125b1710a92f2a139a59497217", "type": "electric_scooter", "is_reserved": 0, "lon": -77.02538733333333}, {"fusion_lat": 0.0, "name": "08da86451ef9e9f61271c9dff67fd04c", "is_disabled": 0, "rental_uris": {"android": "https://dc.lft.to/lastmile_qr_scan", "ios": "https://dc.lft.to/lastmile_qr_scan"}, "fusion_lon": 0.0, "lat": 38.88745633333333, "bike_id": "08da86451ef9e9f61271c9dff67fd04c", "type": "electric_scooter", "is_reserved": 0, "lon": -77.01782916666667}, {"fusion_lat": 0.0, "name": "987ea4ba17c18e9b9d736d637b1c8ce5", "is_disabled": 0, "rental_uris": {"android": "https://dc.lft.to/lastmile_qr_scan", "ios": "https://dc.lft.to/lastmile_qr_scan"}, "fusion_lon": 0.0, "lat": 38.887293666666665, "bike_id": "987ea4ba17c18e9b9d736d637b1c8ce5", "type": "electric_scooter", "is_reserved": 0, "lon": -76.98354933333333}, {"fusion_lat": 0.0, "name": "14029a26ec4bb3c84d0dc76c904600ea", "is_disabled": 0, "rental_uris": {"android": "https://dc.lft.to/lastmile_qr_scan", "ios": "https://dc.lft.to/lastmile_qr_scan"}, "fusion_lon": 0.0, "lat": 38.90361733333334, "bike_id": "14029a26ec4bb3c84d0dc76c904600ea", "type": "electric_scooter", "is_reserved": 0, "lon": -77.0162205}, {"fusion_lat": 0.0, "name": "d97c0688b72fe3cff62af1c704eccdd8", "is_disabled": 0, "rental_uris": {"android": "https://dc.lft.to/lastmile_qr_scan", "ios": "https://dc.lft.to/lastmile_qr_scan"}, "fusion_lon": 0.0, "lat": 38.91991683333333, "bike_id": "d97c0688b72fe3cff62af1c704eccdd8", "type": "electric_scooter", "is_reserved": 0, "lon": -77.0328235}, {"fusion_lat": 0.0, "name": "ca9e38a400b85fb505e5b1e55a76d04d", "is_disabled": 0, "rental_uris": {"android": "https://dc.lft.to/lastmile_qr_scan", "ios": "https://dc.lft.to/lastmile_qr_scan"}, "fusion_lon": 0.0, "lat": 38.91565583333333, "bike_id": "ca9e38a400b85fb505e5b1e55a76d04d", "type": "electric_scooter", "is_reserved": 0, "lon": -77.01050533333333}, {"fusion_lat": 0.0, "name": "092b4b36b0317377cec8befcf0148a28", "is_disabled": 0, "rental_uris": {"android": "https://dc.lft.to/lastmile_qr_scan", "ios": "https://dc.lft.to/lastmile_qr_scan"}, "fusion_lon": 0.0, "lat": 38.91236416666667, "bike_id": "092b4b36b0317377cec8befcf0148a28", "type": "electric_scooter", "is_reserved": 0, "lon": -77.045176}, {"fusion_lat": 0.0, "name": "6c8cb504fe6dd5db1287946113761aec", "is_disabled": 0, "rental_uris": {"android": "https://dc.lft.to/lastmile_qr_scan", "ios": "https://dc.lft.to/lastmile_qr_scan"}, "fusion_lon": 0.0, "lat": 38.9287435, "bike_id": "6c8cb504fe6dd5db1287946113761aec", "type": "electric_scooter", "is_reserved": 0, "lon": -77.0332465}, {"fusion_lat": 0.0, "name": "2d5af67fadf5aafecb24b17c08c588cd", "is_disabled": 0, "rental_uris": {"android": "https://dc.lft.to/lastmile_qr_scan", "ios": "https://dc.lft.to/lastmile_qr_scan"}, "fusion_lon": 0.0, "lat": 38.91692483333333, "bike_id": "2d5af67fadf5aafecb24b17c08c588cd", "type": "electric_scooter", "is_reserved": 0, "lon": -77.02951316666666}, {"fusion_lat": 0.0, "name": "49efcf99b03bd5eba403da0913a181cb", "is_disabled": 0, "rental_uris": {"android": "https://dc.lft.to/lastmile_qr_scan", "ios": "https://dc.lft.to/lastmile_qr_scan"}, "fusion_lon": 0.0, "lat": 38.892219, "bike_id": "49efcf99b03bd5eba403da0913a181cb", "type": "electric_scooter", "is_reserved": 0, "lon": -76.95744816666667}, {"fusion_lat": 0.0, "name": "8244ad1cd71e38d4f17caee3df0a28ad", "is_disabled": 0, "rental_uris": {"android": "https://dc.lft.to/lastmile_qr_scan", "ios": "https://dc.lft.to/lastmile_qr_scan"}, "fusion_lon": 0.0, "lat": 38.91706583333333, "bike_id": "8244ad1cd71e38d4f17caee3df0a28ad", "type": "electric_scooter", "is_reserved": 0, "lon": -77.02399183333333}, {"fusion_lat": 0.0, "name": "56c261f6bbba6c0f0dec4759a51bf92b", "is_disabled": 0, "rental_uris": {"android": "https://dc.lft.to/lastmile_qr_scan", "ios": "https://dc.lft.to/lastmile_qr_scan"}, "fusion_lon": 0.0, "lat": 38.89579916666667, "bike_id": "56c261f6bbba6c0f0dec4759a51bf92b", "type": "electric_scooter", "is_reserved": 0, "lon": -76.983199}, {"fusion_lat": 0.0, "name": "e67a1d9d210e3ea57a7cd9357446d31c", "is_disabled": 0, "rental_uris": {"android": "https://dc.lft.to/lastmile_qr_scan", "ios": "https://dc.lft.to/lastmile_qr_scan"}, "fusion_lon": 0.0, "lat": 38.88764583333333, "bike_id": "e67a1d9d210e3ea57a7cd9357446d31c", "type": "electric_scooter", "is_reserved": 0, "lon": -76.95570316666667}, {"fusion_lat": 0.0, "name": "65260d1957cdce8e176217067c0a238d", "is_disabled": 0, "rental_uris": {"android": "https://dc.lft.to/lastmile_qr_scan", "ios": "https://dc.lft.to/lastmile_qr_scan"}, "fusion_lon": 0.0, "lat": 38.9336755, "bike_id": "65260d1957cdce8e176217067c0a238d", "type": "electric_scooter", "is_reserved": 0, "lon": -77.07310016666666}, {"fusion_lat": 0.0, "name": "688d50a7b4d9e563335cc6295b845760", "is_disabled": 0, "rental_uris": {"android": "https://dc.lft.to/lastmile_qr_scan", "ios": "https://dc.lft.to/lastmile_qr_scan"}, "fusion_lon": 0.0, "lat": 38.91930333333333, "bike_id": "688d50a7b4d9e563335cc6295b845760", "type": "electric_scooter", "is_reserved": 0, "lon": -77.04156516666667}, {"fusion_lat": 0.0, "name": "32ebf0839b0f0681c881ef7a74a35480", "is_disabled": 0, "rental_uris": {"android": "https://dc.lft.to/lastmile_qr_scan", "ios": "https://dc.lft.to/lastmile_qr_scan"}, "fusion_lon": 0.0, "lat": 38.963878, "bike_id": "32ebf0839b0f0681c881ef7a74a35480", "type": "electric_bike", "is_reserved": 0, "lon": -76.95038233333334}, {"fusion_lat": 0.0, "name": "9de32f6668d3bf6d577074ffecd5a0e0", "is_disabled": 0, "rental_uris": {"android": "https://dc.lft.to/lastmile_qr_scan", "ios": "https://dc.lft.to/lastmile_qr_scan"}, "fusion_lon": 0.0, "lat": 38.8829975, "bike_id": "9de32f6668d3bf6d577074ffecd5a0e0", "type": "electric_scooter", "is_reserved": 0, "lon": -76.9484845}, {"fusion_lat": 0.0, "name": "c947f598d8f3c6e379b77d5e21965ec8", "is_disabled": 0, "rental_uris": {"android": "https://dc.lft.to/lastmile_qr_scan", "ios": "https://dc.lft.to/lastmile_qr_scan"}, "fusion_lon": 0.0, "lat": 38.917088166666666, "bike_id": "c947f598d8f3c6e379b77d5e21965ec8", "type": "electric_scooter", "is_reserved": 0, "lon": -77.03234316666666}, {"fusion_lat": 0.0, "name": "3fe37129d93a2309602c9b73b1cded9b", "is_disabled": 0, "rental_uris": {"android": "https://dc.lft.to/lastmile_qr_scan", "ios": "https://dc.lft.to/lastmile_qr_scan"}, "fusion_lon": 0.0, "lat": 38.907742166666665, "bike_id": "3fe37129d93a2309602c9b73b1cded9b", "type": "electric_scooter", "is_reserved": 0, "lon": -77.03826466666666}, {"fusion_lat": 0.0, "name": "760c8057c206d36843bd860b53e626d0", "is_disabled": 0, "rental_uris": {"android": "https://dc.lft.to/lastmile_qr_scan", "ios": "https://dc.lft.to/lastmile_qr_scan"}, "fusion_lon": 0.0, "lat": 38.904047166666665, "bike_id": "760c8057c206d36843bd860b53e626d0", "type": "electric_bike", "is_reserved": 0, "lon": -77.0200125}, {"fusion_lat": 0.0, "name": "90f49955b165012c4a7a1251894c1fe9", "is_disabled": 0, "rental_uris": {"android": "https://dc.lft.to/lastmile_qr_scan", "ios": "https://dc.lft.to/lastmile_qr_scan"}, "fusion_lon": 0.0, "lat": 38.909117333333334, "bike_id": "90f49955b165012c4a7a1251894c1fe9", "type": "electric_scooter", "is_reserved": 0, "lon": -77.06415066666666}, {"fusion_lat": 0.0, "name": "0b900da569d8dcf73944d17a9be21143", "is_disabled": 0, "rental_uris": {"android": "https://dc.lft.to/lastmile_qr_scan", "ios": "https://dc.lft.to/lastmile_qr_scan"}, "fusion_lon": 0.0, "lat": 38.917101333333335, "bike_id": "0b900da569d8dcf73944d17a9be21143", "type": "electric_scooter", "is_reserved": 0, "lon": -77.03871416666667}, {"fusion_lat": 0.0, "name": "e9b89a10ed7a6f5c4833f9acd45bf762", "is_disabled": 0, "rental_uris": {"android": "https://dc.lft.to/lastmile_qr_scan", "ios": "https://dc.lft.to/lastmile_qr_scan"}, "fusion_lon": 0.0, "lat": 38.92690666666667, "bike_id": "e9b89a10ed7a6f5c4833f9acd45bf762", "type": "electric_scooter", "is_reserved": 0, "lon": -77.025403}, {"fusion_lat": 0.0, "name": "6f1902dbdfcaf32593f563cdc03f366d", "is_disabled": 0, "rental_uris": {"android": "https://dc.lft.to/lastmile_qr_scan", "ios": "https://dc.lft.to/lastmile_qr_scan"}, "fusion_lon": 0.0, "lat": 38.88666516666667, "bike_id": "6f1902dbdfcaf32593f563cdc03f366d", "type": "electric_scooter", "is_reserved": 0, "lon": -77.01988766666666}, {"fusion_lat": 0.0, "name": "582c4b77598b285c71338e02ea3a43ee", "is_disabled": 0, "rental_uris": {"android": "https://dc.lft.to/lastmile_qr_scan", "ios": "https://dc.lft.to/lastmile_qr_scan"}, "fusion_lon": 0.0, "lat": 38.9096295, "bike_id": "582c4b77598b285c71338e02ea3a43ee", "type": "electric_scooter", "is_reserved": 0, "lon": -77.04809383333334}, {"fusion_lat": 0.0, "name": "504dd88b9877e050f74ebab2348e865b", "is_disabled": 0, "rental_uris": {"android": "https://dc.lft.to/lastmile_qr_scan", "ios": "https://dc.lft.to/lastmile_qr_scan"}, "fusion_lon": 0.0, "lat": 38.9118665, "bike_id": "504dd88b9877e050f74ebab2348e865b", "type": "electric_scooter", "is_reserved": 0, "lon": -77.00250483333333}, {"fusion_lat": 0.0, "name": "81b34b8c00201e7bd3a2fc79bf400ff4", "is_disabled": 0, "rental_uris": {"android": "https://dc.lft.to/lastmile_qr_scan", "ios": "https://dc.lft.to/lastmile_qr_scan"}, "fusion_lon": 0.0, "lat": 38.88308333333333, "bike_id": "81b34b8c00201e7bd3a2fc79bf400ff4", "type": "electric_bike", "is_reserved": 0, "lon": -77.0156245}, {"fusion_lat": 0.0, "name": "6904e754d5f72675d1f57e1fef8a82ce", "is_disabled": 0, "rental_uris": {"android": "https://dc.lft.to/lastmile_qr_scan", "ios": "https://dc.lft.to/lastmile_qr_scan"}, "fusion_lon": 0.0, "lat": 38.85417783333333, "bike_id": "6904e754d5f72675d1f57e1fef8a82ce", "type": "electric_bike", "is_reserved": 0, "lon": -77.12074483333333}, {"fusion_lat": 0.0, "name": "f52fe80c8319147063f58fc0193e5fcd", "is_disabled": 0, "rental_uris": {"android": "https://dc.lft.to/lastmile_qr_scan", "ios": "https://dc.lft.to/lastmile_qr_scan"}, "fusion_lon": 0.0, "lat": 38.807591333333335, "bike_id": "f52fe80c8319147063f58fc0193e5fcd", "type": "electric_bike", "is_reserved": 0, "lon": -77.09450183333334}, {"fusion_lat": 0.0, "name": "a7f889ef53d1f681fd3ad7c2a90d1726", "is_disabled": 0, "rental_uris": {"android": "https://dc.lft.to/lastmile_qr_scan", "ios": "https://dc.lft.to/lastmile_qr_scan"}, "fusion_lon": 0.0, "lat": 38.924494333333335, "bike_id": "a7f889ef53d1f681fd3ad7c2a90d1726", "type": "electric_scooter", "is_reserved": 0, "lon": -77.03975633333333}, {"fusion_lat": 0.0, "name": "699f2e5b0bbc108b70a91c60527ef145", "is_disabled": 0, "rental_uris": {"android": "https://dc.lft.to/lastmile_qr_scan", "ios": "https://dc.lft.to/lastmile_qr_scan"}, "fusion_lon": 0.0, "lat": 38.90667216666667, "bike_id": "699f2e5b0bbc108b70a91c60527ef145", "type": "electric_scooter", "is_reserved": 0, "lon": -77.02688183333333}, {"fusion_lat": 0.0, "name": "21deaf0a967f2f1bd695c6e6c6ebb918", "is_disabled": 0, "rental_uris": {"android": "https://dc.lft.to/lastmile_qr_scan", "ios": "https://dc.lft.to/lastmile_qr_scan"}, "fusion_lon": 0.0, "lat": 38.921220166666664, "bike_id": "21deaf0a967f2f1bd695c6e6c6ebb918", "type": "electric_scooter", "is_reserved": 0, "lon": -77.04422983333333}, {"fusion_lat": 0.0, "name": "cc242bbe323aad35d5e70c15921581b1", "is_disabled": 0, "rental_uris": {"android": "https://dc.lft.to/lastmile_qr_scan", "ios": "https://dc.lft.to/lastmile_qr_scan"}, "fusion_lon": 0.0, "lat": 38.90075016666667, "bike_id": "cc242bbe323aad35d5e70c15921581b1", "type": "electric_bike", "is_reserved": 0, "lon": -77.03961166666667}, {"fusion_lat": 0.0, "name": "71673083dd2725765eab39207a46e031", "is_disabled": 0, "rental_uris": {"android": "https://dc.lft.to/lastmile_qr_scan", "ios": "https://dc.lft.to/lastmile_qr_scan"}, "fusion_lon": 0.0, "lat": 38.909391666666664, "bike_id": "71673083dd2725765eab39207a46e031", "type": "electric_scooter", "is_reserved": 0, "lon": -77.0270085}, {"fusion_lat": 0.0, "name": "e464640942177c91e4e0eb627af96cb0", "is_disabled": 0, "rental_uris": {"android": "https://dc.lft.to/lastmile_qr_scan", "ios": "https://dc.lft.to/lastmile_qr_scan"}, "fusion_lon": 0.0, "lat": 38.88743083333333, "bike_id": "e464640942177c91e4e0eb627af96cb0", "type": "electric_scooter", "is_reserved": 0, "lon": -77.02131516666667}, {"fusion_lat": 0.0, "name": "bfbb8fa125ec798ad97aa24aa39e6963", "is_disabled": 0, "rental_uris": {"android": "https://dc.lft.to/lastmile_qr_scan", "ios": "https://dc.lft.to/lastmile_qr_scan"}, "fusion_lon": 0.0, "lat": 38.958915166666664, "bike_id": "bfbb8fa125ec798ad97aa24aa39e6963", "type": "electric_scooter", "is_reserved": 0, "lon": -77.00282116666666}, {"fusion_lat": 0.0, "name": "42558b987cd02e60ab4f2c8ba525e02f", "is_disabled": 0, "rental_uris": {"android": "https://dc.lft.to/lastmile_qr_scan", "ios": "https://dc.lft.to/lastmile_qr_scan"}, "fusion_lon": 0.0, "lat": 38.89950316666667, "bike_id": "42558b987cd02e60ab4f2c8ba525e02f", "type": "electric_scooter", "is_reserved": 0, "lon": -77.02191483333333}, {"fusion_lat": 0.0, "name": "d80a3463c08091ff2d7590815e2afbda", "is_disabled": 0, "rental_uris": {"android": "https://dc.lft.to/lastmile_qr_scan", "ios": "https://dc.lft.to/lastmile_qr_scan"}, "fusion_lon": 0.0, "lat": 38.92406883333334, "bike_id": "d80a3463c08091ff2d7590815e2afbda", "type": "electric_scooter", "is_reserved": 0, "lon": -77.05164183333333}, {"fusion_lat": 0.0, "name": "2f2723e44f63b53c03f381f7cc55b194", "is_disabled": 0, "rental_uris": {"android": "https://dc.lft.to/lastmile_qr_scan", "ios": "https://dc.lft.to/lastmile_qr_scan"}, "fusion_lon": 0.0, "lat": 38.91551966666667, "bike_id": "2f2723e44f63b53c03f381f7cc55b194", "type": "electric_scooter", "is_reserved": 0, "lon": -77.02984016666667}, {"fusion_lat": 0.0, "name": "ad0d8cc7f074464559d92be261796daa", "is_disabled": 0, "rental_uris": {"android": "https://dc.lft.to/lastmile_qr_scan", "ios": "https://dc.lft.to/lastmile_qr_scan"}, "fusion_lon": 0.0, "lat": 38.908465666666665, "bike_id": "ad0d8cc7f074464559d92be261796daa", "type": "electric_scooter", "is_reserved": 0, "lon": -76.997679}, {"fusion_lat": 0.0, "name": "c8b0b5c7043fb5198420dc27a06f4456", "is_disabled": 0, "rental_uris": {"android": "https://dc.lft.to/lastmile_qr_scan", "ios": "https://dc.lft.to/lastmile_qr_scan"}, "fusion_lon": 0.0, "lat": 38.9230275, "bike_id": "c8b0b5c7043fb5198420dc27a06f4456", "type": "electric_scooter", "is_reserved": 0, "lon": -77.04141233333333}, {"fusion_lat": 0.0, "name": "5bd79df7a52d9fe995fcbf482e3896bd", "is_disabled": 0, "rental_uris": {"android": "https://dc.lft.to/lastmile_qr_scan", "ios": "https://dc.lft.to/lastmile_qr_scan"}, "fusion_lon": 0.0, "lat": 38.91709016666667, "bike_id": "5bd79df7a52d9fe995fcbf482e3896bd", "type": "electric_scooter", "is_reserved": 0, "lon": -77.02423116666667}, {"fusion_lat": 0.0, "name": "01a7049756be1f410de4a42c0ff09cdc", "is_disabled": 0, "rental_uris": {"android": "https://dc.lft.to/lastmile_qr_scan", "ios": "https://dc.lft.to/lastmile_qr_scan"}, "fusion_lon": 0.0, "lat": 38.9191515, "bike_id": "01a7049756be1f410de4a42c0ff09cdc", "type": "electric_scooter", "is_reserved": 0, "lon": -77.02816083333333}, {"fusion_lat": 0.0, "name": "ab72575883048ab5efb2f565a4e86c74", "is_disabled": 0, "rental_uris": {"android": "https://dc.lft.to/lastmile_qr_scan", "ios": "https://dc.lft.to/lastmile_qr_scan"}, "fusion_lon": 0.0, "lat": 38.9014985, "bike_id": "ab72575883048ab5efb2f565a4e86c74", "type": "electric_scooter", "is_reserved": 0, "lon": -76.93062716666667}, {"fusion_lat": 0.0, "name": "04b25ec329b2d49da6975998bbaf35b0", "is_disabled": 0, "rental_uris": {"android": "https://dc.lft.to/lastmile_qr_scan", "ios": "https://dc.lft.to/lastmile_qr_scan"}, "fusion_lon": 0.0, "lat": 38.92234933333334, "bike_id": "04b25ec329b2d49da6975998bbaf35b0", "type": "electric_scooter", "is_reserved": 0, "lon": -77.04240066666667}, {"fusion_lat": 0.0, "name": "7110fdf457b7771eda3223c0880bb090", "is_disabled": 0, "rental_uris": {"android": "https://dc.lft.to/lastmile_qr_scan", "ios": "https://dc.lft.to/lastmile_qr_scan"}, "fusion_lon": 0.0, "lat": 38.91420216666667, "bike_id": "7110fdf457b7771eda3223c0880bb090", "type": "electric_scooter", "is_reserved": 0, "lon": -77.02817866666666}, {"fusion_lat": 0.0, "name": "b0dc78008d013998de2c65388d0a7fa4", "is_disabled": 0, "rental_uris": {"android": "https://dc.lft.to/lastmile_qr_scan", "ios": "https://dc.lft.to/lastmile_qr_scan"}, "fusion_lon": 0.0, "lat": 38.928668, "bike_id": "b0dc78008d013998de2c65388d0a7fa4", "type": "electric_scooter", "is_reserved": 0, "lon": -77.03445583333334}, {"fusion_lat": 0.0, "name": "040962b0461791519126b4b3da9cdec8", "is_disabled": 0, "rental_uris": {"android": "https://dc.lft.to/lastmile_qr_scan", "ios": "https://dc.lft.to/lastmile_qr_scan"}, "fusion_lon": 0.0, "lat": 38.961287, "bike_id": "040962b0461791519126b4b3da9cdec8", "type": "electric_bike", "is_reserved": 0, "lon": -77.03268133333333}, {"fusion_lat": 0.0, "name": "74e89847ce55f5fa3586fd4434b70fee", "is_disabled": 0, "rental_uris": {"android": "https://dc.lft.to/lastmile_qr_scan", "ios": "https://dc.lft.to/lastmile_qr_scan"}, "fusion_lon": 0.0, "lat": 38.93573033333333, "bike_id": "74e89847ce55f5fa3586fd4434b70fee", "type": "electric_bike", "is_reserved": 0, "lon": -77.037383}, {"fusion_lat": 0.0, "name": "23f1ff0fab2e0f155716d7254f0dd2f0", "is_disabled": 0, "rental_uris": {"android": "https://dc.lft.to/lastmile_qr_scan", "ios": "https://dc.lft.to/lastmile_qr_scan"}, "fusion_lon": 0.0, "lat": 38.92215066666667, "bike_id": "23f1ff0fab2e0f155716d7254f0dd2f0", "type": "electric_scooter", "is_reserved": 0, "lon": -77.0423495}, {"fusion_lat": 0.0, "name": "097c4cf4b051a2ed2558b70dd361ffd9", "is_disabled": 0, "rental_uris": {"android": "https://dc.lft.to/lastmile_qr_scan", "ios": "https://dc.lft.to/lastmile_qr_scan"}, "fusion_lon": 0.0, "lat": 38.905629833333336, "bike_id": "097c4cf4b051a2ed2558b70dd361ffd9", "type": "electric_scooter", "is_reserved": 0, "lon": -77.046579}, {"fusion_lat": 0.0, "name": "61ff4b0325747914977471acff8d1250", "is_disabled": 0, "rental_uris": {"android": "https://dc.lft.to/lastmile_qr_scan", "ios": "https://dc.lft.to/lastmile_qr_scan"}, "fusion_lon": 0.0, "lat": 38.90625416666666, "bike_id": "61ff4b0325747914977471acff8d1250", "type": "electric_scooter", "is_reserved": 0, "lon": -77.00588916666666}, {"fusion_lat": 0.0, "name": "c93ad3e13f89000efdf0c5b1cae78860", "is_disabled": 0, "rental_uris": {"android": "https://dc.lft.to/lastmile_qr_scan", "ios": "https://dc.lft.to/lastmile_qr_scan"}, "fusion_lon": 0.0, "lat": 38.95802583333333, "bike_id": "c93ad3e13f89000efdf0c5b1cae78860", "type": "electric_bike", "is_reserved": 0, "lon": -76.96044633333334}, {"fusion_lat": 0.0, "name": "030c0382e8e545436c0786aa1b0c7ca2", "is_disabled": 0, "rental_uris": {"android": "https://dc.lft.to/lastmile_qr_scan", "ios": "https://dc.lft.to/lastmile_qr_scan"}, "fusion_lon": 0.0, "lat": 38.934439166666664, "bike_id": "030c0382e8e545436c0786aa1b0c7ca2", "type": "electric_bike", "is_reserved": 0, "lon": -77.027217}, {"fusion_lat": 0.0, "name": "8f4fa82f79b4067c11eb936896b952d3", "is_disabled": 0, "rental_uris": {"android": "https://dc.lft.to/lastmile_qr_scan", "ios": "https://dc.lft.to/lastmile_qr_scan"}, "fusion_lon": 0.0, "lat": 38.89851683333333, "bike_id": "8f4fa82f79b4067c11eb936896b952d3", "type": "electric_scooter", "is_reserved": 0, "lon": -77.03379466666667}, {"fusion_lat": 0.0, "name": "6c7b60a8a339441a8d60d1f8d8e9e1bc", "is_disabled": 0, "rental_uris": {"android": "https://dc.lft.to/lastmile_qr_scan", "ios": "https://dc.lft.to/lastmile_qr_scan"}, "fusion_lon": 0.0, "lat": 38.9155335, "bike_id": "6c7b60a8a339441a8d60d1f8d8e9e1bc", "type": "electric_scooter", "is_reserved": 0, "lon": -77.02140033333333}, {"fusion_lat": 0.0, "name": "7d01fb207c2fa8177448539fefbcc503", "is_disabled": 0, "rental_uris": {"android": "https://dc.lft.to/lastmile_qr_scan", "ios": "https://dc.lft.to/lastmile_qr_scan"}, "fusion_lon": 0.0, "lat": 38.92495683333333, "bike_id": "7d01fb207c2fa8177448539fefbcc503", "type": "electric_scooter", "is_reserved": 0, "lon": -77.052224}, {"fusion_lat": 0.0, "name": "356c6db9db5b99c6bd4efb90602ca4b5", "is_disabled": 0, "rental_uris": {"android": "https://dc.lft.to/lastmile_qr_scan", "ios": "https://dc.lft.to/lastmile_qr_scan"}, "fusion_lon": 0.0, "lat": 38.9156535, "bike_id": "356c6db9db5b99c6bd4efb90602ca4b5", "type": "electric_scooter", "is_reserved": 0, "lon": -77.04380566666667}, {"fusion_lat": 0.0, "name": "eb471d3986d5bcadeabbd42bf469b442", "is_disabled": 0, "rental_uris": {"android": "https://dc.lft.to/lastmile_qr_scan", "ios": "https://dc.lft.to/lastmile_qr_scan"}, "fusion_lon": 0.0, "lat": 38.92109, "bike_id": "eb471d3986d5bcadeabbd42bf469b442", "type": "electric_scooter", "is_reserved": 0, "lon": -77.01770383333333}, {"fusion_lat": 0.0, "name": "131bb8595754f0bc9d07907b49a85f2a", "is_disabled": 0, "rental_uris": {"android": "https://dc.lft.to/lastmile_qr_scan", "ios": "https://dc.lft.to/lastmile_qr_scan"}, "fusion_lon": 0.0, "lat": 38.908484, "bike_id": "131bb8595754f0bc9d07907b49a85f2a", "type": "electric_scooter", "is_reserved": 0, "lon": -77.04666433333334}, {"fusion_lat": 0.0, "name": "1816e6b2fe5be0de9fa4b47a4e8255b9", "is_disabled": 0, "rental_uris": {"android": "https://dc.lft.to/lastmile_qr_scan", "ios": "https://dc.lft.to/lastmile_qr_scan"}, "fusion_lon": 0.0, "lat": 38.921943166666665, "bike_id": "1816e6b2fe5be0de9fa4b47a4e8255b9", "type": "electric_scooter", "is_reserved": 0, "lon": -77.0807255}, {"fusion_lat": 0.0, "name": "8917dee9fb2a128adc5c33bfe9196340", "is_disabled": 0, "rental_uris": {"android": "https://dc.lft.to/lastmile_qr_scan", "ios": "https://dc.lft.to/lastmile_qr_scan"}, "fusion_lon": 0.0, "lat": 38.91453766666667, "bike_id": "8917dee9fb2a128adc5c33bfe9196340", "type": "electric_scooter", "is_reserved": 0, "lon": -77.04483266666666}, {"fusion_lat": 0.0, "name": "f8811dceb84ea9cde6225dae7d2d1115", "is_disabled": 0, "rental_uris": {"android": "https://dc.lft.to/lastmile_qr_scan", "ios": "https://dc.lft.to/lastmile_qr_scan"}, "fusion_lon": 0.0, "lat": 38.88990583333333, "bike_id": "f8811dceb84ea9cde6225dae7d2d1115", "type": "electric_scooter", "is_reserved": 0, "lon": -76.91413716666666}, {"fusion_lat": 0.0, "name": "b0d97c4c8a1c2073e61eee9f98c2a26b", "is_disabled": 0, "rental_uris": {"android": "https://dc.lft.to/lastmile_qr_scan", "ios": "https://dc.lft.to/lastmile_qr_scan"}, "fusion_lon": 0.0, "lat": 38.876803333333335, "bike_id": "b0d97c4c8a1c2073e61eee9f98c2a26b", "type": "electric_scooter", "is_reserved": 0, "lon": -77.00298516666666}, {"fusion_lat": 0.0, "name": "79293084c49205bd4775367761a98d84", "is_disabled": 0, "rental_uris": {"android": "https://dc.lft.to/lastmile_qr_scan", "ios": "https://dc.lft.to/lastmile_qr_scan"}, "fusion_lon": 0.0, "lat": 38.892418666666664, "bike_id": "79293084c49205bd4775367761a98d84", "type": "electric_scooter", "is_reserved": 0, "lon": -77.039529}, {"fusion_lat": 0.0, "name": "e2ff009818b1af28d1e6d4558acd5bf1", "is_disabled": 0, "rental_uris": {"android": "https://dc.lft.to/lastmile_qr_scan", "ios": "https://dc.lft.to/lastmile_qr_scan"}, "fusion_lon": 0.0, "lat": 38.920664, "bike_id": "e2ff009818b1af28d1e6d4558acd5bf1", "type": "electric_scooter", "is_reserved": 0, "lon": -77.01472483333333}, {"fusion_lat": 0.0, "name": "7cb01775a85854e8e8cdb7299cb53299", "is_disabled": 0, "rental_uris": {"android": "https://dc.lft.to/lastmile_qr_scan", "ios": "https://dc.lft.to/lastmile_qr_scan"}, "fusion_lon": 0.0, "lat": 38.96700466666667, "bike_id": "7cb01775a85854e8e8cdb7299cb53299", "type": "electric_bike", "is_reserved": 0, "lon": -77.028317}, {"fusion_lat": 0.0, "name": "87e14fbe88be7faade5390112d55a72d", "is_disabled": 0, "rental_uris": {"android": "https://dc.lft.to/lastmile_qr_scan", "ios": "https://dc.lft.to/lastmile_qr_scan"}, "fusion_lon": 0.0, "lat": 38.89232716666667, "bike_id": "87e14fbe88be7faade5390112d55a72d", "type": "electric_scooter", "is_reserved": 0, "lon": -77.023794}, {"fusion_lat": 0.0, "name": "6732c2c754acdb6e10a2c4736cdaa194", "is_disabled": 0, "rental_uris": {"android": "https://dc.lft.to/lastmile_qr_scan", "ios": "https://dc.lft.to/lastmile_qr_scan"}, "fusion_lon": 0.0, "lat": 38.902203166666666, "bike_id": "6732c2c754acdb6e10a2c4736cdaa194", "type": "electric_scooter", "is_reserved": 0, "lon": -77.01877316666666}, {"fusion_lat": 0.0, "name": "97a3ca044b4812d56d4e2e17f841897e", "is_disabled": 0, "rental_uris": {"android": "https://dc.lft.to/lastmile_qr_scan", "ios": "https://dc.lft.to/lastmile_qr_scan"}, "fusion_lon": 0.0, "lat": 38.904561, "bike_id": "97a3ca044b4812d56d4e2e17f841897e", "type": "electric_scooter", "is_reserved": 0, "lon": -77.053327}, {"fusion_lat": 0.0, "name": "246264a68ddc64024177f5d4b5de4e88", "is_disabled": 0, "rental_uris": {"android": "https://dc.lft.to/lastmile_qr_scan", "ios": "https://dc.lft.to/lastmile_qr_scan"}, "fusion_lon": 0.0, "lat": 38.871809166666665, "bike_id": "246264a68ddc64024177f5d4b5de4e88", "type": "electric_scooter", "is_reserved": 0, "lon": -77.00911283333333}, {"fusion_lat": 0.0, "name": "3c2f57273da4e3cf99b896c68d95b4b9", "is_disabled": 0, "rental_uris": {"android": "https://dc.lft.to/lastmile_qr_scan", "ios": "https://dc.lft.to/lastmile_qr_scan"}, "fusion_lon": 0.0, "lat": 38.923453, "bike_id": "3c2f57273da4e3cf99b896c68d95b4b9", "type": "electric_scooter", "is_reserved": 0, "lon": -77.03412916666667}, {"fusion_lat": 0.0, "name": "16007d2b0445c9d2048b81e35f65c617", "is_disabled": 0, "rental_uris": {"android": "https://dc.lft.to/lastmile_qr_scan", "ios": "https://dc.lft.to/lastmile_qr_scan"}, "fusion_lon": 0.0, "lat": 38.898274666666666, "bike_id": "16007d2b0445c9d2048b81e35f65c617", "type": "electric_scooter", "is_reserved": 0, "lon": -77.02981883333334}, {"fusion_lat": 0.0, "name": "91eb3fe8227871362057569e8f62def5", "is_disabled": 0, "rental_uris": {"android": "https://dc.lft.to/lastmile_qr_scan", "ios": "https://dc.lft.to/lastmile_qr_scan"}, "fusion_lon": 0.0, "lat": 38.922105333333334, "bike_id": "91eb3fe8227871362057569e8f62def5", "type": "electric_scooter", "is_reserved": 0, "lon": -77.020199}, {"fusion_lat": 0.0, "name": "ec24c651407c4b60645fd1030e144370", "is_disabled": 0, "rental_uris": {"android": "https://dc.lft.to/lastmile_qr_scan", "ios": "https://dc.lft.to/lastmile_qr_scan"}, "fusion_lon": 0.0, "lat": 38.91570566666667, "bike_id": "ec24c651407c4b60645fd1030e144370", "type": "electric_scooter", "is_reserved": 0, "lon": -77.04665016666667}, {"fusion_lat": 0.0, "name": "dfc4defbd2d04a908f60a8ca93bb393e", "is_disabled": 0, "rental_uris": {"android": "https://dc.lft.to/lastmile_qr_scan", "ios": "https://dc.lft.to/lastmile_qr_scan"}, "fusion_lon": 0.0, "lat": 38.9237995, "bike_id": "dfc4defbd2d04a908f60a8ca93bb393e", "type": "electric_scooter", "is_reserved": 0, "lon": -77.02742533333333}, {"fusion_lat": 0.0, "name": "9a008e5e93c469de8a31a8fa209a7e4d", "is_disabled": 0, "rental_uris": {"android": "https://dc.lft.to/lastmile_qr_scan", "ios": "https://dc.lft.to/lastmile_qr_scan"}, "fusion_lon": 0.0, "lat": 38.91170483333333, "bike_id": "9a008e5e93c469de8a31a8fa209a7e4d", "type": "electric_scooter", "is_reserved": 0, "lon": -76.98721566666667}, {"fusion_lat": 0.0, "name": "c7a6cfc4bba6b1b363994427da7acbfe", "is_disabled": 0, "rental_uris": {"android": "https://dc.lft.to/lastmile_qr_scan", "ios": "https://dc.lft.to/lastmile_qr_scan"}, "fusion_lon": 0.0, "lat": 38.898354, "bike_id": "c7a6cfc4bba6b1b363994427da7acbfe", "type": "electric_scooter", "is_reserved": 0, "lon": -77.02233133333333},