{"data": {"bikes": [{"lon": -76.99950533333333, "bike_id": "578d2f2e88130022c5ddd0a9cb038691", "lat": 38.90863566666667, "fusion_lon": 0.0, "fusion_lat": 0.0, "type": "electric_scooter", "name": "578d2f2e88130022c5ddd0a9cb038691", "is_disabled": 0, "rental_uris": {"ios": "https://dc.lft.to/lastmile_qr_scan", "android": "https://dc.lft.to/lastmile_qr_scan"}, "is_reserved": 0}, {"lon": -76.98587233333333, "bike_id": "8bb46484740dd699f38f63099bd44a7e", "lat": 38.86684366666667, "fusion_lon": 0.0, "fusion_lat": 0.0, "type": "electric_scooter", "name": "8bb46484740dd699f38f63099bd44a7e", "is_disabled": 0, "rental_uris": {"ios": "https://dc.lft.to/lastmile_qr_scan", "android": "https://dc.lft.to/lastmile_qr_scan"}, "is_reserved": 0}, {"lon": -77.019119, "bike_id": "acebea4bd85d40be2e9ab01e9cee8c5b", "lat": 38.886325, "fusion_lon": 0.0, "fusion_lat": 0.0, "type": "electric_scooter", "name": "acebea4bd85d40be2e9ab01e9cee8c5b", "is_disabled": 0, "rental_uris": {"ios": "https://dc.lft.to/lastmile_qr_scan", "android": "https://dc.lft.to/lastmile_qr_scan"}, "is_reserved": 0}, {"lon": -77.043224, "bike_id": "d1f3d5688e26e90b1f4662780c4c560e", "lat": 38.90365166666667, "fusion_lon": 0.0, "fusion_lat": 0.0, "type": "electric_scooter", "name": "d1f3d5688e26e90b1f4662780c4c560e", "is_disabled": 0, "rental_uris": {"ios": "https://dc.lft.to/lastmile_qr_scan", "android": "https://dc.lft.to/lastmile_qr_scan"}, "is_reserved": 0}, {"lon": -77.038588, "bike_id": "9da64cfe06ad54b79c587fa7a4c10c64", "lat": 38.911716, "fusion_lon": 0.0, "fusion_lat": 0.0, "type": "electric_scooter", "name": "9da64cfe06ad54b79c587fa7a4c10c64", "is_disabled": 0, "rental_uris": {"ios": "https://dc.lft.to/lastmile_qr_scan", "android": "https://dc.lft.to/lastmile_qr_scan"}, "is_reserved": 0}, {"lon": -77.0253385, "bike_id": "5e1e91bf54bd66940e9b5197813530e2", "lat": 38.9274985, "fusion_lon": 0.0, "fusion_lat": 0.0, "type": "electric_scooter", "name": "5e1e91bf54bd66940e9b5197813530e2", "is_disabled": 0, "rental_uris": {"ios": "https://dc.lft.to/lastmile_qr_scan", "android": "https://dc.lft.to/lastmile_qr_scan"}, "is_reserved": 0}, {"lon": -77.02626416666666, "bike_id": "ed77bca4fc4a9b5b27e9b65918ac1a29", "lat": 38.96222866666667, "fusion_lon": 0.0, "fusion_lat": 0.0, "type": "electric_bike", "name": "ed77bca4fc4a9b5b27e9b65918ac1a29", "is_disabled": 0, "rental_uris": {"ios": "https://dc.lft.to/lastmile_qr_scan", "android": "https://dc.lft.to/lastmile_qr_scan"}, "is_reserved": 0}, {"lon": -76.99531216666666, "bike_id": "6b6d85cd080075d074b52415892441c9", "lat": 38.883721666666666, "fusion_lon": 0.0, "fusion_lat": 0.0, "type": "electric_scooter", "name": "6b6d85cd080075d074b52415892441c9", "is_disabled": 0, "rental_uris": {"ios": "https://dc.lft.to/lastmile_qr_scan", "android": "https://dc.lft.to/lastmile_qr_scan"}, "is_reserved": 0}, {"lon": -77.02241416666666, "bike_id": "11eca81c7880265cf5d32c0b9bc5ecf1", "lat": 38.9621565, "fusion_lon": 0.0, "fusion_lat": 0.0, "type": "electric_bike", "name": "11eca81c7880265cf5d32c0b9bc5ecf1", "is_disabled": 0, "rental_uris": {"ios": "https://dc.lft.to/lastmile_qr_scan", "android": "https://dc.lft.to/lastmile_qr_scan"}, "is_reserved": 0}, {"lon": -77.04657316666666, "bike_id": "883978ade5c64953e21d386deacc6fce", "lat": 38.89831983333333, "fusion_lon": 0.0, "fusion_lat": 0.0, "type": "electric_scooter", "name": "883978ade5c64953e21d386deacc6fce", "is_disabled": 0, "rental_uris": {"ios": "https://dc.lft.to/lastmile_qr_scan", "android": "https://dc.lft.to/lastmile_qr_scan"}, "is_reserved": 0}, {"lon": -77.02751216666667, "bike_id": "ad0c8bb8326c52adee1133bc556a7c50", "lat": 38.929212, "fusion_lon": 0.0, "fusion_lat": 0.0, "type": "electric_scooter", "name": "ad0c8bb8326c52adee1133bc556a7c50", "is_disabled": 0, "rental_uris": {"ios": "https://dc.lft.to/lastmile_qr_scan", "android": "https://dc.lft.to/lastmile_qr_scan"}, "is_reserved": 0}, {"lon": -77.05261283333333, "bike_id": "2ad33e6ec36596519ed54a26e38785cb", "lat": 38.9001235, "fusion_lon": 0.0, "fusion_lat": 0.0, "type": "electric_scooter", "name": "2ad33e6ec36596519ed54a26e38785cb", "is_disabled": 0, "rental_uris": {"ios": "https://dc.lft.to/lastmile_qr_scan", "android": "https://dc.lft.to/lastmile_qr_scan"}, "is_reserved": 0}, {"lon": -77.01107316666666, "bike_id": "d9ea03bc251bde3a3f07fb3df23f23f0", "lat": 38.9078575, "fusion_lon": 0.0, "fusion_lat": 0.0, "type": "electric_scooter", "name": "d9ea03bc251bde3a3f07fb3df23f23f0", "is_disabled": 0, "rental_uris": {"ios": "https://dc.lft.to/lastmile_qr_scan", "android": "https://dc.lft.to/lastmile_qr_scan"}, "is_reserved": 0}, {"lon": -77.02457716666666, "bike_id": "655e3f0c7e7f76ce09e7aa3bdbdc6212", "lat": 38.93862716666667, "fusion_lon": 0.0, "fusion_lat": 0.0, "type": "electric_scooter", "name": "655e3f0c7e7f76ce09e7aa3bdbdc6212", "is_disabled": 0, "rental_uris": {"ios": "https://dc.lft.to/lastmile_qr_scan", "android": "https://dc.lft.to/lastmile_qr_scan"}, "is_reserved": 0}, {"lon": -76.9557195, "bike_id": "80522d0bb7cfc808bbb7f9becbc8a263", "lat": 38.887718, "fusion_lon": 0.0, "fusion_lat": 0.0, "type": "electric_scooter", "name": "80522d0bb7cfc808bbb7f9becbc8a263", "is_disabled": 0, "rental_uris": {"ios": "https://dc.lft.to/lastmile_qr_scan", "android": "https://dc.lft.to/lastmile_qr_scan"}, "is_reserved": 0}, {"lon": -76.98925066666666, "bike_id": "da1b8ba7f06d798bedc28645d65134d6", "lat": 38.85810933333333, "fusion_lon": 0.0, "fusion_lat": 0.0, "type": "electric_scooter", "name": "da1b8ba7f06d798bedc28645d65134d6", "is_disabled": 0, "rental_uris": {"ios": "https://dc.lft.to/lastmile_qr_scan", "android": "https://dc.lft.to/lastmile_qr_scan"}, "is_reserved": 0}, {"lon": -77.02844883333333, "bike_id": "4a083221b4d6617697670649d0045d80", "lat": 38.925733666666666, "fusion_lon": 0.0, "fusion_lat": 0.0, "type": "electric_scooter", "name": "4a083221b4d6617697670649d0045d80", "is_disabled": 0, "rental_uris": {"ios": "https://dc.lft.to/lastmile_qr_scan", "android": "https://dc.lft.to/lastmile_qr_scan"}, "is_reserved": 0}, {"lon": -77.02223216666667, "bike_id": "6f7993c2db09ca6452ccfaddab8144f5", "lat": 38.926133166666666, "fusion_lon": 0.0, "fusion_lat": 0.0, "type": "electric_scooter", "name": "6f7993c2db09ca6452ccfaddab8144f5", "is_disabled": 0, "rental_uris": {"ios": "https://dc.lft.to/lastmile_qr_scan", "android": "https://dc.lft.to/lastmile_qr_scan"}, "is_reserved": 0}, {"lon": -77.04389483333334, "bike_id": "dbe53ce14f2906ab68a9f007c29abfa1", "lat": 39.04719583333333, "fusion_lon": 0.0, "fusion_lat": 0.0, "type": "electric_bike", "name": "dbe53ce14f2906ab68a9f007c29abfa1", "is_disabled": 0, "rental_uris": {"ios": "https://dc.lft.to/lastmile_qr_scan", "android": "https://dc.lft.to/lastmile_qr_scan"}, "is_reserved": 0}, {"lon": -77.02029316666666, "bike_id": "52fb2f6a1d3e82ef2dc5639dea3db31b", "lat": 38.92417, "fusion_lon": 0.0, "fusion_lat": 0.0, "type": "electric_scooter", "name": "52fb2f6a1d3e82ef2dc5639dea3db31b", "is_disabled": 0, "rental_uris": {"ios": "https://dc.lft.to/lastmile_qr_scan", "android": "https://dc.lft.to/lastmile_qr_scan"}, "is_reserved": 0}, {"lon": -77.06348133333333, "bike_id": "8a67449112033594e05c83b9eeea3106", "lat": 38.905996, "fusion_lon": 0.0, "fusion_lat": 0.0, "type": "electric_scooter", "name": "8a67449112033594e05c83b9eeea3106", "is_disabled": 0, "rental_uris": {"ios": "https://dc.lft.to/lastmile_qr_scan", "android": "https://dc.lft.to/lastmile_qr_scan"}, "is_reserved": 0}, {"lon": -77.0447415, "bike_id": "d15592c6dea261f82fec644774db4eff", "lat": 38.923882, "fusion_lon": 0.0, "fusion_lat": 0.0, "type": "electric_scooter", "name": "d15592c6dea261f82fec644774db4eff", "is_disabled": 0, "rental_uris": {"ios": "https://dc.lft.to/lastmile_qr_scan", "android": "https://dc.lft.to/lastmile_qr_scan"}, "is_reserved": 0}, {"lon": -77.03984366666667, "bike_id": "ac51da78296030c480f21484a60f3ca5", "lat": 38.93338283333333, "fusion_lon": 0.0, "fusion_lat": 0.0, "type": "electric_scooter", "name": "ac51da78296030c480f21484a60f3ca5", "is_disabled": 0, "rental_uris": {"ios": "https://dc.lft.to/lastmile_qr_scan", "android": "https://dc.lft.to/lastmile_qr_scan"}, "is_reserved": 0}, {"lon": -77.03237016666667, "bike_id": "bd7ce039a769530adf997602480cc064", "lat": 38.928616, "fusion_lon": 0.0, "fusion_lat": 0.0, "type": "electric_scooter", "name": "bd7ce039a769530adf997602480cc064", "is_disabled": 0, "rental_uris": {"ios": "https://dc.lft.to/lastmile_qr_scan", "android": "https://dc.lft.to/lastmile_qr_scan"}, "is_reserved": 0}, {"lon": -76.97997883333333, "bike_id": "6577caa861ddee6e5e65c7c28fbf75d6", "lat": 38.901261, "fusion_lon": 0.0, "fusion_lat": 0.0, "type": "electric_scooter", "name": "6577caa861ddee6e5e65c7c28fbf75d6", "is_disabled": 0, "rental_uris": {"ios": "https://dc.lft.to/lastmile_qr_scan", "android": "https://dc.lft.to/lastmile_qr_scan"}, "is_reserved": 0}, {"lon": -76.985246, "bike_id": "a5ad61743f3b1eb059424e61f397d95d", "lat": 38.86687333333333, "fusion_lon": 0.0, "fusion_lat": 0.0, "type": "electric_scooter", "name": "a5ad61743f3b1eb059424e61f397d95d", "is_disabled": 0, "rental_uris": {"ios": "https://dc.lft.to/lastmile_qr_scan", "android": "https://dc.lft.to/lastmile_qr_scan"}, "is_reserved": 0}, {"lon": -77.048685, "bike_id": "0044db4c3b1cc36648e4023304f895ce", "lat": 38.892224166666665, "fusion_lon": 0.0, "fusion_lat": 0.0, "type": "electric_scooter", "name": "0044db4c3b1cc36648e4023304f895ce", "is_disabled": 0, "rental_uris": {"ios": "https://dc.lft.to/lastmile_qr_scan", "android": "https://dc.lft.to/lastmile_qr_scan"}, "is_reserved": 0}, {"lon": -77.0697935, "bike_id": "b905ff55bdcf4b616be36108c89914ee", "lat": 38.9552, "fusion_lon": 0.0, "fusion_lat": 0.0, "type": "electric_scooter", "name": "b905ff55bdcf4b616be36108c89914ee", "is_disabled": 0, "rental_uris": {"ios": "https://dc.lft.to/lastmile_qr_scan", "android": "https://dc.lft.to/lastmile_qr_scan"}, "is_reserved": 0}, {"lon": -77.03258616666666, "bike_id": "5b0ab6a5c4d5e9ba132ad38e4d4ef5f3", "lat": 38.928940833333336, "fusion_lon": 0.0, "fusion_lat": 0.0, "type": "electric_scooter", "name": "5b0ab6a5c4d5e9ba132ad38e4d4ef5f3", "is_disabled": 0, "rental_uris": {"ios": "https://dc.lft.to/lastmile_qr_scan", "android": "https://dc.lft.to/lastmile_qr_scan"}, "is_reserved": 0}, {"lon": -77.04097666666667, "bike_id": "31c21c2d7b0a0fcac6d1318205988011", "lat": 38.91724816666667, "fusion_lon": 0.0, "fusion_lat": 0.0, "type": "electric_scooter", "name": "31c21c2d7b0a0fcac6d1318205988011", "is_disabled": 0, "rental_uris": {"ios": "https://dc.lft.to/lastmile_qr_scan", "android": "https://dc.lft.to/lastmile_qr_scan"}, "is_reserved": 0}, {"lon": -77.00558933333333, "bike_id": "5d305b0fbb9291386e172ce732a19bf2", "lat": 38.87471516666667, "fusion_lon": 0.0, "fusion_lat": 0.0, "type": "electric_scooter", "name": "5d305b0fbb9291386e172ce732a19bf2", "is_disabled": 0, "rental_uris": {"ios": "https://dc.lft.to/lastmile_qr_scan", "android": "https://dc.lft.to/lastmile_qr_scan"}, "is_reserved": 0}, {"lon": -76.90741366666667, "bike_id": "2bac3b8c648aa4cd7dbee976e1d1abad", "lat": 38.89618333333333, "fusion_lon": 0.0, "fusion_lat": 0.0, "type": "electric_bike", "name": "2bac3b8c648aa4cd7dbee976e1d1abad", "is_disabled": 0, "rental_uris": {"ios": "https://dc.lft.to/lastmile_qr_scan", "android": "https://dc.lft.to/lastmile_qr_scan"}, "is_reserved": 0}, {"lon": -77.0275985, "bike_id": "b0cbfe287fa901f4e3aa6e8d75427440", "lat": 38.95425, "fusion_lon": 0.0, "fusion_lat": 0.0, "type": "electric_scooter", "name": "b0cbfe287fa901f4e3aa6e8d75427440", "is_disabled": 0, "rental_uris": {"ios": "https://dc.lft.to/lastmile_qr_scan", "android": "https://dc.lft.to/lastmile_qr_scan"}, "is_reserved": 0}, {"lon": -77.0007385, "bike_id": "296180027ee3419c3bad5fdd7da6a727", "lat": 38.873722666666666, "fusion_lon": 0.0, "fusion_lat": 0.0, "type": "electric_scooter", "name": "296180027ee3419c3bad5fdd7da6a727", "is_disabled": 0, "rental_uris": {"ios": "https://dc.lft.to/lastmile_qr_scan", "android": "https://dc.lft.to/lastmile_qr_scan"}, "is_reserved": 0}, {"lon": -77.0481625, "bike_id": "61a1fd4e744f37987dc5e4eb12f347fb", "lat": 38.91113983333334, "fusion_lon": 0.0, "fusion_lat": 0.0, "type": "electric_scooter", "name": "61a1fd4e744f37987dc5e4eb12f347fb", "is_disabled": 0, "rental_uris": {"ios": "https://dc.lft.to/lastmile_qr_scan", "android": "https://dc.lft.to/lastmile_qr_scan"}, "is_reserved": 0}, {"lon": -77.02342283333333, "bike_id": "c88a09a2b3584b57db75f3b57b7e3adf", "lat": 38.94079466666667, "fusion_lon": 0.0, "fusion_lat": 0.0, "type": "electric_scooter", "name": "c88a09a2b3584b57db75f3b57b7e3adf", "is_disabled": 0, "rental_uris": {"ios": "https://dc.lft.to/lastmile_qr_scan", "android": "https://dc.lft.to/lastmile_qr_scan"}, "is_reserved": 0}, {"lon": -77.04187766666666, "bike_id": "dea9a8de8410e5ef87a18de73d9f7ed6", "lat": 38.920396333333336, "fusion_lon": 0.0, "fusion_lat": 0.0, "type": "electric_scooter", "name": "dea9a8de8410e5ef87a18de73d9f7ed6", "is_disabled": 0, "rental_uris": {"ios": "https://dc.lft.to/lastmile_qr_scan", "android": "https://dc.lft.to/lastmile_qr_scan"}, "is_reserved": 0}, {"lon": -77.04557266666667, "bike_id": "956f3b63a8aab3250470c900289e3663", "lat": 38.89606883333333, "fusion_lon": 0.0, "fusion_lat": 0.0, "type": "electric_scooter", "name": "956f3b63a8aab3250470c900289e3663", "is_disabled": 0, "rental_uris": {"ios": "https://dc.lft.to/lastmile_qr_scan", "android": "https://dc.lft.to/lastmile_qr_scan"}, "is_reserved": 0}, {"lon": -77.03314433333334, "bike_id": "284c75888c0f71aca2961ad863f23d22", "lat": 38.901209333333334, "fusion_lon": 0.0, "fusion_lat": 0.0, "type": "electric_scooter", "name": "284c75888c0f71aca2961ad863f23d22", "is_disabled": 0, "rental_uris": {"ios": "https://dc.lft.to/lastmile_qr_scan", "android": "https://dc.lft.to/lastmile_qr_scan"}, "is_reserved": 0}, {"lon": -77.06062316666667, "bike_id": "c35f2353aa333f7082c8ea5c96fa2b94", "lat": 38.80856416666666, "fusion_lon": 0.0, "fusion_lat": 0.0, "type": "electric_bike", "name": "c35f2353aa333f7082c8ea5c96fa2b94", "is_disabled": 0, "rental_uris": {"ios": "https://dc.lft.to/lastmile_qr_scan", "android": "https://dc.lft.to/lastmile_qr_scan"}, "is_reserved": 0}, {"lon": -77.0278295, "bike_id": "6ed4cb2fdb27921509d587918b3cf39d", "lat": 38.927816666666665, "fusion_lon": 0.0, "fusion_lat": 0.0, "type": "electric_scooter", "name": "6ed4cb2fdb27921509d587918b3cf39d", "is_disabled": 0, "rental_uris": {"ios": "https://dc.lft.to/lastmile_qr_scan", "android": "https://dc.lft.to/lastmile_qr_scan"}, "is_reserved": 0}, {"lon": -77.0054405, "bike_id": "2c713a7d9a000452f388631761a5d116", "lat": 38.874604166666664, "fusion_lon": 0.0, "fusion_lat": 0.0, "type": "electric_scooter", "name": "2c713a7d9a000452f388631761a5d116", "is_disabled": 0, "rental_uris": {"ios": "https://dc.lft.to/lastmile_qr_scan", "android": "https://dc.lft.to/lastmile_qr_scan"}, "is_reserved": 0}, {"lon": -77.03764933333333, "bike_id": "83266f8c88f8cda066a26e6d5c50858b", "lat": 38.92944683333333, "fusion_lon": 0.0, "fusion_lat": 0.0, "type": "electric_scooter", "name": "83266f8c88f8cda066a26e6d5c50858b", "is_disabled": 0, "rental_uris": {"ios": "https://dc.lft.to/lastmile_qr_scan", "android": "https://dc.lft.to/lastmile_qr_scan"}, "is_reserved": 0}, {"lon": -77.0379985, "bike_id": "83d5e95521917f0a9a794d92f4d12916", "lat": 38.910357166666664, "fusion_lon": 0.0, "fusion_lat": 0.0, "type": "electric_scooter", "name": "83d5e95521917f0a9a794d92f4d12916", "is_disabled": 0, "rental_uris": {"ios": "https://dc.lft.to/lastmile_qr_scan", "android": "https://dc.lft.to/lastmile_qr_scan"}, "is_reserved": 0}, {"lon": -77.002056, "bike_id": "e6d52b40e5d8eb991a46bb16d1086b6e", "lat": 38.902413, "fusion_lon": 0.0, "fusion_lat": 0.0, "type": "electric_scooter", "name": "e6d52b40e5d8eb991a46bb16d1086b6e", "is_disabled": 0, "rental_uris": {"ios": "https://dc.lft.to/lastmile_qr_scan", "android": "https://dc.lft.to/lastmile_qr_scan"}, "is_reserved": 0}, {"lon": -77.02448116666666, "bike_id": "81b1f9089dd971b256f04d8748f61839", "lat": 38.914105166666666, "fusion_lon": 0.0, "fusion_lat": 0.0, "type": "electric_scooter", "name": "81b1f9089dd971b256f04d8748f61839", "is_disabled": 0, "rental_uris": {"ios": "https://dc.lft.to/lastmile_qr_scan", "android": "https://dc.lft.to/lastmile_qr_scan"}, "is_reserved": 0}, {"lon": -77.05016366666666, "bike_id": "d2ca11654c7b3a3b8212e7e09245b865", "lat": 38.9004745, "fusion_lon": 0.0, "fusion_lat": 0.0, "type": "electric_scooter", "name": "d2ca11654c7b3a3b8212e7e09245b865", "is_disabled": 0, "rental_uris": {"ios": "https://dc.lft.to/lastmile_qr_scan", "android": "https://dc.lft.to/lastmile_qr_scan"}, "is_reserved": 0}, {"lon": -77.00028783333333, "bike_id": "3fe7e897c744ab3a2b2acf54fbf35308", "lat": 38.967991166666664, "fusion_lon": 0.0, "fusion_lat": 0.0, "type": "electric_bike", "name": "3fe7e897c744ab3a2b2acf54fbf35308", "is_disabled": 0, "rental_uris": {"ios": "https://dc.lft.to/lastmile_qr_scan", "android": "https://dc.lft.to/lastmile_qr_scan"}, "is_reserved": 0}, {"lon": -77.03204083333334, "bike_id": "741f3740699e7de737dcab2271169c7b", "lat": 38.9440985, "fusion_lon": 0.0, "fusion_lat": 0.0, "type": "electric_scooter", "name": "741f3740699e7de737dcab2271169c7b", "is_disabled": 0, "rental_uris": {"ios": "https://dc.lft.to/lastmile_qr_scan", "android": "https://dc.lft.to/lastmile_qr_scan"}, "is_reserved": 0}, {"lon": -76.98948883333334, "bike_id": "5551f65c362c1151be6a9d0c20e04ec5", "lat": 38.8669585, "fusion_lon": 0.0, "fusion_lat": 0.0, "type": "electric_bike", "name": "5551f65c362c1151be6a9d0c20e04ec5", "is_disabled": 0, "rental_uris": {"ios": "https://dc.lft.to/lastmile_qr_scan", "android": "https://dc.lft.to/lastmile_qr_scan"}, "is_reserved": 0}, {"lon": -76.985871, "bike_id": "9fbf5d74b8c912ad3f22bbdad259a8fe", "lat": 38.866828166666664, "fusion_lon": 0.0, "fusion_lat": 0.0, "type": "electric_scooter", "name": "9fbf5d74b8c912ad3f22bbdad259a8fe", "is_disabled": 0, "rental_uris": {"ios": "https://dc.lft.to/lastmile_qr_scan", "android": "https://dc.lft.to/lastmile_qr_scan"}, "is_reserved": 0}, {"lon": -77.05436016666667, "bike_id": "183b5b50753d6cd8c9386be49be19421", "lat": 38.90369233333333, "fusion_lon": 0.0, "fusion_lat": 0.0, "type": "electric_scooter", "name": "183b5b50753d6cd8c9386be49be19421", "is_disabled": 0, "rental_uris": {"ios": "https://dc.lft.to/lastmile_qr_scan", "android": "https://dc.lft.to/lastmile_qr_scan"}, "is_reserved": 0}, {"lon": -77.00075266666667, "bike_id": "141883f1e88da12e5333a7dc8909ad64", "lat": 38.873914, "fusion_lon": 0.0, "fusion_lat": 0.0, "type": "electric_scooter", "name": "141883f1e88da12e5333a7dc8909ad64", "is_disabled": 0, "rental_uris": {"ios": "https://dc.lft.to/lastmile_qr_scan", "android": "https://dc.lft.to/lastmile_qr_scan"}, "is_reserved": 0}, {"lon": -77.0366085, "bike_id": "06e39b29af8599ea11adb45e62ba1e25", "lat": 38.91723666666667, "fusion_lon": 0.0, "fusion_lat": 0.0, "type": "electric_scooter", "name": "06e39b29af8599ea11adb45e62ba1e25", "is_disabled": 0, "rental_uris": {"ios": "https://dc.lft.to/lastmile_qr_scan", "android": "https://dc.lft.to/lastmile_qr_scan"}, "is_reserved": 0}, {"lon": -76.927716, "bike_id": "1f34e1f9547a115d3db1105e578a8489", "lat": 38.900854, "fusion_lon": 0.0, "fusion_lat": 0.0, "type": "electric_scooter", "name": "1f34e1f9547a115d3db1105e578a8489", "is_disabled": 0, "rental_uris": {"ios": "https://dc.lft.to/lastmile_qr_scan", "android": "https://dc.lft.to/lastmile_qr_scan"}, "is_reserved": 0}, {"lon": -76.9791105, "bike_id": "71cccb6c5ff7998ffd8140506455fc23", "lat": 38.863557166666666, "fusion_lon": 0.0, "fusion_lat": 0.0, "type": "electric_scooter", "name": "71cccb6c5ff7998ffd8140506455fc23", "is_disabled": 0, "rental_uris": {"ios": "https://dc.lft.to/lastmile_qr_scan", "android": "https://dc.lft.to/lastmile_qr_scan"}, "is_reserved": 0}, {"lon": -77.00204666666667, "bike_id": "ab19c9292977b9aab2346a932427f1f3", "lat": 38.90031916666667, "fusion_lon": 0.0, "fusion_lat": 0.0, "type": "electric_scooter", "name": "ab19c9292977b9aab2346a932427f1f3", "is_disabled": 0, "rental_uris": {"ios": "https://dc.lft.to/lastmile_qr_scan", "android": "https://dc.lft.to/lastmile_qr_scan"}, "is_reserved": 0}, {"lon": -77.03613966666667, "bike_id": "14497f97c7339287ff4f37f91053af0a", "lat": 38.88765883333333, "fusion_lon": 0.0, "fusion_lat": 0.0, "type": "electric_scooter", "name": "14497f97c7339287ff4f37f91053af0a", "is_disabled": 0, "rental_uris": {"ios": "https://dc.lft.to/lastmile_qr_scan", "android": "https://dc.lft.to/lastmile_qr_scan"}, "is_reserved": 0}, {"lon": -76.98880866666667, "bike_id": "ee64522b8cb40488d08510a7c7ccffd3", "lat": 38.866554666666666, "fusion_lon": 0.0, "fusion_lat": 0.0, "type": "electric_scooter", "name": "ee64522b8cb40488d08510a7c7ccffd3", "is_disabled": 0, "rental_uris": {"ios": "https://dc.lft.to/lastmile_qr_scan", "android": "https://dc.lft.to/lastmile_qr_scan"}, "is_reserved": 0}, {"lon": -77.0370105, "bike_id": "d54e239b322a0c4dd3ea0dabc4f376cf", "lat": 38.926451, "fusion_lon": 0.0, "fusion_lat": 0.0, "type": "electric_scooter", "name": "d54e239b322a0c4dd3ea0dabc4f376cf", "is_disabled": 0, "rental_uris": {"ios": "https://dc.lft.to/lastmile_qr_scan", "android": "https://dc.lft.to/lastmile_qr_scan"}, "is_reserved": 0}, {"lon": -76.9871405, "bike_id": "af881325f5568ea78db3cb6531d6f85d", "lat": 38.8662625, "fusion_lon": 0.0, "fusion_lat": 0.0, "type": "electric_scooter", "name": "af881325f5568ea78db3cb6531d6f85d", "is_disabled": 0, "rental_uris": {"ios": "https://dc.lft.to/lastmile_qr_scan", "android": "https://dc.lft.to/lastmile_qr_scan"}, "is_reserved": 0}, {"lon": -76.99505066666667, "bike_id": "ed9533c217850c75e4658adbe2e8062d", "lat": 38.881911833333334, "fusion_lon": 0.0, "fusion_lat": 0.0, "type": "electric_bike", "name": "ed9533c217850c75e4658adbe2e8062d", "is_disabled": 0, "rental_uris": {"ios": "https://dc.lft.to/lastmile_qr_scan", "android": "https://dc.lft.to/lastmile_qr_scan"}, "is_reserved": 0}, {"lon": -77.04098116666667, "bike_id": "855d72b504439370139014c58be3a2b5", "lat": 38.892302, "fusion_lon": 0.0, "fusion_lat": 0.0, "type": "electric_scooter", "name": "855d72b504439370139014c58be3a2b5", "is_disabled": 0, "rental_uris": {"ios": "https://dc.lft.to/lastmile_qr_scan", "android": "https://dc.lft.to/lastmile_qr_scan"}, "is_reserved": 0}, {"lon": -77.02691183333333, "bike_id": "d5b8a89dd2015d4e2fad8e1aa6d461c3", "lat": 38.906703, "fusion_lon": 0.0, "fusion_lat": 0.0, "type": "electric_scooter", "name": "d5b8a89dd2015d4e2fad8e1aa6d461c3", "is_disabled": 0, "rental_uris": {"ios": "https://dc.lft.to/lastmile_qr_scan", "android": "https://dc.lft.to/lastmile_qr_scan"}, "is_reserved": 0}, {"lon": -77.03261983333333, "bike_id": "f4cfabc5dddce8b80284d0aa99002222", "lat": 38.93264166666667, "fusion_lon": 0.0, "fusion_lat": 0.0, "type": "electric_scooter", "name": "f4cfabc5dddce8b80284d0aa99002222", "is_disabled": 0, "rental_uris": {"ios": "https://dc.lft.to/lastmile_qr_scan", "android": "https://dc.lft.to/lastmile_qr_scan"}, "is_reserved": 0}, {"lon": -77.00257216666667, "bike_id": "dfd3a85a7223e9445a5a942794c882f4", "lat": 38.918189166666664, "fusion_lon": 0.0, "fusion_lat": 0.0, "type": "electric_scooter", "name": "dfd3a85a7223e9445a5a942794c882f4", "is_disabled": 0, "rental_uris": {"ios": "https://dc.lft.to/lastmile_qr_scan", "android": "https://dc.lft.to/lastmile_qr_scan"}, "is_reserved": 0}, {"lon": -77.03715333333334, "bike_id": "94f5902275e93f65ee520ba024c8feea", "lat": 38.91480933333333, "fusion_lon": 0.0, "fusion_lat": 0.0, "type": "electric_scooter", "name": "94f5902275e93f65ee520ba024c8feea", "is_disabled": 0, "rental_uris": {"ios": "https://dc.lft.to/lastmile_qr_scan", "android": "https://dc.lft.to/lastmile_qr_scan"}, "is_reserved": 0}, {"lon": -77.00104633333333, "bike_id": "4b87f70d85101aaa5e44eeb9204d44f2", "lat": 38.91707533333334, "fusion_lon": 0.0, "fusion_lat": 0.0, "type": "electric_scooter", "name": "4b87f70d85101aaa5e44eeb9204d44f2", "is_disabled": 0, "rental_uris": {"ios": "https://dc.lft.to/lastmile_qr_scan", "android": "https://dc.lft.to/lastmile_qr_scan"}, "is_reserved": 0}, {"lon": -77.01894316666667, "bike_id": "9632a7306466c4e631f7b1cd8458ca91", "lat": 38.874623666666665, "fusion_lon": 0.0, "fusion_lat": 0.0, "type": "electric_scooter", "name": "9632a7306466c4e631f7b1cd8458ca91", "is_disabled": 0, "rental_uris": {"ios": "https://dc.lft.to/lastmile_qr_scan", "android": "https://dc.lft.to/lastmile_qr_scan"}, "is_reserved": 0}, {"lon": -77.03442066666666, "bike_id": "3123039b25b54175b48ed563e2d22496", "lat": 38.909675, "fusion_lon": 0.0, "fusion_lat": 0.0, "type": "electric_scooter", "name": "3123039b25b54175b48ed563e2d22496", "is_disabled": 0, "rental_uris": {"ios": "https://dc.lft.to/lastmile_qr_scan", "android": "https://dc.lft.to/lastmile_qr_scan"}, "is_reserved": 0}, {"lon": -77.03870716666667, "bike_id": "4aa50e9cfa231406941181a27fc38ace", "lat": 38.921538, "fusion_lon": 0.0, "fusion_lat": 0.0, "type": "electric_scooter", "name": "4aa50e9cfa231406941181a27fc38ace", "is_disabled": 0, "rental_uris": {"ios": "https://dc.lft.to/lastmile_qr_scan", "android": "https://dc.lft.to/lastmile_qr_scan"}, "is_reserved": 0}, {"lon": -76.99851566666666, "bike_id": "80ae19e7b517ec35bab11db1a96a76b9", "lat": 38.841623, "fusion_lon": 0.0, "fusion_lat": 0.0, "type": "electric_scooter", "name": "80ae19e7b517ec35bab11db1a96a76b9", "is_disabled": 0, "rental_uris": {"ios": "https://dc.lft.to/lastmile_qr_scan", "android": "https://dc.lft.to/lastmile_qr_scan"}, "is_reserved": 0}, {"lon": -77.00284316666666, "bike_id": "ae9e80c998467d9b1686f84a0434f662", "lat": 38.9570755, "fusion_lon": 0.0, "fusion_lat": 0.0, "type": "electric_bike", "name": "ae9e80c998467d9b1686f84a0434f662", "is_disabled": 0, "rental_uris": {"ios": "https://dc.lft.to/lastmile_qr_scan", "android": "https://dc.lft.to/lastmile_qr_scan"}, "is_reserved": 0}, {"lon": -77.01622, "bike_id": "e3d4a01701d9797b4ac3e02ff0f4713d", "lat": 38.9016545, "fusion_lon": 0.0, "fusion_lat": 0.0, "type": "electric_scooter", "name": "e3d4a01701d9797b4ac3e02ff0f4713d", "is_disabled": 0, "rental_uris": {"ios": "https://dc.lft.to/lastmile_qr_scan", "android": "https://dc.lft.to/lastmile_qr_scan"}, "is_reserved": 0}, {"lon": -77.04323083333334, "bike_id": "204235fc550b434984c3900dd261fc15", "lat": 38.918748666666666, "fusion_lon": 0.0, "fusion_lat": 0.0, "type": "electric_scooter", "name": "204235fc550b434984c3900dd261fc15", "is_disabled": 0, "rental_uris": {"ios": "https://dc.lft.to/lastmile_qr_scan", "android": "https://dc.lft.to/lastmile_qr_scan"}, "is_reserved": 0}, {"lon": -77.12500516666667, "bike_id": "e5801a7fa446261184f463b6546a86b8", "lat": 38.82791183333333, "fusion_lon": 0.0, "fusion_lat": 0.0, "type": "electric_bike", "name": "e5801a7fa446261184f463b6546a86b8", "is_disabled": 0, "rental_uris": {"ios": "https://dc.lft.to/lastmile_qr_scan", "android": "https://dc.lft.to/lastmile_qr_scan"}, "is_reserved": 0}, {"lon": -76.98558816666667, "bike_id": "bcd3122bf819b8ff9e0b23abbe3d09bc", "lat": 38.899527666666664, "fusion_lon": 0.0, "fusion_lat": 0.0, "type": "electric_scooter", "name": "bcd3122bf819b8ff9e0b23abbe3d09bc", "is_disabled": 0, "rental_uris": {"ios": "https://dc.lft.to/lastmile_qr_scan", "android": "https://dc.lft.to/lastmile_qr_scan"}, "is_reserved": 0}, {"lon": -77.02720433333333, "bike_id": "1dfce027a35f87fa191bde86c83428e1", "lat": 38.9347905, "fusion_lon": 0.0, "fusion_lat": 0.0, "type": "electric_scooter", "name": "1dfce027a35f87fa191bde86c83428e1", "is_disabled": 0, "rental_uris": {"ios": "https://dc.lft.to/lastmile_qr_scan", "android": "https://dc.lft.to/lastmile_qr_scan"}, "is_reserved": 0}, {"lon": -77.020978, "bike_id": "84aa25803412ca8477c919cfd19a20c2", "lat": 38.9311445, "fusion_lon": 0.0, "fusion_lat": 0.0, "type": "electric_scooter", "name": "84aa25803412ca8477c919cfd19a20c2", "is_disabled": 0, "rental_uris": {"ios": "https://dc.lft.to/lastmile_qr_scan", "android": "https://dc.lft.to/lastmile_qr_scan"}, "is_reserved": 0}, {"lon": -77.02509316666666, "bike_id": "5c49a23eee48bf152e37c035e38e26b2", "lat": 38.919801166666666, "fusion_lon": 0.0, "fusion_lat": 0.0, "type": "electric_scooter", "name": "5c49a23eee48bf152e37c035e38e26b2", "is_disabled": 0, "rental_uris": {"ios": "https://dc.lft.to/lastmile_qr_scan", "android": "https://dc.lft.to/lastmile_qr_scan"}, "is_reserved": 0}, {"lon": -77.06422816666667, "bike_id": "c92b8fdbb7c8ba5bc7fcaa18ffebc5c0", "lat": 38.908875, "fusion_lon": 0.0, "fusion_lat": 0.0, "type": "electric_scooter", "name": "c92b8fdbb7c8ba5bc7fcaa18ffebc5c0", "is_disabled": 0, "rental_uris": {"ios": "https://dc.lft.to/lastmile_qr_scan", "android": "https://dc.lft.to/lastmile_qr_scan"}, "is_reserved": 0}, {"lon": -77.00378733333334, "bike_id": "7267d7a2f7659f7f8a2fe64266a12d2a", "lat": 38.9061445, "fusion_lon": 0.0, "fusion_lat": 0.0, "type": "electric_scooter", "name": "7267d7a2f7659f7f8a2fe64266a12d2a", "is_disabled": 0, "rental_uris": {"ios": "https://dc.lft.to/lastmile_qr_scan", "android": "https://dc.lft.to/lastmile_qr_scan"}, "is_reserved": 0}, {"lon": -77.034007, "bike_id": "19c058a4efca5a20f7cfef346c682c94", "lat": 38.960251666666665, "fusion_lon": 0.0, "fusion_lat": 0.0, "type": "electric_bike", "name": "19c058a4efca5a20f7cfef346c682c94", "is_disabled": 0, "rental_uris": {"ios": "https://dc.lft.to/lastmile_qr_scan", "android": "https://dc.lft.to/lastmile_qr_scan"}, "is_reserved": 0}, {"lon": -77.042558, "bike_id": "c98f2f57ec2df5ed0c70a5da8cd20c29", "lat": 38.92243233333333, "fusion_lon": 0.0, "fusion_lat": 0.0, "type": "electric_scooter", "name": "c98f2f57ec2df5ed0c70a5da8cd20c29", "is_disabled": 0, "rental_uris": {"ios": "https://dc.lft.to/lastmile_qr_scan", "android": "https://dc.lft.to/lastmile_qr_scan"}, "is_reserved": 0}, {"lon": -77.00602366666666, "bike_id": "6e6677d6e96bff14d7d750551fb31057", "lat": 38.892128166666666, "fusion_lon": 0.0, "fusion_lat": 0.0, "type": "electric_scooter", "name": "6e6677d6e96bff14d7d750551fb31057", "is_disabled": 0, "rental_uris": {"ios": "https://dc.lft.to/lastmile_qr_scan", "android": "https://dc.lft.to/lastmile_qr_scan"}, "is_reserved": 0}, {"lon": -77.02969983333334, "bike_id": "fc505a6afc4529edc2994cb0182f8745", "lat": 38.917182833333335, "fusion_lon": 0.0, "fusion_lat": 0.0, "type": "electric_scooter", "name": "fc505a6afc4529edc2994cb0182f8745", "is_disabled": 0, "rental_uris": {"ios": "https://dc.lft.to/lastmile_qr_scan", "android": "https://dc.lft.to/lastmile_qr_scan"}, "is_reserved": 0}, {"lon": -77.02704916666667, "bike_id": "df6a380cad097ba4918832d7a95785e8", "lat": 38.926613833333334, "fusion_lon": 0.0, "fusion_lat": 0.0, "type": "electric_scooter", "name": "df6a380cad097ba4918832d7a95785e8", "is_disabled": 0, "rental_uris": {"ios": "https://dc.lft.to/lastmile_qr_scan", "android": "https://dc.lft.to/lastmile_qr_scan"}, "is_reserved": 0}, {"lon": -77.11708933333334, "bike_id": "723dfbaf5f55db5efc44cbfc0d6e3529", "lat": 38.86745966666667, "fusion_lon": 0.0, "fusion_lat": 0.0, "type": "electric_bike", "name": "723dfbaf5f55db5efc44cbfc0d6e3529", "is_disabled": 0, "rental_uris": {"ios": "https://dc.lft.to/lastmile_qr_scan", "android": "https://dc.lft.to/lastmile_qr_scan"}, "is_reserved": 0}, {"lon": -76.95746883333334, "bike_id": "3ded165df9dc3d9e8c35a98f68061d39", "lat": 38.88427466666667, "fusion_lon": 0.0, "fusion_lat": 0.0, "type": "electric_scooter", "name": "3ded165df9dc3d9e8c35a98f68061d39", "is_disabled": 0, "rental_uris": {"ios": "https://dc.lft.to/lastmile_qr_scan", "android": "https://dc.lft.to/lastmile_qr_scan"}, "is_reserved": 0}, {"lon": -77.04203766666667, "bike_id": "bb873f150f2a2c9ec156308c58243404", "lat": 38.89976633333333, "fusion_lon": 0.0, "fusion_lat": 0.0, "type": "electric_scooter", "name": "bb873f150f2a2c9ec156308c58243404", "is_disabled": 0, "rental_uris": {"ios": "https://dc.lft.to/lastmile_qr_scan", "android": "https://dc.lft.to/lastmile_qr_scan"}, "is_reserved": 0}, {"lon": -77.02356866666666, "bike_id": "2237383c72eb8619d65e7c5685dc8094", "lat": 38.9222355, "fusion_lon": 0.0, "fusion_lat": 0.0, "type": "electric_scooter", "name": "2237383c72eb8619d65e7c5685dc8094", "is_disabled": 0, "rental_uris": {"ios": "https://dc.lft.to/lastmile_qr_scan", "android": "https://dc.lft.to/lastmile_qr_scan"}, "is_reserved": 0}, {"lon": -76.983927, "bike_id": "23df4b1604549b0119f31862a043679f", "lat": 38.898863166666665, "fusion_lon": 0.0, "fusion_lat": 0.0, "type": "electric_bike", "name": "23df4b1604549b0119f31862a043679f", "is_disabled": 0, "rental_uris": {"ios": "https://dc.lft.to/lastmile_qr_scan", "android": "https://dc.lft.to/lastmile_qr_scan"}, "is_reserved": 0}, {"lon": -77.00044833333334, "bike_id": "e3c687979dfdba0d7fdeced92dd0e307", "lat": 38.92399016666667, "fusion_lon": 0.0, "fusion_lat": 0.0, "type": "electric_scooter", "name": "e3c687979dfdba0d7fdeced92dd0e307", "is_disabled": 0, "rental_uris": {"ios": "https://dc.lft.to/lastmile_qr_scan", "android": "https://dc.lft.to/lastmile_qr_scan"}, "is_reserved": 0}, {"lon": -76.94070333333333, "bike_id": "9d9749adb6b8a8f6b299bd021db3a8f8", "lat": 38.8931595, "fusion_lon": 0.0, "fusion_lat": 0.0, "type": "electric_scooter", "name": "9d9749adb6b8a8f6b299bd021db3a8f8", "is_disabled": 0, "rental_uris": {"ios": "https://dc.lft.to/lastmile_qr_scan", "android": "https://dc.lft.to/lastmile_qr_scan"}, "is_reserved": 0}, {"lon": -76.9980715, "bike_id": "e88aca0c6e39735e9fb79897cf06eae1", "lat": 38.8291425, "fusion_lon": 0.0, "fusion_lat": 0.0, "type": "electric_bike", "name": "e88aca0c6e39735e9fb79897cf06eae1", "is_disabled": 0, "rental_uris": {"ios": "https://dc.lft.to/lastmile_qr_scan", "android": "https://dc.lft.to/lastmile_qr_scan"}, "is_reserved": 0}, {"lon": -77.02288983333334, "bike_id": "bec9e69fe9b122db5c6e42492b31fe42", "lat": 38.9096945, "fusion_lon": 0.0, "fusion_lat": 0.0, "type": "electric_scooter", "name": "bec9e69fe9b122db5c6e42492b31fe42", "is_disabled": 0, "rental_uris": {"ios": "https://dc.lft.to/lastmile_qr_scan", "android": "https://dc.lft.to/lastmile_qr_scan"}, "is_reserved": 0}, {"lon": -77.03019133333333, "bike_id": "474cb70b0c7a4e82fd80509d62048452", "lat": 38.884382, "fusion_lon": 0.0, "fusion_lat": 0.0, "type": "electric_scooter", "name": "474cb70b0c7a4e82fd80509d62048452", "is_disabled": 0, "rental_uris": {"ios": "https://dc.lft.to/lastmile_qr_scan", "android": "https://dc.lft.to/lastmile_qr_scan"}, "is_reserved": 0}, {"lon": -77.03208166666667, "bike_id": "b79fc9bcd7fb9cde4b96973c8014b359", "lat": 38.90691, "fusion_lon": 0.0, "fusion_lat": 0.0, "type": "electric_scooter", "name": "b79fc9bcd7fb9cde4b96973c8014b359", "is_disabled": 0, "rental_uris": {"ios": "https://dc.lft.to/lastmile_qr_scan", "android": "https://dc.lft.to/lastmile_qr_scan"}, "is_reserved": 0}, {"lon": -77.04046983333333, "bike_id": "daff6dfb1f005eba21930181bb89c574", "lat": 38.92876366666667, "fusion_lon": 0.0, "fusion_lat": 0.0, "type": "electric_scooter", "name": "daff6dfb1f005eba21930181bb89c574", "is_disabled": 0, "rental_uris": {"ios": "https://dc.lft.to/lastmile_qr_scan", "android": "https://dc.lft.to/lastmile_qr_scan"}, "is_reserved": 0}, {"lon": -77.02316, "bike_id": "1f7cb6037cc8d2734cd0ed84c8ee180a", "lat": 38.89495066666667, "fusion_lon": 0.0, "fusion_lat": 0.0, "type": "electric_scooter", "name": "1f7cb6037cc8d2734cd0ed84c8ee180a", "is_disabled": 0, "rental_uris": {"ios": "https://dc.lft.to/lastmile_qr_scan", "android": "https://dc.lft.to/lastmile_qr_scan"}, "is_reserved": 0}, {"lon": -77.005237, "bike_id": "3e2060b215d6c66905495fc3ce6eda27", "lat": 38.9148135, "fusion_lon": 0.0, "fusion_lat": 0.0, "type": "electric_bike", "name": "3e2060b215d6c66905495fc3ce6eda27", "is_disabled": 0, "rental_uris": {"ios": "https://dc.lft.to/lastmile_qr_scan", "android": "https://dc.lft.to/lastmile_qr_scan"}, "is_reserved": 0}, {"lon": -76.98878716666667, "bike_id": "3eb93d3bea9b7c0d4be68f939a30dafc", "lat": 38.86657433333333, "fusion_lon": 0.0, "fusion_lat": 0.0, "type": "electric_scooter", "name": "3eb93d3bea9b7c0d4be68f939a30dafc", "is_disabled": 0, "rental_uris": {"ios": "https://dc.lft.to/lastmile_qr_scan", "android": "https://dc.lft.to/lastmile_qr_scan"}, "is_reserved": 0}, {"lon": -77.03833216666666, "bike_id": "ae2259c650cc736af648956127fa2a1a", "lat": 38.9088085, "fusion_lon": 0.0, "fusion_lat": 0.0, "type": "electric_scooter", "name": "ae2259c650cc736af648956127fa2a1a", "is_disabled": 0, "rental_uris": {"ios": "https://dc.lft.to/lastmile_qr_scan", "android": "https://dc.lft.to/lastmile_qr_scan"}, "is_reserved": 0}, {"lon": -77.0502605, "bike_id": "3081cc746930fe632a30799afbb5b79d", "lat": 38.9051725, "fusion_lon": 0.0, "fusion_lat": 0.0, "type": "electric_scooter", "name": "3081cc746930fe632a30799afbb5b79d", "is_disabled": 0, "rental_uris": {"ios": "https://dc.lft.to/lastmile_qr_scan", "android": "https://dc.lft.to/lastmile_qr_scan"}, "is_reserved": 0}, {"lon": -77.0326575, "bike_id": "aa2a04ea2709f36f46ba65e849cc6420", "lat": 38.901503166666664, "fusion_lon": 0.0, "fusion_lat": 0.0, "type": "electric_scooter", "name": "aa2a04ea2709f36f46ba65e849cc6420", "is_disabled": 0, "rental_uris": {"ios": "https://dc.lft.to/lastmile_qr_scan", "android": "https://dc.lft.to/lastmile_qr_scan"}, "is_reserved": 0}, {"lon": -77.02688916666666, "bike_id": "f9ffafb1be03caebe2316a62b6e6a23a", "lat": 38.906671, "fusion_lon": 0.0, "fusion_lat": 0.0, "type": "electric_scooter", "name": "f9ffafb1be03caebe2316a62b6e6a23a", "is_disabled": 0, "rental_uris": {"ios": "https://dc.lft.to/lastmile_qr_scan", "android": "https://dc.lft.to/lastmile_qr_scan"}, "is_reserved": 0}, {"lon": -77.02693433333333, "bike_id": "d236d79078ff4aeca71817da1ac6174b", "lat": 38.912265, "fusion_lon": 0.0, "fusion_lat": 0.0, "type": "electric_scooter", "name": "d236d79078ff4aeca71817da1ac6174b", "is_disabled": 0, "rental_uris": {"ios": "https://dc.lft.to/lastmile_qr_scan", "android": "https://dc.lft.to/lastmile_qr_scan"}, "is_reserved": 0}, {"lon": -77.0415655, "bike_id": "16359756c5d12088b2857d6f20a6509a", "lat": 38.89956333333333, "fusion_lon": 0.0, "fusion_lat": 0.0, "type": "electric_scooter", "name": "16359756c5d12088b2857d6f20a6509a", "is_disabled": 0, "rental_uris": {"ios": "https://dc.lft.to/lastmile_qr_scan", "android": "https://dc.lft.to/lastmile_qr_scan"}, "is_reserved": 0}, {"lon": -77.02576983333333, "bike_id": "3a709f8a744a81fdd1e9ecfb0b1dc3fd", "lat": 38.892281833333335, "fusion_lon": 0.0, "fusion_lat": 0.0, "type": "electric_scooter", "name": "3a709f8a744a81fdd1e9ecfb0b1dc3fd", "is_disabled": 0, "rental_uris": {"ios": "https://dc.lft.to/lastmile_qr_scan", "android": "https://dc.lft.to/lastmile_qr_scan"}, "is_reserved": 0}, {"lon": -77.03180266666666, "bike_id": "cb3f7d4cdc6cb107c684f3209c39d52f", "lat": 38.908681333333334, "fusion_lon": 0.0, "fusion_lat": 0.0, "type": "electric_scooter", "name": "cb3f7d4cdc6cb107c684f3209c39d52f", "is_disabled": 0, "rental_uris": {"ios": "https://dc.lft.to/lastmile_qr_scan", "android": "https://dc.lft.to/lastmile_qr_scan"}, "is_reserved": 0}, {"lon": -77.03076533333333, "bike_id": "a526e4b63156d836c2b3c33dcfc873dd", "lat": 38.88036316666667, "fusion_lon": 0.0, "fusion_lat": 0.0, "type": "electric_scooter", "name": "a526e4b63156d836c2b3c33dcfc873dd", "is_disabled": 0, "rental_uris": {"ios": "https://dc.lft.to/lastmile_qr_scan", "android": "https://dc.lft.to/lastmile_qr_scan"}, "is_reserved": 0}, {"lon": -77.04280416666667, "bike_id": "496a52fec67f34a01be2ec7d3ef4e4dc", "lat": 38.93415783333333, "fusion_lon": 0.0, "fusion_lat": 0.0, "type": "electric_scooter", "name": "496a52fec67f34a01be2ec7d3ef4e4dc", "is_disabled": 0, "rental_uris": {"ios": "https://dc.lft.to/lastmile_qr_scan", "android": "https://dc.lft.to/lastmile_qr_scan"}, "is_reserved": 0}, {"lon": -77.00047033333334, "bike_id": "31453ac2046838b0891e6a34c8fd971e", "lat": 38.90810916666667, "fusion_lon": 0.0, "fusion_lat": 0.0, "type": "electric_scooter", "name": "31453ac2046838b0891e6a34c8fd971e", "is_disabled": 0, "rental_uris": {"ios": "https://dc.lft.to/lastmile_qr_scan", "android": "https://dc.lft.to/lastmile_qr_scan"}, "is_reserved": 0}, {"lon": -77.01206416666666, "bike_id": "d36d00985ef4e799154beb30c401894e", "lat": 38.8855205, "fusion_lon": 0.0, "fusion_lat": 0.0, "type": "electric_scooter", "name": "d36d00985ef4e799154beb30c401894e", "is_disabled": 0, "rental_uris": {"ios": "https://dc.lft.to/lastmile_qr_scan", "android": "https://dc.lft.to/lastmile_qr_scan"}, "is_reserved": 0}, {"lon": -77.031367, "bike_id": "8068156c8b87127249ad257eba90b9ec", "lat": 38.92959716666667, "fusion_lon": 0.0, "fusion_lat": 0.0, "type": "electric_scooter", "name": "8068156c8b87127249ad257eba90b9ec", "is_disabled": 0, "rental_uris": {"ios": "https://dc.lft.to/lastmile_qr_scan", "android": "https://dc.lft.to/lastmile_qr_scan"}, "is_reserved": 0}, {"lon": -77.03267916666667, "bike_id": "6e5c4bd94ae443b464542e0c7a1345c3", "lat": 38.9391825, "fusion_lon": 0.0, "fusion_lat": 0.0, "type": "electric_scooter", "name": "6e5c4bd94ae443b464542e0c7a1345c3", "is_disabled": 0, "rental_uris": {"ios": "https://dc.lft.to/lastmile_qr_scan", "android": "https://dc.lft.to/lastmile_qr_scan"}, "is_reserved": 0}, {"lon": -77.01974566666667, "bike_id": "9a6a2466c7cf60770b1967a534a52e8d", "lat": 38.886045333333335, "fusion_lon": 0.0, "fusion_lat": 0.0, "type": "electric_scooter", "name": "9a6a2466c7cf60770b1967a534a52e8d", "is_disabled": 0, "rental_uris": {"ios": "https://dc.lft.to/lastmile_qr_scan", "android": "https://dc.lft.to/lastmile_qr_scan"}, "is_reserved": 0}, {"lon": -77.023026, "bike_id": "c501eb51a848dd7cf2ebffa949b7bde4", "lat": 38.91593733333333, "fusion_lon": 0.0, "fusion_lat": 0.0, "type": "electric_bike", "name": "c501eb51a848dd7cf2ebffa949b7bde4", "is_disabled": 0, "rental_uris": {"ios": "https://dc.lft.to/lastmile_qr_scan", "android": "https://dc.lft.to/lastmile_qr_scan"}, "is_reserved": 0}, {"lon": -77.04242416666666, "bike_id": "1c1a90fedbb110abf2b26049e94b3535", "lat": 38.909598833333334, "fusion_lon": 0.0, "fusion_lat": 0.0, "type": "electric_scooter", "name": "1c1a90fedbb110abf2b26049e94b3535", "is_disabled": 0, "rental_uris": {"ios": "https://dc.lft.to/lastmile_qr_scan", "android": "https://dc.lft.to/lastmile_qr_scan"}, "is_reserved": 0}, {"lon": -77.00598383333333, "bike_id": "ad45d0d36de8e9cb59d4b9807c079d69", "lat": 38.87181133333333, "fusion_lon": 0.0, "fusion_lat": 0.0, "type": "electric_bike", "name": "ad45d0d36de8e9cb59d4b9807c079d69", "is_disabled": 0, "rental_uris": {"ios": "https://dc.lft.to/lastmile_qr_scan", "android": "https://dc.lft.to/lastmile_qr_scan"}, "is_reserved": 0}, {"lon": -77.02429533333333, "bike_id": "9efef1fea1eb61272fa091f1aa7a7373", "lat": 38.922902, "fusion_lon": 0.0, "fusion_lat": 0.0, "type": "electric_scooter", "name": "9efef1fea1eb61272fa091f1aa7a7373", "is_disabled": 0, "rental_uris": {"ios": "https://dc.lft.to/lastmile_qr_scan", "android": "https://dc.lft.to/lastmile_qr_scan"}, "is_reserved": 0}, {"lon": -77.06134933333334, "bike_id": "39460e0f7b34b18c81c22f3419dffaad", "lat": 38.94355816666667, "fusion_lon": 0.0, "fusion_lat": 0.0, "type": "electric_scooter", "name": "39460e0f7b34b18c81c22f3419dffaad", "is_disabled": 0, "rental_uris": {"ios": "https://dc.lft.to/lastmile_qr_scan", "android": "https://dc.lft.to/lastmile_qr_scan"}, "is_reserved": 0}, {"lon": -77.0358915, "bike_id": "01d427887631d5e7cc2c725f4b7ad009", "lat": 38.9096845, "fusion_lon": 0.0, "fusion_lat": 0.0, "type": "electric_scooter", "name": "01d427887631d5e7cc2c725f4b7ad009", "is_disabled": 0, "rental_uris": {"ios": "https://dc.lft.to/lastmile_qr_scan", "android": "https://dc.lft.to/lastmile_qr_scan"}, "is_reserved": 0}, {"lon": -77.00187983333333, "bike_id": "302859f1c58d0570a2ee197675295200", "lat": 38.891012333333336, "fusion_lon": 0.0, "fusion_lat": 0.0, "type": "electric_scooter", "name": "302859f1c58d0570a2ee197675295200", "is_disabled": 0, "rental_uris": {"ios": "https://dc.lft.to/lastmile_qr_scan", "android": "https://dc.lft.to/lastmile_qr_scan"}, "is_reserved": 0}, {"lon": -77.07792833333333, "bike_id": "62414bb90e915c9eed60af6bf6202182", "lat": 38.9960645, "fusion_lon": 0.0, "fusion_lat": 0.0, "type": "electric_bike", "name": "62414bb90e915c9eed60af6bf6202182", "is_disabled": 0, "rental_uris": {"ios": "https://dc.lft.to/lastmile_qr_scan", "android": "https://dc.lft.to/lastmile_qr_scan"}, "is_reserved": 0}, {"lon": -77.05001216666666, "bike_id": "46526348775b23d0a6efb980b5c52365", "lat": 38.89974683333333, "fusion_lon": 0.0, "fusion_lat": 0.0, "type": "electric_scooter", "name": "46526348775b23d0a6efb980b5c52365", "is_disabled": 0, "rental_uris": {"ios": "https://dc.lft.to/lastmile_qr_scan", "android": "https://dc.lft.to/lastmile_qr_scan"}, "is_reserved": 0}, {"lon": -77.05272266666667, "bike_id": "0d2d999b90c8875a98d4b76bbfb3ae50", "lat": 38.899674166666664, "fusion_lon": 0.0, "fusion_lat": 0.0, "type": "electric_scooter", "name": "0d2d999b90c8875a98d4b76bbfb3ae50", "is_disabled": 0, "rental_uris": {"ios": "https://dc.lft.to/lastmile_qr_scan", "android": "https://dc.lft.to/lastmile_qr_scan"}, "is_reserved": 0}, {"lon": -77.03002883333333, "bike_id": "ef0137043e545a95fc40279219ed481b", "lat": 39.04194016666667, "fusion_lon": 0.0, "fusion_lat": 0.0, "type": "electric_bike", "name": "ef0137043e545a95fc40279219ed481b", "is_disabled": 0, "rental_uris": {"ios": "https://dc.lft.to/lastmile_qr_scan", "android": "https://dc.lft.to/lastmile_qr_scan"}, "is_reserved": 0}, {"lon": -76.95332616666667, "bike_id": "03f4deff06bc6ed87e876e0e08aadba9", "lat": 38.889329000000004, "fusion_lon": 0.0, "fusion_lat": 0.0, "type": "electric_scooter", "name": "03f4deff06bc6ed87e876e0e08aadba9", "is_disabled": 0, "rental_uris": {"ios": "https://dc.lft.to/lastmile_qr_scan", "android": "https://dc.lft.to/lastmile_qr_scan"}, "is_reserved": 0}, {"lon": -77.02480166666666, "bike_id": "5f1ccea793f4699aff2aa9b88d4dd23d", "lat": 38.90395516666667, "fusion_lon": 0.0, "fusion_lat": 0.0, "type": "electric_scooter", "name": "5f1ccea793f4699aff2aa9b88d4dd23d", "is_disabled": 0, "rental_uris": {"ios": "https://dc.lft.to/lastmile_qr_scan", "android": "https://dc.lft.to/lastmile_qr_scan"}, "is_reserved": 0}, {"lon": -77.02434316666667, "bike_id": "15f2a9fa023085a0771b906380b55300", "lat": 38.93744133333333, "fusion_lon": 0.0, "fusion_lat": 0.0, "type": "electric_scooter", "name": "15f2a9fa023085a0771b906380b55300", "is_disabled": 0, "rental_uris": {"ios": "https://dc.lft.to/lastmile_qr_scan", "android": "https://dc.lft.to/lastmile_qr_scan"}, "is_reserved": 0}, {"lon": -76.97746716666667, "bike_id": "7d8749c47b108fa3ebeab31b7a5f14ab", "lat": 38.898997333333334, "fusion_lon": 0.0, "fusion_lat": 0.0, "type": "electric_scooter", "name": "7d8749c47b108fa3ebeab31b7a5f14ab", "is_disabled": 0, "rental_uris": {"ios": "https://dc.lft.to/lastmile_qr_scan", "android": "https://dc.lft.to/lastmile_qr_scan"}, "is_reserved": 0}, {"lon": -77.0438555, "bike_id": "41032a42f8ca9459c971de97e42baf43", "lat": 38.9058525, "fusion_lon": 0.0, "fusion_lat": 0.0, "type": "electric_scooter", "name": "41032a42f8ca9459c971de97e42baf43", "is_disabled": 0, "rental_uris": {"ios": "https://dc.lft.to/lastmile_qr_scan", "android": "https://dc.lft.to/lastmile_qr_scan"}, "is_reserved": 0}, {"lon": -76.99751866666666, "bike_id": "245c5ea215f4c07f10bead0f219ff1dd", "lat": 38.90037, "fusion_lon": 0.0, "fusion_lat": 0.0, "type": "electric_scooter", "name": "245c5ea215f4c07f10bead0f219ff1dd", "is_disabled": 0, "rental_uris": {"ios": "https://dc.lft.to/lastmile_qr_scan", "android": "https://dc.lft.to/lastmile_qr_scan"}, "is_reserved": 0}, {"lon": -77.00674316666667, "bike_id": "f2a95140818a7b56c0abd7a1d757ddd5", "lat": 38.94509583333333, "fusion_lon": 0.0, "fusion_lat": 0.0, "type": "electric_bike", "name": "f2a95140818a7b56c0abd7a1d757ddd5", "is_disabled": 0, "rental_uris": {"ios": "https://dc.lft.to/lastmile_qr_scan", "android": "https://dc.lft.to/lastmile_qr_scan"}, "is_reserved": 0}, {"lon": -77.01767983333333, "bike_id": "75a3faf19aff623d5c8554bbe9641dd4", "lat": 38.885949833333335, "fusion_lon": 0.0, "fusion_lat": 0.0, "type": "electric_scooter", "name": "75a3faf19aff623d5c8554bbe9641dd4", "is_disabled": 0, "rental_uris": {"ios": "https://dc.lft.to/lastmile_qr_scan", "android": "https://dc.lft.to/lastmile_qr_scan"}, "is_reserved": 0}, {"lon": -77.038032, "bike_id": "946f40dfeea567dac6b3c84d30f63663", "lat": 38.92063516666666, "fusion_lon": 0.0, "fusion_lat": 0.0, "type": "electric_scooter", "name": "946f40dfeea567dac6b3c84d30f63663", "is_disabled": 0, "rental_uris": {"ios": "https://dc.lft.to/lastmile_qr_scan", "android": "https://dc.lft.to/lastmile_qr_scan"}, "is_reserved": 0}, {"lon": -77.02668433333334, "bike_id": "f138bb51418fd2d28a16b12680d75210", "lat": 38.92873683333333, "fusion_lon": 0.0, "fusion_lat": 0.0, "type": "electric_scooter", "name": "f138bb51418fd2d28a16b12680d75210", "is_disabled": 0, "rental_uris": {"ios": "https://dc.lft.to/lastmile_qr_scan", "android": "https://dc.lft.to/lastmile_qr_scan"}, "is_reserved": 0}, {"lon": -77.0320875, "bike_id": "39261711062e3295e26f41378c0fcbdf", "lat": 38.898701, "fusion_lon": 0.0, "fusion_lat": 0.0, "type": "electric_scooter", "name": "39261711062e3295e26f41378c0fcbdf", "is_disabled": 0, "rental_uris": {"ios": "https://dc.lft.to/lastmile_qr_scan", "android": "https://dc.lft.to/lastmile_qr_scan"}, "is_reserved": 0}, {"lon": -77.042326, "bike_id": "ac0c49d4a792605828136e2faff55095", "lat": 38.921282833333336, "fusion_lon": 0.0, "fusion_lat": 0.0, "type": "electric_scooter", "name": "ac0c49d4a792605828136e2faff55095", "is_disabled": 0, "rental_uris": {"ios": "https://dc.lft.to/lastmile_qr_scan", "android": "https://dc.lft.to/lastmile_qr_scan"}, "is_reserved": 0}, {"lon": -77.046037, "bike_id": "b8561f8175e6381c946feae5f40a23f5", "lat": 38.91658966666667, "fusion_lon": 0.0, "fusion_lat": 0.0, "type": "electric_scooter", "name": "b8561f8175e6381c946feae5f40a23f5", "is_disabled": 0, "rental_uris": {"ios": "https://dc.lft.to/lastmile_qr_scan", "android": "https://dc.lft.to/lastmile_qr_scan"}, "is_reserved": 0}, {"lon": -77.03246016666667, "bike_id": "98dfdc87ba17b4e73a3a1d9e95db9313", "lat": 38.91550816666667, "fusion_lon": 0.0, "fusion_lat": 0.0, "type": "electric_scooter", "name": "98dfdc87ba17b4e73a3a1d9e95db9313", "is_disabled": 0, "rental_uris": {"ios": "https://dc.lft.to/lastmile_qr_scan", "android": "https://dc.lft.to/lastmile_qr_scan"}, "is_reserved": 0}, {"lon": -77.01480866666667, "bike_id": "f85a86ee4892641ca065f86bc43d9191", "lat": 38.94062683333333, "fusion_lon": 0.0, "fusion_lat": 0.0, "type": "electric_bike", "name": "f85a86ee4892641ca065f86bc43d9191", "is_disabled": 0, "rental_uris": {"ios": "https://dc.lft.to/lastmile_qr_scan", "android": "https://dc.lft.to/lastmile_qr_scan"}, "is_reserved": 0}, {"lon": -77.02041283333334, "bike_id": "dd38fc39ece0c93e23fffd55a3f309b7", "lat": 38.908664, "fusion_lon": 0.0, "fusion_lat": 0.0, "type": "electric_scooter", "name": "dd38fc39ece0c93e23fffd55a3f309b7", "is_disabled": 0, "rental_uris": {"ios": "https://dc.lft.to/lastmile_qr_scan", "android": "https://dc.lft.to/lastmile_qr_scan"}, "is_reserved": 0}, {"lon": -77.00543416666666, "bike_id": "2007803969eacced624f9fe008585b64", "lat": 38.929785333333335, "fusion_lon": 0.0, "fusion_lat": 0.0, "type": "electric_scooter", "name": "2007803969eacced624f9fe008585b64", "is_disabled": 0, "rental_uris": {"ios": "https://dc.lft.to/lastmile_qr_scan", "android": "https://dc.lft.to/lastmile_qr_scan"}, "is_reserved": 0}, {"lon": -77.05413333333334, "bike_id": "6ffc6413a590a265d5cec12c4dfcb261", "lat": 38.95042616666667, "fusion_lon": 0.0, "fusion_lat": 0.0, "type": "electric_scooter", "name": "6ffc6413a590a265d5cec12c4dfcb261", "is_disabled": 0, "rental_uris": {"ios": "https://dc.lft.to/lastmile_qr_scan", "android": "https://dc.lft.to/lastmile_qr_scan"}, "is_reserved": 0}, {"lon": -77.02801783333334, "bike_id": "b3c2c0909c306595f24b1dedd92a6ddd", "lat": 38.916817333333334, "fusion_lon": 0.0, "fusion_lat": 0.0, "type": "electric_scooter", "name": "b3c2c0909c306595f24b1dedd92a6ddd", "is_disabled": 0, "rental_uris": {"ios": "https://dc.lft.to/lastmile_qr_scan", "android": "https://dc.lft.to/lastmile_qr_scan"}, "is_reserved": 0}, {"lon": -77.02268083333334, "bike_id": "f0028bb4d7590ae2cfc5677560decd3a", "lat": 38.93764933333333, "fusion_lon": 0.0, "fusion_lat": 0.0, "type": "electric_scooter", "name": "f0028bb4d7590ae2cfc5677560decd3a", "is_disabled": 0, "rental_uris": {"ios": "https://dc.lft.to/lastmile_qr_scan", "android": "https://dc.lft.to/lastmile_qr_scan"}, "is_reserved": 0}, {"lon": -77.02657133333334, "bike_id": "5b7f56cfb1b94f2143fe1afeee5ba033", "lat": 38.9217635, "fusion_lon": 0.0, "fusion_lat": 0.0, "type": "electric_scooter", "name": "5b7f56cfb1b94f2143fe1afeee5ba033", "is_disabled": 0, "rental_uris": {"ios": "https://dc.lft.to/lastmile_qr_scan", "android": "https://dc.lft.to/lastmile_qr_scan"}, "is_reserved": 0}, {"lon": -77.00348866666667, "bike_id": "2fb2374234c68e734c572132ddcdb6a3", "lat": 38.899328, "fusion_lon": 0.0, "fusion_lat": 0.0, "type": "electric_scooter", "name": "2fb2374234c68e734c572132ddcdb6a3", "is_disabled": 0, "rental_uris": {"ios": "https://dc.lft.to/lastmile_qr_scan", "android": "https://dc.lft.to/lastmile_qr_scan"}, "is_reserved": 0}, {"lon": -77.043516, "bike_id": "191c723ef9f11c11a332694ebad27774", "lat": 38.92176083333333, "fusion_lon": 0.0, "fusion_lat": 0.0, "type": "electric_scooter", "name": "191c723ef9f11c11a332694ebad27774", "is_disabled": 0, "rental_uris": {"ios": "https://dc.lft.to/lastmile_qr_scan", "android": "https://dc.lft.to/lastmile_qr_scan"}, "is_reserved": 0}, {"lon": -77.0531035, "bike_id": "d0d79d79f277e5590f7f3baa7e72c4d3", "lat": 38.926414333333334, "fusion_lon": 0.0, "fusion_lat": 0.0, "type": "electric_scooter", "name": "d0d79d79f277e5590f7f3baa7e72c4d3", "is_disabled": 0, "rental_uris": {"ios": "https://dc.lft.to/lastmile_qr_scan", "android": "https://dc.lft.to/lastmile_qr_scan"}, "is_reserved": 0}, {"lon": -76.92623216666667, "bike_id": "a482e783615bc15837d826cd3a187f52", "lat": 38.88455733333333, "fusion_lon": 0.0, "fusion_lat": 0.0, "type": "electric_scooter", "name": "a482e783615bc15837d826cd3a187f52", "is_disabled": 0, "rental_uris": {"ios": "https://dc.lft.to/lastmile_qr_scan", "android": "https://dc.lft.to/lastmile_qr_scan"}, "is_reserved": 0}, {"lon": -77.00200933333333, "bike_id": "df5b0433f9b797ad6e8b5bc407800b71", "lat": 38.895382166666664, "fusion_lon": 0.0, "fusion_lat": 0.0, "type": "electric_scooter", "name": "df5b0433f9b797ad6e8b5bc407800b71", "is_disabled": 0, "rental_uris": {"ios": "https://dc.lft.to/lastmile_qr_scan", "android": "https://dc.lft.to/lastmile_qr_scan"}, "is_reserved": 0}, {"lon": -77.0448505, "bike_id": "f3d097b4611f69bc3890cc2f610b4848", "lat": 38.900719, "fusion_lon": 0.0, "fusion_lat": 0.0, "type": "electric_scooter", "name": "f3d097b4611f69bc3890cc2f610b4848", "is_disabled": 0, "rental_uris": {"ios": "https://dc.lft.to/lastmile_qr_scan", "android": "https://dc.lft.to/lastmile_qr_scan"}, "is_reserved": 0}, {"lon": -76.981047, "bike_id": "1dd6073564ad2966b8498f04b22c9185", "lat": 38.9040415, "fusion_lon": 0.0, "fusion_lat": 0.0, "type": "electric_scooter", "name": "1dd6073564ad2966b8498f04b22c9185", "is_disabled": 0, "rental_uris": {"ios": "https://dc.lft.to/lastmile_qr_scan", "android": "https://dc.lft.to/lastmile_qr_scan"}, "is_reserved": 0}, {"lon": -77.029684, "bike_id": "09c23038cce91e15b359d5d0aa120260", "lat": 38.922863166666666, "fusion_lon": 0.0, "fusion_lat": 0.0, "type": "electric_scooter", "name": "09c23038cce91e15b359d5d0aa120260", "is_disabled": 0, "rental_uris": {"ios": "https://dc.lft.to/lastmile_qr_scan", "android": "https://dc.lft.to/lastmile_qr_scan"}, "is_reserved": 0}, {"lon": -77.06750783333334, "bike_id": "3a38670c527d1a0b2639e9b28548bea7", "lat": 38.903404333333334, "fusion_lon": 0.0, "fusion_lat": 0.0, "type": "electric_scooter", "name": "3a38670c527d1a0b2639e9b28548bea7", "is_disabled": 0, "rental_uris": {"ios": "https://dc.lft.to/lastmile_qr_scan", "android": "https://dc.lft.to/lastmile_qr_scan"}, "is_reserved": 0}, {"lon": -77.03944316666667, "bike_id": "132bbb2c1e31e25d71a41da49733a507", "lat": 38.930599666666666, "fusion_lon": 0.0, "fusion_lat": 0.0, "type": "electric_scooter", "name": "132bbb2c1e31e25d71a41da49733a507", "is_disabled": 0, "rental_uris": {"ios": "https://dc.lft.to/lastmile_qr_scan", "android": "https://dc.lft.to/lastmile_qr_scan"}, "is_reserved": 0}, {"lon": -77.0181875, "bike_id": "8562c902816239872bcbf60224d4c8fe", "lat": 38.90970866666667, "fusion_lon": 0.0, "fusion_lat": 0.0, "type": "electric_scooter", "name": "8562c902816239872bcbf60224d4c8fe", "is_disabled": 0, "rental_uris": {"ios": "https://dc.lft.to/lastmile_qr_scan", "android": "https://dc.lft.to/lastmile_qr_scan"}, "is_reserved": 0}, {"lon": -76.9336505, "bike_id": "4c8f7331e2067f6d1a360c2c86fd136c", "lat": 38.89915933333333, "fusion_lon": 0.0, "fusion_lat": 0.0, "type": "electric_scooter", "name": "4c8f7331e2067f6d1a360c2c86fd136c", "is_disabled": 0, "rental_uris": {"ios": "https://dc.lft.to/lastmile_qr_scan", "android": "https://dc.lft.to/lastmile_qr_scan"}, "is_reserved": 0}, {"lon": -77.0260895, "bike_id": "4e61a29a83ddd0ad053731915b146ed8", "lat": 38.9004275, "fusion_lon": 0.0, "fusion_lat": 0.0, "type": "electric_scooter", "name": "4e61a29a83ddd0ad053731915b146ed8", "is_disabled": 0, "rental_uris": {"ios": "https://dc.lft.to/lastmile_qr_scan", "android": "https://dc.lft.to/lastmile_qr_scan"}, "is_reserved": 0}, {"lon": -76.9977775, "bike_id": "c380d1ea4320a04b76a9d9b24ba74125", "lat": 38.8442535, "fusion_lon": 0.0, "fusion_lat": 0.0, "type": "electric_scooter", "name": "c380d1ea4320a04b76a9d9b24ba74125", "is_disabled": 0, "rental_uris": {"ios": "https://dc.lft.to/lastmile_qr_scan", "android": "https://dc.lft.to/lastmile_qr_scan"}, "is_reserved": 0}, {"lon": -77.07221633333333, "bike_id": "36fa68e14717d7e6ac769f24a9c81ee7", "lat": 38.9226495, "fusion_lon": 0.0, "fusion_lat": 0.0, "type": "electric_scooter", "name": "36fa68e14717d7e6ac769f24a9c81ee7", "is_disabled": 0, "rental_uris": {"ios": "https://dc.lft.to/lastmile_qr_scan", "android": "https://dc.lft.to/lastmile_qr_scan"}, "is_reserved": 0}, {"lon": -77.03996783333334, "bike_id": "2b8a625b0cf34c91344e8fdee8e13ed6", "lat": 38.903836, "fusion_lon": 0.0, "fusion_lat": 0.0, "type": "electric_scooter", "name": "2b8a625b0cf34c91344e8fdee8e13ed6", "is_disabled": 0, "rental_uris": {"ios": "https://dc.lft.to/lastmile_qr_scan", "android": "https://dc.lft.to/lastmile_qr_scan"}, "is_reserved": 0}, {"lon": -77.04323466666666, "bike_id": "0728f30161ccffa93496c494341661d6", "lat": 38.90357983333333, "fusion_lon": 0.0, "fusion_lat": 0.0, "type": "electric_scooter", "name": "0728f30161ccffa93496c494341661d6", "is_disabled": 0, "rental_uris": {"ios": "https://dc.lft.to/lastmile_qr_scan", "android": "https://dc.lft.to/lastmile_qr_scan"}, "is_reserved": 0}, {"lon": -77.0391835, "bike_id": "e21d56f3cc558186a4072fc5931b2682", "lat": 38.89959016666667, "fusion_lon": 0.0, "fusion_lat": 0.0, "type": "electric_scooter", "name": "e21d56f3cc558186a4072fc5931b2682", "is_disabled": 0, "rental_uris": {"ios": "https://dc.lft.to/lastmile_qr_scan", "android": "https://dc.lft.to/lastmile_qr_scan"}, "is_reserved": 0}, {"lon": -77.02564316666667, "bike_id": "95ec3472f7fe43d941b2bd96c3b39e56", "lat": 38.933514833333334, "fusion_lon": 0.0, "fusion_lat": 0.0, "type": "electric_scooter", "name": "95ec3472f7fe43d941b2bd96c3b39e56", "is_disabled": 0, "rental_uris": {"ios": "https://dc.lft.to/lastmile_qr_scan", "android": "https://dc.lft.to/lastmile_qr_scan"}, "is_reserved": 0}, {"lon": -77.060176, "bike_id": "09cd3920791d9c2c59966fba1ef83ab3", "lat": 38.90495383333333, "fusion_lon": 0.0, "fusion_lat": 0.0, "type": "electric_scooter", "name": "09cd3920791d9c2c59966fba1ef83ab3", "is_disabled": 0, "rental_uris": {"ios": "https://dc.lft.to/lastmile_qr_scan", "android": "https://dc.lft.to/lastmile_qr_scan"}, "is_reserved": 0}, {"lon": -76.9463185, "bike_id": "179feaae2d44cb09a7a7f887b63898a8", "lat": 38.8982985, "fusion_lon": 0.0, "fusion_lat": 0.0, "type": "electric_scooter", "name": "179feaae2d44cb09a7a7f887b63898a8", "is_disabled": 0, "rental_uris": {"ios": "https://dc.lft.to/lastmile_qr_scan", "android": "https://dc.lft.to/lastmile_qr_scan"}, "is_reserved": 0}, {"lon": -77.0075605, "bike_id": "ef104deb91a262f65fa447cced9dad88", "lat": 38.870836, "fusion_lon": 0.0, "fusion_lat": 0.0, "type": "electric_scooter", "name": "ef104deb91a262f65fa447cced9dad88", "is_disabled": 0, "rental_uris": {"ios": "https://dc.lft.to/lastmile_qr_scan", "android": "https://dc.lft.to/lastmile_qr_scan"}, "is_reserved": 0}, {"lon": -77.0403115, "bike_id": "a4bc5cd093c7607c46d0ce3671480cc8", "lat": 38.92403183333333, "fusion_lon": 0.0, "fusion_lat": 0.0, "type": "electric_scooter", "name": "a4bc5cd093c7607c46d0ce3671480cc8", "is_disabled": 0, "rental_uris": {"ios": "https://dc.lft.to/lastmile_qr_scan", "android": "https://dc.lft.to/lastmile_qr_scan"}, "is_reserved": 0}, {"lon": -77.02252583333333, "bike_id": "1382d7b63c3346a1f2290c8030d5241f", "lat": 38.92894966666667, "fusion_lon": 0.0, "fusion_lat": 0.0, "type": "electric_scooter", "name": "1382d7b63c3346a1f2290c8030d5241f", "is_disabled": 0, "rental_uris": {"ios": "https://dc.lft.to/lastmile_qr_scan", "android": "https://dc.lft.to/lastmile_qr_scan"}, "is_reserved": 0}, {"lon": -77.02151, "bike_id": "615e8237f82e338233e311dc328d949d", "lat": 38.90257016666666, "fusion_lon": 0.0, "fusion_lat": 0.0, "type": "electric_scooter", "name": "615e8237f82e338233e311dc328d949d", "is_disabled": 0, "rental_uris": {"ios": "https://dc.lft.to/lastmile_qr_scan", "android": "https://dc.lft.to/lastmile_qr_scan"}, "is_reserved": 0}, {"lon": -77.02153966666667, "bike_id": "a49c6b2d03a83017cb43d250cc4bdbae", "lat": 38.89495266666667, "fusion_lon": 0.0, "fusion_lat": 0.0, "type": "electric_scooter", "name": "a49c6b2d03a83017cb43d250cc4bdbae", "is_disabled": 0, "rental_uris": {"ios": "https://dc.lft.to/lastmile_qr_scan", "android": "https://dc.lft.to/lastmile_qr_scan"}, "is_reserved": 0}, {"lon": -76.96527716666667, "bike_id": "0824eef9becd2d648e22c91dc5c89912", "lat": 38.874823, "fusion_lon": 0.0, "fusion_lat": 0.0, "type": "electric_scooter", "name": "0824eef9becd2d648e22c91dc5c89912", "is_disabled": 0, "rental_uris": {"ios": "https://dc.lft.to/lastmile_qr_scan", "android": "https://dc.lft.to/lastmile_qr_scan"}, "is_reserved": 0}, {"lon": -77.02325433333333, "bike_id": "aa84333283b02b712aa3f1d1eb746e30", "lat": 38.9241225, "fusion_lon": 0.0, "fusion_lat": 0.0, "type": "electric_scooter", "name": "aa84333283b02b712aa3f1d1eb746e30", "is_disabled": 0, "rental_uris": {"ios": "https://dc.lft.to/lastmile_qr_scan", "android": "https://dc.lft.to/lastmile_qr_scan"}, "is_reserved": 0}, {"lon": -77.0386735, "bike_id": "bfff67397109717ae5b151a93795b5aa", "lat": 38.9215015, "fusion_lon": 0.0, "fusion_lat": 0.0, "type": "electric_scooter", "name": "bfff67397109717ae5b151a93795b5aa", "is_disabled": 0, "rental_uris": {"ios": "https://dc.lft.to/lastmile_qr_scan", "android": "https://dc.lft.to/lastmile_qr_scan"}, "is_reserved": 0}, {"lon": -77.029686, "bike_id": "93a32dfee9db0773e09d805196a76131", "lat": 38.916609333333334, "fusion_lon": 0.0, "fusion_lat": 0.0, "type": "electric_scooter", "name": "93a32dfee9db0773e09d805196a76131", "is_disabled": 0, "rental_uris": {"ios": "https://dc.lft.to/lastmile_qr_scan", "android": "https://dc.lft.to/lastmile_qr_scan"}, "is_reserved": 0}, {"lon": -77.0414675, "bike_id": "64cd66e473cbfa9704acbec040ff0ab8", "lat": 38.9198425, "fusion_lon": 0.0, "fusion_lat": 0.0, "type": "electric_scooter", "name": "64cd66e473cbfa9704acbec040ff0ab8", "is_disabled": 0, "rental_uris": {"ios": "https://dc.lft.to/lastmile_qr_scan", "android": "https://dc.lft.to/lastmile_qr_scan"}, "is_reserved": 0}, {"lon": -76.94032983333334, "bike_id": "b223966fa3acab0f4075fec871a55dcd", "lat": 38.90817883333333, "fusion_lon": 0.0, "fusion_lat": 0.0, "type": "electric_bike", "name": "b223966fa3acab0f4075fec871a55dcd", "is_disabled": 0, "rental_uris": {"ios": "https://dc.lft.to/lastmile_qr_scan", "android": "https://dc.lft.to/lastmile_qr_scan"}, "is_reserved": 0}, {"lon": -77.03682866666666, "bike_id": "21ceaa03db64f94ff4cc7743ce782294", "lat": 38.939310666666664, "fusion_lon": 0.0, "fusion_lat": 0.0, "type": "electric_scooter", "name": "21ceaa03db64f94ff4cc7743ce782294", "is_disabled": 0, "rental_uris": {"ios": "https://dc.lft.to/lastmile_qr_scan", "android": "https://dc.lft.to/lastmile_qr_scan"}, "is_reserved": 0}, {"lon": -77.0333465, "bike_id": "0b27455d66674720357b031b1b59b78c", "lat": 38.8983315, "fusion_lon": 0.0, "fusion_lat": 0.0, "type": "electric_scooter", "name": "0b27455d66674720357b031b1b59b78c", "is_disabled": 0, "rental_uris": {"ios": "https://dc.lft.to/lastmile_qr_scan", "android": "https://dc.lft.to/lastmile_qr_scan"}, "is_reserved": 0}, {"lon": -77.0641605, "bike_id": "7c836ca124e1a4e98f03de9ed2c5cf8b", "lat": 38.99333016666667, "fusion_lon": 0.0, "fusion_lat": 0.0, "type": "electric_scooter", "name": "7c836ca124e1a4e98f03de9ed2c5cf8b", "is_disabled": 0, "rental_uris": {"ios": "https://dc.lft.to/lastmile_qr_scan", "android": "https://dc.lft.to/lastmile_qr_scan"}, "is_reserved": 0}, {"lon": -77.036301, "bike_id": "0cee5b4b5c483d8a808d9e657fda2848", "lat": 38.94494533333334, "fusion_lon": 0.0, "fusion_lat": 0.0, "type": "electric_scooter", "name": "0cee5b4b5c483d8a808d9e657fda2848", "is_disabled": 0, "rental_uris": {"ios": "https://dc.lft.to/lastmile_qr_scan", "android": "https://dc.lft.to/lastmile_qr_scan"}, "is_reserved": 0}, {"lon": -76.96526183333333, "bike_id": "922e03c52dbf55b6abf20e28b25267e6", "lat": 38.876285833333334, "fusion_lon": 0.0, "fusion_lat": 0.0, "type": "electric_scooter", "name": "922e03c52dbf55b6abf20e28b25267e6", "is_disabled": 0, "rental_uris": {"ios": "https://dc.lft.to/lastmile_qr_scan", "android": "https://dc.lft.to/lastmile_qr_scan"}, "is_reserved": 0}, {"lon": -77.02108333333334, "bike_id": "76e2b64b2395fe439ba7541fc49fb446", "lat": 38.905608666666666, "fusion_lon": 0.0, "fusion_lat": 0.0, "type": "electric_scooter", "name": "76e2b64b2395fe439ba7541fc49fb446", "is_disabled": 0, "rental_uris": {"ios": "https://dc.lft.to/lastmile_qr_scan", "android": "https://dc.lft.to/lastmile_qr_scan"}, "is_reserved": 0}, {"lon": -77.01439666666667, "bike_id": "e27ba21cff947291b5b34aad6af8c789", "lat": 38.876694, "fusion_lon": 0.0, "fusion_lat": 0.0, "type": "electric_bike", "name": "e27ba21cff947291b5b34aad6af8c789", "is_disabled": 0, "rental_uris": {"ios": "https://dc.lft.to/lastmile_qr_scan", "android": "https://dc.lft.to/lastmile_qr_scan"}, "is_reserved": 0}, {"lon": -77.042698, "bike_id": "ae639046a27ecee212823fa25e583e4f", "lat": 38.92298816666667, "fusion_lon": 0.0, "fusion_lat": 0.0, "type": "electric_scooter", "name": "ae639046a27ecee212823fa25e583e4f", "is_disabled": 0, "rental_uris": {"ios": "https://dc.lft.to/lastmile_qr_scan", "android": "https://dc.lft.to/lastmile_qr_scan"}, "is_reserved": 0}, {"lon": -77.054656, "bike_id": "45dbd8dc6b8c25cd429a00ae27bd1ae3", "lat": 38.925748666666664, "fusion_lon": 0.0, "fusion_lat": 0.0, "type": "electric_scooter", "name": "45dbd8dc6b8c25cd429a00ae27bd1ae3", "is_disabled": 0, "rental_uris": {"ios": "https://dc.lft.to/lastmile_qr_scan", "android": "https://dc.lft.to/lastmile_qr_scan"}, "is_reserved": 0}, {"lon": -77.02721316666667, "bike_id": "3c20e8579fc5d8139bc01e0d34905f5a", "lat": 38.90553366666666, "fusion_lon": 0.0, "fusion_lat": 0.0, "type": "electric_scooter", "name": "3c20e8579fc5d8139bc01e0d34905f5a", "is_disabled": 0, "rental_uris": {"ios": "https://dc.lft.to/lastmile_qr_scan", "android": "https://dc.lft.to/lastmile_qr_scan"}, "is_reserved": 0}, {"lon": -77.042544, "bike_id": "580807445b9f6c0874415b2346786dd3", "lat": 38.922576, "fusion_lon": 0.0, "fusion_lat": 0.0, "type": "electric_scooter", "name": "580807445b9f6c0874415b2346786dd3", "is_disabled": 0, "rental_uris": {"ios": "https://dc.lft.to/lastmile_qr_scan", "android": "https://dc.lft.to/lastmile_qr_scan"}, "is_reserved": 0}, {"lon": -77.04155533333333, "bike_id": "b87f6798903faeff2034b429202153e9", "lat": 38.9181565, "fusion_lon": 0.0, "fusion_lat": 0.0, "type": "electric_scooter", "name": "b87f6798903faeff2034b429202153e9", "is_disabled": 0, "rental_uris": {"ios": "https://dc.lft.to/lastmile_qr_scan", "android": "https://dc.lft.to/lastmile_qr_scan"}, "is_reserved": 0}, {"lon": -77.038782, "bike_id": "cfd68921a2912120a16742fa4cc558c7", "lat": 38.93185583333333, "fusion_lon": 0.0, "fusion_lat": 0.0, "type": "electric_scooter", "name": "cfd68921a2912120a16742fa4cc558c7", "is_disabled": 0, "rental_uris": {"ios": "https://dc.lft.to/lastmile_qr_scan", "android": "https://dc.lft.to/lastmile_qr_scan"}, "is_reserved": 0}, {"lon": -76.9732565, "bike_id": "6853501007f68a05eeb04340e2407809", "lat": 38.904108666666666, "fusion_lon": 0.0, "fusion_lat": 0.0, "type": "electric_scooter", "name": "6853501007f68a05eeb04340e2407809", "is_disabled": 0, "rental_uris": {"ios": "https://dc.lft.to/lastmile_qr_scan", "android": "https://dc.lft.to/lastmile_qr_scan"}, "is_reserved": 0}, {"lon": -77.0236885, "bike_id": "3ff2beea19cabc32113fb37c9878bdf0", "lat": 38.9155195, "fusion_lon": 0.0, "fusion_lat": 0.0, "type": "electric_scooter", "name": "3ff2beea19cabc32113fb37c9878bdf0", "is_disabled": 0, "rental_uris": {"ios": "https://dc.lft.to/lastmile_qr_scan", "android": "https://dc.lft.to/lastmile_qr_scan"}, "is_reserved": 0}, {"lon": -76.94196083333334, "bike_id": "2b6a6776eef84ebe0fc260138846d049", "lat": 38.89311216666667, "fusion_lon": 0.0, "fusion_lat": 0.0, "type": "electric_bike", "name": "2b6a6776eef84ebe0fc260138846d049", "is_disabled": 0, "rental_uris": {"ios": "https://dc.lft.to/lastmile_qr_scan", "android": "https://dc.lft.to/lastmile_qr_scan"}, "is_reserved": 0}, {"lon": -77.0132475, "bike_id": "0ea1648becc1a55422fa5c6a06d91480", "lat": 38.90017183333333, "fusion_lon": 0.0, "fusion_lat": 0.0, "type": "electric_scooter", "name": "0ea1648becc1a55422fa5c6a06d91480", "is_disabled": 0, "rental_uris": {"ios": "https://dc.lft.to/lastmile_qr_scan", "android": "https://dc.lft.to/lastmile_qr_scan"}, "is_reserved": 0}, {"lon": -77.0409175, "bike_id": "e55b8ac46343cbff832e7919b6c88ce5", "lat": 38.90898166666667, "fusion_lon": 0.0, "fusion_lat": 0.0, "type": "electric_scooter", "name": "e55b8ac46343cbff832e7919b6c88ce5", "is_disabled": 0, "rental_uris": {"ios": "https://dc.lft.to/lastmile_qr_scan", "android": "https://dc.lft.to/lastmile_qr_scan"}, "is_reserved": 0}, {"lon": -77.03672633333333, "bike_id": "157891bec9259ecc13ced5f256d3988b", "lat": 38.932068666666666, "fusion_lon": 0.0, "fusion_lat": 0.0, "type": "electric_scooter", "name": "157891bec9259ecc13ced5f256d3988b", "is_disabled": 0, "rental_uris": {"ios": "https://dc.lft.to/lastmile_qr_scan", "android": "https://dc.lft.to/lastmile_qr_scan"}, "is_reserved": 0}, {"lon": -77.02345133333333, "bike_id": "6056b914f10a5bbf87c82034209f804c", "lat": 38.922473833333335, "fusion_lon": 0.0, "fusion_lat": 0.0, "type": "electric_scooter", "name": "6056b914f10a5bbf87c82034209f804c", "is_disabled": 0, "rental_uris": {"ios": "https://dc.lft.to/lastmile_qr_scan", "android": "https://dc.lft.to/lastmile_qr_scan"}, "is_reserved": 0}, {"lon": -77.01513366666667, "bike_id": "1c2f91f74ad92cdb8a5b49cd3b45f1d0", "lat": 38.90010783333334, "fusion_lon": 0.0, "fusion_lat": 0.0, "type": "electric_scooter", "name": "1c2f91f74ad92cdb8a5b49cd3b45f1d0", "is_disabled": 0, "rental_uris": {"ios": "https://dc.lft.to/lastmile_qr_scan", "android": "https://dc.lft.to/lastmile_qr_scan"}, "is_reserved": 0}, {"lon": -77.00218983333333, "bike_id": "de351c29b6c785d01359dc95fc1c329d", "lat": 38.900364, "fusion_lon": 0.0, "fusion_lat": 0.0, "type": "electric_scooter", "name": "de351c29b6c785d01359dc95fc1c329d", "is_disabled": 0, "rental_uris": {"ios": "https://dc.lft.to/lastmile_qr_scan", "android": "https://dc.lft.to/lastmile_qr_scan"}, "is_reserved": 0}, {"lon": -76.95536066666666, "bike_id": "5259902da2dd5b918357b00f4fd3b2bd", "lat": 38.888749833333335, "fusion_lon": 0.0, "fusion_lat": 0.0, "type": "electric_scooter", "name": "5259902da2dd5b918357b00f4fd3b2bd", "is_disabled": 0, "rental_uris": {"ios": "https://dc.lft.to/lastmile_qr_scan", "android": "https://dc.lft.to/lastmile_qr_scan"}, "is_reserved": 0}, {"lon": -76.9927165, "bike_id": "ee57556eb30be3f597d847bba0517144", "lat": 38.89768766666667, "fusion_lon": 0.0, "fusion_lat": 0.0, "type": "electric_scooter", "name": "ee57556eb30be3f597d847bba0517144", "is_disabled": 0, "rental_uris": {"ios": "https://dc.lft.to/lastmile_qr_scan", "android": "https://dc.lft.to/lastmile_qr_scan"}, "is_reserved": 0}, {"lon": -77.017139, "bike_id": "009406c09a290c2db922b79eb50aac17", "lat": 38.90974933333333, "fusion_lon": 0.0, "fusion_lat": 0.0, "type": "electric_scooter", "name": "009406c09a290c2db922b79eb50aac17", "is_disabled": 0, "rental_uris": {"ios": "https://dc.lft.to/lastmile_qr_scan", "android": "https://dc.lft.to/lastmile_qr_scan"}, "is_reserved": 0}, {"lon": -77.08819833333334, "bike_id": "3917fbf9b62417f9c0bdd7c68463b121", "lat": 38.90977916666667, "fusion_lon": 0.0, "fusion_lat": 0.0, "type": "electric_scooter", "name": "3917fbf9b62417f9c0bdd7c68463b121", "is_disabled": 0, "rental_uris": {"ios": "https://dc.lft.to/lastmile_qr_scan", "android": "https://dc.lft.to/lastmile_qr_scan"}, "is_reserved": 0}, {"lon": -76.9373225, "bike_id": "b3f90e13a65e1afa838462b5202b50f4", "lat": 38.8901595, "fusion_lon": 0.0, "fusion_lat": 0.0, "type": "electric_scooter", "name": "b3f90e13a65e1afa838462b5202b50f4", "is_disabled": 0, "rental_uris": {"ios": "https://dc.lft.to/lastmile_qr_scan", "android": "https://dc.lft.to/lastmile_qr_scan"}, "is_reserved": 0}, {"lon": -77.00135383333334, "bike_id": "0eeb0bd097c534f34c25cf6661f6ebf9", "lat": 38.89468983333333, "fusion_lon": 0.0, "fusion_lat": 0.0, "type": "electric_scooter", "name": "0eeb0bd097c534f34c25cf6661f6ebf9", "is_disabled": 0, "rental_uris": {"ios": "https://dc.lft.to/lastmile_qr_scan", "android": "https://dc.lft.to/lastmile_qr_scan"}, "is_reserved": 0}, {"lon": -77.03459883333333, "bike_id": "cd50fbbc7ce8b2ba8f5a355d281e2443", "lat": 38.920602333333335, "fusion_lon": 0.0, "fusion_lat": 0.0, "type": "electric_scooter", "name": "cd50fbbc7ce8b2ba8f5a355d281e2443", "is_disabled": 0, "rental_uris": {"ios": "https://dc.lft.to/lastmile_qr_scan", "android": "https://dc.lft.to/lastmile_qr_scan"}, "is_reserved": 0}, {"lon": -76.93756616666667, "bike_id": "7af50bc163c935c4d5eaa3366d90d76a", "lat": 38.89042166666667, "fusion_lon": 0.0, "fusion_lat": 0.0, "type": "electric_scooter", "name": "7af50bc163c935c4d5eaa3366d90d76a", "is_disabled": 0, "rental_uris": {"ios": "https://dc.lft.to/lastmile_qr_scan", "android": "https://dc.lft.to/lastmile_qr_scan"}, "is_reserved": 0}, {"lon": -77.00220316666666, "bike_id": "35fb8b996e602cfdb2c44531a27bb70e", "lat": 38.90041766666667, "fusion_lon": 0.0, "fusion_lat": 0.0, "type": "electric_scooter", "name": "35fb8b996e602cfdb2c44531a27bb70e", "is_disabled": 0, "rental_uris": {"ios": "https://dc.lft.to/lastmile_qr_scan", "android": "https://dc.lft.to/lastmile_qr_scan"}, "is_reserved": 0}, {"lon": -77.02320616666667, "bike_id": "7c82b92d808d3052f862435ccb9256a1", "lat": 38.922269, "fusion_lon": 0.0, "fusion_lat": 0.0, "type": "electric_scooter", "name": "7c82b92d808d3052f862435ccb9256a1", "is_disabled": 0, "rental_uris": {"ios": "https://dc.lft.to/lastmile_qr_scan", "android": "https://dc.lft.to/lastmile_qr_scan"}, "is_reserved": 0}, {"lon": -77.04254566666667, "bike_id": "4b5555f1ed2421de43272d339d001c2a", "lat": 38.9229055, "fusion_lon": 0.0, "fusion_lat": 0.0, "type": "electric_scooter", "name": "4b5555f1ed2421de43272d339d001c2a", "is_disabled": 0, "rental_uris": {"ios": "https://dc.lft.to/lastmile_qr_scan", "android": "https://dc.lft.to/lastmile_qr_scan"}, "is_reserved": 0}, {"lon": -77.0332905, "bike_id": "ad8dbf4dccb4128fdce8633d14a1628a", "lat": 38.903763833333336, "fusion_lon": 0.0, "fusion_lat": 0.0, "type": "electric_scooter", "name": "ad8dbf4dccb4128fdce8633d14a1628a", "is_disabled": 0, "rental_uris": {"ios": "https://dc.lft.to/lastmile_qr_scan", "android": "https://dc.lft.to/lastmile_qr_scan"}, "is_reserved": 0}, {"lon": -77.026445, "bike_id": "71c963221ce47470d44ea1c2e36ea2a1", "lat": 38.897200833333336, "fusion_lon": 0.0, "fusion_lat": 0.0, "type": "electric_scooter", "name": "71c963221ce47470d44ea1c2e36ea2a1", "is_disabled": 0, "rental_uris": {"ios": "https://dc.lft.to/lastmile_qr_scan", "android": "https://dc.lft.to/lastmile_qr_scan"}, "is_reserved": 0}, {"lon": -77.03120233333334, "bike_id": "60ae4195a8b7b54f8e4bd7a3c3df90c2", "lat": 38.91705866666667, "fusion_lon": 0.0, "fusion_lat": 0.0, "type": "electric_scooter", "name": "60ae4195a8b7b54f8e4bd7a3c3df90c2", "is_disabled": 0, "rental_uris": {"ios": "https://dc.lft.to/lastmile_qr_scan", "android": "https://dc.lft.to/lastmile_qr_scan"}, "is_reserved": 0}, {"lon": -76.99003216666667, "bike_id": "073670d604ec27ddd59985621dc0a944", "lat": 38.86507316666667, "fusion_lon": 0.0, "fusion_lat": 0.0, "type": "electric_scooter", "name": "073670d604ec27ddd59985621dc0a944", "is_disabled": 0, "rental_uris": {"ios": "https://dc.lft.to/lastmile_qr_scan", "android": "https://dc.lft.to/lastmile_qr_scan"}, "is_reserved": 0}, {"lon": -77.05574016666667, "bike_id": "0f301bd32d097a1f6accc513c8bed4cc", "lat": 38.9159675, "fusion_lon": 0.0, "fusion_lat": 0.0, "type": "electric_scooter", "name": "0f301bd32d097a1f6accc513c8bed4cc", "is_disabled": 0, "rental_uris": {"ios": "https://dc.lft.to/lastmile_qr_scan", "android": "https://dc.lft.to/lastmile_qr_scan"}, "is_reserved": 0}, {"lon": -77.03335433333334, "bike_id": "706101c6b04aaed19dff59e455691530", "lat": 38.9364075, "fusion_lon": 0.0, "fusion_lat": 0.0, "type": "electric_scooter", "name": "706101c6b04aaed19dff59e455691530", "is_disabled": 0, "rental_uris": {"ios": "https://dc.lft.to/lastmile_qr_scan", "android": "https://dc.lft.to/lastmile_qr_scan"}, "is_reserved": 0}, {"lon": -77.02477016666667, "bike_id": "8b1bb04c6c68627f54a4123e2dfa7bc2", "lat": 38.88022766666667, "fusion_lon": 0.0, "fusion_lat": 0.0, "type": "electric_scooter", "name": "8b1bb04c6c68627f54a4123e2dfa7bc2", "is_disabled": 0, "rental_uris": {"ios": "https://dc.lft.to/lastmile_qr_scan", "android": "https://dc.lft.to/lastmile_qr_scan"}, "is_reserved": 0}, {"lon": -77.0209315, "bike_id": "e37e914fde19ff7a3801b0f8b229d47e", "lat": 38.95749283333333, "fusion_lon": 0.0, "fusion_lat": 0.0, "type": "electric_scooter", "name": "e37e914fde19ff7a3801b0f8b229d47e", "is_disabled": 0, "rental_uris": {"ios": "https://dc.lft.to/lastmile_qr_scan", "android": "https://dc.lft.to/lastmile_qr_scan"}, "is_reserved": 0}, {"lon": -76.98708933333333, "bike_id": "9881390a9be8531f3a00ce046433a6ac", "lat": 38.8653685, "fusion_lon": 0.0, "fusion_lat": 0.0, "type": "electric_scooter", "name": "9881390a9be8531f3a00ce046433a6ac", "is_disabled": 0, "rental_uris": {"ios": "https://dc.lft.to/lastmile_qr_scan", "android": "https://dc.lft.to/lastmile_qr_scan"}, "is_reserved": 0}, {"lon": -76.98726466666666, "bike_id": "01f7e7bc50a26d3893c9c874c4bb8a94", "lat": 38.867143166666665, "fusion_lon": 0.0, "fusion_lat": 0.0, "type": "electric_scooter", "name": "01f7e7bc50a26d3893c9c874c4bb8a94", "is_disabled": 0, "rental_uris": {"ios": "https://dc.lft.to/lastmile_qr_scan", "android": "https://dc.lft.to/lastmile_qr_scan"}, "is_reserved": 0}, {"lon": -76.9933275, "bike_id": "2072234dd25d8a0f455f9b7fe7574d6b", "lat": 38.87144133333334, "fusion_lon": 0.0, "fusion_lat": 0.0, "type": "electric_scooter", "name": "2072234dd25d8a0f455f9b7fe7574d6b", "is_disabled": 0, "rental_uris": {"ios": "https://dc.lft.to/lastmile_qr_scan", "android": "https://dc.lft.to/lastmile_qr_scan"}, "is_reserved": 0}, {"lon": -77.024032, "bike_id": "78e7d906113da16da381e7765ec014c8", "lat": 38.92146566666667, "fusion_lon": 0.0, "fusion_lat": 0.0, "type": "electric_scooter", "name": "78e7d906113da16da381e7765ec014c8", "is_disabled": 0, "rental_uris": {"ios": "https://dc.lft.to/lastmile_qr_scan", "android": "https://dc.lft.to/lastmile_qr_scan"}, "is_reserved": 0}, {"lon": -77.00611316666667, "bike_id": "f39da1ece92d5f7ea32f72fa2e411449", "lat": 38.871789166666666, "fusion_lon": 0.0, "fusion_lat": 0.0, "type": "electric_scooter", "name": "f39da1ece92d5f7ea32f72fa2e411449", "is_disabled": 0, "rental_uris": {"ios": "https://dc.lft.to/lastmile_qr_scan", "android": "https://dc.lft.to/lastmile_qr_scan"}, "is_reserved": 0}, {"lon": -77.048761, "bike_id": "a1eb3daffcdbe6252e150736f371cd3a", "lat": 38.892354166666664, "fusion_lon": 0.0, "fusion_lat": 0.0, "type": "electric_scooter", "name": "a1eb3daffcdbe6252e150736f371cd3a", "is_disabled": 0, "rental_uris": {"ios": "https://dc.lft.to/lastmile_qr_scan", "android": "https://dc.lft.to/lastmile_qr_scan"}, "is_reserved": 0}, {"lon": -77.01620383333334, "bike_id": "3e6a26f52530e60cf56438d3adbf8b6d", "lat": 38.90615416666667, "fusion_lon": 0.0, "fusion_lat": 0.0, "type": "electric_scooter", "name": "3e6a26f52530e60cf56438d3adbf8b6d", "is_disabled": 0, "rental_uris": {"ios": "https://dc.lft.to/lastmile_qr_scan", "android": "https://dc.lft.to/lastmile_qr_scan"}, "is_reserved": 0}, {"lon": -77.036412, "bike_id": "cab9178483c96fefa98c12586c419b10", "lat": 38.924595833333335, "fusion_lon": 0.0, "fusion_lat": 0.0, "type": "electric_scooter", "name": "cab9178483c96fefa98c12586c419b10", "is_disabled": 0, "rental_uris": {"ios": "https://dc.lft.to/lastmile_qr_scan", "android": "https://dc.lft.to/lastmile_qr_scan"}, "is_reserved": 0}, {"lon": -77.03661283333334, "bike_id": "939e6961ef64d0df3b42c815ef6814e8", "lat": 38.90347216666667, "fusion_lon": 0.0, "fusion_lat": 0.0, "type": "electric_scooter", "name": "939e6961ef64d0df3b42c815ef6814e8", "is_disabled": 0, "rental_uris": {"ios": "https://dc.lft.to/lastmile_qr_scan", "android": "https://dc.lft.to/lastmile_qr_scan"}, "is_reserved": 0}, {"lon": -77.09494316666667, "bike_id": "728eb1dd41c2ecf06d663e9cb6a9f292", "lat": 38.80763366666667, "fusion_lon": 0.0, "fusion_lat": 0.0, "type": "electric_bike", "name": "728eb1dd41c2ecf06d663e9cb6a9f292", "is_disabled": 0, "rental_uris": {"ios": "https://dc.lft.to/lastmile_qr_scan", "android": "https://dc.lft.to/lastmile_qr_scan"}, "is_reserved": 0}, {"lon": -77.04152916666666, "bike_id": "fa0a6dcad2487eb2b1d230590ebea199", "lat": 38.9179905, "fusion_lon": 0.0, "fusion_lat": 0.0, "type": "electric_scooter", "name": "fa0a6dcad2487eb2b1d230590ebea199", "is_disabled": 0, "rental_uris": {"ios": "https://dc.lft.to/lastmile_qr_scan", "android": "https://dc.lft.to/lastmile_qr_scan"}, "is_reserved": 0}, {"lon": -76.98833033333334, "bike_id": "439dc07e67b5362997faaca15ed58c9b", "lat": 38.90128266666667, "fusion_lon": 0.0, "fusion_lat": 0.0, "type": "electric_scooter", "name": "439dc07e67b5362997faaca15ed58c9b", "is_disabled": 0, "rental_uris": {"ios": "https://dc.lft.to/lastmile_qr_scan", "android": "https://dc.lft.to/lastmile_qr_scan"}, "is_reserved": 0}, {"lon": -77.04346183333334, "bike_id": "0966507020a0cd479e5dae658e47b2ab", "lat": 38.90120833333334, "fusion_lon": 0.0, "fusion_lat": 0.0, "type": "electric_scooter", "name": "0966507020a0cd479e5dae658e47b2ab", "is_disabled": 0, "rental_uris": {"ios": "https://dc.lft.to/lastmile_qr_scan", "android": "https://dc.lft.to/lastmile_qr_scan"}, "is_reserved": 0}, {"lon": -76.98883016666667, "bike_id": "f73c1697be16ca4866b68a3360da5809", "lat": 38.8665475, "fusion_lon": 0.0, "fusion_lat": 0.0, "type": "electric_scooter", "name": "f73c1697be16ca4866b68a3360da5809", "is_disabled": 0, "rental_uris": {"ios": "https://dc.lft.to/lastmile_qr_scan", "android": "https://dc.lft.to/lastmile_qr_scan"}, "is_reserved": 0}, {"lon": -77.032825, "bike_id": "f227277b1f6e6db2b6cc5cbef1f93538", "lat": 38.93489, "fusion_lon": 0.0, "fusion_lat": 0.0, "type": "electric_scooter", "name": "f227277b1f6e6db2b6cc5cbef1f93538", "is_disabled": 0, "rental_uris": {"ios": "https://dc.lft.to/lastmile_qr_scan", "android": "https://dc.lft.to/lastmile_qr_scan"}, "is_reserved": 0}, {"lon": -76.98711966666667, "bike_id": "611b22f907cc2ffc2a05f336a3114eff", "lat": 38.867022, "fusion_lon": 0.0, "fusion_lat": 0.0, "type": "electric_scooter", "name": "611b22f907cc2ffc2a05f336a3114eff", "is_disabled": 0, "rental_uris": {"ios": "https://dc.lft.to/lastmile_qr_scan", "android": "https://dc.lft.to/lastmile_qr_scan"}, "is_reserved": 0}, {"lon": -77.03187533333333, "bike_id": "2eeba5d5a9096a4a2f14d4d38cac1810", "lat": 38.9080135, "fusion_lon": 0.0, "fusion_lat": 0.0, "type": "electric_scooter", "name": "2eeba5d5a9096a4a2f14d4d38cac1810", "is_disabled": 0, "rental_uris": {"ios": "https://dc.lft.to/lastmile_qr_scan", "android": "https://dc.lft.to/lastmile_qr_scan"}, "is_reserved": 0}, {"lon": -77.04481466666667, "bike_id": "a03f84017887ad0ec3aacc528442df47", "lat": 38.911640166666665, "fusion_lon": 0.0, "fusion_lat": 0.0, "type": "electric_scooter", "name": "a03f84017887ad0ec3aacc528442df47", "is_disabled": 0, "rental_uris": {"ios": "https://dc.lft.to/lastmile_qr_scan", "android": "https://dc.lft.to/lastmile_qr_scan"}, "is_reserved": 0}, {"lon": -77.0366665, "bike_id": "7dd32e5378d76072d09ef14eddc5b1ca", "lat": 38.916773166666665, "fusion_lon": 0.0, "fusion_lat": 0.0, "type": "electric_scooter", "name": "7dd32e5378d76072d09ef14eddc5b1ca", "is_disabled": 0, "rental_uris": {"ios": "https://dc.lft.to/lastmile_qr_scan", "android": "https://dc.lft.to/lastmile_qr_scan"}, "is_reserved": 0}, {"lon": -77.02849966666666, "bike_id": "ff417bb7706c9487ba26353319aa185a", "lat": 38.93472283333333, "fusion_lon": 0.0, "fusion_lat": 0.0, "type": "electric_scooter", "name": "ff417bb7706c9487ba26353319aa185a", "is_disabled": 0, "rental_uris": {"ios": "https://dc.lft.to/lastmile_qr_scan", "android": "https://dc.lft.to/lastmile_qr_scan"}, "is_reserved": 0}, {"lon": -77.038672, "bike_id": "aa20a292d2b783513f2a5e4ae7889b45", "lat": 38.9027015, "fusion_lon": 0.0, "fusion_lat": 0.0, "type": "electric_scooter", "name": "aa20a292d2b783513f2a5e4ae7889b45", "is_disabled": 0, "rental_uris": {"ios": "https://dc.lft.to/lastmile_qr_scan", "android": "https://dc.lft.to/lastmile_qr_scan"}, "is_reserved": 0}, {"lon": -76.937316, "bike_id": "04f732fe70442f7081573a0d0505d3f1", "lat": 38.89016216666667, "fusion_lon": 0.0, "fusion_lat": 0.0, "type": "electric_scooter", "name": "04f732fe70442f7081573a0d0505d3f1", "is_disabled": 0, "rental_uris": {"ios": "https://dc.lft.to/lastmile_qr_scan", "android": "https://dc.lft.to/lastmile_qr_scan"}, "is_reserved": 0}, {"lon": -77.04149083333333, "bike_id": "9fdd48e5a0e7d24be96ced533fc30eb8", "lat": 38.9155455, "fusion_lon": 0.0, "fusion_lat": 0.0, "type": "electric_scooter", "name": "9fdd48e5a0e7d24be96ced533fc30eb8", "is_disabled": 0, "rental_uris": {"ios": "https://dc.lft.to/lastmile_qr_scan", "android": "https://dc.lft.to/lastmile_qr_scan"}, "is_reserved": 0}, {"lon": -77.04167033333333, "bike_id": "0c43e19ef1648f35e8f3c112dde0465c", "lat": 38.913545666666664, "fusion_lon": 0.0, "fusion_lat": 0.0, "type": "electric_scooter", "name": "0c43e19ef1648f35e8f3c112dde0465c", "is_disabled": 0, "rental_uris": {"ios": "https://dc.lft.to/lastmile_qr_scan", "android": "https://dc.lft.to/lastmile_qr_scan"}, "is_reserved": 0}, {"lon": -76.99488816666667, "bike_id": "ccb8618a9f5e3c3e2ed9e8ce33582579", "lat": 38.8624565, "fusion_lon": 0.0, "fusion_lat": 0.0, "type": "electric_scooter", "name": "ccb8618a9f5e3c3e2ed9e8ce33582579", "is_disabled": 0, "rental_uris": {"ios": "https://dc.lft.to/lastmile_qr_scan", "android": "https://dc.lft.to/lastmile_qr_scan"}, "is_reserved": 0}, {"lon": -77.03212583333334, "bike_id": "24930237839b872ac32ee18efbb68b5d", "lat": 38.89242083333333, "fusion_lon": 0.0, "fusion_lat": 0.0, "type": "electric_scooter", "name": "24930237839b872ac32ee18efbb68b5d", "is_disabled": 0, "rental_uris": {"ios": "https://dc.lft.to/lastmile_qr_scan", "android": "https://dc.lft.to/lastmile_qr_scan"}, "is_reserved": 0}, {"lon": -77.023246, "bike_id": "b333eec84fb2715408eb93897fce28ff", "lat": 38.9028895, "fusion_lon": 0.0, "fusion_lat": 0.0, "type": "electric_scooter", "name": "b333eec84fb2715408eb93897fce28ff", "is_disabled": 0, "rental_uris": {"ios": "https://dc.lft.to/lastmile_qr_scan", "android": "https://dc.lft.to/lastmile_qr_scan"}, "is_reserved": 0}, {"lon": -76.99738083333334, "bike_id": "d0f1b62d4d7466c6224644b25555503e", "lat": 39.04233216666667, "fusion_lon": 0.0, "fusion_lat": 0.0, "type": "electric_bike", "name": "d0f1b62d4d7466c6224644b25555503e", "is_disabled": 0, "rental_uris": {"ios": "https://dc.lft.to/lastmile_qr_scan", "android": "https://dc.lft.to/lastmile_qr_scan"}, "is_reserved": 0}, {"lon": -77.02401266666666, "bike_id": "bc1dfb3f4eb836cd806557ea6745a63a", "lat": 38.88280833333334, "fusion_lon": 0.0, "fusion_lat": 0.0, "type": "electric_scooter", "name": "bc1dfb3f4eb836cd806557ea6745a63a", "is_disabled": 0, "rental_uris": {"ios": "https://dc.lft.to/lastmile_qr_scan", "android": "https://dc.lft.to/lastmile_qr_scan"}, "is_reserved": 0}, {"lon": -77.05950783333333, "bike_id": "b3e74dcaeb8c0af8fa3f7b8c259328a1", "lat": 38.918379, "fusion_lon": 0.0, "fusion_lat": 0.0, "type": "electric_scooter", "name": "b3e74dcaeb8c0af8fa3f7b8c259328a1", "is_disabled": 0, "rental_uris": {"ios": "https://dc.lft.to/lastmile_qr_scan", "android": "https://dc.lft.to/lastmile_qr_scan"}, "is_reserved": 0}, {"lon": -77.0219135, "bike_id": "2237adf97bfd332822cd7ce3354c3f76", "lat": 38.909475, "fusion_lon": 0.0, "fusion_lat": 0.0, "type": "electric_scooter", "name": "2237adf97bfd332822cd7ce3354c3f76", "is_disabled": 0, "rental_uris": {"ios": "https://dc.lft.to/lastmile_qr_scan", "android": "https://dc.lft.to/lastmile_qr_scan"}, "is_reserved": 0}, {"lon": -77.036662, "bike_id": "aebec201dd17c1850bf3683191703a3b", "lat": 38.918139333333336, "fusion_lon": 0.0, "fusion_lat": 0.0, "type": "electric_scooter", "name": "aebec201dd17c1850bf3683191703a3b", "is_disabled": 0, "rental_uris": {"ios": "https://dc.lft.to/lastmile_qr_scan", "android": "https://dc.lft.to/lastmile_qr_scan"}, "is_reserved": 0}, {"lon": -77.03674783333334, "bike_id": "c7690e7dfa4d5578b8280671244aafc0", "lat": 38.90813033333333, "fusion_lon": 0.0, "fusion_lat": 0.0, "type": "electric_scooter", "name": "c7690e7dfa4d5578b8280671244aafc0", "is_disabled": 0, "rental_uris": {"ios": "https://dc.lft.to/lastmile_qr_scan", "android": "https://dc.lft.to/lastmile_qr_scan"}, "is_reserved": 0}, {"lon": -77.00889716666667, "bike_id": "d9e33fbc68917c887c7b268ec8f02610", "lat": 38.96122733333333, "fusion_lon": 0.0, "fusion_lat": 0.0, "type": "electric_scooter", "name": "d9e33fbc68917c887c7b268ec8f02610", "is_disabled": 0, "rental_uris": {"ios": "https://dc.lft.to/lastmile_qr_scan", "android": "https://dc.lft.to/lastmile_qr_scan"}, "is_reserved": 0}, {"lon": -77.044731, "bike_id": "7fcc529ae2c7dbd3002f8ae1deb7528e", "lat": 38.924304666666664, "fusion_lon": 0.0, "fusion_lat": 0.0, "type": "electric_scooter", "name": "7fcc529ae2c7dbd3002f8ae1deb7528e", "is_disabled": 0, "rental_uris": {"ios": "https://dc.lft.to/lastmile_qr_scan", "android": "https://dc.lft.to/lastmile_qr_scan"}, "is_reserved": 0}, {"lon": -77.03532983333334, "bike_id": "43914c3f3a30c885fda06c4aeccc0981", "lat": 38.907791, "fusion_lon": 0.0, "fusion_lat": 0.0, "type": "electric_scooter", "name": "43914c3f3a30c885fda06c4aeccc0981", "is_disabled": 0, "rental_uris": {"ios": "https://dc.lft.to/lastmile_qr_scan", "android": "https://dc.lft.to/lastmile_qr_scan"}, "is_reserved": 0}, {"lon": -77.0472215, "bike_id": "4f4b2f643b6d0ca0f0df2a9b424fb211", "lat": 38.903202666666665, "fusion_lon": 0.0, "fusion_lat": 0.0, "type": "electric_scooter", "name": "4f4b2f643b6d0ca0f0df2a9b424fb211", "is_disabled": 0, "rental_uris": {"ios": "https://dc.lft.to/lastmile_qr_scan", "android": "https://dc.lft.to/lastmile_qr_scan"}, "is_reserved": 0}, {"lon": -77.05129316666667, "bike_id": "d937be2a01132c31780523418f738cdf", "lat": 38.92360516666667, "fusion_lon": 0.0, "fusion_lat": 0.0, "type": "electric_scooter", "name": "d937be2a01132c31780523418f738cdf", "is_disabled": 0, "rental_uris": {"ios": "https://dc.lft.to/lastmile_qr_scan", "android": "https://dc.lft.to/lastmile_qr_scan"}, "is_reserved": 0}, {"lon": -76.94595533333333, "bike_id": "67ca22a5b460f231ce8c2c31b7707d85", "lat": 38.901473833333334, "fusion_lon": 0.0, "fusion_lat": 0.0, "type": "electric_scooter", "name": "67ca22a5b460f231ce8c2c31b7707d85", "is_disabled": 0, "rental_uris": {"ios": "https://dc.lft.to/lastmile_qr_scan", "android": "https://dc.lft.to/lastmile_qr_scan"}, "is_reserved": 0}, {"lon": -77.02827866666667, "bike_id": "c69d1d5a515502bf5c7e89ce927b85f9", "lat": 38.887291, "fusion_lon": 0.0, "fusion_lat": 0.0, "type": "electric_scooter", "name": "c69d1d5a515502bf5c7e89ce927b85f9", "is_disabled": 0, "rental_uris": {"ios": "https://dc.lft.to/lastmile_qr_scan", "android": "https://dc.lft.to/lastmile_qr_scan"}, "is_reserved": 0}, {"lon": -77.03272166666666, "bike_id": "433a19d0f2728308fc575ffd2dc79043", "lat": 38.901465333333334, "fusion_lon": 0.0, "fusion_lat": 0.0, "type": "electric_scooter", "name": "433a19d0f2728308fc575ffd2dc79043", "is_disabled": 0, "rental_uris": {"ios": "https://dc.lft.to/lastmile_qr_scan", "android": "https://dc.lft.to/lastmile_qr_scan"}, "is_reserved": 0}, {"lon": -76.99033233333333, "bike_id": "b0b8c349d30007c7a46d3f6604b3ee7c", "lat": 38.888683, "fusion_lon": 0.0, "fusion_lat": 0.0, "type": "electric_scooter", "name": "b0b8c349d30007c7a46d3f6604b3ee7c", "is_disabled": 0, "rental_uris": {"ios": "https://dc.lft.to/lastmile_qr_scan", "android": "https://dc.lft.to/lastmile_qr_scan"}, "is_reserved": 0}, {"lon": -76.93188716666667, "bike_id": "93fd09c9f3eb368dc1b498e7417ccee5", "lat": 38.8987475, "fusion_lon": 0.0, "fusion_lat": 0.0, "type": "electric_scooter", "name": "93fd09c9f3eb368dc1b498e7417ccee5", "is_disabled": 0, "rental_uris": {"ios": "https://dc.lft.to/lastmile_qr_scan", "android": "https://dc.lft.to/lastmile_qr_scan"}, "is_reserved": 0}, {"lon": -77.02713833333334, "bike_id": "2dfc6c8bfb73ae606fb0b65402d80cc9", "lat": 38.924638333333334, "fusion_lon": 0.0, "fusion_lat": 0.0, "type": "electric_scooter", "name": "2dfc6c8bfb73ae606fb0b65402d80cc9", "is_disabled": 0, "rental_uris": {"ios": "https://dc.lft.to/lastmile_qr_scan", "android": "https://dc.lft.to/lastmile_qr_scan"}, "is_reserved": 0}, {"lon": -76.9739905, "bike_id": "8798bb4f61cffba8472d7bca43a89161", "lat": 38.902999, "fusion_lon": 0.0, "fusion_lat": 0.0, "type": "electric_scooter", "name": "8798bb4f61cffba8472d7bca43a89161", "is_disabled": 0, "rental_uris": {"ios": "https://dc.lft.to/lastmile_qr_scan", "android": "https://dc.lft.to/lastmile_qr_scan"}, "is_reserved": 0}, {"lon": -77.027013, "bike_id": "10c07cd905ae1238a51af4f53d18dbaa", "lat": 38.90424516666667, "fusion_lon": 0.0, "fusion_lat": 0.0, "type": "electric_scooter", "name": "10c07cd905ae1238a51af4f53d18dbaa", "is_disabled": 0, "rental_uris": {"ios": "https://dc.lft.to/lastmile_qr_scan", "android": "https://dc.lft.to/lastmile_qr_scan"}, "is_reserved": 0}, {"lon": -77.0210155, "bike_id": "ed1b4573e075b5923e820e98edc2a11f", "lat": 38.88513366666667, "fusion_lon": 0.0, "fusion_lat": 0.0, "type": "electric_scooter", "name": "ed1b4573e075b5923e820e98edc2a11f", "is_disabled": 0, "rental_uris": {"ios": "https://dc.lft.to/lastmile_qr_scan", "android": "https://dc.lft.to/lastmile_qr_scan"}, "is_reserved": 0}, {"lon": -77.03212466666666, "bike_id": "9b70e113ab79382d8f0be799706bee29", "lat": 38.914899166666665, "fusion_lon": 0.0, "fusion_lat": 0.0, "type": "electric_scooter", "name": "9b70e113ab79382d8f0be799706bee29", "is_disabled": 0, "rental_uris": {"ios": "https://dc.lft.to/lastmile_qr_scan", "android": "https://dc.lft.to/lastmile_qr_scan"}, "is_reserved": 0}, {"lon": -77.08487466666666, "bike_id": "2d0e54accbc5055cc2af203188012291", "lat": 38.8484905, "fusion_lon": 0.0, "fusion_lat": 0.0, "type": "electric_bike", "name": "2d0e54accbc5055cc2af203188012291", "is_disabled": 0, "rental_uris": {"ios": "https://dc.lft.to/lastmile_qr_scan", "android": "https://dc.lft.to/lastmile_qr_scan"}, "is_reserved": 0}, {"lon": -76.98922016666667, "bike_id": "95c8218df3be265ac76290125b25a743", "lat": 38.864887833333334, "fusion_lon": 0.0, "fusion_lat": 0.0, "type": "electric_scooter", "name": "95c8218df3be265ac76290125b25a743", "is_disabled": 0, "rental_uris": {"ios": "https://dc.lft.to/lastmile_qr_scan", "android": "https://dc.lft.to/lastmile_qr_scan"}, "is_reserved": 0}, {"lon": -77.04276083333333, "bike_id": "07482e5bd95077a88b41fc7120e411cb", "lat": 38.900133333333336, "fusion_lon": 0.0, "fusion_lat": 0.0, "type": "electric_scooter", "name": "07482e5bd95077a88b41fc7120e411cb", "is_disabled": 0, "rental_uris": {"ios": "https://dc.lft.to/lastmile_qr_scan", "android": "https://dc.lft.to/lastmile_qr_scan"}, "is_reserved": 0}, {"lon": -77.03128266666667, "bike_id": "626b4306d7d181137018ec5c4f2c6f1d", "lat": 38.91265766666667, "fusion_lon": 0.0, "fusion_lat": 0.0, "type": "electric_scooter", "name": "626b4306d7d181137018ec5c4f2c6f1d", "is_disabled": 0, "rental_uris": {"ios": "https://dc.lft.to/lastmile_qr_scan", "android": "https://dc.lft.to/lastmile_qr_scan"}, "is_reserved": 0}, {"lon": -76.990731, "bike_id": "a28f2202ec07c8c3237d96bd229533b6", "lat": 38.9274495, "fusion_lon": 0.0, "fusion_lat": 0.0, "type": "electric_scooter", "name": "a28f2202ec07c8c3237d96bd229533b6", "is_disabled": 0, "rental_uris": {"ios": "https://dc.lft.to/lastmile_qr_scan", "android": "https://dc.lft.to/lastmile_qr_scan"}, "is_reserved": 0}, {"lon": -76.969083, "bike_id": "850cecfa66717d4f25ed69570f2633c4", "lat": 38.846107333333336, "fusion_lon": 0.0, "fusion_lat": 0.0, "type": "electric_bike", "name": "850cecfa66717d4f25ed69570f2633c4", "is_disabled": 0, "rental_uris": {"ios": "https://dc.lft.to/lastmile_qr_scan", "android": "https://dc.lft.to/lastmile_qr_scan"}, "is_reserved": 0}, {"lon": -77.00819883333334, "bike_id": "3d090507b63f33336244950e3f1cca98", "lat": 38.87767483333333, "fusion_lon": 0.0, "fusion_lat": 0.0, "type": "electric_scooter", "name": "3d090507b63f33336244950e3f1cca98", "is_disabled": 0, "rental_uris": {"ios": "https://dc.lft.to/lastmile_qr_scan", "android": "https://dc.lft.to/lastmile_qr_scan"}, "is_reserved": 0}, {"lon": -77.06299183333333, "bike_id": "466bec2b4353b4cf17ac89d8d0061268", "lat": 38.90608733333333, "fusion_lon": 0.0, "fusion_lat": 0.0, "type": "electric_scooter", "name": "466bec2b4353b4cf17ac89d8d0061268", "is_disabled": 0, "rental_uris": {"ios": "https://dc.lft.to/lastmile_qr_scan", "android": "https://dc.lft.to/lastmile_qr_scan"}, "is_reserved": 0}, {"lon": -77.03209866666667, "bike_id": "eae70fc2300db7a2967558aa322d4b19", "lat": 38.892399833333336, "fusion_lon": 0.0, "fusion_lat": 0.0, "type": "electric_scooter", "name": "eae70fc2300db7a2967558aa322d4b19", "is_disabled": 0, "rental_uris": {"ios": "https://dc.lft.to/lastmile_qr_scan", "android": "https://dc.lft.to/lastmile_qr_scan"}, "is_reserved": 0}, {"lon": -77.02980233333334, "bike_id": "d17de92e96f30cf7c8c90b8ea1b18690", "lat": 38.91631233333333, "fusion_lon": 0.0, "fusion_lat": 0.0, "type": "electric_scooter", "name": "d17de92e96f30cf7c8c90b8ea1b18690", "is_disabled": 0, "rental_uris": {"ios": "https://dc.lft.to/lastmile_qr_scan", "android": "https://dc.lft.to/lastmile_qr_scan"}, "is_reserved": 0}, {"lon": -77.02682783333333, "bike_id": "022c45913d06b5aff9f649dc97f8a851", "lat": 38.909554166666666, "fusion_lon": 0.0, "fusion_lat": 0.0, "type": "electric_scooter", "name": "022c45913d06b5aff9f649dc97f8a851", "is_disabled": 0, "rental_uris": {"ios": "https://dc.lft.to/lastmile_qr_scan", "android": "https://dc.lft.to/lastmile_qr_scan"}, "is_reserved": 0}, {"lon": -76.99053816666667, "bike_id": "898bd4a96846c342811c8707414ffa12", "lat": 38.86379766666667, "fusion_lon": 0.0, "fusion_lat": 0.0, "type": "electric_scooter", "name": "898bd4a96846c342811c8707414ffa12", "is_disabled": 0, "rental_uris": {"ios": "https://dc.lft.to/lastmile_qr_scan", "android": "https://dc.lft.to/lastmile_qr_scan"}, "is_reserved": 0},