{"data": {"bikes": [{"rental_uris": {"ios": "https://dc.lft.to/lastmile_qr_scan", "android": "https://dc.lft.to/lastmile_qr_scan"}, "fusion_lon": 0.0, "type": "electric_scooter", "is_reserved": 0, "lon": -76.98119283333334, "is_disabled": 0, "fusion_lat": 0.0, "bike_id": "2b755b7825365add89949233b4350c6f", "name": "2b755b7825365add89949233b4350c6f", "lat": 38.90089016666667}, {"rental_uris": {"ios": "https://dc.lft.to/lastmile_qr_scan", "android": "https://dc.lft.to/lastmile_qr_scan"}, "fusion_lon": 0.0, "type": "electric_scooter", "is_reserved": 0, "lon": -76.9770965, "is_disabled": 0, "fusion_lat": 0.0, "bike_id": "663b75df62734c628e20695cbcae1371", "name": "663b75df62734c628e20695cbcae1371", "lat": 38.885152}, {"rental_uris": {"ios": "https://dc.lft.to/lastmile_qr_scan", "android": "https://dc.lft.to/lastmile_qr_scan"}, "fusion_lon": 0.0, "type": "electric_scooter", "is_reserved": 0, "lon": -77.06917916666667, "is_disabled": 0, "fusion_lat": 0.0, "bike_id": "ff569129c49f6814ab04ea7ff0887bb5", "name": "ff569129c49f6814ab04ea7ff0887bb5", "lat": 38.91755666666667}, {"rental_uris": {"ios": "https://dc.lft.to/lastmile_qr_scan", "android": "https://dc.lft.to/lastmile_qr_scan"}, "fusion_lon": 0.0, "type": "electric_scooter", "is_reserved": 0, "lon": -77.00053316666667, "is_disabled": 0, "fusion_lat": 0.0, "bike_id": "540e5ef972ab1456c4b9fefeb319a456", "name": "540e5ef972ab1456c4b9fefeb319a456", "lat": 38.8732545}, {"rental_uris": {"ios": "https://dc.lft.to/lastmile_qr_scan", "android": "https://dc.lft.to/lastmile_qr_scan"}, "fusion_lon": 0.0, "type": "electric_scooter", "is_reserved": 0, "lon": -77.04435083333334, "is_disabled": 0, "fusion_lat": 0.0, "bike_id": "646a9aa41febfb40d7dba4e829a13fd7", "name": "646a9aa41febfb40d7dba4e829a13fd7", "lat": 38.91801133333333}, {"rental_uris": {"ios": "https://dc.lft.to/lastmile_qr_scan", "android": "https://dc.lft.to/lastmile_qr_scan"}, "fusion_lon": 0.0, "type": "electric_scooter", "is_reserved": 0, "lon": -77.03359983333333, "is_disabled": 0, "fusion_lat": 0.0, "bike_id": "8c14751ec9fdb265fb7148dbc23173e0", "name": "8c14751ec9fdb265fb7148dbc23173e0", "lat": 38.900998333333334}, {"rental_uris": {"ios": "https://dc.lft.to/lastmile_qr_scan", "android": "https://dc.lft.to/lastmile_qr_scan"}, "fusion_lon": 0.0, "type": "electric_scooter", "is_reserved": 0, "lon": -77.02044, "is_disabled": 0, "fusion_lat": 0.0, "bike_id": "2951b05ba64082bfcaa333110a6866c8", "name": "2951b05ba64082bfcaa333110a6866c8", "lat": 38.921944333333336}, {"rental_uris": {"ios": "https://dc.lft.to/lastmile_qr_scan", "android": "https://dc.lft.to/lastmile_qr_scan"}, "fusion_lon": 0.0, "type": "electric_scooter", "is_reserved": 0, "lon": -77.02035716666667, "is_disabled": 0, "fusion_lat": 0.0, "bike_id": "7e131dc50e9e7e5326bba7ea0ed958bf", "name": "7e131dc50e9e7e5326bba7ea0ed958bf", "lat": 38.92404166666667}, {"rental_uris": {"ios": "https://dc.lft.to/lastmile_qr_scan", "android": "https://dc.lft.to/lastmile_qr_scan"}, "fusion_lon": 0.0, "type": "electric_bike", "is_reserved": 0, "lon": -76.93193766666667, "is_disabled": 0, "fusion_lat": 0.0, "bike_id": "adc3a6e7d9708fd5f860fc56cd717349", "name": "adc3a6e7d9708fd5f860fc56cd717349", "lat": 38.879484166666664}, {"rental_uris": {"ios": "https://dc.lft.to/lastmile_qr_scan", "android": "https://dc.lft.to/lastmile_qr_scan"}, "fusion_lon": 0.0, "type": "electric_bike", "is_reserved": 0, "lon": -76.972271, "is_disabled": 0, "fusion_lat": 0.0, "bike_id": "c47dfb74dd54f35eddf34cf361b9357a", "name": "c47dfb74dd54f35eddf34cf361b9357a", "lat": 38.9152405}, {"rental_uris": {"ios": "https://dc.lft.to/lastmile_qr_scan", "android": "https://dc.lft.to/lastmile_qr_scan"}, "fusion_lon": 0.0, "type": "electric_scooter", "is_reserved": 0, "lon": -77.034334, "is_disabled": 0, "fusion_lat": 0.0, "bike_id": "7d4d3ca118ad964a92c5d2e8dd026167", "name": "7d4d3ca118ad964a92c5d2e8dd026167", "lat": 38.927338}, {"rental_uris": {"ios": "https://dc.lft.to/lastmile_qr_scan", "android": "https://dc.lft.to/lastmile_qr_scan"}, "fusion_lon": 0.0, "type": "electric_scooter", "is_reserved": 0, "lon": -77.04437566666667, "is_disabled": 0, "fusion_lat": 0.0, "bike_id": "abbf14030a0ca3ceef9696bc7d1e50f7", "name": "abbf14030a0ca3ceef9696bc7d1e50f7", "lat": 38.912533333333336}, {"rental_uris": {"ios": "https://dc.lft.to/lastmile_qr_scan", "android": "https://dc.lft.to/lastmile_qr_scan"}, "fusion_lon": 0.0, "type": "electric_bike", "is_reserved": 0, "lon": -76.95701666666666, "is_disabled": 0, "fusion_lat": 0.0, "bike_id": "dc85b7a709cdaca503eef753fb0f3ad4", "name": "dc85b7a709cdaca503eef753fb0f3ad4", "lat": 38.88868016666667}, {"rental_uris": {"ios": "https://dc.lft.to/lastmile_qr_scan", "android": "https://dc.lft.to/lastmile_qr_scan"}, "fusion_lon": 0.0, "type": "electric_scooter", "is_reserved": 0, "lon": -76.983264, "is_disabled": 0, "fusion_lat": 0.0, "bike_id": "9d062dd6d7115a08c5e3d1e7705383e5", "name": "9d062dd6d7115a08c5e3d1e7705383e5", "lat": 38.90777716666667}, {"rental_uris": {"ios": "https://dc.lft.to/lastmile_qr_scan", "android": "https://dc.lft.to/lastmile_qr_scan"}, "fusion_lon": 0.0, "type": "electric_scooter", "is_reserved": 0, "lon": -77.05478933333333, "is_disabled": 0, "fusion_lat": 0.0, "bike_id": "8ef93d7d45bc72ef21f382b135663122", "name": "8ef93d7d45bc72ef21f382b135663122", "lat": 38.928128}, {"rental_uris": {"ios": "https://dc.lft.to/lastmile_qr_scan", "android": "https://dc.lft.to/lastmile_qr_scan"}, "fusion_lon": 0.0, "type": "electric_scooter", "is_reserved": 0, "lon": -77.043252, "is_disabled": 0, "fusion_lat": 0.0, "bike_id": "d8372adf904b07c492bbcc01c3408fdd", "name": "d8372adf904b07c492bbcc01c3408fdd", "lat": 38.923649833333336}, {"rental_uris": {"ios": "https://dc.lft.to/lastmile_qr_scan", "android": "https://dc.lft.to/lastmile_qr_scan"}, "fusion_lon": 0.0, "type": "electric_scooter", "is_reserved": 0, "lon": -77.07267083333333, "is_disabled": 0, "fusion_lat": 0.0, "bike_id": "d5467a12be962feac35b6ba3cae1e2e0", "name": "d5467a12be962feac35b6ba3cae1e2e0", "lat": 38.91515016666666}, {"rental_uris": {"ios": "https://dc.lft.to/lastmile_qr_scan", "android": "https://dc.lft.to/lastmile_qr_scan"}, "fusion_lon": 0.0, "type": "electric_scooter", "is_reserved": 0, "lon": -77.02008283333333, "is_disabled": 0, "fusion_lat": 0.0, "bike_id": "54090b0e64699cf5ac75f8a75799d3a8", "name": "54090b0e64699cf5ac75f8a75799d3a8", "lat": 38.92413633333334}, {"rental_uris": {"ios": "https://dc.lft.to/lastmile_qr_scan", "android": "https://dc.lft.to/lastmile_qr_scan"}, "fusion_lon": 0.0, "type": "electric_scooter", "is_reserved": 0, "lon": -77.033621, "is_disabled": 0, "fusion_lat": 0.0, "bike_id": "070b15ee9e207af2056d2f0519e24f7c", "name": "070b15ee9e207af2056d2f0519e24f7c", "lat": 38.911080166666665}, {"rental_uris": {"ios": "https://dc.lft.to/lastmile_qr_scan", "android": "https://dc.lft.to/lastmile_qr_scan"}, "fusion_lon": 0.0, "type": "electric_scooter", "is_reserved": 0, "lon": -77.02213333333333, "is_disabled": 0, "fusion_lat": 0.0, "bike_id": "5623ebf6291fc462cef5e426771d8455", "name": "5623ebf6291fc462cef5e426771d8455", "lat": 38.957509333333334}, {"rental_uris": {"ios": "https://dc.lft.to/lastmile_qr_scan", "android": "https://dc.lft.to/lastmile_qr_scan"}, "fusion_lon": 0.0, "type": "electric_scooter", "is_reserved": 0, "lon": -77.022293, "is_disabled": 0, "fusion_lat": 0.0, "bike_id": "5c21040aefc555e30b9ebc1eaf4e4cc5", "name": "5c21040aefc555e30b9ebc1eaf4e4cc5", "lat": 38.9016185}, {"rental_uris": {"ios": "https://dc.lft.to/lastmile_qr_scan", "android": "https://dc.lft.to/lastmile_qr_scan"}, "fusion_lon": 0.0, "type": "electric_scooter", "is_reserved": 0, "lon": -77.05338916666666, "is_disabled": 0, "fusion_lat": 0.0, "bike_id": "90c5d090039b001cc81942e34fa6dd3f", "name": "90c5d090039b001cc81942e34fa6dd3f", "lat": 38.904579166666664}, {"rental_uris": {"ios": "https://dc.lft.to/lastmile_qr_scan", "android": "https://dc.lft.to/lastmile_qr_scan"}, "fusion_lon": 0.0, "type": "electric_scooter", "is_reserved": 0, "lon": -76.98053066666667, "is_disabled": 0, "fusion_lat": 0.0, "bike_id": "5926908607b14f8f9db88565fef67e1b", "name": "5926908607b14f8f9db88565fef67e1b", "lat": 38.8852775}, {"rental_uris": {"ios": "https://dc.lft.to/lastmile_qr_scan", "android": "https://dc.lft.to/lastmile_qr_scan"}, "fusion_lon": 0.0, "type": "electric_scooter", "is_reserved": 0, "lon": -76.9244225, "is_disabled": 0, "fusion_lat": 0.0, "bike_id": "507abeea6f9d4798e196b762d2ddaca0", "name": "507abeea6f9d4798e196b762d2ddaca0", "lat": 38.88516283333333}, {"rental_uris": {"ios": "https://dc.lft.to/lastmile_qr_scan", "android": "https://dc.lft.to/lastmile_qr_scan"}, "fusion_lon": 0.0, "type": "electric_bike", "is_reserved": 0, "lon": -76.9074715, "is_disabled": 0, "fusion_lat": 0.0, "bike_id": "5f62d4332713315f30f6e13aabab233f", "name": "5f62d4332713315f30f6e13aabab233f", "lat": 38.89614866666667}, {"rental_uris": {"ios": "https://dc.lft.to/lastmile_qr_scan", "android": "https://dc.lft.to/lastmile_qr_scan"}, "fusion_lon": 0.0, "type": "electric_scooter", "is_reserved": 0, "lon": -77.07006033333333, "is_disabled": 0, "fusion_lat": 0.0, "bike_id": "ba214776afcb0048a131d95c8f1cc87b", "name": "ba214776afcb0048a131d95c8f1cc87b", "lat": 38.9059875}, {"rental_uris": {"ios": "https://dc.lft.to/lastmile_qr_scan", "android": "https://dc.lft.to/lastmile_qr_scan"}, "fusion_lon": 0.0, "type": "electric_scooter", "is_reserved": 0, "lon": -76.977031, "is_disabled": 0, "fusion_lat": 0.0, "bike_id": "7adbb350ed899ecfd47c350d7cad03ac", "name": "7adbb350ed899ecfd47c350d7cad03ac", "lat": 38.902484333333334}, {"rental_uris": {"ios": "https://dc.lft.to/lastmile_qr_scan", "android": "https://dc.lft.to/lastmile_qr_scan"}, "fusion_lon": 0.0, "type": "electric_scooter", "is_reserved": 0, "lon": -77.0347475, "is_disabled": 0, "fusion_lat": 0.0, "bike_id": "f8272a1070f20137446186e38f7c7335", "name": "f8272a1070f20137446186e38f7c7335", "lat": 38.9353345}, {"rental_uris": {"ios": "https://dc.lft.to/lastmile_qr_scan", "android": "https://dc.lft.to/lastmile_qr_scan"}, "fusion_lon": 0.0, "type": "electric_scooter", "is_reserved": 0, "lon": -77.01061983333334, "is_disabled": 0, "fusion_lat": 0.0, "bike_id": "758f7f4fafbdae918bdb09b40ab29212", "name": "758f7f4fafbdae918bdb09b40ab29212", "lat": 38.87736233333333}, {"rental_uris": {"ios": "https://dc.lft.to/lastmile_qr_scan", "android": "https://dc.lft.to/lastmile_qr_scan"}, "fusion_lon": 0.0, "type": "electric_scooter", "is_reserved": 0, "lon": -77.0199845, "is_disabled": 0, "fusion_lat": 0.0, "bike_id": "1243eeccc37e75cbc8c37989f88ef94e", "name": "1243eeccc37e75cbc8c37989f88ef94e", "lat": 38.885499833333334}, {"rental_uris": {"ios": "https://dc.lft.to/lastmile_qr_scan", "android": "https://dc.lft.to/lastmile_qr_scan"}, "fusion_lon": 0.0, "type": "electric_scooter", "is_reserved": 0, "lon": -77.02648616666667, "is_disabled": 0, "fusion_lat": 0.0, "bike_id": "cebb6dd3f5521535fbe72b370810c01c", "name": "cebb6dd3f5521535fbe72b370810c01c", "lat": 38.93096383333334}, {"rental_uris": {"ios": "https://dc.lft.to/lastmile_qr_scan", "android": "https://dc.lft.to/lastmile_qr_scan"}, "fusion_lon": 0.0, "type": "electric_scooter", "is_reserved": 0, "lon": -76.92950033333334, "is_disabled": 0, "fusion_lat": 0.0, "bike_id": "2625fbe53ad1bf805f7ef1733aeb804d", "name": "2625fbe53ad1bf805f7ef1733aeb804d", "lat": 38.901708666666664}, {"rental_uris": {"ios": "https://dc.lft.to/lastmile_qr_scan", "android": "https://dc.lft.to/lastmile_qr_scan"}, "fusion_lon": 0.0, "type": "electric_scooter", "is_reserved": 0, "lon": -77.03804933333333, "is_disabled": 0, "fusion_lat": 0.0, "bike_id": "69ade9ff5bbee8bf877f851645c19113", "name": "69ade9ff5bbee8bf877f851645c19113", "lat": 38.903635}, {"rental_uris": {"ios": "https://dc.lft.to/lastmile_qr_scan", "android": "https://dc.lft.to/lastmile_qr_scan"}, "fusion_lon": 0.0, "type": "electric_scooter", "is_reserved": 0, "lon": -76.97635833333334, "is_disabled": 0, "fusion_lat": 0.0, "bike_id": "c7e8a148c7b720792ddb585ce39baaba", "name": "c7e8a148c7b720792ddb585ce39baaba", "lat": 38.886820666666665}, {"rental_uris": {"ios": "https://dc.lft.to/lastmile_qr_scan", "android": "https://dc.lft.to/lastmile_qr_scan"}, "fusion_lon": 0.0, "type": "electric_scooter", "is_reserved": 0, "lon": -77.0033375, "is_disabled": 0, "fusion_lat": 0.0, "bike_id": "d54b722fc107af26fea12951736ef8a6", "name": "d54b722fc107af26fea12951736ef8a6", "lat": 38.89356016666667}, {"rental_uris": {"ios": "https://dc.lft.to/lastmile_qr_scan", "android": "https://dc.lft.to/lastmile_qr_scan"}, "fusion_lon": 0.0, "type": "electric_scooter", "is_reserved": 0, "lon": -77.043711, "is_disabled": 0, "fusion_lat": 0.0, "bike_id": "5ead13a3030a3e48e6678d75fb9886d5", "name": "5ead13a3030a3e48e6678d75fb9886d5", "lat": 38.92112383333333}, {"rental_uris": {"ios": "https://dc.lft.to/lastmile_qr_scan", "android": "https://dc.lft.to/lastmile_qr_scan"}, "fusion_lon": 0.0, "type": "electric_scooter", "is_reserved": 0, "lon": -77.03381966666667, "is_disabled": 0, "fusion_lat": 0.0, "bike_id": "01b9da3d26c9f5c06482d202b10b1141", "name": "01b9da3d26c9f5c06482d202b10b1141", "lat": 38.921557666666665}, {"rental_uris": {"ios": "https://dc.lft.to/lastmile_qr_scan", "android": "https://dc.lft.to/lastmile_qr_scan"}, "fusion_lon": 0.0, "type": "electric_scooter", "is_reserved": 0, "lon": -77.06900116666667, "is_disabled": 0, "fusion_lat": 0.0, "bike_id": "45e49a44d90b48c571c9ab247b7c7c6c", "name": "45e49a44d90b48c571c9ab247b7c7c6c", "lat": 38.907609}, {"rental_uris": {"ios": "https://dc.lft.to/lastmile_qr_scan", "android": "https://dc.lft.to/lastmile_qr_scan"}, "fusion_lon": 0.0, "type": "electric_bike", "is_reserved": 0, "lon": -76.97559216666667, "is_disabled": 0, "fusion_lat": 0.0, "bike_id": "b81f5cdb0e13b8db26ab132a68793f3e", "name": "b81f5cdb0e13b8db26ab132a68793f3e", "lat": 38.87264033333334}, {"rental_uris": {"ios": "https://dc.lft.to/lastmile_qr_scan", "android": "https://dc.lft.to/lastmile_qr_scan"}, "fusion_lon": 0.0, "type": "electric_bike", "is_reserved": 0, "lon": -76.991063, "is_disabled": 0, "fusion_lat": 0.0, "bike_id": "a5e28acc495f79f63f37c2c0270f9141", "name": "a5e28acc495f79f63f37c2c0270f9141", "lat": 38.804778}, {"rental_uris": {"ios": "https://dc.lft.to/lastmile_qr_scan", "android": "https://dc.lft.to/lastmile_qr_scan"}, "fusion_lon": 0.0, "type": "electric_scooter", "is_reserved": 0, "lon": -77.00198466666667, "is_disabled": 0, "fusion_lat": 0.0, "bike_id": "39cd27f1aabb573d201b4cb40703aacd", "name": "39cd27f1aabb573d201b4cb40703aacd", "lat": 38.90237166666667}, {"rental_uris": {"ios": "https://dc.lft.to/lastmile_qr_scan", "android": "https://dc.lft.to/lastmile_qr_scan"}, "fusion_lon": 0.0, "type": "electric_scooter", "is_reserved": 0, "lon": -77.03830483333333, "is_disabled": 0, "fusion_lat": 0.0, "bike_id": "29514194333c6ba4f8b8748b626cf603", "name": "29514194333c6ba4f8b8748b626cf603", "lat": 38.90392683333334}, {"rental_uris": {"ios": "https://dc.lft.to/lastmile_qr_scan", "android": "https://dc.lft.to/lastmile_qr_scan"}, "fusion_lon": 0.0, "type": "electric_bike", "is_reserved": 0, "lon": -76.9872495, "is_disabled": 0, "fusion_lat": 0.0, "bike_id": "e41ac0d8749ea3c4e96c04c1b273ce5f", "name": "e41ac0d8749ea3c4e96c04c1b273ce5f", "lat": 38.8632745}, {"rental_uris": {"ios": "https://dc.lft.to/lastmile_qr_scan", "android": "https://dc.lft.to/lastmile_qr_scan"}, "fusion_lon": 0.0, "type": "electric_scooter", "is_reserved": 0, "lon": -77.01603966666667, "is_disabled": 0, "fusion_lat": 0.0, "bike_id": "582f82325f219f3f3434badac0e0cd67", "name": "582f82325f219f3f3434badac0e0cd67", "lat": 38.899622666666666}, {"rental_uris": {"ios": "https://dc.lft.to/lastmile_qr_scan", "android": "https://dc.lft.to/lastmile_qr_scan"}, "fusion_lon": 0.0, "type": "electric_scooter", "is_reserved": 0, "lon": -77.036416, "is_disabled": 0, "fusion_lat": 0.0, "bike_id": "33ebac8399786e99a11ef401f7a28b88", "name": "33ebac8399786e99a11ef401f7a28b88", "lat": 38.9037735}, {"rental_uris": {"ios": "https://dc.lft.to/lastmile_qr_scan", "android": "https://dc.lft.to/lastmile_qr_scan"}, "fusion_lon": 0.0, "type": "electric_scooter", "is_reserved": 0, "lon": -77.03092783333334, "is_disabled": 0, "fusion_lat": 0.0, "bike_id": "87ae6cb009eb70defbaefc4fb8e69ddb", "name": "87ae6cb009eb70defbaefc4fb8e69ddb", "lat": 38.9330735}, {"rental_uris": {"ios": "https://dc.lft.to/lastmile_qr_scan", "android": "https://dc.lft.to/lastmile_qr_scan"}, "fusion_lon": 0.0, "type": "electric_scooter", "is_reserved": 0, "lon": -77.0725165, "is_disabled": 0, "fusion_lat": 0.0, "bike_id": "5d42d401da3f5c7ac6dab276d9eef43a", "name": "5d42d401da3f5c7ac6dab276d9eef43a", "lat": 38.9077795}, {"rental_uris": {"ios": "https://dc.lft.to/lastmile_qr_scan", "android": "https://dc.lft.to/lastmile_qr_scan"}, "fusion_lon": 0.0, "type": "electric_scooter", "is_reserved": 0, "lon": -77.01501383333333, "is_disabled": 0, "fusion_lat": 0.0, "bike_id": "b6dc44f5ecea95746c3b29ded6bd2748", "name": "b6dc44f5ecea95746c3b29ded6bd2748", "lat": 38.92664966666667}, {"rental_uris": {"ios": "https://dc.lft.to/lastmile_qr_scan", "android": "https://dc.lft.to/lastmile_qr_scan"}, "fusion_lon": 0.0, "type": "electric_scooter", "is_reserved": 0, "lon": -76.98379033333333, "is_disabled": 0, "fusion_lat": 0.0, "bike_id": "f17b8631a32005f1fe909a54f51b09b7", "name": "f17b8631a32005f1fe909a54f51b09b7", "lat": 38.887076}, {"rental_uris": {"ios": "https://dc.lft.to/lastmile_qr_scan", "android": "https://dc.lft.to/lastmile_qr_scan"}, "fusion_lon": 0.0, "type": "electric_scooter", "is_reserved": 0, "lon": -77.01016783333333, "is_disabled": 0, "fusion_lat": 0.0, "bike_id": "87f6c6d6aff747575b66d969b07e95e1", "name": "87f6c6d6aff747575b66d969b07e95e1", "lat": 38.906878}, {"rental_uris": {"ios": "https://dc.lft.to/lastmile_qr_scan", "android": "https://dc.lft.to/lastmile_qr_scan"}, "fusion_lon": 0.0, "type": "electric_scooter", "is_reserved": 0, "lon": -77.021393, "is_disabled": 0, "fusion_lat": 0.0, "bike_id": "1344147d01d1b51b5918498ae2970d1d", "name": "1344147d01d1b51b5918498ae2970d1d", "lat": 38.921141166666665}, {"rental_uris": {"ios": "https://dc.lft.to/lastmile_qr_scan", "android": "https://dc.lft.to/lastmile_qr_scan"}, "fusion_lon": 0.0, "type": "electric_scooter", "is_reserved": 0, "lon": -77.03214666666666, "is_disabled": 0, "fusion_lat": 0.0, "bike_id": "5c5f795619f1aa07ec9dcfe269432eb4", "name": "5c5f795619f1aa07ec9dcfe269432eb4", "lat": 38.89665}, {"rental_uris": {"ios": "https://dc.lft.to/lastmile_qr_scan", "android": "https://dc.lft.to/lastmile_qr_scan"}, "fusion_lon": 0.0, "type": "electric_scooter", "is_reserved": 0, "lon": -76.9861475, "is_disabled": 0, "fusion_lat": 0.0, "bike_id": "2301220be93d83678bb9370830b94343", "name": "2301220be93d83678bb9370830b94343", "lat": 38.903446}, {"rental_uris": {"ios": "https://dc.lft.to/lastmile_qr_scan", "android": "https://dc.lft.to/lastmile_qr_scan"}, "fusion_lon": 0.0, "type": "electric_scooter", "is_reserved": 0, "lon": -77.04205816666666, "is_disabled": 0, "fusion_lat": 0.0, "bike_id": "c229c97b859222837fb467f23337074e", "name": "c229c97b859222837fb467f23337074e", "lat": 38.91118866666667}, {"rental_uris": {"ios": "https://dc.lft.to/lastmile_qr_scan", "android": "https://dc.lft.to/lastmile_qr_scan"}, "fusion_lon": 0.0, "type": "electric_scooter", "is_reserved": 0, "lon": -77.04277633333334, "is_disabled": 0, "fusion_lat": 0.0, "bike_id": "0a102fcd8da1abfcdf878830cc20b075", "name": "0a102fcd8da1abfcdf878830cc20b075", "lat": 38.90815716666667}, {"rental_uris": {"ios": "https://dc.lft.to/lastmile_qr_scan", "android": "https://dc.lft.to/lastmile_qr_scan"}, "fusion_lon": 0.0, "type": "electric_scooter", "is_reserved": 0, "lon": -77.03849216666667, "is_disabled": 0, "fusion_lat": 0.0, "bike_id": "c30e6f909a39b18ee780d5d1a41487b2", "name": "c30e6f909a39b18ee780d5d1a41487b2", "lat": 38.9137025}, {"rental_uris": {"ios": "https://dc.lft.to/lastmile_qr_scan", "android": "https://dc.lft.to/lastmile_qr_scan"}, "fusion_lon": 0.0, "type": "electric_scooter", "is_reserved": 0, "lon": -77.0233715, "is_disabled": 0, "fusion_lat": 0.0, "bike_id": "ea596aff733844e98c2b4a8dc95189a6", "name": "ea596aff733844e98c2b4a8dc95189a6", "lat": 38.931035}, {"rental_uris": {"ios": "https://dc.lft.to/lastmile_qr_scan", "android": "https://dc.lft.to/lastmile_qr_scan"}, "fusion_lon": 0.0, "type": "electric_scooter", "is_reserved": 0, "lon": -77.03261466666666, "is_disabled": 0, "fusion_lat": 0.0, "bike_id": "c0e38e2b30dd515746e5efa7f2963e06", "name": "c0e38e2b30dd515746e5efa7f2963e06", "lat": 38.92944466666667}, {"rental_uris": {"ios": "https://dc.lft.to/lastmile_qr_scan", "android": "https://dc.lft.to/lastmile_qr_scan"}, "fusion_lon": 0.0, "type": "electric_scooter", "is_reserved": 0, "lon": -77.03537283333333, "is_disabled": 0, "fusion_lat": 0.0, "bike_id": "040de1333719cfed7a7115c7d1d98c9b", "name": "040de1333719cfed7a7115c7d1d98c9b", "lat": 38.924700666666666}, {"rental_uris": {"ios": "https://dc.lft.to/lastmile_qr_scan", "android": "https://dc.lft.to/lastmile_qr_scan"}, "fusion_lon": 0.0, "type": "electric_scooter", "is_reserved": 0, "lon": -77.04011016666666, "is_disabled": 0, "fusion_lat": 0.0, "bike_id": "caa6b7c11e5c3c664e3e1d7120707ccd", "name": "caa6b7c11e5c3c664e3e1d7120707ccd", "lat": 38.898703}, {"rental_uris": {"ios": "https://dc.lft.to/lastmile_qr_scan", "android": "https://dc.lft.to/lastmile_qr_scan"}, "fusion_lon": 0.0, "type": "electric_scooter", "is_reserved": 0, "lon": -77.0516845, "is_disabled": 0, "fusion_lat": 0.0, "bike_id": "bcad67989fcdd3e8828a57e9a2e4e874", "name": "bcad67989fcdd3e8828a57e9a2e4e874", "lat": 38.90265183333333}, {"rental_uris": {"ios": "https://dc.lft.to/lastmile_qr_scan", "android": "https://dc.lft.to/lastmile_qr_scan"}, "fusion_lon": 0.0, "type": "electric_scooter", "is_reserved": 0, "lon": -77.0122855, "is_disabled": 0, "fusion_lat": 0.0, "bike_id": "03024937dfce0ada2ca47b5436f339d7", "name": "03024937dfce0ada2ca47b5436f339d7", "lat": 38.9003765}, {"rental_uris": {"ios": "https://dc.lft.to/lastmile_qr_scan", "android": "https://dc.lft.to/lastmile_qr_scan"}, "fusion_lon": 0.0, "type": "electric_scooter", "is_reserved": 0, "lon": -77.0413385, "is_disabled": 0, "fusion_lat": 0.0, "bike_id": "d2cdfb0b7bc744a8c1af3949331ecab9", "name": "d2cdfb0b7bc744a8c1af3949331ecab9", "lat": 38.90608866666667}, {"rental_uris": {"ios": "https://dc.lft.to/lastmile_qr_scan", "android": "https://dc.lft.to/lastmile_qr_scan"}, "fusion_lon": 0.0, "type": "electric_scooter", "is_reserved": 0, "lon": -76.9948825, "is_disabled": 0, "fusion_lat": 0.0, "bike_id": "fcd40765efe8df8208c88afc542e8a83", "name": "fcd40765efe8df8208c88afc542e8a83", "lat": 38.9062985}, {"rental_uris": {"ios": "https://dc.lft.to/lastmile_qr_scan", "android": "https://dc.lft.to/lastmile_qr_scan"}, "fusion_lon": 0.0, "type": "electric_scooter", "is_reserved": 0, "lon": -77.063793, "is_disabled": 0, "fusion_lat": 0.0, "bike_id": "05bc4e510f64c6816af49d459ee6dec7", "name": "05bc4e510f64c6816af49d459ee6dec7", "lat": 38.90805916666667}, {"rental_uris": {"ios": "https://dc.lft.to/lastmile_qr_scan", "android": "https://dc.lft.to/lastmile_qr_scan"}, "fusion_lon": 0.0, "type": "electric_scooter", "is_reserved": 0, "lon": -77.07852366666667, "is_disabled": 0, "fusion_lat": 0.0, "bike_id": "552c2b32a4567abf96df7b7db0e172b7", "name": "552c2b32a4567abf96df7b7db0e172b7", "lat": 38.93147283333333}, {"rental_uris": {"ios": "https://dc.lft.to/lastmile_qr_scan", "android": "https://dc.lft.to/lastmile_qr_scan"}, "fusion_lon": 0.0, "type": "electric_bike", "is_reserved": 0, "lon": -76.99366166666667, "is_disabled": 0, "fusion_lat": 0.0, "bike_id": "f2561852932cc3c2465450cebcb4ed0d", "name": "f2561852932cc3c2465450cebcb4ed0d", "lat": 38.92733283333333}, {"rental_uris": {"ios": "https://dc.lft.to/lastmile_qr_scan", "android": "https://dc.lft.to/lastmile_qr_scan"}, "fusion_lon": 0.0, "type": "electric_scooter", "is_reserved": 0, "lon": -77.01766983333333, "is_disabled": 0, "fusion_lat": 0.0, "bike_id": "6c56d4ae5f876e75c4af60e9c6d42844", "name": "6c56d4ae5f876e75c4af60e9c6d42844", "lat": 38.902602333333334}, {"rental_uris": {"ios": "https://dc.lft.to/lastmile_qr_scan", "android": "https://dc.lft.to/lastmile_qr_scan"}, "fusion_lon": 0.0, "type": "electric_scooter", "is_reserved": 0, "lon": -77.02033666666667, "is_disabled": 0, "fusion_lat": 0.0, "bike_id": "2ec5b6d36dcd5b49f21347ff54674f04", "name": "2ec5b6d36dcd5b49f21347ff54674f04", "lat": 38.9240285}, {"rental_uris": {"ios": "https://dc.lft.to/lastmile_qr_scan", "android": "https://dc.lft.to/lastmile_qr_scan"}, "fusion_lon": 0.0, "type": "electric_scooter", "is_reserved": 0, "lon": -76.95065116666666, "is_disabled": 0, "fusion_lat": 0.0, "bike_id": "144e583058a35a470fb2de5ee0b976d6", "name": "144e583058a35a470fb2de5ee0b976d6", "lat": 38.89334483333333}, {"rental_uris": {"ios": "https://dc.lft.to/lastmile_qr_scan", "android": "https://dc.lft.to/lastmile_qr_scan"}, "fusion_lon": 0.0, "type": "electric_scooter", "is_reserved": 0, "lon": -77.00297766666667, "is_disabled": 0, "fusion_lat": 0.0, "bike_id": "f39cf177b5f675f3fe65de10c8e7b76d", "name": "f39cf177b5f675f3fe65de10c8e7b76d", "lat": 38.89202016666667}, {"rental_uris": {"ios": "https://dc.lft.to/lastmile_qr_scan", "android": "https://dc.lft.to/lastmile_qr_scan"}, "fusion_lon": 0.0, "type": "electric_scooter", "is_reserved": 0, "lon": -77.027271, "is_disabled": 0, "fusion_lat": 0.0, "bike_id": "6f8a9099a0ad61c292524b982bd50420", "name": "6f8a9099a0ad61c292524b982bd50420", "lat": 38.904151166666665}, {"rental_uris": {"ios": "https://dc.lft.to/lastmile_qr_scan", "android": "https://dc.lft.to/lastmile_qr_scan"}, "fusion_lon": 0.0, "type": "electric_scooter", "is_reserved": 0, "lon": -77.07358616666667, "is_disabled": 0, "fusion_lat": 0.0, "bike_id": "739d54c42b3f51412649b8ae77447237", "name": "739d54c42b3f51412649b8ae77447237", "lat": 38.9373605}, {"rental_uris": {"ios": "https://dc.lft.to/lastmile_qr_scan", "android": "https://dc.lft.to/lastmile_qr_scan"}, "fusion_lon": 0.0, "type": "electric_scooter", "is_reserved": 0, "lon": -77.02983083333334, "is_disabled": 0, "fusion_lat": 0.0, "bike_id": "882e20de4309ec67b47ce7b668c90634", "name": "882e20de4309ec67b47ce7b668c90634", "lat": 38.91548916666667}, {"rental_uris": {"ios": "https://dc.lft.to/lastmile_qr_scan", "android": "https://dc.lft.to/lastmile_qr_scan"}, "fusion_lon": 0.0, "type": "electric_scooter", "is_reserved": 0, "lon": -77.04148283333333, "is_disabled": 0, "fusion_lat": 0.0, "bike_id": "ebad7fc2f0e080387cab2cccbbbe4c8d", "name": "ebad7fc2f0e080387cab2cccbbbe4c8d", "lat": 38.897354666666665}, {"rental_uris": {"ios": "https://dc.lft.to/lastmile_qr_scan", "android": "https://dc.lft.to/lastmile_qr_scan"}, "fusion_lon": 0.0, "type": "electric_scooter", "is_reserved": 0, "lon": -77.00000116666666, "is_disabled": 0, "fusion_lat": 0.0, "bike_id": "8338b00c15c45205079d313bda5fca66", "name": "8338b00c15c45205079d313bda5fca66", "lat": 38.888609833333334}, {"rental_uris": {"ios": "https://dc.lft.to/lastmile_qr_scan", "android": "https://dc.lft.to/lastmile_qr_scan"}, "fusion_lon": 0.0, "type": "electric_scooter", "is_reserved": 0, "lon": -77.03280366666667, "is_disabled": 0, "fusion_lat": 0.0, "bike_id": "0d0b3a3e8797cc4c7b4da49aa4e931bd", "name": "0d0b3a3e8797cc4c7b4da49aa4e931bd", "lat": 38.947456333333335}, {"rental_uris": {"ios": "https://dc.lft.to/lastmile_qr_scan", "android": "https://dc.lft.to/lastmile_qr_scan"}, "fusion_lon": 0.0, "type": "electric_bike", "is_reserved": 0, "lon": -77.0327335, "is_disabled": 0, "fusion_lat": 0.0, "bike_id": "450c2ad3fd90d89c23b0e916dfe7b85e", "name": "450c2ad3fd90d89c23b0e916dfe7b85e", "lat": 38.9612385}, {"rental_uris": {"ios": "https://dc.lft.to/lastmile_qr_scan", "android": "https://dc.lft.to/lastmile_qr_scan"}, "fusion_lon": 0.0, "type": "electric_bike", "is_reserved": 0, "lon": -77.03158783333333, "is_disabled": 0, "fusion_lat": 0.0, "bike_id": "f05762d164dd5c14b4559f7053f6f2e9", "name": "f05762d164dd5c14b4559f7053f6f2e9", "lat": 38.90374516666667}, {"rental_uris": {"ios": "https://dc.lft.to/lastmile_qr_scan", "android": "https://dc.lft.to/lastmile_qr_scan"}, "fusion_lon": 0.0, "type": "electric_scooter", "is_reserved": 0, "lon": -77.0714565, "is_disabled": 0, "fusion_lat": 0.0, "bike_id": "4317f037656ce2a69718dedad12131eb", "name": "4317f037656ce2a69718dedad12131eb", "lat": 38.92007566666667}, {"rental_uris": {"ios": "https://dc.lft.to/lastmile_qr_scan", "android": "https://dc.lft.to/lastmile_qr_scan"}, "fusion_lon": 0.0, "type": "electric_scooter", "is_reserved": 0, "lon": -77.0353705, "is_disabled": 0, "fusion_lat": 0.0, "bike_id": "8fb6aed53af71772e0540aa2e959fef5", "name": "8fb6aed53af71772e0540aa2e959fef5", "lat": 38.92413966666667}, {"rental_uris": {"ios": "https://dc.lft.to/lastmile_qr_scan", "android": "https://dc.lft.to/lastmile_qr_scan"}, "fusion_lon": 0.0, "type": "electric_scooter", "is_reserved": 0, "lon": -77.03626916666667, "is_disabled": 0, "fusion_lat": 0.0, "bike_id": "11d4d08826ae987fc46aaf400fa10c8f", "name": "11d4d08826ae987fc46aaf400fa10c8f", "lat": 38.9563345}, {"rental_uris": {"ios": "https://dc.lft.to/lastmile_qr_scan", "android": "https://dc.lft.to/lastmile_qr_scan"}, "fusion_lon": 0.0, "type": "electric_scooter", "is_reserved": 0, "lon": -77.021502, "is_disabled": 0, "fusion_lat": 0.0, "bike_id": "22caeddf781fe0d99948cd9d4440eb4d", "name": "22caeddf781fe0d99948cd9d4440eb4d", "lat": 38.923370166666665}, {"rental_uris": {"ios": "https://dc.lft.to/lastmile_qr_scan", "android": "https://dc.lft.to/lastmile_qr_scan"}, "fusion_lon": 0.0, "type": "electric_scooter", "is_reserved": 0, "lon": -77.0233285, "is_disabled": 0, "fusion_lat": 0.0, "bike_id": "0d30f3b84d7ae8666eeb3b040658fef1", "name": "0d30f3b84d7ae8666eeb3b040658fef1", "lat": 38.917823166666665}, {"rental_uris": {"ios": "https://dc.lft.to/lastmile_qr_scan", "android": "https://dc.lft.to/lastmile_qr_scan"}, "fusion_lon": 0.0, "type": "electric_scooter", "is_reserved": 0, "lon": -77.0455205, "is_disabled": 0, "fusion_lat": 0.0, "bike_id": "cbeaaeec202d7da0673c54e3a7c6ce5e", "name": "cbeaaeec202d7da0673c54e3a7c6ce5e", "lat": 38.900562666666666}, {"rental_uris": {"ios": "https://dc.lft.to/lastmile_qr_scan", "android": "https://dc.lft.to/lastmile_qr_scan"}, "fusion_lon": 0.0, "type": "electric_scooter", "is_reserved": 0, "lon": -77.0243005, "is_disabled": 0, "fusion_lat": 0.0, "bike_id": "ce21c15c1553fcd45586a59a41487ec6", "name": "ce21c15c1553fcd45586a59a41487ec6", "lat": 38.915521166666664}, {"rental_uris": {"ios": "https://dc.lft.to/lastmile_qr_scan", "android": "https://dc.lft.to/lastmile_qr_scan"}, "fusion_lon": 0.0, "type": "electric_scooter", "is_reserved": 0, "lon": -77.047404, "is_disabled": 0, "fusion_lat": 0.0, "bike_id": "ebafcd9fd5d58ee74573c25c6e8c1b92", "name": "ebafcd9fd5d58ee74573c25c6e8c1b92", "lat": 38.905262}, {"rental_uris": {"ios": "https://dc.lft.to/lastmile_qr_scan", "android": "https://dc.lft.to/lastmile_qr_scan"}, "fusion_lon": 0.0, "type": "electric_scooter", "is_reserved": 0, "lon": -77.02424566666667, "is_disabled": 0, "fusion_lat": 0.0, "bike_id": "2173c21b6d55dd2c77bb9f94d039756a", "name": "2173c21b6d55dd2c77bb9f94d039756a", "lat": 38.9370585}, {"rental_uris": {"ios": "https://dc.lft.to/lastmile_qr_scan", "android": "https://dc.lft.to/lastmile_qr_scan"}, "fusion_lon": 0.0, "type": "electric_scooter", "is_reserved": 0, "lon": -77.014943, "is_disabled": 0, "fusion_lat": 0.0, "bike_id": "92efc24151223dd3a9c90e8a472579ae", "name": "92efc24151223dd3a9c90e8a472579ae", "lat": 38.89957283333333}, {"rental_uris": {"ios": "https://dc.lft.to/lastmile_qr_scan", "android": "https://dc.lft.to/lastmile_qr_scan"}, "fusion_lon": 0.0, "type": "electric_scooter", "is_reserved": 0, "lon": -77.01810283333333, "is_disabled": 0, "fusion_lat": 0.0, "bike_id": "d32c2d123508ce278b1cc2251246d0c8", "name": "d32c2d123508ce278b1cc2251246d0c8", "lat": 38.920243}, {"rental_uris": {"ios": "https://dc.lft.to/lastmile_qr_scan", "android": "https://dc.lft.to/lastmile_qr_scan"}, "fusion_lon": 0.0, "type": "electric_scooter", "is_reserved": 0, "lon": -76.97672083333333, "is_disabled": 0, "fusion_lat": 0.0, "bike_id": "053a263b9e482c54f39aa70ad6913107", "name": "053a263b9e482c54f39aa70ad6913107", "lat": 38.90179533333333}, {"rental_uris": {"ios": "https://dc.lft.to/lastmile_qr_scan", "android": "https://dc.lft.to/lastmile_qr_scan"}, "fusion_lon": 0.0, "type": "electric_scooter", "is_reserved": 0, "lon": -77.01964833333334, "is_disabled": 0, "fusion_lat": 0.0, "bike_id": "90648c327876cf26370a2b2a14fe4fdb", "name": "90648c327876cf26370a2b2a14fe4fdb", "lat": 38.91898483333333}, {"rental_uris": {"ios": "https://dc.lft.to/lastmile_qr_scan", "android": "https://dc.lft.to/lastmile_qr_scan"}, "fusion_lon": 0.0, "type": "electric_scooter", "is_reserved": 0, "lon": -77.03166516666667, "is_disabled": 0, "fusion_lat": 0.0, "bike_id": "f854fa5e836adca65795b702b9fec559", "name": "f854fa5e836adca65795b702b9fec559", "lat": 38.90128383333333}, {"rental_uris": {"ios": "https://dc.lft.to/lastmile_qr_scan", "android": "https://dc.lft.to/lastmile_qr_scan"}, "fusion_lon": 0.0, "type": "electric_scooter", "is_reserved": 0, "lon": -76.99562866666666, "is_disabled": 0, "fusion_lat": 0.0, "bike_id": "70b103186de809ae03ebbc02a8e31216", "name": "70b103186de809ae03ebbc02a8e31216", "lat": 38.884229833333336}, {"rental_uris": {"ios": "https://dc.lft.to/lastmile_qr_scan", "android": "https://dc.lft.to/lastmile_qr_scan"}, "fusion_lon": 0.0, "type": "electric_scooter", "is_reserved": 0, "lon": -76.998423, "is_disabled": 0, "fusion_lat": 0.0, "bike_id": "72386bf69f06645ea5fcf63ffe8f0264", "name": "72386bf69f06645ea5fcf63ffe8f0264", "lat": 38.902985666666666}, {"rental_uris": {"ios": "https://dc.lft.to/lastmile_qr_scan", "android": "https://dc.lft.to/lastmile_qr_scan"}, "fusion_lon": 0.0, "type": "electric_scooter", "is_reserved": 0, "lon": -77.00532366666667, "is_disabled": 0, "fusion_lat": 0.0, "bike_id": "733f877ca41858484c9eda2a831c5367", "name": "733f877ca41858484c9eda2a831c5367", "lat": 38.874638}, {"rental_uris": {"ios": "https://dc.lft.to/lastmile_qr_scan", "android": "https://dc.lft.to/lastmile_qr_scan"}, "fusion_lon": 0.0, "type": "electric_scooter", "is_reserved": 0, "lon": -76.98380216666666, "is_disabled": 0, "fusion_lat": 0.0, "bike_id": "60929e7c2aa6d1d80bb0f52fe59216d8", "name": "60929e7c2aa6d1d80bb0f52fe59216d8", "lat": 38.88711083333333}, {"rental_uris": {"ios": "https://dc.lft.to/lastmile_qr_scan", "android": "https://dc.lft.to/lastmile_qr_scan"}, "fusion_lon": 0.0, "type": "electric_scooter", "is_reserved": 0, "lon": -77.04529316666667, "is_disabled": 0, "fusion_lat": 0.0, "bike_id": "62451d6a753567a5dbdac43edff59f79", "name": "62451d6a753567a5dbdac43edff59f79", "lat": 38.908529}, {"rental_uris": {"ios": "https://dc.lft.to/lastmile_qr_scan", "android": "https://dc.lft.to/lastmile_qr_scan"}, "fusion_lon": 0.0, "type": "electric_scooter", "is_reserved": 0, "lon": -77.045479, "is_disabled": 0, "fusion_lat": 0.0, "bike_id": "03e5613a08fdaca1ef7d75dbb0170ea9", "name": "03e5613a08fdaca1ef7d75dbb0170ea9", "lat": 38.9074955}, {"rental_uris": {"ios": "https://dc.lft.to/lastmile_qr_scan", "android": "https://dc.lft.to/lastmile_qr_scan"}, "fusion_lon": 0.0, "type": "electric_bike", "is_reserved": 0, "lon": -76.9732925, "is_disabled": 0, "fusion_lat": 0.0, "bike_id": "4855443455597121b99828bdac5c1d50", "name": "4855443455597121b99828bdac5c1d50", "lat": 38.86510716666667}, {"rental_uris": {"ios": "https://dc.lft.to/lastmile_qr_scan", "android": "https://dc.lft.to/lastmile_qr_scan"}, "fusion_lon": 0.0, "type": "electric_scooter", "is_reserved": 0, "lon": -77.01365283333334, "is_disabled": 0, "fusion_lat": 0.0, "bike_id": "2250bf581477d421e9f3232e98b6ff5f", "name": "2250bf581477d421e9f3232e98b6ff5f", "lat": 38.90046983333333}, {"rental_uris": {"ios": "https://dc.lft.to/lastmile_qr_scan", "android": "https://dc.lft.to/lastmile_qr_scan"}, "fusion_lon": 0.0, "type": "electric_scooter", "is_reserved": 0, "lon": -77.03872266666667, "is_disabled": 0, "fusion_lat": 0.0, "bike_id": "29df2cf168e119c94f1cb5a9d8282117", "name": "29df2cf168e119c94f1cb5a9d8282117", "lat": 38.912653}, {"rental_uris": {"ios": "https://dc.lft.to/lastmile_qr_scan", "android": "https://dc.lft.to/lastmile_qr_scan"}, "fusion_lon": 0.0, "type": "electric_scooter", "is_reserved": 0, "lon": -77.02184616666666, "is_disabled": 0, "fusion_lat": 0.0, "bike_id": "8eab7060c6987258770c7616e68497ee", "name": "8eab7060c6987258770c7616e68497ee", "lat": 38.906918}, {"rental_uris": {"ios": "https://dc.lft.to/lastmile_qr_scan", "android": "https://dc.lft.to/lastmile_qr_scan"}, "fusion_lon": 0.0, "type": "electric_scooter", "is_reserved": 0, "lon": -77.00563566666666, "is_disabled": 0, "fusion_lat": 0.0, "bike_id": "119a5d33b3dab85cd3167fb84641872c", "name": "119a5d33b3dab85cd3167fb84641872c", "lat": 38.885134}, {"rental_uris": {"ios": "https://dc.lft.to/lastmile_qr_scan", "android": "https://dc.lft.to/lastmile_qr_scan"}, "fusion_lon": 0.0, "type": "electric_scooter", "is_reserved": 0, "lon": -77.00580666666667, "is_disabled": 0, "fusion_lat": 0.0, "bike_id": "262f24d4198aaa677ced9696dd95389c", "name": "262f24d4198aaa677ced9696dd95389c", "lat": 38.87148766666667}, {"rental_uris": {"ios": "https://dc.lft.to/lastmile_qr_scan", "android": "https://dc.lft.to/lastmile_qr_scan"}, "fusion_lon": 0.0, "type": "electric_bike", "is_reserved": 0, "lon": -77.0852635, "is_disabled": 0, "fusion_lat": 0.0, "bike_id": "89263200cdc281b89038e175431123c2", "name": "89263200cdc281b89038e175431123c2", "lat": 38.85642216666667}, {"rental_uris": {"ios": "https://dc.lft.to/lastmile_qr_scan", "android": "https://dc.lft.to/lastmile_qr_scan"}, "fusion_lon": 0.0, "type": "electric_scooter", "is_reserved": 0, "lon": -76.99628, "is_disabled": 0, "fusion_lat": 0.0, "bike_id": "705c5df28d8cd23b9ebe2c08d67073d0", "name": "705c5df28d8cd23b9ebe2c08d67073d0", "lat": 38.899978833333336}, {"rental_uris": {"ios": "https://dc.lft.to/lastmile_qr_scan", "android": "https://dc.lft.to/lastmile_qr_scan"}, "fusion_lon": 0.0, "type": "electric_scooter", "is_reserved": 0, "lon": -77.0193155, "is_disabled": 0, "fusion_lat": 0.0, "bike_id": "3c41a61184d0dff785c75835919be782", "name": "3c41a61184d0dff785c75835919be782", "lat": 38.902259666666666}, {"rental_uris": {"ios": "https://dc.lft.to/lastmile_qr_scan", "android": "https://dc.lft.to/lastmile_qr_scan"}, "fusion_lon": 0.0, "type": "electric_bike", "is_reserved": 0, "lon": -76.97279916666666, "is_disabled": 0, "fusion_lat": 0.0, "bike_id": "282ede0396c059cb29ca448a960371e0", "name": "282ede0396c059cb29ca448a960371e0", "lat": 38.8559325}, {"rental_uris": {"ios": "https://dc.lft.to/lastmile_qr_scan", "android": "https://dc.lft.to/lastmile_qr_scan"}, "fusion_lon": 0.0, "type": "electric_scooter", "is_reserved": 0, "lon": -77.03500766666667, "is_disabled": 0, "fusion_lat": 0.0, "bike_id": "aeb4467bd14d9ae94737bb24bb1dca2e", "name": "aeb4467bd14d9ae94737bb24bb1dca2e", "lat": 38.923359166666664}, {"rental_uris": {"ios": "https://dc.lft.to/lastmile_qr_scan", "android": "https://dc.lft.to/lastmile_qr_scan"}, "fusion_lon": 0.0, "type": "electric_bike", "is_reserved": 0, "lon": -77.0561075, "is_disabled": 0, "fusion_lat": 0.0, "bike_id": "8ea6376eb0e3913c38a65a7b066bb1af", "name": "8ea6376eb0e3913c38a65a7b066bb1af", "lat": 38.823145}, {"rental_uris": {"ios": "https://dc.lft.to/lastmile_qr_scan", "android": "https://dc.lft.to/lastmile_qr_scan"}, "fusion_lon": 0.0, "type": "electric_scooter", "is_reserved": 0, "lon": -77.010103, "is_disabled": 0, "fusion_lat": 0.0, "bike_id": "e1e26c4e80a077626da5a9ebb231d9b0", "name": "e1e26c4e80a077626da5a9ebb231d9b0", "lat": 38.9068685}, {"rental_uris": {"ios": "https://dc.lft.to/lastmile_qr_scan", "android": "https://dc.lft.to/lastmile_qr_scan"}, "fusion_lon": 0.0, "type": "electric_scooter", "is_reserved": 0, "lon": -77.00575533333334, "is_disabled": 0, "fusion_lat": 0.0, "bike_id": "a3dea36fc55483bbb2bcb558f647987e", "name": "a3dea36fc55483bbb2bcb558f647987e", "lat": 38.87626133333333}, {"rental_uris": {"ios": "https://dc.lft.to/lastmile_qr_scan", "android": "https://dc.lft.to/lastmile_qr_scan"}, "fusion_lon": 0.0, "type": "electric_scooter", "is_reserved": 0, "lon": -77.02122616666666, "is_disabled": 0, "fusion_lat": 0.0, "bike_id": "3ad4ce0f982c01516eb92b6ffbf1074d", "name": "3ad4ce0f982c01516eb92b6ffbf1074d", "lat": 38.923654666666664}, {"rental_uris": {"ios": "https://dc.lft.to/lastmile_qr_scan", "android": "https://dc.lft.to/lastmile_qr_scan"}, "fusion_lon": 0.0, "type": "electric_scooter", "is_reserved": 0, "lon": -77.0216325, "is_disabled": 0, "fusion_lat": 0.0, "bike_id": "4c4aac90139420479f31f0f8d95d0f8e", "name": "4c4aac90139420479f31f0f8d95d0f8e", "lat": 38.929036833333335}, {"rental_uris": {"ios": "https://dc.lft.to/lastmile_qr_scan", "android": "https://dc.lft.to/lastmile_qr_scan"}, "fusion_lon": 0.0, "type": "electric_scooter", "is_reserved": 0, "lon": -77.02048616666667, "is_disabled": 0, "fusion_lat": 0.0, "bike_id": "0c3c9bd04f23d93ddd6ca2d2b049cbf5", "name": "0c3c9bd04f23d93ddd6ca2d2b049cbf5", "lat": 38.9210685}, {"rental_uris": {"ios": "https://dc.lft.to/lastmile_qr_scan", "android": "https://dc.lft.to/lastmile_qr_scan"}, "fusion_lon": 0.0, "type": "electric_bike", "is_reserved": 0, "lon": -77.11333983333333, "is_disabled": 0, "fusion_lat": 0.0, "bike_id": "52b8daa66e1f60f799f475ffe0055fc8", "name": "52b8daa66e1f60f799f475ffe0055fc8", "lat": 38.804057666666665}, {"rental_uris": {"ios": "https://dc.lft.to/lastmile_qr_scan", "android": "https://dc.lft.to/lastmile_qr_scan"}, "fusion_lon": 0.0, "type": "electric_scooter", "is_reserved": 0, "lon": -77.03888716666667, "is_disabled": 0, "fusion_lat": 0.0, "bike_id": "f9e16bb5fe6a26b8877fe68cdd826363", "name": "f9e16bb5fe6a26b8877fe68cdd826363", "lat": 38.90655783333333}, {"rental_uris": {"ios": "https://dc.lft.to/lastmile_qr_scan", "android": "https://dc.lft.to/lastmile_qr_scan"}, "fusion_lon": 0.0, "type": "electric_bike", "is_reserved": 0, "lon": -77.11847666666667, "is_disabled": 0, "fusion_lat": 0.0, "bike_id": "876a3fed4b4bc117f53e25121a93d072", "name": "876a3fed4b4bc117f53e25121a93d072", "lat": 38.877266666666664}, {"rental_uris": {"ios": "https://dc.lft.to/lastmile_qr_scan", "android": "https://dc.lft.to/lastmile_qr_scan"}, "fusion_lon": 0.0, "type": "electric_scooter", "is_reserved": 0, "lon": -77.03641966666666, "is_disabled": 0, "fusion_lat": 0.0, "bike_id": "68c92e10d7c58fe3f18007464a058769", "name": "68c92e10d7c58fe3f18007464a058769", "lat": 38.91568383333333}, {"rental_uris": {"ios": "https://dc.lft.to/lastmile_qr_scan", "android": "https://dc.lft.to/lastmile_qr_scan"}, "fusion_lon": 0.0, "type": "electric_scooter", "is_reserved": 0, "lon": -77.01075966666667, "is_disabled": 0, "fusion_lat": 0.0, "bike_id": "62580a02acbbd66cbf8ced68225e0035", "name": "62580a02acbbd66cbf8ced68225e0035", "lat": 38.911381}, {"rental_uris": {"ios": "https://dc.lft.to/lastmile_qr_scan", "android": "https://dc.lft.to/lastmile_qr_scan"}, "fusion_lon": 0.0, "type": "electric_scooter", "is_reserved": 0, "lon": -77.032643, "is_disabled": 0, "fusion_lat": 0.0, "bike_id": "1a16a0df4364b1624847b5a4555b8c68", "name": "1a16a0df4364b1624847b5a4555b8c68", "lat": 38.935386333333334}, {"rental_uris": {"ios": "https://dc.lft.to/lastmile_qr_scan", "android": "https://dc.lft.to/lastmile_qr_scan"}, "fusion_lon": 0.0, "type": "electric_scooter", "is_reserved": 0, "lon": -77.01525433333333, "is_disabled": 0, "fusion_lat": 0.0, "bike_id": "890017a9014c972eae599e32d3a608ae", "name": "890017a9014c972eae599e32d3a608ae", "lat": 38.88732016666667}, {"rental_uris": {"ios": "https://dc.lft.to/lastmile_qr_scan", "android": "https://dc.lft.to/lastmile_qr_scan"}, "fusion_lon": 0.0, "type": "electric_scooter", "is_reserved": 0, "lon": -77.0412005, "is_disabled": 0, "fusion_lat": 0.0, "bike_id": "5321d88a0e8a5694cd684873d5da328f", "name": "5321d88a0e8a5694cd684873d5da328f", "lat": 38.901286}, {"rental_uris": {"ios": "https://dc.lft.to/lastmile_qr_scan", "android": "https://dc.lft.to/lastmile_qr_scan"}, "fusion_lon": 0.0, "type": "electric_bike", "is_reserved": 0, "lon": -76.98198066666667, "is_disabled": 0, "fusion_lat": 0.0, "bike_id": "ed9ac04abb4820f24731f3a4a2c12363", "name": "ed9ac04abb4820f24731f3a4a2c12363", "lat": 38.98496733333333}, {"rental_uris": {"ios": "https://dc.lft.to/lastmile_qr_scan", "android": "https://dc.lft.to/lastmile_qr_scan"}, "fusion_lon": 0.0, "type": "electric_scooter", "is_reserved": 0, "lon": -77.02654433333333, "is_disabled": 0, "fusion_lat": 0.0, "bike_id": "99c315ab7b7920dba816a609c15ca9df", "name": "99c315ab7b7920dba816a609c15ca9df", "lat": 38.88106766666667}, {"rental_uris": {"ios": "https://dc.lft.to/lastmile_qr_scan", "android": "https://dc.lft.to/lastmile_qr_scan"}, "fusion_lon": 0.0, "type": "electric_scooter", "is_reserved": 0, "lon": -77.03176833333333, "is_disabled": 0, "fusion_lat": 0.0, "bike_id": "ff487f95a0f4880322895f6ed2996c0e", "name": "ff487f95a0f4880322895f6ed2996c0e", "lat": 38.916450833333336}, {"rental_uris": {"ios": "https://dc.lft.to/lastmile_qr_scan", "android": "https://dc.lft.to/lastmile_qr_scan"}, "fusion_lon": 0.0, "type": "electric_scooter", "is_reserved": 0, "lon": -77.03552533333334, "is_disabled": 0, "fusion_lat": 0.0, "bike_id": "cf0bee4d4890e9b13616967c384bd984", "name": "cf0bee4d4890e9b13616967c384bd984", "lat": 38.9045545}, {"rental_uris": {"ios": "https://dc.lft.to/lastmile_qr_scan", "android": "https://dc.lft.to/lastmile_qr_scan"}, "fusion_lon": 0.0, "type": "electric_scooter", "is_reserved": 0, "lon": -77.017196, "is_disabled": 0, "fusion_lat": 0.0, "bike_id": "2e73a805cabce0e3582079f1bfc9f108", "name": "2e73a805cabce0e3582079f1bfc9f108", "lat": 38.920555}, {"rental_uris": {"ios": "https://dc.lft.to/lastmile_qr_scan", "android": "https://dc.lft.to/lastmile_qr_scan"}, "fusion_lon": 0.0, "type": "electric_scooter", "is_reserved": 0, "lon": -77.05433816666667, "is_disabled": 0, "fusion_lat": 0.0, "bike_id": "831e7078441240f227b676850d6a67d0", "name": "831e7078441240f227b676850d6a67d0", "lat": 38.92841966666667}, {"rental_uris": {"ios": "https://dc.lft.to/lastmile_qr_scan", "android": "https://dc.lft.to/lastmile_qr_scan"}, "fusion_lon": 0.0, "type": "electric_scooter", "is_reserved": 0, "lon": -77.03406316666667, "is_disabled": 0, "fusion_lat": 0.0, "bike_id": "1543ca854e355222f3c7c96da854c47b", "name": "1543ca854e355222f3c7c96da854c47b", "lat": 38.966783}, {"rental_uris": {"ios": "https://dc.lft.to/lastmile_qr_scan", "android": "https://dc.lft.to/lastmile_qr_scan"}, "fusion_lon": 0.0, "type": "electric_scooter", "is_reserved": 0, "lon": -77.01872316666666, "is_disabled": 0, "fusion_lat": 0.0, "bike_id": "badfff67296ed20edbd44589158812bd", "name": "badfff67296ed20edbd44589158812bd", "lat": 38.877501333333335}, {"rental_uris": {"ios": "https://dc.lft.to/lastmile_qr_scan", "android": "https://dc.lft.to/lastmile_qr_scan"}, "fusion_lon": 0.0, "type": "electric_scooter", "is_reserved": 0, "lon": -77.033499, "is_disabled": 0, "fusion_lat": 0.0, "bike_id": "fbccf6f8a0a58b7fb31317870464093f", "name": "fbccf6f8a0a58b7fb31317870464093f", "lat": 38.909619166666666}, {"rental_uris": {"ios": "https://dc.lft.to/lastmile_qr_scan", "android": "https://dc.lft.to/lastmile_qr_scan"}, "fusion_lon": 0.0, "type": "electric_scooter", "is_reserved": 0, "lon": -77.0551935, "is_disabled": 0, "fusion_lat": 0.0, "bike_id": "2c74b8c0309e971659d70220a737c7e0", "name": "2c74b8c0309e971659d70220a737c7e0", "lat": 38.91061583333333}, {"rental_uris": {"ios": "https://dc.lft.to/lastmile_qr_scan", "android": "https://dc.lft.to/lastmile_qr_scan"}, "fusion_lon": 0.0, "type": "electric_scooter", "is_reserved": 0, "lon": -77.03754433333333, "is_disabled": 0, "fusion_lat": 0.0, "bike_id": "8eb4fd64c68e98bc90196424bd9f3e04", "name": "8eb4fd64c68e98bc90196424bd9f3e04", "lat": 38.902485166666665}, {"rental_uris": {"ios": "https://dc.lft.to/lastmile_qr_scan", "android": "https://dc.lft.to/lastmile_qr_scan"}, "fusion_lon": 0.0, "type": "electric_scooter", "is_reserved": 0, "lon": -77.03729033333333, "is_disabled": 0, "fusion_lat": 0.0, "bike_id": "22272a8414fe657e429c2e726c4205b0", "name": "22272a8414fe657e429c2e726c4205b0", "lat": 38.917041166666664}, {"rental_uris": {"ios": "https://dc.lft.to/lastmile_qr_scan", "android": "https://dc.lft.to/lastmile_qr_scan"}, "fusion_lon": 0.0, "type": "electric_bike", "is_reserved": 0, "lon": -76.99650933333334, "is_disabled": 0, "fusion_lat": 0.0, "bike_id": "27ba6ec4afb49172f8409698cb5a9966", "name": "27ba6ec4afb49172f8409698cb5a9966", "lat": 38.967743666666664}, {"rental_uris": {"ios": "https://dc.lft.to/lastmile_qr_scan", "android": "https://dc.lft.to/lastmile_qr_scan"}, "fusion_lon": 0.0, "type": "electric_scooter", "is_reserved": 0, "lon": -77.01748216666667, "is_disabled": 0, "fusion_lat": 0.0, "bike_id": "56148a33925f3e0d87f2f0c8bcdea5c1", "name": "56148a33925f3e0d87f2f0c8bcdea5c1", "lat": 38.881823}, {"rental_uris": {"ios": "https://dc.lft.to/lastmile_qr_scan", "android": "https://dc.lft.to/lastmile_qr_scan"}, "fusion_lon": 0.0, "type": "electric_scooter", "is_reserved": 0, "lon": -77.0115265, "is_disabled": 0, "fusion_lat": 0.0, "bike_id": "f925fabf4387883d3ad10e1837ef805a", "name": "f925fabf4387883d3ad10e1837ef805a", "lat": 38.9110165}, {"rental_uris": {"ios": "https://dc.lft.to/lastmile_qr_scan", "android": "https://dc.lft.to/lastmile_qr_scan"}, "fusion_lon": 0.0, "type": "electric_scooter", "is_reserved": 0, "lon": -77.04513333333334, "is_disabled": 0, "fusion_lat": 0.0, "bike_id": "72a6365a4b9a7b7ffae3fdd1e99c2fd8", "name": "72a6365a4b9a7b7ffae3fdd1e99c2fd8", "lat": 38.89604683333334}, {"rental_uris": {"ios": "https://dc.lft.to/lastmile_qr_scan", "android": "https://dc.lft.to/lastmile_qr_scan"}, "fusion_lon": 0.0, "type": "electric_scooter", "is_reserved": 0, "lon": -77.00062883333334, "is_disabled": 0, "fusion_lat": 0.0, "bike_id": "06b249a32d0fcf8fee9c9b75dedc0b18", "name": "06b249a32d0fcf8fee9c9b75dedc0b18", "lat": 38.8869575}, {"rental_uris": {"ios": "https://dc.lft.to/lastmile_qr_scan", "android": "https://dc.lft.to/lastmile_qr_scan"}, "fusion_lon": 0.0, "type": "electric_scooter", "is_reserved": 0, "lon": -77.01296033333334, "is_disabled": 0, "fusion_lat": 0.0, "bike_id": "e111cda8e9098893b1fc2a936631974c", "name": "e111cda8e9098893b1fc2a936631974c", "lat": 38.89721016666667}, {"rental_uris": {"ios": "https://dc.lft.to/lastmile_qr_scan", "android": "https://dc.lft.to/lastmile_qr_scan"}, "fusion_lon": 0.0, "type": "electric_scooter", "is_reserved": 0, "lon": -77.04422316666667, "is_disabled": 0, "fusion_lat": 0.0, "bike_id": "585a7915e247c3a21d681e8995adecea", "name": "585a7915e247c3a21d681e8995adecea", "lat": 38.9153805}, {"rental_uris": {"ios": "https://dc.lft.to/lastmile_qr_scan", "android": "https://dc.lft.to/lastmile_qr_scan"}, "fusion_lon": 0.0, "type": "electric_bike", "is_reserved": 0, "lon": -77.04791333333333, "is_disabled": 0, "fusion_lat": 0.0, "bike_id": "49b51eef9c349967a732a55a48c9463c", "name": "49b51eef9c349967a732a55a48c9463c", "lat": 38.8936085}, {"rental_uris": {"ios": "https://dc.lft.to/lastmile_qr_scan", "android": "https://dc.lft.to/lastmile_qr_scan"}, "fusion_lon": 0.0, "type": "electric_scooter", "is_reserved": 0, "lon": -77.0203805, "is_disabled": 0, "fusion_lat": 0.0, "bike_id": "f892749de73b65b4f788a5e3c4f69ee6", "name": "f892749de73b65b4f788a5e3c4f69ee6", "lat": 38.92447533333333}, {"rental_uris": {"ios": "https://dc.lft.to/lastmile_qr_scan", "android": "https://dc.lft.to/lastmile_qr_scan"}, "fusion_lon": 0.0, "type": "electric_scooter", "is_reserved": 0, "lon": -77.04832716666667, "is_disabled": 0, "fusion_lat": 0.0, "bike_id": "ab5fb360b4f49196fc691027d062c1a1", "name": "ab5fb360b4f49196fc691027d062c1a1", "lat": 38.90171083333333}, {"rental_uris": {"ios": "https://dc.lft.to/lastmile_qr_scan", "android": "https://dc.lft.to/lastmile_qr_scan"}, "fusion_lon": 0.0, "type": "electric_scooter", "is_reserved": 0, "lon": -77.02134966666667, "is_disabled": 0, "fusion_lat": 0.0, "bike_id": "65817500575ac7ae09b9e0516018992d", "name": "65817500575ac7ae09b9e0516018992d", "lat": 38.92365}, {"rental_uris": {"ios": "https://dc.lft.to/lastmile_qr_scan", "android": "https://dc.lft.to/lastmile_qr_scan"}, "fusion_lon": 0.0, "type": "electric_scooter", "is_reserved": 0, "lon": -76.9961085, "is_disabled": 0, "fusion_lat": 0.0, "bike_id": "447787f84cdfc7513720f5342e39c5fe", "name": "447787f84cdfc7513720f5342e39c5fe", "lat": 38.887224833333335}, {"rental_uris": {"ios": "https://dc.lft.to/lastmile_qr_scan", "android": "https://dc.lft.to/lastmile_qr_scan"}, "fusion_lon": 0.0, "type": "electric_scooter", "is_reserved": 0, "lon": -77.04278116666667, "is_disabled": 0, "fusion_lat": 0.0, "bike_id": "11a0f0c7d2f156c76d936a8ef477149a", "name": "11a0f0c7d2f156c76d936a8ef477149a", "lat": 38.910199}, {"rental_uris": {"ios": "https://dc.lft.to/lastmile_qr_scan", "android": "https://dc.lft.to/lastmile_qr_scan"}, "fusion_lon": 0.0, "type": "electric_scooter", "is_reserved": 0, "lon": -77.01874666666667, "is_disabled": 0, "fusion_lat": 0.0, "bike_id": "0be0f082ebda950bcaf34cf478a2ea06", "name": "0be0f082ebda950bcaf34cf478a2ea06", "lat": 38.931956166666666}, {"rental_uris": {"ios": "https://dc.lft.to/lastmile_qr_scan", "android": "https://dc.lft.to/lastmile_qr_scan"}, "fusion_lon": 0.0, "type": "electric_scooter", "is_reserved": 0, "lon": -77.0041285, "is_disabled": 0, "fusion_lat": 0.0, "bike_id": "833f40f6c03476eafaaacd409fe61e33", "name": "833f40f6c03476eafaaacd409fe61e33", "lat": 38.876634833333334}, {"rental_uris": {"ios": "https://dc.lft.to/lastmile_qr_scan", "android": "https://dc.lft.to/lastmile_qr_scan"}, "fusion_lon": 0.0, "type": "electric_scooter", "is_reserved": 0, "lon": -77.0108865, "is_disabled": 0, "fusion_lat": 0.0, "bike_id": "e14038efab6bceef70e331ba023fd64f", "name": "e14038efab6bceef70e331ba023fd64f", "lat": 38.89612566666667}, {"rental_uris": {"ios": "https://dc.lft.to/lastmile_qr_scan", "android": "https://dc.lft.to/lastmile_qr_scan"}, "fusion_lon": 0.0, "type": "electric_scooter", "is_reserved": 0, "lon": -77.00750033333334, "is_disabled": 0, "fusion_lat": 0.0, "bike_id": "73be50aa70089bd724356df7ac66488a", "name": "73be50aa70089bd724356df7ac66488a", "lat": 38.898753666666664}, {"rental_uris": {"ios": "https://dc.lft.to/lastmile_qr_scan", "android": "https://dc.lft.to/lastmile_qr_scan"}, "fusion_lon": 0.0, "type": "electric_scooter", "is_reserved": 0, "lon": -77.0482085, "is_disabled": 0, "fusion_lat": 0.0, "bike_id": "8bcab0ea230d328dda7e18d6d04e18a2", "name": "8bcab0ea230d328dda7e18d6d04e18a2", "lat": 38.905142}, {"rental_uris": {"ios": "https://dc.lft.to/lastmile_qr_scan", "android": "https://dc.lft.to/lastmile_qr_scan"}, "fusion_lon": 0.0, "type": "electric_scooter", "is_reserved": 0, "lon": -77.001362, "is_disabled": 0, "fusion_lat": 0.0, "bike_id": "3ef6d1c3bae8f9b08e394ab2b39ec4cc", "name": "3ef6d1c3bae8f9b08e394ab2b39ec4cc", "lat": 38.878617}, {"rental_uris": {"ios": "https://dc.lft.to/lastmile_qr_scan", "android": "https://dc.lft.to/lastmile_qr_scan"}, "fusion_lon": 0.0, "type": "electric_scooter", "is_reserved": 0, "lon": -77.00200183333334, "is_disabled": 0, "fusion_lat": 0.0, "bike_id": "069c615b0e07fda854b275b0236eae50", "name": "069c615b0e07fda854b275b0236eae50", "lat": 38.8874725}, {"rental_uris": {"ios": "https://dc.lft.to/lastmile_qr_scan", "android": "https://dc.lft.to/lastmile_qr_scan"}, "fusion_lon": 0.0, "type": "electric_scooter", "is_reserved": 0, "lon": -77.03136883333333, "is_disabled": 0, "fusion_lat": 0.0, "bike_id": "a57e3095a4b9be4d3136c60deac705ee", "name": "a57e3095a4b9be4d3136c60deac705ee", "lat": 38.923742}, {"rental_uris": {"ios": "https://dc.lft.to/lastmile_qr_scan", "android": "https://dc.lft.to/lastmile_qr_scan"}, "fusion_lon": 0.0, "type": "electric_scooter", "is_reserved": 0, "lon": -77.02510866666667, "is_disabled": 0, "fusion_lat": 0.0, "bike_id": "2fda352840d4da8fcd33bf3c81cae58f", "name": "2fda352840d4da8fcd33bf3c81cae58f", "lat": 38.904166000000004}, {"rental_uris": {"ios": "https://dc.lft.to/lastmile_qr_scan", "android": "https://dc.lft.to/lastmile_qr_scan"}, "fusion_lon": 0.0, "type": "electric_scooter", "is_reserved": 0, "lon": -76.98377233333333, "is_disabled": 0, "fusion_lat": 0.0, "bike_id": "a4b96e720068463ca720a982ad560f9c", "name": "a4b96e720068463ca720a982ad560f9c", "lat": 38.86076933333333}, {"rental_uris": {"ios": "https://dc.lft.to/lastmile_qr_scan", "android": "https://dc.lft.to/lastmile_qr_scan"}, "fusion_lon": 0.0, "type": "electric_scooter", "is_reserved": 0, "lon": -77.059923, "is_disabled": 0, "fusion_lat": 0.0, "bike_id": "392a3f542dfcde0fd619edfe3c947a7a", "name": "392a3f542dfcde0fd619edfe3c947a7a", "lat": 38.93779116666666}, {"rental_uris": {"ios": "https://dc.lft.to/lastmile_qr_scan", "android": "https://dc.lft.to/lastmile_qr_scan"}, "fusion_lon": 0.0, "type": "electric_scooter", "is_reserved": 0, "lon": -77.02271166666667, "is_disabled": 0, "fusion_lat": 0.0, "bike_id": "5760bcb63ac309e8a98c875886256912", "name": "5760bcb63ac309e8a98c875886256912", "lat": 38.922304833333335}, {"rental_uris": {"ios": "https://dc.lft.to/lastmile_qr_scan", "android": "https://dc.lft.to/lastmile_qr_scan"}, "fusion_lon": 0.0, "type": "electric_scooter", "is_reserved": 0, "lon": -77.0318595, "is_disabled": 0, "fusion_lat": 0.0, "bike_id": "ff24fa2c5e45342cc2ea1d005c3321fd", "name": "ff24fa2c5e45342cc2ea1d005c3321fd", "lat": 38.909455}, {"rental_uris": {"ios": "https://dc.lft.to/lastmile_qr_scan", "android": "https://dc.lft.to/lastmile_qr_scan"}, "fusion_lon": 0.0, "type": "electric_scooter", "is_reserved": 0, "lon": -77.071676, "is_disabled": 0, "fusion_lat": 0.0, "bike_id": "9b265c81b1d70d1103cadb2c010a3aff", "name": "9b265c81b1d70d1103cadb2c010a3aff", "lat": 38.9075815}, {"rental_uris": {"ios": "https://dc.lft.to/lastmile_qr_scan", "android": "https://dc.lft.to/lastmile_qr_scan"}, "fusion_lon": 0.0, "type": "electric_scooter", "is_reserved": 0, "lon": -77.01213266666667, "is_disabled": 0, "fusion_lat": 0.0, "bike_id": "c6e12cf6d89cf4e36e88d90ba61b5d7e", "name": "c6e12cf6d89cf4e36e88d90ba61b5d7e", "lat": 38.885722666666666}, {"rental_uris": {"ios": "https://dc.lft.to/lastmile_qr_scan", "android": "https://dc.lft.to/lastmile_qr_scan"}, "fusion_lon": 0.0, "type": "electric_scooter", "is_reserved": 0, "lon": -77.0241475, "is_disabled": 0, "fusion_lat": 0.0, "bike_id": "df1cfa5b05bb64495efe881367c9ce8f", "name": "df1cfa5b05bb64495efe881367c9ce8f", "lat": 38.9095895}, {"rental_uris": {"ios": "https://dc.lft.to/lastmile_qr_scan", "android": "https://dc.lft.to/lastmile_qr_scan"}, "fusion_lon": 0.0, "type": "electric_scooter", "is_reserved": 0, "lon": -77.03184266666666, "is_disabled": 0, "fusion_lat": 0.0, "bike_id": "8a6e96203df8a1025496a98f84c48e06", "name": "8a6e96203df8a1025496a98f84c48e06", "lat": 38.9173995}, {"rental_uris": {"ios": "https://dc.lft.to/lastmile_qr_scan", "android": "https://dc.lft.to/lastmile_qr_scan"}, "fusion_lon": 0.0, "type": "electric_scooter", "is_reserved": 0, "lon": -77.02289016666667, "is_disabled": 0, "fusion_lat": 0.0, "bike_id": "9cc81923c4265d2507982a305066eb9c", "name": "9cc81923c4265d2507982a305066eb9c", "lat": 38.91438483333334}, {"rental_uris": {"ios": "https://dc.lft.to/lastmile_qr_scan", "android": "https://dc.lft.to/lastmile_qr_scan"}, "fusion_lon": 0.0, "type": "electric_scooter", "is_reserved": 0, "lon": -77.01247016666666, "is_disabled": 0, "fusion_lat": 0.0, "bike_id": "9801eac9cfc7cfbd372c75a6eba43ee2", "name": "9801eac9cfc7cfbd372c75a6eba43ee2", "lat": 38.90862633333333}, {"rental_uris": {"ios": "https://dc.lft.to/lastmile_qr_scan", "android": "https://dc.lft.to/lastmile_qr_scan"}, "fusion_lon": 0.0, "type": "electric_scooter", "is_reserved": 0, "lon": -76.97942983333333, "is_disabled": 0, "fusion_lat": 0.0, "bike_id": "1a6859f7b3b11456428b485a9a7e88ff", "name": "1a6859f7b3b11456428b485a9a7e88ff", "lat": 38.870644166666665}, {"rental_uris": {"ios": "https://dc.lft.to/lastmile_qr_scan", "android": "https://dc.lft.to/lastmile_qr_scan"}, "fusion_lon": 0.0, "type": "electric_scooter", "is_reserved": 0, "lon": -77.00581616666666, "is_disabled": 0, "fusion_lat": 0.0, "bike_id": "86b38247de1f9845f834a9deaae9a025", "name": "86b38247de1f9845f834a9deaae9a025", "lat": 38.88273266666667}, {"rental_uris": {"ios": "https://dc.lft.to/lastmile_qr_scan", "android": "https://dc.lft.to/lastmile_qr_scan"}, "fusion_lon": 0.0, "type": "electric_scooter", "is_reserved": 0, "lon": -77.04040016666667, "is_disabled": 0, "fusion_lat": 0.0, "bike_id": "666703edf17cbac9ff574b1bf0105e9a", "name": "666703edf17cbac9ff574b1bf0105e9a", "lat": 38.91774616666667}, {"rental_uris": {"ios": "https://dc.lft.to/lastmile_qr_scan", "android": "https://dc.lft.to/lastmile_qr_scan"}, "fusion_lon": 0.0, "type": "electric_scooter", "is_reserved": 0, "lon": -76.9765755, "is_disabled": 0, "fusion_lat": 0.0, "bike_id": "38d238c5e59fb31b80777d83b092c523", "name": "38d238c5e59fb31b80777d83b092c523", "lat": 38.87503483333333}, {"rental_uris": {"ios": "https://dc.lft.to/lastmile_qr_scan", "android": "https://dc.lft.to/lastmile_qr_scan"}, "fusion_lon": 0.0, "type": "electric_scooter", "is_reserved": 0, "lon": -77.02793583333333, "is_disabled": 0, "fusion_lat": 0.0, "bike_id": "2052dc9a8c0c8545c58bc1db293cb969", "name": "2052dc9a8c0c8545c58bc1db293cb969", "lat": 38.895887333333334}, {"rental_uris": {"ios": "https://dc.lft.to/lastmile_qr_scan", "android": "https://dc.lft.to/lastmile_qr_scan"}, "fusion_lon": 0.0, "type": "electric_bike", "is_reserved": 0, "lon": -77.01293466666667, "is_disabled": 0, "fusion_lat": 0.0, "bike_id": "6f5eb93ac872e369169fb4524c7903a7", "name": "6f5eb93ac872e369169fb4524c7903a7", "lat": 39.003713}, {"rental_uris": {"ios": "https://dc.lft.to/lastmile_qr_scan", "android": "https://dc.lft.to/lastmile_qr_scan"}, "fusion_lon": 0.0, "type": "electric_scooter", "is_reserved": 0, "lon": -77.04260116666667, "is_disabled": 0, "fusion_lat": 0.0, "bike_id": "e032bbddefdb5474cf50f9fc1d3d5869", "name": "e032bbddefdb5474cf50f9fc1d3d5869", "lat": 38.925389}, {"rental_uris": {"ios": "https://dc.lft.to/lastmile_qr_scan", "android": "https://dc.lft.to/lastmile_qr_scan"}, "fusion_lon": 0.0, "type": "electric_scooter", "is_reserved": 0, "lon": -77.02788766666667, "is_disabled": 0, "fusion_lat": 0.0, "bike_id": "be3e72cfb96b518062ed13cbcfe22200", "name": "be3e72cfb96b518062ed13cbcfe22200", "lat": 38.9170245}, {"rental_uris": {"ios": "https://dc.lft.to/lastmile_qr_scan", "android": "https://dc.lft.to/lastmile_qr_scan"}, "fusion_lon": 0.0, "type": "electric_scooter", "is_reserved": 0, "lon": -76.9463485, "is_disabled": 0, "fusion_lat": 0.0, "bike_id": "72e05e26e3540daea8a4e67d1761a9f3", "name": "72e05e26e3540daea8a4e67d1761a9f3", "lat": 38.89860516666667}, {"rental_uris": {"ios": "https://dc.lft.to/lastmile_qr_scan", "android": "https://dc.lft.to/lastmile_qr_scan"}, "fusion_lon": 0.0, "type": "electric_scooter", "is_reserved": 0, "lon": -77.01119833333334, "is_disabled": 0, "fusion_lat": 0.0, "bike_id": "52bee0826557de354c55b9ee81eb8be9", "name": "52bee0826557de354c55b9ee81eb8be9", "lat": 38.9064965}, {"rental_uris": {"ios": "https://dc.lft.to/lastmile_qr_scan", "android": "https://dc.lft.to/lastmile_qr_scan"}, "fusion_lon": 0.0, "type": "electric_bike", "is_reserved": 0, "lon": -77.04077466666666, "is_disabled": 0, "fusion_lat": 0.0, "bike_id": "3cd12f220a391a5f263984938a41cc13", "name": "3cd12f220a391a5f263984938a41cc13", "lat": 38.830617333333336}, {"rental_uris": {"ios": "https://dc.lft.to/lastmile_qr_scan", "android": "https://dc.lft.to/lastmile_qr_scan"}, "fusion_lon": 0.0, "type": "electric_scooter", "is_reserved": 0, "lon": -77.04346816666667, "is_disabled": 0, "fusion_lat": 0.0, "bike_id": "fc25e73359bfeeeddafec2d06ffba61f", "name": "fc25e73359bfeeeddafec2d06ffba61f", "lat": 38.913469}, {"rental_uris": {"ios": "https://dc.lft.to/lastmile_qr_scan", "android": "https://dc.lft.to/lastmile_qr_scan"}, "fusion_lon": 0.0, "type": "electric_scooter", "is_reserved": 0, "lon": -77.050209, "is_disabled": 0, "fusion_lat": 0.0, "bike_id": "901b72273a78d80343f4683d799ad670", "name": "901b72273a78d80343f4683d799ad670", "lat": 38.90070733333334}, {"rental_uris": {"ios": "https://dc.lft.to/lastmile_qr_scan", "android": "https://dc.lft.to/lastmile_qr_scan"}, "fusion_lon": 0.0, "type": "electric_scooter", "is_reserved": 0, "lon": -77.0442855, "is_disabled": 0, "fusion_lat": 0.0, "bike_id": "b483ea5bb2b0f4aa2803bd1cbad2454d", "name": "b483ea5bb2b0f4aa2803bd1cbad2454d", "lat": 38.89742733333333}, {"rental_uris": {"ios": "https://dc.lft.to/lastmile_qr_scan", "android": "https://dc.lft.to/lastmile_qr_scan"}, "fusion_lon": 0.0, "type": "electric_bike", "is_reserved": 0, "lon": -76.96803033333333, "is_disabled": 0, "fusion_lat": 0.0, "bike_id": "743659d143040494fcf374f4cecb3a5b", "name": "743659d143040494fcf374f4cecb3a5b", "lat": 38.9451305}, {"rental_uris": {"ios": "https://dc.lft.to/lastmile_qr_scan", "android": "https://dc.lft.to/lastmile_qr_scan"}, "fusion_lon": 0.0, "type": "electric_scooter", "is_reserved": 0, "lon": -77.01645733333334, "is_disabled": 0, "fusion_lat": 0.0, "bike_id": "d7bac1d167927a3429a2c3d2e4179059", "name": "d7bac1d167927a3429a2c3d2e4179059", "lat": 38.9095915}, {"rental_uris": {"ios": "https://dc.lft.to/lastmile_qr_scan", "android": "https://dc.lft.to/lastmile_qr_scan"}, "fusion_lon": 0.0, "type": "electric_scooter", "is_reserved": 0, "lon": -77.00036333333334, "is_disabled": 0, "fusion_lat": 0.0, "bike_id": "3ba7c57c77640b98ed156b5b4d639293", "name": "3ba7c57c77640b98ed156b5b4d639293", "lat": 38.88576466666667}, {"rental_uris": {"ios": "https://dc.lft.to/lastmile_qr_scan", "android": "https://dc.lft.to/lastmile_qr_scan"}, "fusion_lon": 0.0, "type": "electric_scooter", "is_reserved": 0, "lon": -77.04565633333333, "is_disabled": 0, "fusion_lat": 0.0, "bike_id": "e915a1875f91d118e97685464ab862ed", "name": "e915a1875f91d118e97685464ab862ed", "lat": 38.90223816666666}, {"rental_uris": {"ios": "https://dc.lft.to/lastmile_qr_scan", "android": "https://dc.lft.to/lastmile_qr_scan"}, "fusion_lon": 0.0, "type": "electric_scooter", "is_reserved": 0, "lon": -77.0467915, "is_disabled": 0, "fusion_lat": 0.0, "bike_id": "f13b71f37e32af09c104b1e93c992e17", "name": "f13b71f37e32af09c104b1e93c992e17", "lat": 38.902421833333335}, {"rental_uris": {"ios": "https://dc.lft.to/lastmile_qr_scan", "android": "https://dc.lft.to/lastmile_qr_scan"}, "fusion_lon": 0.0, "type": "electric_scooter", "is_reserved": 0, "lon": -77.0383825, "is_disabled": 0, "fusion_lat": 0.0, "bike_id": "0f3db34c361184364f312cdb0c3e246f", "name": "0f3db34c361184364f312cdb0c3e246f", "lat": 38.921598833333334}, {"rental_uris": {"ios": "https://dc.lft.to/lastmile_qr_scan", "android": "https://dc.lft.to/lastmile_qr_scan"}, "fusion_lon": 0.0, "type": "electric_scooter", "is_reserved": 0, "lon": -77.05008783333334, "is_disabled": 0, "fusion_lat": 0.0, "bike_id": "b79f58afb6d6e447afa4023fcff8c7aa", "name": "b79f58afb6d6e447afa4023fcff8c7aa", "lat": 38.897297}, {"rental_uris": {"ios": "https://dc.lft.to/lastmile_qr_scan", "android": "https://dc.lft.to/lastmile_qr_scan"}, "fusion_lon": 0.0, "type": "electric_scooter", "is_reserved": 0, "lon": -77.05508983333333, "is_disabled": 0, "fusion_lat": 0.0, "bike_id": "1ce0aea3cc8b1e5a9f618c0cd095602c", "name": "1ce0aea3cc8b1e5a9f618c0cd095602c", "lat": 38.894861}, {"rental_uris": {"ios": "https://dc.lft.to/lastmile_qr_scan", "android": "https://dc.lft.to/lastmile_qr_scan"}, "fusion_lon": 0.0, "type": "electric_scooter", "is_reserved": 0, "lon": -77.031881, "is_disabled": 0, "fusion_lat": 0.0, "bike_id": "93f515c7b82539d261dd82ada46578b9", "name": "93f515c7b82539d261dd82ada46578b9", "lat": 38.8922935}, {"rental_uris": {"ios": "https://dc.lft.to/lastmile_qr_scan", "android": "https://dc.lft.to/lastmile_qr_scan"}, "fusion_lon": 0.0, "type": "electric_scooter", "is_reserved": 0, "lon": -77.027068, "is_disabled": 0, "fusion_lat": 0.0, "bike_id": "24c55e09ea5a0b4444edb6557ae3b397", "name": "24c55e09ea5a0b4444edb6557ae3b397", "lat": 38.90666216666666}, {"rental_uris": {"ios": "https://dc.lft.to/lastmile_qr_scan", "android": "https://dc.lft.to/lastmile_qr_scan"}, "fusion_lon": 0.0, "type": "electric_scooter", "is_reserved": 0, "lon": -77.00834216666667, "is_disabled": 0, "fusion_lat": 0.0, "bike_id": "d378433f7ac277384820f86e3b395f89", "name": "d378433f7ac277384820f86e3b395f89", "lat": 38.92249566666667}, {"rental_uris": {"ios": "https://dc.lft.to/lastmile_qr_scan", "android": "https://dc.lft.to/lastmile_qr_scan"}, "fusion_lon": 0.0, "type": "electric_scooter", "is_reserved": 0, "lon": -77.0921845, "is_disabled": 0, "fusion_lat": 0.0, "bike_id": "2438ff27ff433325731bec9fcb8749e7", "name": "2438ff27ff433325731bec9fcb8749e7", "lat": 38.91688883333333}, {"rental_uris": {"ios": "https://dc.lft.to/lastmile_qr_scan", "android": "https://dc.lft.to/lastmile_qr_scan"}, "fusion_lon": 0.0, "type": "electric_bike", "is_reserved": 0, "lon": -77.06349683333333, "is_disabled": 0, "fusion_lat": 0.0, "bike_id": "23a8af2e3832f2e88ef579e544be8396", "name": "23a8af2e3832f2e88ef579e544be8396", "lat": 38.92043366666667}, {"rental_uris": {"ios": "https://dc.lft.to/lastmile_qr_scan", "android": "https://dc.lft.to/lastmile_qr_scan"}, "fusion_lon": 0.0, "type": "electric_scooter", "is_reserved": 0, "lon": -77.02095666666666, "is_disabled": 0, "fusion_lat": 0.0, "bike_id": "416fb9564e970513407a42477ee92e54", "name": "416fb9564e970513407a42477ee92e54", "lat": 38.881775166666664}, {"rental_uris": {"ios": "https://dc.lft.to/lastmile_qr_scan", "android": "https://dc.lft.to/lastmile_qr_scan"}, "fusion_lon": 0.0, "type": "electric_scooter", "is_reserved": 0, "lon": -77.029275, "is_disabled": 0, "fusion_lat": 0.0, "bike_id": "62bddd901e0d9c5fd9620efdb688e0fe", "name": "62bddd901e0d9c5fd9620efdb688e0fe", "lat": 38.9427235}, {"rental_uris": {"ios": "https://dc.lft.to/lastmile_qr_scan", "android": "https://dc.lft.to/lastmile_qr_scan"}, "fusion_lon": 0.0, "type": "electric_scooter", "is_reserved": 0, "lon": -77.02243366666667, "is_disabled": 0, "fusion_lat": 0.0, "bike_id": "a0b4d991122b70ccc9086a972baa19ad", "name": "a0b4d991122b70ccc9086a972baa19ad", "lat": 38.92463733333334}, {"rental_uris": {"ios": "https://dc.lft.to/lastmile_qr_scan", "android": "https://dc.lft.to/lastmile_qr_scan"}, "fusion_lon": 0.0, "type": "electric_scooter", "is_reserved": 0, "lon": -77.028266, "is_disabled": 0, "fusion_lat": 0.0, "bike_id": "d478eb74cd62f6c310cd44e7ba00cdfd", "name": "d478eb74cd62f6c310cd44e7ba00cdfd", "lat": 38.92226133333333}, {"rental_uris": {"ios": "https://dc.lft.to/lastmile_qr_scan", "android": "https://dc.lft.to/lastmile_qr_scan"}, "fusion_lon": 0.0, "type": "electric_scooter", "is_reserved": 0, "lon": -77.02592916666667, "is_disabled": 0, "fusion_lat": 0.0, "bike_id": "a08d230699ad12400836be5d950382c7", "name": "a08d230699ad12400836be5d950382c7", "lat": 38.916891666666665}, {"rental_uris": {"ios": "https://dc.lft.to/lastmile_qr_scan", "android": "https://dc.lft.to/lastmile_qr_scan"}, "fusion_lon": 0.0, "type": "electric_scooter", "is_reserved": 0, "lon": -77.02108783333334, "is_disabled": 0, "fusion_lat": 0.0, "bike_id": "5ffdacfec79c563b9ed4196e3f0c0189", "name": "5ffdacfec79c563b9ed4196e3f0c0189", "lat": 38.922154166666665}, {"rental_uris": {"ios": "https://dc.lft.to/lastmile_qr_scan", "android": "https://dc.lft.to/lastmile_qr_scan"}, "fusion_lon": 0.0, "type": "electric_scooter", "is_reserved": 0, "lon": -77.02709566666667, "is_disabled": 0, "fusion_lat": 0.0, "bike_id": "52d1b85aa510b4095cc603b0e5631dfb", "name": "52d1b85aa510b4095cc603b0e5631dfb", "lat": 38.88128616666667}, {"rental_uris": {"ios": "https://dc.lft.to/lastmile_qr_scan", "android": "https://dc.lft.to/lastmile_qr_scan"}, "fusion_lon": 0.0, "type": "electric_scooter", "is_reserved": 0, "lon": -77.02296016666666, "is_disabled": 0, "fusion_lat": 0.0, "bike_id": "71669813494341f33888559ef5d856da", "name": "71669813494341f33888559ef5d856da", "lat": 38.926686333333336}, {"rental_uris": {"ios": "https://dc.lft.to/lastmile_qr_scan", "android": "https://dc.lft.to/lastmile_qr_scan"}, "fusion_lon": 0.0, "type": "electric_scooter", "is_reserved": 0, "lon": -77.02819266666667, "is_disabled": 0, "fusion_lat": 0.0, "bike_id": "924bac6a4593e2f8c1611ec95b39fcf1", "name": "924bac6a4593e2f8c1611ec95b39fcf1", "lat": 38.91607166666667}, {"rental_uris": {"ios": "https://dc.lft.to/lastmile_qr_scan", "android": "https://dc.lft.to/lastmile_qr_scan"}, "fusion_lon": 0.0, "type": "electric_scooter", "is_reserved": 0, "lon": -77.02426983333334, "is_disabled": 0, "fusion_lat": 0.0, "bike_id": "eecbc6e00279255024fce73acc5e91fe", "name": "eecbc6e00279255024fce73acc5e91fe", "lat": 38.9371205}, {"rental_uris": {"ios": "https://dc.lft.to/lastmile_qr_scan", "android": "https://dc.lft.to/lastmile_qr_scan"}, "fusion_lon": 0.0, "type": "electric_scooter", "is_reserved": 0, "lon": -77.073963, "is_disabled": 0, "fusion_lat": 0.0, "bike_id": "3ff4881bdb7c96f3294298eae55ef4b6", "name": "3ff4881bdb7c96f3294298eae55ef4b6", "lat": 38.910168166666665}, {"rental_uris": {"ios": "https://dc.lft.to/lastmile_qr_scan", "android": "https://dc.lft.to/lastmile_qr_scan"}, "fusion_lon": 0.0, "type": "electric_scooter", "is_reserved": 0, "lon": -77.0429435, "is_disabled": 0, "fusion_lat": 0.0, "bike_id": "40fa43ea7d75a7302ce38777db2e9410", "name": "40fa43ea7d75a7302ce38777db2e9410", "lat": 38.92241533333333}, {"rental_uris": {"ios": "https://dc.lft.to/lastmile_qr_scan", "android": "https://dc.lft.to/lastmile_qr_scan"}, "fusion_lon": 0.0, "type": "electric_scooter", "is_reserved": 0, "lon": -76.98780216666667, "is_disabled": 0, "fusion_lat": 0.0, "bike_id": "9f606c6bbc2676aeed5dc560cfec32ed", "name": "9f606c6bbc2676aeed5dc560cfec32ed", "lat": 38.9107045}, {"rental_uris": {"ios": "https://dc.lft.to/lastmile_qr_scan", "android": "https://dc.lft.to/lastmile_qr_scan"}, "fusion_lon": 0.0, "type": "electric_scooter", "is_reserved": 0, "lon": -77.0220805, "is_disabled": 0, "fusion_lat": 0.0, "bike_id": "19fae6cc3246803c6a76ce9261ca7180", "name": "19fae6cc3246803c6a76ce9261ca7180", "lat": 38.920132833333334}, {"rental_uris": {"ios": "https://dc.lft.to/lastmile_qr_scan", "android": "https://dc.lft.to/lastmile_qr_scan"}, "fusion_lon": 0.0, "type": "electric_scooter", "is_reserved": 0, "lon": -77.02356883333333, "is_disabled": 0, "fusion_lat": 0.0, "bike_id": "ace4f3ecb0df684f9045ec4904b9ea67", "name": "ace4f3ecb0df684f9045ec4904b9ea67", "lat": 38.879129666666664}, {"rental_uris": {"ios": "https://dc.lft.to/lastmile_qr_scan", "android": "https://dc.lft.to/lastmile_qr_scan"}, "fusion_lon": 0.0, "type": "electric_scooter", "is_reserved": 0, "lon": -77.00657283333334, "is_disabled": 0, "fusion_lat": 0.0, "bike_id": "dc0ffea2cc86711e8a32bd0b877df343", "name": "dc0ffea2cc86711e8a32bd0b877df343", "lat": 38.944602333333336}, {"rental_uris": {"ios": "https://dc.lft.to/lastmile_qr_scan", "android": "https://dc.lft.to/lastmile_qr_scan"}, "fusion_lon": 0.0, "type": "electric_scooter", "is_reserved": 0, "lon": -77.072496, "is_disabled": 0, "fusion_lat": 0.0, "bike_id": "f814eaca67d99e840e0000a337f051ad", "name": "f814eaca67d99e840e0000a337f051ad", "lat": 38.90778066666667}, {"rental_uris": {"ios": "https://dc.lft.to/lastmile_qr_scan", "android": "https://dc.lft.to/lastmile_qr_scan"}, "fusion_lon": 0.0, "type": "electric_scooter", "is_reserved": 0, "lon": -77.03146533333333, "is_disabled": 0, "fusion_lat": 0.0, "bike_id": "1a4ee643e1d40dce5c653e4709fe6f59", "name": "1a4ee643e1d40dce5c653e4709fe6f59", "lat": 38.9089865}, {"rental_uris": {"ios": "https://dc.lft.to/lastmile_qr_scan", "android": "https://dc.lft.to/lastmile_qr_scan"}, "fusion_lon": 0.0, "type": "electric_scooter", "is_reserved": 0, "lon": -77.02281133333334, "is_disabled": 0, "fusion_lat": 0.0, "bike_id": "8b3ba853aa7982e2433512759f8b0e1c", "name": "8b3ba853aa7982e2433512759f8b0e1c", "lat": 38.90953916666667}, {"rental_uris": {"ios": "https://dc.lft.to/lastmile_qr_scan", "android": "https://dc.lft.to/lastmile_qr_scan"}, "fusion_lon": 0.0, "type": "electric_scooter", "is_reserved": 0, "lon": -76.98821116666667, "is_disabled": 0, "fusion_lat": 0.0, "bike_id": "b1c2670b892c3272284e9bc411ad07e1", "name": "b1c2670b892c3272284e9bc411ad07e1", "lat": 38.90064316666667}, {"rental_uris": {"ios": "https://dc.lft.to/lastmile_qr_scan", "android": "https://dc.lft.to/lastmile_qr_scan"}, "fusion_lon": 0.0, "type": "electric_scooter", "is_reserved": 0, "lon": -77.00186933333333, "is_disabled": 0, "fusion_lat": 0.0, "bike_id": "64765dd9d3884b5d7afa4667626e4076", "name": "64765dd9d3884b5d7afa4667626e4076", "lat": 38.90030083333333}, {"rental_uris": {"ios": "https://dc.lft.to/lastmile_qr_scan", "android": "https://dc.lft.to/lastmile_qr_scan"}, "fusion_lon": 0.0, "type": "electric_bike", "is_reserved": 0, "lon": -77.05677633333333, "is_disabled": 0, "fusion_lat": 0.0, "bike_id": "2ea2fdcf8ddb3256ef9ecfd4a63df3ee", "name": "2ea2fdcf8ddb3256ef9ecfd4a63df3ee", "lat": 38.933921833333336}, {"rental_uris": {"ios": "https://dc.lft.to/lastmile_qr_scan", "android": "https://dc.lft.to/lastmile_qr_scan"}, "fusion_lon": 0.0, "type": "electric_scooter", "is_reserved": 0, "lon": -77.003921, "is_disabled": 0, "fusion_lat": 0.0, "bike_id": "2a917c6d842c24ac3528c6ce7fcba43d", "name": "2a917c6d842c24ac3528c6ce7fcba43d", "lat": 38.94062483333333}, {"rental_uris": {"ios": "https://dc.lft.to/lastmile_qr_scan", "android": "https://dc.lft.to/lastmile_qr_scan"}, "fusion_lon": 0.0, "type": "electric_scooter", "is_reserved": 0, "lon": -77.038567, "is_disabled": 0, "fusion_lat": 0.0, "bike_id": "e876ae784e6c65772a831f11c2ea6c36", "name": "e876ae784e6c65772a831f11c2ea6c36", "lat": 38.93205666666667}, {"rental_uris": {"ios": "https://dc.lft.to/lastmile_qr_scan", "android": "https://dc.lft.to/lastmile_qr_scan"}, "fusion_lon": 0.0, "type": "electric_scooter", "is_reserved": 0, "lon": -76.99833816666667, "is_disabled": 0, "fusion_lat": 0.0, "bike_id": "8898c79438569407196c8a940231f34b", "name": "8898c79438569407196c8a940231f34b", "lat": 38.88005366666667}, {"rental_uris": {"ios": "https://dc.lft.to/lastmile_qr_scan", "android": "https://dc.lft.to/lastmile_qr_scan"}, "fusion_lon": 0.0, "type": "electric_bike", "is_reserved": 0, "lon": -77.04101783333333, "is_disabled": 0, "fusion_lat": 0.0, "bike_id": "1189cf4a4f58a6f17a96e4716a0e46b5", "name": "1189cf4a4f58a6f17a96e4716a0e46b5", "lat": 39.03467916666666}, {"rental_uris": {"ios": "https://dc.lft.to/lastmile_qr_scan", "android": "https://dc.lft.to/lastmile_qr_scan"}, "fusion_lon": 0.0, "type": "electric_scooter", "is_reserved": 0, "lon": -76.93761466666666, "is_disabled": 0, "fusion_lat": 0.0, "bike_id": "7596248eb01b09c48c30e66e30294e38", "name": "7596248eb01b09c48c30e66e30294e38", "lat": 38.899376833333335}, {"rental_uris": {"ios": "https://dc.lft.to/lastmile_qr_scan", "android": "https://dc.lft.to/lastmile_qr_scan"}, "fusion_lon": 0.0, "type": "electric_scooter", "is_reserved": 0, "lon": -76.9855845, "is_disabled": 0, "fusion_lat": 0.0, "bike_id": "bd369935a1710be00c2628809758522d", "name": "bd369935a1710be00c2628809758522d", "lat": 38.882896333333335}, {"rental_uris": {"ios": "https://dc.lft.to/lastmile_qr_scan", "android": "https://dc.lft.to/lastmile_qr_scan"}, "fusion_lon": 0.0, "type": "electric_scooter", "is_reserved": 0, "lon": -77.02397233333333, "is_disabled": 0, "fusion_lat": 0.0, "bike_id": "aa85d5480ffc98ec11a86e07f4288bac", "name": "aa85d5480ffc98ec11a86e07f4288bac", "lat": 38.915893}, {"rental_uris": {"ios": "https://dc.lft.to/lastmile_qr_scan", "android": "https://dc.lft.to/lastmile_qr_scan"}, "fusion_lon": 0.0, "type": "electric_scooter", "is_reserved": 0, "lon": -77.00695383333333, "is_disabled": 0, "fusion_lat": 0.0, "bike_id": "b5ad8a602f59368dde6aa29bf0c7ec2f", "name": "b5ad8a602f59368dde6aa29bf0c7ec2f", "lat": 38.905638}, {"rental_uris": {"ios": "https://dc.lft.to/lastmile_qr_scan", "android": "https://dc.lft.to/lastmile_qr_scan"}, "fusion_lon": 0.0, "type": "electric_scooter", "is_reserved": 0, "lon": -76.98002116666666, "is_disabled": 0, "fusion_lat": 0.0, "bike_id": "61e09dfd7f98cdcbe3b231769c44d0c7", "name": "61e09dfd7f98cdcbe3b231769c44d0c7", "lat": 38.90235033333333}, {"rental_uris": {"ios": "https://dc.lft.to/lastmile_qr_scan", "android": "https://dc.lft.to/lastmile_qr_scan"}, "fusion_lon": 0.0, "type": "electric_scooter", "is_reserved": 0, "lon": -77.00496533333333, "is_disabled": 0, "fusion_lat": 0.0, "bike_id": "ea239ce035ff12c00ba78e2f8e3ea792", "name": "ea239ce035ff12c00ba78e2f8e3ea792", "lat": 38.897011666666664}, {"rental_uris": {"ios": "https://dc.lft.to/lastmile_qr_scan", "android": "https://dc.lft.to/lastmile_qr_scan"}, "fusion_lon": 0.0, "type": "electric_scooter", "is_reserved": 0, "lon": -77.012563, "is_disabled": 0, "fusion_lat": 0.0, "bike_id": "c16fe81234b38bcc3d267d870b0e8a58", "name": "c16fe81234b38bcc3d267d870b0e8a58", "lat": 38.930149166666666}, {"rental_uris": {"ios": "https://dc.lft.to/lastmile_qr_scan", "android": "https://dc.lft.to/lastmile_qr_scan"}, "fusion_lon": 0.0, "type": "electric_scooter", "is_reserved": 0, "lon": -77.03850233333333, "is_disabled": 0, "fusion_lat": 0.0, "bike_id": "dedd37bb92ed845256123878d01be8bd", "name": "dedd37bb92ed845256123878d01be8bd", "lat": 38.90983383333333}, {"rental_uris": {"ios": "https://dc.lft.to/lastmile_qr_scan", "android": "https://dc.lft.to/lastmile_qr_scan"}, "fusion_lon": 0.0, "type": "electric_scooter", "is_reserved": 0, "lon": -77.00987566666667, "is_disabled": 0, "fusion_lat": 0.0, "bike_id": "330e7e32865cfe4e0770e81fecaf1b31", "name": "330e7e32865cfe4e0770e81fecaf1b31", "lat": 38.872831166666664}, {"rental_uris": {"ios": "https://dc.lft.to/lastmile_qr_scan", "android": "https://dc.lft.to/lastmile_qr_scan"}, "fusion_lon": 0.0, "type": "electric_scooter", "is_reserved": 0, "lon": -77.01416666666667, "is_disabled": 0, "fusion_lat": 0.0, "bike_id": "8d89226cddc2c36db450fbb5391c90cd", "name": "8d89226cddc2c36db450fbb5391c90cd", "lat": 38.92844}, {"rental_uris": {"ios": "https://dc.lft.to/lastmile_qr_scan", "android": "https://dc.lft.to/lastmile_qr_scan"}, "fusion_lon": 0.0, "type": "electric_scooter", "is_reserved": 0, "lon": -76.97670033333333, "is_disabled": 0, "fusion_lat": 0.0, "bike_id": "543dc3975567c6c71f14366e0fb04557", "name": "543dc3975567c6c71f14366e0fb04557", "lat": 38.90185}, {"rental_uris": {"ios": "https://dc.lft.to/lastmile_qr_scan", "android": "https://dc.lft.to/lastmile_qr_scan"}, "fusion_lon": 0.0, "type": "electric_scooter", "is_reserved": 0, "lon": -77.03560366666666, "is_disabled": 0, "fusion_lat": 0.0, "bike_id": "88c63104a526a3703861528268b3f718", "name": "88c63104a526a3703861528268b3f718", "lat": 38.9273595}, {"rental_uris": {"ios": "https://dc.lft.to/lastmile_qr_scan", "android": "https://dc.lft.to/lastmile_qr_scan"}, "fusion_lon": 0.0, "type": "electric_scooter", "is_reserved": 0, "lon": -76.99842316666667, "is_disabled": 0, "fusion_lat": 0.0, "bike_id": "2058ff2da4c1761cfdd3f4146fe56869", "name": "2058ff2da4c1761cfdd3f4146fe56869", "lat": 38.90298033333333}, {"rental_uris": {"ios": "https://dc.lft.to/lastmile_qr_scan", "android": "https://dc.lft.to/lastmile_qr_scan"}, "fusion_lon": 0.0, "type": "electric_scooter", "is_reserved": 0, "lon": -76.99997133333333, "is_disabled": 0, "fusion_lat": 0.0, "bike_id": "873be800e50d8da54a3eb4f10b928ee6", "name": "873be800e50d8da54a3eb4f10b928ee6", "lat": 38.87395133333333}, {"rental_uris": {"ios": "https://dc.lft.to/lastmile_qr_scan", "android": "https://dc.lft.to/lastmile_qr_scan"}, "fusion_lon": 0.0, "type": "electric_scooter", "is_reserved": 0, "lon": -76.948841, "is_disabled": 0, "fusion_lat": 0.0, "bike_id": "a08a4d15ed4b2632553d029a6d00cfa6", "name": "a08a4d15ed4b2632553d029a6d00cfa6", "lat": 38.89506633333333}, {"rental_uris": {"ios": "https://dc.lft.to/lastmile_qr_scan", "android": "https://dc.lft.to/lastmile_qr_scan"}, "fusion_lon": 0.0, "type": "electric_scooter", "is_reserved": 0, "lon": -77.05711833333334, "is_disabled": 0, "fusion_lat": 0.0, "bike_id": "d2e4994ea0d6756e58fa9a1e40c9961d", "name": "d2e4994ea0d6756e58fa9a1e40c9961d", "lat": 38.93332083333333}, {"rental_uris": {"ios": "https://dc.lft.to/lastmile_qr_scan", "android": "https://dc.lft.to/lastmile_qr_scan"}, "fusion_lon": 0.0, "type": "electric_scooter", "is_reserved": 0, "lon": -77.04355516666666, "is_disabled": 0, "fusion_lat": 0.0, "bike_id": "42a2f6c1bab99c9deea5209bc33aba20", "name": "42a2f6c1bab99c9deea5209bc33aba20", "lat": 38.9024505}, {"rental_uris": {"ios": "https://dc.lft.to/lastmile_qr_scan", "android": "https://dc.lft.to/lastmile_qr_scan"}, "fusion_lon": 0.0, "type": "electric_scooter", "is_reserved": 0, "lon": -76.97490933333333, "is_disabled": 0, "fusion_lat": 0.0, "bike_id": "980c2663239f7cf94556c653970d8a3c", "name": "980c2663239f7cf94556c653970d8a3c", "lat": 38.9034345}, {"rental_uris": {"ios": "https://dc.lft.to/lastmile_qr_scan", "android": "https://dc.lft.to/lastmile_qr_scan"}, "fusion_lon": 0.0, "type": "electric_bike", "is_reserved": 0, "lon": -76.98419083333333, "is_disabled": 0, "fusion_lat": 0.0, "bike_id": "a6c0dc56ca4d9534cf814c981cc81c75", "name": "a6c0dc56ca4d9534cf814c981cc81c75", "lat": 38.97407583333333}, {"rental_uris": {"ios": "https://dc.lft.to/lastmile_qr_scan", "android": "https://dc.lft.to/lastmile_qr_scan"}, "fusion_lon": 0.0, "type": "electric_scooter", "is_reserved": 0, "lon": -77.0399455, "is_disabled": 0, "fusion_lat": 0.0, "bike_id": "4b4af792dca1bbf9f90d6770a30b483f", "name": "4b4af792dca1bbf9f90d6770a30b483f", "lat": 38.89886516666667}, {"rental_uris": {"ios": "https://dc.lft.to/lastmile_qr_scan", "android": "https://dc.lft.to/lastmile_qr_scan"}, "fusion_lon": 0.0, "type": "electric_scooter", "is_reserved": 0, "lon": -77.02202833333334, "is_disabled": 0, "fusion_lat": 0.0, "bike_id": "fdf0e8cc4cab3bedf5db553d9266b35b", "name": "fdf0e8cc4cab3bedf5db553d9266b35b", "lat": 38.92472266666667}, {"rental_uris": {"ios": "https://dc.lft.to/lastmile_qr_scan", "android": "https://dc.lft.to/lastmile_qr_scan"}, "fusion_lon": 0.0, "type": "electric_scooter", "is_reserved": 0, "lon": -77.02809033333334, "is_disabled": 0, "fusion_lat": 0.0, "bike_id": "5e1536ab8d3d92963533ef0b8d82b15b", "name": "5e1536ab8d3d92963533ef0b8d82b15b", "lat": 38.9233075}, {"rental_uris": {"ios": "https://dc.lft.to/lastmile_qr_scan", "android": "https://dc.lft.to/lastmile_qr_scan"}, "fusion_lon": 0.0, "type": "electric_bike", "is_reserved": 0, "lon": -77.09023616666667, "is_disabled": 0, "fusion_lat": 0.0, "bike_id": "3bb18a2565a5a86d150ce38720f42f03", "name": "3bb18a2565a5a86d150ce38720f42f03", "lat": 38.926482}, {"rental_uris": {"ios": "https://dc.lft.to/lastmile_qr_scan", "android": "https://dc.lft.to/lastmile_qr_scan"}, "fusion_lon": 0.0, "type": "electric_scooter", "is_reserved": 0, "lon": -77.05342333333333, "is_disabled": 0, "fusion_lat": 0.0, "bike_id": "88b6621d382831cf14c5b53cc7a09915", "name": "88b6621d382831cf14c5b53cc7a09915", "lat": 38.904586333333334}, {"rental_uris": {"ios": "https://dc.lft.to/lastmile_qr_scan", "android": "https://dc.lft.to/lastmile_qr_scan"}, "fusion_lon": 0.0, "type": "electric_scooter", "is_reserved": 0, "lon": -77.00494616666667, "is_disabled": 0, "fusion_lat": 0.0, "bike_id": "5913b83b22b29459acd627bd14709fc5", "name": "5913b83b22b29459acd627bd14709fc5", "lat": 38.91619016666667}, {"rental_uris": {"ios": "https://dc.lft.to/lastmile_qr_scan", "android": "https://dc.lft.to/lastmile_qr_scan"}, "fusion_lon": 0.0, "type": "electric_scooter", "is_reserved": 0, "lon": -77.02723033333334, "is_disabled": 0, "fusion_lat": 0.0, "bike_id": "29d61395d3ebee380845c5a33c975d71", "name": "29d61395d3ebee380845c5a33c975d71", "lat": 38.90132466666667}, {"rental_uris": {"ios": "https://dc.lft.to/lastmile_qr_scan", "android": "https://dc.lft.to/lastmile_qr_scan"}, "fusion_lon": 0.0, "type": "electric_scooter", "is_reserved": 0, "lon": -77.02126533333333, "is_disabled": 0, "fusion_lat": 0.0, "bike_id": "8294bfb5514bddecbc560946c2871faf", "name": "8294bfb5514bddecbc560946c2871faf", "lat": 38.92270666666667}, {"rental_uris": {"ios": "https://dc.lft.to/lastmile_qr_scan", "android": "https://dc.lft.to/lastmile_qr_scan"}, "fusion_lon": 0.0, "type": "electric_scooter", "is_reserved": 0, "lon": -77.038649, "is_disabled": 0, "fusion_lat": 0.0, "bike_id": "bb42ab66110a7c7030eb129bd4a2979d", "name": "bb42ab66110a7c7030eb129bd4a2979d", "lat": 38.91702633333333}, {"rental_uris": {"ios": "https://dc.lft.to/lastmile_qr_scan", "android": "https://dc.lft.to/lastmile_qr_scan"}, "fusion_lon": 0.0, "type": "electric_scooter", "is_reserved": 0, "lon": -77.046558, "is_disabled": 0, "fusion_lat": 0.0, "bike_id": "50aaec4b1eac41703b610d9242d437fc", "name": "50aaec4b1eac41703b610d9242d437fc", "lat": 38.898532333333335}, {"rental_uris": {"ios": "https://dc.lft.to/lastmile_qr_scan", "android": "https://dc.lft.to/lastmile_qr_scan"}, "fusion_lon": 0.0, "type": "electric_scooter", "is_reserved": 0, "lon": -77.0434175, "is_disabled": 0, "fusion_lat": 0.0, "bike_id": "46e30b47bd125502400117d9d0c8c5a7", "name": "46e30b47bd125502400117d9d0c8c5a7", "lat": 38.92838783333333}, {"rental_uris": {"ios": "https://dc.lft.to/lastmile_qr_scan", "android": "https://dc.lft.to/lastmile_qr_scan"}, "fusion_lon": 0.0, "type": "electric_scooter", "is_reserved": 0, "lon": -77.00363383333334, "is_disabled": 0, "fusion_lat": 0.0, "bike_id": "bbd637e345536809f84627802e2bae29", "name": "bbd637e345536809f84627802e2bae29", "lat": 38.89912866666667}, {"rental_uris": {"ios": "https://dc.lft.to/lastmile_qr_scan", "android": "https://dc.lft.to/lastmile_qr_scan"}, "fusion_lon": 0.0, "type": "electric_scooter", "is_reserved": 0, "lon": -77.03852333333333, "is_disabled": 0, "fusion_lat": 0.0, "bike_id": "a7442030a45adc065fd7253ef1318c47", "name": "a7442030a45adc065fd7253ef1318c47", "lat": 38.931271333333335}, {"rental_uris": {"ios": "https://dc.lft.to/lastmile_qr_scan", "android": "https://dc.lft.to/lastmile_qr_scan"}, "fusion_lon": 0.0, "type": "electric_scooter", "is_reserved": 0, "lon": -77.03551216666666, "is_disabled": 0, "fusion_lat": 0.0, "bike_id": "efde4d9032d92c2a6247be667ace2a63", "name": "efde4d9032d92c2a6247be667ace2a63", "lat": 38.9273495}, {"rental_uris": {"ios": "https://dc.lft.to/lastmile_qr_scan", "android": "https://dc.lft.to/lastmile_qr_scan"}, "fusion_lon": 0.0, "type": "electric_scooter", "is_reserved": 0, "lon": -77.00338483333333, "is_disabled": 0, "fusion_lat": 0.0, "bike_id": "9864228b0534b623c9c87f2afbd9eb46", "name": "9864228b0534b623c9c87f2afbd9eb46", "lat": 38.893539}, {"rental_uris": {"ios": "https://dc.lft.to/lastmile_qr_scan", "android": "https://dc.lft.to/lastmile_qr_scan"}, "fusion_lon": 0.0, "type": "electric_scooter", "is_reserved": 0, "lon": -77.05026133333334, "is_disabled": 0, "fusion_lat": 0.0, "bike_id": "90f041aa2d2171bc6b9df68f4db7155b", "name": "90f041aa2d2171bc6b9df68f4db7155b", "lat": 38.89253566666667}, {"rental_uris": {"ios": "https://dc.lft.to/lastmile_qr_scan", "android": "https://dc.lft.to/lastmile_qr_scan"}, "fusion_lon": 0.0, "type": "electric_scooter", "is_reserved": 0, "lon": -77.03872566666666, "is_disabled": 0, "fusion_lat": 0.0, "bike_id": "1c867969b91e385055b4613f3f7c370c", "name": "1c867969b91e385055b4613f3f7c370c", "lat": 38.901343}, {"rental_uris": {"ios": "https://dc.lft.to/lastmile_qr_scan", "android": "https://dc.lft.to/lastmile_qr_scan"}, "fusion_lon": 0.0, "type": "electric_scooter", "is_reserved": 0, "lon": -77.032707, "is_disabled": 0, "fusion_lat": 0.0, "bike_id": "8e582a712fb9bcc424d95c7c83216b23", "name": "8e582a712fb9bcc424d95c7c83216b23", "lat": 38.90235166666667}, {"rental_uris": {"ios": "https://dc.lft.to/lastmile_qr_scan", "android": "https://dc.lft.to/lastmile_qr_scan"}, "fusion_lon": 0.0, "type": "electric_scooter", "is_reserved": 0, "lon": -77.02448, "is_disabled": 0, "fusion_lat": 0.0, "bike_id": "0bbd9a937f16d43e3d0668867a30254b", "name": "0bbd9a937f16d43e3d0668867a30254b", "lat": 38.9497355}, {"rental_uris": {"ios": "https://dc.lft.to/lastmile_qr_scan", "android": "https://dc.lft.to/lastmile_qr_scan"}, "fusion_lon": 0.0, "type": "electric_scooter", "is_reserved": 0, "lon": -77.01952816666666, "is_disabled": 0, "fusion_lat": 0.0, "bike_id": "ccf719f5626eec3b4e15cc41785daa6f", "name": "ccf719f5626eec3b4e15cc41785daa6f", "lat": 38.92312833333333}, {"rental_uris": {"ios": "https://dc.lft.to/lastmile_qr_scan", "android": "https://dc.lft.to/lastmile_qr_scan"}, "fusion_lon": 0.0, "type": "electric_scooter", "is_reserved": 0, "lon": -77.03253733333334, "is_disabled": 0, "fusion_lat": 0.0, "bike_id": "8e8eb86da41542db3d9f4118a0d0a025", "name": "8e8eb86da41542db3d9f4118a0d0a025", "lat": 38.9010565}, {"rental_uris": {"ios": "https://dc.lft.to/lastmile_qr_scan", "android": "https://dc.lft.to/lastmile_qr_scan"}, "fusion_lon": 0.0, "type": "electric_scooter", "is_reserved": 0, "lon": -77.02133216666667, "is_disabled": 0, "fusion_lat": 0.0, "bike_id": "2aa26fa22dcaad6840781cf781266035", "name": "2aa26fa22dcaad6840781cf781266035", "lat": 38.9365335}, {"rental_uris": {"ios": "https://dc.lft.to/lastmile_qr_scan", "android": "https://dc.lft.to/lastmile_qr_scan"}, "fusion_lon": 0.0, "type": "electric_scooter", "is_reserved": 0, "lon": -77.02531366666666, "is_disabled": 0, "fusion_lat": 0.0, "bike_id": "c80cff37e13e0cf583cdb5ede99b45d4", "name": "c80cff37e13e0cf583cdb5ede99b45d4", "lat": 38.918137333333334}, {"rental_uris": {"ios": "https://dc.lft.to/lastmile_qr_scan", "android": "https://dc.lft.to/lastmile_qr_scan"}, "fusion_lon": 0.0, "type": "electric_scooter", "is_reserved": 0, "lon": -77.0570235, "is_disabled": 0, "fusion_lat": 0.0, "bike_id": "26d2e0c5bd2ef7a1ed29d6bac6716ac0", "name": "26d2e0c5bd2ef7a1ed29d6bac6716ac0", "lat": 38.90543816666667}, {"rental_uris": {"ios": "https://dc.lft.to/lastmile_qr_scan", "android": "https://dc.lft.to/lastmile_qr_scan"}, "fusion_lon": 0.0, "type": "electric_scooter", "is_reserved": 0, "lon": -77.03420916666667, "is_disabled": 0, "fusion_lat": 0.0, "bike_id": "263fb1a4fec41af745fd99e3297cd5e9", "name": "263fb1a4fec41af745fd99e3297cd5e9", "lat": 38.909537}, {"rental_uris": {"ios": "https://dc.lft.to/lastmile_qr_scan", "android": "https://dc.lft.to/lastmile_qr_scan"}, "fusion_lon": 0.0, "type": "electric_scooter", "is_reserved": 0, "lon": -77.0517315, "is_disabled": 0, "fusion_lat": 0.0, "bike_id": "3a619699009f4ed23397b106f22e78c9", "name": "3a619699009f4ed23397b106f22e78c9", "lat": 38.902770333333336}, {"rental_uris": {"ios": "https://dc.lft.to/lastmile_qr_scan", "android": "https://dc.lft.to/lastmile_qr_scan"}, "fusion_lon": 0.0, "type": "electric_scooter", "is_reserved": 0, "lon": -77.034594, "is_disabled": 0, "fusion_lat": 0.0, "bike_id": "6b3c47acf0e16c9e3070fdbc3bae1488", "name": "6b3c47acf0e16c9e3070fdbc3bae1488", "lat": 38.900457333333335}, {"rental_uris": {"ios": "https://dc.lft.to/lastmile_qr_scan", "android": "https://dc.lft.to/lastmile_qr_scan"}, "fusion_lon": 0.0, "type": "electric_bike", "is_reserved": 0, "lon": -76.99834733333333, "is_disabled": 0, "fusion_lat": 0.0, "bike_id": "cbcf6af95259831b5abc20df85e42cf8", "name": "cbcf6af95259831b5abc20df85e42cf8", "lat": 38.83906133333333}, {"rental_uris": {"ios": "https://dc.lft.to/lastmile_qr_scan", "android": "https://dc.lft.to/lastmile_qr_scan"}, "fusion_lon": 0.0, "type": "electric_bike", "is_reserved": 0, "lon": -77.00586633333333, "is_disabled": 0, "fusion_lat": 0.0, "bike_id": "ccbff4d53ab364661f578a5e9c8e2997", "name": "ccbff4d53ab364661f578a5e9c8e2997", "lat": 38.88603}, {"rental_uris": {"ios": "https://dc.lft.to/lastmile_qr_scan", "android": "https://dc.lft.to/lastmile_qr_scan"}, "fusion_lon": 0.0, "type": "electric_scooter", "is_reserved": 0, "lon": -77.03617716666666, "is_disabled": 0, "fusion_lat": 0.0, "bike_id": "276798453108595e38f36b7f21c2a459", "name": "276798453108595e38f36b7f21c2a459", "lat": 38.927840833333335}, {"rental_uris": {"ios": "https://dc.lft.to/lastmile_qr_scan", "android": "https://dc.lft.to/lastmile_qr_scan"}, "fusion_lon": 0.0, "type": "electric_scooter", "is_reserved": 0, "lon": -77.08394466666667, "is_disabled": 0, "fusion_lat": 0.0, "bike_id": "f747089f8ef077b76fa2fcf22b1d2d34", "name": "f747089f8ef077b76fa2fcf22b1d2d34", "lat": 38.940299833333334}, {"rental_uris": {"ios": "https://dc.lft.to/lastmile_qr_scan", "android": "https://dc.lft.to/lastmile_qr_scan"}, "fusion_lon": 0.0, "type": "electric_bike", "is_reserved": 0, "lon": -77.07021616666667, "is_disabled": 0, "fusion_lat": 0.0, "bike_id": "48146df6818bf3713f793896ee439809", "name": "48146df6818bf3713f793896ee439809", "lat": 38.9061995}, {"rental_uris": {"ios": "https://dc.lft.to/lastmile_qr_scan", "android": "https://dc.lft.to/lastmile_qr_scan"}, "fusion_lon": 0.0, "type": "electric_scooter", "is_reserved": 0, "lon": -77.0304545, "is_disabled": 0, "fusion_lat": 0.0, "bike_id": "f45f082e9cbc19f92220d22e09c1f1ec", "name": "f45f082e9cbc19f92220d22e09c1f1ec", "lat": 38.88437666666667}, {"rental_uris": {"ios": "https://dc.lft.to/lastmile_qr_scan", "android": "https://dc.lft.to/lastmile_qr_scan"}, "fusion_lon": 0.0, "type": "electric_scooter", "is_reserved": 0, "lon": -77.02379983333333, "is_disabled": 0, "fusion_lat": 0.0, "bike_id": "374c2299db5f21f4721fba8433fbd8de", "name": "374c2299db5f21f4721fba8433fbd8de", "lat": 38.930871833333335}, {"rental_uris": {"ios": "https://dc.lft.to/lastmile_qr_scan", "android": "https://dc.lft.to/lastmile_qr_scan"}, "fusion_lon": 0.0, "type": "electric_scooter", "is_reserved": 0, "lon": -77.05694816666667, "is_disabled": 0, "fusion_lat": 0.0, "bike_id": "a51d4bd25c3e93e7ad33a4a77d296f22", "name": "a51d4bd25c3e93e7ad33a4a77d296f22", "lat": 38.90533333333333}, {"rental_uris": {"ios": "https://dc.lft.to/lastmile_qr_scan", "android": "https://dc.lft.to/lastmile_qr_scan"}, "fusion_lon": 0.0, "type": "electric_scooter", "is_reserved": 0, "lon": -77.04178183333333, "is_disabled": 0, "fusion_lat": 0.0, "bike_id": "f0ea53eb014dc317524c646579798688", "name": "f0ea53eb014dc317524c646579798688", "lat": 38.907233833333336}, {"rental_uris": {"ios": "https://dc.lft.to/lastmile_qr_scan", "android": "https://dc.lft.to/lastmile_qr_scan"}, "fusion_lon": 0.0, "type": "electric_scooter", "is_reserved": 0, "lon": -77.00528783333333, "is_disabled": 0, "fusion_lat": 0.0, "bike_id": "638b1d4b797f256cb83333dfdb3a44fc", "name": "638b1d4b797f256cb83333dfdb3a44fc", "lat": 38.8746775}, {"rental_uris": {"ios": "https://dc.lft.to/lastmile_qr_scan", "android": "https://dc.lft.to/lastmile_qr_scan"}, "fusion_lon": 0.0, "type": "electric_scooter", "is_reserved": 0, "lon": -77.03214616666666, "is_disabled": 0, "fusion_lat": 0.0, "bike_id": "3f72315b52789ec5d352e4666f304164", "name": "3f72315b52789ec5d352e4666f304164", "lat": 38.9025075}, {"rental_uris": {"ios": "https://dc.lft.to/lastmile_qr_scan", "android": "https://dc.lft.to/lastmile_qr_scan"}, "fusion_lon": 0.0, "type": "electric_scooter", "is_reserved": 0, "lon": -77.01763816666667, "is_disabled": 0, "fusion_lat": 0.0, "bike_id": "0cda237fe0217590145bed5c01e8656f", "name": "0cda237fe0217590145bed5c01e8656f", "lat": 38.902581166666664}, {"rental_uris": {"ios": "https://dc.lft.to/lastmile_qr_scan", "android": "https://dc.lft.to/lastmile_qr_scan"}, "fusion_lon": 0.0, "type": "electric_bike", "is_reserved": 0, "lon": -76.9977015, "is_disabled": 0, "fusion_lat": 0.0, "bike_id": "1712bdfe2b873655cf4d9d792b0fff83", "name": "1712bdfe2b873655cf4d9d792b0fff83", "lat": 38.922845}, {"rental_uris": {"ios": "https://dc.lft.to/lastmile_qr_scan", "android": "https://dc.lft.to/lastmile_qr_scan"}, "fusion_lon": 0.0, "type": "electric_bike", "is_reserved": 0, "lon": -77.10046, "is_disabled": 0, "fusion_lat": 0.0, "bike_id": "346ce12d4fdd7487c724ac7b7cf55e01", "name": "346ce12d4fdd7487c724ac7b7cf55e01", "lat": 38.85912716666667}, {"rental_uris": {"ios": "https://dc.lft.to/lastmile_qr_scan", "android": "https://dc.lft.to/lastmile_qr_scan"}, "fusion_lon": 0.0, "type": "electric_scooter", "is_reserved": 0, "lon": -77.02712616666666, "is_disabled": 0, "fusion_lat": 0.0, "bike_id": "1f5c56f273f753d9d715b5c2ba2d74a7", "name": "1f5c56f273f753d9d715b5c2ba2d74a7", "lat": 38.903598833333334}, {"rental_uris": {"ios": "https://dc.lft.to/lastmile_qr_scan", "android": "https://dc.lft.to/lastmile_qr_scan"},