{"data": {"bikes": [{"rental_uris": {"android": "https://dc.lft.to/lastmile_qr_scan", "ios": "https://dc.lft.to/lastmile_qr_scan"}, "is_reserved": 0, "is_disabled": 0, "bike_id": "779c63626259bfe032f94e59c94221ec", "lat": 38.88710566666666, "name": "779c63626259bfe032f94e59c94221ec", "fusion_lon": 0.0, "fusion_lat": 0.0, "type": "electric_scooter", "lon": -77.031987}, {"rental_uris": {"android": "https://dc.lft.to/lastmile_qr_scan", "ios": "https://dc.lft.to/lastmile_qr_scan"}, "is_reserved": 0, "is_disabled": 0, "bike_id": "72373e6eecc5390d296a1dbcdd17a3cc", "lat": 38.9161185, "name": "72373e6eecc5390d296a1dbcdd17a3cc", "fusion_lon": 0.0, "fusion_lat": 0.0, "type": "electric_scooter", "lon": -77.01730033333334}, {"rental_uris": {"android": "https://dc.lft.to/lastmile_qr_scan", "ios": "https://dc.lft.to/lastmile_qr_scan"}, "is_reserved": 0, "is_disabled": 0, "bike_id": "61801a82aa5d3fc2b8fe2540803731b4", "lat": 38.89674016666667, "name": "61801a82aa5d3fc2b8fe2540803731b4", "fusion_lon": 0.0, "fusion_lat": 0.0, "type": "electric_scooter", "lon": -76.99651616666667}, {"rental_uris": {"android": "https://dc.lft.to/lastmile_qr_scan", "ios": "https://dc.lft.to/lastmile_qr_scan"}, "is_reserved": 0, "is_disabled": 0, "bike_id": "6c095f86e23658c8014b127cd08be7b2", "lat": 38.9384825, "name": "6c095f86e23658c8014b127cd08be7b2", "fusion_lon": 0.0, "fusion_lat": 0.0, "type": "electric_bike", "lon": -76.97618616666666}, {"rental_uris": {"android": "https://dc.lft.to/lastmile_qr_scan", "ios": "https://dc.lft.to/lastmile_qr_scan"}, "is_reserved": 0, "is_disabled": 0, "bike_id": "d79636e3d6f7fec9ddfd6cd516169efa", "lat": 38.882475, "name": "d79636e3d6f7fec9ddfd6cd516169efa", "fusion_lon": 0.0, "fusion_lat": 0.0, "type": "electric_bike", "lon": -76.96261083333333}, {"rental_uris": {"android": "https://dc.lft.to/lastmile_qr_scan", "ios": "https://dc.lft.to/lastmile_qr_scan"}, "is_reserved": 0, "is_disabled": 0, "bike_id": "a4015f04fa9eca86ebcd19a8d6a1030b", "lat": 38.90335983333333, "name": "a4015f04fa9eca86ebcd19a8d6a1030b", "fusion_lon": 0.0, "fusion_lat": 0.0, "type": "electric_bike", "lon": -76.97531233333333}, {"rental_uris": {"android": "https://dc.lft.to/lastmile_qr_scan", "ios": "https://dc.lft.to/lastmile_qr_scan"}, "is_reserved": 0, "is_disabled": 0, "bike_id": "57f78585ffe6f9f727d6ad059e3fa194", "lat": 38.943831333333335, "name": "57f78585ffe6f9f727d6ad059e3fa194", "fusion_lon": 0.0, "fusion_lat": 0.0, "type": "electric_scooter", "lon": -77.02731966666667}, {"rental_uris": {"android": "https://dc.lft.to/lastmile_qr_scan", "ios": "https://dc.lft.to/lastmile_qr_scan"}, "is_reserved": 0, "is_disabled": 0, "bike_id": "610eca60520763f08da7504d49923ab4", "lat": 38.938797666666666, "name": "610eca60520763f08da7504d49923ab4", "fusion_lon": 0.0, "fusion_lat": 0.0, "type": "electric_scooter", "lon": -77.024655}, {"rental_uris": {"android": "https://dc.lft.to/lastmile_qr_scan", "ios": "https://dc.lft.to/lastmile_qr_scan"}, "is_reserved": 0, "is_disabled": 0, "bike_id": "155cd734ac53472a531fbfded0fc09bc", "lat": 38.90157633333333, "name": "155cd734ac53472a531fbfded0fc09bc", "fusion_lon": 0.0, "fusion_lat": 0.0, "type": "electric_scooter", "lon": -76.93064283333334}, {"rental_uris": {"android": "https://dc.lft.to/lastmile_qr_scan", "ios": "https://dc.lft.to/lastmile_qr_scan"}, "is_reserved": 0, "is_disabled": 0, "bike_id": "384faa911b8d8d2faadff5b837cacc36", "lat": 38.9014385, "name": "384faa911b8d8d2faadff5b837cacc36", "fusion_lon": 0.0, "fusion_lat": 0.0, "type": "electric_scooter", "lon": -77.04157183333334}, {"rental_uris": {"android": "https://dc.lft.to/lastmile_qr_scan", "ios": "https://dc.lft.to/lastmile_qr_scan"}, "is_reserved": 0, "is_disabled": 0, "bike_id": "bb552ba7eda67b0dfd30b2cea2d883c8", "lat": 38.941977, "name": "bb552ba7eda67b0dfd30b2cea2d883c8", "fusion_lon": 0.0, "fusion_lat": 0.0, "type": "electric_scooter", "lon": -77.02467616666667}, {"rental_uris": {"android": "https://dc.lft.to/lastmile_qr_scan", "ios": "https://dc.lft.to/lastmile_qr_scan"}, "is_reserved": 0, "is_disabled": 0, "bike_id": "9ceaa8d78800c14fd09a4ee957deb206", "lat": 38.898387166666666, "name": "9ceaa8d78800c14fd09a4ee957deb206", "fusion_lon": 0.0, "fusion_lat": 0.0, "type": "electric_scooter", "lon": -77.0332775}, {"rental_uris": {"android": "https://dc.lft.to/lastmile_qr_scan", "ios": "https://dc.lft.to/lastmile_qr_scan"}, "is_reserved": 0, "is_disabled": 0, "bike_id": "992c245ff46bea256cd7d870b2bf8b93", "lat": 38.918451833333336, "name": "992c245ff46bea256cd7d870b2bf8b93", "fusion_lon": 0.0, "fusion_lat": 0.0, "type": "electric_scooter", "lon": -77.03921766666667}, {"rental_uris": {"android": "https://dc.lft.to/lastmile_qr_scan", "ios": "https://dc.lft.to/lastmile_qr_scan"}, "is_reserved": 0, "is_disabled": 0, "bike_id": "424765bd5884c6f7546503b83fb6a5f6", "lat": 38.9001995, "name": "424765bd5884c6f7546503b83fb6a5f6", "fusion_lon": 0.0, "fusion_lat": 0.0, "type": "electric_scooter", "lon": -77.00695833333333}, {"rental_uris": {"android": "https://dc.lft.to/lastmile_qr_scan", "ios": "https://dc.lft.to/lastmile_qr_scan"}, "is_reserved": 0, "is_disabled": 0, "bike_id": "d5526143ddc3d82b52a527cc940d358e", "lat": 38.894751166666666, "name": "d5526143ddc3d82b52a527cc940d358e", "fusion_lon": 0.0, "fusion_lat": 0.0, "type": "electric_scooter", "lon": -77.00137933333333}, {"rental_uris": {"android": "https://dc.lft.to/lastmile_qr_scan", "ios": "https://dc.lft.to/lastmile_qr_scan"}, "is_reserved": 0, "is_disabled": 0, "bike_id": "074b5f3d950524c66c375b120a62ca27", "lat": 38.904081, "name": "074b5f3d950524c66c375b120a62ca27", "fusion_lon": 0.0, "fusion_lat": 0.0, "type": "electric_scooter", "lon": -76.97332883333333}, {"rental_uris": {"android": "https://dc.lft.to/lastmile_qr_scan", "ios": "https://dc.lft.to/lastmile_qr_scan"}, "is_reserved": 0, "is_disabled": 0, "bike_id": "b60ae2b613a3be663f86fb6d27f7e4da", "lat": 38.92140366666667, "name": "b60ae2b613a3be663f86fb6d27f7e4da", "fusion_lon": 0.0, "fusion_lat": 0.0, "type": "electric_scooter", "lon": -77.04770183333333}, {"rental_uris": {"android": "https://dc.lft.to/lastmile_qr_scan", "ios": "https://dc.lft.to/lastmile_qr_scan"}, "is_reserved": 0, "is_disabled": 0, "bike_id": "8291d953e2682325a6c6fbfde70cb249", "lat": 38.86011666666667, "name": "8291d953e2682325a6c6fbfde70cb249", "fusion_lon": 0.0, "fusion_lat": 0.0, "type": "electric_scooter", "lon": -76.9851155}, {"rental_uris": {"android": "https://dc.lft.to/lastmile_qr_scan", "ios": "https://dc.lft.to/lastmile_qr_scan"}, "is_reserved": 0, "is_disabled": 0, "bike_id": "66b366ff3e66a1fb72b55c8b285bb1a9", "lat": 38.928194, "name": "66b366ff3e66a1fb72b55c8b285bb1a9", "fusion_lon": 0.0, "fusion_lat": 0.0, "type": "electric_scooter", "lon": -77.03593233333334}, {"rental_uris": {"android": "https://dc.lft.to/lastmile_qr_scan", "ios": "https://dc.lft.to/lastmile_qr_scan"}, "is_reserved": 0, "is_disabled": 0, "bike_id": "621cf6e2cfd13bdf5ef937285e65231f", "lat": 38.89902333333333, "name": "621cf6e2cfd13bdf5ef937285e65231f", "fusion_lon": 0.0, "fusion_lat": 0.0, "type": "electric_scooter", "lon": -77.0092595}, {"rental_uris": {"android": "https://dc.lft.to/lastmile_qr_scan", "ios": "https://dc.lft.to/lastmile_qr_scan"}, "is_reserved": 0, "is_disabled": 0, "bike_id": "ab56f79d57f0f662e431d788dd7625ac", "lat": 38.90660966666667, "name": "ab56f79d57f0f662e431d788dd7625ac", "fusion_lon": 0.0, "fusion_lat": 0.0, "type": "electric_scooter", "lon": -77.03747}, {"rental_uris": {"android": "https://dc.lft.to/lastmile_qr_scan", "ios": "https://dc.lft.to/lastmile_qr_scan"}, "is_reserved": 0, "is_disabled": 0, "bike_id": "e2d3ce331bbcfc27bb999a1d5be4bf13", "lat": 38.891984666666666, "name": "e2d3ce331bbcfc27bb999a1d5be4bf13", "fusion_lon": 0.0, "fusion_lat": 0.0, "type": "electric_scooter", "lon": -76.99392533333334}, {"rental_uris": {"android": "https://dc.lft.to/lastmile_qr_scan", "ios": "https://dc.lft.to/lastmile_qr_scan"}, "is_reserved": 0, "is_disabled": 0, "bike_id": "900cbaaf62d3be62d0f19e4276772b3e", "lat": 38.884647666666666, "name": "900cbaaf62d3be62d0f19e4276772b3e", "fusion_lon": 0.0, "fusion_lat": 0.0, "type": "electric_scooter", "lon": -77.01753066666667}, {"rental_uris": {"android": "https://dc.lft.to/lastmile_qr_scan", "ios": "https://dc.lft.to/lastmile_qr_scan"}, "is_reserved": 0, "is_disabled": 0, "bike_id": "1c126641309329c0a07c5edeee6ff736", "lat": 38.8921785, "name": "1c126641309329c0a07c5edeee6ff736", "fusion_lon": 0.0, "fusion_lat": 0.0, "type": "electric_scooter", "lon": -77.02238766666666}, {"rental_uris": {"android": "https://dc.lft.to/lastmile_qr_scan", "ios": "https://dc.lft.to/lastmile_qr_scan"}, "is_reserved": 0, "is_disabled": 0, "bike_id": "8cbb658fb9194093433a5ec20745c090", "lat": 38.903957, "name": "8cbb658fb9194093433a5ec20745c090", "fusion_lon": 0.0, "fusion_lat": 0.0, "type": "electric_scooter", "lon": -77.03466383333334}, {"rental_uris": {"android": "https://dc.lft.to/lastmile_qr_scan", "ios": "https://dc.lft.to/lastmile_qr_scan"}, "is_reserved": 0, "is_disabled": 0, "bike_id": "60790d5b93eea67d400bebfc9d73683c", "lat": 38.895101, "name": "60790d5b93eea67d400bebfc9d73683c", "fusion_lon": 0.0, "fusion_lat": 0.0, "type": "electric_scooter", "lon": -76.94890016666666}, {"rental_uris": {"android": "https://dc.lft.to/lastmile_qr_scan", "ios": "https://dc.lft.to/lastmile_qr_scan"}, "is_reserved": 0, "is_disabled": 0, "bike_id": "b7dced232062224c7f314af7bc32d69f", "lat": 38.906283333333334, "name": "b7dced232062224c7f314af7bc32d69f", "fusion_lon": 0.0, "fusion_lat": 0.0, "type": "electric_scooter", "lon": -76.9985975}, {"rental_uris": {"android": "https://dc.lft.to/lastmile_qr_scan", "ios": "https://dc.lft.to/lastmile_qr_scan"}, "is_reserved": 0, "is_disabled": 0, "bike_id": "ecf7d486747e4aa9b8c159afbae4b2a2", "lat": 38.87786666666667, "name": "ecf7d486747e4aa9b8c159afbae4b2a2", "fusion_lon": 0.0, "fusion_lat": 0.0, "type": "electric_scooter", "lon": -76.99410316666666}, {"rental_uris": {"android": "https://dc.lft.to/lastmile_qr_scan", "ios": "https://dc.lft.to/lastmile_qr_scan"}, "is_reserved": 0, "is_disabled": 0, "bike_id": "861205e2463e07ccef1752f22a23c658", "lat": 38.922419833333336, "name": "861205e2463e07ccef1752f22a23c658", "fusion_lon": 0.0, "fusion_lat": 0.0, "type": "electric_scooter", "lon": -77.07314033333333}, {"rental_uris": {"android": "https://dc.lft.to/lastmile_qr_scan", "ios": "https://dc.lft.to/lastmile_qr_scan"}, "is_reserved": 0, "is_disabled": 0, "bike_id": "bdf4f80b1e26dd95a9c2aad80419ef81", "lat": 38.892212, "name": "bdf4f80b1e26dd95a9c2aad80419ef81", "fusion_lon": 0.0, "fusion_lat": 0.0, "type": "electric_scooter", "lon": -77.0450845}, {"rental_uris": {"android": "https://dc.lft.to/lastmile_qr_scan", "ios": "https://dc.lft.to/lastmile_qr_scan"}, "is_reserved": 0, "is_disabled": 0, "bike_id": "ba907f23866b2e3cd4a119d9661e6314", "lat": 38.892246, "name": "ba907f23866b2e3cd4a119d9661e6314", "fusion_lon": 0.0, "fusion_lat": 0.0, "type": "electric_scooter", "lon": -77.04381166666667}, {"rental_uris": {"android": "https://dc.lft.to/lastmile_qr_scan", "ios": "https://dc.lft.to/lastmile_qr_scan"}, "is_reserved": 0, "is_disabled": 0, "bike_id": "5f15598d652ba6ba38c165f70c9fe3d9", "lat": 38.921680333333335, "name": "5f15598d652ba6ba38c165f70c9fe3d9", "fusion_lon": 0.0, "fusion_lat": 0.0, "type": "electric_scooter", "lon": -77.03270783333333}, {"rental_uris": {"android": "https://dc.lft.to/lastmile_qr_scan", "ios": "https://dc.lft.to/lastmile_qr_scan"}, "is_reserved": 0, "is_disabled": 0, "bike_id": "cf466b648ded17ade9d99d293ba8b1c5", "lat": 38.9097165, "name": "cf466b648ded17ade9d99d293ba8b1c5", "fusion_lon": 0.0, "fusion_lat": 0.0, "type": "electric_scooter", "lon": -77.0386835}, {"rental_uris": {"android": "https://dc.lft.to/lastmile_qr_scan", "ios": "https://dc.lft.to/lastmile_qr_scan"}, "is_reserved": 0, "is_disabled": 0, "bike_id": "39ef8d37c2bfcd0e7c1d244f569ab6c0", "lat": 38.91277383333333, "name": "39ef8d37c2bfcd0e7c1d244f569ab6c0", "fusion_lon": 0.0, "fusion_lat": 0.0, "type": "electric_scooter", "lon": -77.019767}, {"rental_uris": {"android": "https://dc.lft.to/lastmile_qr_scan", "ios": "https://dc.lft.to/lastmile_qr_scan"}, "is_reserved": 0, "is_disabled": 0, "bike_id": "50b85fd11e440b001a43048986633a53", "lat": 38.864717666666664, "name": "50b85fd11e440b001a43048986633a53", "fusion_lon": 0.0, "fusion_lat": 0.0, "type": "electric_scooter", "lon": -76.9822845}, {"rental_uris": {"android": "https://dc.lft.to/lastmile_qr_scan", "ios": "https://dc.lft.to/lastmile_qr_scan"}, "is_reserved": 0, "is_disabled": 0, "bike_id": "c59edd786cfe5d5c730d2d190a1e2eec", "lat": 38.909747833333334, "name": "c59edd786cfe5d5c730d2d190a1e2eec", "fusion_lon": 0.0, "fusion_lat": 0.0, "type": "electric_scooter", "lon": -77.03474433333334}, {"rental_uris": {"android": "https://dc.lft.to/lastmile_qr_scan", "ios": "https://dc.lft.to/lastmile_qr_scan"}, "is_reserved": 0, "is_disabled": 0, "bike_id": "3ba80d38fd1c30e530fa7f90952cf6a7", "lat": 38.879174666666664, "name": "3ba80d38fd1c30e530fa7f90952cf6a7", "fusion_lon": 0.0, "fusion_lat": 0.0, "type": "electric_scooter", "lon": -76.99509933333333}, {"rental_uris": {"android": "https://dc.lft.to/lastmile_qr_scan", "ios": "https://dc.lft.to/lastmile_qr_scan"}, "is_reserved": 0, "is_disabled": 0, "bike_id": "5dafd56765b443485865877f65ca7b71", "lat": 38.896861666666666, "name": "5dafd56765b443485865877f65ca7b71", "fusion_lon": 0.0, "fusion_lat": 0.0, "type": "electric_scooter", "lon": -77.012032}, {"rental_uris": {"android": "https://dc.lft.to/lastmile_qr_scan", "ios": "https://dc.lft.to/lastmile_qr_scan"}, "is_reserved": 0, "is_disabled": 0, "bike_id": "f2f4780cf2983c054a7a39cb3026ecd9", "lat": 38.8667685, "name": "f2f4780cf2983c054a7a39cb3026ecd9", "fusion_lon": 0.0, "fusion_lat": 0.0, "type": "electric_scooter", "lon": -76.985216}, {"rental_uris": {"android": "https://dc.lft.to/lastmile_qr_scan", "ios": "https://dc.lft.to/lastmile_qr_scan"}, "is_reserved": 0, "is_disabled": 0, "bike_id": "c0bea8260fc76ff6026a12c83f278e20", "lat": 38.91843016666667, "name": "c0bea8260fc76ff6026a12c83f278e20", "fusion_lon": 0.0, "fusion_lat": 0.0, "type": "electric_scooter", "lon": -77.0392175}, {"rental_uris": {"android": "https://dc.lft.to/lastmile_qr_scan", "ios": "https://dc.lft.to/lastmile_qr_scan"}, "is_reserved": 0, "is_disabled": 0, "bike_id": "17607773221dd4fce0d6eee035f88e9e", "lat": 38.932399333333336, "name": "17607773221dd4fce0d6eee035f88e9e", "fusion_lon": 0.0, "fusion_lat": 0.0, "type": "electric_scooter", "lon": -77.028328}, {"rental_uris": {"android": "https://dc.lft.to/lastmile_qr_scan", "ios": "https://dc.lft.to/lastmile_qr_scan"}, "is_reserved": 0, "is_disabled": 0, "bike_id": "f4e7bf885a127ca58e80d7da8a7baba5", "lat": 38.899097166666664, "name": "f4e7bf885a127ca58e80d7da8a7baba5", "fusion_lon": 0.0, "fusion_lat": 0.0, "type": "electric_bike", "lon": -77.02165616666667}, {"rental_uris": {"android": "https://dc.lft.to/lastmile_qr_scan", "ios": "https://dc.lft.to/lastmile_qr_scan"}, "is_reserved": 0, "is_disabled": 0, "bike_id": "aa790de1deb18c45715036fc7a1e9e1a", "lat": 38.8745965, "name": "aa790de1deb18c45715036fc7a1e9e1a", "fusion_lon": 0.0, "fusion_lat": 0.0, "type": "electric_scooter", "lon": -77.0054665}, {"rental_uris": {"android": "https://dc.lft.to/lastmile_qr_scan", "ios": "https://dc.lft.to/lastmile_qr_scan"}, "is_reserved": 0, "is_disabled": 0, "bike_id": "b8a31a06b50f2d3b800ec431d48500ff", "lat": 38.914136666666664, "name": "b8a31a06b50f2d3b800ec431d48500ff", "fusion_lon": 0.0, "fusion_lat": 0.0, "type": "electric_scooter", "lon": -77.04453333333333}, {"rental_uris": {"android": "https://dc.lft.to/lastmile_qr_scan", "ios": "https://dc.lft.to/lastmile_qr_scan"}, "is_reserved": 0, "is_disabled": 0, "bike_id": "2644d071774101404d602668ffebce7a", "lat": 38.863718666666664, "name": "2644d071774101404d602668ffebce7a", "fusion_lon": 0.0, "fusion_lat": 0.0, "type": "electric_scooter", "lon": -76.9906215}, {"rental_uris": {"android": "https://dc.lft.to/lastmile_qr_scan", "ios": "https://dc.lft.to/lastmile_qr_scan"}, "is_reserved": 0, "is_disabled": 0, "bike_id": "5b0eb51ea29a4cee518450ed5d2f1531", "lat": 38.901925166666665, "name": "5b0eb51ea29a4cee518450ed5d2f1531", "fusion_lon": 0.0, "fusion_lat": 0.0, "type": "electric_scooter", "lon": -77.02388483333333}, {"rental_uris": {"android": "https://dc.lft.to/lastmile_qr_scan", "ios": "https://dc.lft.to/lastmile_qr_scan"}, "is_reserved": 0, "is_disabled": 0, "bike_id": "ca47677a595d22cf24f3ac5b37a1bcd8", "lat": 38.9260865, "name": "ca47677a595d22cf24f3ac5b37a1bcd8", "fusion_lon": 0.0, "fusion_lat": 0.0, "type": "electric_scooter", "lon": -77.02158166666666}, {"rental_uris": {"android": "https://dc.lft.to/lastmile_qr_scan", "ios": "https://dc.lft.to/lastmile_qr_scan"}, "is_reserved": 0, "is_disabled": 0, "bike_id": "fd9f8b3c57f14e4e75edba96a319c1e0", "lat": 38.89606416666667, "name": "fd9f8b3c57f14e4e75edba96a319c1e0", "fusion_lon": 0.0, "fusion_lat": 0.0, "type": "electric_scooter", "lon": -77.04558683333333}, {"rental_uris": {"android": "https://dc.lft.to/lastmile_qr_scan", "ios": "https://dc.lft.to/lastmile_qr_scan"}, "is_reserved": 0, "is_disabled": 0, "bike_id": "368b92fa6aaab91c04b96b7756ad004b", "lat": 38.905905, "name": "368b92fa6aaab91c04b96b7756ad004b", "fusion_lon": 0.0, "fusion_lat": 0.0, "type": "electric_scooter", "lon": -77.01611683333333}, {"rental_uris": {"android": "https://dc.lft.to/lastmile_qr_scan", "ios": "https://dc.lft.to/lastmile_qr_scan"}, "is_reserved": 0, "is_disabled": 0, "bike_id": "fb2805d26d2fbc7f436d43f95362bb43", "lat": 38.90972166666667, "name": "fb2805d26d2fbc7f436d43f95362bb43", "fusion_lon": 0.0, "fusion_lat": 0.0, "type": "electric_scooter", "lon": -77.03227333333334}, {"rental_uris": {"android": "https://dc.lft.to/lastmile_qr_scan", "ios": "https://dc.lft.to/lastmile_qr_scan"}, "is_reserved": 0, "is_disabled": 0, "bike_id": "67eae1b3970a67d05fbe69e535790787", "lat": 38.916768833333336, "name": "67eae1b3970a67d05fbe69e535790787", "fusion_lon": 0.0, "fusion_lat": 0.0, "type": "electric_scooter", "lon": -77.0229915}, {"rental_uris": {"android": "https://dc.lft.to/lastmile_qr_scan", "ios": "https://dc.lft.to/lastmile_qr_scan"}, "is_reserved": 0, "is_disabled": 0, "bike_id": "26c5aee6983a66652829d671e199e437", "lat": 38.922428333333336, "name": "26c5aee6983a66652829d671e199e437", "fusion_lon": 0.0, "fusion_lat": 0.0, "type": "electric_scooter", "lon": -77.03089283333334}, {"rental_uris": {"android": "https://dc.lft.to/lastmile_qr_scan", "ios": "https://dc.lft.to/lastmile_qr_scan"}, "is_reserved": 0, "is_disabled": 0, "bike_id": "7b4b3197253bc01e42ae48fba9443c3e", "lat": 38.917700333333336, "name": "7b4b3197253bc01e42ae48fba9443c3e", "fusion_lon": 0.0, "fusion_lat": 0.0, "type": "electric_scooter", "lon": -77.02342466666667}, {"rental_uris": {"android": "https://dc.lft.to/lastmile_qr_scan", "ios": "https://dc.lft.to/lastmile_qr_scan"}, "is_reserved": 0, "is_disabled": 0, "bike_id": "1656254ce2fc0efa31a0bcc5e572f8bb", "lat": 38.888008666666664, "name": "1656254ce2fc0efa31a0bcc5e572f8bb", "fusion_lon": 0.0, "fusion_lat": 0.0, "type": "electric_scooter", "lon": -76.9335415}, {"rental_uris": {"android": "https://dc.lft.to/lastmile_qr_scan", "ios": "https://dc.lft.to/lastmile_qr_scan"}, "is_reserved": 0, "is_disabled": 0, "bike_id": "a0d8f572f0a0ee424d4689b00f8f55d6", "lat": 38.902483333333336, "name": "a0d8f572f0a0ee424d4689b00f8f55d6", "fusion_lon": 0.0, "fusion_lat": 0.0, "type": "electric_scooter", "lon": -77.046014}, {"rental_uris": {"android": "https://dc.lft.to/lastmile_qr_scan", "ios": "https://dc.lft.to/lastmile_qr_scan"}, "is_reserved": 0, "is_disabled": 0, "bike_id": "84a9d238a733f3032205546ac32be8c2", "lat": 38.890166, "name": "84a9d238a733f3032205546ac32be8c2", "fusion_lon": 0.0, "fusion_lat": 0.0, "type": "electric_scooter", "lon": -76.93734083333334}, {"rental_uris": {"android": "https://dc.lft.to/lastmile_qr_scan", "ios": "https://dc.lft.to/lastmile_qr_scan"}, "is_reserved": 0, "is_disabled": 0, "bike_id": "99e7fe7b11197f708ad08f51df72068a", "lat": 38.919175833333334, "name": "99e7fe7b11197f708ad08f51df72068a", "fusion_lon": 0.0, "fusion_lat": 0.0, "type": "electric_scooter", "lon": -77.026162}, {"rental_uris": {"android": "https://dc.lft.to/lastmile_qr_scan", "ios": "https://dc.lft.to/lastmile_qr_scan"}, "is_reserved": 0, "is_disabled": 0, "bike_id": "69fd0462971e38e015a661f135da034c", "lat": 38.83559866666667, "name": "69fd0462971e38e015a661f135da034c", "fusion_lon": 0.0, "fusion_lat": 0.0, "type": "electric_scooter", "lon": -76.99496866666667}, {"rental_uris": {"android": "https://dc.lft.to/lastmile_qr_scan", "ios": "https://dc.lft.to/lastmile_qr_scan"}, "is_reserved": 0, "is_disabled": 0, "bike_id": "a41dda202efb5cf7a5ae058b5d429142", "lat": 38.9178305, "name": "a41dda202efb5cf7a5ae058b5d429142", "fusion_lon": 0.0, "fusion_lat": 0.0, "type": "electric_scooter", "lon": -77.0321115}, {"rental_uris": {"android": "https://dc.lft.to/lastmile_qr_scan", "ios": "https://dc.lft.to/lastmile_qr_scan"}, "is_reserved": 0, "is_disabled": 0, "bike_id": "53e80d4ebf57aca0140141ed81f09428", "lat": 38.933683333333335, "name": "53e80d4ebf57aca0140141ed81f09428", "fusion_lon": 0.0, "fusion_lat": 0.0, "type": "electric_scooter", "lon": -77.0573305}, {"rental_uris": {"android": "https://dc.lft.to/lastmile_qr_scan", "ios": "https://dc.lft.to/lastmile_qr_scan"}, "is_reserved": 0, "is_disabled": 0, "bike_id": "16c3d6a306ab49fad68733bb0e8b2171", "lat": 38.923394333333334, "name": "16c3d6a306ab49fad68733bb0e8b2171", "fusion_lon": 0.0, "fusion_lat": 0.0, "type": "electric_scooter", "lon": -77.03620633333334}, {"rental_uris": {"android": "https://dc.lft.to/lastmile_qr_scan", "ios": "https://dc.lft.to/lastmile_qr_scan"}, "is_reserved": 0, "is_disabled": 0, "bike_id": "cbc07406e2d0e49df4c73d59bbd4ae49", "lat": 38.92105566666667, "name": "cbc07406e2d0e49df4c73d59bbd4ae49", "fusion_lon": 0.0, "fusion_lat": 0.0, "type": "electric_scooter", "lon": -76.9929585}, {"rental_uris": {"android": "https://dc.lft.to/lastmile_qr_scan", "ios": "https://dc.lft.to/lastmile_qr_scan"}, "is_reserved": 0, "is_disabled": 0, "bike_id": "9a19b45f46a544bf7a0b432978a2d39a", "lat": 38.89925133333333, "name": "9a19b45f46a544bf7a0b432978a2d39a", "fusion_lon": 0.0, "fusion_lat": 0.0, "type": "electric_scooter", "lon": -77.04186016666667}, {"rental_uris": {"android": "https://dc.lft.to/lastmile_qr_scan", "ios": "https://dc.lft.to/lastmile_qr_scan"}, "is_reserved": 0, "is_disabled": 0, "bike_id": "5734de551fd80d1d272a1a3fde869bf6", "lat": 38.9648905, "name": "5734de551fd80d1d272a1a3fde869bf6", "fusion_lon": 0.0, "fusion_lat": 0.0, "type": "electric_bike", "lon": -77.10728216666666}, {"rental_uris": {"android": "https://dc.lft.to/lastmile_qr_scan", "ios": "https://dc.lft.to/lastmile_qr_scan"}, "is_reserved": 0, "is_disabled": 0, "bike_id": "ee2c597f8fd746a8ec408ee13fd69509", "lat": 38.922415666666666, "name": "ee2c597f8fd746a8ec408ee13fd69509", "fusion_lon": 0.0, "fusion_lat": 0.0, "type": "electric_scooter", "lon": -77.03077683333333}, {"rental_uris": {"android": "https://dc.lft.to/lastmile_qr_scan", "ios": "https://dc.lft.to/lastmile_qr_scan"}, "is_reserved": 0, "is_disabled": 0, "bike_id": "71d786142a12534a27fb279b761f641c", "lat": 38.973686, "name": "71d786142a12534a27fb279b761f641c", "fusion_lon": 0.0, "fusion_lat": 0.0, "type": "electric_scooter", "lon": -77.01853366666667}, {"rental_uris": {"android": "https://dc.lft.to/lastmile_qr_scan", "ios": "https://dc.lft.to/lastmile_qr_scan"}, "is_reserved": 0, "is_disabled": 0, "bike_id": "1735173b90a5e065d81b7565c78ead91", "lat": 38.8803875, "name": "1735173b90a5e065d81b7565c78ead91", "fusion_lon": 0.0, "fusion_lat": 0.0, "type": "electric_scooter", "lon": -77.030767}, {"rental_uris": {"android": "https://dc.lft.to/lastmile_qr_scan", "ios": "https://dc.lft.to/lastmile_qr_scan"}, "is_reserved": 0, "is_disabled": 0, "bike_id": "3add32c7bc48ac9c31e4bf517645ff0f", "lat": 39.0355805, "name": "3add32c7bc48ac9c31e4bf517645ff0f", "fusion_lon": 0.0, "fusion_lat": 0.0, "type": "electric_bike", "lon": -77.04979266666666}, {"rental_uris": {"android": "https://dc.lft.to/lastmile_qr_scan", "ios": "https://dc.lft.to/lastmile_qr_scan"}, "is_reserved": 0, "is_disabled": 0, "bike_id": "de3b73f87ae53a4fc2e3178df28b8420", "lat": 38.885495, "name": "de3b73f87ae53a4fc2e3178df28b8420", "fusion_lon": 0.0, "fusion_lat": 0.0, "type": "electric_scooter", "lon": -77.01210066666667}, {"rental_uris": {"android": "https://dc.lft.to/lastmile_qr_scan", "ios": "https://dc.lft.to/lastmile_qr_scan"}, "is_reserved": 0, "is_disabled": 0, "bike_id": "20426c9947739dbef6573f004701bbf5", "lat": 38.8975475, "name": "20426c9947739dbef6573f004701bbf5", "fusion_lon": 0.0, "fusion_lat": 0.0, "type": "electric_scooter", "lon": -77.02792133333334}, {"rental_uris": {"android": "https://dc.lft.to/lastmile_qr_scan", "ios": "https://dc.lft.to/lastmile_qr_scan"}, "is_reserved": 0, "is_disabled": 0, "bike_id": "706e015fc8f227a81fe676199cab1320", "lat": 38.898521833333334, "name": "706e015fc8f227a81fe676199cab1320", "fusion_lon": 0.0, "fusion_lat": 0.0, "type": "electric_scooter", "lon": -77.03329583333333}, {"rental_uris": {"android": "https://dc.lft.to/lastmile_qr_scan", "ios": "https://dc.lft.to/lastmile_qr_scan"}, "is_reserved": 0, "is_disabled": 0, "bike_id": "40b33dfc72fdbbb91ebb35ecc0c6aeff", "lat": 38.86550416666667, "name": "40b33dfc72fdbbb91ebb35ecc0c6aeff", "fusion_lon": 0.0, "fusion_lat": 0.0, "type": "electric_scooter", "lon": -76.98945083333334}, {"rental_uris": {"android": "https://dc.lft.to/lastmile_qr_scan", "ios": "https://dc.lft.to/lastmile_qr_scan"}, "is_reserved": 0, "is_disabled": 0, "bike_id": "8f4c095bf4fbdad3377e2614ee83d9a2", "lat": 38.929649833333336, "name": "8f4c095bf4fbdad3377e2614ee83d9a2", "fusion_lon": 0.0, "fusion_lat": 0.0, "type": "electric_scooter", "lon": -77.01328733333334}, {"rental_uris": {"android": "https://dc.lft.to/lastmile_qr_scan", "ios": "https://dc.lft.to/lastmile_qr_scan"}, "is_reserved": 0, "is_disabled": 0, "bike_id": "941dbbdbf4e9c4cff2091368e97a3123", "lat": 38.926786, "name": "941dbbdbf4e9c4cff2091368e97a3123", "fusion_lon": 0.0, "fusion_lat": 0.0, "type": "electric_scooter", "lon": -77.022667}, {"rental_uris": {"android": "https://dc.lft.to/lastmile_qr_scan", "ios": "https://dc.lft.to/lastmile_qr_scan"}, "is_reserved": 0, "is_disabled": 0, "bike_id": "a2caaa3551dc57141db201a454c04ed0", "lat": 38.901004666666665, "name": "a2caaa3551dc57141db201a454c04ed0", "fusion_lon": 0.0, "fusion_lat": 0.0, "type": "electric_bike", "lon": -77.02021216666667}, {"rental_uris": {"android": "https://dc.lft.to/lastmile_qr_scan", "ios": "https://dc.lft.to/lastmile_qr_scan"}, "is_reserved": 0, "is_disabled": 0, "bike_id": "f5f744baa829796c82094a380063a1dd", "lat": 38.999479, "name": "f5f744baa829796c82094a380063a1dd", "fusion_lon": 0.0, "fusion_lat": 0.0, "type": "electric_bike", "lon": -77.0743375}, {"rental_uris": {"android": "https://dc.lft.to/lastmile_qr_scan", "ios": "https://dc.lft.to/lastmile_qr_scan"}, "is_reserved": 0, "is_disabled": 0, "bike_id": "1b1821659bf23c8a3a7911a46f119a55", "lat": 38.917317, "name": "1b1821659bf23c8a3a7911a46f119a55", "fusion_lon": 0.0, "fusion_lat": 0.0, "type": "electric_scooter", "lon": -77.03204}, {"rental_uris": {"android": "https://dc.lft.to/lastmile_qr_scan", "ios": "https://dc.lft.to/lastmile_qr_scan"}, "is_reserved": 0, "is_disabled": 0, "bike_id": "4732e0eb0f82df46a454635c681e3ca5", "lat": 38.93110316666667, "name": "4732e0eb0f82df46a454635c681e3ca5", "fusion_lon": 0.0, "fusion_lat": 0.0, "type": "electric_scooter", "lon": -77.03798866666666}, {"rental_uris": {"android": "https://dc.lft.to/lastmile_qr_scan", "ios": "https://dc.lft.to/lastmile_qr_scan"}, "is_reserved": 0, "is_disabled": 0, "bike_id": "427bfb20dbb8ff5f338899af3fa8413f", "lat": 38.90502016666667, "name": "427bfb20dbb8ff5f338899af3fa8413f", "fusion_lon": 0.0, "fusion_lat": 0.0, "type": "electric_scooter", "lon": -77.05354633333333}, {"rental_uris": {"android": "https://dc.lft.to/lastmile_qr_scan", "ios": "https://dc.lft.to/lastmile_qr_scan"}, "is_reserved": 0, "is_disabled": 0, "bike_id": "dde193a51529ce78b7a8d7817db43b1f", "lat": 38.897921333333336, "name": "dde193a51529ce78b7a8d7817db43b1f", "fusion_lon": 0.0, "fusion_lat": 0.0, "type": "electric_scooter", "lon": -77.05486833333333}, {"rental_uris": {"android": "https://dc.lft.to/lastmile_qr_scan", "ios": "https://dc.lft.to/lastmile_qr_scan"}, "is_reserved": 0, "is_disabled": 0, "bike_id": "59f6a3f576a537a4df9dbf5239d1d17f", "lat": 38.915659833333336, "name": "59f6a3f576a537a4df9dbf5239d1d17f", "fusion_lon": 0.0, "fusion_lat": 0.0, "type": "electric_scooter", "lon": -77.01987533333333}, {"rental_uris": {"android": "https://dc.lft.to/lastmile_qr_scan", "ios": "https://dc.lft.to/lastmile_qr_scan"}, "is_reserved": 0, "is_disabled": 0, "bike_id": "994719308430e0203b7f2b9cd5f740ba", "lat": 38.909723, "name": "994719308430e0203b7f2b9cd5f740ba", "fusion_lon": 0.0, "fusion_lat": 0.0, "type": "electric_scooter", "lon": -77.03871266666667}, {"rental_uris": {"android": "https://dc.lft.to/lastmile_qr_scan", "ios": "https://dc.lft.to/lastmile_qr_scan"}, "is_reserved": 0, "is_disabled": 0, "bike_id": "a6d7e9cd434ca6b6460222757242a06b", "lat": 38.9204155, "name": "a6d7e9cd434ca6b6460222757242a06b", "fusion_lon": 0.0, "fusion_lat": 0.0, "type": "electric_scooter", "lon": -77.01679133333333}, {"rental_uris": {"android": "https://dc.lft.to/lastmile_qr_scan", "ios": "https://dc.lft.to/lastmile_qr_scan"}, "is_reserved": 0, "is_disabled": 0, "bike_id": "d90af88beee41742d2995ca4675cdb91", "lat": 38.8070805, "name": "d90af88beee41742d2995ca4675cdb91", "fusion_lon": 0.0, "fusion_lat": 0.0, "type": "electric_bike", "lon": -77.06175183333333}, {"rental_uris": {"android": "https://dc.lft.to/lastmile_qr_scan", "ios": "https://dc.lft.to/lastmile_qr_scan"}, "is_reserved": 0, "is_disabled": 0, "bike_id": "3af0764b49d7ed53667f46f55ec4869a", "lat": 38.93704916666667, "name": "3af0764b49d7ed53667f46f55ec4869a", "fusion_lon": 0.0, "fusion_lat": 0.0, "type": "electric_scooter", "lon": -77.0240065}, {"rental_uris": {"android": "https://dc.lft.to/lastmile_qr_scan", "ios": "https://dc.lft.to/lastmile_qr_scan"}, "is_reserved": 0, "is_disabled": 0, "bike_id": "856db556bb1eb9efe3d404f9c78c2383", "lat": 38.92918733333333, "name": "856db556bb1eb9efe3d404f9c78c2383", "fusion_lon": 0.0, "fusion_lat": 0.0, "type": "electric_scooter", "lon": -77.05470633333333}, {"rental_uris": {"android": "https://dc.lft.to/lastmile_qr_scan", "ios": "https://dc.lft.to/lastmile_qr_scan"}, "is_reserved": 0, "is_disabled": 0, "bike_id": "f69d6c7646b9ff7e5a25a12782c31c10", "lat": 38.86624466666667, "name": "f69d6c7646b9ff7e5a25a12782c31c10", "fusion_lon": 0.0, "fusion_lat": 0.0, "type": "electric_scooter", "lon": -76.9872035}, {"rental_uris": {"android": "https://dc.lft.to/lastmile_qr_scan", "ios": "https://dc.lft.to/lastmile_qr_scan"}, "is_reserved": 0, "is_disabled": 0, "bike_id": "9456d3ae1e3dbe51f106b7daa0aa06b2", "lat": 38.89356133333333, "name": "9456d3ae1e3dbe51f106b7daa0aa06b2", "fusion_lon": 0.0, "fusion_lat": 0.0, "type": "electric_scooter", "lon": -76.94927033333333}, {"rental_uris": {"android": "https://dc.lft.to/lastmile_qr_scan", "ios": "https://dc.lft.to/lastmile_qr_scan"}, "is_reserved": 0, "is_disabled": 0, "bike_id": "9fcf96ce109d3577d51536e67bd66f23", "lat": 38.908518666666666, "name": "9fcf96ce109d3577d51536e67bd66f23", "fusion_lon": 0.0, "fusion_lat": 0.0, "type": "electric_scooter", "lon": -77.0251745}, {"rental_uris": {"android": "https://dc.lft.to/lastmile_qr_scan", "ios": "https://dc.lft.to/lastmile_qr_scan"}, "is_reserved": 0, "is_disabled": 0, "bike_id": "0a97c88621bb175411105e9762c7343f", "lat": 38.922365166666665, "name": "0a97c88621bb175411105e9762c7343f", "fusion_lon": 0.0, "fusion_lat": 0.0, "type": "electric_scooter", "lon": -77.02206216666667}, {"rental_uris": {"android": "https://dc.lft.to/lastmile_qr_scan", "ios": "https://dc.lft.to/lastmile_qr_scan"}, "is_reserved": 0, "is_disabled": 0, "bike_id": "d6596e57c4ecad3d7ac2c8187768ae45", "lat": 38.93878933333333, "name": "d6596e57c4ecad3d7ac2c8187768ae45", "fusion_lon": 0.0, "fusion_lat": 0.0, "type": "electric_scooter", "lon": -77.02485}, {"rental_uris": {"android": "https://dc.lft.to/lastmile_qr_scan", "ios": "https://dc.lft.to/lastmile_qr_scan"}, "is_reserved": 0, "is_disabled": 0, "bike_id": "5b030fc05bd1aa605f06c85164bea42a", "lat": 38.90407883333334, "name": "5b030fc05bd1aa605f06c85164bea42a", "fusion_lon": 0.0, "fusion_lat": 0.0, "type": "electric_scooter", "lon": -76.98093783333333}, {"rental_uris": {"android": "https://dc.lft.to/lastmile_qr_scan", "ios": "https://dc.lft.to/lastmile_qr_scan"}, "is_reserved": 0, "is_disabled": 0, "bike_id": "b2be230887461ec4d86080ed7de79106", "lat": 38.905596, "name": "b2be230887461ec4d86080ed7de79106", "fusion_lon": 0.0, "fusion_lat": 0.0, "type": "electric_scooter", "lon": -77.03849466666667}, {"rental_uris": {"android": "https://dc.lft.to/lastmile_qr_scan", "ios": "https://dc.lft.to/lastmile_qr_scan"}, "is_reserved": 0, "is_disabled": 0, "bike_id": "781c308e505bfbd1a99ce1cdaf39256e", "lat": 38.8841135, "name": "781c308e505bfbd1a99ce1cdaf39256e", "fusion_lon": 0.0, "fusion_lat": 0.0, "type": "electric_scooter", "lon": -77.01772116666666}, {"rental_uris": {"android": "https://dc.lft.to/lastmile_qr_scan", "ios": "https://dc.lft.to/lastmile_qr_scan"}, "is_reserved": 0, "is_disabled": 0, "bike_id": "e889648fd14431842f44677e56b3b56e", "lat": 38.87388983333334, "name": "e889648fd14431842f44677e56b3b56e", "fusion_lon": 0.0, "fusion_lat": 0.0, "type": "electric_scooter", "lon": -77.00113283333333}, {"rental_uris": {"android": "https://dc.lft.to/lastmile_qr_scan", "ios": "https://dc.lft.to/lastmile_qr_scan"}, "is_reserved": 0, "is_disabled": 0, "bike_id": "8a1337449efe0e7db8e0c5cd41ecfe08", "lat": 38.87920666666667, "name": "8a1337449efe0e7db8e0c5cd41ecfe08", "fusion_lon": 0.0, "fusion_lat": 0.0, "type": "electric_scooter", "lon": -76.99257266666666}, {"rental_uris": {"android": "https://dc.lft.to/lastmile_qr_scan", "ios": "https://dc.lft.to/lastmile_qr_scan"}, "is_reserved": 0, "is_disabled": 0, "bike_id": "5394b496fd0097fd9952b64b0c8e883b", "lat": 38.915676500000004, "name": "5394b496fd0097fd9952b64b0c8e883b", "fusion_lon": 0.0, "fusion_lat": 0.0, "type": "electric_scooter", "lon": -77.0120295}, {"rental_uris": {"android": "https://dc.lft.to/lastmile_qr_scan", "ios": "https://dc.lft.to/lastmile_qr_scan"}, "is_reserved": 0, "is_disabled": 0, "bike_id": "d42b1639d7c98ebb911656ef898ac8c2", "lat": 38.91330816666667, "name": "d42b1639d7c98ebb911656ef898ac8c2", "fusion_lon": 0.0, "fusion_lat": 0.0, "type": "electric_scooter", "lon": -77.04538233333334}, {"rental_uris": {"android": "https://dc.lft.to/lastmile_qr_scan", "ios": "https://dc.lft.to/lastmile_qr_scan"}, "is_reserved": 0, "is_disabled": 0, "bike_id": "7b8504aa5d2daef215fd936ea67f3fa6", "lat": 38.90237483333333, "name": "7b8504aa5d2daef215fd936ea67f3fa6", "fusion_lon": 0.0, "fusion_lat": 0.0, "type": "electric_scooter", "lon": -77.060269}, {"rental_uris": {"android": "https://dc.lft.to/lastmile_qr_scan", "ios": "https://dc.lft.to/lastmile_qr_scan"}, "is_reserved": 0, "is_disabled": 0, "bike_id": "7365ccdb5b456cfac574aa6c82061a22", "lat": 38.91815733333333, "name": "7365ccdb5b456cfac574aa6c82061a22", "fusion_lon": 0.0, "fusion_lat": 0.0, "type": "electric_scooter", "lon": -77.02530933333334}, {"rental_uris": {"android": "https://dc.lft.to/lastmile_qr_scan", "ios": "https://dc.lft.to/lastmile_qr_scan"}, "is_reserved": 0, "is_disabled": 0, "bike_id": "5d4a8f5f97ce361606958a53b3c4d530", "lat": 38.886595, "name": "5d4a8f5f97ce361606958a53b3c4d530", "fusion_lon": 0.0, "fusion_lat": 0.0, "type": "electric_scooter", "lon": -77.03388066666666}, {"rental_uris": {"android": "https://dc.lft.to/lastmile_qr_scan", "ios": "https://dc.lft.to/lastmile_qr_scan"}, "is_reserved": 0, "is_disabled": 0, "bike_id": "bedf39e68aabb69abf1da8f159937018", "lat": 38.92336683333333, "name": "bedf39e68aabb69abf1da8f159937018", "fusion_lon": 0.0, "fusion_lat": 0.0, "type": "electric_scooter", "lon": -77.03614633333333}, {"rental_uris": {"android": "https://dc.lft.to/lastmile_qr_scan", "ios": "https://dc.lft.to/lastmile_qr_scan"}, "is_reserved": 0, "is_disabled": 0, "bike_id": "077847530486911a0f18737fedb73780", "lat": 38.887494, "name": "077847530486911a0f18737fedb73780", "fusion_lon": 0.0, "fusion_lat": 0.0, "type": "electric_scooter", "lon": -77.02844466666667}, {"rental_uris": {"android": "https://dc.lft.to/lastmile_qr_scan", "ios": "https://dc.lft.to/lastmile_qr_scan"}, "is_reserved": 0, "is_disabled": 0, "bike_id": "0068d91c33ebd0121e97dc20adfe4ee9", "lat": 38.85495733333333, "name": "0068d91c33ebd0121e97dc20adfe4ee9", "fusion_lon": 0.0, "fusion_lat": 0.0, "type": "electric_bike", "lon": -77.1161515}, {"rental_uris": {"android": "https://dc.lft.to/lastmile_qr_scan", "ios": "https://dc.lft.to/lastmile_qr_scan"}, "is_reserved": 0, "is_disabled": 0, "bike_id": "e2a31165b227328bee8b1cc933a4914f", "lat": 38.84424716666667, "name": "e2a31165b227328bee8b1cc933a4914f", "fusion_lon": 0.0, "fusion_lat": 0.0, "type": "electric_scooter", "lon": -76.99786483333334}, {"rental_uris": {"android": "https://dc.lft.to/lastmile_qr_scan", "ios": "https://dc.lft.to/lastmile_qr_scan"}, "is_reserved": 0, "is_disabled": 0, "bike_id": "e9ca2d59d636054bedf2f8c6d83fa32e", "lat": 38.93737316666667, "name": "e9ca2d59d636054bedf2f8c6d83fa32e", "fusion_lon": 0.0, "fusion_lat": 0.0, "type": "electric_scooter", "lon": -77.02372183333334}, {"rental_uris": {"android": "https://dc.lft.to/lastmile_qr_scan", "ios": "https://dc.lft.to/lastmile_qr_scan"}, "is_reserved": 0, "is_disabled": 0, "bike_id": "2d0df0784373aa9f7071a9bb5808b476", "lat": 38.903400166666664, "name": "2d0df0784373aa9f7071a9bb5808b476", "fusion_lon": 0.0, "fusion_lat": 0.0, "type": "electric_scooter", "lon": -77.06755366666667}, {"rental_uris": {"android": "https://dc.lft.to/lastmile_qr_scan", "ios": "https://dc.lft.to/lastmile_qr_scan"}, "is_reserved": 0, "is_disabled": 0, "bike_id": "226e9e29623d34e3cb3187c8e44e479f", "lat": 38.90862416666667, "name": "226e9e29623d34e3cb3187c8e44e479f", "fusion_lon": 0.0, "fusion_lat": 0.0, "type": "electric_scooter", "lon": -77.0241825}, {"rental_uris": {"android": "https://dc.lft.to/lastmile_qr_scan", "ios": "https://dc.lft.to/lastmile_qr_scan"}, "is_reserved": 0, "is_disabled": 0, "bike_id": "23a314db76b464b51b7d83333b92abb5", "lat": 38.862497, "name": "23a314db76b464b51b7d83333b92abb5", "fusion_lon": 0.0, "fusion_lat": 0.0, "type": "electric_scooter", "lon": -76.99504583333334}, {"rental_uris": {"android": "https://dc.lft.to/lastmile_qr_scan", "ios": "https://dc.lft.to/lastmile_qr_scan"}, "is_reserved": 0, "is_disabled": 0, "bike_id": "c2a540afad7cd58a7f02b298711dd1ab", "lat": 38.90242966666667, "name": "c2a540afad7cd58a7f02b298711dd1ab", "fusion_lon": 0.0, "fusion_lat": 0.0, "type": "electric_scooter", "lon": -77.04680183333333}, {"rental_uris": {"android": "https://dc.lft.to/lastmile_qr_scan", "ios": "https://dc.lft.to/lastmile_qr_scan"}, "is_reserved": 0, "is_disabled": 0, "bike_id": "c8bef91bad1431e381acb306f6b9fb37", "lat": 38.93201633333334, "name": "c8bef91bad1431e381acb306f6b9fb37", "fusion_lon": 0.0, "fusion_lat": 0.0, "type": "electric_scooter", "lon": -77.0385095}, {"rental_uris": {"android": "https://dc.lft.to/lastmile_qr_scan", "ios": "https://dc.lft.to/lastmile_qr_scan"}, "is_reserved": 0, "is_disabled": 0, "bike_id": "2b6551d0a3dc71b9a8a755264e98afac", "lat": 38.926498, "name": "2b6551d0a3dc71b9a8a755264e98afac", "fusion_lon": 0.0, "fusion_lat": 0.0, "type": "electric_scooter", "lon": -77.04148033333334}, {"rental_uris": {"android": "https://dc.lft.to/lastmile_qr_scan", "ios": "https://dc.lft.to/lastmile_qr_scan"}, "is_reserved": 0, "is_disabled": 0, "bike_id": "4ce598d49b817f00d43f96dc3ae6a004", "lat": 38.91802633333333, "name": "4ce598d49b817f00d43f96dc3ae6a004", "fusion_lon": 0.0, "fusion_lat": 0.0, "type": "electric_scooter", "lon": -77.0302705}, {"rental_uris": {"android": "https://dc.lft.to/lastmile_qr_scan", "ios": "https://dc.lft.to/lastmile_qr_scan"}, "is_reserved": 0, "is_disabled": 0, "bike_id": "2063c8c95c74d73e66ddcff0f8a14150", "lat": 38.930455333333335, "name": "2063c8c95c74d73e66ddcff0f8a14150", "fusion_lon": 0.0, "fusion_lat": 0.0, "type": "electric_scooter", "lon": -77.03793166666667}, {"rental_uris": {"android": "https://dc.lft.to/lastmile_qr_scan", "ios": "https://dc.lft.to/lastmile_qr_scan"}, "is_reserved": 0, "is_disabled": 0, "bike_id": "0895e62addd4dbb8b7d7d450342e9055", "lat": 38.905012, "name": "0895e62addd4dbb8b7d7d450342e9055", "fusion_lon": 0.0, "fusion_lat": 0.0, "type": "electric_scooter", "lon": -77.06275766666667}, {"rental_uris": {"android": "https://dc.lft.to/lastmile_qr_scan", "ios": "https://dc.lft.to/lastmile_qr_scan"}, "is_reserved": 0, "is_disabled": 0, "bike_id": "28207caf41a15cf17d9ce4096c1fd174", "lat": 38.903326166666666, "name": "28207caf41a15cf17d9ce4096c1fd174", "fusion_lon": 0.0, "fusion_lat": 0.0, "type": "electric_scooter", "lon": -76.975931}, {"rental_uris": {"android": "https://dc.lft.to/lastmile_qr_scan", "ios": "https://dc.lft.to/lastmile_qr_scan"}, "is_reserved": 0, "is_disabled": 0, "bike_id": "f524587b869ad56724b4a8d0ce0e68d0", "lat": 38.90388183333334, "name": "f524587b869ad56724b4a8d0ce0e68d0", "fusion_lon": 0.0, "fusion_lat": 0.0, "type": "electric_scooter", "lon": -77.00745166666667}, {"rental_uris": {"android": "https://dc.lft.to/lastmile_qr_scan", "ios": "https://dc.lft.to/lastmile_qr_scan"}, "is_reserved": 0, "is_disabled": 0, "bike_id": "85e2aacbb158f35a57b735bd66889f7b", "lat": 38.892332833333334, "name": "85e2aacbb158f35a57b735bd66889f7b", "fusion_lon": 0.0, "fusion_lat": 0.0, "type": "electric_scooter", "lon": -77.043681}, {"rental_uris": {"android": "https://dc.lft.to/lastmile_qr_scan", "ios": "https://dc.lft.to/lastmile_qr_scan"}, "is_reserved": 0, "is_disabled": 0, "bike_id": "eab526b9e2c3267dc3f351e28c2f2ff0", "lat": 38.900324499999996, "name": "eab526b9e2c3267dc3f351e28c2f2ff0", "fusion_lon": 0.0, "fusion_lat": 0.0, "type": "electric_scooter", "lon": -77.03307366666667}, {"rental_uris": {"android": "https://dc.lft.to/lastmile_qr_scan", "ios": "https://dc.lft.to/lastmile_qr_scan"}, "is_reserved": 0, "is_disabled": 0, "bike_id": "9181069fb5b3e80428c53793c5725969", "lat": 38.92187833333333, "name": "9181069fb5b3e80428c53793c5725969", "fusion_lon": 0.0, "fusion_lat": 0.0, "type": "electric_scooter", "lon": -77.041319}, {"rental_uris": {"android": "https://dc.lft.to/lastmile_qr_scan", "ios": "https://dc.lft.to/lastmile_qr_scan"}, "is_reserved": 0, "is_disabled": 0, "bike_id": "23194bd3626cee399e0a01eb7adf09de", "lat": 38.93501633333333, "name": "23194bd3626cee399e0a01eb7adf09de", "fusion_lon": 0.0, "fusion_lat": 0.0, "type": "electric_scooter", "lon": -76.9636235}, {"rental_uris": {"android": "https://dc.lft.to/lastmile_qr_scan", "ios": "https://dc.lft.to/lastmile_qr_scan"}, "is_reserved": 0, "is_disabled": 0, "bike_id": "0505d3f3e34602503ee8d4a63a32233f", "lat": 38.92227166666667, "name": "0505d3f3e34602503ee8d4a63a32233f", "fusion_lon": 0.0, "fusion_lat": 0.0, "type": "electric_scooter", "lon": -77.02125883333333}, {"rental_uris": {"android": "https://dc.lft.to/lastmile_qr_scan", "ios": "https://dc.lft.to/lastmile_qr_scan"}, "is_reserved": 0, "is_disabled": 0, "bike_id": "c9eff9daa74c4513f9fd11d885fc9e09", "lat": 38.9080685, "name": "c9eff9daa74c4513f9fd11d885fc9e09", "fusion_lon": 0.0, "fusion_lat": 0.0, "type": "electric_scooter", "lon": -77.04358833333333}, {"rental_uris": {"android": "https://dc.lft.to/lastmile_qr_scan", "ios": "https://dc.lft.to/lastmile_qr_scan"}, "is_reserved": 0, "is_disabled": 0, "bike_id": "cb6589e2f70873a63f5d99e1755fb6f9", "lat": 38.923602333333335, "name": "cb6589e2f70873a63f5d99e1755fb6f9", "fusion_lon": 0.0, "fusion_lat": 0.0, "type": "electric_scooter", "lon": -77.05049083333333}, {"rental_uris": {"android": "https://dc.lft.to/lastmile_qr_scan", "ios": "https://dc.lft.to/lastmile_qr_scan"}, "is_reserved": 0, "is_disabled": 0, "bike_id": "a6de0f23a40438359cd37e3cba35382a", "lat": 38.90249583333333, "name": "a6de0f23a40438359cd37e3cba35382a", "fusion_lon": 0.0, "fusion_lat": 0.0, "type": "electric_scooter", "lon": -77.04536866666666}, {"rental_uris": {"android": "https://dc.lft.to/lastmile_qr_scan", "ios": "https://dc.lft.to/lastmile_qr_scan"}, "is_reserved": 0, "is_disabled": 0, "bike_id": "b2b4586907e864e6294442a50f00c882", "lat": 38.8279155, "name": "b2b4586907e864e6294442a50f00c882", "fusion_lon": 0.0, "fusion_lat": 0.0, "type": "electric_bike", "lon": -77.00915116666667}, {"rental_uris": {"android": "https://dc.lft.to/lastmile_qr_scan", "ios": "https://dc.lft.to/lastmile_qr_scan"}, "is_reserved": 0, "is_disabled": 0, "bike_id": "878de0e7780e06c2e62fbd3b9fe4650b", "lat": 38.887743666666665, "name": "878de0e7780e06c2e62fbd3b9fe4650b", "fusion_lon": 0.0, "fusion_lat": 0.0, "type": "electric_scooter", "lon": -77.0284555}, {"rental_uris": {"android": "https://dc.lft.to/lastmile_qr_scan", "ios": "https://dc.lft.to/lastmile_qr_scan"}, "is_reserved": 0, "is_disabled": 0, "bike_id": "988a57050db804280f83b5490ed89843", "lat": 38.91610933333333, "name": "988a57050db804280f83b5490ed89843", "fusion_lon": 0.0, "fusion_lat": 0.0, "type": "electric_scooter", "lon": -77.03307683333334}, {"rental_uris": {"android": "https://dc.lft.to/lastmile_qr_scan", "ios": "https://dc.lft.to/lastmile_qr_scan"}, "is_reserved": 0, "is_disabled": 0, "bike_id": "4bc6ef8f4f6b4c0e2b60a64d73bcfbf9", "lat": 38.8950475, "name": "4bc6ef8f4f6b4c0e2b60a64d73bcfbf9", "fusion_lon": 0.0, "fusion_lat": 0.0, "type": "electric_scooter", "lon": -77.00332916666666}, {"rental_uris": {"android": "https://dc.lft.to/lastmile_qr_scan", "ios": "https://dc.lft.to/lastmile_qr_scan"}, "is_reserved": 0, "is_disabled": 0, "bike_id": "bbf3e644febe4c290b3ac38992d38cec", "lat": 38.8874955, "name": "bbf3e644febe4c290b3ac38992d38cec", "fusion_lon": 0.0, "fusion_lat": 0.0, "type": "electric_scooter", "lon": -77.02846933333333}, {"rental_uris": {"android": "https://dc.lft.to/lastmile_qr_scan", "ios": "https://dc.lft.to/lastmile_qr_scan"}, "is_reserved": 0, "is_disabled": 0, "bike_id": "1e11f787de9811f0f7013dc3d67f3772", "lat": 38.89626416666667, "name": "1e11f787de9811f0f7013dc3d67f3772", "fusion_lon": 0.0, "fusion_lat": 0.0, "type": "electric_scooter", "lon": -77.02068616666666}, {"rental_uris": {"android": "https://dc.lft.to/lastmile_qr_scan", "ios": "https://dc.lft.to/lastmile_qr_scan"}, "is_reserved": 0, "is_disabled": 0, "bike_id": "66c85f4f8bda0630a1c662eb3427214f", "lat": 38.90259183333333, "name": "66c85f4f8bda0630a1c662eb3427214f", "fusion_lon": 0.0, "fusion_lat": 0.0, "type": "electric_scooter", "lon": -77.0265295}, {"rental_uris": {"android": "https://dc.lft.to/lastmile_qr_scan", "ios": "https://dc.lft.to/lastmile_qr_scan"}, "is_reserved": 0, "is_disabled": 0, "bike_id": "748bce339a28e310973d872de28c9c95", "lat": 38.927452, "name": "748bce339a28e310973d872de28c9c95", "fusion_lon": 0.0, "fusion_lat": 0.0, "type": "electric_scooter", "lon": -77.036375}, {"rental_uris": {"android": "https://dc.lft.to/lastmile_qr_scan", "ios": "https://dc.lft.to/lastmile_qr_scan"}, "is_reserved": 0, "is_disabled": 0, "bike_id": "4cd2397b37b514d5841078d2a4b10425", "lat": 38.9190225, "name": "4cd2397b37b514d5841078d2a4b10425", "fusion_lon": 0.0, "fusion_lat": 0.0, "type": "electric_scooter", "lon": -77.02132266666666}, {"rental_uris": {"android": "https://dc.lft.to/lastmile_qr_scan", "ios": "https://dc.lft.to/lastmile_qr_scan"}, "is_reserved": 0, "is_disabled": 0, "bike_id": "1052471fc1cbf6f2f6b8ec996bf6eab4", "lat": 39.05284316666667, "name": "1052471fc1cbf6f2f6b8ec996bf6eab4", "fusion_lon": 0.0, "fusion_lat": 0.0, "type": "electric_bike", "lon": -77.08069516666667}, {"rental_uris": {"android": "https://dc.lft.to/lastmile_qr_scan", "ios": "https://dc.lft.to/lastmile_qr_scan"}, "is_reserved": 0, "is_disabled": 0, "bike_id": "144242291e5015de86918a302162f6ea", "lat": 38.903831333333336, "name": "144242291e5015de86918a302162f6ea", "fusion_lon": 0.0, "fusion_lat": 0.0, "type": "electric_scooter", "lon": -77.06516533333334}, {"rental_uris": {"android": "https://dc.lft.to/lastmile_qr_scan", "ios": "https://dc.lft.to/lastmile_qr_scan"}, "is_reserved": 0, "is_disabled": 0, "bike_id": "6c7a50b1b0ad6af19224f9858f070af0", "lat": 38.9049575, "name": "6c7a50b1b0ad6af19224f9858f070af0", "fusion_lon": 0.0, "fusion_lat": 0.0, "type": "electric_scooter", "lon": -76.99832016666667}, {"rental_uris": {"android": "https://dc.lft.to/lastmile_qr_scan", "ios": "https://dc.lft.to/lastmile_qr_scan"}, "is_reserved": 0, "is_disabled": 0, "bike_id": "7b99a9c411ad1c42e7d48ca264da5252", "lat": 38.89852283333333, "name": "7b99a9c411ad1c42e7d48ca264da5252", "fusion_lon": 0.0, "fusion_lat": 0.0, "type": "electric_scooter", "lon": -77.03332616666667}, {"rental_uris": {"android": "https://dc.lft.to/lastmile_qr_scan", "ios": "https://dc.lft.to/lastmile_qr_scan"}, "is_reserved": 0, "is_disabled": 0, "bike_id": "9e42771699cf5b2665936a9d4ddb1711", "lat": 38.922576666666664, "name": "9e42771699cf5b2665936a9d4ddb1711", "fusion_lon": 0.0, "fusion_lat": 0.0, "type": "electric_scooter", "lon": -77.02348166666667}, {"rental_uris": {"android": "https://dc.lft.to/lastmile_qr_scan", "ios": "https://dc.lft.to/lastmile_qr_scan"}, "is_reserved": 0, "is_disabled": 0, "bike_id": "b9d6afa20961fcd6185186999f654dd6", "lat": 38.957827333333334, "name": "b9d6afa20961fcd6185186999f654dd6", "fusion_lon": 0.0, "fusion_lat": 0.0, "type": "electric_bike", "lon": -77.02756066666667}, {"rental_uris": {"android": "https://dc.lft.to/lastmile_qr_scan", "ios": "https://dc.lft.to/lastmile_qr_scan"}, "is_reserved": 0, "is_disabled": 0, "bike_id": "e2acdefe553d2def100dd21abe47a7d8", "lat": 38.866990333333334, "name": "e2acdefe553d2def100dd21abe47a7d8", "fusion_lon": 0.0, "fusion_lat": 0.0, "type": "electric_scooter", "lon": -76.98714766666667}, {"rental_uris": {"android": "https://dc.lft.to/lastmile_qr_scan", "ios": "https://dc.lft.to/lastmile_qr_scan"}, "is_reserved": 0, "is_disabled": 0, "bike_id": "a2116d799d1afe4ba3a021743cde749f", "lat": 38.907097, "name": "a2116d799d1afe4ba3a021743cde749f", "fusion_lon": 0.0, "fusion_lat": 0.0, "type": "electric_scooter", "lon": -77.02398866666667}, {"rental_uris": {"android": "https://dc.lft.to/lastmile_qr_scan", "ios": "https://dc.lft.to/lastmile_qr_scan"}, "is_reserved": 0, "is_disabled": 0, "bike_id": "93b08571dd28faca39d215bbd71bcac0", "lat": 38.900212833333335, "name": "93b08571dd28faca39d215bbd71bcac0", "fusion_lon": 0.0, "fusion_lat": 0.0, "type": "electric_scooter", "lon": -77.03045183333333}, {"rental_uris": {"android": "https://dc.lft.to/lastmile_qr_scan", "ios": "https://dc.lft.to/lastmile_qr_scan"}, "is_reserved": 0, "is_disabled": 0, "bike_id": "887bf2bd8536cf143ece99d71e34dd26", "lat": 38.90106, "name": "887bf2bd8536cf143ece99d71e34dd26", "fusion_lon": 0.0, "fusion_lat": 0.0, "type": "electric_scooter", "lon": -77.0449025}, {"rental_uris": {"android": "https://dc.lft.to/lastmile_qr_scan", "ios": "https://dc.lft.to/lastmile_qr_scan"}, "is_reserved": 0, "is_disabled": 0, "bike_id": "edcfa58483803f79443dc01dea22b562", "lat": 38.9000375, "name": "edcfa58483803f79443dc01dea22b562", "fusion_lon": 0.0, "fusion_lat": 0.0, "type": "electric_scooter", "lon": -77.02924966666667}, {"rental_uris": {"android": "https://dc.lft.to/lastmile_qr_scan", "ios": "https://dc.lft.to/lastmile_qr_scan"}, "is_reserved": 0, "is_disabled": 0, "bike_id": "25c15cc61d232ac099fbe27bc67eb24b", "lat": 38.8869775, "name": "25c15cc61d232ac099fbe27bc67eb24b", "fusion_lon": 0.0, "fusion_lat": 0.0, "type": "electric_scooter", "lon": -76.99686}, {"rental_uris": {"android": "https://dc.lft.to/lastmile_qr_scan", "ios": "https://dc.lft.to/lastmile_qr_scan"}, "is_reserved": 0, "is_disabled": 0, "bike_id": "d42483711fe421da762a8a32f06a48d6", "lat": 38.891048166666664, "name": "d42483711fe421da762a8a32f06a48d6", "fusion_lon": 0.0, "fusion_lat": 0.0, "type": "electric_scooter", "lon": -76.99965583333334}, {"rental_uris": {"android": "https://dc.lft.to/lastmile_qr_scan", "ios": "https://dc.lft.to/lastmile_qr_scan"}, "is_reserved": 0, "is_disabled": 0, "bike_id": "1df45ddc7e39b77fd7f6f6d3cbf0c0a7", "lat": 38.931035333333334, "name": "1df45ddc7e39b77fd7f6f6d3cbf0c0a7", "fusion_lon": 0.0, "fusion_lat": 0.0, "type": "electric_scooter", "lon": -77.038083}, {"rental_uris": {"android": "https://dc.lft.to/lastmile_qr_scan", "ios": "https://dc.lft.to/lastmile_qr_scan"}, "is_reserved": 0, "is_disabled": 0, "bike_id": "d8ce8cfe94478d1c20fe10e42eb3816b", "lat": 38.926789666666664, "name": "d8ce8cfe94478d1c20fe10e42eb3816b", "fusion_lon": 0.0, "fusion_lat": 0.0, "type": "electric_scooter", "lon": -77.01468333333334}, {"rental_uris": {"android": "https://dc.lft.to/lastmile_qr_scan", "ios": "https://dc.lft.to/lastmile_qr_scan"}, "is_reserved": 0, "is_disabled": 0, "bike_id": "56ffd83edd4ffaffa7f94c1c5d0378b6", "lat": 38.89229016666667, "name": "56ffd83edd4ffaffa7f94c1c5d0378b6", "fusion_lon": 0.0, "fusion_lat": 0.0, "type": "electric_scooter", "lon": -77.0277875}, {"rental_uris": {"android": "https://dc.lft.to/lastmile_qr_scan", "ios": "https://dc.lft.to/lastmile_qr_scan"}, "is_reserved": 0, "is_disabled": 0, "bike_id": "e067ad02992d3721e962911cb2805420", "lat": 38.891676833333335, "name": "e067ad02992d3721e962911cb2805420", "fusion_lon": 0.0, "fusion_lat": 0.0, "type": "electric_scooter", "lon": -76.95182483333333}, {"rental_uris": {"android": "https://dc.lft.to/lastmile_qr_scan", "ios": "https://dc.lft.to/lastmile_qr_scan"}, "is_reserved": 0, "is_disabled": 0, "bike_id": "c44eb69c35aa55cab18b951da321e797", "lat": 38.96250716666667, "name": "c44eb69c35aa55cab18b951da321e797", "fusion_lon": 0.0, "fusion_lat": 0.0, "type": "electric_scooter", "lon": -77.0335315}, {"rental_uris": {"android": "https://dc.lft.to/lastmile_qr_scan", "ios": "https://dc.lft.to/lastmile_qr_scan"}, "is_reserved": 0, "is_disabled": 0, "bike_id": "7bd735cf2166ce98a4911f72071ab1c7", "lat": 38.913497, "name": "7bd735cf2166ce98a4911f72071ab1c7", "fusion_lon": 0.0, "fusion_lat": 0.0, "type": "electric_scooter", "lon": -77.03185083333334}, {"rental_uris": {"android": "https://dc.lft.to/lastmile_qr_scan", "ios": "https://dc.lft.to/lastmile_qr_scan"}, "is_reserved": 0, "is_disabled": 0, "bike_id": "0b525515896e5988f23b2ae72e944fcf", "lat": 38.895627166666664, "name": "0b525515896e5988f23b2ae72e944fcf", "fusion_lon": 0.0, "fusion_lat": 0.0, "type": "electric_scooter", "lon": -77.04676983333333}, {"rental_uris": {"android": "https://dc.lft.to/lastmile_qr_scan", "ios": "https://dc.lft.to/lastmile_qr_scan"}, "is_reserved": 0, "is_disabled": 0, "bike_id": "3db0ce327db4072b457b4f3fcec1dd66", "lat": 38.924708333333335, "name": "3db0ce327db4072b457b4f3fcec1dd66", "fusion_lon": 0.0, "fusion_lat": 0.0, "type": "electric_scooter", "lon": -77.0220515}, {"rental_uris": {"android": "https://dc.lft.to/lastmile_qr_scan", "ios": "https://dc.lft.to/lastmile_qr_scan"}, "is_reserved": 0, "is_disabled": 0, "bike_id": "10fccbe25d84c10dabeff42e3468b7af", "lat": 38.917052, "name": "10fccbe25d84c10dabeff42e3468b7af", "fusion_lon": 0.0, "fusion_lat": 0.0, "type": "electric_scooter", "lon": -77.00967483333334}, {"rental_uris": {"android": "https://dc.lft.to/lastmile_qr_scan", "ios": "https://dc.lft.to/lastmile_qr_scan"}, "is_reserved": 0, "is_disabled": 0, "bike_id": "763f7bad8ac275f2c0be584718bb74f7", "lat": 38.90985083333333, "name": "763f7bad8ac275f2c0be584718bb74f7", "fusion_lon": 0.0, "fusion_lat": 0.0, "type": "electric_scooter", "lon": -77.00534633333334}, {"rental_uris": {"android": "https://dc.lft.to/lastmile_qr_scan", "ios": "https://dc.lft.to/lastmile_qr_scan"}, "is_reserved": 0, "is_disabled": 0, "bike_id": "2ed22913193d85b152b68cd4c4df2032", "lat": 38.973789333333336, "name": "2ed22913193d85b152b68cd4c4df2032", "fusion_lon": 0.0, "fusion_lat": 0.0, "type": "electric_bike", "lon": -77.01816083333334}, {"rental_uris": {"android": "https://dc.lft.to/lastmile_qr_scan", "ios": "https://dc.lft.to/lastmile_qr_scan"}, "is_reserved": 0, "is_disabled": 0, "bike_id": "1be05d9e69044a056c1182b298cb7e1b", "lat": 38.86690983333333, "name": "1be05d9e69044a056c1182b298cb7e1b", "fusion_lon": 0.0, "fusion_lat": 0.0, "type": "electric_scooter", "lon": -76.98535016666666}, {"rental_uris": {"android": "https://dc.lft.to/lastmile_qr_scan", "ios": "https://dc.lft.to/lastmile_qr_scan"}, "is_reserved": 0, "is_disabled": 0, "bike_id": "b3c0590ff8a819ff814094f8f21859ed", "lat": 38.89767916666667, "name": "b3c0590ff8a819ff814094f8f21859ed", "fusion_lon": 0.0, "fusion_lat": 0.0, "type": "electric_scooter", "lon": -77.0547925}, {"rental_uris": {"android": "https://dc.lft.to/lastmile_qr_scan", "ios": "https://dc.lft.to/lastmile_qr_scan"}, "is_reserved": 0, "is_disabled": 0, "bike_id": "1e9ee1829c9b14f251aa408ab3e7fb5e", "lat": 38.91565833333333, "name": "1e9ee1829c9b14f251aa408ab3e7fb5e", "fusion_lon": 0.0, "fusion_lat": 0.0, "type": "electric_scooter", "lon": -77.03874583333334}, {"rental_uris": {"android": "https://dc.lft.to/lastmile_qr_scan", "ios": "https://dc.lft.to/lastmile_qr_scan"}, "is_reserved": 0, "is_disabled": 0, "bike_id": "550d569ac6dec364147d5573af8fb8a5", "lat": 38.8746635, "name": "550d569ac6dec364147d5573af8fb8a5", "fusion_lon": 0.0, "fusion_lat": 0.0, "type": "electric_scooter", "lon": -77.01596566666667}, {"rental_uris": {"android": "https://dc.lft.to/lastmile_qr_scan", "ios": "https://dc.lft.to/lastmile_qr_scan"}, "is_reserved": 0, "is_disabled": 0, "bike_id": "d118e4793464b92eca9d8579f1b15562", "lat": 38.897551, "name": "d118e4793464b92eca9d8579f1b15562", "fusion_lon": 0.0, "fusion_lat": 0.0, "type": "electric_scooter", "lon": -77.026794}, {"rental_uris": {"android": "https://dc.lft.to/lastmile_qr_scan", "ios": "https://dc.lft.to/lastmile_qr_scan"}, "is_reserved": 0, "is_disabled": 0, "bike_id": "038b427126ddb4e2ed4ed389f7f03365", "lat": 38.880456, "name": "038b427126ddb4e2ed4ed389f7f03365", "fusion_lon": 0.0, "fusion_lat": 0.0, "type": "electric_scooter", "lon": -77.00487083333333}, {"rental_uris": {"android": "https://dc.lft.to/lastmile_qr_scan", "ios": "https://dc.lft.to/lastmile_qr_scan"}, "is_reserved": 0, "is_disabled": 0, "bike_id": "3624d41231b95852450fd27df118e7a4", "lat": 38.88522, "name": "3624d41231b95852450fd27df118e7a4", "fusion_lon": 0.0, "fusion_lat": 0.0, "type": "electric_scooter", "lon": -76.97714816666667}, {"rental_uris": {"android": "https://dc.lft.to/lastmile_qr_scan", "ios": "https://dc.lft.to/lastmile_qr_scan"}, "is_reserved": 0, "is_disabled": 0, "bike_id": "bdb60226f0321db152aac8db82d6a9ba", "lat": 38.89618433333333, "name": "bdb60226f0321db152aac8db82d6a9ba", "fusion_lon": 0.0, "fusion_lat": 0.0, "type": "electric_bike", "lon": -76.90744916666667}, {"rental_uris": {"android": "https://dc.lft.to/lastmile_qr_scan", "ios": "https://dc.lft.to/lastmile_qr_scan"}, "is_reserved": 0, "is_disabled": 0, "bike_id": "a926690f62f6d4ac8ca4d5b5ac396456", "lat": 38.92815783333333, "name": "a926690f62f6d4ac8ca4d5b5ac396456", "fusion_lon": 0.0, "fusion_lat": 0.0, "type": "electric_scooter", "lon": -77.026665}, {"rental_uris": {"android": "https://dc.lft.to/lastmile_qr_scan", "ios": "https://dc.lft.to/lastmile_qr_scan"}, "is_reserved": 0, "is_disabled": 0, "bike_id": "95d13c0407d9ae11ab0dfeb86259035d", "lat": 38.91186883333334, "name": "95d13c0407d9ae11ab0dfeb86259035d", "fusion_lon": 0.0, "fusion_lat": 0.0, "type": "electric_scooter", "lon": -77.0416915}, {"rental_uris": {"android": "https://dc.lft.to/lastmile_qr_scan", "ios": "https://dc.lft.to/lastmile_qr_scan"}, "is_reserved": 0, "is_disabled": 0, "bike_id": "65a52aa3fded37c18cd2010ba7e1073b", "lat": 38.89608833333333, "name": "65a52aa3fded37c18cd2010ba7e1073b", "fusion_lon": 0.0, "fusion_lat": 0.0, "type": "electric_scooter", "lon": -76.992753}, {"rental_uris": {"android": "https://dc.lft.to/lastmile_qr_scan", "ios": "https://dc.lft.to/lastmile_qr_scan"}, "is_reserved": 0, "is_disabled": 0, "bike_id": "485c5ec2b6a7b02bb7408df9c70cbf7e", "lat": 38.89995366666667, "name": "485c5ec2b6a7b02bb7408df9c70cbf7e", "fusion_lon": 0.0, "fusion_lat": 0.0, "type": "electric_scooter", "lon": -77.02889583333334}, {"rental_uris": {"android": "https://dc.lft.to/lastmile_qr_scan", "ios": "https://dc.lft.to/lastmile_qr_scan"}, "is_reserved": 0, "is_disabled": 0, "bike_id": "35f28d2ba45a16b7918bcf211c0b3c74", "lat": 38.89034233333334, "name": "35f28d2ba45a16b7918bcf211c0b3c74", "fusion_lon": 0.0, "fusion_lat": 0.0, "type": "electric_scooter", "lon": -76.93762483333333}, {"rental_uris": {"android": "https://dc.lft.to/lastmile_qr_scan", "ios": "https://dc.lft.to/lastmile_qr_scan"}, "is_reserved": 0, "is_disabled": 0, "bike_id": "e18f8b386191bc8723893bb3f0745440", "lat": 38.91437066666667, "name": "e18f8b386191bc8723893bb3f0745440", "fusion_lon": 0.0, "fusion_lat": 0.0, "type": "electric_scooter", "lon": -77.022069}, {"rental_uris": {"android": "https://dc.lft.to/lastmile_qr_scan", "ios": "https://dc.lft.to/lastmile_qr_scan"}, "is_reserved": 0, "is_disabled": 0, "bike_id": "572c2c2161689afc6e54efe3403dec2b", "lat": 38.89172083333333, "name": "572c2c2161689afc6e54efe3403dec2b", "fusion_lon": 0.0, "fusion_lat": 0.0, "type": "electric_scooter", "lon": -77.01546716666667}, {"rental_uris": {"android": "https://dc.lft.to/lastmile_qr_scan", "ios": "https://dc.lft.to/lastmile_qr_scan"}, "is_reserved": 0, "is_disabled": 0, "bike_id": "63246a631294e29a5975f4697ed37bf9", "lat": 38.90415866666667, "name": "63246a631294e29a5975f4697ed37bf9", "fusion_lon": 0.0, "fusion_lat": 0.0, "type": "electric_scooter", "lon": -77.046693}, {"rental_uris": {"android": "https://dc.lft.to/lastmile_qr_scan", "ios": "https://dc.lft.to/lastmile_qr_scan"}, "is_reserved": 0, "is_disabled": 0, "bike_id": "2a3f2c01206728902fd873ca065c530a", "lat": 38.9371695, "name": "2a3f2c01206728902fd873ca065c530a", "fusion_lon": 0.0, "fusion_lat": 0.0, "type": "electric_scooter", "lon": -77.0569745}, {"rental_uris": {"android": "https://dc.lft.to/lastmile_qr_scan", "ios": "https://dc.lft.to/lastmile_qr_scan"}, "is_reserved": 0, "is_disabled": 0, "bike_id": "15d6a945d6238b8e9ecfb655d49dc794", "lat": 38.92878183333333, "name": "15d6a945d6238b8e9ecfb655d49dc794", "fusion_lon": 0.0, "fusion_lat": 0.0, "type": "electric_scooter", "lon": -77.01363016666667}, {"rental_uris": {"android": "https://dc.lft.to/lastmile_qr_scan", "ios": "https://dc.lft.to/lastmile_qr_scan"}, "is_reserved": 0, "is_disabled": 0, "bike_id": "2442dd3a640538bad6b6bc2439079683", "lat": 38.901571833333335, "name": "2442dd3a640538bad6b6bc2439079683", "fusion_lon": 0.0, "fusion_lat": 0.0, "type": "electric_scooter", "lon": -77.039735}, {"rental_uris": {"android": "https://dc.lft.to/lastmile_qr_scan", "ios": "https://dc.lft.to/lastmile_qr_scan"}, "is_reserved": 0, "is_disabled": 0, "bike_id": "563854bbd5fe8d14092b9e7c0a759322", "lat": 38.918112, "name": "563854bbd5fe8d14092b9e7c0a759322", "fusion_lon": 0.0, "fusion_lat": 0.0, "type": "electric_scooter", "lon": -77.0249475}, {"rental_uris": {"android": "https://dc.lft.to/lastmile_qr_scan", "ios": "https://dc.lft.to/lastmile_qr_scan"}, "is_reserved": 0, "is_disabled": 0, "bike_id": "f0d3be96b2a9dd5f4ee95d015c9245cc", "lat": 38.903756333333334, "name": "f0d3be96b2a9dd5f4ee95d015c9245cc", "fusion_lon": 0.0, "fusion_lat": 0.0, "type": "electric_scooter", "lon": -77.01646566666666}, {"rental_uris": {"android": "https://dc.lft.to/lastmile_qr_scan", "ios": "https://dc.lft.to/lastmile_qr_scan"}, "is_reserved": 0, "is_disabled": 0, "bike_id": "47132439738aa5cf147b91e7e884db79", "lat": 38.90727183333333, "name": "47132439738aa5cf147b91e7e884db79", "fusion_lon": 0.0, "fusion_lat": 0.0, "type": "electric_scooter", "lon": -77.0296095}, {"rental_uris": {"android": "https://dc.lft.to/lastmile_qr_scan", "ios": "https://dc.lft.to/lastmile_qr_scan"}, "is_reserved": 0, "is_disabled": 0, "bike_id": "d401e7011c2e796e5bc3a9192e6b64c6", "lat": 38.905089, "name": "d401e7011c2e796e5bc3a9192e6b64c6", "fusion_lon": 0.0, "fusion_lat": 0.0, "type": "electric_scooter", "lon": -77.06381466666667}, {"rental_uris": {"android": "https://dc.lft.to/lastmile_qr_scan", "ios": "https://dc.lft.to/lastmile_qr_scan"}, "is_reserved": 0, "is_disabled": 0, "bike_id": "5c66d82d182caba9f479f788c6036f3b", "lat": 38.91587233333333, "name": "5c66d82d182caba9f479f788c6036f3b", "fusion_lon": 0.0, "fusion_lat": 0.0, "type": "electric_scooter", "lon": -77.031884}, {"rental_uris": {"android": "https://dc.lft.to/lastmile_qr_scan", "ios": "https://dc.lft.to/lastmile_qr_scan"}, "is_reserved": 0, "is_disabled": 0, "bike_id": "b6ac186ff17ed75f29408fea983f19b0", "lat": 38.915706166666666, "name": "b6ac186ff17ed75f29408fea983f19b0", "fusion_lon": 0.0, "fusion_lat": 0.0, "type": "electric_scooter", "lon": -77.04645483333333}, {"rental_uris": {"android": "https://dc.lft.to/lastmile_qr_scan", "ios": "https://dc.lft.to/lastmile_qr_scan"}, "is_reserved": 0, "is_disabled": 0, "bike_id": "cb857e74cc7fabb9ab046760fa97c7c7", "lat": 39.04305083333333, "name": "cb857e74cc7fabb9ab046760fa97c7c7", "fusion_lon": 0.0, "fusion_lat": 0.0, "type": "electric_bike", "lon": -77.05160133333334}, {"rental_uris": {"android": "https://dc.lft.to/lastmile_qr_scan", "ios": "https://dc.lft.to/lastmile_qr_scan"}, "is_reserved": 0, "is_disabled": 0, "bike_id": "f6d301f73dff62669aa841e7ba2bd84d", "lat": 38.89223716666667, "name": "f6d301f73dff62669aa841e7ba2bd84d", "fusion_lon": 0.0, "fusion_lat": 0.0, "type": "electric_scooter", "lon": -77.01491866666667}, {"rental_uris": {"android": "https://dc.lft.to/lastmile_qr_scan", "ios": "https://dc.lft.to/lastmile_qr_scan"}, "is_reserved": 0, "is_disabled": 0, "bike_id": "f3a35c7a768951d725a96dc08cedaca4", "lat": 38.9237515, "name": "f3a35c7a768951d725a96dc08cedaca4", "fusion_lon": 0.0, "fusion_lat": 0.0, "type": "electric_scooter", "lon": -77.019132}, {"rental_uris": {"android": "https://dc.lft.to/lastmile_qr_scan", "ios": "https://dc.lft.to/lastmile_qr_scan"}, "is_reserved": 0, "is_disabled": 0, "bike_id": "5e49e04486dad9a98ffa2669e652bba6", "lat": 38.900959666666665, "name": "5e49e04486dad9a98ffa2669e652bba6", "fusion_lon": 0.0, "fusion_lat": 0.0, "type": "electric_scooter", "lon": -77.047585}, {"rental_uris": {"android": "https://dc.lft.to/lastmile_qr_scan", "ios": "https://dc.lft.to/lastmile_qr_scan"}, "is_reserved": 0, "is_disabled": 0, "bike_id": "f4d22c92a2b3b0b58606353531190c30", "lat": 38.89198733333333, "name": "f4d22c92a2b3b0b58606353531190c30", "fusion_lon": 0.0, "fusion_lat": 0.0, "type": "electric_scooter", "lon": -76.933038}, {"rental_uris": {"android": "https://dc.lft.to/lastmile_qr_scan", "ios": "https://dc.lft.to/lastmile_qr_scan"}, "is_reserved": 0, "is_disabled": 0, "bike_id": "4042332fd58aee7d10e48d009e0468c1", "lat": 38.931174666666664, "name": "4042332fd58aee7d10e48d009e0468c1", "fusion_lon": 0.0, "fusion_lat": 0.0, "type": "electric_scooter", "lon": -77.03798916666666}, {"rental_uris": {"android": "https://dc.lft.to/lastmile_qr_scan", "ios": "https://dc.lft.to/lastmile_qr_scan"}, "is_reserved": 0, "is_disabled": 0, "bike_id": "29cf5f93613635f9e8da91059d87ad04", "lat": 38.911677166666664, "name": "29cf5f93613635f9e8da91059d87ad04", "fusion_lon": 0.0, "fusion_lat": 0.0, "type": "electric_scooter", "lon": -77.03200033333333}, {"rental_uris": {"android": "https://dc.lft.to/lastmile_qr_scan", "ios": "https://dc.lft.to/lastmile_qr_scan"}, "is_reserved": 0, "is_disabled": 0, "bike_id": "445f602e5020dcf237ab6ef9d7739e3f", "lat": 38.901333, "name": "445f602e5020dcf237ab6ef9d7739e3f", "fusion_lon": 0.0, "fusion_lat": 0.0, "type": "electric_scooter", "lon": -77.03184}, {"rental_uris": {"android": "https://dc.lft.to/lastmile_qr_scan", "ios": "https://dc.lft.to/lastmile_qr_scan"}, "is_reserved": 0, "is_disabled": 0, "bike_id": "f4b098f061585a73d896cf2b5fc7aef5", "lat": 38.917113, "name": "f4b098f061585a73d896cf2b5fc7aef5", "fusion_lon": 0.0, "fusion_lat": 0.0, "type": "electric_scooter", "lon": -77.03867816666667}, {"rental_uris": {"android": "https://dc.lft.to/lastmile_qr_scan", "ios": "https://dc.lft.to/lastmile_qr_scan"}, "is_reserved": 0, "is_disabled": 0, "bike_id": "4909e9dd5fd2019de38166fb47849d32", "lat": 38.938795666666664, "name": "4909e9dd5fd2019de38166fb47849d32", "fusion_lon": 0.0, "fusion_lat": 0.0, "type": "electric_scooter", "lon": -77.02466783333334}, {"rental_uris": {"android": "https://dc.lft.to/lastmile_qr_scan", "ios": "https://dc.lft.to/lastmile_qr_scan"}, "is_reserved": 0, "is_disabled": 0, "bike_id": "d033b48a25f791ad50f79e2a03191ba1", "lat": 38.90559016666667, "name": "d033b48a25f791ad50f79e2a03191ba1", "fusion_lon": 0.0, "fusion_lat": 0.0, "type": "electric_scooter", "lon": -77.050151}, {"rental_uris": {"android": "https://dc.lft.to/lastmile_qr_scan", "ios": "https://dc.lft.to/lastmile_qr_scan"}, "is_reserved": 0, "is_disabled": 0, "bike_id": "bde2c088ef1c44ebb529bf5326d8cd9f", "lat": 38.91596, "name": "bde2c088ef1c44ebb529bf5326d8cd9f", "fusion_lon": 0.0, "fusion_lat": 0.0, "type": "electric_scooter", "lon": -77.05575366666666}, {"rental_uris": {"android": "https://dc.lft.to/lastmile_qr_scan", "ios": "https://dc.lft.to/lastmile_qr_scan"}, "is_reserved": 0, "is_disabled": 0, "bike_id": "78b052a1e85d7a9c7a25f8404a89a596", "lat": 38.924258, "name": "78b052a1e85d7a9c7a25f8404a89a596", "fusion_lon": 0.0, "fusion_lat": 0.0, "type": "electric_scooter", "lon": -77.0224225}, {"rental_uris": {"android": "https://dc.lft.to/lastmile_qr_scan", "ios": "https://dc.lft.to/lastmile_qr_scan"}, "is_reserved": 0, "is_disabled": 0, "bike_id": "d6e9fc35934b1be10707d275f5fa74d3", "lat": 38.887078833333334, "name": "d6e9fc35934b1be10707d275f5fa74d3", "fusion_lon": 0.0, "fusion_lat": 0.0, "type": "electric_scooter", "lon": -77.01368766666667}, {"rental_uris": {"android": "https://dc.lft.to/lastmile_qr_scan", "ios": "https://dc.lft.to/lastmile_qr_scan"}, "is_reserved": 0, "is_disabled": 0, "bike_id": "10610be3b4dd23ea8e7f59846687568d", "lat": 38.905340333333335, "name": "10610be3b4dd23ea8e7f59846687568d", "fusion_lon": 0.0, "fusion_lat": 0.0, "type": "electric_scooter", "lon": -77.0417935}, {"rental_uris": {"android": "https://dc.lft.to/lastmile_qr_scan", "ios": "https://dc.lft.to/lastmile_qr_scan"}, "is_reserved": 0, "is_disabled": 0, "bike_id": "22208ad84bd469868a53ca9237a31c67", "lat": 38.896248666666665, "name": "22208ad84bd469868a53ca9237a31c67", "fusion_lon": 0.0, "fusion_lat": 0.0, "type": "electric_scooter", "lon": -77.01978383333334}, {"rental_uris": {"android": "https://dc.lft.to/lastmile_qr_scan", "ios": "https://dc.lft.to/lastmile_qr_scan"}, "is_reserved": 0, "is_disabled": 0, "bike_id": "9e1145d7415c171f2de228a1644fb41d", "lat": 38.8662255, "name": "9e1145d7415c171f2de228a1644fb41d", "fusion_lon": 0.0, "fusion_lat": 0.0, "type": "electric_bike", "lon": -76.9456905}, {"rental_uris": {"android": "https://dc.lft.to/lastmile_qr_scan", "ios": "https://dc.lft.to/lastmile_qr_scan"}, "is_reserved": 0, "is_disabled": 0, "bike_id": "aafe1e7bd2a90afa7a15d4985ab1b4ab", "lat": 38.8984545, "name": "aafe1e7bd2a90afa7a15d4985ab1b4ab", "fusion_lon": 0.0, "fusion_lat": 0.0, "type": "electric_scooter", "lon": -77.04106916666667}, {"rental_uris": {"android": "https://dc.lft.to/lastmile_qr_scan", "ios": "https://dc.lft.to/lastmile_qr_scan"}, "is_reserved": 0, "is_disabled": 0, "bike_id": "aca501008aa26f3a2f9b7cbf78e57ed1", "lat": 38.96324383333334, "name": "aca501008aa26f3a2f9b7cbf78e57ed1", "fusion_lon": 0.0, "fusion_lat": 0.0, "type": "electric_bike", "lon": -76.973624}, {"rental_uris": {"android": "https://dc.lft.to/lastmile_qr_scan", "ios": "https://dc.lft.to/lastmile_qr_scan"}, "is_reserved": 0, "is_disabled": 0, "bike_id": "2c8271099bee9397c6117982c8376705", "lat": 38.92586716666667, "name": "2c8271099bee9397c6117982c8376705", "fusion_lon": 0.0, "fusion_lat": 0.0, "type": "electric_scooter", "lon": -77.03987733333334}, {"rental_uris": {"android": "https://dc.lft.to/lastmile_qr_scan", "ios": "https://dc.lft.to/lastmile_qr_scan"}, "is_reserved": 0, "is_disabled": 0, "bike_id": "b0ac71622850e7d7f2eba6ce78f976bd", "lat": 38.9205425, "name": "b0ac71622850e7d7f2eba6ce78f976bd", "fusion_lon": 0.0, "fusion_lat": 0.0, "type": "electric_scooter", "lon": -77.0329445}, {"rental_uris": {"android": "https://dc.lft.to/lastmile_qr_scan", "ios": "https://dc.lft.to/lastmile_qr_scan"}, "is_reserved": 0, "is_disabled": 0, "bike_id": "db6580cfad1b726e9d102ab994822baf", "lat": 38.872476166666665, "name": "db6580cfad1b726e9d102ab994822baf", "fusion_lon": 0.0, "fusion_lat": 0.0, "type": "electric_scooter", "lon": -76.9773115}, {"rental_uris": {"android": "https://dc.lft.to/lastmile_qr_scan", "ios": "https://dc.lft.to/lastmile_qr_scan"}, "is_reserved": 0, "is_disabled": 0, "bike_id": "4bb3228c4f9205ba090f6f40bfb3f6b8", "lat": 38.919239, "name": "4bb3228c4f9205ba090f6f40bfb3f6b8", "fusion_lon": 0.0, "fusion_lat": 0.0, "type": "electric_scooter", "lon": -77.032192}, {"rental_uris": {"android": "https://dc.lft.to/lastmile_qr_scan", "ios": "https://dc.lft.to/lastmile_qr_scan"}, "is_reserved": 0, "is_disabled": 0, "bike_id": "e4717d3f6155286f38882b7810549201", "lat": 38.89229366666667, "name": "e4717d3f6155286f38882b7810549201", "fusion_lon": 0.0, "fusion_lat": 0.0, "type": "electric_scooter", "lon": -77.0238665}, {"rental_uris": {"android": "https://dc.lft.to/lastmile_qr_scan", "ios": "https://dc.lft.to/lastmile_qr_scan"}, "is_reserved": 0, "is_disabled": 0, "bike_id": "d9a2f58014605d69f7aceac8e69bfe6b", "lat": 38.87547583333333, "name": "d9a2f58014605d69f7aceac8e69bfe6b", "fusion_lon": 0.0, "fusion_lat": 0.0, "type": "electric_scooter", "lon": -77.005672}, {"rental_uris": {"android": "https://dc.lft.to/lastmile_qr_scan", "ios": "https://dc.lft.to/lastmile_qr_scan"}, "is_reserved": 0, "is_disabled": 0, "bike_id": "04c0d736723bf2ef6ec3ba74bd083a6d", "lat": 38.89324633333333, "name": "04c0d736723bf2ef6ec3ba74bd083a6d", "fusion_lon": 0.0, "fusion_lat": 0.0, "type": "electric_scooter", "lon": -77.04677333333333}, {"rental_uris": {"android": "https://dc.lft.to/lastmile_qr_scan", "ios": "https://dc.lft.to/lastmile_qr_scan"}, "is_reserved": 0, "is_disabled": 0, "bike_id": "4ecc1b47e7ac082e1649f8e7e9218ffb", "lat": 38.90592733333333, "name": "4ecc1b47e7ac082e1649f8e7e9218ffb", "fusion_lon": 0.0, "fusion_lat": 0.0, "type": "electric_scooter", "lon": -77.041134}, {"rental_uris": {"android": "https://dc.lft.to/lastmile_qr_scan", "ios": "https://dc.lft.to/lastmile_qr_scan"}, "is_reserved": 0, "is_disabled": 0, "bike_id": "34bd0252e38442c6a5b535cb59769361", "lat": 38.893549166666666, "name": "34bd0252e38442c6a5b535cb59769361", "fusion_lon": 0.0, "fusion_lat": 0.0, "type": "electric_scooter", "lon": -77.0221575}, {"rental_uris": {"android": "https://dc.lft.to/lastmile_qr_scan", "ios": "https://dc.lft.to/lastmile_qr_scan"}, "is_reserved": 0, "is_disabled": 0, "bike_id": "de7c524f238d42be72c470f61e0c11a0", "lat": 38.9268445, "name": "de7c524f238d42be72c470f61e0c11a0", "fusion_lon": 0.0, "fusion_lat": 0.0, "type": "electric_scooter", "lon": -77.02674633333334}, {"rental_uris": {"android": "https://dc.lft.to/lastmile_qr_scan", "ios": "https://dc.lft.to/lastmile_qr_scan"}, "is_reserved": 0, "is_disabled": 0, "bike_id": "aa6e2d66a5bdb5848ba5c58d1b45cc27", "lat": 38.88065983333333, "name": "aa6e2d66a5bdb5848ba5c58d1b45cc27", "fusion_lon": 0.0, "fusion_lat": 0.0, "type": "electric_scooter", "lon": -76.932175}, {"rental_uris": {"android": "https://dc.lft.to/lastmile_qr_scan", "ios": "https://dc.lft.to/lastmile_qr_scan"}, "is_reserved": 0, "is_disabled": 0, "bike_id": "24e1d7d3b564015c4c7ad33a2d4719ab", "lat": 38.9959425, "name": "24e1d7d3b564015c4c7ad33a2d4719ab", "fusion_lon": 0.0, "fusion_lat": 0.0, "type": "electric_scooter", "lon": -77.0319575}, {"rental_uris": {"android": "https://dc.lft.to/lastmile_qr_scan", "ios": "https://dc.lft.to/lastmile_qr_scan"}, "is_reserved": 0, "is_disabled": 0, "bike_id": "9efb18698d8d4efed385770b2f4c70a7", "lat": 38.893342, "name": "9efb18698d8d4efed385770b2f4c70a7", "fusion_lon": 0.0, "fusion_lat": 0.0, "type": "electric_scooter", "lon": -77.03206716666666}, {"rental_uris": {"android": "https://dc.lft.to/lastmile_qr_scan", "ios": "https://dc.lft.to/lastmile_qr_scan"}, "is_reserved": 0, "is_disabled": 0, "bike_id": "011b7654f9a2a19dcc7f4baf10ffde96", "lat": 38.917043166666666, "name": "011b7654f9a2a19dcc7f4baf10ffde96", "fusion_lon": 0.0, "fusion_lat": 0.0, "type": "electric_scooter", "lon": -77.00964483333334}, {"rental_uris": {"android": "https://dc.lft.to/lastmile_qr_scan", "ios": "https://dc.lft.to/lastmile_qr_scan"}, "is_reserved": 0, "is_disabled": 0, "bike_id": "5225864ce3db33328bdf0a6ce12b1031", "lat": 38.9079625, "name": "5225864ce3db33328bdf0a6ce12b1031", "fusion_lon": 0.0, "fusion_lat": 0.0, "type": "electric_scooter", "lon": -77.04360016666666}, {"rental_uris": {"android": "https://dc.lft.to/lastmile_qr_scan", "ios": "https://dc.lft.to/lastmile_qr_scan"}, "is_reserved": 0, "is_disabled": 0, "bike_id": "a6d45cd41950de62b5625b69becbed2a", "lat": 38.92614966666667, "name": "a6d45cd41950de62b5625b69becbed2a", "fusion_lon": 0.0, "fusion_lat": 0.0, "type": "electric_scooter", "lon": -77.0222215}, {"rental_uris": {"android": "https://dc.lft.to/lastmile_qr_scan", "ios": "https://dc.lft.to/lastmile_qr_scan"}, "is_reserved": 0, "is_disabled": 0, "bike_id": "3fb53428cda15b42b75f94238759287f", "lat": 39.047177833333336, "name": "3fb53428cda15b42b75f94238759287f", "fusion_lon": 0.0, "fusion_lat": 0.0, "type": "electric_bike", "lon": -77.043887}, {"rental_uris": {"android": "https://dc.lft.to/lastmile_qr_scan", "ios": "https://dc.lft.to/lastmile_qr_scan"}, "is_reserved": 0, "is_disabled": 0, "bike_id": "a3a28a0c1ac519bc01acfbdd8bce8874", "lat": 38.892875, "name": "a3a28a0c1ac519bc01acfbdd8bce8874", "fusion_lon": 0.0, "fusion_lat": 0.0, "type": "electric_scooter", "lon": -77.0138595}, {"rental_uris": {"android": "https://dc.lft.to/lastmile_qr_scan", "ios": "https://dc.lft.to/lastmile_qr_scan"}, "is_reserved": 0, "is_disabled": 0, "bike_id": "c5da7df3b9777d350c71dc6d4476aa58", "lat": 38.90274633333333, "name": "c5da7df3b9777d350c71dc6d4476aa58", "fusion_lon": 0.0, "fusion_lat": 0.0, "type": "electric_scooter", "lon": -77.06180416666666}, {"rental_uris": {"android": "https://dc.lft.to/lastmile_qr_scan", "ios": "https://dc.lft.to/lastmile_qr_scan"}, "is_reserved": 0, "is_disabled": 0, "bike_id": "5e14a0927264d7ac6c4727f1fd118299", "lat": 38.90569433333334, "name": "5e14a0927264d7ac6c4727f1fd118299", "fusion_lon": 0.0, "fusion_lat": 0.0, "type": "electric_scooter", "lon": -77.00573433333334}, {"rental_uris": {"android": "https://dc.lft.to/lastmile_qr_scan", "ios": "https://dc.lft.to/lastmile_qr_scan"}, "is_reserved": 0, "is_disabled": 0, "bike_id": "4f381a1af03aaf27c722799f73191284", "lat": 38.909393333333334, "name": "4f381a1af03aaf27c722799f73191284", "fusion_lon": 0.0, "fusion_lat": 0.0, "type": "electric_scooter", "lon": -77.0439565}, {"rental_uris": {"android": "https://dc.lft.to/lastmile_qr_scan", "ios": "https://dc.lft.to/lastmile_qr_scan"}, "is_reserved": 0, "is_disabled": 0, "bike_id": "76e99cc05c6eb0ace73d82a73e82def1", "lat": 38.921545333333334, "name": "76e99cc05c6eb0ace73d82a73e82def1", "fusion_lon": 0.0, "fusion_lat": 0.0, "type": "electric_scooter", "lon": -77.03441783333334}, {"rental_uris": {"android": "https://dc.lft.to/lastmile_qr_scan", "ios": "https://dc.lft.to/lastmile_qr_scan"}, "is_reserved": 0, "is_disabled": 0, "bike_id": "2f8515961c4e1822daa8e91e365ae272", "lat": 38.92571933333333, "name": "2f8515961c4e1822daa8e91e365ae272", "fusion_lon": 0.0, "fusion_lat": 0.0, "type": "electric_scooter", "lon": -77.02843816666666}, {"rental_uris": {"android": "https://dc.lft.to/lastmile_qr_scan", "ios": "https://dc.lft.to/lastmile_qr_scan"}, "is_reserved": 0, "is_disabled": 0, "bike_id": "29599ebee81357efe0e26fe12514555f", "lat": 38.8877355, "name": "29599ebee81357efe0e26fe12514555f", "fusion_lon": 0.0, "fusion_lat": 0.0, "type": "electric_scooter", "lon": -76.95574416666666}, {"rental_uris": {"android": "https://dc.lft.to/lastmile_qr_scan", "ios": "https://dc.lft.to/lastmile_qr_scan"}, "is_reserved": 0, "is_disabled": 0, "bike_id": "e8771fd89337971709d38f4bd158bf41", "lat": 38.92788916666667, "name": "e8771fd89337971709d38f4bd158bf41", "fusion_lon": 0.0, "fusion_lat": 0.0, "type": "electric_scooter", "lon": -77.0539685}, {"rental_uris": {"android": "https://dc.lft.to/lastmile_qr_scan", "ios": "https://dc.lft.to/lastmile_qr_scan"}, "is_reserved": 0, "is_disabled": 0, "bike_id": "c76de4a3787296d5acfb5bdb6947fce4", "lat": 38.925747, "name": "c76de4a3787296d5acfb5bdb6947fce4", "fusion_lon": 0.0, "fusion_lat": 0.0, "type": "electric_scooter", "lon": -77.02288416666667}, {"rental_uris": {"android": "https://dc.lft.to/lastmile_qr_scan", "ios": "https://dc.lft.to/lastmile_qr_scan"}, "is_reserved": 0, "is_disabled": 0, "bike_id": "fb0e07f9d44443df78567c2e2217503b", "lat": 38.92018633333333, "name": "fb0e07f9d44443df78567c2e2217503b", "fusion_lon": 0.0, "fusion_lat": 0.0, "type": "electric_scooter", "lon": -76.98547466666666}, {"rental_uris": {"android": "https://dc.lft.to/lastmile_qr_scan", "ios": "https://dc.lft.to/lastmile_qr_scan"}, "is_reserved": 0, "is_disabled": 0, "bike_id": "b19470ec5a0747719bf21cbe0a6b78db", "lat": 38.90983133333334, "name": "b19470ec5a0747719bf21cbe0a6b78db", "fusion_lon": 0.0, "fusion_lat": 0.0, "type": "electric_scooter", "lon": -77.00911133333334}, {"rental_uris": {"android": "https://dc.lft.to/lastmile_qr_scan", "ios": "https://dc.lft.to/lastmile_qr_scan"}, "is_reserved": 0, "is_disabled": 0, "bike_id": "114691ae08b9f586578ba0d703eb8252", "lat": 38.87729683333333, "name": "114691ae08b9f586578ba0d703eb8252", "fusion_lon": 0.0, "fusion_lat": 0.0, "type": "electric_bike", "lon": -76.981103}, {"rental_uris": {"android": "https://dc.lft.to/lastmile_qr_scan", "ios": "https://dc.lft.to/lastmile_qr_scan"}, "is_reserved": 0, "is_disabled": 0, "bike_id": "0ff3603eb9e90d9aff3913f1bf819c28", "lat": 38.8723065, "name": "0ff3603eb9e90d9aff3913f1bf819c28", "fusion_lon": 0.0, "fusion_lat": 0.0, "type": "electric_scooter", "lon": -77.01767566666666}, {"rental_uris": {"android": "https://dc.lft.to/lastmile_qr_scan", "ios": "https://dc.lft.to/lastmile_qr_scan"}, "is_reserved": 0, "is_disabled": 0, "bike_id": "46e302c1ba61ebc28eaef22dcfb82c06", "lat": 38.88379033333333, "name": "46e302c1ba61ebc28eaef22dcfb82c06", "fusion_lon": 0.0, "fusion_lat": 0.0, "type": "electric_scooter", "lon": -77.04605933333333}, {"rental_uris": {"android": "https://dc.lft.to/lastmile_qr_scan", "ios": "https://dc.lft.to/lastmile_qr_scan"}, "is_reserved": 0, "is_disabled": 0, "bike_id": "3759823bcacd106b4a5aedd0068e13be", "lat": 38.8739265, "name": "3759823bcacd106b4a5aedd0068e13be", "fusion_lon": 0.0, "fusion_lat": 0.0, "type": "electric_scooter", "lon": -77.00115033333333}, {"rental_uris": {"android": "https://dc.lft.to/lastmile_qr_scan", "ios": "https://dc.lft.to/lastmile_qr_scan"}, "is_reserved": 0, "is_disabled": 0, "bike_id": "0966d742396ea87b3df029c335e3180e", "lat": 38.871882, "name": "0966d742396ea87b3df029c335e3180e", "fusion_lon": 0.0, "fusion_lat": 0.0, "type": "electric_scooter", "lon": -77.00599533333333}, {"rental_uris": {"android": "https://dc.lft.to/lastmile_qr_scan", "ios": "https://dc.lft.to/lastmile_qr_scan"}, "is_reserved": 0, "is_disabled": 0, "bike_id": "c2e6362b821e4a65a600b78e79df29d5", "lat": 38.90708866666667, "name": "c2e6362b821e4a65a600b78e79df29d5", "fusion_lon": 0.0, "fusion_lat": 0.0, "type": "electric_scooter", "lon": -77.03587183333333}, {"rental_uris": {"android": "https://dc.lft.to/lastmile_qr_scan", "ios": "https://dc.lft.to/lastmile_qr_scan"}, "is_reserved": 0, "is_disabled": 0, "bike_id": "2ccce15e6b6677c724a97abb38385778", "lat": 38.89757516666667, "name": "2ccce15e6b6677c724a97abb38385778", "fusion_lon": 0.0, "fusion_lat": 0.0, "type": "electric_scooter", "lon": -77.02679683333334}, {"rental_uris": {"android": "https://dc.lft.to/lastmile_qr_scan", "ios": "https://dc.lft.to/lastmile_qr_scan"}, "is_reserved": 0, "is_disabled": 0, "bike_id": "11692f1d2d33269f373dee3d8e8f4467", "lat": 38.905274166666665, "name": "11692f1d2d33269f373dee3d8e8f4467", "fusion_lon": 0.0, "fusion_lat": 0.0, "type": "electric_scooter", "lon": -77.06378916666667}, {"rental_uris": {"android": "https://dc.lft.to/lastmile_qr_scan", "ios": "https://dc.lft.to/lastmile_qr_scan"}, "is_reserved": 0, "is_disabled": 0, "bike_id": "3b61ff02f5d3325de314365e95324c4a", "lat": 38.945304666666665, "name": "3b61ff02f5d3325de314365e95324c4a", "fusion_lon": 0.0, "fusion_lat": 0.0, "type": "electric_scooter", "lon": -77.01505666666667}, {"rental_uris": {"android": "https://dc.lft.to/lastmile_qr_scan", "ios": "https://dc.lft.to/lastmile_qr_scan"}, "is_reserved": 0, "is_disabled": 0, "bike_id": "73019916f9b0766f2817d27fb9fbc8ac", "lat": 38.8988365, "name": "73019916f9b0766f2817d27fb9fbc8ac", "fusion_lon": 0.0, "fusion_lat": 0.0, "type": "electric_scooter", "lon": -76.93175716666667}, {"rental_uris": {"android": "https://dc.lft.to/lastmile_qr_scan", "ios": "https://dc.lft.to/lastmile_qr_scan"}, "is_reserved": 0, "is_disabled": 0, "bike_id": "92f76c0c0845aaf2a22874b18f3ebeef", "lat": 38.909615333333335, "name": "92f76c0c0845aaf2a22874b18f3ebeef", "fusion_lon": 0.0, "fusion_lat": 0.0, "type": "electric_scooter", "lon": -77.03423883333333}, {"rental_uris": {"android": "https://dc.lft.to/lastmile_qr_scan", "ios": "https://dc.lft.to/lastmile_qr_scan"}, "is_reserved": 0, "is_disabled": 0, "bike_id": "00c92944f62d3adf43cef582b89acb89", "lat": 38.92443466666667, "name": "00c92944f62d3adf43cef582b89acb89", "fusion_lon": 0.0, "fusion_lat": 0.0, "type": "electric_scooter", "lon": -77.05215016666666}, {"rental_uris": {"android": "https://dc.lft.to/lastmile_qr_scan", "ios": "https://dc.lft.to/lastmile_qr_scan"}, "is_reserved": 0, "is_disabled": 0, "bike_id": "041854d53e0825039e5bcce72cf1d1ab", "lat": 38.92544433333333, "name": "041854d53e0825039e5bcce72cf1d1ab", "fusion_lon": 0.0, "fusion_lat": 0.0, "type": "electric_scooter", "lon": -77.05240566666667}, {"rental_uris": {"android": "https://dc.lft.to/lastmile_qr_scan", "ios": "https://dc.lft.to/lastmile_qr_scan"}, "is_reserved": 0, "is_disabled": 0, "bike_id": "bafcac521769d71eb5cdeba0617cacf7", "lat": 38.9342755, "name": "bafcac521769d71eb5cdeba0617cacf7", "fusion_lon": 0.0, "fusion_lat": 0.0, "type": "electric_scooter", "lon": -77.04007}, {"rental_uris": {"android": "https://dc.lft.to/lastmile_qr_scan", "ios": "https://dc.lft.to/lastmile_qr_scan"}, "is_reserved": 0, "is_disabled": 0, "bike_id": "1c4a68d5f38d6cba365960d06b6702cd", "lat": 38.918126, "name": "1c4a68d5f38d6cba365960d06b6702cd", "fusion_lon": 0.0, "fusion_lat": 0.0, "type": "electric_scooter", "lon": -77.0270305}, {"rental_uris": {"android": "https://dc.lft.to/lastmile_qr_scan", "ios": "https://dc.lft.to/lastmile_qr_scan"}, "is_reserved": 0, "is_disabled": 0, "bike_id": "87d1bbd1a6283c8608f128ba586c2692", "lat": 38.907783333333334, "name": "87d1bbd1a6283c8608f128ba586c2692", "fusion_lon": 0.0, "fusion_lat": 0.0, "type": "electric_scooter", "lon": -77.04375283333333}, {"rental_uris": {"android": "https://dc.lft.to/lastmile_qr_scan", "ios": "https://dc.lft.to/lastmile_qr_scan"}, "is_reserved": 0, "is_disabled": 0, "bike_id": "4689385e50db267009920a66996f152d", "lat": 38.9289935, "name": "4689385e50db267009920a66996f152d", "fusion_lon": 0.0, "fusion_lat": 0.0, "type": "electric_scooter", "lon": -77.00419283333333}, {"rental_uris": {"android": "https://dc.lft.to/lastmile_qr_scan", "ios": "https://dc.lft.to/lastmile_qr_scan"}, "is_reserved": 0, "is_disabled": 0, "bike_id": "33127f8490bd5e40ce02da7624ae7a58", "lat": 38.92095316666666, "name": "33127f8490bd5e40ce02da7624ae7a58", "fusion_lon": 0.0, "fusion_lat": 0.0, "type": "electric_scooter", "lon": -77.04387416666667}, {"rental_uris": {"android": "https://dc.lft.to/lastmile_qr_scan", "ios": "https://dc.lft.to/lastmile_qr_scan"}, "is_reserved": 0, "is_disabled": 0, "bike_id": "0a529a9dded97e61fa65e136d3dcffb7", "lat": 38.91698683333333, "name": "0a529a9dded97e61fa65e136d3dcffb7", "fusion_lon": 0.0, "fusion_lat": 0.0, "type": "electric_scooter", "lon": -77.02393466666666}, {"rental_uris": {"android": "https://dc.lft.to/lastmile_qr_scan", "ios": "https://dc.lft.to/lastmile_qr_scan"}, "is_reserved": 0, "is_disabled": 0, "bike_id": "8c6d2d935ce077668ab8f88e71e3c76c", "lat": 38.9100855, "name": "8c6d2d935ce077668ab8f88e71e3c76c", "fusion_lon": 0.0, "fusion_lat": 0.0, "type": "electric_scooter", "lon": -77.03851366666666}, {"rental_uris": {"android": "https://dc.lft.to/lastmile_qr_scan", "ios": "https://dc.lft.to/lastmile_qr_scan"}, "is_reserved": 0, "is_disabled": 0, "bike_id": "0dcb72003fce4835ce2921905e23bffe", "lat": 38.919859833333334, "name": "0dcb72003fce4835ce2921905e23bffe", "fusion_lon": 0.0, "fusion_lat": 0.0, "type": "electric_scooter", "lon": -77.041672}, {"rental_uris": {"android": "https://dc.lft.to/lastmile_qr_scan", "ios": "https://dc.lft.to/lastmile_qr_scan"}, "is_reserved": 0, "is_disabled": 0, "bike_id": "a9f3dc6a31e08fda9637894668eb89bb", "lat": 38.95018816666666, "name": "a9f3dc6a31e08fda9637894668eb89bb", "fusion_lon": 0.0, "fusion_lat": 0.0, "type": "electric_scooter", "lon": -77.0668525}, {"rental_uris": {"android": "https://dc.lft.to/lastmile_qr_scan", "ios": "https://dc.lft.to/lastmile_qr_scan"}, "is_reserved": 0, "is_disabled": 0, "bike_id": "8ae2c60758220fd863ace74582a204ff", "lat": 38.927466833333334, "name": "8ae2c60758220fd863ace74582a204ff", "fusion_lon": 0.0, "fusion_lat": 0.0, "type": "electric_scooter", "lon": -77.0363805}, {"rental_uris": {"android": "https://dc.lft.to/lastmile_qr_scan", "ios": "https://dc.lft.to/lastmile_qr_scan"}, "is_reserved": 0, "is_disabled": 0, "bike_id": "0cca2cb5e28c06b9c6f2465cba869e97", "lat": 38.892309, "name": "0cca2cb5e28c06b9c6f2465cba869e97", "fusion_lon": 0.0, "fusion_lat": 0.0, "type": "electric_scooter", "lon": -77.05004183333334}, {"rental_uris": {"android": "https://dc.lft.to/lastmile_qr_scan", "ios": "https://dc.lft.to/lastmile_qr_scan"}, "is_reserved": 0, "is_disabled": 0, "bike_id": "e6641e3acc0c474333d3d8240f8f470d", "lat": 38.8956365, "name": "e6641e3acc0c474333d3d8240f8f470d", "fusion_lon": 0.0, "fusion_lat": 0.0, "type": "electric_scooter", "lon": -77.04679783333333}, {"rental_uris": {"android": "https://dc.lft.to/lastmile_qr_scan", "ios": "https://dc.lft.to/lastmile_qr_scan"}, "is_reserved": 0, "is_disabled": 0, "bike_id": "325e683ac9a76e229951bf192da65526", "lat": 38.9055215, "name": "325e683ac9a76e229951bf192da65526", "fusion_lon": 0.0, "fusion_lat": 0.0, "type": "electric_scooter", "lon": -77.04486033333333}, {"rental_uris": {"android": "https://dc.lft.to/lastmile_qr_scan", "ios": "https://dc.lft.to/lastmile_qr_scan"}, "is_reserved": 0, "is_disabled": 0, "bike_id": "304973f9cc01f61af7c75729756c3a6c", "lat": 38.905555666666665, "name": "304973f9cc01f61af7c75729756c3a6c", "fusion_lon": 0.0, "fusion_lat": 0.0, "type": "electric_scooter", "lon": -77.02814433333333}, {"rental_uris": {"android": "https://dc.lft.to/lastmile_qr_scan", "ios": "https://dc.lft.to/lastmile_qr_scan"}, "is_reserved": 0, "is_disabled": 0, "bike_id": "47c1c33a67b366bb4bc703175769a2b7", "lat": 38.91618966666667, "name": "47c1c33a67b366bb4bc703175769a2b7", "fusion_lon": 0.0, "fusion_lat": 0.0, "type": "electric_scooter", "lon": -77.032052}, {"rental_uris": {"android": "https://dc.lft.to/lastmile_qr_scan", "ios": "https://dc.lft.to/lastmile_qr_scan"}, "is_reserved": 0, "is_disabled": 0, "bike_id": "10b143dc614ad2571062c7666bf0c027", "lat": 38.908029666666664, "name": "10b143dc614ad2571062c7666bf0c027", "fusion_lon": 0.0, "fusion_lat": 0.0, "type": "electric_scooter", "lon": -77.0436205}, {"rental_uris": {"android": "https://dc.lft.to/lastmile_qr_scan", "ios": "https://dc.lft.to/lastmile_qr_scan"}, "is_reserved": 0, "is_disabled": 0, "bike_id": "be31e1043d0f279ceb2cfcac721b721e", "lat": 38.95358916666667, "name": "be31e1043d0f279ceb2cfcac721b721e", "fusion_lon": 0.0, "fusion_lat": 0.0, "type": "electric_bike", "lon": -76.98094716666667}, {"rental_uris": {"android": "https://dc.lft.to/lastmile_qr_scan", "ios": "https://dc.lft.to/lastmile_qr_scan"}, "is_reserved": 0, "is_disabled": 0, "bike_id": "d51a94a3e8b32ed5e58fd03457f3ae43", "lat": 38.89890716666667, "name": "d51a94a3e8b32ed5e58fd03457f3ae43", "fusion_lon": 0.0, "fusion_lat": 0.0, "type": "electric_scooter", "lon": -77.03940716666666}, {"rental_uris": {"android": "https://dc.lft.to/lastmile_qr_scan", "ios": "https://dc.lft.to/lastmile_qr_scan"}, "is_reserved": 0, "is_disabled": 0, "bike_id": "b60643ac7a8d7fe82222818f75746394", "lat": 38.93379933333333, "name": "b60643ac7a8d7fe82222818f75746394", "fusion_lon": 0.0, "fusion_lat": 0.0, "type": "electric_scooter", "lon": -77.03555416666667}, {"rental_uris": {"android": "https://dc.lft.to/lastmile_qr_scan", "ios": "https://dc.lft.to/lastmile_qr_scan"}, "is_reserved": 0, "is_disabled": 0, "bike_id": "a2a9bff78230ad9fc9ee001a42a3a1ed", "lat": 38.901566833333334, "name": "a2a9bff78230ad9fc9ee001a42a3a1ed", "fusion_lon": 0.0, "fusion_lat": 0.0, "type": "electric_scooter", "lon": -77.03998183333333}, {"rental_uris": {"android": "https://dc.lft.to/lastmile_qr_scan", "ios": "https://dc.lft.to/lastmile_qr_scan"}, "is_reserved": 0, "is_disabled": 0, "bike_id": "ab94079820ed975c91d083229723ba2f", "lat": 38.929067, "name": "ab94079820ed975c91d083229723ba2f", "fusion_lon": 0.0, "fusion_lat": 0.0, "type": "electric_scooter", "lon": -77.05465583333333}, {"rental_uris": {"android": "https://dc.lft.to/lastmile_qr_scan", "ios": "https://dc.lft.to/lastmile_qr_scan"}, "is_reserved": 0, "is_disabled": 0, "bike_id": "306eac89a807e40ac6a4ed8a3d386086", "lat": 38.907252166666666, "name": "306eac89a807e40ac6a4ed8a3d386086", "fusion_lon": 0.0, "fusion_lat": 0.0, "type": "electric_scooter", "lon": -76.97859566666666}, {"rental_uris": {"android": "https://dc.lft.to/lastmile_qr_scan", "ios": "https://dc.lft.to/lastmile_qr_scan"}, "is_reserved": 0, "is_disabled": 0, "bike_id": "372e0f6c78af38b2d8348a321fc244cd", "lat": 38.929148, "name": "372e0f6c78af38b2d8348a321fc244cd", "fusion_lon": 0.0, "fusion_lat": 0.0, "type": "electric_scooter", "lon": -77.020902}, {"rental_uris": {"android": "https://dc.lft.to/lastmile_qr_scan", "ios": "https://dc.lft.to/lastmile_qr_scan"}, "is_reserved": 0, "is_disabled": 0, "bike_id": "6222cf56f980c1722b75bb2b79da1d4f", "lat": 38.884328, "name": "6222cf56f980c1722b75bb2b79da1d4f", "fusion_lon": 0.0, "fusion_lat": 0.0, "type": "electric_scooter", "lon": -76.957585}, {"rental_uris": {"android": "https://dc.lft.to/lastmile_qr_scan", "ios": "https://dc.lft.to/lastmile_qr_scan"}, "is_reserved": 0, "is_disabled": 0, "bike_id": "144b184c0818ae77f79fb00bc4e3ca4a", "lat": 38.90021183333333, "name": "144b184c0818ae77f79fb00bc4e3ca4a", "fusion_lon": 0.0, "fusion_lat": 0.0, "type": "electric_scooter", "lon": -77.03343366666667}, {"rental_uris": {"android": "https://dc.lft.to/lastmile_qr_scan", "ios": "https://dc.lft.to/lastmile_qr_scan"}, "is_reserved": 0, "is_disabled": 0, "bike_id": "ce99c76c841cf0795349de3f1a2c81a1", "lat": 38.8922275, "name": "ce99c76c841cf0795349de3f1a2c81a1", "fusion_lon": 0.0, "fusion_lat": 0.0, "type": "electric_scooter", "lon": -77.04689866666666}, {"rental_uris": {"android": "https://dc.lft.to/lastmile_qr_scan", "ios": "https://dc.lft.to/lastmile_qr_scan"}, "is_reserved": 0, "is_disabled": 0, "bike_id": "3d803bc1f3335997a95f56ed8e7c61ff", "lat": 38.9157565, "name": "3d803bc1f3335997a95f56ed8e7c61ff", "fusion_lon": 0.0, "fusion_lat": 0.0, "type": "electric_scooter", "lon": -77.0205595}, {"rental_uris": {"android": "https://dc.lft.to/lastmile_qr_scan", "ios": "https://dc.lft.to/lastmile_qr_scan"}, "is_reserved": 0, "is_disabled": 0, "bike_id": "ed424163b32b46fd9e434a9300361c56", "lat": 38.9360695, "name": "ed424163b32b46fd9e434a9300361c56", "fusion_lon": 0.0, "fusion_lat": 0.0, "type": "electric_scooter", "lon": -77.05888833333333}, {"rental_uris": {"android": "https://dc.lft.to/lastmile_qr_scan", "ios": "https://dc.lft.to/lastmile_qr_scan"}, "is_reserved": 0, "is_disabled": 0, "bike_id": "7d3e2cc745644c3a84650cfd41f4ccb5", "lat": 38.898853333333335, "name": "7d3e2cc745644c3a84650cfd41f4ccb5", "fusion_lon": 0.0, "fusion_lat": 0.0, "type": "electric_scooter", "lon": -76.93195266666666}, {"rental_uris": {"android": "https://dc.lft.to/lastmile_qr_scan", "ios": "https://dc.lft.to/lastmile_qr_scan"}, "is_reserved": 0, "is_disabled": 0, "bike_id": "f18def49d27e19cf59702347dafc6ed2", "lat": 38.8951005, "name": "f18def49d27e19cf59702347dafc6ed2", "fusion_lon": 0.0, "fusion_lat": 0.0, "type": "electric_scooter", "lon": -76.94890116666667}, {"rental_uris": {"android": "https://dc.lft.to/lastmile_qr_scan", "ios": "https://dc.lft.to/lastmile_qr_scan"}, "is_reserved": 0, "is_disabled": 0, "bike_id": "06f8b25f32c10301f75ff4a986615e2c", "lat": 38.957645166666666, "name": "06f8b25f32c10301f75ff4a986615e2c", "fusion_lon": 0.0, "fusion_lat": 0.0, "type": "electric_bike", "lon": -77.00710566666666}, {"rental_uris": {"android": "https://dc.lft.to/lastmile_qr_scan", "ios": "https://dc.lft.to/lastmile_qr_scan"}, "is_reserved": 0, "is_disabled": 0, "bike_id": "15d576235e85c2610f69e6936d7062b7", "lat": 38.855234833333334, "name": "15d576235e85c2610f69e6936d7062b7", "fusion_lon": 0.0, "fusion_lat": 0.0, "type": "electric_bike", "lon": -77.111532}, {"rental_uris": {"android": "https://dc.lft.to/lastmile_qr_scan", "ios": "https://dc.lft.to/lastmile_qr_scan"}, "is_reserved": 0, "is_disabled": 0, "bike_id": "7e45272ef22d7f1acb3a4cdc1b80a795", "lat": 38.89232666666667, "name": "7e45272ef22d7f1acb3a4cdc1b80a795", "fusion_lon": 0.0, "fusion_lat": 0.0, "type": "electric_scooter", "lon": -77.04876866666666}, {"rental_uris": {"android": "https://dc.lft.to/lastmile_qr_scan", "ios": "https://dc.lft.to/lastmile_qr_scan"}, "is_reserved": 0, "is_disabled": 0, "bike_id": "513f9cad6dd4e6b7b6aa32c0af0b24eb", "lat": 38.99404033333333, "name": "513f9cad6dd4e6b7b6aa32c0af0b24eb", "fusion_lon": 0.0, "fusion_lat": 0.0, "type": "electric_bike", "lon": -77.0013055}, {"rental_uris": {"android": "https://dc.lft.to/lastmile_qr_scan", "ios": "https://dc.lft.to/lastmile_qr_scan"}, "is_reserved": 0, "is_disabled": 0, "bike_id": "8bca84a8f00984697eb30fae585c1312", "lat": 38.892244, "name": "8bca84a8f00984697eb30fae585c1312", "fusion_lon": 0.0, "fusion_lat": 0.0, "type": "electric_scooter", "lon": -77.0430815}, {"rental_uris": {"android": "https://dc.lft.to/lastmile_qr_scan", "ios": "https://dc.lft.to/lastmile_qr_scan"}, "is_reserved": 0, "is_disabled": 0, "bike_id": "23681fdee98d16617af5a2e7f5ec1394", "lat": 38.887682166666664, "name": "23681fdee98d16617af5a2e7f5ec1394", "fusion_lon": 0.0, "fusion_lat": 0.0, "type": "electric_scooter", "lon": -77.02846616666666}, {"rental_uris": {"android": "https://dc.lft.to/lastmile_qr_scan", "ios": "https://dc.lft.to/lastmile_qr_scan"}, "is_reserved": 0, "is_disabled": 0, "bike_id": "851f9864e66c51c18ff8d9071dcbc503", "lat": 38.923343, "name": "851f9864e66c51c18ff8d9071dcbc503", "fusion_lon": 0.0, "fusion_lat": 0.0, "type": "electric_scooter", "lon": -77.03571333333333}, {"rental_uris": {"android": "https://dc.lft.to/lastmile_qr_scan", "ios": "https://dc.lft.to/lastmile_qr_scan"}, "is_reserved": 0, "is_disabled": 0, "bike_id": "757ba203a0b5e4252a03f9aae8f536d9", "lat": 38.995414833333335, "name": "757ba203a0b5e4252a03f9aae8f536d9", "fusion_lon": 0.0, "fusion_lat": 0.0, "type": "electric_bike", "lon": -77.03124416666667}, {"rental_uris": {"android": "https://dc.lft.to/lastmile_qr_scan", "ios": "https://dc.lft.to/lastmile_qr_scan"}, "is_reserved": 0, "is_disabled": 0, "bike_id": "f5f6f5850bf65f031624af090e92d6e1", "lat": 38.91564783333333, "name": "f5f6f5850bf65f031624af090e92d6e1", "fusion_lon": 0.0, "fusion_lat": 0.0, "type": "electric_scooter", "lon": -77.03940516666667}, {"rental_uris": {"android": "https://dc.lft.to/lastmile_qr_scan", "ios": "https://dc.lft.to/lastmile_qr_scan"},