{"data": {"bikes": [{"fusion_lat": 0.0, "name": "87c3a4c4ede0db5300d480912ed1df3a", "is_disabled": 0, "rental_uris": {"android": "https://dc.lft.to/lastmile_qr_scan", "ios": "https://dc.lft.to/lastmile_qr_scan"}, "fusion_lon": 0.0, "lat": 38.8960735, "bike_id": "87c3a4c4ede0db5300d480912ed1df3a", "type": "electric_scooter", "is_reserved": 0, "lon": -77.009302}, {"fusion_lat": 0.0, "name": "2d73353c0681bbeae1edaea4dfb5c8d2", "is_disabled": 0, "rental_uris": {"android": "https://dc.lft.to/lastmile_qr_scan", "ios": "https://dc.lft.to/lastmile_qr_scan"}, "fusion_lon": 0.0, "lat": 38.92041183333333, "bike_id": "2d73353c0681bbeae1edaea4dfb5c8d2", "type": "electric_scooter", "is_reserved": 0, "lon": -77.023778}, {"fusion_lat": 0.0, "name": "a634b573a30e12c16f24d96653985905", "is_disabled": 0, "rental_uris": {"android": "https://dc.lft.to/lastmile_qr_scan", "ios": "https://dc.lft.to/lastmile_qr_scan"}, "fusion_lon": 0.0, "lat": 38.886149333333336, "bike_id": "a634b573a30e12c16f24d96653985905", "type": "electric_scooter", "is_reserved": 0, "lon": -77.01555816666666}, {"fusion_lat": 0.0, "name": "00fda0468a6554ef5f54f1c0b0b05b30", "is_disabled": 0, "rental_uris": {"android": "https://dc.lft.to/lastmile_qr_scan", "ios": "https://dc.lft.to/lastmile_qr_scan"}, "fusion_lon": 0.0, "lat": 38.90019016666667, "bike_id": "00fda0468a6554ef5f54f1c0b0b05b30", "type": "electric_scooter", "is_reserved": 0, "lon": -77.00090816666666}, {"fusion_lat": 0.0, "name": "7e1cb9bbd39024d799387b0a3e5ccd05", "is_disabled": 0, "rental_uris": {"android": "https://dc.lft.to/lastmile_qr_scan", "ios": "https://dc.lft.to/lastmile_qr_scan"}, "fusion_lon": 0.0, "lat": 38.8771535, "bike_id": "7e1cb9bbd39024d799387b0a3e5ccd05", "type": "electric_scooter", "is_reserved": 0, "lon": -76.993842}, {"fusion_lat": 0.0, "name": "c320fa876acf9de2ce4181f0f26c404b", "is_disabled": 0, "rental_uris": {"android": "https://dc.lft.to/lastmile_qr_scan", "ios": "https://dc.lft.to/lastmile_qr_scan"}, "fusion_lon": 0.0, "lat": 38.898788833333334, "bike_id": "c320fa876acf9de2ce4181f0f26c404b", "type": "electric_scooter", "is_reserved": 0, "lon": -76.931826}, {"fusion_lat": 0.0, "name": "b03732e99e77b8d27f1e325c6da206e2", "is_disabled": 0, "rental_uris": {"android": "https://dc.lft.to/lastmile_qr_scan", "ios": "https://dc.lft.to/lastmile_qr_scan"}, "fusion_lon": 0.0, "lat": 38.908019833333334, "bike_id": "b03732e99e77b8d27f1e325c6da206e2", "type": "electric_scooter", "is_reserved": 0, "lon": -77.04265466666666}, {"fusion_lat": 0.0, "name": "5979e580e5b6c9bb9605f9ec10c23b5a", "is_disabled": 0, "rental_uris": {"android": "https://dc.lft.to/lastmile_qr_scan", "ios": "https://dc.lft.to/lastmile_qr_scan"}, "fusion_lon": 0.0, "lat": 38.9057765, "bike_id": "5979e580e5b6c9bb9605f9ec10c23b5a", "type": "electric_scooter", "is_reserved": 0, "lon": -77.029932}, {"fusion_lat": 0.0, "name": "2ac5feb518c184b38ed6f2bbc663e2e6", "is_disabled": 0, "rental_uris": {"android": "https://dc.lft.to/lastmile_qr_scan", "ios": "https://dc.lft.to/lastmile_qr_scan"}, "fusion_lon": 0.0, "lat": 38.90459, "bike_id": "2ac5feb518c184b38ed6f2bbc663e2e6", "type": "electric_scooter", "is_reserved": 0, "lon": -77.03375666666666}, {"fusion_lat": 0.0, "name": "5cebd2c2e66944f44b8d6cb9f17bba3c", "is_disabled": 0, "rental_uris": {"android": "https://dc.lft.to/lastmile_qr_scan", "ios": "https://dc.lft.to/lastmile_qr_scan"}, "fusion_lon": 0.0, "lat": 38.9136455, "bike_id": "5cebd2c2e66944f44b8d6cb9f17bba3c", "type": "electric_scooter", "is_reserved": 0, "lon": -77.0488475}, {"fusion_lat": 0.0, "name": "52258841d4cb1969840658ea4a86f06a", "is_disabled": 0, "rental_uris": {"android": "https://dc.lft.to/lastmile_qr_scan", "ios": "https://dc.lft.to/lastmile_qr_scan"}, "fusion_lon": 0.0, "lat": 38.91269416666667, "bike_id": "52258841d4cb1969840658ea4a86f06a", "type": "electric_scooter", "is_reserved": 0, "lon": -77.03388316666667}, {"fusion_lat": 0.0, "name": "84a2cc3ef283a7a7d8b6a1dcbc531900", "is_disabled": 0, "rental_uris": {"android": "https://dc.lft.to/lastmile_qr_scan", "ios": "https://dc.lft.to/lastmile_qr_scan"}, "fusion_lon": 0.0, "lat": 38.91267583333333, "bike_id": "84a2cc3ef283a7a7d8b6a1dcbc531900", "type": "electric_scooter", "is_reserved": 0, "lon": -77.0492525}, {"fusion_lat": 0.0, "name": "750d90aecdd91be2d8f742065207cfcd", "is_disabled": 0, "rental_uris": {"android": "https://dc.lft.to/lastmile_qr_scan", "ios": "https://dc.lft.to/lastmile_qr_scan"}, "fusion_lon": 0.0, "lat": 38.924050666666666, "bike_id": "750d90aecdd91be2d8f742065207cfcd", "type": "electric_scooter", "is_reserved": 0, "lon": -77.02412166666667}, {"fusion_lat": 0.0, "name": "1ad70f04ef5371a827a2cbdd47bc2fe8", "is_disabled": 0, "rental_uris": {"android": "https://dc.lft.to/lastmile_qr_scan", "ios": "https://dc.lft.to/lastmile_qr_scan"}, "fusion_lon": 0.0, "lat": 38.92309316666667, "bike_id": "1ad70f04ef5371a827a2cbdd47bc2fe8", "type": "electric_scooter", "is_reserved": 0, "lon": -77.04256833333334}, {"fusion_lat": 0.0, "name": "b6dc7594c608338d82faca5152b95327", "is_disabled": 0, "rental_uris": {"android": "https://dc.lft.to/lastmile_qr_scan", "ios": "https://dc.lft.to/lastmile_qr_scan"}, "fusion_lon": 0.0, "lat": 38.90225983333333, "bike_id": "b6dc7594c608338d82faca5152b95327", "type": "electric_scooter", "is_reserved": 0, "lon": -77.05132566666667}, {"fusion_lat": 0.0, "name": "0d5cf7ae026607e65f0de519526fa42d", "is_disabled": 0, "rental_uris": {"android": "https://dc.lft.to/lastmile_qr_scan", "ios": "https://dc.lft.to/lastmile_qr_scan"}, "fusion_lon": 0.0, "lat": 38.92366033333333, "bike_id": "0d5cf7ae026607e65f0de519526fa42d", "type": "electric_scooter", "is_reserved": 0, "lon": -77.02063016666666}, {"fusion_lat": 0.0, "name": "24f8171064bd3f876b9d4e79a89af77f", "is_disabled": 0, "rental_uris": {"android": "https://dc.lft.to/lastmile_qr_scan", "ios": "https://dc.lft.to/lastmile_qr_scan"}, "fusion_lon": 0.0, "lat": 38.938667, "bike_id": "24f8171064bd3f876b9d4e79a89af77f", "type": "electric_scooter", "is_reserved": 0, "lon": -77.0246135}, {"fusion_lat": 0.0, "name": "5bb7f90eeedcbfc60de9d5c96793671b", "is_disabled": 0, "rental_uris": {"android": "https://dc.lft.to/lastmile_qr_scan", "ios": "https://dc.lft.to/lastmile_qr_scan"}, "fusion_lon": 0.0, "lat": 38.8970525, "bike_id": "5bb7f90eeedcbfc60de9d5c96793671b", "type": "electric_scooter", "is_reserved": 0, "lon": -77.04344433333333}, {"fusion_lat": 0.0, "name": "5bbdbe98eaa3531327698d5935d44acf", "is_disabled": 0, "rental_uris": {"android": "https://dc.lft.to/lastmile_qr_scan", "ios": "https://dc.lft.to/lastmile_qr_scan"}, "fusion_lon": 0.0, "lat": 38.936664666666665, "bike_id": "5bbdbe98eaa3531327698d5935d44acf", "type": "electric_scooter", "is_reserved": 0, "lon": -77.0369895}, {"fusion_lat": 0.0, "name": "2258d6117e2bee525095838d8ca7f16b", "is_disabled": 0, "rental_uris": {"android": "https://dc.lft.to/lastmile_qr_scan", "ios": "https://dc.lft.to/lastmile_qr_scan"}, "fusion_lon": 0.0, "lat": 38.878541, "bike_id": "2258d6117e2bee525095838d8ca7f16b", "type": "electric_bike", "is_reserved": 0, "lon": -77.03014916666666}, {"fusion_lat": 0.0, "name": "0664251eb16644e707edc46a386357c0", "is_disabled": 0, "rental_uris": {"android": "https://dc.lft.to/lastmile_qr_scan", "ios": "https://dc.lft.to/lastmile_qr_scan"}, "fusion_lon": 0.0, "lat": 38.88117883333334, "bike_id": "0664251eb16644e707edc46a386357c0", "type": "electric_scooter", "is_reserved": 0, "lon": -77.01653433333334}, {"fusion_lat": 0.0, "name": "67fc8961e8d6ae35c40af0a95719d8cc", "is_disabled": 0, "rental_uris": {"android": "https://dc.lft.to/lastmile_qr_scan", "ios": "https://dc.lft.to/lastmile_qr_scan"}, "fusion_lon": 0.0, "lat": 38.928601666666665, "bike_id": "67fc8961e8d6ae35c40af0a95719d8cc", "type": "electric_scooter", "is_reserved": 0, "lon": -77.03254566666666}, {"fusion_lat": 0.0, "name": "9fe423ed3c2fe39d056fa2eb68cf1382", "is_disabled": 0, "rental_uris": {"android": "https://dc.lft.to/lastmile_qr_scan", "ios": "https://dc.lft.to/lastmile_qr_scan"}, "fusion_lon": 0.0, "lat": 38.9207965, "bike_id": "9fe423ed3c2fe39d056fa2eb68cf1382", "type": "electric_scooter", "is_reserved": 0, "lon": -77.004457}, {"fusion_lat": 0.0, "name": "80db37505233c21b8d88ca78b8462387", "is_disabled": 0, "rental_uris": {"android": "https://dc.lft.to/lastmile_qr_scan", "ios": "https://dc.lft.to/lastmile_qr_scan"}, "fusion_lon": 0.0, "lat": 38.91621216666667, "bike_id": "80db37505233c21b8d88ca78b8462387", "type": "electric_scooter", "is_reserved": 0, "lon": -77.03649116666666}, {"fusion_lat": 0.0, "name": "1b4be4575049e0ca12f89e4f42df9328", "is_disabled": 0, "rental_uris": {"android": "https://dc.lft.to/lastmile_qr_scan", "ios": "https://dc.lft.to/lastmile_qr_scan"}, "fusion_lon": 0.0, "lat": 38.903848333333336, "bike_id": "1b4be4575049e0ca12f89e4f42df9328", "type": "electric_scooter", "is_reserved": 0, "lon": -77.04609066666667}, {"fusion_lat": 0.0, "name": "cdac693320afa82f219505d272c28bd6", "is_disabled": 0, "rental_uris": {"android": "https://dc.lft.to/lastmile_qr_scan", "ios": "https://dc.lft.to/lastmile_qr_scan"}, "fusion_lon": 0.0, "lat": 38.874968833333334, "bike_id": "cdac693320afa82f219505d272c28bd6", "type": "electric_scooter", "is_reserved": 0, "lon": -77.00068633333333}, {"fusion_lat": 0.0, "name": "7f017c1c34ce56c8c7512a107041765e", "is_disabled": 0, "rental_uris": {"android": "https://dc.lft.to/lastmile_qr_scan", "ios": "https://dc.lft.to/lastmile_qr_scan"}, "fusion_lon": 0.0, "lat": 38.87801183333333, "bike_id": "7f017c1c34ce56c8c7512a107041765e", "type": "electric_scooter", "is_reserved": 0, "lon": -77.001218}, {"fusion_lat": 0.0, "name": "94f9482987cf35f300878a3acb8e34b0", "is_disabled": 0, "rental_uris": {"android": "https://dc.lft.to/lastmile_qr_scan", "ios": "https://dc.lft.to/lastmile_qr_scan"}, "fusion_lon": 0.0, "lat": 38.9310365, "bike_id": "94f9482987cf35f300878a3acb8e34b0", "type": "electric_scooter", "is_reserved": 0, "lon": -77.02473816666667}, {"fusion_lat": 0.0, "name": "b3a0b439b90570977e55327a9acc36b4", "is_disabled": 0, "rental_uris": {"android": "https://dc.lft.to/lastmile_qr_scan", "ios": "https://dc.lft.to/lastmile_qr_scan"}, "fusion_lon": 0.0, "lat": 38.927563666666664, "bike_id": "b3a0b439b90570977e55327a9acc36b4", "type": "electric_scooter", "is_reserved": 0, "lon": -77.03292233333333}, {"fusion_lat": 0.0, "name": "51f80343a62624fac81a43dd9269248c", "is_disabled": 0, "rental_uris": {"android": "https://dc.lft.to/lastmile_qr_scan", "ios": "https://dc.lft.to/lastmile_qr_scan"}, "fusion_lon": 0.0, "lat": 38.88714933333333, "bike_id": "51f80343a62624fac81a43dd9269248c", "type": "electric_scooter", "is_reserved": 0, "lon": -76.9967575}, {"fusion_lat": 0.0, "name": "042368d8e0f5c1d7cd51acd01d05671f", "is_disabled": 0, "rental_uris": {"android": "https://dc.lft.to/lastmile_qr_scan", "ios": "https://dc.lft.to/lastmile_qr_scan"}, "fusion_lon": 0.0, "lat": 38.946026333333336, "bike_id": "042368d8e0f5c1d7cd51acd01d05671f", "type": "electric_bike", "is_reserved": 0, "lon": -77.02870766666666}, {"fusion_lat": 0.0, "name": "02eae7730b60645076dd03bb1d5b8db5", "is_disabled": 0, "rental_uris": {"android": "https://dc.lft.to/lastmile_qr_scan", "ios": "https://dc.lft.to/lastmile_qr_scan"}, "fusion_lon": 0.0, "lat": 38.92238033333334, "bike_id": "02eae7730b60645076dd03bb1d5b8db5", "type": "electric_scooter", "is_reserved": 0, "lon": -77.04251133333334}, {"fusion_lat": 0.0, "name": "2e2a40ff875a02a9adacb01cefc46983", "is_disabled": 0, "rental_uris": {"android": "https://dc.lft.to/lastmile_qr_scan", "ios": "https://dc.lft.to/lastmile_qr_scan"}, "fusion_lon": 0.0, "lat": 38.90462633333333, "bike_id": "2e2a40ff875a02a9adacb01cefc46983", "type": "electric_scooter", "is_reserved": 0, "lon": -77.01701466666667}, {"fusion_lat": 0.0, "name": "0ca4af20f771b161bdf154e5c9cf7264", "is_disabled": 0, "rental_uris": {"android": "https://dc.lft.to/lastmile_qr_scan", "ios": "https://dc.lft.to/lastmile_qr_scan"}, "fusion_lon": 0.0, "lat": 38.892277, "bike_id": "0ca4af20f771b161bdf154e5c9cf7264", "type": "electric_scooter", "is_reserved": 0, "lon": -77.05036433333333}, {"fusion_lat": 0.0, "name": "bcd14a91e994750ad3dda53f8294e7fd", "is_disabled": 0, "rental_uris": {"android": "https://dc.lft.to/lastmile_qr_scan", "ios": "https://dc.lft.to/lastmile_qr_scan"}, "fusion_lon": 0.0, "lat": 38.9170445, "bike_id": "bcd14a91e994750ad3dda53f8294e7fd", "type": "electric_scooter", "is_reserved": 0, "lon": -77.03116883333334}, {"fusion_lat": 0.0, "name": "de590513d0dc2affec26ebadf2a80a88", "is_disabled": 0, "rental_uris": {"android": "https://dc.lft.to/lastmile_qr_scan", "ios": "https://dc.lft.to/lastmile_qr_scan"}, "fusion_lon": 0.0, "lat": 38.922466666666665, "bike_id": "de590513d0dc2affec26ebadf2a80a88", "type": "electric_scooter", "is_reserved": 0, "lon": -77.03912233333334}, {"fusion_lat": 0.0, "name": "ca432120fa663309c818aab6e20034eb", "is_disabled": 0, "rental_uris": {"android": "https://dc.lft.to/lastmile_qr_scan", "ios": "https://dc.lft.to/lastmile_qr_scan"}, "fusion_lon": 0.0, "lat": 38.9060995, "bike_id": "ca432120fa663309c818aab6e20034eb", "type": "electric_scooter", "is_reserved": 0, "lon": -77.0647695}, {"fusion_lat": 0.0, "name": "d9a81492459d6d8059f6ca3ea3aab4b2", "is_disabled": 0, "rental_uris": {"android": "https://dc.lft.to/lastmile_qr_scan", "ios": "https://dc.lft.to/lastmile_qr_scan"}, "fusion_lon": 0.0, "lat": 38.901299333333334, "bike_id": "d9a81492459d6d8059f6ca3ea3aab4b2", "type": "electric_scooter", "is_reserved": 0, "lon": -77.02178083333334}, {"fusion_lat": 0.0, "name": "2083ab8e4d278597e9149537deb71f37", "is_disabled": 0, "rental_uris": {"android": "https://dc.lft.to/lastmile_qr_scan", "ios": "https://dc.lft.to/lastmile_qr_scan"}, "fusion_lon": 0.0, "lat": 38.94433016666667, "bike_id": "2083ab8e4d278597e9149537deb71f37", "type": "electric_bike", "is_reserved": 0, "lon": -77.02601633333333}, {"fusion_lat": 0.0, "name": "09de09daba49c9b5d983742535bc4523", "is_disabled": 0, "rental_uris": {"android": "https://dc.lft.to/lastmile_qr_scan", "ios": "https://dc.lft.to/lastmile_qr_scan"}, "fusion_lon": 0.0, "lat": 38.885057833333335, "bike_id": "09de09daba49c9b5d983742535bc4523", "type": "electric_scooter", "is_reserved": 0, "lon": -77.02092283333333}, {"fusion_lat": 0.0, "name": "eac417712307082d45a10282236c5255", "is_disabled": 0, "rental_uris": {"android": "https://dc.lft.to/lastmile_qr_scan", "ios": "https://dc.lft.to/lastmile_qr_scan"}, "fusion_lon": 0.0, "lat": 38.890961833333336, "bike_id": "eac417712307082d45a10282236c5255", "type": "electric_scooter", "is_reserved": 0, "lon": -76.91929233333333}, {"fusion_lat": 0.0, "name": "ad3f362733cb1bbc106c5f2120b6aa80", "is_disabled": 0, "rental_uris": {"android": "https://dc.lft.to/lastmile_qr_scan", "ios": "https://dc.lft.to/lastmile_qr_scan"}, "fusion_lon": 0.0, "lat": 38.936057166666664, "bike_id": "ad3f362733cb1bbc106c5f2120b6aa80", "type": "electric_scooter", "is_reserved": 0, "lon": -77.02297566666667}, {"fusion_lat": 0.0, "name": "4bdd251f25dbea056696e13a71f419b1", "is_disabled": 0, "rental_uris": {"android": "https://dc.lft.to/lastmile_qr_scan", "ios": "https://dc.lft.to/lastmile_qr_scan"}, "fusion_lon": 0.0, "lat": 38.9180935, "bike_id": "4bdd251f25dbea056696e13a71f419b1", "type": "electric_scooter", "is_reserved": 0, "lon": -77.033048}, {"fusion_lat": 0.0, "name": "b683cfeec472d445cabe2484218c0a4f", "is_disabled": 0, "rental_uris": {"android": "https://dc.lft.to/lastmile_qr_scan", "ios": "https://dc.lft.to/lastmile_qr_scan"}, "fusion_lon": 0.0, "lat": 38.9325655, "bike_id": "b683cfeec472d445cabe2484218c0a4f", "type": "electric_scooter", "is_reserved": 0, "lon": -77.0341365}, {"fusion_lat": 0.0, "name": "719cd1474c600b1642c455b08bdfcf9e", "is_disabled": 0, "rental_uris": {"android": "https://dc.lft.to/lastmile_qr_scan", "ios": "https://dc.lft.to/lastmile_qr_scan"}, "fusion_lon": 0.0, "lat": 38.921245166666665, "bike_id": "719cd1474c600b1642c455b08bdfcf9e", "type": "electric_scooter", "is_reserved": 0, "lon": -77.04696583333333}, {"fusion_lat": 0.0, "name": "349e142da3f8eb4d2075c0288f59c169", "is_disabled": 0, "rental_uris": {"android": "https://dc.lft.to/lastmile_qr_scan", "ios": "https://dc.lft.to/lastmile_qr_scan"}, "fusion_lon": 0.0, "lat": 38.92674733333333, "bike_id": "349e142da3f8eb4d2075c0288f59c169", "type": "electric_scooter", "is_reserved": 0, "lon": -77.03049633333333}, {"fusion_lat": 0.0, "name": "34a5f39e03d043ad1740e7a6ff3d0262", "is_disabled": 0, "rental_uris": {"android": "https://dc.lft.to/lastmile_qr_scan", "ios": "https://dc.lft.to/lastmile_qr_scan"}, "fusion_lon": 0.0, "lat": 38.88577216666667, "bike_id": "34a5f39e03d043ad1740e7a6ff3d0262", "type": "electric_scooter", "is_reserved": 0, "lon": -77.01212116666666}, {"fusion_lat": 0.0, "name": "8e8041672e4aac5ceec5e2a68ef09055", "is_disabled": 0, "rental_uris": {"android": "https://dc.lft.to/lastmile_qr_scan", "ios": "https://dc.lft.to/lastmile_qr_scan"}, "fusion_lon": 0.0, "lat": 38.91471083333333, "bike_id": "8e8041672e4aac5ceec5e2a68ef09055", "type": "electric_scooter", "is_reserved": 0, "lon": -77.0389765}, {"fusion_lat": 0.0, "name": "08bb25a21c1a39d50b0990f9ac579130", "is_disabled": 0, "rental_uris": {"android": "https://dc.lft.to/lastmile_qr_scan", "ios": "https://dc.lft.to/lastmile_qr_scan"}, "fusion_lon": 0.0, "lat": 38.9386535, "bike_id": "08bb25a21c1a39d50b0990f9ac579130", "type": "electric_scooter", "is_reserved": 0, "lon": -77.02456666666667}, {"fusion_lat": 0.0, "name": "5789390dd41f7fddf6720983e2864d09", "is_disabled": 0, "rental_uris": {"android": "https://dc.lft.to/lastmile_qr_scan", "ios": "https://dc.lft.to/lastmile_qr_scan"}, "fusion_lon": 0.0, "lat": 38.92105266666667, "bike_id": "5789390dd41f7fddf6720983e2864d09", "type": "electric_scooter", "is_reserved": 0, "lon": -77.0747405}, {"fusion_lat": 0.0, "name": "799174d87c0823b3ad04194223b58f31", "is_disabled": 0, "rental_uris": {"android": "https://dc.lft.to/lastmile_qr_scan", "ios": "https://dc.lft.to/lastmile_qr_scan"}, "fusion_lon": 0.0, "lat": 38.898735, "bike_id": "799174d87c0823b3ad04194223b58f31", "type": "electric_scooter", "is_reserved": 0, "lon": -77.02022833333334}, {"fusion_lat": 0.0, "name": "11614b9b47fc89febf55ddebcb0086ed", "is_disabled": 0, "rental_uris": {"android": "https://dc.lft.to/lastmile_qr_scan", "ios": "https://dc.lft.to/lastmile_qr_scan"}, "fusion_lon": 0.0, "lat": 38.919388, "bike_id": "11614b9b47fc89febf55ddebcb0086ed", "type": "electric_scooter", "is_reserved": 0, "lon": -77.045013}, {"fusion_lat": 0.0, "name": "3b36b582ceec78cf37b909c076fc44a9", "is_disabled": 0, "rental_uris": {"android": "https://dc.lft.to/lastmile_qr_scan", "ios": "https://dc.lft.to/lastmile_qr_scan"}, "fusion_lon": 0.0, "lat": 38.87384266666667, "bike_id": "3b36b582ceec78cf37b909c076fc44a9", "type": "electric_scooter", "is_reserved": 0, "lon": -77.00164816666667}, {"fusion_lat": 0.0, "name": "4f4bf0b79d286fe6ad7a4b8104c6383a", "is_disabled": 0, "rental_uris": {"android": "https://dc.lft.to/lastmile_qr_scan", "ios": "https://dc.lft.to/lastmile_qr_scan"}, "fusion_lon": 0.0, "lat": 38.91508616666667, "bike_id": "4f4bf0b79d286fe6ad7a4b8104c6383a", "type": "electric_scooter", "is_reserved": 0, "lon": -77.00930466666667}, {"fusion_lat": 0.0, "name": "62a2c8b9e23b98b45085c7f4f390368e", "is_disabled": 0, "rental_uris": {"android": "https://dc.lft.to/lastmile_qr_scan", "ios": "https://dc.lft.to/lastmile_qr_scan"}, "fusion_lon": 0.0, "lat": 38.900678166666665, "bike_id": "62a2c8b9e23b98b45085c7f4f390368e", "type": "electric_scooter", "is_reserved": 0, "lon": -77.00391683333334}, {"fusion_lat": 0.0, "name": "88047027dbfd052151b4e4b99abf521e", "is_disabled": 0, "rental_uris": {"android": "https://dc.lft.to/lastmile_qr_scan", "ios": "https://dc.lft.to/lastmile_qr_scan"}, "fusion_lon": 0.0, "lat": 38.90672633333333, "bike_id": "88047027dbfd052151b4e4b99abf521e", "type": "electric_scooter", "is_reserved": 0, "lon": -77.027111}, {"fusion_lat": 0.0, "name": "4788eef6cf98643497284dc22121f27d", "is_disabled": 0, "rental_uris": {"android": "https://dc.lft.to/lastmile_qr_scan", "ios": "https://dc.lft.to/lastmile_qr_scan"}, "fusion_lon": 0.0, "lat": 38.9288205, "bike_id": "4788eef6cf98643497284dc22121f27d", "type": "electric_scooter", "is_reserved": 0, "lon": -77.034758}, {"fusion_lat": 0.0, "name": "9d56eead4d49b7145ad2bd5ba4e3f7a0", "is_disabled": 0, "rental_uris": {"android": "https://dc.lft.to/lastmile_qr_scan", "ios": "https://dc.lft.to/lastmile_qr_scan"}, "fusion_lon": 0.0, "lat": 38.89913633333333, "bike_id": "9d56eead4d49b7145ad2bd5ba4e3f7a0", "type": "electric_scooter", "is_reserved": 0, "lon": -76.9455185}, {"fusion_lat": 0.0, "name": "d8e1a2713cb8f5eed3a32786905249a7", "is_disabled": 0, "rental_uris": {"android": "https://dc.lft.to/lastmile_qr_scan", "ios": "https://dc.lft.to/lastmile_qr_scan"}, "fusion_lon": 0.0, "lat": 38.916219, "bike_id": "d8e1a2713cb8f5eed3a32786905249a7", "type": "electric_scooter", "is_reserved": 0, "lon": -77.03854216666667}, {"fusion_lat": 0.0, "name": "4aa54dc421c20050b1854621f390b135", "is_disabled": 0, "rental_uris": {"android": "https://dc.lft.to/lastmile_qr_scan", "ios": "https://dc.lft.to/lastmile_qr_scan"}, "fusion_lon": 0.0, "lat": 38.90954083333333, "bike_id": "4aa54dc421c20050b1854621f390b135", "type": "electric_scooter", "is_reserved": 0, "lon": -76.98551566666667}, {"fusion_lat": 0.0, "name": "77f01b795fa4a5146796f66b23270952", "is_disabled": 0, "rental_uris": {"android": "https://dc.lft.to/lastmile_qr_scan", "ios": "https://dc.lft.to/lastmile_qr_scan"}, "fusion_lon": 0.0, "lat": 38.9098965, "bike_id": "77f01b795fa4a5146796f66b23270952", "type": "electric_scooter", "is_reserved": 0, "lon": -77.03839716666667}, {"fusion_lat": 0.0, "name": "38ccebf7f7a1e891ef9d8d77d88011df", "is_disabled": 0, "rental_uris": {"android": "https://dc.lft.to/lastmile_qr_scan", "ios": "https://dc.lft.to/lastmile_qr_scan"}, "fusion_lon": 0.0, "lat": 38.9446525, "bike_id": "38ccebf7f7a1e891ef9d8d77d88011df", "type": "electric_scooter", "is_reserved": 0, "lon": -77.006584}, {"fusion_lat": 0.0, "name": "abd817cd69cd31c6401ab5c79e766fd3", "is_disabled": 0, "rental_uris": {"android": "https://dc.lft.to/lastmile_qr_scan", "ios": "https://dc.lft.to/lastmile_qr_scan"}, "fusion_lon": 0.0, "lat": 38.887708333333336, "bike_id": "abd817cd69cd31c6401ab5c79e766fd3", "type": "electric_scooter", "is_reserved": 0, "lon": -76.97749916666666}, {"fusion_lat": 0.0, "name": "04e292ef5490cf06e9993b3231dc74d9", "is_disabled": 0, "rental_uris": {"android": "https://dc.lft.to/lastmile_qr_scan", "ios": "https://dc.lft.to/lastmile_qr_scan"}, "fusion_lon": 0.0, "lat": 38.87466833333333, "bike_id": "04e292ef5490cf06e9993b3231dc74d9", "type": "electric_scooter", "is_reserved": 0, "lon": -77.018991}, {"fusion_lat": 0.0, "name": "68e9cf21183bc0c5fc40a9d3cbe8b722", "is_disabled": 0, "rental_uris": {"android": "https://dc.lft.to/lastmile_qr_scan", "ios": "https://dc.lft.to/lastmile_qr_scan"}, "fusion_lon": 0.0, "lat": 38.824609333333335, "bike_id": "68e9cf21183bc0c5fc40a9d3cbe8b722", "type": "electric_bike", "is_reserved": 0, "lon": -77.0079615}, {"fusion_lat": 0.0, "name": "5397c9ba3024b993b5fe66082ad6bc58", "is_disabled": 0, "rental_uris": {"android": "https://dc.lft.to/lastmile_qr_scan", "ios": "https://dc.lft.to/lastmile_qr_scan"}, "fusion_lon": 0.0, "lat": 38.91400516666667, "bike_id": "5397c9ba3024b993b5fe66082ad6bc58", "type": "electric_scooter", "is_reserved": 0, "lon": -77.03926066666666}, {"fusion_lat": 0.0, "name": "b77abef16665f9c8c3fc0bc4e3ddc250", "is_disabled": 0, "rental_uris": {"android": "https://dc.lft.to/lastmile_qr_scan", "ios": "https://dc.lft.to/lastmile_qr_scan"}, "fusion_lon": 0.0, "lat": 38.90504716666667, "bike_id": "b77abef16665f9c8c3fc0bc4e3ddc250", "type": "electric_scooter", "is_reserved": 0, "lon": -77.029631}, {"fusion_lat": 0.0, "name": "7d2ab0d5ff0374a535cb8df920084349", "is_disabled": 0, "rental_uris": {"android": "https://dc.lft.to/lastmile_qr_scan", "ios": "https://dc.lft.to/lastmile_qr_scan"}, "fusion_lon": 0.0, "lat": 38.907985833333335, "bike_id": "7d2ab0d5ff0374a535cb8df920084349", "type": "electric_scooter", "is_reserved": 0, "lon": -77.043374}, {"fusion_lat": 0.0, "name": "2bc19d125c768b6b60821df413e8ebed", "is_disabled": 0, "rental_uris": {"android": "https://dc.lft.to/lastmile_qr_scan", "ios": "https://dc.lft.to/lastmile_qr_scan"}, "fusion_lon": 0.0, "lat": 38.89534333333334, "bike_id": "2bc19d125c768b6b60821df413e8ebed", "type": "electric_scooter", "is_reserved": 0, "lon": -77.0109765}, {"fusion_lat": 0.0, "name": "459da55cf0d08f9238725d4f899819f3", "is_disabled": 0, "rental_uris": {"android": "https://dc.lft.to/lastmile_qr_scan", "ios": "https://dc.lft.to/lastmile_qr_scan"}, "fusion_lon": 0.0, "lat": 38.836095666666665, "bike_id": "459da55cf0d08f9238725d4f899819f3", "type": "electric_bike", "is_reserved": 0, "lon": -77.00383866666667}, {"fusion_lat": 0.0, "name": "5fc655aaa9115f305c9a62de7c0a11a6", "is_disabled": 0, "rental_uris": {"android": "https://dc.lft.to/lastmile_qr_scan", "ios": "https://dc.lft.to/lastmile_qr_scan"}, "fusion_lon": 0.0, "lat": 38.85703733333333, "bike_id": "5fc655aaa9115f305c9a62de7c0a11a6", "type": "electric_scooter", "is_reserved": 0, "lon": -76.9960015}, {"fusion_lat": 0.0, "name": "d8174cdeeb7dbbe04595a1ecf732fd1f", "is_disabled": 0, "rental_uris": {"android": "https://dc.lft.to/lastmile_qr_scan", "ios": "https://dc.lft.to/lastmile_qr_scan"}, "fusion_lon": 0.0, "lat": 38.902682, "bike_id": "d8174cdeeb7dbbe04595a1ecf732fd1f", "type": "electric_scooter", "is_reserved": 0, "lon": -77.0168275}, {"fusion_lat": 0.0, "name": "5ab7622981c7a46df0e98c7b6e4285d7", "is_disabled": 0, "rental_uris": {"android": "https://dc.lft.to/lastmile_qr_scan", "ios": "https://dc.lft.to/lastmile_qr_scan"}, "fusion_lon": 0.0, "lat": 38.9251485, "bike_id": "5ab7622981c7a46df0e98c7b6e4285d7", "type": "electric_scooter", "is_reserved": 0, "lon": -77.0238815}, {"fusion_lat": 0.0, "name": "284f2c643b66351caed5aea3504f0066", "is_disabled": 0, "rental_uris": {"android": "https://dc.lft.to/lastmile_qr_scan", "ios": "https://dc.lft.to/lastmile_qr_scan"}, "fusion_lon": 0.0, "lat": 38.88800116666667, "bike_id": "284f2c643b66351caed5aea3504f0066", "type": "electric_bike", "is_reserved": 0, "lon": -76.9299405}, {"fusion_lat": 0.0, "name": "82a398f4ba996a68bdc5db7bf5e2095c", "is_disabled": 0, "rental_uris": {"android": "https://dc.lft.to/lastmile_qr_scan", "ios": "https://dc.lft.to/lastmile_qr_scan"}, "fusion_lon": 0.0, "lat": 38.92683983333333, "bike_id": "82a398f4ba996a68bdc5db7bf5e2095c", "type": "electric_scooter", "is_reserved": 0, "lon": -77.0308435}, {"fusion_lat": 0.0, "name": "a2b7c042357cbd5824b1686a140c30d8", "is_disabled": 0, "rental_uris": {"android": "https://dc.lft.to/lastmile_qr_scan", "ios": "https://dc.lft.to/lastmile_qr_scan"}, "fusion_lon": 0.0, "lat": 38.892504, "bike_id": "a2b7c042357cbd5824b1686a140c30d8", "type": "electric_scooter", "is_reserved": 0, "lon": -77.03342166666667}, {"fusion_lat": 0.0, "name": "fbd597cd4850e6a8f486b45ba6b65244", "is_disabled": 0, "rental_uris": {"android": "https://dc.lft.to/lastmile_qr_scan", "ios": "https://dc.lft.to/lastmile_qr_scan"}, "fusion_lon": 0.0, "lat": 38.90725033333333, "bike_id": "fbd597cd4850e6a8f486b45ba6b65244", "type": "electric_scooter", "is_reserved": 0, "lon": -77.047568}, {"fusion_lat": 0.0, "name": "3bba383ce7c07d0ee4a710b63f335178", "is_disabled": 0, "rental_uris": {"android": "https://dc.lft.to/lastmile_qr_scan", "ios": "https://dc.lft.to/lastmile_qr_scan"}, "fusion_lon": 0.0, "lat": 38.89980633333333, "bike_id": "3bba383ce7c07d0ee4a710b63f335178", "type": "electric_scooter", "is_reserved": 0, "lon": -77.0334855}, {"fusion_lat": 0.0, "name": "0f921f3274393550a455774beeb289ce", "is_disabled": 0, "rental_uris": {"android": "https://dc.lft.to/lastmile_qr_scan", "ios": "https://dc.lft.to/lastmile_qr_scan"}, "fusion_lon": 0.0, "lat": 38.9002345, "bike_id": "0f921f3274393550a455774beeb289ce", "type": "electric_scooter", "is_reserved": 0, "lon": -77.0111675}, {"fusion_lat": 0.0, "name": "f635e52666f4c1298fbd26efbeaed863", "is_disabled": 0, "rental_uris": {"android": "https://dc.lft.to/lastmile_qr_scan", "ios": "https://dc.lft.to/lastmile_qr_scan"}, "fusion_lon": 0.0, "lat": 38.903468, "bike_id": "f635e52666f4c1298fbd26efbeaed863", "type": "electric_scooter", "is_reserved": 0, "lon": -76.93366816666666}, {"fusion_lat": 0.0, "name": "c9ad6e17ca262c8255e412a866a78222", "is_disabled": 0, "rental_uris": {"android": "https://dc.lft.to/lastmile_qr_scan", "ios": "https://dc.lft.to/lastmile_qr_scan"}, "fusion_lon": 0.0, "lat": 38.8830455, "bike_id": "c9ad6e17ca262c8255e412a866a78222", "type": "electric_scooter", "is_reserved": 0, "lon": -76.94857433333334}, {"fusion_lat": 0.0, "name": "64e12311f46a224bc90cbd161e4cadcc", "is_disabled": 0, "rental_uris": {"android": "https://dc.lft.to/lastmile_qr_scan", "ios": "https://dc.lft.to/lastmile_qr_scan"}, "fusion_lon": 0.0, "lat": 38.81916566666666, "bike_id": "64e12311f46a224bc90cbd161e4cadcc", "type": "electric_bike", "is_reserved": 0, "lon": -77.04798616666666}, {"fusion_lat": 0.0, "name": "5198cbe5da31177014c5cc3cdc9d0738", "is_disabled": 0, "rental_uris": {"android": "https://dc.lft.to/lastmile_qr_scan", "ios": "https://dc.lft.to/lastmile_qr_scan"}, "fusion_lon": 0.0, "lat": 38.9287235, "bike_id": "5198cbe5da31177014c5cc3cdc9d0738", "type": "electric_scooter", "is_reserved": 0, "lon": -77.0340765}, {"fusion_lat": 0.0, "name": "22d98eab7113bb7b1b4e8083038b14f9", "is_disabled": 0, "rental_uris": {"android": "https://dc.lft.to/lastmile_qr_scan", "ios": "https://dc.lft.to/lastmile_qr_scan"}, "fusion_lon": 0.0, "lat": 38.8075895, "bike_id": "22d98eab7113bb7b1b4e8083038b14f9", "type": "electric_bike", "is_reserved": 0, "lon": -77.09453333333333}, {"fusion_lat": 0.0, "name": "0e381d62a4f66e6f4b10049752aeb916", "is_disabled": 0, "rental_uris": {"android": "https://dc.lft.to/lastmile_qr_scan", "ios": "https://dc.lft.to/lastmile_qr_scan"}, "fusion_lon": 0.0, "lat": 38.87828833333333, "bike_id": "0e381d62a4f66e6f4b10049752aeb916", "type": "electric_scooter", "is_reserved": 0, "lon": -76.9901415}, {"fusion_lat": 0.0, "name": "1c1ca1c5e262c38d8151dae16bb84db3", "is_disabled": 0, "rental_uris": {"android": "https://dc.lft.to/lastmile_qr_scan", "ios": "https://dc.lft.to/lastmile_qr_scan"}, "fusion_lon": 0.0, "lat": 38.90974933333333, "bike_id": "1c1ca1c5e262c38d8151dae16bb84db3", "type": "electric_scooter", "is_reserved": 0, "lon": -77.04743966666666}, {"fusion_lat": 0.0, "name": "27b3adbd9aa9e6c7330fd218e05d6830", "is_disabled": 0, "rental_uris": {"android": "https://dc.lft.to/lastmile_qr_scan", "ios": "https://dc.lft.to/lastmile_qr_scan"}, "fusion_lon": 0.0, "lat": 38.853688166666664, "bike_id": "27b3adbd9aa9e6c7330fd218e05d6830", "type": "electric_bike", "is_reserved": 0, "lon": -77.11501416666667}, {"fusion_lat": 0.0, "name": "180b256d8be206df264ba805a71e5a70", "is_disabled": 0, "rental_uris": {"android": "https://dc.lft.to/lastmile_qr_scan", "ios": "https://dc.lft.to/lastmile_qr_scan"}, "fusion_lon": 0.0, "lat": 38.93018166666667, "bike_id": "180b256d8be206df264ba805a71e5a70", "type": "electric_scooter", "is_reserved": 0, "lon": -77.02075733333334}, {"fusion_lat": 0.0, "name": "447ab6c924d5a1fc354014e9ef5c353e", "is_disabled": 0, "rental_uris": {"android": "https://dc.lft.to/lastmile_qr_scan", "ios": "https://dc.lft.to/lastmile_qr_scan"}, "fusion_lon": 0.0, "lat": 38.9000785, "bike_id": "447ab6c924d5a1fc354014e9ef5c353e", "type": "electric_scooter", "is_reserved": 0, "lon": -76.99837233333334}, {"fusion_lat": 0.0, "name": "34c247e342c14678cdfe54906107b105", "is_disabled": 0, "rental_uris": {"android": "https://dc.lft.to/lastmile_qr_scan", "ios": "https://dc.lft.to/lastmile_qr_scan"}, "fusion_lon": 0.0, "lat": 38.900297333333334, "bike_id": "34c247e342c14678cdfe54906107b105", "type": "electric_scooter", "is_reserved": 0, "lon": -76.99742783333333}, {"fusion_lat": 0.0, "name": "6b66e781736c79f8bd18c2cfdec2b47d", "is_disabled": 0, "rental_uris": {"android": "https://dc.lft.to/lastmile_qr_scan", "ios": "https://dc.lft.to/lastmile_qr_scan"}, "fusion_lon": 0.0, "lat": 39.034285, "bike_id": "6b66e781736c79f8bd18c2cfdec2b47d", "type": "electric_bike", "is_reserved": 0, "lon": -77.04302916666667}, {"fusion_lat": 0.0, "name": "e9adc0a6bb6adea2249cc231b23b3a3b", "is_disabled": 0, "rental_uris": {"android": "https://dc.lft.to/lastmile_qr_scan", "ios": "https://dc.lft.to/lastmile_qr_scan"}, "fusion_lon": 0.0, "lat": 38.924842, "bike_id": "e9adc0a6bb6adea2249cc231b23b3a3b", "type": "electric_scooter", "is_reserved": 0, "lon": -77.027171}, {"fusion_lat": 0.0, "name": "86b89e3052bf43c3b6d4c0d503fec0c3", "is_disabled": 0, "rental_uris": {"android": "https://dc.lft.to/lastmile_qr_scan", "ios": "https://dc.lft.to/lastmile_qr_scan"}, "fusion_lon": 0.0, "lat": 38.927610666666666, "bike_id": "86b89e3052bf43c3b6d4c0d503fec0c3", "type": "electric_scooter", "is_reserved": 0, "lon": -77.03292033333334}, {"fusion_lat": 0.0, "name": "80c51273fc4f1c3e55bd5222d1e5b499", "is_disabled": 0, "rental_uris": {"android": "https://dc.lft.to/lastmile_qr_scan", "ios": "https://dc.lft.to/lastmile_qr_scan"}, "fusion_lon": 0.0, "lat": 38.90738983333333, "bike_id": "80c51273fc4f1c3e55bd5222d1e5b499", "type": "electric_scooter", "is_reserved": 0, "lon": -77.02602733333333}, {"fusion_lat": 0.0, "name": "c216264844be5def1e07b48e3c542663", "is_disabled": 0, "rental_uris": {"android": "https://dc.lft.to/lastmile_qr_scan", "ios": "https://dc.lft.to/lastmile_qr_scan"}, "fusion_lon": 0.0, "lat": 38.938679, "bike_id": "c216264844be5def1e07b48e3c542663", "type": "electric_scooter", "is_reserved": 0, "lon": -77.03204566666666}, {"fusion_lat": 0.0, "name": "88a1aa72bd659ffcde205e3b1ee51e5c", "is_disabled": 0, "rental_uris": {"android": "https://dc.lft.to/lastmile_qr_scan", "ios": "https://dc.lft.to/lastmile_qr_scan"}, "fusion_lon": 0.0, "lat": 38.914263166666665, "bike_id": "88a1aa72bd659ffcde205e3b1ee51e5c", "type": "electric_scooter", "is_reserved": 0, "lon": -76.98442766666666}, {"fusion_lat": 0.0, "name": "6ce085ddca4617b6ae18cdac28002281", "is_disabled": 0, "rental_uris": {"android": "https://dc.lft.to/lastmile_qr_scan", "ios": "https://dc.lft.to/lastmile_qr_scan"}, "fusion_lon": 0.0, "lat": 38.900588166666665, "bike_id": "6ce085ddca4617b6ae18cdac28002281", "type": "electric_scooter", "is_reserved": 0, "lon": -77.04488616666667}, {"fusion_lat": 0.0, "name": "d1067a4f17b6bd3fa980ee775ba1d22e", "is_disabled": 0, "rental_uris": {"android": "https://dc.lft.to/lastmile_qr_scan", "ios": "https://dc.lft.to/lastmile_qr_scan"}, "fusion_lon": 0.0, "lat": 38.915659166666664, "bike_id": "d1067a4f17b6bd3fa980ee775ba1d22e", "type": "electric_scooter", "is_reserved": 0, "lon": -77.03149666666667}, {"fusion_lat": 0.0, "name": "0c70b9ec73c9885a53f33584844e0e0f", "is_disabled": 0, "rental_uris": {"android": "https://dc.lft.to/lastmile_qr_scan", "ios": "https://dc.lft.to/lastmile_qr_scan"}, "fusion_lon": 0.0, "lat": 38.92063516666666, "bike_id": "0c70b9ec73c9885a53f33584844e0e0f", "type": "electric_scooter", "is_reserved": 0, "lon": -77.03198466666667}, {"fusion_lat": 0.0, "name": "760ef9be873c7bbf09b2db9a38bd4c9c", "is_disabled": 0, "rental_uris": {"android": "https://dc.lft.to/lastmile_qr_scan", "ios": "https://dc.lft.to/lastmile_qr_scan"}, "fusion_lon": 0.0, "lat": 38.931821666666664, "bike_id": "760ef9be873c7bbf09b2db9a38bd4c9c", "type": "electric_scooter", "is_reserved": 0, "lon": -77.04299233333333}, {"fusion_lat": 0.0, "name": "bf7220237468042ddec21da7d418dd97", "is_disabled": 0, "rental_uris": {"android": "https://dc.lft.to/lastmile_qr_scan", "ios": "https://dc.lft.to/lastmile_qr_scan"}, "fusion_lon": 0.0, "lat": 38.91116433333333, "bike_id": "bf7220237468042ddec21da7d418dd97", "type": "electric_scooter", "is_reserved": 0, "lon": -77.01149983333333}, {"fusion_lat": 0.0, "name": "089d3602644665db6364f904550b81d5", "is_disabled": 0, "rental_uris": {"android": "https://dc.lft.to/lastmile_qr_scan", "ios": "https://dc.lft.to/lastmile_qr_scan"}, "fusion_lon": 0.0, "lat": 38.9571035, "bike_id": "089d3602644665db6364f904550b81d5", "type": "electric_scooter", "is_reserved": 0, "lon": -77.02395883333334}, {"fusion_lat": 0.0, "name": "02139638b8f52dfdb74f855d3d15d391", "is_disabled": 0, "rental_uris": {"android": "https://dc.lft.to/lastmile_qr_scan", "ios": "https://dc.lft.to/lastmile_qr_scan"}, "fusion_lon": 0.0, "lat": 38.884605666666666, "bike_id": "02139638b8f52dfdb74f855d3d15d391", "type": "electric_scooter", "is_reserved": 0, "lon": -76.99839866666667}, {"fusion_lat": 0.0, "name": "f50a6fa4ef3b9f0d8d661fa039f04dd1", "is_disabled": 0, "rental_uris": {"android": "https://dc.lft.to/lastmile_qr_scan", "ios": "https://dc.lft.to/lastmile_qr_scan"}, "fusion_lon": 0.0, "lat": 38.929875333333335, "bike_id": "f50a6fa4ef3b9f0d8d661fa039f04dd1", "type": "electric_scooter", "is_reserved": 0, "lon": -77.03242066666667}, {"fusion_lat": 0.0, "name": "70d2abd461257d940c444ed8793e42fe", "is_disabled": 0, "rental_uris": {"android": "https://dc.lft.to/lastmile_qr_scan", "ios": "https://dc.lft.to/lastmile_qr_scan"}, "fusion_lon": 0.0, "lat": 38.88483866666667, "bike_id": "70d2abd461257d940c444ed8793e42fe", "type": "electric_scooter", "is_reserved": 0, "lon": -76.92971533333333}, {"fusion_lat": 0.0, "name": "a9b576ecf7666a264628391fd7697a83", "is_disabled": 0, "rental_uris": {"android": "https://dc.lft.to/lastmile_qr_scan", "ios": "https://dc.lft.to/lastmile_qr_scan"}, "fusion_lon": 0.0, "lat": 38.9470585, "bike_id": "a9b576ecf7666a264628391fd7697a83", "type": "electric_scooter", "is_reserved": 0, "lon": -77.01937366666667}, {"fusion_lat": 0.0, "name": "bd1e38340b928893c5308231a43b8604", "is_disabled": 0, "rental_uris": {"android": "https://dc.lft.to/lastmile_qr_scan", "ios": "https://dc.lft.to/lastmile_qr_scan"}, "fusion_lon": 0.0, "lat": 38.924474000000004, "bike_id": "bd1e38340b928893c5308231a43b8604", "type": "electric_scooter", "is_reserved": 0, "lon": -77.0335495}, {"fusion_lat": 0.0, "name": "2e0a3091cfc9c94cf969320a6abc5642", "is_disabled": 0, "rental_uris": {"android": "https://dc.lft.to/lastmile_qr_scan", "ios": "https://dc.lft.to/lastmile_qr_scan"}, "fusion_lon": 0.0, "lat": 38.93584933333333, "bike_id": "2e0a3091cfc9c94cf969320a6abc5642", "type": "electric_scooter", "is_reserved": 0, "lon": -77.02362566666666}, {"fusion_lat": 0.0, "name": "809c7ce967f0a9998d9696e0db7f0be8", "is_disabled": 0, "rental_uris": {"android": "https://dc.lft.to/lastmile_qr_scan", "ios": "https://dc.lft.to/lastmile_qr_scan"}, "fusion_lon": 0.0, "lat": 38.946797833333335, "bike_id": "809c7ce967f0a9998d9696e0db7f0be8", "type": "electric_scooter", "is_reserved": 0, "lon": -77.03092366666667}, {"fusion_lat": 0.0, "name": "2ad9a9aac497303aa222aad20e018ba1", "is_disabled": 0, "rental_uris": {"android": "https://dc.lft.to/lastmile_qr_scan", "ios": "https://dc.lft.to/lastmile_qr_scan"}, "fusion_lon": 0.0, "lat": 38.919779, "bike_id": "2ad9a9aac497303aa222aad20e018ba1", "type": "electric_scooter", "is_reserved": 0, "lon": -77.01814966666667}, {"fusion_lat": 0.0, "name": "783b63faace506c76b828c0ddc1d3dbd", "is_disabled": 0, "rental_uris": {"android": "https://dc.lft.to/lastmile_qr_scan", "ios": "https://dc.lft.to/lastmile_qr_scan"}, "fusion_lon": 0.0, "lat": 38.931002666666664, "bike_id": "783b63faace506c76b828c0ddc1d3dbd", "type": "electric_scooter", "is_reserved": 0, "lon": -77.02656183333333}, {"fusion_lat": 0.0, "name": "700125ee9b4a97ec63345826a15a1080", "is_disabled": 0, "rental_uris": {"android": "https://dc.lft.to/lastmile_qr_scan", "ios": "https://dc.lft.to/lastmile_qr_scan"}, "fusion_lon": 0.0, "lat": 38.925441666666664, "bike_id": "700125ee9b4a97ec63345826a15a1080", "type": "electric_scooter", "is_reserved": 0, "lon": -77.04464683333333}, {"fusion_lat": 0.0, "name": "bf869eb0b0a0f4a3554a03badac3772c", "is_disabled": 0, "rental_uris": {"android": "https://dc.lft.to/lastmile_qr_scan", "ios": "https://dc.lft.to/lastmile_qr_scan"}, "fusion_lon": 0.0, "lat": 38.904377833333335, "bike_id": "bf869eb0b0a0f4a3554a03badac3772c", "type": "electric_scooter", "is_reserved": 0, "lon": -77.03171316666666}, {"fusion_lat": 0.0, "name": "8282a5837314d1589835e14adb9f010a", "is_disabled": 0, "rental_uris": {"android": "https://dc.lft.to/lastmile_qr_scan", "ios": "https://dc.lft.to/lastmile_qr_scan"}, "fusion_lon": 0.0, "lat": 38.930568, "bike_id": "8282a5837314d1589835e14adb9f010a", "type": "electric_scooter", "is_reserved": 0, "lon": -77.03352233333334}, {"fusion_lat": 0.0, "name": "3922dacc8aa8a7e2f6fd3ca9d613394e", "is_disabled": 0, "rental_uris": {"android": "https://dc.lft.to/lastmile_qr_scan", "ios": "https://dc.lft.to/lastmile_qr_scan"}, "fusion_lon": 0.0, "lat": 38.85799033333333, "bike_id": "3922dacc8aa8a7e2f6fd3ca9d613394e", "type": "electric_bike", "is_reserved": 0, "lon": -77.12014016666667}, {"fusion_lat": 0.0, "name": "36bcf54b86c5ad4940abe9b1db3b9c78", "is_disabled": 0, "rental_uris": {"android": "https://dc.lft.to/lastmile_qr_scan", "ios": "https://dc.lft.to/lastmile_qr_scan"}, "fusion_lon": 0.0, "lat": 38.894831833333335, "bike_id": "36bcf54b86c5ad4940abe9b1db3b9c78", "type": "electric_scooter", "is_reserved": 0, "lon": -77.02681816666667}, {"fusion_lat": 0.0, "name": "e7a31273db5f3c522078fa4d33356346", "is_disabled": 0, "rental_uris": {"android": "https://dc.lft.to/lastmile_qr_scan", "ios": "https://dc.lft.to/lastmile_qr_scan"}, "fusion_lon": 0.0, "lat": 38.8626765, "bike_id": "e7a31273db5f3c522078fa4d33356346", "type": "electric_bike", "is_reserved": 0, "lon": -76.98344733333333}, {"fusion_lat": 0.0, "name": "7e8be4a669a9913882c3afe16c1937b0", "is_disabled": 0, "rental_uris": {"android": "https://dc.lft.to/lastmile_qr_scan", "ios": "https://dc.lft.to/lastmile_qr_scan"}, "fusion_lon": 0.0, "lat": 38.935632, "bike_id": "7e8be4a669a9913882c3afe16c1937b0", "type": "electric_scooter", "is_reserved": 0, "lon": -77.03488216666666}, {"fusion_lat": 0.0, "name": "fc20aa670cbe86967438192248fda09f", "is_disabled": 0, "rental_uris": {"android": "https://dc.lft.to/lastmile_qr_scan", "ios": "https://dc.lft.to/lastmile_qr_scan"}, "fusion_lon": 0.0, "lat": 38.902476666666665, "bike_id": "fc20aa670cbe86967438192248fda09f", "type": "electric_scooter", "is_reserved": 0, "lon": -77.01934266666666}, {"fusion_lat": 0.0, "name": "a3585a9728feadf0a73e0e8ff8c09661", "is_disabled": 0, "rental_uris": {"android": "https://dc.lft.to/lastmile_qr_scan", "ios": "https://dc.lft.to/lastmile_qr_scan"}, "fusion_lon": 0.0, "lat": 38.91674716666667, "bike_id": "a3585a9728feadf0a73e0e8ff8c09661", "type": "electric_scooter", "is_reserved": 0, "lon": -77.027216}, {"fusion_lat": 0.0, "name": "9bb85e77706e56d3d9d1647bd7114a11", "is_disabled": 0, "rental_uris": {"android": "https://dc.lft.to/lastmile_qr_scan", "ios": "https://dc.lft.to/lastmile_qr_scan"}, "fusion_lon": 0.0, "lat": 38.930674333333336, "bike_id": "9bb85e77706e56d3d9d1647bd7114a11", "type": "electric_scooter", "is_reserved": 0, "lon": -77.02982633333333}, {"fusion_lat": 0.0, "name": "668ffd79fdcc1f657bba2e5586a52ad7", "is_disabled": 0, "rental_uris": {"android": "https://dc.lft.to/lastmile_qr_scan", "ios": "https://dc.lft.to/lastmile_qr_scan"}, "fusion_lon": 0.0, "lat": 38.895042833333335, "bike_id": "668ffd79fdcc1f657bba2e5586a52ad7", "type": "electric_scooter", "is_reserved": 0, "lon": -77.0111205}, {"fusion_lat": 0.0, "name": "3e17856b33d2007410de1dba824771ca", "is_disabled": 0, "rental_uris": {"android": "https://dc.lft.to/lastmile_qr_scan", "ios": "https://dc.lft.to/lastmile_qr_scan"}, "fusion_lon": 0.0, "lat": 38.906061666666666, "bike_id": "3e17856b33d2007410de1dba824771ca", "type": "electric_scooter", "is_reserved": 0, "lon": -77.041441}, {"fusion_lat": 0.0, "name": "0a6cde775f1416003b8a0b447d62430c", "is_disabled": 0, "rental_uris": {"android": "https://dc.lft.to/lastmile_qr_scan", "ios": "https://dc.lft.to/lastmile_qr_scan"}, "fusion_lon": 0.0, "lat": 38.88102466666667, "bike_id": "0a6cde775f1416003b8a0b447d62430c", "type": "electric_bike", "is_reserved": 0, "lon": -77.016706}, {"fusion_lat": 0.0, "name": "b32863421166e5413962d60ed5d1b038", "is_disabled": 0, "rental_uris": {"android": "https://dc.lft.to/lastmile_qr_scan", "ios": "https://dc.lft.to/lastmile_qr_scan"}, "fusion_lon": 0.0, "lat": 38.9268645, "bike_id": "b32863421166e5413962d60ed5d1b038", "type": "electric_scooter", "is_reserved": 0, "lon": -77.03142383333333}, {"fusion_lat": 0.0, "name": "96d2939f0bf9070889dcacffbb09b209", "is_disabled": 0, "rental_uris": {"android": "https://dc.lft.to/lastmile_qr_scan", "ios": "https://dc.lft.to/lastmile_qr_scan"}, "fusion_lon": 0.0, "lat": 38.919528666666665, "bike_id": "96d2939f0bf9070889dcacffbb09b209", "type": "electric_scooter", "is_reserved": 0, "lon": -77.02344383333333}, {"fusion_lat": 0.0, "name": "07f180ab07f16424d2f9ff456a79d88c", "is_disabled": 0, "rental_uris": {"android": "https://dc.lft.to/lastmile_qr_scan", "ios": "https://dc.lft.to/lastmile_qr_scan"}, "fusion_lon": 0.0, "lat": 38.941639333333335, "bike_id": "07f180ab07f16424d2f9ff456a79d88c", "type": "electric_scooter", "is_reserved": 0, "lon": -77.02506183333334}, {"fusion_lat": 0.0, "name": "87d5322cca479ef95c319ec5993077b6", "is_disabled": 0, "rental_uris": {"android": "https://dc.lft.to/lastmile_qr_scan", "ios": "https://dc.lft.to/lastmile_qr_scan"}, "fusion_lon": 0.0, "lat": 38.899482166666665, "bike_id": "87d5322cca479ef95c319ec5993077b6", "type": "electric_scooter", "is_reserved": 0, "lon": -77.05355383333334}, {"fusion_lat": 0.0, "name": "8402bf4aa6e8a2b2601c7bf5447c03d1", "is_disabled": 0, "rental_uris": {"android": "https://dc.lft.to/lastmile_qr_scan", "ios": "https://dc.lft.to/lastmile_qr_scan"}, "fusion_lon": 0.0, "lat": 38.905142166666664, "bike_id": "8402bf4aa6e8a2b2601c7bf5447c03d1", "type": "electric_scooter", "is_reserved": 0, "lon": -77.02942383333334}, {"fusion_lat": 0.0, "name": "c98bcd30127e8053596f7ece36bb778f", "is_disabled": 0, "rental_uris": {"android": "https://dc.lft.to/lastmile_qr_scan", "ios": "https://dc.lft.to/lastmile_qr_scan"}, "fusion_lon": 0.0, "lat": 38.90299133333333, "bike_id": "c98bcd30127e8053596f7ece36bb778f", "type": "electric_scooter", "is_reserved": 0, "lon": -76.992529}, {"fusion_lat": 0.0, "name": "113dadef9162c0ab985aa8279239cddc", "is_disabled": 0, "rental_uris": {"android": "https://dc.lft.to/lastmile_qr_scan", "ios": "https://dc.lft.to/lastmile_qr_scan"}, "fusion_lon": 0.0, "lat": 38.887466, "bike_id": "113dadef9162c0ab985aa8279239cddc", "type": "electric_scooter", "is_reserved": 0, "lon": -76.98361866666667}, {"fusion_lat": 0.0, "name": "0008ddd21e175255466e65e92312eeec", "is_disabled": 0, "rental_uris": {"android": "https://dc.lft.to/lastmile_qr_scan", "ios": "https://dc.lft.to/lastmile_qr_scan"}, "fusion_lon": 0.0, "lat": 38.917082666666666, "bike_id": "0008ddd21e175255466e65e92312eeec", "type": "electric_scooter", "is_reserved": 0, "lon": -77.028811}, {"fusion_lat": 0.0, "name": "8050544dbec7a2a9b7ebde011150fd2f", "is_disabled": 0, "rental_uris": {"android": "https://dc.lft.to/lastmile_qr_scan", "ios": "https://dc.lft.to/lastmile_qr_scan"}, "fusion_lon": 0.0, "lat": 38.866314833333334, "bike_id": "8050544dbec7a2a9b7ebde011150fd2f", "type": "electric_scooter", "is_reserved": 0, "lon": -76.98253766666667}, {"fusion_lat": 0.0, "name": "0378430297303ec33522df7a1590dd13", "is_disabled": 0, "rental_uris": {"android": "https://dc.lft.to/lastmile_qr_scan", "ios": "https://dc.lft.to/lastmile_qr_scan"}, "fusion_lon": 0.0, "lat": 38.91344016666667, "bike_id": "0378430297303ec33522df7a1590dd13", "type": "electric_bike", "is_reserved": 0, "lon": -76.988976}, {"fusion_lat": 0.0, "name": "d4722555a53869c6ced7130250ae1349", "is_disabled": 0, "rental_uris": {"android": "https://dc.lft.to/lastmile_qr_scan", "ios": "https://dc.lft.to/lastmile_qr_scan"}, "fusion_lon": 0.0, "lat": 38.91170316666667, "bike_id": "d4722555a53869c6ced7130250ae1349", "type": "electric_scooter", "is_reserved": 0, "lon": -77.00198316666666}, {"fusion_lat": 0.0, "name": "bd1a493329ae03d1b3b9e8e36136bdd4", "is_disabled": 0, "rental_uris": {"android": "https://dc.lft.to/lastmile_qr_scan", "ios": "https://dc.lft.to/lastmile_qr_scan"}, "fusion_lon": 0.0, "lat": 38.88814466666667, "bike_id": "bd1a493329ae03d1b3b9e8e36136bdd4", "type": "electric_scooter", "is_reserved": 0, "lon": -76.98359016666667}, {"fusion_lat": 0.0, "name": "75f1d090d2ae7495991af3057aa3ba13", "is_disabled": 0, "rental_uris": {"android": "https://dc.lft.to/lastmile_qr_scan", "ios": "https://dc.lft.to/lastmile_qr_scan"}, "fusion_lon": 0.0, "lat": 38.904559666666664, "bike_id": "75f1d090d2ae7495991af3057aa3ba13", "type": "electric_bike", "is_reserved": 0, "lon": -76.97424583333333}, {"fusion_lat": 0.0, "name": "30642bc66c5aa65a4f6735794756a435", "is_disabled": 0, "rental_uris": {"android": "https://dc.lft.to/lastmile_qr_scan", "ios": "https://dc.lft.to/lastmile_qr_scan"}, "fusion_lon": 0.0, "lat": 38.85567733333333, "bike_id": "30642bc66c5aa65a4f6735794756a435", "type": "electric_bike", "is_reserved": 0, "lon": -77.113161}, {"fusion_lat": 0.0, "name": "cf775f2eac3e235b607000c2edb169c7", "is_disabled": 0, "rental_uris": {"android": "https://dc.lft.to/lastmile_qr_scan", "ios": "https://dc.lft.to/lastmile_qr_scan"}, "fusion_lon": 0.0, "lat": 38.897319, "bike_id": "cf775f2eac3e235b607000c2edb169c7", "type": "electric_scooter", "is_reserved": 0, "lon": -76.94702266666667}, {"fusion_lat": 0.0, "name": "e79cc090e82b122ecc57710277144890", "is_disabled": 0, "rental_uris": {"android": "https://dc.lft.to/lastmile_qr_scan", "ios": "https://dc.lft.to/lastmile_qr_scan"}, "fusion_lon": 0.0, "lat": 38.960739333333336, "bike_id": "e79cc090e82b122ecc57710277144890", "type": "electric_scooter", "is_reserved": 0, "lon": -77.0009455}, {"fusion_lat": 0.0, "name": "c3e63394713bcbfba763805816d42380", "is_disabled": 0, "rental_uris": {"android": "https://dc.lft.to/lastmile_qr_scan", "ios": "https://dc.lft.to/lastmile_qr_scan"}, "fusion_lon": 0.0, "lat": 38.905056333333334, "bike_id": "c3e63394713bcbfba763805816d42380", "type": "electric_scooter", "is_reserved": 0, "lon": -77.02944016666666}, {"fusion_lat": 0.0, "name": "a7d0b5269438905015cf23da812e3aa9", "is_disabled": 0, "rental_uris": {"android": "https://dc.lft.to/lastmile_qr_scan", "ios": "https://dc.lft.to/lastmile_qr_scan"}, "fusion_lon": 0.0, "lat": 38.91039383333333, "bike_id": "a7d0b5269438905015cf23da812e3aa9", "type": "electric_scooter", "is_reserved": 0, "lon": -77.01284916666667}, {"fusion_lat": 0.0, "name": "da9541e178e0185aeedd4d559c754f1c", "is_disabled": 0, "rental_uris": {"android": "https://dc.lft.to/lastmile_qr_scan", "ios": "https://dc.lft.to/lastmile_qr_scan"}, "fusion_lon": 0.0, "lat": 38.9451685, "bike_id": "da9541e178e0185aeedd4d559c754f1c", "type": "electric_scooter", "is_reserved": 0, "lon": -77.0389655}, {"fusion_lat": 0.0, "name": "5028041cd55af986a29c099c1f670590", "is_disabled": 0, "rental_uris": {"android": "https://dc.lft.to/lastmile_qr_scan", "ios": "https://dc.lft.to/lastmile_qr_scan"}, "fusion_lon": 0.0, "lat": 38.9013965, "bike_id": "5028041cd55af986a29c099c1f670590", "type": "electric_scooter", "is_reserved": 0, "lon": -77.04024783333334}, {"fusion_lat": 0.0, "name": "aed253b3a830dee46ea5d0ab4f613589", "is_disabled": 0, "rental_uris": {"android": "https://dc.lft.to/lastmile_qr_scan", "ios": "https://dc.lft.to/lastmile_qr_scan"}, "fusion_lon": 0.0, "lat": 38.941080666666664, "bike_id": "aed253b3a830dee46ea5d0ab4f613589", "type": "electric_scooter", "is_reserved": 0, "lon": -77.03475866666666}, {"fusion_lat": 0.0, "name": "b7e21b573912bc6d1bb09ee6884fc112", "is_disabled": 0, "rental_uris": {"android": "https://dc.lft.to/lastmile_qr_scan", "ios": "https://dc.lft.to/lastmile_qr_scan"}, "fusion_lon": 0.0, "lat": 38.935889833333334, "bike_id": "b7e21b573912bc6d1bb09ee6884fc112", "type": "electric_scooter", "is_reserved": 0, "lon": -77.02385316666667}, {"fusion_lat": 0.0, "name": "56b53f92f278ac7c9857113ee9ca380f", "is_disabled": 0, "rental_uris": {"android": "https://dc.lft.to/lastmile_qr_scan", "ios": "https://dc.lft.to/lastmile_qr_scan"}, "fusion_lon": 0.0, "lat": 38.903273, "bike_id": "56b53f92f278ac7c9857113ee9ca380f", "type": "electric_scooter", "is_reserved": 0, "lon": -77.03191116666666}, {"fusion_lat": 0.0, "name": "accb5cae7a255d3e956ce19fb5e1aead", "is_disabled": 0, "rental_uris": {"android": "https://dc.lft.to/lastmile_qr_scan", "ios": "https://dc.lft.to/lastmile_qr_scan"}, "fusion_lon": 0.0, "lat": 38.887618833333335, "bike_id": "accb5cae7a255d3e956ce19fb5e1aead", "type": "electric_scooter", "is_reserved": 0, "lon": -76.99785466666667}, {"fusion_lat": 0.0, "name": "26fd85f78d997668c7e0cb0b010dabc9", "is_disabled": 0, "rental_uris": {"android": "https://dc.lft.to/lastmile_qr_scan", "ios": "https://dc.lft.to/lastmile_qr_scan"}, "fusion_lon": 0.0, "lat": 38.906775, "bike_id": "26fd85f78d997668c7e0cb0b010dabc9", "type": "electric_scooter", "is_reserved": 0, "lon": -77.02963966666667}, {"fusion_lat": 0.0, "name": "de32c604e0cea975e303fe1d44b6abfa", "is_disabled": 0, "rental_uris": {"android": "https://dc.lft.to/lastmile_qr_scan", "ios": "https://dc.lft.to/lastmile_qr_scan"}, "fusion_lon": 0.0, "lat": 38.9170255, "bike_id": "de32c604e0cea975e303fe1d44b6abfa", "type": "electric_scooter", "is_reserved": 0, "lon": -77.02734833333334}, {"fusion_lat": 0.0, "name": "68a795ea076b55a294270113b5216117", "is_disabled": 0, "rental_uris": {"android": "https://dc.lft.to/lastmile_qr_scan", "ios": "https://dc.lft.to/lastmile_qr_scan"}, "fusion_lon": 0.0, "lat": 38.889932, "bike_id": "68a795ea076b55a294270113b5216117", "type": "electric_scooter", "is_reserved": 0, "lon": -76.92988833333334}, {"fusion_lat": 0.0, "name": "d22011ed2b16e008aa37963eeeaeca31", "is_disabled": 0, "rental_uris": {"android": "https://dc.lft.to/lastmile_qr_scan", "ios": "https://dc.lft.to/lastmile_qr_scan"}, "fusion_lon": 0.0, "lat": 38.923576, "bike_id": "d22011ed2b16e008aa37963eeeaeca31", "type": "electric_scooter", "is_reserved": 0, "lon": -76.99249066666667}, {"fusion_lat": 0.0, "name": "c5f9ac713c791f0c9474fa853232522c", "is_disabled": 0, "rental_uris": {"android": "https://dc.lft.to/lastmile_qr_scan", "ios": "https://dc.lft.to/lastmile_qr_scan"}, "fusion_lon": 0.0, "lat": 38.8475995, "bike_id": "c5f9ac713c791f0c9474fa853232522c", "type": "electric_scooter", "is_reserved": 0, "lon": -76.99498083333333}, {"fusion_lat": 0.0, "name": "038ee24b38e744a82e766ce5debb18f2", "is_disabled": 0, "rental_uris": {"android": "https://dc.lft.to/lastmile_qr_scan", "ios": "https://dc.lft.to/lastmile_qr_scan"}, "fusion_lon": 0.0, "lat": 38.93707283333333, "bike_id": "038ee24b38e744a82e766ce5debb18f2", "type": "electric_scooter", "is_reserved": 0, "lon": -77.06099033333334}, {"fusion_lat": 0.0, "name": "9653ebc2523118bc7092ddafa37458fd", "is_disabled": 0, "rental_uris": {"android": "https://dc.lft.to/lastmile_qr_scan", "ios": "https://dc.lft.to/lastmile_qr_scan"}, "fusion_lon": 0.0, "lat": 38.922483666666665, "bike_id": "9653ebc2523118bc7092ddafa37458fd", "type": "electric_scooter", "is_reserved": 0, "lon": -77.04251483333333}, {"fusion_lat": 0.0, "name": "e4c5b0188082689af1f0240475bf1b60", "is_disabled": 0, "rental_uris": {"android": "https://dc.lft.to/lastmile_qr_scan", "ios": "https://dc.lft.to/lastmile_qr_scan"}, "fusion_lon": 0.0, "lat": 38.9361355, "bike_id": "e4c5b0188082689af1f0240475bf1b60", "type": "electric_scooter", "is_reserved": 0, "lon": -77.03193933333333}, {"fusion_lat": 0.0, "name": "beb36f80b0dc79e9105a5574f8c29d04", "is_disabled": 0, "rental_uris": {"android": "https://dc.lft.to/lastmile_qr_scan", "ios": "https://dc.lft.to/lastmile_qr_scan"}, "fusion_lon": 0.0, "lat": 38.959709833333335, "bike_id": "beb36f80b0dc79e9105a5574f8c29d04", "type": "electric_bike", "is_reserved": 0, "lon": -76.98160883333334}, {"fusion_lat": 0.0, "name": "a85c0dc581fe18367be3323b84ea308e", "is_disabled": 0, "rental_uris": {"android": "https://dc.lft.to/lastmile_qr_scan", "ios": "https://dc.lft.to/lastmile_qr_scan"}, "fusion_lon": 0.0, "lat": 38.9023975, "bike_id": "a85c0dc581fe18367be3323b84ea308e", "type": "electric_scooter", "is_reserved": 0, "lon": -77.049073}, {"fusion_lat": 0.0, "name": "ca7ffb224c12cd9f3b1afc285c970e74", "is_disabled": 0, "rental_uris": {"android": "https://dc.lft.to/lastmile_qr_scan", "ios": "https://dc.lft.to/lastmile_qr_scan"}, "fusion_lon": 0.0, "lat": 38.904200833333334, "bike_id": "ca7ffb224c12cd9f3b1afc285c970e74", "type": "electric_scooter", "is_reserved": 0, "lon": -77.046677}, {"fusion_lat": 0.0, "name": "cc411f91461e9d9395b29ae0c50de9ac", "is_disabled": 0, "rental_uris": {"android": "https://dc.lft.to/lastmile_qr_scan", "ios": "https://dc.lft.to/lastmile_qr_scan"}, "fusion_lon": 0.0, "lat": 38.950743333333335, "bike_id": "cc411f91461e9d9395b29ae0c50de9ac", "type": "electric_bike", "is_reserved": 0, "lon": -77.01199966666667}, {"fusion_lat": 0.0, "name": "e3a81f165b7f5dd4eac5fbafc6164818", "is_disabled": 0, "rental_uris": {"android": "https://dc.lft.to/lastmile_qr_scan", "ios": "https://dc.lft.to/lastmile_qr_scan"}, "fusion_lon": 0.0, "lat": 38.95742666666666, "bike_id": "e3a81f165b7f5dd4eac5fbafc6164818", "type": "electric_bike", "is_reserved": 0, "lon": -76.98075299999999}, {"fusion_lat": 0.0, "name": "d72bc18bdeea21d1a21486072a6ff627", "is_disabled": 0, "rental_uris": {"android": "https://dc.lft.to/lastmile_qr_scan", "ios": "https://dc.lft.to/lastmile_qr_scan"}, "fusion_lon": 0.0, "lat": 38.9270005, "bike_id": "d72bc18bdeea21d1a21486072a6ff627", "type": "electric_scooter", "is_reserved": 0, "lon": -77.024287}, {"fusion_lat": 0.0, "name": "a25edf834a90a323bd8682935e20230d", "is_disabled": 0, "rental_uris": {"android": "https://dc.lft.to/lastmile_qr_scan", "ios": "https://dc.lft.to/lastmile_qr_scan"}, "fusion_lon": 0.0, "lat": 38.89912133333333, "bike_id": "a25edf834a90a323bd8682935e20230d", "type": "electric_scooter", "is_reserved": 0, "lon": -76.93350216666667}, {"fusion_lat": 0.0, "name": "f18e23cf81f40b71e14056564065ff29", "is_disabled": 0, "rental_uris": {"android": "https://dc.lft.to/lastmile_qr_scan", "ios": "https://dc.lft.to/lastmile_qr_scan"}, "fusion_lon": 0.0, "lat": 38.921991, "bike_id": "f18e23cf81f40b71e14056564065ff29", "type": "electric_scooter", "is_reserved": 0, "lon": -77.08099566666667}, {"fusion_lat": 0.0, "name": "f6f3fb658b45a90f620c17c053c400a9", "is_disabled": 0, "rental_uris": {"android": "https://dc.lft.to/lastmile_qr_scan", "ios": "https://dc.lft.to/lastmile_qr_scan"}, "fusion_lon": 0.0, "lat": 38.905804833333335, "bike_id": "f6f3fb658b45a90f620c17c053c400a9", "type": "electric_scooter", "is_reserved": 0, "lon": -77.026061}, {"fusion_lat": 0.0, "name": "7de9f1e9f7b66528b522b0c0d9a078e2", "is_disabled": 0, "rental_uris": {"android": "https://dc.lft.to/lastmile_qr_scan", "ios": "https://dc.lft.to/lastmile_qr_scan"}, "fusion_lon": 0.0, "lat": 38.8435695, "bike_id": "7de9f1e9f7b66528b522b0c0d9a078e2", "type": "electric_bike", "is_reserved": 0, "lon": -76.97822966666666}, {"fusion_lat": 0.0, "name": "57673869baa82bce57b891f20b63b876", "is_disabled": 0, "rental_uris": {"android": "https://dc.lft.to/lastmile_qr_scan", "ios": "https://dc.lft.to/lastmile_qr_scan"}, "fusion_lon": 0.0, "lat": 38.91963583333333, "bike_id": "57673869baa82bce57b891f20b63b876", "type": "electric_scooter", "is_reserved": 0, "lon": -77.02388233333333}, {"fusion_lat": 0.0, "name": "03edf763a0cce8d688a7fdcc5c2233ff", "is_disabled": 0, "rental_uris": {"android": "https://dc.lft.to/lastmile_qr_scan", "ios": "https://dc.lft.to/lastmile_qr_scan"}, "fusion_lon": 0.0, "lat": 38.946178333333336, "bike_id": "03edf763a0cce8d688a7fdcc5c2233ff", "type": "electric_scooter", "is_reserved": 0, "lon": -77.080203}, {"fusion_lat": 0.0, "name": "77ecdc6629e08bf2b1a53f85199f9020", "is_disabled": 0, "rental_uris": {"android": "https://dc.lft.to/lastmile_qr_scan", "ios": "https://dc.lft.to/lastmile_qr_scan"}, "fusion_lon": 0.0, "lat": 38.93608183333333, "bike_id": "77ecdc6629e08bf2b1a53f85199f9020", "type": "electric_scooter", "is_reserved": 0, "lon": -77.05894}, {"fusion_lat": 0.0, "name": "cf52df1d356158c6a1edaf3876a00eb7", "is_disabled": 0, "rental_uris": {"android": "https://dc.lft.to/lastmile_qr_scan", "ios": "https://dc.lft.to/lastmile_qr_scan"}, "fusion_lon": 0.0, "lat": 38.96223066666667, "bike_id": "cf52df1d356158c6a1edaf3876a00eb7", "type": "electric_bike", "is_reserved": 0, "lon": -77.02631583333333}, {"fusion_lat": 0.0, "name": "9b17f99a5d9844cd2f9e74d69fdda31b", "is_disabled": 0, "rental_uris": {"android": "https://dc.lft.to/lastmile_qr_scan", "ios": "https://dc.lft.to/lastmile_qr_scan"}, "fusion_lon": 0.0, "lat": 38.94116483333333, "bike_id": "9b17f99a5d9844cd2f9e74d69fdda31b", "type": "electric_scooter", "is_reserved": 0, "lon": -77.025416}, {"fusion_lat": 0.0, "name": "9e756aefd357e7ec342873bc344673a4", "is_disabled": 0, "rental_uris": {"android": "https://dc.lft.to/lastmile_qr_scan", "ios": "https://dc.lft.to/lastmile_qr_scan"}, "fusion_lon": 0.0, "lat": 38.92543716666667, "bike_id": "9e756aefd357e7ec342873bc344673a4", "type": "electric_scooter", "is_reserved": 0, "lon": -77.05113183333333}, {"fusion_lat": 0.0, "name": "43d7fe1546de96ba23265039fe1b2aca", "is_disabled": 0, "rental_uris": {"android": "https://dc.lft.to/lastmile_qr_scan", "ios": "https://dc.lft.to/lastmile_qr_scan"}, "fusion_lon": 0.0, "lat": 38.8836385, "bike_id": "43d7fe1546de96ba23265039fe1b2aca", "type": "electric_scooter", "is_reserved": 0, "lon": -76.941565}, {"fusion_lat": 0.0, "name": "4ce39ac1b25ba6c403f4e0520502a0c7", "is_disabled": 0, "rental_uris": {"android": "https://dc.lft.to/lastmile_qr_scan", "ios": "https://dc.lft.to/lastmile_qr_scan"}, "fusion_lon": 0.0, "lat": 38.958846666666666, "bike_id": "4ce39ac1b25ba6c403f4e0520502a0c7", "type": "electric_bike", "is_reserved": 0, "lon": -76.92481683333334}, {"fusion_lat": 0.0, "name": "5c9a56009f743e5e0ec7f095a6eb1356", "is_disabled": 0, "rental_uris": {"android": "https://dc.lft.to/lastmile_qr_scan", "ios": "https://dc.lft.to/lastmile_qr_scan"}, "fusion_lon": 0.0, "lat": 38.92456033333333, "bike_id": "5c9a56009f743e5e0ec7f095a6eb1356", "type": "electric_bike", "is_reserved": 0, "lon": -77.002154}, {"fusion_lat": 0.0, "name": "c19bd99d5a2b90bd83a6086bd856761a", "is_disabled": 0, "rental_uris": {"android": "https://dc.lft.to/lastmile_qr_scan", "ios": "https://dc.lft.to/lastmile_qr_scan"}, "fusion_lon": 0.0, "lat": 38.92510583333333, "bike_id": "c19bd99d5a2b90bd83a6086bd856761a", "type": "electric_scooter", "is_reserved": 0, "lon": -77.02326066666667}, {"fusion_lat": 0.0, "name": "3a259eab5456f4455f5838898a465171", "is_disabled": 0, "rental_uris": {"android": "https://dc.lft.to/lastmile_qr_scan", "ios": "https://dc.lft.to/lastmile_qr_scan"}, "fusion_lon": 0.0, "lat": 38.877099666666666, "bike_id": "3a259eab5456f4455f5838898a465171", "type": "electric_scooter", "is_reserved": 0, "lon": -77.00353616666666}, {"fusion_lat": 0.0, "name": "e4b196273443d3ab97fab6c8d8a79d0b", "is_disabled": 0, "rental_uris": {"android": "https://dc.lft.to/lastmile_qr_scan", "ios": "https://dc.lft.to/lastmile_qr_scan"}, "fusion_lon": 0.0, "lat": 38.92888833333333, "bike_id": "e4b196273443d3ab97fab6c8d8a79d0b", "type": "electric_scooter", "is_reserved": 0, "lon": -77.04214433333334}, {"fusion_lat": 0.0, "name": "604596219d7843271197794acf3356ef", "is_disabled": 0, "rental_uris": {"android": "https://dc.lft.to/lastmile_qr_scan", "ios": "https://dc.lft.to/lastmile_qr_scan"}, "fusion_lon": 0.0, "lat": 38.90395083333333, "bike_id": "604596219d7843271197794acf3356ef", "type": "electric_scooter", "is_reserved": 0, "lon": -77.06715483333333}, {"fusion_lat": 0.0, "name": "5666c1c0a2cacc70be7716c1af85e48b", "is_disabled": 0, "rental_uris": {"android": "https://dc.lft.to/lastmile_qr_scan", "ios": "https://dc.lft.to/lastmile_qr_scan"}, "fusion_lon": 0.0, "lat": 38.90316583333333, "bike_id": "5666c1c0a2cacc70be7716c1af85e48b", "type": "electric_scooter", "is_reserved": 0, "lon": -77.05340633333333}, {"fusion_lat": 0.0, "name": "8b6c803806b2b075d53966a96481a5b2", "is_disabled": 0, "rental_uris": {"android": "https://dc.lft.to/lastmile_qr_scan", "ios": "https://dc.lft.to/lastmile_qr_scan"}, "fusion_lon": 0.0, "lat": 38.882946, "bike_id": "8b6c803806b2b075d53966a96481a5b2", "type": "electric_scooter", "is_reserved": 0, "lon": -77.01362066666667}, {"fusion_lat": 0.0, "name": "2764c25007aacdd3392b42dd1633fc18", "is_disabled": 0, "rental_uris": {"android": "https://dc.lft.to/lastmile_qr_scan", "ios": "https://dc.lft.to/lastmile_qr_scan"}, "fusion_lon": 0.0, "lat": 38.9026885, "bike_id": "2764c25007aacdd3392b42dd1633fc18", "type": "electric_bike", "is_reserved": 0, "lon": -77.0024255}, {"fusion_lat": 0.0, "name": "45588648f8c8668c7b472c4f23b3126d", "is_disabled": 0, "rental_uris": {"android": "https://dc.lft.to/lastmile_qr_scan", "ios": "https://dc.lft.to/lastmile_qr_scan"}, "fusion_lon": 0.0, "lat": 38.92274066666667, "bike_id": "45588648f8c8668c7b472c4f23b3126d", "type": "electric_scooter", "is_reserved": 0, "lon": -77.040188}, {"fusion_lat": 0.0, "name": "10fc961ecfd5fc3403893f989507f275", "is_disabled": 0, "rental_uris": {"android": "https://dc.lft.to/lastmile_qr_scan", "ios": "https://dc.lft.to/lastmile_qr_scan"}, "fusion_lon": 0.0, "lat": 38.883999833333334, "bike_id": "10fc961ecfd5fc3403893f989507f275", "type": "electric_scooter", "is_reserved": 0, "lon": -76.93046066666666}, {"fusion_lat": 0.0, "name": "6295343269d9199e5a9b209758c44a44", "is_disabled": 0, "rental_uris": {"android": "https://dc.lft.to/lastmile_qr_scan", "ios": "https://dc.lft.to/lastmile_qr_scan"}, "fusion_lon": 0.0, "lat": 38.909847166666665, "bike_id": "6295343269d9199e5a9b209758c44a44", "type": "electric_scooter", "is_reserved": 0, "lon": -77.05477116666667}, {"fusion_lat": 0.0, "name": "f3f3e0112a141f48e88d7b203738e03e", "is_disabled": 0, "rental_uris": {"android": "https://dc.lft.to/lastmile_qr_scan", "ios": "https://dc.lft.to/lastmile_qr_scan"}, "fusion_lon": 0.0, "lat": 38.897368, "bike_id": "f3f3e0112a141f48e88d7b203738e03e", "type": "electric_scooter", "is_reserved": 0, "lon": -77.0271875}, {"fusion_lat": 0.0, "name": "3a56647296f6d7efc06099cf3a2d1298", "is_disabled": 0, "rental_uris": {"android": "https://dc.lft.to/lastmile_qr_scan", "ios": "https://dc.lft.to/lastmile_qr_scan"}, "fusion_lon": 0.0, "lat": 38.90230583333334, "bike_id": "3a56647296f6d7efc06099cf3a2d1298", "type": "electric_scooter", "is_reserved": 0, "lon": -77.04370966666667}, {"fusion_lat": 0.0, "name": "1ccb20a9f7f32083cc6d03ece7a8f7f6", "is_disabled": 0, "rental_uris": {"android": "https://dc.lft.to/lastmile_qr_scan", "ios": "https://dc.lft.to/lastmile_qr_scan"}, "fusion_lon": 0.0, "lat": 38.93122366666667, "bike_id": "1ccb20a9f7f32083cc6d03ece7a8f7f6", "type": "electric_scooter", "is_reserved": 0, "lon": -77.02982083333333}, {"fusion_lat": 0.0, "name": "24396756477ee20e541c480cddf59136", "is_disabled": 0, "rental_uris": {"android": "https://dc.lft.to/lastmile_qr_scan", "ios": "https://dc.lft.to/lastmile_qr_scan"}, "fusion_lon": 0.0, "lat": 38.9563475, "bike_id": "24396756477ee20e541c480cddf59136", "type": "electric_scooter", "is_reserved": 0, "lon": -77.03305816666666}, {"fusion_lat": 0.0, "name": "e394b90ebfc08210865c848209e2bbdf", "is_disabled": 0, "rental_uris": {"android": "https://dc.lft.to/lastmile_qr_scan", "ios": "https://dc.lft.to/lastmile_qr_scan"}, "fusion_lon": 0.0, "lat": 38.8960815, "bike_id": "e394b90ebfc08210865c848209e2bbdf", "type": "electric_scooter", "is_reserved": 0, "lon": -77.03170083333333}, {"fusion_lat": 0.0, "name": "aeb3bf20183454ea3306fab181456ea2", "is_disabled": 0, "rental_uris": {"android": "https://dc.lft.to/lastmile_qr_scan", "ios": "https://dc.lft.to/lastmile_qr_scan"}, "fusion_lon": 0.0, "lat": 38.9420685, "bike_id": "aeb3bf20183454ea3306fab181456ea2", "type": "electric_scooter", "is_reserved": 0, "lon": -77.0259055}, {"fusion_lat": 0.0, "name": "7acb21ca11f4c16d9b421210c1c55c4a", "is_disabled": 0, "rental_uris": {"android": "https://dc.lft.to/lastmile_qr_scan", "ios": "https://dc.lft.to/lastmile_qr_scan"}, "fusion_lon": 0.0, "lat": 38.90010866666667, "bike_id": "7acb21ca11f4c16d9b421210c1c55c4a", "type": "electric_scooter", "is_reserved": 0, "lon": -76.995694}, {"fusion_lat": 0.0, "name": "c4c4823c32bf1c14784b845e4d88be12", "is_disabled": 0, "rental_uris": {"android": "https://dc.lft.to/lastmile_qr_scan", "ios": "https://dc.lft.to/lastmile_qr_scan"}, "fusion_lon": 0.0, "lat": 38.845088, "bike_id": "c4c4823c32bf1c14784b845e4d88be12", "type": "electric_bike", "is_reserved": 0, "lon": -76.99349316666667}, {"fusion_lat": 0.0, "name": "4683ca6aa2532e2039b15d43aa32de4d", "is_disabled": 0, "rental_uris": {"android": "https://dc.lft.to/lastmile_qr_scan", "ios": "https://dc.lft.to/lastmile_qr_scan"}, "fusion_lon": 0.0, "lat": 38.92773283333333, "bike_id": "4683ca6aa2532e2039b15d43aa32de4d", "type": "electric_scooter", "is_reserved": 0, "lon": -77.02878066666666}, {"fusion_lat": 0.0, "name": "81e3206e6e805521d8e0d65b1e0a978a", "is_disabled": 0, "rental_uris": {"android": "https://dc.lft.to/lastmile_qr_scan", "ios": "https://dc.lft.to/lastmile_qr_scan"}, "fusion_lon": 0.0, "lat": 38.9027695, "bike_id": "81e3206e6e805521d8e0d65b1e0a978a", "type": "electric_scooter", "is_reserved": 0, "lon": -77.03362483333333}, {"fusion_lat": 0.0, "name": "db86aa82657faa520a66d6988292d2c0", "is_disabled": 0, "rental_uris": {"android": "https://dc.lft.to/lastmile_qr_scan", "ios": "https://dc.lft.to/lastmile_qr_scan"}, "fusion_lon": 0.0, "lat": 38.853169666666666, "bike_id": "db86aa82657faa520a66d6988292d2c0", "type": "electric_bike", "is_reserved": 0, "lon": -77.04601533333333}, {"fusion_lat": 0.0, "name": "a8b619be70ddb36cfcb534d9a356ed01", "is_disabled": 0, "rental_uris": {"android": "https://dc.lft.to/lastmile_qr_scan", "ios": "https://dc.lft.to/lastmile_qr_scan"}, "fusion_lon": 0.0, "lat": 38.892995, "bike_id": "a8b619be70ddb36cfcb534d9a356ed01", "type": "electric_scooter", "is_reserved": 0, "lon": -77.04657183333333}, {"fusion_lat": 0.0, "name": "0f41a00a9e554d63292d6907c58ac81f", "is_disabled": 0, "rental_uris": {"android": "https://dc.lft.to/lastmile_qr_scan", "ios": "https://dc.lft.to/lastmile_qr_scan"}, "fusion_lon": 0.0, "lat": 38.929514166666664, "bike_id": "0f41a00a9e554d63292d6907c58ac81f", "type": "electric_scooter", "is_reserved": 0, "lon": -77.034736}, {"fusion_lat": 0.0, "name": "61928e813ae17440ca09fe64228552e5", "is_disabled": 0, "rental_uris": {"android": "https://dc.lft.to/lastmile_qr_scan", "ios": "https://dc.lft.to/lastmile_qr_scan"}, "fusion_lon": 0.0, "lat": 38.903659166666664, "bike_id": "61928e813ae17440ca09fe64228552e5", "type": "electric_scooter", "is_reserved": 0, "lon": -77.00342916666666}, {"fusion_lat": 0.0, "name": "b642de3fe21ea0e487388f708e10c653", "is_disabled": 0, "rental_uris": {"android": "https://dc.lft.to/lastmile_qr_scan", "ios": "https://dc.lft.to/lastmile_qr_scan"}, "fusion_lon": 0.0, "lat": 38.9113365, "bike_id": "b642de3fe21ea0e487388f708e10c653", "type": "electric_scooter", "is_reserved": 0, "lon": -77.01052033333333}, {"fusion_lat": 0.0, "name": "50b4f4d286e46f59407588130f8c57cf", "is_disabled": 0, "rental_uris": {"android": "https://dc.lft.to/lastmile_qr_scan", "ios": "https://dc.lft.to/lastmile_qr_scan"}, "fusion_lon": 0.0, "lat": 38.907101, "bike_id": "50b4f4d286e46f59407588130f8c57cf", "type": "electric_scooter", "is_reserved": 0, "lon": -77.01022616666667}, {"fusion_lat": 0.0, "name": "1b701e563889826df16ed9b27f4afc27", "is_disabled": 0, "rental_uris": {"android": "https://dc.lft.to/lastmile_qr_scan", "ios": "https://dc.lft.to/lastmile_qr_scan"}, "fusion_lon": 0.0, "lat": 38.903709166666665, "bike_id": "1b701e563889826df16ed9b27f4afc27", "type": "electric_scooter", "is_reserved": 0, "lon": -77.06025283333334}, {"fusion_lat": 0.0, "name": "e651d5abf6438e6ecbd4e38945fb6d67", "is_disabled": 0, "rental_uris": {"android": "https://dc.lft.to/lastmile_qr_scan", "ios": "https://dc.lft.to/lastmile_qr_scan"}, "fusion_lon": 0.0, "lat": 38.8428545, "bike_id": "e651d5abf6438e6ecbd4e38945fb6d67", "type": "electric_bike", "is_reserved": 0, "lon": -77.044858}, {"fusion_lat": 0.0, "name": "298272f0483ba9779ea9e567160f342d", "is_disabled": 0, "rental_uris": {"android": "https://dc.lft.to/lastmile_qr_scan", "ios": "https://dc.lft.to/lastmile_qr_scan"}, "fusion_lon": 0.0, "lat": 38.89569266666667, "bike_id": "298272f0483ba9779ea9e567160f342d", "type": "electric_bike", "is_reserved": 0, "lon": -77.127382}, {"fusion_lat": 0.0, "name": "20f725dc150d5cd93401afe0c820c946", "is_disabled": 0, "rental_uris": {"android": "https://dc.lft.to/lastmile_qr_scan", "ios": "https://dc.lft.to/lastmile_qr_scan"}, "fusion_lon": 0.0, "lat": 38.902362333333336, "bike_id": "20f725dc150d5cd93401afe0c820c946", "type": "electric_scooter", "is_reserved": 0, "lon": -77.0534405}, {"fusion_lat": 0.0, "name": "acc5ee9d18417b5b86c3bc8e7ffe20eb", "is_disabled": 0, "rental_uris": {"android": "https://dc.lft.to/lastmile_qr_scan", "ios": "https://dc.lft.to/lastmile_qr_scan"}, "fusion_lon": 0.0, "lat": 38.90519183333333, "bike_id": "acc5ee9d18417b5b86c3bc8e7ffe20eb", "type": "electric_scooter", "is_reserved": 0, "lon": -77.05143883333334}, {"fusion_lat": 0.0, "name": "fa809d0dd9392c68cf5d853ce4b344bc", "is_disabled": 0, "rental_uris": {"android": "https://dc.lft.to/lastmile_qr_scan", "ios": "https://dc.lft.to/lastmile_qr_scan"}, "fusion_lon": 0.0, "lat": 38.916591, "bike_id": "fa809d0dd9392c68cf5d853ce4b344bc", "type": "electric_scooter", "is_reserved": 0, "lon": -77.02810633333333}, {"fusion_lat": 0.0, "name": "b734e7bf42db03e12a4de9892c72a6b9", "is_disabled": 0, "rental_uris": {"android": "https://dc.lft.to/lastmile_qr_scan", "ios": "https://dc.lft.to/lastmile_qr_scan"}, "fusion_lon": 0.0, "lat": 38.916272, "bike_id": "b734e7bf42db03e12a4de9892c72a6b9", "type": "electric_scooter", "is_reserved": 0, "lon": -77.0313715}, {"fusion_lat": 0.0, "name": "4b235fad6f4da864a1833e715600382c", "is_disabled": 0, "rental_uris": {"android": "https://dc.lft.to/lastmile_qr_scan", "ios": "https://dc.lft.to/lastmile_qr_scan"}, "fusion_lon": 0.0, "lat": 38.89604666666666, "bike_id": "4b235fad6f4da864a1833e715600382c", "type": "electric_scooter", "is_reserved": 0, "lon": -77.00932016666667}, {"fusion_lat": 0.0, "name": "da9f4602dc66f682e56a306e98ef065e", "is_disabled": 0, "rental_uris": {"android": "https://dc.lft.to/lastmile_qr_scan", "ios": "https://dc.lft.to/lastmile_qr_scan"}, "fusion_lon": 0.0, "lat": 38.90197783333333, "bike_id": "da9f4602dc66f682e56a306e98ef065e", "type": "electric_scooter", "is_reserved": 0, "lon": -76.97858466666666}, {"fusion_lat": 0.0, "name": "fb3167870d24e17ca74175d89afaa724", "is_disabled": 0, "rental_uris": {"android": "https://dc.lft.to/lastmile_qr_scan", "ios": "https://dc.lft.to/lastmile_qr_scan"}, "fusion_lon": 0.0, "lat": 38.933214166666666, "bike_id": "fb3167870d24e17ca74175d89afaa724", "type": "electric_scooter", "is_reserved": 0, "lon": -77.027508}, {"fusion_lat": 0.0, "name": "2b645194c60516e2e439bbcf9ddeaf66", "is_disabled": 0, "rental_uris": {"android": "https://dc.lft.to/lastmile_qr_scan", "ios": "https://dc.lft.to/lastmile_qr_scan"}, "fusion_lon": 0.0, "lat": 38.9155755, "bike_id": "2b645194c60516e2e439bbcf9ddeaf66", "type": "electric_scooter", "is_reserved": 0, "lon": -76.9835485}, {"fusion_lat": 0.0, "name": "6ff85a9f9fc6502e1ada5aa0a49c71f5", "is_disabled": 0, "rental_uris": {"android": "https://dc.lft.to/lastmile_qr_scan", "ios": "https://dc.lft.to/lastmile_qr_scan"}, "fusion_lon": 0.0, "lat": 38.9134865, "bike_id": "6ff85a9f9fc6502e1ada5aa0a49c71f5", "type": "electric_scooter", "is_reserved": 0, "lon": -77.02199133333333}, {"fusion_lat": 0.0, "name": "355e4a9cae9e4ca42978b45a4a844be2", "is_disabled": 0, "rental_uris": {"android": "https://dc.lft.to/lastmile_qr_scan", "ios": "https://dc.lft.to/lastmile_qr_scan"}, "fusion_lon": 0.0, "lat": 38.9287305, "bike_id": "355e4a9cae9e4ca42978b45a4a844be2", "type": "electric_scooter", "is_reserved": 0, "lon": -77.01373733333334}, {"fusion_lat": 0.0, "name": "64ecd62135bf05e925bd3606c641a532", "is_disabled": 0, "rental_uris": {"android": "https://dc.lft.to/lastmile_qr_scan", "ios": "https://dc.lft.to/lastmile_qr_scan"}, "fusion_lon": 0.0, "lat": 38.886331166666665, "bike_id": "64ecd62135bf05e925bd3606c641a532", "type": "electric_scooter", "is_reserved": 0, "lon": -77.01971266666666}, {"fusion_lat": 0.0, "name": "fd28dc5ab2adcb342bca6d2c03b8d5ad", "is_disabled": 0, "rental_uris": {"android": "https://dc.lft.to/lastmile_qr_scan", "ios": "https://dc.lft.to/lastmile_qr_scan"}, "fusion_lon": 0.0, "lat": 38.886137166666664, "bike_id": "fd28dc5ab2adcb342bca6d2c03b8d5ad", "type": "electric_scooter", "is_reserved": 0, "lon": -77.01248333333334}, {"fusion_lat": 0.0, "name": "5c64e9fb1fb10a43b8d994c7f5d4ad57", "is_disabled": 0, "rental_uris": {"android": "https://dc.lft.to/lastmile_qr_scan", "ios": "https://dc.lft.to/lastmile_qr_scan"}, "fusion_lon": 0.0, "lat": 38.934991333333336, "bike_id": "5c64e9fb1fb10a43b8d994c7f5d4ad57", "type": "electric_scooter", "is_reserved": 0, "lon": -77.0360925}, {"fusion_lat": 0.0, "name": "1abac78b99f2c57a4744c3c9c72a62c1", "is_disabled": 0, "rental_uris": {"android": "https://dc.lft.to/lastmile_qr_scan", "ios": "https://dc.lft.to/lastmile_qr_scan"}, "fusion_lon": 0.0, "lat": 38.892385833333336, "bike_id": "1abac78b99f2c57a4744c3c9c72a62c1", "type": "electric_scooter", "is_reserved": 0, "lon": -77.046562}, {"fusion_lat": 0.0, "name": "7e2d792e381a1371a6a7fcd4a05890d0", "is_disabled": 0, "rental_uris": {"android": "https://dc.lft.to/lastmile_qr_scan", "ios": "https://dc.lft.to/lastmile_qr_scan"}, "fusion_lon": 0.0, "lat": 38.9133205, "bike_id": "7e2d792e381a1371a6a7fcd4a05890d0", "type": "electric_scooter", "is_reserved": 0, "lon": -77.04528816666667}, {"fusion_lat": 0.0, "name": "755a62f3f4f02524df0bb53acf1577c7", "is_disabled": 0, "rental_uris": {"android": "https://dc.lft.to/lastmile_qr_scan", "ios": "https://dc.lft.to/lastmile_qr_scan"}, "fusion_lon": 0.0, "lat": 38.883161, "bike_id": "755a62f3f4f02524df0bb53acf1577c7", "type": "electric_scooter", "is_reserved": 0, "lon": -77.01931683333333}, {"fusion_lat": 0.0, "name": "fb68773e73e029eb0c0143b68ed20c5a", "is_disabled": 0, "rental_uris": {"android": "https://dc.lft.to/lastmile_qr_scan", "ios": "https://dc.lft.to/lastmile_qr_scan"}, "fusion_lon": 0.0, "lat": 38.900141, "bike_id": "fb68773e73e029eb0c0143b68ed20c5a", "type": "electric_scooter", "is_reserved": 0, "lon": -77.00202066666667}, {"fusion_lat": 0.0, "name": "57c6e4e5b19d7186b68e560e368b7d1a", "is_disabled": 0, "rental_uris": {"android": "https://dc.lft.to/lastmile_qr_scan", "ios": "https://dc.lft.to/lastmile_qr_scan"}, "fusion_lon": 0.0, "lat": 38.909559, "bike_id": "57c6e4e5b19d7186b68e560e368b7d1a", "type": "electric_scooter", "is_reserved": 0, "lon": -76.98540466666667}, {"fusion_lat": 0.0, "name": "e9f93a4d9a30b31a07460b1c66a934fa", "is_disabled": 0, "rental_uris": {"android": "https://dc.lft.to/lastmile_qr_scan", "ios": "https://dc.lft.to/lastmile_qr_scan"}, "fusion_lon": 0.0, "lat": 38.90470833333333, "bike_id": "e9f93a4d9a30b31a07460b1c66a934fa", "type": "electric_scooter", "is_reserved": 0, "lon": -77.02952333333333}, {"fusion_lat": 0.0, "name": "42fc00305887dcc15d529349e3ef35c6", "is_disabled": 0, "rental_uris": {"android": "https://dc.lft.to/lastmile_qr_scan", "ios": "https://dc.lft.to/lastmile_qr_scan"}, "fusion_lon": 0.0, "lat": 38.863552166666665, "bike_id": "42fc00305887dcc15d529349e3ef35c6", "type": "electric_bike", "is_reserved": 0, "lon": -77.0771815}, {"fusion_lat": 0.0, "name": "7161eb3121528a9dccae4629310345da", "is_disabled": 0, "rental_uris": {"android": "https://dc.lft.to/lastmile_qr_scan", "ios": "https://dc.lft.to/lastmile_qr_scan"}, "fusion_lon": 0.0, "lat": 38.90729533333333, "bike_id": "7161eb3121528a9dccae4629310345da", "type": "electric_scooter", "is_reserved": 0, "lon": -77.02963083333333}, {"fusion_lat": 0.0, "name": "5b8b695f17102d065a5278f23d167174", "is_disabled": 0, "rental_uris": {"android": "https://dc.lft.to/lastmile_qr_scan", "ios": "https://dc.lft.to/lastmile_qr_scan"}, "fusion_lon": 0.0, "lat": 38.93156966666667, "bike_id": "5b8b695f17102d065a5278f23d167174", "type": "electric_scooter", "is_reserved": 0, "lon": -77.03974383333333}, {"fusion_lat": 0.0, "name": "078e7c450880286435a25a0f64449687", "is_disabled": 0, "rental_uris": {"android": "https://dc.lft.to/lastmile_qr_scan", "ios": "https://dc.lft.to/lastmile_qr_scan"}, "fusion_lon": 0.0, "lat": 38.888401333333334, "bike_id": "078e7c450880286435a25a0f64449687", "type": "electric_scooter", "is_reserved": 0, "lon": -77.048453}, {"fusion_lat": 0.0, "name": "559199ccfa0b9e1ab8acc77aa00f2cd4", "is_disabled": 0, "rental_uris": {"android": "https://dc.lft.to/lastmile_qr_scan", "ios": "https://dc.lft.to/lastmile_qr_scan"}, "fusion_lon": 0.0, "lat": 38.9375845, "bike_id": "559199ccfa0b9e1ab8acc77aa00f2cd4", "type": "electric_scooter", "is_reserved": 0, "lon": -77.0253435}, {"fusion_lat": 0.0, "name": "5003621524e42d61eed46f9c25f3057d", "is_disabled": 0, "rental_uris": {"android": "https://dc.lft.to/lastmile_qr_scan", "ios": "https://dc.lft.to/lastmile_qr_scan"}, "fusion_lon": 0.0, "lat": 38.89233083333333, "bike_id": "5003621524e42d61eed46f9c25f3057d", "type": "electric_scooter", "is_reserved": 0, "lon": -77.00298816666667}, {"fusion_lat": 0.0, "name": "91ecba7d31ed440fae22618948dbae9e", "is_disabled": 0, "rental_uris": {"android": "https://dc.lft.to/lastmile_qr_scan", "ios": "https://dc.lft.to/lastmile_qr_scan"}, "fusion_lon": 0.0, "lat": 38.841321666666666, "bike_id": "91ecba7d31ed440fae22618948dbae9e", "type": "electric_bike", "is_reserved": 0, "lon": -77.06305083333334}, {"fusion_lat": 0.0, "name": "74fc6974712213a9350fdac74b49e98c", "is_disabled": 0, "rental_uris": {"android": "https://dc.lft.to/lastmile_qr_scan", "ios": "https://dc.lft.to/lastmile_qr_scan"}, "fusion_lon": 0.0, "lat": 38.81941483333333, "bike_id": "74fc6974712213a9350fdac74b49e98c", "type": "electric_bike", "is_reserved": 0, "lon": -77.002011}, {"fusion_lat": 0.0, "name": "169c86ae6e94efbd7192c8016592235d", "is_disabled": 0, "rental_uris": {"android": "https://dc.lft.to/lastmile_qr_scan", "ios": "https://dc.lft.to/lastmile_qr_scan"}, "fusion_lon": 0.0, "lat": 38.928541, "bike_id": "169c86ae6e94efbd7192c8016592235d", "type": "electric_scooter", "is_reserved": 0, "lon": -77.03640116666666}, {"fusion_lat": 0.0, "name": "393bb092b54d96cef9e2a3213a813e45", "is_disabled": 0, "rental_uris": {"android": "https://dc.lft.to/lastmile_qr_scan", "ios": "https://dc.lft.to/lastmile_qr_scan"}, "fusion_lon": 0.0, "lat": 38.924762, "bike_id": "393bb092b54d96cef9e2a3213a813e45", "type": "electric_scooter", "is_reserved": 0, "lon": -77.020757}, {"fusion_lat": 0.0, "name": "9c3e60d6fc9bb4381b4ed470262e0716", "is_disabled": 0, "rental_uris": {"android": "https://dc.lft.to/lastmile_qr_scan", "ios": "https://dc.lft.to/lastmile_qr_scan"}, "fusion_lon": 0.0, "lat": 38.90074333333333, "bike_id": "9c3e60d6fc9bb4381b4ed470262e0716", "type": "electric_scooter", "is_reserved": 0, "lon": -77.04965216666666}, {"fusion_lat": 0.0, "name": "df7966b50a8ad396c68534f2476b7684", "is_disabled": 0, "rental_uris": {"android": "https://dc.lft.to/lastmile_qr_scan", "ios": "https://dc.lft.to/lastmile_qr_scan"}, "fusion_lon": 0.0, "lat": 38.88326766666667, "bike_id": "df7966b50a8ad396c68534f2476b7684", "type": "electric_scooter", "is_reserved": 0, "lon": -77.01925933333334}, {"fusion_lat": 0.0, "name": "84e724a8738c7c4a956b0237ed69b40f", "is_disabled": 0, "rental_uris": {"android": "https://dc.lft.to/lastmile_qr_scan", "ios": "https://dc.lft.to/lastmile_qr_scan"}, "fusion_lon": 0.0, "lat": 38.90735166666666, "bike_id": "84e724a8738c7c4a956b0237ed69b40f", "type": "electric_scooter", "is_reserved": 0, "lon": -77.04755833333333}, {"fusion_lat": 0.0, "name": "b3a2d87e23908f577a065f28b89f2b57", "is_disabled": 0, "rental_uris": {"android": "https://dc.lft.to/lastmile_qr_scan", "ios": "https://dc.lft.to/lastmile_qr_scan"}, "fusion_lon": 0.0, "lat": 38.916229333333334, "bike_id": "b3a2d87e23908f577a065f28b89f2b57", "type": "electric_scooter", "is_reserved": 0, "lon": -77.02398266666667}, {"fusion_lat": 0.0, "name": "aa7173ff3dc6db8d760cebe472f9ce2f", "is_disabled": 0, "rental_uris": {"android": "https://dc.lft.to/lastmile_qr_scan", "ios": "https://dc.lft.to/lastmile_qr_scan"}, "fusion_lon": 0.0, "lat": 38.89877516666667, "bike_id": "aa7173ff3dc6db8d760cebe472f9ce2f", "type": "electric_scooter", "is_reserved": 0, "lon": -76.931814}, {"fusion_lat": 0.0, "name": "38a4424bb40e4e3fe978645168a5c553", "is_disabled": 0, "rental_uris": {"android": "https://dc.lft.to/lastmile_qr_scan", "ios": "https://dc.lft.to/lastmile_qr_scan"}, "fusion_lon": 0.0, "lat": 38.9287595, "bike_id": "38a4424bb40e4e3fe978645168a5c553", "type": "electric_scooter", "is_reserved": 0, "lon": -77.0350495}, {"fusion_lat": 0.0, "name": "4d8c47fd97dcf91ce277a16c0a916df7", "is_disabled": 0, "rental_uris": {"android": "https://dc.lft.to/lastmile_qr_scan", "ios": "https://dc.lft.to/lastmile_qr_scan"}, "fusion_lon": 0.0, "lat": 38.905681, "bike_id": "4d8c47fd97dcf91ce277a16c0a916df7", "type": "electric_scooter", "is_reserved": 0, "lon": -77.004916}, {"fusion_lat": 0.0, "name": "9dce82d0b41e649bf06e0f7c2d92f227", "is_disabled": 0, "rental_uris": {"android": "https://dc.lft.to/lastmile_qr_scan", "ios": "https://dc.lft.to/lastmile_qr_scan"}, "fusion_lon": 0.0, "lat": 38.93903433333333, "bike_id": "9dce82d0b41e649bf06e0f7c2d92f227", "type": "electric_scooter", "is_reserved": 0, "lon": -77.0325785}, {"fusion_lat": 0.0, "name": "c70a4d42ef8989b3bf2fd995038bcfed", "is_disabled": 0, "rental_uris": {"android": "https://dc.lft.to/lastmile_qr_scan", "ios": "https://dc.lft.to/lastmile_qr_scan"}, "fusion_lon": 0.0, "lat": 38.88988166666667, "bike_id": "c70a4d42ef8989b3bf2fd995038bcfed", "type": "electric_scooter", "is_reserved": 0, "lon": -76.99639016666667}, {"fusion_lat": 0.0, "name": "19d424d07da7025b49f4d73d96c981be", "is_disabled": 0, "rental_uris": {"android": "https://dc.lft.to/lastmile_qr_scan", "ios": "https://dc.lft.to/lastmile_qr_scan"}, "fusion_lon": 0.0, "lat": 38.9093925, "bike_id": "19d424d07da7025b49f4d73d96c981be", "type": "electric_scooter", "is_reserved": 0, "lon": -77.0212305}, {"fusion_lat": 0.0, "name": "6425911afa5bb3d98c8799e848a4ff11", "is_disabled": 0, "rental_uris": {"android": "https://dc.lft.to/lastmile_qr_scan", "ios": "https://dc.lft.to/lastmile_qr_scan"}, "fusion_lon": 0.0, "lat": 38.917355666666666, "bike_id": "6425911afa5bb3d98c8799e848a4ff11", "type": "electric_scooter", "is_reserved": 0, "lon": -77.0482945}, {"fusion_lat": 0.0, "name": "dcccfdca3f8d2fd34831386095d12440", "is_disabled": 0, "rental_uris": {"android": "https://dc.lft.to/lastmile_qr_scan", "ios": "https://dc.lft.to/lastmile_qr_scan"}, "fusion_lon": 0.0, "lat": 38.91713683333333, "bike_id": "dcccfdca3f8d2fd34831386095d12440", "type": "electric_scooter", "is_reserved": 0, "lon": -77.04097966666667}, {"fusion_lat": 0.0, "name": "ff7654445c9d5eb2b93b870dfa2054ec", "is_disabled": 0, "rental_uris": {"android": "https://dc.lft.to/lastmile_qr_scan", "ios": "https://dc.lft.to/lastmile_qr_scan"}, "fusion_lon": 0.0, "lat": 38.899486333333336, "bike_id": "ff7654445c9d5eb2b93b870dfa2054ec", "type": "electric_scooter", "is_reserved": 0, "lon": -77.0535025}, {"fusion_lat": 0.0, "name": "88d58278891ef181f839f5c08b863352", "is_disabled": 0, "rental_uris": {"android": "https://dc.lft.to/lastmile_qr_scan", "ios": "https://dc.lft.to/lastmile_qr_scan"}, "fusion_lon": 0.0, "lat": 38.92055416666667, "bike_id": "88d58278891ef181f839f5c08b863352", "type": "electric_scooter", "is_reserved": 0, "lon": -77.0339505}, {"fusion_lat": 0.0, "name": "506ad83934c5ba8e45b0aa7ef1d1573b", "is_disabled": 0, "rental_uris": {"android": "https://dc.lft.to/lastmile_qr_scan", "ios": "https://dc.lft.to/lastmile_qr_scan"}, "fusion_lon": 0.0, "lat": 38.889913166666666, "bike_id": "506ad83934c5ba8e45b0aa7ef1d1573b", "type": "electric_scooter", "is_reserved": 0, "lon": -76.9873725}, {"fusion_lat": 0.0, "name": "548d034ee786ce7e1b122165686d80e3", "is_disabled": 0, "rental_uris": {"android": "https://dc.lft.to/lastmile_qr_scan", "ios": "https://dc.lft.to/lastmile_qr_scan"}, "fusion_lon": 0.0, "lat": 38.939486, "bike_id": "548d034ee786ce7e1b122165686d80e3", "type": "electric_scooter", "is_reserved": 0, "lon": -77.03318033333333}, {"fusion_lat": 0.0, "name": "a515290d752462956e468926ce0adf5b", "is_disabled": 0, "rental_uris": {"android": "https://dc.lft.to/lastmile_qr_scan", "ios": "https://dc.lft.to/lastmile_qr_scan"}, "fusion_lon": 0.0, "lat": 38.929649166666664, "bike_id": "a515290d752462956e468926ce0adf5b", "type": "electric_scooter", "is_reserved": 0, "lon": -77.02014766666667}, {"fusion_lat": 0.0, "name": "8f6af24130b9bf008545b28110b7c322", "is_disabled": 0, "rental_uris": {"android": "https://dc.lft.to/lastmile_qr_scan", "ios": "https://dc.lft.to/lastmile_qr_scan"}, "fusion_lon": 0.0, "lat": 38.858904, "bike_id": "8f6af24130b9bf008545b28110b7c322", "type": "electric_bike", "is_reserved": 0, "lon": -77.0954715}, {"fusion_lat": 0.0, "name": "7c194dcf7acd7c7de6c78310791e1bfc", "is_disabled": 0, "rental_uris": {"android": "https://dc.lft.to/lastmile_qr_scan", "ios": "https://dc.lft.to/lastmile_qr_scan"}, "fusion_lon": 0.0, "lat": 38.90037616666667, "bike_id": "7c194dcf7acd7c7de6c78310791e1bfc", "type": "electric_scooter", "is_reserved": 0, "lon": -77.00198866666666}, {"fusion_lat": 0.0, "name": "ab5a34e2314766cf35c3e88611c8b02b", "is_disabled": 0, "rental_uris": {"android": "https://dc.lft.to/lastmile_qr_scan", "ios": "https://dc.lft.to/lastmile_qr_scan"}, "fusion_lon": 0.0, "lat": 38.909614, "bike_id": "ab5a34e2314766cf35c3e88611c8b02b", "type": "electric_scooter", "is_reserved": 0, "lon": -77.02384783333333}, {"fusion_lat": 0.0, "name": "53b3b1da1dc5b1faf4bee97d3db76058", "is_disabled": 0, "rental_uris": {"android": "https://dc.lft.to/lastmile_qr_scan", "ios": "https://dc.lft.to/lastmile_qr_scan"}, "fusion_lon": 0.0, "lat": 38.90142983333333, "bike_id": "53b3b1da1dc5b1faf4bee97d3db76058", "type": "electric_scooter", "is_reserved": 0, "lon": -76.99837133333334}, {"fusion_lat": 0.0, "name": "c65d364cd78c5e145ef1657fb1fa97f4", "is_disabled": 0, "rental_uris": {"android": "https://dc.lft.to/lastmile_qr_scan", "ios": "https://dc.lft.to/lastmile_qr_scan"}, "fusion_lon": 0.0, "lat": 38.85358883333333, "bike_id": "c65d364cd78c5e145ef1657fb1fa97f4", "type": "electric_bike", "is_reserved": 0, "lon": -77.13467816666666}, {"fusion_lat": 0.0, "name": "4c923c2b6a4a1d3fe46b1ed0d79547e8", "is_disabled": 0, "rental_uris": {"android": "https://dc.lft.to/lastmile_qr_scan", "ios": "https://dc.lft.to/lastmile_qr_scan"}, "fusion_lon": 0.0, "lat": 38.921443833333335, "bike_id": "4c923c2b6a4a1d3fe46b1ed0d79547e8", "type": "electric_scooter", "is_reserved": 0, "lon": -77.03395883333333}, {"fusion_lat": 0.0, "name": "c278e3743cacff56f374beeaca7d79a2", "is_disabled": 0, "rental_uris": {"android": "https://dc.lft.to/lastmile_qr_scan", "ios": "https://dc.lft.to/lastmile_qr_scan"}, "fusion_lon": 0.0, "lat": 38.847599, "bike_id": "c278e3743cacff56f374beeaca7d79a2", "type": "electric_scooter", "is_reserved": 0, "lon": -76.99502083333333}, {"fusion_lat": 0.0, "name": "a38f4145b8b5ec79bc74ae434d95cd91", "is_disabled": 0, "rental_uris": {"android": "https://dc.lft.to/lastmile_qr_scan", "ios": "https://dc.lft.to/lastmile_qr_scan"}, "fusion_lon": 0.0, "lat": 38.90698966666667, "bike_id": "a38f4145b8b5ec79bc74ae434d95cd91", "type": "electric_scooter", "is_reserved": 0, "lon": -77.037258}, {"fusion_lat": 0.0, "name": "6ca118a467f6ecfd8b35766436811d7a", "is_disabled": 0, "rental_uris": {"android": "https://dc.lft.to/lastmile_qr_scan", "ios": "https://dc.lft.to/lastmile_qr_scan"}, "fusion_lon": 0.0, "lat": 38.914903, "bike_id": "6ca118a467f6ecfd8b35766436811d7a", "type": "electric_scooter", "is_reserved": 0, "lon": -77.0132445}, {"fusion_lat": 0.0, "name": "517699d4749e5a7b8239d25ad45042b9", "is_disabled": 0, "rental_uris": {"android": "https://dc.lft.to/lastmile_qr_scan", "ios": "https://dc.lft.to/lastmile_qr_scan"}, "fusion_lon": 0.0, "lat": 38.923973833333335, "bike_id": "517699d4749e5a7b8239d25ad45042b9", "type": "electric_scooter", "is_reserved": 0, "lon": -77.02523116666667}, {"fusion_lat": 0.0, "name": "0e429d100ce858aa23e6161d2e792b0e", "is_disabled": 0, "rental_uris": {"android": "https://dc.lft.to/lastmile_qr_scan", "ios": "https://dc.lft.to/lastmile_qr_scan"}, "fusion_lon": 0.0, "lat": 38.9052335, "bike_id": "0e429d100ce858aa23e6161d2e792b0e", "type": "electric_scooter", "is_reserved": 0, "lon": -77.0645465}, {"fusion_lat": 0.0, "name": "3f33376efc1ab246813d7e1485ddf314", "is_disabled": 0, "rental_uris": {"android": "https://dc.lft.to/lastmile_qr_scan", "ios": "https://dc.lft.to/lastmile_qr_scan"}, "fusion_lon": 0.0, "lat": 38.9246595, "bike_id": "3f33376efc1ab246813d7e1485ddf314", "type": "electric_scooter", "is_reserved": 0, "lon": -77.03641333333333}, {"fusion_lat": 0.0, "name": "a8f8c8251133feea642bdd89d08e0095", "is_disabled": 0, "rental_uris": {"android": "https://dc.lft.to/lastmile_qr_scan", "ios": "https://dc.lft.to/lastmile_qr_scan"}, "fusion_lon": 0.0, "lat": 38.931056166666664, "bike_id": "a8f8c8251133feea642bdd89d08e0095", "type": "electric_scooter", "is_reserved": 0, "lon": -77.03474833333334}, {"fusion_lat": 0.0, "name": "21c8f2bc4c46841d31907c53d11d8f4c", "is_disabled": 0, "rental_uris": {"android": "https://dc.lft.to/lastmile_qr_scan", "ios": "https://dc.lft.to/lastmile_qr_scan"}, "fusion_lon": 0.0, "lat": 38.921437, "bike_id": "21c8f2bc4c46841d31907c53d11d8f4c", "type": "electric_scooter", "is_reserved": 0, "lon": -77.01800116666666}, {"fusion_lat": 0.0, "name": "94bd23adc63f2e171ec7a9bef4246a91", "is_disabled": 0, "rental_uris": {"android": "https://dc.lft.to/lastmile_qr_scan", "ios": "https://dc.lft.to/lastmile_qr_scan"}, "fusion_lon": 0.0, "lat": 38.984771333333335, "bike_id": "94bd23adc63f2e171ec7a9bef4246a91", "type": "electric_scooter", "is_reserved": 0, "lon": -77.026386}, {"fusion_lat": 0.0, "name": "38b5d1cd617bb04a75b1517193d46702", "is_disabled": 0, "rental_uris": {"android": "https://dc.lft.to/lastmile_qr_scan", "ios": "https://dc.lft.to/lastmile_qr_scan"}, "fusion_lon": 0.0, "lat": 38.905652833333335, "bike_id": "38b5d1cd617bb04a75b1517193d46702", "type": "electric_scooter", "is_reserved": 0, "lon": -77.0279655}, {"fusion_lat": 0.0, "name": "d273f429705d1bc76ad5772a2378fc91", "is_disabled": 0, "rental_uris": {"android": "https://dc.lft.to/lastmile_qr_scan", "ios": "https://dc.lft.to/lastmile_qr_scan"}, "fusion_lon": 0.0, "lat": 38.921744833333335, "bike_id": "d273f429705d1bc76ad5772a2378fc91", "type": "electric_scooter", "is_reserved": 0, "lon": -77.0363915}, {"fusion_lat": 0.0, "name": "8223e8916ec8390e2e6c14eaf13969ee", "is_disabled": 0, "rental_uris": {"android": "https://dc.lft.to/lastmile_qr_scan", "ios": "https://dc.lft.to/lastmile_qr_scan"}, "fusion_lon": 0.0, "lat": 38.913504333333336, "bike_id": "8223e8916ec8390e2e6c14eaf13969ee", "type": "electric_scooter", "is_reserved": 0, "lon": -77.033296}, {"fusion_lat": 0.0, "name": "0061d628da956aaaecb1944963d6cdef", "is_disabled": 0, "rental_uris": {"android": "https://dc.lft.to/lastmile_qr_scan", "ios": "https://dc.lft.to/lastmile_qr_scan"}, "fusion_lon": 0.0, "lat": 38.887718666666665, "bike_id": "0061d628da956aaaecb1944963d6cdef", "type": "electric_scooter", "is_reserved": 0, "lon": -76.9946755}, {"fusion_lat": 0.0, "name": "20b7a7e893044513de65b8bf7f6269d1", "is_disabled": 0, "rental_uris": {"android": "https://dc.lft.to/lastmile_qr_scan", "ios": "https://dc.lft.to/lastmile_qr_scan"}, "fusion_lon": 0.0, "lat": 38.907439, "bike_id": "20b7a7e893044513de65b8bf7f6269d1", "type": "electric_scooter", "is_reserved": 0, "lon": -77.04256483333333}, {"fusion_lat": 0.0, "name": "fa6878c77d014776625c28e0fb1f6c4f", "is_disabled": 0, "rental_uris": {"android": "https://dc.lft.to/lastmile_qr_scan", "ios": "https://dc.lft.to/lastmile_qr_scan"}, "fusion_lon": 0.0, "lat": 38.924796666666666, "bike_id": "fa6878c77d014776625c28e0fb1f6c4f", "type": "electric_scooter", "is_reserved": 0, "lon": -77.028344}, {"fusion_lat": 0.0, "name": "276a681e899da1a98429acd4b57a87a5", "is_disabled": 0, "rental_uris": {"android": "https://dc.lft.to/lastmile_qr_scan", "ios": "https://dc.lft.to/lastmile_qr_scan"}, "fusion_lon": 0.0, "lat": 38.90015316666667, "bike_id": "276a681e899da1a98429acd4b57a87a5", "type": "electric_scooter", "is_reserved": 0, "lon": -76.99754716666666}, {"fusion_lat": 0.0, "name": "4667c454ee0884a31e17fc92259d9540", "is_disabled": 0, "rental_uris": {"android": "https://dc.lft.to/lastmile_qr_scan", "ios": "https://dc.lft.to/lastmile_qr_scan"}, "fusion_lon": 0.0, "lat": 38.91849933333334, "bike_id": "4667c454ee0884a31e17fc92259d9540", "type": "electric_scooter", "is_reserved": 0, "lon": -76.96530383333334}, {"fusion_lat": 0.0, "name": "ad75873df39959ae5ef0a05b652de870", "is_disabled": 0, "rental_uris": {"android": "https://dc.lft.to/lastmile_qr_scan", "ios": "https://dc.lft.to/lastmile_qr_scan"}, "fusion_lon": 0.0, "lat": 38.916661500000004, "bike_id": "ad75873df39959ae5ef0a05b652de870", "type": "electric_scooter", "is_reserved": 0, "lon": -77.02820433333333}, {"fusion_lat": 0.0, "name": "74562c89485a93fceeddb0f24a745e38", "is_disabled": 0, "rental_uris": {"android": "https://dc.lft.to/lastmile_qr_scan", "ios": "https://dc.lft.to/lastmile_qr_scan"}, "fusion_lon": 0.0, "lat": 38.90151783333334, "bike_id": "74562c89485a93fceeddb0f24a745e38", "type": "electric_scooter", "is_reserved": 0, "lon": -77.025603}, {"fusion_lat": 0.0, "name": "d52b0ab834f73d084f6819e641638a5b", "is_disabled": 0, "rental_uris": {"android": "https://dc.lft.to/lastmile_qr_scan", "ios": "https://dc.lft.to/lastmile_qr_scan"}, "fusion_lon": 0.0, "lat": 38.9278515, "bike_id": "d52b0ab834f73d084f6819e641638a5b", "type": "electric_scooter", "is_reserved": 0, "lon": -76.9797095}, {"fusion_lat": 0.0, "name": "3c194425a744c47a03357d42a65aca2b", "is_disabled": 0, "rental_uris": {"android": "https://dc.lft.to/lastmile_qr_scan", "ios": "https://dc.lft.to/lastmile_qr_scan"}, "fusion_lon": 0.0, "lat": 38.910282333333335, "bike_id": "3c194425a744c47a03357d42a65aca2b", "type": "electric_scooter", "is_reserved": 0, "lon": -77.00756683333333}, {"fusion_lat": 0.0, "name": "c66a58804bf3a3800f4551431770e229", "is_disabled": 0, "rental_uris": {"android": "https://dc.lft.to/lastmile_qr_scan", "ios": "https://dc.lft.to/lastmile_qr_scan"}, "fusion_lon": 0.0, "lat": 38.92065983333333, "bike_id": "c66a58804bf3a3800f4551431770e229", "type": "electric_scooter", "is_reserved": 0, "lon": -76.99863683333334}, {"fusion_lat": 0.0, "name": "63fda615c26b2bd1a68e15c2fa0842ad", "is_disabled": 0, "rental_uris": {"android": "https://dc.lft.to/lastmile_qr_scan", "ios": "https://dc.lft.to/lastmile_qr_scan"}, "fusion_lon": 0.0, "lat": 38.8862865, "bike_id": "63fda615c26b2bd1a68e15c2fa0842ad", "type": "electric_scooter", "is_reserved": 0, "lon": -77.0197715}, {"fusion_lat": 0.0, "name": "d3534fca7d1bc9688686bbaae3c79d60", "is_disabled": 0, "rental_uris": {"android": "https://dc.lft.to/lastmile_qr_scan", "ios": "https://dc.lft.to/lastmile_qr_scan"}, "fusion_lon": 0.0, "lat": 38.901044166666665, "bike_id": "d3534fca7d1bc9688686bbaae3c79d60", "type": "electric_scooter", "is_reserved": 0, "lon": -77.01909433333333}, {"fusion_lat": 0.0, "name": "4f280e6ad0cd70d42c69f792225a5183", "is_disabled": 0, "rental_uris": {"android": "https://dc.lft.to/lastmile_qr_scan", "ios": "https://dc.lft.to/lastmile_qr_scan"}, "fusion_lon": 0.0, "lat": 38.8948665, "bike_id": "4f280e6ad0cd70d42c69f792225a5183", "type": "electric_scooter", "is_reserved": 0, "lon": -77.02185866666666}, {"fusion_lat": 0.0, "name": "73ba58ca563ff690a2affca426b3fb2b", "is_disabled": 0, "rental_uris": {"android": "https://dc.lft.to/lastmile_qr_scan", "ios": "https://dc.lft.to/lastmile_qr_scan"}, "fusion_lon": 0.0, "lat": 39.007798, "bike_id": "73ba58ca563ff690a2affca426b3fb2b", "type": "electric_bike", "is_reserved": 0, "lon": -76.88978133333333}, {"fusion_lat": 0.0, "name": "b1384e6619994e23f9f93bf671e1113c", "is_disabled": 0, "rental_uris": {"android": "https://dc.lft.to/lastmile_qr_scan", "ios": "https://dc.lft.to/lastmile_qr_scan"},