{"data": {"bikes": [{"bike_id": "7c1e82dcacaad44873a40ceffbb2cf74", "type": "electric_scooter", "is_disabled": 0, "lat": 38.9062735, "rental_uris": {"ios": "https://dc.lft.to/lastmile_qr_scan", "android": "https://dc.lft.to/lastmile_qr_scan"}, "is_reserved": 0, "fusion_lon": 0.0, "fusion_lat": 0.0, "lon": -77.04127716666666, "name": "7c1e82dcacaad44873a40ceffbb2cf74"}, {"bike_id": "e1f4974fc6c9ee546d3aa989542451bb", "type": "electric_scooter", "is_disabled": 0, "lat": 38.90143, "rental_uris": {"ios": "https://dc.lft.to/lastmile_qr_scan", "android": "https://dc.lft.to/lastmile_qr_scan"}, "is_reserved": 0, "fusion_lon": 0.0, "fusion_lat": 0.0, "lon": -76.93086933333333, "name": "e1f4974fc6c9ee546d3aa989542451bb"}, {"bike_id": "d0b8cbe60242430a9a2d5df0a895927d", "type": "electric_scooter", "is_disabled": 0, "lat": 38.916765, "rental_uris": {"ios": "https://dc.lft.to/lastmile_qr_scan", "android": "https://dc.lft.to/lastmile_qr_scan"}, "is_reserved": 0, "fusion_lon": 0.0, "fusion_lat": 0.0, "lon": -77.02280683333333, "name": "d0b8cbe60242430a9a2d5df0a895927d"}, {"bike_id": "865b4984d5b05eed45a417de1aa1c39f", "type": "electric_scooter", "is_disabled": 0, "lat": 38.90367, "rental_uris": {"ios": "https://dc.lft.to/lastmile_qr_scan", "android": "https://dc.lft.to/lastmile_qr_scan"}, "is_reserved": 0, "fusion_lon": 0.0, "fusion_lat": 0.0, "lon": -77.06283283333333, "name": "865b4984d5b05eed45a417de1aa1c39f"}, {"bike_id": "134f475957da087f8189691f5fe3594c", "type": "electric_scooter", "is_disabled": 0, "lat": 38.899137, "rental_uris": {"ios": "https://dc.lft.to/lastmile_qr_scan", "android": "https://dc.lft.to/lastmile_qr_scan"}, "is_reserved": 0, "fusion_lon": 0.0, "fusion_lat": 0.0, "lon": -76.9336835, "name": "134f475957da087f8189691f5fe3594c"}, {"bike_id": "fbe3b9551743edba650071a5b739ed2b", "type": "electric_scooter", "is_disabled": 0, "lat": 38.9040965, "rental_uris": {"ios": "https://dc.lft.to/lastmile_qr_scan", "android": "https://dc.lft.to/lastmile_qr_scan"}, "is_reserved": 0, "fusion_lon": 0.0, "fusion_lat": 0.0, "lon": -76.97333433333333, "name": "fbe3b9551743edba650071a5b739ed2b"}, {"bike_id": "247a695f2629f42f5f909976b74751d3", "type": "electric_scooter", "is_disabled": 0, "lat": 38.8923255, "rental_uris": {"ios": "https://dc.lft.to/lastmile_qr_scan", "android": "https://dc.lft.to/lastmile_qr_scan"}, "is_reserved": 0, "fusion_lon": 0.0, "fusion_lat": 0.0, "lon": -77.04670283333333, "name": "247a695f2629f42f5f909976b74751d3"}, {"bike_id": "8ea23220f6f1ba589844604f5012d6c3", "type": "electric_scooter", "is_disabled": 0, "lat": 38.932695333333335, "rental_uris": {"ios": "https://dc.lft.to/lastmile_qr_scan", "android": "https://dc.lft.to/lastmile_qr_scan"}, "is_reserved": 0, "fusion_lon": 0.0, "fusion_lat": 0.0, "lon": -77.03936366666667, "name": "8ea23220f6f1ba589844604f5012d6c3"}, {"bike_id": "3d07b1af9f7aab2984f58554eac2bd58", "type": "electric_scooter", "is_disabled": 0, "lat": 38.922693833333334, "rental_uris": {"ios": "https://dc.lft.to/lastmile_qr_scan", "android": "https://dc.lft.to/lastmile_qr_scan"}, "is_reserved": 0, "fusion_lon": 0.0, "fusion_lat": 0.0, "lon": -77.04249666666666, "name": "3d07b1af9f7aab2984f58554eac2bd58"}, {"bike_id": "8673e484b89e31def96457d0cc7b500c", "type": "electric_scooter", "is_disabled": 0, "lat": 38.933276, "rental_uris": {"ios": "https://dc.lft.to/lastmile_qr_scan", "android": "https://dc.lft.to/lastmile_qr_scan"}, "is_reserved": 0, "fusion_lon": 0.0, "fusion_lat": 0.0, "lon": -77.02392433333333, "name": "8673e484b89e31def96457d0cc7b500c"}, {"bike_id": "5f4dfc1f37fa60b7b0b40bc1b0bc95fe", "type": "electric_scooter", "is_disabled": 0, "lat": 38.9207845, "rental_uris": {"ios": "https://dc.lft.to/lastmile_qr_scan", "android": "https://dc.lft.to/lastmile_qr_scan"}, "is_reserved": 0, "fusion_lon": 0.0, "fusion_lat": 0.0, "lon": -77.028382, "name": "5f4dfc1f37fa60b7b0b40bc1b0bc95fe"}, {"bike_id": "00f9b860d974e73db37f2d4cae963c05", "type": "electric_scooter", "is_disabled": 0, "lat": 38.919356, "rental_uris": {"ios": "https://dc.lft.to/lastmile_qr_scan", "android": "https://dc.lft.to/lastmile_qr_scan"}, "is_reserved": 0, "fusion_lon": 0.0, "fusion_lat": 0.0, "lon": -77.02506, "name": "00f9b860d974e73db37f2d4cae963c05"}, {"bike_id": "dec16254879b8e8dd928eb2586c62389", "type": "electric_scooter", "is_disabled": 0, "lat": 38.905800666666664, "rental_uris": {"ios": "https://dc.lft.to/lastmile_qr_scan", "android": "https://dc.lft.to/lastmile_qr_scan"}, "is_reserved": 0, "fusion_lon": 0.0, "fusion_lat": 0.0, "lon": -76.9843285, "name": "dec16254879b8e8dd928eb2586c62389"}, {"bike_id": "1da0bb6aaccce91966a00458848c9f71", "type": "electric_scooter", "is_disabled": 0, "lat": 38.927823833333335, "rental_uris": {"ios": "https://dc.lft.to/lastmile_qr_scan", "android": "https://dc.lft.to/lastmile_qr_scan"}, "is_reserved": 0, "fusion_lon": 0.0, "fusion_lat": 0.0, "lon": -77.027147, "name": "1da0bb6aaccce91966a00458848c9f71"}, {"bike_id": "557019b6be38b507c55760669e501ff6", "type": "electric_scooter", "is_disabled": 0, "lat": 38.916369833333334, "rental_uris": {"ios": "https://dc.lft.to/lastmile_qr_scan", "android": "https://dc.lft.to/lastmile_qr_scan"}, "is_reserved": 0, "fusion_lon": 0.0, "fusion_lat": 0.0, "lon": -77.04006033333333, "name": "557019b6be38b507c55760669e501ff6"}, {"bike_id": "813d1e42fd818e1e34d56d77b8e1e655", "type": "electric_scooter", "is_disabled": 0, "lat": 38.90117166666667, "rental_uris": {"ios": "https://dc.lft.to/lastmile_qr_scan", "android": "https://dc.lft.to/lastmile_qr_scan"}, "is_reserved": 0, "fusion_lon": 0.0, "fusion_lat": 0.0, "lon": -77.05026083333334, "name": "813d1e42fd818e1e34d56d77b8e1e655"}, {"bike_id": "88c6e931663ae5a74f3e6ad2f8f57966", "type": "electric_scooter", "is_disabled": 0, "lat": 38.90780783333334, "rental_uris": {"ios": "https://dc.lft.to/lastmile_qr_scan", "android": "https://dc.lft.to/lastmile_qr_scan"}, "is_reserved": 0, "fusion_lon": 0.0, "fusion_lat": 0.0, "lon": -77.06361633333333, "name": "88c6e931663ae5a74f3e6ad2f8f57966"}, {"bike_id": "79ffc24be296d520d6d7bd8c79929641", "type": "electric_scooter", "is_disabled": 0, "lat": 38.93921983333333, "rental_uris": {"ios": "https://dc.lft.to/lastmile_qr_scan", "android": "https://dc.lft.to/lastmile_qr_scan"}, "is_reserved": 0, "fusion_lon": 0.0, "fusion_lat": 0.0, "lon": -77.06049516666667, "name": "79ffc24be296d520d6d7bd8c79929641"}, {"bike_id": "6726cb82274a38fe842f68cbd0df09ed", "type": "electric_scooter", "is_disabled": 0, "lat": 38.91707316666667, "rental_uris": {"ios": "https://dc.lft.to/lastmile_qr_scan", "android": "https://dc.lft.to/lastmile_qr_scan"}, "is_reserved": 0, "fusion_lon": 0.0, "fusion_lat": 0.0, "lon": -77.02874683333333, "name": "6726cb82274a38fe842f68cbd0df09ed"}, {"bike_id": "08a68ff69030aea54290851dae34cf22", "type": "electric_scooter", "is_disabled": 0, "lat": 38.89235133333333, "rental_uris": {"ios": "https://dc.lft.to/lastmile_qr_scan", "android": "https://dc.lft.to/lastmile_qr_scan"}, "is_reserved": 0, "fusion_lon": 0.0, "fusion_lat": 0.0, "lon": -77.0467355, "name": "08a68ff69030aea54290851dae34cf22"}, {"bike_id": "c2d0477ddbba400459e37d809ecd9143", "type": "electric_scooter", "is_disabled": 0, "lat": 38.923468, "rental_uris": {"ios": "https://dc.lft.to/lastmile_qr_scan", "android": "https://dc.lft.to/lastmile_qr_scan"}, "is_reserved": 0, "fusion_lon": 0.0, "fusion_lat": 0.0, "lon": -77.051191, "name": "c2d0477ddbba400459e37d809ecd9143"}, {"bike_id": "bb748c56e0ee1d8a4c019dd1a3301270", "type": "electric_bike", "is_disabled": 0, "lat": 38.87300583333333, "rental_uris": {"ios": "https://dc.lft.to/lastmile_qr_scan", "android": "https://dc.lft.to/lastmile_qr_scan"}, "is_reserved": 0, "fusion_lon": 0.0, "fusion_lat": 0.0, "lon": -77.13930683333334, "name": "bb748c56e0ee1d8a4c019dd1a3301270"}, {"bike_id": "8a3c70e1ae086150c93fdc03ccc091ab", "type": "electric_scooter", "is_disabled": 0, "lat": 38.884759333333335, "rental_uris": {"ios": "https://dc.lft.to/lastmile_qr_scan", "android": "https://dc.lft.to/lastmile_qr_scan"}, "is_reserved": 0, "fusion_lon": 0.0, "fusion_lat": 0.0, "lon": -76.98206983333333, "name": "8a3c70e1ae086150c93fdc03ccc091ab"}, {"bike_id": "2d49d49717e5c1343680d830833412f3", "type": "electric_scooter", "is_disabled": 0, "lat": 38.92032116666667, "rental_uris": {"ios": "https://dc.lft.to/lastmile_qr_scan", "android": "https://dc.lft.to/lastmile_qr_scan"}, "is_reserved": 0, "fusion_lon": 0.0, "fusion_lat": 0.0, "lon": -77.0130835, "name": "2d49d49717e5c1343680d830833412f3"}, {"bike_id": "3d83d18b8e7e980faae6ed60e0fb5741", "type": "electric_scooter", "is_disabled": 0, "lat": 38.92067616666667, "rental_uris": {"ios": "https://dc.lft.to/lastmile_qr_scan", "android": "https://dc.lft.to/lastmile_qr_scan"}, "is_reserved": 0, "fusion_lon": 0.0, "fusion_lat": 0.0, "lon": -77.02711983333333, "name": "3d83d18b8e7e980faae6ed60e0fb5741"}, {"bike_id": "964d09ef69a43bfe101d3964eb736b05", "type": "electric_scooter", "is_disabled": 0, "lat": 38.91846816666666, "rental_uris": {"ios": "https://dc.lft.to/lastmile_qr_scan", "android": "https://dc.lft.to/lastmile_qr_scan"}, "is_reserved": 0, "fusion_lon": 0.0, "fusion_lat": 0.0, "lon": -76.96550716666667, "name": "964d09ef69a43bfe101d3964eb736b05"}, {"bike_id": "40873a89d8242e493d154989b73422d0", "type": "electric_scooter", "is_disabled": 0, "lat": 38.923723333333335, "rental_uris": {"ios": "https://dc.lft.to/lastmile_qr_scan", "android": "https://dc.lft.to/lastmile_qr_scan"}, "is_reserved": 0, "fusion_lon": 0.0, "fusion_lat": 0.0, "lon": -77.05148183333333, "name": "40873a89d8242e493d154989b73422d0"}, {"bike_id": "13eb192723ab3cc9a20d7472e3085d60", "type": "electric_scooter", "is_disabled": 0, "lat": 38.9111, "rental_uris": {"ios": "https://dc.lft.to/lastmile_qr_scan", "android": "https://dc.lft.to/lastmile_qr_scan"}, "is_reserved": 0, "fusion_lon": 0.0, "fusion_lat": 0.0, "lon": -77.038266, "name": "13eb192723ab3cc9a20d7472e3085d60"}, {"bike_id": "c5d074f800b2b31293985df979a5528a", "type": "electric_scooter", "is_disabled": 0, "lat": 38.921556, "rental_uris": {"ios": "https://dc.lft.to/lastmile_qr_scan", "android": "https://dc.lft.to/lastmile_qr_scan"}, "is_reserved": 0, "fusion_lon": 0.0, "fusion_lat": 0.0, "lon": -77.03518283333334, "name": "c5d074f800b2b31293985df979a5528a"}, {"bike_id": "a16f7d54af7531fa0632f2a79ac2367c", "type": "electric_scooter", "is_disabled": 0, "lat": 38.935276333333334, "rental_uris": {"ios": "https://dc.lft.to/lastmile_qr_scan", "android": "https://dc.lft.to/lastmile_qr_scan"}, "is_reserved": 0, "fusion_lon": 0.0, "fusion_lat": 0.0, "lon": -77.03399316666666, "name": "a16f7d54af7531fa0632f2a79ac2367c"}, {"bike_id": "d6438631c5c4dd09fa91bb396ae9d3be", "type": "electric_scooter", "is_disabled": 0, "lat": 38.8873855, "rental_uris": {"ios": "https://dc.lft.to/lastmile_qr_scan", "android": "https://dc.lft.to/lastmile_qr_scan"}, "is_reserved": 0, "fusion_lon": 0.0, "fusion_lat": 0.0, "lon": -77.02317616666667, "name": "d6438631c5c4dd09fa91bb396ae9d3be"}, {"bike_id": "44852a2a6e81a60b7a7975605a885c97", "type": "electric_bike", "is_disabled": 0, "lat": 38.955172833333336, "rental_uris": {"ios": "https://dc.lft.to/lastmile_qr_scan", "android": "https://dc.lft.to/lastmile_qr_scan"}, "is_reserved": 0, "fusion_lon": 0.0, "fusion_lat": 0.0, "lon": -76.939126, "name": "44852a2a6e81a60b7a7975605a885c97"}, {"bike_id": "a70d2c99f2d3e3448682278726599e4f", "type": "electric_scooter", "is_disabled": 0, "lat": 38.92558916666667, "rental_uris": {"ios": "https://dc.lft.to/lastmile_qr_scan", "android": "https://dc.lft.to/lastmile_qr_scan"}, "is_reserved": 0, "fusion_lon": 0.0, "fusion_lat": 0.0, "lon": -77.04150266666667, "name": "a70d2c99f2d3e3448682278726599e4f"}, {"bike_id": "a93ddd0a82776b8c01c9d283f56c90e7", "type": "electric_scooter", "is_disabled": 0, "lat": 38.917632, "rental_uris": {"ios": "https://dc.lft.to/lastmile_qr_scan", "android": "https://dc.lft.to/lastmile_qr_scan"}, "is_reserved": 0, "fusion_lon": 0.0, "fusion_lat": 0.0, "lon": -77.04768, "name": "a93ddd0a82776b8c01c9d283f56c90e7"}, {"bike_id": "c8731f7a0787892ed474a8871dc06364", "type": "electric_scooter", "is_disabled": 0, "lat": 38.886576833333336, "rental_uris": {"ios": "https://dc.lft.to/lastmile_qr_scan", "android": "https://dc.lft.to/lastmile_qr_scan"}, "is_reserved": 0, "fusion_lon": 0.0, "fusion_lat": 0.0, "lon": -77.0282685, "name": "c8731f7a0787892ed474a8871dc06364"}, {"bike_id": "7fd2a2be7f358afbe6fbfe0046c8cd39", "type": "electric_scooter", "is_disabled": 0, "lat": 38.95578966666667, "rental_uris": {"ios": "https://dc.lft.to/lastmile_qr_scan", "android": "https://dc.lft.to/lastmile_qr_scan"}, "is_reserved": 0, "fusion_lon": 0.0, "fusion_lat": 0.0, "lon": -77.08038583333334, "name": "7fd2a2be7f358afbe6fbfe0046c8cd39"}, {"bike_id": "a7ff94aed8835d19190fffd7839721f4", "type": "electric_scooter", "is_disabled": 0, "lat": 38.897142833333334, "rental_uris": {"ios": "https://dc.lft.to/lastmile_qr_scan", "android": "https://dc.lft.to/lastmile_qr_scan"}, "is_reserved": 0, "fusion_lon": 0.0, "fusion_lat": 0.0, "lon": -77.02138433333333, "name": "a7ff94aed8835d19190fffd7839721f4"}, {"bike_id": "9457e149f0b604700dcbf24dd0ef7841", "type": "electric_scooter", "is_disabled": 0, "lat": 38.897078666666665, "rental_uris": {"ios": "https://dc.lft.to/lastmile_qr_scan", "android": "https://dc.lft.to/lastmile_qr_scan"}, "is_reserved": 0, "fusion_lon": 0.0, "fusion_lat": 0.0, "lon": -77.02290733333334, "name": "9457e149f0b604700dcbf24dd0ef7841"}, {"bike_id": "14d4ee0889ac77db6314b9dc8609dbd2", "type": "electric_scooter", "is_disabled": 0, "lat": 38.92252166666667, "rental_uris": {"ios": "https://dc.lft.to/lastmile_qr_scan", "android": "https://dc.lft.to/lastmile_qr_scan"}, "is_reserved": 0, "fusion_lon": 0.0, "fusion_lat": 0.0, "lon": -77.01968533333333, "name": "14d4ee0889ac77db6314b9dc8609dbd2"}, {"bike_id": "df6ff2727cc548b94543c0336ee99d0c", "type": "electric_scooter", "is_disabled": 0, "lat": 38.8815985, "rental_uris": {"ios": "https://dc.lft.to/lastmile_qr_scan", "android": "https://dc.lft.to/lastmile_qr_scan"}, "is_reserved": 0, "fusion_lon": 0.0, "fusion_lat": 0.0, "lon": -77.02764616666667, "name": "df6ff2727cc548b94543c0336ee99d0c"}, {"bike_id": "f6e5accf36225a0d1466b7267628a420", "type": "electric_scooter", "is_disabled": 0, "lat": 38.9032165, "rental_uris": {"ios": "https://dc.lft.to/lastmile_qr_scan", "android": "https://dc.lft.to/lastmile_qr_scan"}, "is_reserved": 0, "fusion_lon": 0.0, "fusion_lat": 0.0, "lon": -76.99130783333334, "name": "f6e5accf36225a0d1466b7267628a420"}, {"bike_id": "3262e264abfcb3803920cab0a79c9fde", "type": "electric_scooter", "is_disabled": 0, "lat": 38.863754166666666, "rental_uris": {"ios": "https://dc.lft.to/lastmile_qr_scan", "android": "https://dc.lft.to/lastmile_qr_scan"}, "is_reserved": 0, "fusion_lon": 0.0, "fusion_lat": 0.0, "lon": -76.9905915, "name": "3262e264abfcb3803920cab0a79c9fde"}, {"bike_id": "8383a894a70974fe38a4171d2f3e8d24", "type": "electric_bike", "is_disabled": 0, "lat": 38.809777, "rental_uris": {"ios": "https://dc.lft.to/lastmile_qr_scan", "android": "https://dc.lft.to/lastmile_qr_scan"}, "is_reserved": 0, "fusion_lon": 0.0, "fusion_lat": 0.0, "lon": -77.08627033333333, "name": "8383a894a70974fe38a4171d2f3e8d24"}, {"bike_id": "6a2dbe29f5fc1a732072bfc1c78d8503", "type": "electric_scooter", "is_disabled": 0, "lat": 38.912673166666664, "rental_uris": {"ios": "https://dc.lft.to/lastmile_qr_scan", "android": "https://dc.lft.to/lastmile_qr_scan"}, "is_reserved": 0, "fusion_lon": 0.0, "fusion_lat": 0.0, "lon": -77.03862116666667, "name": "6a2dbe29f5fc1a732072bfc1c78d8503"}, {"bike_id": "b75fc6e2088ccd3113d821c9bdac414d", "type": "electric_scooter", "is_disabled": 0, "lat": 38.892192, "rental_uris": {"ios": "https://dc.lft.to/lastmile_qr_scan", "android": "https://dc.lft.to/lastmile_qr_scan"}, "is_reserved": 0, "fusion_lon": 0.0, "fusion_lat": 0.0, "lon": -77.03164166666667, "name": "b75fc6e2088ccd3113d821c9bdac414d"}, {"bike_id": "7eb2710efd7a8d2efed369050ee8d338", "type": "electric_scooter", "is_disabled": 0, "lat": 38.928641, "rental_uris": {"ios": "https://dc.lft.to/lastmile_qr_scan", "android": "https://dc.lft.to/lastmile_qr_scan"}, "is_reserved": 0, "fusion_lon": 0.0, "fusion_lat": 0.0, "lon": -77.03708433333334, "name": "7eb2710efd7a8d2efed369050ee8d338"}, {"bike_id": "df68188436c451a5745e011f1264474c", "type": "electric_scooter", "is_disabled": 0, "lat": 38.928398333333334, "rental_uris": {"ios": "https://dc.lft.to/lastmile_qr_scan", "android": "https://dc.lft.to/lastmile_qr_scan"}, "is_reserved": 0, "fusion_lon": 0.0, "fusion_lat": 0.0, "lon": -77.05507883333334, "name": "df68188436c451a5745e011f1264474c"}, {"bike_id": "9f61b0a03b868bf6eaa300cc50c062cd", "type": "electric_scooter", "is_disabled": 0, "lat": 38.9565905, "rental_uris": {"ios": "https://dc.lft.to/lastmile_qr_scan", "android": "https://dc.lft.to/lastmile_qr_scan"}, "is_reserved": 0, "fusion_lon": 0.0, "fusion_lat": 0.0, "lon": -77.0100135, "name": "9f61b0a03b868bf6eaa300cc50c062cd"}, {"bike_id": "0c3bc82920f10717b87b772c25011e05", "type": "electric_scooter", "is_disabled": 0, "lat": 38.956334, "rental_uris": {"ios": "https://dc.lft.to/lastmile_qr_scan", "android": "https://dc.lft.to/lastmile_qr_scan"}, "is_reserved": 0, "fusion_lon": 0.0, "fusion_lat": 0.0, "lon": -77.011567, "name": "0c3bc82920f10717b87b772c25011e05"}, {"bike_id": "ab5bf022b464cfb7b5461cae7386bcc3", "type": "electric_scooter", "is_disabled": 0, "lat": 38.93243183333333, "rental_uris": {"ios": "https://dc.lft.to/lastmile_qr_scan", "android": "https://dc.lft.to/lastmile_qr_scan"}, "is_reserved": 0, "fusion_lon": 0.0, "fusion_lat": 0.0, "lon": -77.0387795, "name": "ab5bf022b464cfb7b5461cae7386bcc3"}, {"bike_id": "df33fdeb2e3c5a91af703a1d8abf82c3", "type": "electric_scooter", "is_disabled": 0, "lat": 38.8869715, "rental_uris": {"ios": "https://dc.lft.to/lastmile_qr_scan", "android": "https://dc.lft.to/lastmile_qr_scan"}, "is_reserved": 0, "fusion_lon": 0.0, "fusion_lat": 0.0, "lon": -76.99611866666666, "name": "df33fdeb2e3c5a91af703a1d8abf82c3"}, {"bike_id": "896392ff7e5cfff4516c936e2711ca8b", "type": "electric_scooter", "is_disabled": 0, "lat": 38.915054, "rental_uris": {"ios": "https://dc.lft.to/lastmile_qr_scan", "android": "https://dc.lft.to/lastmile_qr_scan"}, "is_reserved": 0, "fusion_lon": 0.0, "fusion_lat": 0.0, "lon": -77.01771116666667, "name": "896392ff7e5cfff4516c936e2711ca8b"}, {"bike_id": "baa3a9aa681599aba4ded08bf8b4c841", "type": "electric_scooter", "is_disabled": 0, "lat": 38.92453316666667, "rental_uris": {"ios": "https://dc.lft.to/lastmile_qr_scan", "android": "https://dc.lft.to/lastmile_qr_scan"}, "is_reserved": 0, "fusion_lon": 0.0, "fusion_lat": 0.0, "lon": -77.04401083333333, "name": "baa3a9aa681599aba4ded08bf8b4c841"}, {"bike_id": "7de3364a8a9a2c91db84ad535185944b", "type": "electric_scooter", "is_disabled": 0, "lat": 38.91550066666667, "rental_uris": {"ios": "https://dc.lft.to/lastmile_qr_scan", "android": "https://dc.lft.to/lastmile_qr_scan"}, "is_reserved": 0, "fusion_lon": 0.0, "fusion_lat": 0.0, "lon": -77.04009633333334, "name": "7de3364a8a9a2c91db84ad535185944b"}, {"bike_id": "e3350b4c2413a9010b6efaabc2206ba1", "type": "electric_scooter", "is_disabled": 0, "lat": 38.886536166666666, "rental_uris": {"ios": "https://dc.lft.to/lastmile_qr_scan", "android": "https://dc.lft.to/lastmile_qr_scan"}, "is_reserved": 0, "fusion_lon": 0.0, "fusion_lat": 0.0, "lon": -77.001191, "name": "e3350b4c2413a9010b6efaabc2206ba1"}, {"bike_id": "c3facbdcd78bfec7ed494c03ffdf494c", "type": "electric_scooter", "is_disabled": 0, "lat": 38.918491, "rental_uris": {"ios": "https://dc.lft.to/lastmile_qr_scan", "android": "https://dc.lft.to/lastmile_qr_scan"}, "is_reserved": 0, "fusion_lon": 0.0, "fusion_lat": 0.0, "lon": -76.96549633333333, "name": "c3facbdcd78bfec7ed494c03ffdf494c"}, {"bike_id": "c20305dc2ac135a7f4590e3d791f6efc", "type": "electric_bike", "is_disabled": 0, "lat": 38.813349, "rental_uris": {"ios": "https://dc.lft.to/lastmile_qr_scan", "android": "https://dc.lft.to/lastmile_qr_scan"}, "is_reserved": 0, "fusion_lon": 0.0, "fusion_lat": 0.0, "lon": -77.05093416666666, "name": "c20305dc2ac135a7f4590e3d791f6efc"}, {"bike_id": "7c57709c180c5b11d00466375c361553", "type": "electric_scooter", "is_disabled": 0, "lat": 38.909811833333336, "rental_uris": {"ios": "https://dc.lft.to/lastmile_qr_scan", "android": "https://dc.lft.to/lastmile_qr_scan"}, "is_reserved": 0, "fusion_lon": 0.0, "fusion_lat": 0.0, "lon": -77.03376466666667, "name": "7c57709c180c5b11d00466375c361553"}, {"bike_id": "f7180fb08bd321477cbaef09904ef30d", "type": "electric_bike", "is_disabled": 0, "lat": 38.87479416666667, "rental_uris": {"ios": "https://dc.lft.to/lastmile_qr_scan", "android": "https://dc.lft.to/lastmile_qr_scan"}, "is_reserved": 0, "fusion_lon": 0.0, "fusion_lat": 0.0, "lon": -76.965289, "name": "f7180fb08bd321477cbaef09904ef30d"}, {"bike_id": "5e3121dc3d35752aac93699c60e128a0", "type": "electric_scooter", "is_disabled": 0, "lat": 38.911125166666665, "rental_uris": {"ios": "https://dc.lft.to/lastmile_qr_scan", "android": "https://dc.lft.to/lastmile_qr_scan"}, "is_reserved": 0, "fusion_lon": 0.0, "fusion_lat": 0.0, "lon": -77.03829366666666, "name": "5e3121dc3d35752aac93699c60e128a0"}, {"bike_id": "75fce121875a136299f2bb0f2c2e775f", "type": "electric_scooter", "is_disabled": 0, "lat": 38.90165966666667, "rental_uris": {"ios": "https://dc.lft.to/lastmile_qr_scan", "android": "https://dc.lft.to/lastmile_qr_scan"}, "is_reserved": 0, "fusion_lon": 0.0, "fusion_lat": 0.0, "lon": -76.93021883333333, "name": "75fce121875a136299f2bb0f2c2e775f"}, {"bike_id": "fb17ef24a3d277aa9d77cda28e36b39a", "type": "electric_scooter", "is_disabled": 0, "lat": 38.919079333333336, "rental_uris": {"ios": "https://dc.lft.to/lastmile_qr_scan", "android": "https://dc.lft.to/lastmile_qr_scan"}, "is_reserved": 0, "fusion_lon": 0.0, "fusion_lat": 0.0, "lon": -77.03203016666667, "name": "fb17ef24a3d277aa9d77cda28e36b39a"}, {"bike_id": "03c13c996f649292b90915a4214d5ad8", "type": "electric_scooter", "is_disabled": 0, "lat": 38.892904333333334, "rental_uris": {"ios": "https://dc.lft.to/lastmile_qr_scan", "android": "https://dc.lft.to/lastmile_qr_scan"}, "is_reserved": 0, "fusion_lon": 0.0, "fusion_lat": 0.0, "lon": -77.04484466666666, "name": "03c13c996f649292b90915a4214d5ad8"}, {"bike_id": "dae5e79e1dc9f72a704b1fd0a6fd9dee", "type": "electric_scooter", "is_disabled": 0, "lat": 38.933436, "rental_uris": {"ios": "https://dc.lft.to/lastmile_qr_scan", "android": "https://dc.lft.to/lastmile_qr_scan"}, "is_reserved": 0, "fusion_lon": 0.0, "fusion_lat": 0.0, "lon": -77.03984616666666, "name": "dae5e79e1dc9f72a704b1fd0a6fd9dee"}, {"bike_id": "3909b932c48e437a9c5023efed4873ec", "type": "electric_scooter", "is_disabled": 0, "lat": 38.9207025, "rental_uris": {"ios": "https://dc.lft.to/lastmile_qr_scan", "android": "https://dc.lft.to/lastmile_qr_scan"}, "is_reserved": 0, "fusion_lon": 0.0, "fusion_lat": 0.0, "lon": -77.03395966666666, "name": "3909b932c48e437a9c5023efed4873ec"}, {"bike_id": "e9623218a8dd6a690a573abeb82d9aab", "type": "electric_scooter", "is_disabled": 0, "lat": 38.90031883333333, "rental_uris": {"ios": "https://dc.lft.to/lastmile_qr_scan", "android": "https://dc.lft.to/lastmile_qr_scan"}, "is_reserved": 0, "fusion_lon": 0.0, "fusion_lat": 0.0, "lon": -77.0018375, "name": "e9623218a8dd6a690a573abeb82d9aab"}, {"bike_id": "eb57fa53ab4a2bc2fe20ff91fbad20d7", "type": "electric_scooter", "is_disabled": 0, "lat": 38.942922833333334, "rental_uris": {"ios": "https://dc.lft.to/lastmile_qr_scan", "android": "https://dc.lft.to/lastmile_qr_scan"}, "is_reserved": 0, "fusion_lon": 0.0, "fusion_lat": 0.0, "lon": -77.02172983333334, "name": "eb57fa53ab4a2bc2fe20ff91fbad20d7"}, {"bike_id": "4b7aa106c4970e16729585a1be69f942", "type": "electric_scooter", "is_disabled": 0, "lat": 38.918449833333334, "rental_uris": {"ios": "https://dc.lft.to/lastmile_qr_scan", "android": "https://dc.lft.to/lastmile_qr_scan"}, "is_reserved": 0, "fusion_lon": 0.0, "fusion_lat": 0.0, "lon": -76.96553933333334, "name": "4b7aa106c4970e16729585a1be69f942"}, {"bike_id": "21110a858ecb8e44d11ef055b614ef81", "type": "electric_scooter", "is_disabled": 0, "lat": 38.92231483333333, "rental_uris": {"ios": "https://dc.lft.to/lastmile_qr_scan", "android": "https://dc.lft.to/lastmile_qr_scan"}, "is_reserved": 0, "fusion_lon": 0.0, "fusion_lat": 0.0, "lon": -77.04264766666667, "name": "21110a858ecb8e44d11ef055b614ef81"}, {"bike_id": "65b2cbf73b19cf95178ec1fce5c62c8f", "type": "electric_scooter", "is_disabled": 0, "lat": 38.914162833333336, "rental_uris": {"ios": "https://dc.lft.to/lastmile_qr_scan", "android": "https://dc.lft.to/lastmile_qr_scan"}, "is_reserved": 0, "fusion_lon": 0.0, "fusion_lat": 0.0, "lon": -77.02251983333333, "name": "65b2cbf73b19cf95178ec1fce5c62c8f"}, {"bike_id": "203f71aaeaa7ab190ec0b3abe9abe8d6", "type": "electric_scooter", "is_disabled": 0, "lat": 38.89238816666666, "rental_uris": {"ios": "https://dc.lft.to/lastmile_qr_scan", "android": "https://dc.lft.to/lastmile_qr_scan"}, "is_reserved": 0, "fusion_lon": 0.0, "fusion_lat": 0.0, "lon": -77.02608866666667, "name": "203f71aaeaa7ab190ec0b3abe9abe8d6"}, {"bike_id": "bcb6a151e21b5573ec27c5d1a95ee744", "type": "electric_scooter", "is_disabled": 0, "lat": 38.86718416666667, "rental_uris": {"ios": "https://dc.lft.to/lastmile_qr_scan", "android": "https://dc.lft.to/lastmile_qr_scan"}, "is_reserved": 0, "fusion_lon": 0.0, "fusion_lat": 0.0, "lon": -77.01010433333333, "name": "bcb6a151e21b5573ec27c5d1a95ee744"}, {"bike_id": "df884929bf9420abda8110ed6eec9d9c", "type": "electric_scooter", "is_disabled": 0, "lat": 38.92440216666667, "rental_uris": {"ios": "https://dc.lft.to/lastmile_qr_scan", "android": "https://dc.lft.to/lastmile_qr_scan"}, "is_reserved": 0, "fusion_lon": 0.0, "fusion_lat": 0.0, "lon": -77.04024216666667, "name": "df884929bf9420abda8110ed6eec9d9c"}, {"bike_id": "edc096cc1e95dd37c124c735da1e9a1b", "type": "electric_scooter", "is_disabled": 0, "lat": 38.931908666666665, "rental_uris": {"ios": "https://dc.lft.to/lastmile_qr_scan", "android": "https://dc.lft.to/lastmile_qr_scan"}, "is_reserved": 0, "fusion_lon": 0.0, "fusion_lat": 0.0, "lon": -77.02022783333334, "name": "edc096cc1e95dd37c124c735da1e9a1b"}, {"bike_id": "ce5006d73db57898f9d60ce267e28a9a", "type": "electric_scooter", "is_disabled": 0, "lat": 38.909881, "rental_uris": {"ios": "https://dc.lft.to/lastmile_qr_scan", "android": "https://dc.lft.to/lastmile_qr_scan"}, "is_reserved": 0, "fusion_lon": 0.0, "fusion_lat": 0.0, "lon": -77.0401, "name": "ce5006d73db57898f9d60ce267e28a9a"}, {"bike_id": "4253b3fb6d02214ede448f611ff58bbd", "type": "electric_scooter", "is_disabled": 0, "lat": 38.90146083333333, "rental_uris": {"ios": "https://dc.lft.to/lastmile_qr_scan", "android": "https://dc.lft.to/lastmile_qr_scan"}, "is_reserved": 0, "fusion_lon": 0.0, "fusion_lat": 0.0, "lon": -77.01639316666666, "name": "4253b3fb6d02214ede448f611ff58bbd"}, {"bike_id": "59c364734c965ad739d0750b25be33f8", "type": "electric_scooter", "is_disabled": 0, "lat": 38.91631916666667, "rental_uris": {"ios": "https://dc.lft.to/lastmile_qr_scan", "android": "https://dc.lft.to/lastmile_qr_scan"}, "is_reserved": 0, "fusion_lon": 0.0, "fusion_lat": 0.0, "lon": -77.03962333333334, "name": "59c364734c965ad739d0750b25be33f8"}, {"bike_id": "75f9d37045b8829990cbc9b4ef6dfb8a", "type": "electric_scooter", "is_disabled": 0, "lat": 38.917029, "rental_uris": {"ios": "https://dc.lft.to/lastmile_qr_scan", "android": "https://dc.lft.to/lastmile_qr_scan"}, "is_reserved": 0, "fusion_lon": 0.0, "fusion_lat": 0.0, "lon": -77.02418116666666, "name": "75f9d37045b8829990cbc9b4ef6dfb8a"}, {"bike_id": "0acd943becbcb0997fa53d94ae38e0dd", "type": "electric_scooter", "is_disabled": 0, "lat": 38.92330283333333, "rental_uris": {"ios": "https://dc.lft.to/lastmile_qr_scan", "android": "https://dc.lft.to/lastmile_qr_scan"}, "is_reserved": 0, "fusion_lon": 0.0, "fusion_lat": 0.0, "lon": -77.04509316666666, "name": "0acd943becbcb0997fa53d94ae38e0dd"}, {"bike_id": "6639a62b6560cf3fff26a82f1dc5daf4", "type": "electric_scooter", "is_disabled": 0, "lat": 38.866864166666666, "rental_uris": {"ios": "https://dc.lft.to/lastmile_qr_scan", "android": "https://dc.lft.to/lastmile_qr_scan"}, "is_reserved": 0, "fusion_lon": 0.0, "fusion_lat": 0.0, "lon": -76.98585766666666, "name": "6639a62b6560cf3fff26a82f1dc5daf4"}, {"bike_id": "6ae3f42e512441e9e8ca816ea2d1d83f", "type": "electric_scooter", "is_disabled": 0, "lat": 38.91785466666666, "rental_uris": {"ios": "https://dc.lft.to/lastmile_qr_scan", "android": "https://dc.lft.to/lastmile_qr_scan"}, "is_reserved": 0, "fusion_lon": 0.0, "fusion_lat": 0.0, "lon": -77.04552216666667, "name": "6ae3f42e512441e9e8ca816ea2d1d83f"}, {"bike_id": "2da024143b7b97a8f5949a2d81fb9f4d", "type": "electric_scooter", "is_disabled": 0, "lat": 38.90532016666667, "rental_uris": {"ios": "https://dc.lft.to/lastmile_qr_scan", "android": "https://dc.lft.to/lastmile_qr_scan"}, "is_reserved": 0, "fusion_lon": 0.0, "fusion_lat": 0.0, "lon": -77.00572116666666, "name": "2da024143b7b97a8f5949a2d81fb9f4d"}, {"bike_id": "e8e6a72cb468693766074ee5a795ae58", "type": "electric_scooter", "is_disabled": 0, "lat": 38.92190683333333, "rental_uris": {"ios": "https://dc.lft.to/lastmile_qr_scan", "android": "https://dc.lft.to/lastmile_qr_scan"}, "is_reserved": 0, "fusion_lon": 0.0, "fusion_lat": 0.0, "lon": -77.037791, "name": "e8e6a72cb468693766074ee5a795ae58"}, {"bike_id": "1ec2e772a73dbfc95dbf89efaf6f6a8b", "type": "electric_scooter", "is_disabled": 0, "lat": 38.908624833333334, "rental_uris": {"ios": "https://dc.lft.to/lastmile_qr_scan", "android": "https://dc.lft.to/lastmile_qr_scan"}, "is_reserved": 0, "fusion_lon": 0.0, "fusion_lat": 0.0, "lon": -77.0235555, "name": "1ec2e772a73dbfc95dbf89efaf6f6a8b"}, {"bike_id": "176bc31cf7a800d4fa9faec78c77167d", "type": "electric_scooter", "is_disabled": 0, "lat": 38.86691033333334, "rental_uris": {"ios": "https://dc.lft.to/lastmile_qr_scan", "android": "https://dc.lft.to/lastmile_qr_scan"}, "is_reserved": 0, "fusion_lon": 0.0, "fusion_lat": 0.0, "lon": -76.98572616666667, "name": "176bc31cf7a800d4fa9faec78c77167d"}, {"bike_id": "dc7b5562dcedc85f35cb2a202be53a34", "type": "electric_scooter", "is_disabled": 0, "lat": 38.933743, "rental_uris": {"ios": "https://dc.lft.to/lastmile_qr_scan", "android": "https://dc.lft.to/lastmile_qr_scan"}, "is_reserved": 0, "fusion_lon": 0.0, "fusion_lat": 0.0, "lon": -77.0573065, "name": "dc7b5562dcedc85f35cb2a202be53a34"}, {"bike_id": "6a51a2626c050ae73d7275bac1305d1d", "type": "electric_scooter", "is_disabled": 0, "lat": 38.933530833333336, "rental_uris": {"ios": "https://dc.lft.to/lastmile_qr_scan", "android": "https://dc.lft.to/lastmile_qr_scan"}, "is_reserved": 0, "fusion_lon": 0.0, "fusion_lat": 0.0, "lon": -76.9925545, "name": "6a51a2626c050ae73d7275bac1305d1d"}, {"bike_id": "dfb91d03146076f568beaf57692d4be6", "type": "electric_scooter", "is_disabled": 0, "lat": 38.90817366666667, "rental_uris": {"ios": "https://dc.lft.to/lastmile_qr_scan", "android": "https://dc.lft.to/lastmile_qr_scan"}, "is_reserved": 0, "fusion_lon": 0.0, "fusion_lat": 0.0, "lon": -77.06381933333333, "name": "dfb91d03146076f568beaf57692d4be6"}, {"bike_id": "6a4fe36a7f20fa416d59e068e0c24650", "type": "electric_scooter", "is_disabled": 0, "lat": 38.904075666666664, "rental_uris": {"ios": "https://dc.lft.to/lastmile_qr_scan", "android": "https://dc.lft.to/lastmile_qr_scan"}, "is_reserved": 0, "fusion_lon": 0.0, "fusion_lat": 0.0, "lon": -77.01835433333333, "name": "6a4fe36a7f20fa416d59e068e0c24650"}, {"bike_id": "6dd62bc6d4d7eec39519b1a74c01d79a", "type": "electric_scooter", "is_disabled": 0, "lat": 38.901594333333335, "rental_uris": {"ios": "https://dc.lft.to/lastmile_qr_scan", "android": "https://dc.lft.to/lastmile_qr_scan"}, "is_reserved": 0, "fusion_lon": 0.0, "fusion_lat": 0.0, "lon": -77.03719, "name": "6dd62bc6d4d7eec39519b1a74c01d79a"}, {"bike_id": "866c08e33d66cb0b7bf49c0cf58c9346", "type": "electric_scooter", "is_disabled": 0, "lat": 38.8960825, "rental_uris": {"ios": "https://dc.lft.to/lastmile_qr_scan", "android": "https://dc.lft.to/lastmile_qr_scan"}, "is_reserved": 0, "fusion_lon": 0.0, "fusion_lat": 0.0, "lon": -77.0447675, "name": "866c08e33d66cb0b7bf49c0cf58c9346"}, {"bike_id": "2463374209e0b2e174455eb32b169840", "type": "electric_scooter", "is_disabled": 0, "lat": 38.92339033333333, "rental_uris": {"ios": "https://dc.lft.to/lastmile_qr_scan", "android": "https://dc.lft.to/lastmile_qr_scan"}, "is_reserved": 0, "fusion_lon": 0.0, "fusion_lat": 0.0, "lon": -77.03566433333333, "name": "2463374209e0b2e174455eb32b169840"}, {"bike_id": "02b6a1fc566fb901e5c33512e74ea183", "type": "electric_scooter", "is_disabled": 0, "lat": 38.936092333333335, "rental_uris": {"ios": "https://dc.lft.to/lastmile_qr_scan", "android": "https://dc.lft.to/lastmile_qr_scan"}, "is_reserved": 0, "fusion_lon": 0.0, "fusion_lat": 0.0, "lon": -77.037875, "name": "02b6a1fc566fb901e5c33512e74ea183"}, {"bike_id": "cbf86f2529421c565b291c8175704278", "type": "electric_scooter", "is_disabled": 0, "lat": 38.91142133333334, "rental_uris": {"ios": "https://dc.lft.to/lastmile_qr_scan", "android": "https://dc.lft.to/lastmile_qr_scan"}, "is_reserved": 0, "fusion_lon": 0.0, "fusion_lat": 0.0, "lon": -76.990142, "name": "cbf86f2529421c565b291c8175704278"}, {"bike_id": "b5071017d582fe7110548d3921529903", "type": "electric_scooter", "is_disabled": 0, "lat": 38.9243455, "rental_uris": {"ios": "https://dc.lft.to/lastmile_qr_scan", "android": "https://dc.lft.to/lastmile_qr_scan"}, "is_reserved": 0, "fusion_lon": 0.0, "fusion_lat": 0.0, "lon": -77.04246216666667, "name": "b5071017d582fe7110548d3921529903"}, {"bike_id": "002c0a6c2d4473a1919fed22c4bf9d8d", "type": "electric_scooter", "is_disabled": 0, "lat": 38.93364916666667, "rental_uris": {"ios": "https://dc.lft.to/lastmile_qr_scan", "android": "https://dc.lft.to/lastmile_qr_scan"}, "is_reserved": 0, "fusion_lon": 0.0, "fusion_lat": 0.0, "lon": -77.06205966666667, "name": "002c0a6c2d4473a1919fed22c4bf9d8d"}, {"bike_id": "35a7bbd18807f3e5108d4ff222187f72", "type": "electric_scooter", "is_disabled": 0, "lat": 38.938612, "rental_uris": {"ios": "https://dc.lft.to/lastmile_qr_scan", "android": "https://dc.lft.to/lastmile_qr_scan"}, "is_reserved": 0, "fusion_lon": 0.0, "fusion_lat": 0.0, "lon": -77.02700516666667, "name": "35a7bbd18807f3e5108d4ff222187f72"}, {"bike_id": "547cc9050727b3cfbfe9d66d1652d1f2", "type": "electric_scooter", "is_disabled": 0, "lat": 38.902532666666666, "rental_uris": {"ios": "https://dc.lft.to/lastmile_qr_scan", "android": "https://dc.lft.to/lastmile_qr_scan"}, "is_reserved": 0, "fusion_lon": 0.0, "fusion_lat": 0.0, "lon": -77.02637266666666, "name": "547cc9050727b3cfbfe9d66d1652d1f2"}, {"bike_id": "9346214f932d6a3aba7e4de8b074ab97", "type": "electric_scooter", "is_disabled": 0, "lat": 38.95316066666667, "rental_uris": {"ios": "https://dc.lft.to/lastmile_qr_scan", "android": "https://dc.lft.to/lastmile_qr_scan"}, "is_reserved": 0, "fusion_lon": 0.0, "fusion_lat": 0.0, "lon": -77.0697745, "name": "9346214f932d6a3aba7e4de8b074ab97"}, {"bike_id": "d3af1e4d234df456a5d87ac75c8d26d7", "type": "electric_bike", "is_disabled": 0, "lat": 38.8729655, "rental_uris": {"ios": "https://dc.lft.to/lastmile_qr_scan", "android": "https://dc.lft.to/lastmile_qr_scan"}, "is_reserved": 0, "fusion_lon": 0.0, "fusion_lat": 0.0, "lon": -77.139222, "name": "d3af1e4d234df456a5d87ac75c8d26d7"}, {"bike_id": "f8aec65c31c4952779d147dbe521631a", "type": "electric_scooter", "is_disabled": 0, "lat": 38.913121833333335, "rental_uris": {"ios": "https://dc.lft.to/lastmile_qr_scan", "android": "https://dc.lft.to/lastmile_qr_scan"}, "is_reserved": 0, "fusion_lon": 0.0, "fusion_lat": 0.0, "lon": -76.98653333333333, "name": "f8aec65c31c4952779d147dbe521631a"}, {"bike_id": "d6517db6bd8de8d35491f0c7b8e95f36", "type": "electric_scooter", "is_disabled": 0, "lat": 38.904186333333335, "rental_uris": {"ios": "https://dc.lft.to/lastmile_qr_scan", "android": "https://dc.lft.to/lastmile_qr_scan"}, "is_reserved": 0, "fusion_lon": 0.0, "fusion_lat": 0.0, "lon": -76.9907355, "name": "d6517db6bd8de8d35491f0c7b8e95f36"}, {"bike_id": "9efd72ead65cb3f55403c5bc73969f66", "type": "electric_scooter", "is_disabled": 0, "lat": 38.89033416666667, "rental_uris": {"ios": "https://dc.lft.to/lastmile_qr_scan", "android": "https://dc.lft.to/lastmile_qr_scan"}, "is_reserved": 0, "fusion_lon": 0.0, "fusion_lat": 0.0, "lon": -76.93754183333333, "name": "9efd72ead65cb3f55403c5bc73969f66"}, {"bike_id": "0dc10404d7191c2cca866df607e69f3b", "type": "electric_scooter", "is_disabled": 0, "lat": 38.89793983333333, "rental_uris": {"ios": "https://dc.lft.to/lastmile_qr_scan", "android": "https://dc.lft.to/lastmile_qr_scan"}, "is_reserved": 0, "fusion_lon": 0.0, "fusion_lat": 0.0, "lon": -77.02467116666666, "name": "0dc10404d7191c2cca866df607e69f3b"}, {"bike_id": "b99f0636c27e52f9b86c5b224ec0d3b1", "type": "electric_scooter", "is_disabled": 0, "lat": 38.921124666666664, "rental_uris": {"ios": "https://dc.lft.to/lastmile_qr_scan", "android": "https://dc.lft.to/lastmile_qr_scan"}, "is_reserved": 0, "fusion_lon": 0.0, "fusion_lat": 0.0, "lon": -77.036419, "name": "b99f0636c27e52f9b86c5b224ec0d3b1"}, {"bike_id": "2527b4eab5212e1f0771bcb5b2a32433", "type": "electric_scooter", "is_disabled": 0, "lat": 38.903979166666666, "rental_uris": {"ios": "https://dc.lft.to/lastmile_qr_scan", "android": "https://dc.lft.to/lastmile_qr_scan"}, "is_reserved": 0, "fusion_lon": 0.0, "fusion_lat": 0.0, "lon": -77.06776883333333, "name": "2527b4eab5212e1f0771bcb5b2a32433"}, {"bike_id": "a5927488c2bda8143376bc7d877cd69e", "type": "electric_scooter", "is_disabled": 0, "lat": 38.956532833333334, "rental_uris": {"ios": "https://dc.lft.to/lastmile_qr_scan", "android": "https://dc.lft.to/lastmile_qr_scan"}, "is_reserved": 0, "fusion_lon": 0.0, "fusion_lat": 0.0, "lon": -77.01965733333333, "name": "a5927488c2bda8143376bc7d877cd69e"}, {"bike_id": "dc7102b885f5039ebf3feff4836ab71b", "type": "electric_scooter", "is_disabled": 0, "lat": 38.908960666666665, "rental_uris": {"ios": "https://dc.lft.to/lastmile_qr_scan", "android": "https://dc.lft.to/lastmile_qr_scan"}, "is_reserved": 0, "fusion_lon": 0.0, "fusion_lat": 0.0, "lon": -77.0433725, "name": "dc7102b885f5039ebf3feff4836ab71b"}, {"bike_id": "5dd8dda5748c7626460f7be92bd31687", "type": "electric_scooter", "is_disabled": 0, "lat": 38.918363666666664, "rental_uris": {"ios": "https://dc.lft.to/lastmile_qr_scan", "android": "https://dc.lft.to/lastmile_qr_scan"}, "is_reserved": 0, "fusion_lon": 0.0, "fusion_lat": 0.0, "lon": -77.02528216666667, "name": "5dd8dda5748c7626460f7be92bd31687"}, {"bike_id": "ee029d31344a5e812c4014af9a4ac11b", "type": "electric_scooter", "is_disabled": 0, "lat": 38.90831216666667, "rental_uris": {"ios": "https://dc.lft.to/lastmile_qr_scan", "android": "https://dc.lft.to/lastmile_qr_scan"}, "is_reserved": 0, "fusion_lon": 0.0, "fusion_lat": 0.0, "lon": -77.0271505, "name": "ee029d31344a5e812c4014af9a4ac11b"}, {"bike_id": "47f10d7bda2624947315a589068eaab1", "type": "electric_scooter", "is_disabled": 0, "lat": 38.91638116666667, "rental_uris": {"ios": "https://dc.lft.to/lastmile_qr_scan", "android": "https://dc.lft.to/lastmile_qr_scan"}, "is_reserved": 0, "fusion_lon": 0.0, "fusion_lat": 0.0, "lon": -77.00043966666667, "name": "47f10d7bda2624947315a589068eaab1"}, {"bike_id": "0125e39c16425fdcd483c4e666cde9b5", "type": "electric_scooter", "is_disabled": 0, "lat": 38.88126616666667, "rental_uris": {"ios": "https://dc.lft.to/lastmile_qr_scan", "android": "https://dc.lft.to/lastmile_qr_scan"}, "is_reserved": 0, "fusion_lon": 0.0, "fusion_lat": 0.0, "lon": -76.99512583333333, "name": "0125e39c16425fdcd483c4e666cde9b5"}, {"bike_id": "830e90d84aab5ccc5e78c936399d8de2", "type": "electric_scooter", "is_disabled": 0, "lat": 38.9186625, "rental_uris": {"ios": "https://dc.lft.to/lastmile_qr_scan", "android": "https://dc.lft.to/lastmile_qr_scan"}, "is_reserved": 0, "fusion_lon": 0.0, "fusion_lat": 0.0, "lon": -77.036622, "name": "830e90d84aab5ccc5e78c936399d8de2"}, {"bike_id": "75171f6bb933c6bc1c86bff9bd15ae3e", "type": "electric_scooter", "is_disabled": 0, "lat": 38.91132366666667, "rental_uris": {"ios": "https://dc.lft.to/lastmile_qr_scan", "android": "https://dc.lft.to/lastmile_qr_scan"}, "is_reserved": 0, "fusion_lon": 0.0, "fusion_lat": 0.0, "lon": -77.0281995, "name": "75171f6bb933c6bc1c86bff9bd15ae3e"}, {"bike_id": "d6112d13950c16df934c6a081e3c4249", "type": "electric_scooter", "is_disabled": 0, "lat": 38.862097166666665, "rental_uris": {"ios": "https://dc.lft.to/lastmile_qr_scan", "android": "https://dc.lft.to/lastmile_qr_scan"}, "is_reserved": 0, "fusion_lon": 0.0, "fusion_lat": 0.0, "lon": -76.99468916666666, "name": "d6112d13950c16df934c6a081e3c4249"}, {"bike_id": "8198f22532b2b39a4475b54b22aedbf0", "type": "electric_scooter", "is_disabled": 0, "lat": 38.919031, "rental_uris": {"ios": "https://dc.lft.to/lastmile_qr_scan", "android": "https://dc.lft.to/lastmile_qr_scan"}, "is_reserved": 0, "fusion_lon": 0.0, "fusion_lat": 0.0, "lon": -77.0317905, "name": "8198f22532b2b39a4475b54b22aedbf0"}, {"bike_id": "d9921fe8c2e7f66643568149011e2616", "type": "electric_scooter", "is_disabled": 0, "lat": 38.90596516666667, "rental_uris": {"ios": "https://dc.lft.to/lastmile_qr_scan", "android": "https://dc.lft.to/lastmile_qr_scan"}, "is_reserved": 0, "fusion_lon": 0.0, "fusion_lat": 0.0, "lon": -77.04214516666667, "name": "d9921fe8c2e7f66643568149011e2616"}, {"bike_id": "c0cda9381dc2d33366b051bdbca320e4", "type": "electric_scooter", "is_disabled": 0, "lat": 38.90972133333333, "rental_uris": {"ios": "https://dc.lft.to/lastmile_qr_scan", "android": "https://dc.lft.to/lastmile_qr_scan"}, "is_reserved": 0, "fusion_lon": 0.0, "fusion_lat": 0.0, "lon": -77.032395, "name": "c0cda9381dc2d33366b051bdbca320e4"}, {"bike_id": "b25f467ae5e00626161f8307f3a1e49c", "type": "electric_scooter", "is_disabled": 0, "lat": 38.917307666666666, "rental_uris": {"ios": "https://dc.lft.to/lastmile_qr_scan", "android": "https://dc.lft.to/lastmile_qr_scan"}, "is_reserved": 0, "fusion_lon": 0.0, "fusion_lat": 0.0, "lon": -77.02601066666666, "name": "b25f467ae5e00626161f8307f3a1e49c"}, {"bike_id": "4a49007a2531f9fa2fdd3d31b502390a", "type": "electric_scooter", "is_disabled": 0, "lat": 38.89255216666667, "rental_uris": {"ios": "https://dc.lft.to/lastmile_qr_scan", "android": "https://dc.lft.to/lastmile_qr_scan"}, "is_reserved": 0, "fusion_lon": 0.0, "fusion_lat": 0.0, "lon": -76.925679, "name": "4a49007a2531f9fa2fdd3d31b502390a"}, {"bike_id": "5fd90c11a0d063cba27a3a027744c92f", "type": "electric_scooter", "is_disabled": 0, "lat": 38.88046966666667, "rental_uris": {"ios": "https://dc.lft.to/lastmile_qr_scan", "android": "https://dc.lft.to/lastmile_qr_scan"}, "is_reserved": 0, "fusion_lon": 0.0, "fusion_lat": 0.0, "lon": -77.0052385, "name": "5fd90c11a0d063cba27a3a027744c92f"}, {"bike_id": "51d60ae230713ba572a6a5c251805668", "type": "electric_scooter", "is_disabled": 0, "lat": 38.956605, "rental_uris": {"ios": "https://dc.lft.to/lastmile_qr_scan", "android": "https://dc.lft.to/lastmile_qr_scan"}, "is_reserved": 0, "fusion_lon": 0.0, "fusion_lat": 0.0, "lon": -77.0240045, "name": "51d60ae230713ba572a6a5c251805668"}, {"bike_id": "ba2ff6be6d40ac60cb28de8efdea6375", "type": "electric_scooter", "is_disabled": 0, "lat": 38.92088433333333, "rental_uris": {"ios": "https://dc.lft.to/lastmile_qr_scan", "android": "https://dc.lft.to/lastmile_qr_scan"}, "is_reserved": 0, "fusion_lon": 0.0, "fusion_lat": 0.0, "lon": -77.03181233333333, "name": "ba2ff6be6d40ac60cb28de8efdea6375"}, {"bike_id": "570372ed7937f0c17148ca4aac391852", "type": "electric_bike", "is_disabled": 0, "lat": 38.87663916666666, "rental_uris": {"ios": "https://dc.lft.to/lastmile_qr_scan", "android": "https://dc.lft.to/lastmile_qr_scan"}, "is_reserved": 0, "fusion_lon": 0.0, "fusion_lat": 0.0, "lon": -77.00705716666667, "name": "570372ed7937f0c17148ca4aac391852"}, {"bike_id": "b0e477ba8805b6bd23f34b32ee5d81d2", "type": "electric_scooter", "is_disabled": 0, "lat": 38.9200715, "rental_uris": {"ios": "https://dc.lft.to/lastmile_qr_scan", "android": "https://dc.lft.to/lastmile_qr_scan"}, "is_reserved": 0, "fusion_lon": 0.0, "fusion_lat": 0.0, "lon": -77.041697, "name": "b0e477ba8805b6bd23f34b32ee5d81d2"}, {"bike_id": "a2adb6b43357141c89e48b98b8ebef22", "type": "electric_scooter", "is_disabled": 0, "lat": 38.913995, "rental_uris": {"ios": "https://dc.lft.to/lastmile_qr_scan", "android": "https://dc.lft.to/lastmile_qr_scan"}, "is_reserved": 0, "fusion_lon": 0.0, "fusion_lat": 0.0, "lon": -77.0318255, "name": "a2adb6b43357141c89e48b98b8ebef22"}, {"bike_id": "73607722aef1626ca0bbea56f60d9b74", "type": "electric_scooter", "is_disabled": 0, "lat": 38.86440366666667, "rental_uris": {"ios": "https://dc.lft.to/lastmile_qr_scan", "android": "https://dc.lft.to/lastmile_qr_scan"}, "is_reserved": 0, "fusion_lon": 0.0, "fusion_lat": 0.0, "lon": -76.98000666666667, "name": "73607722aef1626ca0bbea56f60d9b74"}, {"bike_id": "cd7b4db50ba84282ab65e78cb88b99a5", "type": "electric_scooter", "is_disabled": 0, "lat": 38.909639, "rental_uris": {"ios": "https://dc.lft.to/lastmile_qr_scan", "android": "https://dc.lft.to/lastmile_qr_scan"}, "is_reserved": 0, "fusion_lon": 0.0, "fusion_lat": 0.0, "lon": -77.03237866666667, "name": "cd7b4db50ba84282ab65e78cb88b99a5"}, {"bike_id": "5699c0404d8d7a6633b4fd0a995bc2f1", "type": "electric_scooter", "is_disabled": 0, "lat": 38.90251, "rental_uris": {"ios": "https://dc.lft.to/lastmile_qr_scan", "android": "https://dc.lft.to/lastmile_qr_scan"}, "is_reserved": 0, "fusion_lon": 0.0, "fusion_lat": 0.0, "lon": -77.04133283333333, "name": "5699c0404d8d7a6633b4fd0a995bc2f1"}, {"bike_id": "550fe4000394e195e768b81dc20f9de5", "type": "electric_bike", "is_disabled": 0, "lat": 38.99308033333333, "rental_uris": {"ios": "https://dc.lft.to/lastmile_qr_scan", "android": "https://dc.lft.to/lastmile_qr_scan"}, "is_reserved": 0, "fusion_lon": 0.0, "fusion_lat": 0.0, "lon": -77.025073, "name": "550fe4000394e195e768b81dc20f9de5"}, {"bike_id": "7cdcfa1b9b67c4c27a916a1d4e9a7993", "type": "electric_scooter", "is_disabled": 0, "lat": 38.893379333333336, "rental_uris": {"ios": "https://dc.lft.to/lastmile_qr_scan", "android": "https://dc.lft.to/lastmile_qr_scan"}, "is_reserved": 0, "fusion_lon": 0.0, "fusion_lat": 0.0, "lon": -76.9505425, "name": "7cdcfa1b9b67c4c27a916a1d4e9a7993"}, {"bike_id": "35a8ae9d0d6d9fdf2ccaa3baa3a480a9", "type": "electric_scooter", "is_disabled": 0, "lat": 38.93671483333333, "rental_uris": {"ios": "https://dc.lft.to/lastmile_qr_scan", "android": "https://dc.lft.to/lastmile_qr_scan"}, "is_reserved": 0, "fusion_lon": 0.0, "fusion_lat": 0.0, "lon": -77.02438, "name": "35a8ae9d0d6d9fdf2ccaa3baa3a480a9"}, {"bike_id": "cea5142c55747b6ec7767dca07ed3e00", "type": "electric_scooter", "is_disabled": 0, "lat": 38.91667733333333, "rental_uris": {"ios": "https://dc.lft.to/lastmile_qr_scan", "android": "https://dc.lft.to/lastmile_qr_scan"}, "is_reserved": 0, "fusion_lon": 0.0, "fusion_lat": 0.0, "lon": -77.04681083333334, "name": "cea5142c55747b6ec7767dca07ed3e00"}, {"bike_id": "ae04c4951aca6480b75034815ea181a5", "type": "electric_scooter", "is_disabled": 0, "lat": 38.9097595, "rental_uris": {"ios": "https://dc.lft.to/lastmile_qr_scan", "android": "https://dc.lft.to/lastmile_qr_scan"}, "is_reserved": 0, "fusion_lon": 0.0, "fusion_lat": 0.0, "lon": -77.03426833333333, "name": "ae04c4951aca6480b75034815ea181a5"}, {"bike_id": "1b4183ffb02ebea502546420c3d62a3e", "type": "electric_scooter", "is_disabled": 0, "lat": 38.892210166666665, "rental_uris": {"ios": "https://dc.lft.to/lastmile_qr_scan", "android": "https://dc.lft.to/lastmile_qr_scan"}, "is_reserved": 0, "fusion_lon": 0.0, "fusion_lat": 0.0, "lon": -77.045122, "name": "1b4183ffb02ebea502546420c3d62a3e"}, {"bike_id": "7217a8def1e005f8ed67c15fca4f9dae", "type": "electric_scooter", "is_disabled": 0, "lat": 38.9027185, "rental_uris": {"ios": "https://dc.lft.to/lastmile_qr_scan", "android": "https://dc.lft.to/lastmile_qr_scan"}, "is_reserved": 0, "fusion_lon": 0.0, "fusion_lat": 0.0, "lon": -77.0337315, "name": "7217a8def1e005f8ed67c15fca4f9dae"}, {"bike_id": "a5934cb85398b943893c05431b4f6427", "type": "electric_scooter", "is_disabled": 0, "lat": 38.9140625, "rental_uris": {"ios": "https://dc.lft.to/lastmile_qr_scan", "android": "https://dc.lft.to/lastmile_qr_scan"}, "is_reserved": 0, "fusion_lon": 0.0, "fusion_lat": 0.0, "lon": -77.03222583333333, "name": "a5934cb85398b943893c05431b4f6427"}, {"bike_id": "f8ee5af0ebf069dd723a368589b5b7d2", "type": "electric_scooter", "is_disabled": 0, "lat": 38.90103, "rental_uris": {"ios": "https://dc.lft.to/lastmile_qr_scan", "android": "https://dc.lft.to/lastmile_qr_scan"}, "is_reserved": 0, "fusion_lon": 0.0, "fusion_lat": 0.0, "lon": -76.9833285, "name": "f8ee5af0ebf069dd723a368589b5b7d2"}, {"bike_id": "9a7331b86947c192f4e1a788ba5673d3", "type": "electric_scooter", "is_disabled": 0, "lat": 38.92246266666667, "rental_uris": {"ios": "https://dc.lft.to/lastmile_qr_scan", "android": "https://dc.lft.to/lastmile_qr_scan"}, "is_reserved": 0, "fusion_lon": 0.0, "fusion_lat": 0.0, "lon": -77.04248516666667, "name": "9a7331b86947c192f4e1a788ba5673d3"}, {"bike_id": "4823f205dca88ebf8e7ee8d1adf46c01", "type": "electric_scooter", "is_disabled": 0, "lat": 38.87379283333333, "rental_uris": {"ios": "https://dc.lft.to/lastmile_qr_scan", "android": "https://dc.lft.to/lastmile_qr_scan"}, "is_reserved": 0, "fusion_lon": 0.0, "fusion_lat": 0.0, "lon": -77.04341766666667, "name": "4823f205dca88ebf8e7ee8d1adf46c01"}, {"bike_id": "14547e174faf92be7f9eae36448de403", "type": "electric_scooter", "is_disabled": 0, "lat": 38.878262166666666, "rental_uris": {"ios": "https://dc.lft.to/lastmile_qr_scan", "android": "https://dc.lft.to/lastmile_qr_scan"}, "is_reserved": 0, "fusion_lon": 0.0, "fusion_lat": 0.0, "lon": -77.0223375, "name": "14547e174faf92be7f9eae36448de403"}, {"bike_id": "66dbff3ad243672a5222b7084c305511", "type": "electric_scooter", "is_disabled": 0, "lat": 38.93526833333333, "rental_uris": {"ios": "https://dc.lft.to/lastmile_qr_scan", "android": "https://dc.lft.to/lastmile_qr_scan"}, "is_reserved": 0, "fusion_lon": 0.0, "fusion_lat": 0.0, "lon": -77.0335475, "name": "66dbff3ad243672a5222b7084c305511"}, {"bike_id": "5d639ba983d5ece62fcf99d0b15b632c", "type": "electric_scooter", "is_disabled": 0, "lat": 38.93094683333333, "rental_uris": {"ios": "https://dc.lft.to/lastmile_qr_scan", "android": "https://dc.lft.to/lastmile_qr_scan"}, "is_reserved": 0, "fusion_lon": 0.0, "fusion_lat": 0.0, "lon": -77.03435183333333, "name": "5d639ba983d5ece62fcf99d0b15b632c"}, {"bike_id": "119b214b6ed41eeebdf71b80ebe54243", "type": "electric_scooter", "is_disabled": 0, "lat": 38.913286, "rental_uris": {"ios": "https://dc.lft.to/lastmile_qr_scan", "android": "https://dc.lft.to/lastmile_qr_scan"}, "is_reserved": 0, "fusion_lon": 0.0, "fusion_lat": 0.0, "lon": -77.0268945, "name": "119b214b6ed41eeebdf71b80ebe54243"}, {"bike_id": "76564ca0b18ab63517f460ab9a590286", "type": "electric_scooter", "is_disabled": 0, "lat": 38.923949, "rental_uris": {"ios": "https://dc.lft.to/lastmile_qr_scan", "android": "https://dc.lft.to/lastmile_qr_scan"}, "is_reserved": 0, "fusion_lon": 0.0, "fusion_lat": 0.0, "lon": -77.02970666666667, "name": "76564ca0b18ab63517f460ab9a590286"}, {"bike_id": "3682d93adc73cd97dc5620647a398350", "type": "electric_scooter", "is_disabled": 0, "lat": 38.897432333333334, "rental_uris": {"ios": "https://dc.lft.to/lastmile_qr_scan", "android": "https://dc.lft.to/lastmile_qr_scan"}, "is_reserved": 0, "fusion_lon": 0.0, "fusion_lat": 0.0, "lon": -77.04524216666667, "name": "3682d93adc73cd97dc5620647a398350"}, {"bike_id": "2cabfc3dea4a4c285cbdffd2c6a04e17", "type": "electric_scooter", "is_disabled": 0, "lat": 38.936386666666664, "rental_uris": {"ios": "https://dc.lft.to/lastmile_qr_scan", "android": "https://dc.lft.to/lastmile_qr_scan"}, "is_reserved": 0, "fusion_lon": 0.0, "fusion_lat": 0.0, "lon": -77.058829, "name": "2cabfc3dea4a4c285cbdffd2c6a04e17"}, {"bike_id": "d7da7aba02c60bdc6c9cffb33d851518", "type": "electric_scooter", "is_disabled": 0, "lat": 38.909676, "rental_uris": {"ios": "https://dc.lft.to/lastmile_qr_scan", "android": "https://dc.lft.to/lastmile_qr_scan"}, "is_reserved": 0, "fusion_lon": 0.0, "fusion_lat": 0.0, "lon": -77.032292, "name": "d7da7aba02c60bdc6c9cffb33d851518"}, {"bike_id": "68fc53b71708eaa2da4b5d20240331c4", "type": "electric_scooter", "is_disabled": 0, "lat": 38.942132, "rental_uris": {"ios": "https://dc.lft.to/lastmile_qr_scan", "android": "https://dc.lft.to/lastmile_qr_scan"}, "is_reserved": 0, "fusion_lon": 0.0, "fusion_lat": 0.0, "lon": -77.0258165, "name": "68fc53b71708eaa2da4b5d20240331c4"}, {"bike_id": "cf1b8ca58576ada338f88b4f3eee0d10", "type": "electric_scooter", "is_disabled": 0, "lat": 38.91633016666667, "rental_uris": {"ios": "https://dc.lft.to/lastmile_qr_scan", "android": "https://dc.lft.to/lastmile_qr_scan"}, "is_reserved": 0, "fusion_lon": 0.0, "fusion_lat": 0.0, "lon": -77.03038166666667, "name": "cf1b8ca58576ada338f88b4f3eee0d10"}, {"bike_id": "4de8eb87e0526e92a6c516102b3a965f", "type": "electric_scooter", "is_disabled": 0, "lat": 38.931354666666664, "rental_uris": {"ios": "https://dc.lft.to/lastmile_qr_scan", "android": "https://dc.lft.to/lastmile_qr_scan"}, "is_reserved": 0, "fusion_lon": 0.0, "fusion_lat": 0.0, "lon": -77.043471, "name": "4de8eb87e0526e92a6c516102b3a965f"}, {"bike_id": "9d722d675655039ec32e6082f954217b", "type": "electric_scooter", "is_disabled": 0, "lat": 38.91984166666667, "rental_uris": {"ios": "https://dc.lft.to/lastmile_qr_scan", "android": "https://dc.lft.to/lastmile_qr_scan"}, "is_reserved": 0, "fusion_lon": 0.0, "fusion_lat": 0.0, "lon": -77.024651, "name": "9d722d675655039ec32e6082f954217b"}, {"bike_id": "f754090016dd476d05ffc055899643e4", "type": "electric_scooter", "is_disabled": 0, "lat": 38.92015883333333, "rental_uris": {"ios": "https://dc.lft.to/lastmile_qr_scan", "android": "https://dc.lft.to/lastmile_qr_scan"}, "is_reserved": 0, "fusion_lon": 0.0, "fusion_lat": 0.0, "lon": -77.013203, "name": "f754090016dd476d05ffc055899643e4"}, {"bike_id": "922bb1d55598b4e2a5f285c01b2d3e24", "type": "electric_scooter", "is_disabled": 0, "lat": 38.89705516666667, "rental_uris": {"ios": "https://dc.lft.to/lastmile_qr_scan", "android": "https://dc.lft.to/lastmile_qr_scan"}, "is_reserved": 0, "fusion_lon": 0.0, "fusion_lat": 0.0, "lon": -76.9299405, "name": "922bb1d55598b4e2a5f285c01b2d3e24"}, {"bike_id": "2c860773356adb6716892430cbb8d6c5", "type": "electric_scooter", "is_disabled": 0, "lat": 38.90783616666667, "rental_uris": {"ios": "https://dc.lft.to/lastmile_qr_scan", "android": "https://dc.lft.to/lastmile_qr_scan"}, "is_reserved": 0, "fusion_lon": 0.0, "fusion_lat": 0.0, "lon": -77.04506666666667, "name": "2c860773356adb6716892430cbb8d6c5"}, {"bike_id": "9e9da5842da2dde21b5f703d3be0f14c", "type": "electric_scooter", "is_disabled": 0, "lat": 38.91815716666667, "rental_uris": {"ios": "https://dc.lft.to/lastmile_qr_scan", "android": "https://dc.lft.to/lastmile_qr_scan"}, "is_reserved": 0, "fusion_lon": 0.0, "fusion_lat": 0.0, "lon": -77.024783, "name": "9e9da5842da2dde21b5f703d3be0f14c"}, {"bike_id": "4cff9580345e95181d065b059c00ee41", "type": "electric_scooter", "is_disabled": 0, "lat": 38.884729166666666, "rental_uris": {"ios": "https://dc.lft.to/lastmile_qr_scan", "android": "https://dc.lft.to/lastmile_qr_scan"}, "is_reserved": 0, "fusion_lon": 0.0, "fusion_lat": 0.0, "lon": -77.02571233333333, "name": "4cff9580345e95181d065b059c00ee41"}, {"bike_id": "2598ad0e6eba4a2aa958e104322ae3c8", "type": "electric_scooter", "is_disabled": 0, "lat": 38.96558516666666, "rental_uris": {"ios": "https://dc.lft.to/lastmile_qr_scan", "android": "https://dc.lft.to/lastmile_qr_scan"}, "is_reserved": 0, "fusion_lon": 0.0, "fusion_lat": 0.0, "lon": -77.02026533333333, "name": "2598ad0e6eba4a2aa958e104322ae3c8"}, {"bike_id": "3029739553c7a6cc4cd7e5957fd9a006", "type": "electric_scooter", "is_disabled": 0, "lat": 38.93188983333334, "rental_uris": {"ios": "https://dc.lft.to/lastmile_qr_scan", "android": "https://dc.lft.to/lastmile_qr_scan"}, "is_reserved": 0, "fusion_lon": 0.0, "fusion_lat": 0.0, "lon": -77.02540466666666, "name": "3029739553c7a6cc4cd7e5957fd9a006"}, {"bike_id": "fbce170cc322fba1c2e61f25e2d2b775", "type": "electric_scooter", "is_disabled": 0, "lat": 38.892219, "rental_uris": {"ios": "https://dc.lft.to/lastmile_qr_scan", "android": "https://dc.lft.to/lastmile_qr_scan"}, "is_reserved": 0, "fusion_lon": 0.0, "fusion_lat": 0.0, "lon": -77.043072, "name": "fbce170cc322fba1c2e61f25e2d2b775"}, {"bike_id": "ada04dd68f43897fcebd7ea9d10a57a8", "type": "electric_scooter", "is_disabled": 0, "lat": 38.93045883333333, "rental_uris": {"ios": "https://dc.lft.to/lastmile_qr_scan", "android": "https://dc.lft.to/lastmile_qr_scan"}, "is_reserved": 0, "fusion_lon": 0.0, "fusion_lat": 0.0, "lon": -77.01821366666667, "name": "ada04dd68f43897fcebd7ea9d10a57a8"}, {"bike_id": "889078a0147cd274d1dee257fc66b5ea", "type": "electric_scooter", "is_disabled": 0, "lat": 38.90871383333333, "rental_uris": {"ios": "https://dc.lft.to/lastmile_qr_scan", "android": "https://dc.lft.to/lastmile_qr_scan"}, "is_reserved": 0, "fusion_lon": 0.0, "fusion_lat": 0.0, "lon": -77.00271433333333, "name": "889078a0147cd274d1dee257fc66b5ea"}, {"bike_id": "0e2836ba5dc6d5585a4203fa88b5138e", "type": "electric_scooter", "is_disabled": 0, "lat": 38.908309333333335, "rental_uris": {"ios": "https://dc.lft.to/lastmile_qr_scan", "android": "https://dc.lft.to/lastmile_qr_scan"}, "is_reserved": 0, "fusion_lon": 0.0, "fusion_lat": 0.0, "lon": -77.03343533333333, "name": "0e2836ba5dc6d5585a4203fa88b5138e"}, {"bike_id": "15adb0c59df4bed4f0878fad5382f5af", "type": "electric_scooter", "is_disabled": 0, "lat": 38.8911445, "rental_uris": {"ios": "https://dc.lft.to/lastmile_qr_scan", "android": "https://dc.lft.to/lastmile_qr_scan"}, "is_reserved": 0, "fusion_lon": 0.0, "fusion_lat": 0.0, "lon": -77.01504216666666, "name": "15adb0c59df4bed4f0878fad5382f5af"}, {"bike_id": "af9817df47ab9c0831347238ab06bbd1", "type": "electric_scooter", "is_disabled": 0, "lat": 38.8821395, "rental_uris": {"ios": "https://dc.lft.to/lastmile_qr_scan", "android": "https://dc.lft.to/lastmile_qr_scan"}, "is_reserved": 0, "fusion_lon": 0.0, "fusion_lat": 0.0, "lon": -77.0291015, "name": "af9817df47ab9c0831347238ab06bbd1"}, {"bike_id": "0230f8c3ae06aa3f5619914ae8076bfc", "type": "electric_scooter", "is_disabled": 0, "lat": 38.88442766666667, "rental_uris": {"ios": "https://dc.lft.to/lastmile_qr_scan", "android": "https://dc.lft.to/lastmile_qr_scan"}, "is_reserved": 0, "fusion_lon": 0.0, "fusion_lat": 0.0, "lon": -76.957512, "name": "0230f8c3ae06aa3f5619914ae8076bfc"}, {"bike_id": "f84465a9d102a049c2cb6f6992a1c040", "type": "electric_bike", "is_disabled": 0, "lat": 38.865173166666665, "rental_uris": {"ios": "https://dc.lft.to/lastmile_qr_scan", "android": "https://dc.lft.to/lastmile_qr_scan"}, "is_reserved": 0, "fusion_lon": 0.0, "fusion_lat": 0.0, "lon": -77.1293795, "name": "f84465a9d102a049c2cb6f6992a1c040"}, {"bike_id": "40d476c9b3f8be919a67234d3916010c", "type": "electric_scooter", "is_disabled": 0, "lat": 38.90198183333333, "rental_uris": {"ios": "https://dc.lft.to/lastmile_qr_scan", "android": "https://dc.lft.to/lastmile_qr_scan"}, "is_reserved": 0, "fusion_lon": 0.0, "fusion_lat": 0.0, "lon": -76.9968535, "name": "40d476c9b3f8be919a67234d3916010c"}, {"bike_id": "3695aa8709f8b9eddb0a64903c520ed3", "type": "electric_scooter", "is_disabled": 0, "lat": 38.91407483333333, "rental_uris": {"ios": "https://dc.lft.to/lastmile_qr_scan", "android": "https://dc.lft.to/lastmile_qr_scan"}, "is_reserved": 0, "fusion_lon": 0.0, "fusion_lat": 0.0, "lon": -77.03954983333334, "name": "3695aa8709f8b9eddb0a64903c520ed3"}, {"bike_id": "38ad13d1fe7b3945cb1a9048eb5efeec", "type": "electric_bike", "is_disabled": 0, "lat": 38.80394316666667, "rental_uris": {"ios": "https://dc.lft.to/lastmile_qr_scan", "android": "https://dc.lft.to/lastmile_qr_scan"}, "is_reserved": 0, "fusion_lon": 0.0, "fusion_lat": 0.0, "lon": -77.05565516666667, "name": "38ad13d1fe7b3945cb1a9048eb5efeec"}, {"bike_id": "f1b27a8206b7558c0dafe2639c07e03b", "type": "electric_scooter", "is_disabled": 0, "lat": 38.89233616666667, "rental_uris": {"ios": "https://dc.lft.to/lastmile_qr_scan", "android": "https://dc.lft.to/lastmile_qr_scan"}, "is_reserved": 0, "fusion_lon": 0.0, "fusion_lat": 0.0, "lon": -77.0499565, "name": "f1b27a8206b7558c0dafe2639c07e03b"}, {"bike_id": "c1909ab5866d03630df8d57f4cb10350", "type": "electric_scooter", "is_disabled": 0, "lat": 38.907348666666664, "rental_uris": {"ios": "https://dc.lft.to/lastmile_qr_scan", "android": "https://dc.lft.to/lastmile_qr_scan"}, "is_reserved": 0, "fusion_lon": 0.0, "fusion_lat": 0.0, "lon": -77.00942283333333, "name": "c1909ab5866d03630df8d57f4cb10350"}, {"bike_id": "0e1a3c33c2f2dc737ffab1c75c6470d8", "type": "electric_scooter", "is_disabled": 0, "lat": 38.9178505, "rental_uris": {"ios": "https://dc.lft.to/lastmile_qr_scan", "android": "https://dc.lft.to/lastmile_qr_scan"}, "is_reserved": 0, "fusion_lon": 0.0, "fusion_lat": 0.0, "lon": -77.023176, "name": "0e1a3c33c2f2dc737ffab1c75c6470d8"}, {"bike_id": "02dcff897e8ca802cdd8e686c0bffc00", "type": "electric_scooter", "is_disabled": 0, "lat": 38.9421375, "rental_uris": {"ios": "https://dc.lft.to/lastmile_qr_scan", "android": "https://dc.lft.to/lastmile_qr_scan"}, "is_reserved": 0, "fusion_lon": 0.0, "fusion_lat": 0.0, "lon": -77.0258455, "name": "02dcff897e8ca802cdd8e686c0bffc00"}, {"bike_id": "6eef5820789bc053fd665c0cdc0ad578", "type": "electric_scooter", "is_disabled": 0, "lat": 38.89494033333333, "rental_uris": {"ios": "https://dc.lft.to/lastmile_qr_scan", "android": "https://dc.lft.to/lastmile_qr_scan"}, "is_reserved": 0, "fusion_lon": 0.0, "fusion_lat": 0.0, "lon": -77.002139, "name": "6eef5820789bc053fd665c0cdc0ad578"}, {"bike_id": "d148dabe9b669f449375fd0f54ede9bb", "type": "electric_scooter", "is_disabled": 0, "lat": 38.92346833333333, "rental_uris": {"ios": "https://dc.lft.to/lastmile_qr_scan", "android": "https://dc.lft.to/lastmile_qr_scan"}, "is_reserved": 0, "fusion_lon": 0.0, "fusion_lat": 0.0, "lon": -77.051168, "name": "d148dabe9b669f449375fd0f54ede9bb"}, {"bike_id": "47a5467d99530495fcbb73cdf7a37d5a", "type": "electric_bike", "is_disabled": 0, "lat": 39.05635, "rental_uris": {"ios": "https://dc.lft.to/lastmile_qr_scan", "android": "https://dc.lft.to/lastmile_qr_scan"}, "is_reserved": 0, "fusion_lon": 0.0, "fusion_lat": 0.0, "lon": -77.12526533333333, "name": "47a5467d99530495fcbb73cdf7a37d5a"}, {"bike_id": "3def6687fec790e28504e80d3f533f51", "type": "electric_scooter", "is_disabled": 0, "lat": 38.91118733333333, "rental_uris": {"ios": "https://dc.lft.to/lastmile_qr_scan", "android": "https://dc.lft.to/lastmile_qr_scan"}, "is_reserved": 0, "fusion_lon": 0.0, "fusion_lat": 0.0, "lon": -77.03249316666667, "name": "3def6687fec790e28504e80d3f533f51"}, {"bike_id": "f66c6ee5d6751dabd80febba8a451c5c", "type": "electric_scooter", "is_disabled": 0, "lat": 38.93582466666667, "rental_uris": {"ios": "https://dc.lft.to/lastmile_qr_scan", "android": "https://dc.lft.to/lastmile_qr_scan"}, "is_reserved": 0, "fusion_lon": 0.0, "fusion_lat": 0.0, "lon": -77.05818516666666, "name": "f66c6ee5d6751dabd80febba8a451c5c"}, {"bike_id": "fbdfc3724533a818343eb1a9c8d11f4a", "type": "electric_scooter", "is_disabled": 0, "lat": 38.947886833333335, "rental_uris": {"ios": "https://dc.lft.to/lastmile_qr_scan", "android": "https://dc.lft.to/lastmile_qr_scan"}, "is_reserved": 0, "fusion_lon": 0.0, "fusion_lat": 0.0, "lon": -77.07937316666667, "name": "fbdfc3724533a818343eb1a9c8d11f4a"}, {"bike_id": "ee24a2d8c789ec0c0aa8d9bc1e937105", "type": "electric_scooter", "is_disabled": 0, "lat": 38.923401166666665, "rental_uris": {"ios": "https://dc.lft.to/lastmile_qr_scan", "android": "https://dc.lft.to/lastmile_qr_scan"}, "is_reserved": 0, "fusion_lon": 0.0, "fusion_lat": 0.0, "lon": -77.05300216666667, "name": "ee24a2d8c789ec0c0aa8d9bc1e937105"}, {"bike_id": "7fe39d33f8d20da8b88303ca6fc34a27", "type": "electric_scooter", "is_disabled": 0, "lat": 38.9106975, "rental_uris": {"ios": "https://dc.lft.to/lastmile_qr_scan", "android": "https://dc.lft.to/lastmile_qr_scan"}, "is_reserved": 0, "fusion_lon": 0.0, "fusion_lat": 0.0, "lon": -77.02605216666667, "name": "7fe39d33f8d20da8b88303ca6fc34a27"}, {"bike_id": "b32a94ad503b0174be71a51416281e23", "type": "electric_scooter", "is_disabled": 0, "lat": 38.91572016666667, "rental_uris": {"ios": "https://dc.lft.to/lastmile_qr_scan", "android": "https://dc.lft.to/lastmile_qr_scan"}, "is_reserved": 0, "fusion_lon": 0.0, "fusion_lat": 0.0, "lon": -77.0318955, "name": "b32a94ad503b0174be71a51416281e23"}, {"bike_id": "20d0a2158dda1e84aa541652ac8b4d68", "type": "electric_scooter", "is_disabled": 0, "lat": 38.94557016666667, "rental_uris": {"ios": "https://dc.lft.to/lastmile_qr_scan", "android": "https://dc.lft.to/lastmile_qr_scan"}, "is_reserved": 0, "fusion_lon": 0.0, "fusion_lat": 0.0, "lon": -77.0712465, "name": "20d0a2158dda1e84aa541652ac8b4d68"}, {"bike_id": "1d2c3845d3d6b1082e2f183aa2fd61c1", "type": "electric_bike", "is_disabled": 0, "lat": 38.91685733333333, "rental_uris": {"ios": "https://dc.lft.to/lastmile_qr_scan", "android": "https://dc.lft.to/lastmile_qr_scan"}, "is_reserved": 0, "fusion_lon": 0.0, "fusion_lat": 0.0, "lon": -77.03552866666666, "name": "1d2c3845d3d6b1082e2f183aa2fd61c1"}, {"bike_id": "ed5b834f7adb1effe198d670ed789b2f", "type": "electric_scooter", "is_disabled": 0, "lat": 38.8845195, "rental_uris": {"ios": "https://dc.lft.to/lastmile_qr_scan", "android": "https://dc.lft.to/lastmile_qr_scan"}, "is_reserved": 0, "fusion_lon": 0.0, "fusion_lat": 0.0, "lon": -76.95099833333333, "name": "ed5b834f7adb1effe198d670ed789b2f"}, {"bike_id": "2026880f939f0373752bcdb5491f7cad", "type": "electric_bike", "is_disabled": 0, "lat": 38.95787516666667, "rental_uris": {"ios": "https://dc.lft.to/lastmile_qr_scan", "android": "https://dc.lft.to/lastmile_qr_scan"}, "is_reserved": 0, "fusion_lon": 0.0, "fusion_lat": 0.0, "lon": -77.01999333333333, "name": "2026880f939f0373752bcdb5491f7cad"}, {"bike_id": "8df898de73f58a84b25a667c8f10d88d", "type": "electric_scooter", "is_disabled": 0, "lat": 38.915896000000004, "rental_uris": {"ios": "https://dc.lft.to/lastmile_qr_scan", "android": "https://dc.lft.to/lastmile_qr_scan"}, "is_reserved": 0, "fusion_lon": 0.0, "fusion_lat": 0.0, "lon": -77.00194616666667, "name": "8df898de73f58a84b25a667c8f10d88d"}, {"bike_id": "5390c53f8baab5aa7cc7703aaf1c79d8", "type": "electric_scooter", "is_disabled": 0, "lat": 38.91702216666667, "rental_uris": {"ios": "https://dc.lft.to/lastmile_qr_scan", "android": "https://dc.lft.to/lastmile_qr_scan"}, "is_reserved": 0, "fusion_lon": 0.0, "fusion_lat": 0.0, "lon": -77.02887416666667, "name": "5390c53f8baab5aa7cc7703aaf1c79d8"}, {"bike_id": "2ef9c8fe015b77022806fa7013a2fe77", "type": "electric_scooter", "is_disabled": 0, "lat": 38.899686333333335, "rental_uris": {"ios": "https://dc.lft.to/lastmile_qr_scan", "android": "https://dc.lft.to/lastmile_qr_scan"}, "is_reserved": 0, "fusion_lon": 0.0, "fusion_lat": 0.0, "lon": -76.98306516666666, "name": "2ef9c8fe015b77022806fa7013a2fe77"}, {"bike_id": "1d94091f644b600c32b3b09a2c578c6b", "type": "electric_bike", "is_disabled": 0, "lat": 38.858949, "rental_uris": {"ios": "https://dc.lft.to/lastmile_qr_scan", "android": "https://dc.lft.to/lastmile_qr_scan"}, "is_reserved": 0, "fusion_lon": 0.0, "fusion_lat": 0.0, "lon": -77.11862716666667, "name": "1d94091f644b600c32b3b09a2c578c6b"}, {"bike_id": "ed1968bb50571a8336889d03e5daa44f", "type": "electric_scooter", "is_disabled": 0, "lat": 38.9156195, "rental_uris": {"ios": "https://dc.lft.to/lastmile_qr_scan", "android": "https://dc.lft.to/lastmile_qr_scan"}, "is_reserved": 0, "fusion_lon": 0.0, "fusion_lat": 0.0, "lon": -77.03198833333333, "name": "ed1968bb50571a8336889d03e5daa44f"}, {"bike_id": "f149fdb5c028f4140a90db7eb1881820", "type": "electric_scooter", "is_disabled": 0, "lat": 38.90469383333333, "rental_uris": {"ios": "https://dc.lft.to/lastmile_qr_scan", "android": "https://dc.lft.to/lastmile_qr_scan"}, "is_reserved": 0, "fusion_lon": 0.0, "fusion_lat": 0.0, "lon": -77.00902683333334, "name": "f149fdb5c028f4140a90db7eb1881820"}, {"bike_id": "cae5a3b8cda56f5bb58636ecf0c8f437", "type": "electric_scooter", "is_disabled": 0, "lat": 38.912698, "rental_uris": {"ios": "https://dc.lft.to/lastmile_qr_scan", "android": "https://dc.lft.to/lastmile_qr_scan"}, "is_reserved": 0, "fusion_lon": 0.0, "fusion_lat": 0.0, "lon": -77.04703066666667, "name": "cae5a3b8cda56f5bb58636ecf0c8f437"}, {"bike_id": "17325fd7685c8aa3cff4ed21accb1ae0", "type": "electric_scooter", "is_disabled": 0, "lat": 38.90758266666667, "rental_uris": {"ios": "https://dc.lft.to/lastmile_qr_scan", "android": "https://dc.lft.to/lastmile_qr_scan"}, "is_reserved": 0, "fusion_lon": 0.0, "fusion_lat": 0.0, "lon": -77.04170283333333, "name": "17325fd7685c8aa3cff4ed21accb1ae0"}, {"bike_id": "1d2577e02630faea2748e75403564581", "type": "electric_scooter", "is_disabled": 0, "lat": 38.967388166666666, "rental_uris": {"ios": "https://dc.lft.to/lastmile_qr_scan", "android": "https://dc.lft.to/lastmile_qr_scan"}, "is_reserved": 0, "fusion_lon": 0.0, "fusion_lat": 0.0, "lon": -77.0551475, "name": "1d2577e02630faea2748e75403564581"}, {"bike_id": "7c215d22d24ddb7e35ad5e44e47c4e5f", "type": "electric_scooter", "is_disabled": 0, "lat": 38.91945, "rental_uris": {"ios": "https://dc.lft.to/lastmile_qr_scan", "android": "https://dc.lft.to/lastmile_qr_scan"}, "is_reserved": 0, "fusion_lon": 0.0, "fusion_lat": 0.0, "lon": -77.04504883333334, "name": "7c215d22d24ddb7e35ad5e44e47c4e5f"}, {"bike_id": "1527640a7535422474d6dc5b404e88d9", "type": "electric_scooter", "is_disabled": 0, "lat": 38.878005333333334, "rental_uris": {"ios": "https://dc.lft.to/lastmile_qr_scan", "android": "https://dc.lft.to/lastmile_qr_scan"}, "is_reserved": 0, "fusion_lon": 0.0, "fusion_lat": 0.0, "lon": -77.00114816666667, "name": "1527640a7535422474d6dc5b404e88d9"}, {"bike_id": "90b558824da7076be780cc89e3a18956", "type": "electric_scooter", "is_disabled": 0, "lat": 38.928355833333335, "rental_uris": {"ios": "https://dc.lft.to/lastmile_qr_scan", "android": "https://dc.lft.to/lastmile_qr_scan"}, "is_reserved": 0, "fusion_lon": 0.0, "fusion_lat": 0.0, "lon": -77.02977733333333, "name": "90b558824da7076be780cc89e3a18956"}, {"bike_id": "654c8a1381da7cf5ceb9b35c4586cdb7", "type": "electric_bike", "is_disabled": 0, "lat": 38.87882666666667, "rental_uris": {"ios": "https://dc.lft.to/lastmile_qr_scan", "android": "https://dc.lft.to/lastmile_qr_scan"}, "is_reserved": 0, "fusion_lon": 0.0, "fusion_lat": 0.0, "lon": -77.09614466666666, "name": "654c8a1381da7cf5ceb9b35c4586cdb7"}, {"bike_id": "9b48455d4b37317d2a9c9ca55cef8991", "type": "electric_scooter", "is_disabled": 0, "lat": 38.90037816666667, "rental_uris": {"ios": "https://dc.lft.to/lastmile_qr_scan", "android": "https://dc.lft.to/lastmile_qr_scan"}, "is_reserved": 0, "fusion_lon": 0.0, "fusion_lat": 0.0, "lon": -76.99748483333333, "name": "9b48455d4b37317d2a9c9ca55cef8991"}, {"bike_id": "dd569fffd68237a778d2bde1f08c25e8", "type": "electric_scooter", "is_disabled": 0, "lat": 38.92228083333333, "rental_uris": {"ios": "https://dc.lft.to/lastmile_qr_scan", "android": "https://dc.lft.to/lastmile_qr_scan"}, "is_reserved": 0, "fusion_lon": 0.0, "fusion_lat": 0.0, "lon": -77.03705366666667, "name": "dd569fffd68237a778d2bde1f08c25e8"}, {"bike_id": "19881646d03b0570e0970b3fc54519f2", "type": "electric_scooter", "is_disabled": 0, "lat": 38.904082833333334, "rental_uris": {"ios": "https://dc.lft.to/lastmile_qr_scan", "android": "https://dc.lft.to/lastmile_qr_scan"}, "is_reserved": 0, "fusion_lon": 0.0, "fusion_lat": 0.0, "lon": -76.97332733333333, "name": "19881646d03b0570e0970b3fc54519f2"}, {"bike_id": "a4ba65752a85595253d756ad5cec8df1", "type": "electric_scooter", "is_disabled": 0, "lat": 38.86657483333333, "rental_uris": {"ios": "https://dc.lft.to/lastmile_qr_scan", "android": "https://dc.lft.to/lastmile_qr_scan"}, "is_reserved": 0, "fusion_lon": 0.0, "fusion_lat": 0.0, "lon": -76.98884533333333, "name": "a4ba65752a85595253d756ad5cec8df1"}, {"bike_id": "d9392e8b3546110caeb351470c9e2f9c", "type": "electric_scooter", "is_disabled": 0, "lat": 38.90417883333333, "rental_uris": {"ios": "https://dc.lft.to/lastmile_qr_scan", "android": "https://dc.lft.to/lastmile_qr_scan"}, "is_reserved": 0, "fusion_lon": 0.0, "fusion_lat": 0.0, "lon": -77.06885183333333, "name": "d9392e8b3546110caeb351470c9e2f9c"}, {"bike_id": "7cbf1782336f8f7ee528972016938bec", "type": "electric_scooter", "is_disabled": 0, "lat": 38.90360833333333, "rental_uris": {"ios": "https://dc.lft.to/lastmile_qr_scan", "android": "https://dc.lft.to/lastmile_qr_scan"}, "is_reserved": 0, "fusion_lon": 0.0, "fusion_lat": 0.0, "lon": -77.022052, "name": "7cbf1782336f8f7ee528972016938bec"}, {"bike_id": "1ea5ddd7f38bb307e829d38b0ad798c9", "type": "electric_bike", "is_disabled": 0, "lat": 38.849637, "rental_uris": {"ios": "https://dc.lft.to/lastmile_qr_scan", "android": "https://dc.lft.to/lastmile_qr_scan"}, "is_reserved": 0, "fusion_lon": 0.0, "fusion_lat": 0.0, "lon": -77.07762583333333, "name": "1ea5ddd7f38bb307e829d38b0ad798c9"}, {"bike_id": "db9711f85fdc65580acfff7f17b775e4", "type": "electric_scooter", "is_disabled": 0, "lat": 38.918411166666665, "rental_uris": {"ios": "https://dc.lft.to/lastmile_qr_scan", "android": "https://dc.lft.to/lastmile_qr_scan"}, "is_reserved": 0, "fusion_lon": 0.0, "fusion_lat": 0.0, "lon": -77.0318975, "name": "db9711f85fdc65580acfff7f17b775e4"}, {"bike_id": "56b85e2bcc38ff207b21270410b93c5e", "type": "electric_scooter", "is_disabled": 0, "lat": 38.91714066666667, "rental_uris": {"ios": "https://dc.lft.to/lastmile_qr_scan", "android": "https://dc.lft.to/lastmile_qr_scan"}, "is_reserved": 0, "fusion_lon": 0.0, "fusion_lat": 0.0, "lon": -77.01210033333334, "name": "56b85e2bcc38ff207b21270410b93c5e"}, {"bike_id": "127a785cf087c7c1e5da78901eb5f3b2", "type": "electric_scooter", "is_disabled": 0, "lat": 38.90602766666667, "rental_uris": {"ios": "https://dc.lft.to/lastmile_qr_scan", "android": "https://dc.lft.to/lastmile_qr_scan"}, "is_reserved": 0, "fusion_lon": 0.0, "fusion_lat": 0.0, "lon": -77.02708366666667, "name": "127a785cf087c7c1e5da78901eb5f3b2"}, {"bike_id": "4cdf5f692436410202dbcb473464269e", "type": "electric_scooter", "is_disabled": 0, "lat": 38.897316333333336, "rental_uris": {"ios": "https://dc.lft.to/lastmile_qr_scan", "android": "https://dc.lft.to/lastmile_qr_scan"}, "is_reserved": 0, "fusion_lon": 0.0, "fusion_lat": 0.0, "lon": -77.05472883333333, "name": "4cdf5f692436410202dbcb473464269e"}, {"bike_id": "ef721bb80d409f993f293a4d33a5cc00", "type": "electric_scooter", "is_disabled": 0, "lat": 38.912257, "rental_uris": {"ios": "https://dc.lft.to/lastmile_qr_scan", "android": "https://dc.lft.to/lastmile_qr_scan"}, "is_reserved": 0, "fusion_lon": 0.0, "fusion_lat": 0.0, "lon": -76.9878915, "name": "ef721bb80d409f993f293a4d33a5cc00"}, {"bike_id": "2dcab84f78b8b65de39a63d7228b479d", "type": "electric_bike", "is_disabled": 0, "lat": 38.944745833333336, "rental_uris": {"ios": "https://dc.lft.to/lastmile_qr_scan", "android": "https://dc.lft.to/lastmile_qr_scan"}, "is_reserved": 0, "fusion_lon": 0.0, "fusion_lat": 0.0, "lon": -76.986882, "name": "2dcab84f78b8b65de39a63d7228b479d"}, {"bike_id": "d62efb7cc5910a3390bcef199c5623e5", "type": "electric_scooter", "is_disabled": 0, "lat": 38.915068166666664, "rental_uris": {"ios": "https://dc.lft.to/lastmile_qr_scan", "android": "https://dc.lft.to/lastmile_qr_scan"}, "is_reserved": 0, "fusion_lon": 0.0, "fusion_lat": 0.0, "lon": -77.017742, "name": "d62efb7cc5910a3390bcef199c5623e5"}, {"bike_id": "b079133e16babe946182ee6109e3ca3f", "type": "electric_scooter", "is_disabled": 0, "lat": 38.8877815, "rental_uris": {"ios": "https://dc.lft.to/lastmile_qr_scan", "android": "https://dc.lft.to/lastmile_qr_scan"}, "is_reserved": 0, "fusion_lon": 0.0, "fusion_lat": 0.0, "lon": -76.955211, "name": "b079133e16babe946182ee6109e3ca3f"}, {"bike_id": "561e82be0003d90f362acee780733dd2", "type": "electric_bike", "is_disabled": 0, "lat": 38.931468, "rental_uris": {"ios": "https://dc.lft.to/lastmile_qr_scan", "android": "https://dc.lft.to/lastmile_qr_scan"}, "is_reserved": 0, "fusion_lon": 0.0, "fusion_lat": 0.0, "lon": -77.07850183333333, "name": "561e82be0003d90f362acee780733dd2"}, {"bike_id": "009fd2827f4d1d23724e8a99980172b6", "type": "electric_scooter", "is_disabled": 0, "lat": 38.920644333333335, "rental_uris": {"ios": "https://dc.lft.to/lastmile_qr_scan", "android": "https://dc.lft.to/lastmile_qr_scan"}, "is_reserved": 0, "fusion_lon": 0.0, "fusion_lat": 0.0, "lon": -77.04250533333334, "name": "009fd2827f4d1d23724e8a99980172b6"}, {"bike_id": "4754401b60e6308b8eac1668cbcdf6a6", "type": "electric_scooter", "is_disabled": 0, "lat": 38.902709, "rental_uris": {"ios": "https://dc.lft.to/lastmile_qr_scan", "android": "https://dc.lft.to/lastmile_qr_scan"}, "is_reserved": 0, "fusion_lon": 0.0, "fusion_lat": 0.0, "lon": -77.03381183333333, "name": "4754401b60e6308b8eac1668cbcdf6a6"}, {"bike_id": "9841a59e6f1ca1a70e51e23cb4f090ac", "type": "electric_scooter", "is_disabled": 0, "lat": 38.90870983333333, "rental_uris": {"ios": "https://dc.lft.to/lastmile_qr_scan", "android": "https://dc.lft.to/lastmile_qr_scan"}, "is_reserved": 0, "fusion_lon": 0.0, "fusion_lat": 0.0, "lon": -77.0221265, "name": "9841a59e6f1ca1a70e51e23cb4f090ac"}, {"bike_id": "2330c28f75257fda6845406b601bf234", "type": "electric_scooter", "is_disabled": 0, "lat": 38.922410166666666, "rental_uris": {"ios": "https://dc.lft.to/lastmile_qr_scan", "android": "https://dc.lft.to/lastmile_qr_scan"}, "is_reserved": 0, "fusion_lon": 0.0, "fusion_lat": 0.0, "lon": -77.03137666666667, "name": "2330c28f75257fda6845406b601bf234"}, {"bike_id": "459e9a8bb80e152c27e6ab506acb3da0", "type": "electric_scooter", "is_disabled": 0, "lat": 38.907932333333335, "rental_uris": {"ios": "https://dc.lft.to/lastmile_qr_scan", "android": "https://dc.lft.to/lastmile_qr_scan"}, "is_reserved": 0, "fusion_lon": 0.0, "fusion_lat": 0.0, "lon": -77.04828316666666, "name": "459e9a8bb80e152c27e6ab506acb3da0"}, {"bike_id": "150ea0026892cc41d405e4980612931f", "type": "electric_scooter", "is_disabled": 0, "lat": 38.906851833333334, "rental_uris": {"ios": "https://dc.lft.to/lastmile_qr_scan", "android": "https://dc.lft.to/lastmile_qr_scan"}, "is_reserved": 0, "fusion_lon": 0.0, "fusion_lat": 0.0, "lon": -77.02693483333333, "name": "150ea0026892cc41d405e4980612931f"}, {"bike_id": "cd6a8fad3c3df05c9f7e8f7b79a4ca81", "type": "electric_scooter", "is_disabled": 0, "lat": 38.8965125, "rental_uris": {"ios": "https://dc.lft.to/lastmile_qr_scan", "android": "https://dc.lft.to/lastmile_qr_scan"}, "is_reserved": 0, "fusion_lon": 0.0, "fusion_lat": 0.0, "lon": -77.07062283333333, "name": "cd6a8fad3c3df05c9f7e8f7b79a4ca81"}, {"bike_id": "546f7f6b294e6ed88d2adcbf06c52117", "type": "electric_scooter", "is_disabled": 0, "lat": 38.866254166666664, "rental_uris": {"ios": "https://dc.lft.to/lastmile_qr_scan", "android": "https://dc.lft.to/lastmile_qr_scan"}, "is_reserved": 0, "fusion_lon": 0.0, "fusion_lat": 0.0, "lon": -76.98715033333333, "name": "546f7f6b294e6ed88d2adcbf06c52117"}, {"bike_id": "d9459d436132574e00090d975fc375a5", "type": "electric_scooter", "is_disabled": 0, "lat": 38.92286633333333, "rental_uris": {"ios": "https://dc.lft.to/lastmile_qr_scan", "android": "https://dc.lft.to/lastmile_qr_scan"}, "is_reserved": 0, "fusion_lon": 0.0, "fusion_lat": 0.0, "lon": -77.0447645, "name": "d9459d436132574e00090d975fc375a5"}, {"bike_id": "5a734b278e5233917cd495a528d1fdb6", "type": "electric_scooter", "is_disabled": 0, "lat": 38.95672366666667, "rental_uris": {"ios": "https://dc.lft.to/lastmile_qr_scan", "android": "https://dc.lft.to/lastmile_qr_scan"}, "is_reserved": 0, "fusion_lon": 0.0, "fusion_lat": 0.0, "lon": -77.01129966666667, "name": "5a734b278e5233917cd495a528d1fdb6"}, {"bike_id": "10ba4d41b8ec2bb7fe7f6dee35ce322b", "type": "electric_scooter", "is_disabled": 0, "lat": 38.942710166666664, "rental_uris": {"ios": "https://dc.lft.to/lastmile_qr_scan", "android": "https://dc.lft.to/lastmile_qr_scan"}, "is_reserved": 0, "fusion_lon": 0.0, "fusion_lat": 0.0, "lon": -77.03257883333333, "name": "10ba4d41b8ec2bb7fe7f6dee35ce322b"}, {"bike_id": "e8dbf17d8906263105479440d69032c1", "type": "electric_scooter", "is_disabled": 0, "lat": 38.91766283333333, "rental_uris": {"ios": "https://dc.lft.to/lastmile_qr_scan", "android": "https://dc.lft.to/lastmile_qr_scan"}, "is_reserved": 0, "fusion_lon": 0.0, "fusion_lat": 0.0, "lon": -77.0454495, "name": "e8dbf17d8906263105479440d69032c1"}, {"bike_id": "3e2a1b026815445648f17830b5fce96f", "type": "electric_scooter", "is_disabled": 0, "lat": 38.85318316666667, "rental_uris": {"ios": "https://dc.lft.to/lastmile_qr_scan", "android": "https://dc.lft.to/lastmile_qr_scan"}, "is_reserved": 0, "fusion_lon": 0.0, "fusion_lat": 0.0, "lon": -76.98008383333334, "name": "3e2a1b026815445648f17830b5fce96f"}, {"bike_id": "cf267cec92ae5616bbfadb98c2882fda", "type": "electric_scooter", "is_disabled": 0, "lat": 38.8786685, "rental_uris": {"ios": "https://dc.lft.to/lastmile_qr_scan", "android": "https://dc.lft.to/lastmile_qr_scan"}, "is_reserved": 0, "fusion_lon": 0.0, "fusion_lat": 0.0, "lon": -76.96983316666666, "name": "cf267cec92ae5616bbfadb98c2882fda"}, {"bike_id": "43d0ff8f0638e1774d272051d669a940", "type": "electric_scooter", "is_disabled": 0, "lat": 38.91114483333333, "rental_uris": {"ios": "https://dc.lft.to/lastmile_qr_scan", "android": "https://dc.lft.to/lastmile_qr_scan"}, "is_reserved": 0, "fusion_lon": 0.0, "fusion_lat": 0.0, "lon": -77.03825616666667, "name": "43d0ff8f0638e1774d272051d669a940"}, {"bike_id": "d08956f395123c6b9fe591d2d36d88de", "type": "electric_scooter", "is_disabled": 0, "lat": 38.90237333333334, "rental_uris": {"ios": "https://dc.lft.to/lastmile_qr_scan", "android": "https://dc.lft.to/lastmile_qr_scan"}, "is_reserved": 0, "fusion_lon": 0.0, "fusion_lat": 0.0, "lon": -77.0432495, "name": "d08956f395123c6b9fe591d2d36d88de"}, {"bike_id": "a50bbd0b762a30f81bf99c4fea8ff689", "type": "electric_scooter", "is_disabled": 0, "lat": 38.92915633333333, "rental_uris": {"ios": "https://dc.lft.to/lastmile_qr_scan", "android": "https://dc.lft.to/lastmile_qr_scan"}, "is_reserved": 0, "fusion_lon": 0.0, "fusion_lat": 0.0, "lon": -77.02094866666667, "name": "a50bbd0b762a30f81bf99c4fea8ff689"}, {"bike_id": "c8c8e4f3ee3380ef1e3404e365049c1b", "type": "electric_scooter", "is_disabled": 0, "lat": 38.90532066666667, "rental_uris": {"ios": "https://dc.lft.to/lastmile_qr_scan", "android": "https://dc.lft.to/lastmile_qr_scan"}, "is_reserved": 0, "fusion_lon": 0.0, "fusion_lat": 0.0, "lon": -77.05334533333334, "name": "c8c8e4f3ee3380ef1e3404e365049c1b"}, {"bike_id": "5a19a47c81e23115f95d9a23c5c024c8", "type": "electric_scooter", "is_disabled": 0, "lat": 38.8742065, "rental_uris": {"ios": "https://dc.lft.to/lastmile_qr_scan", "android": "https://dc.lft.to/lastmile_qr_scan"}, "is_reserved": 0, "fusion_lon": 0.0, "fusion_lat": 0.0, "lon": -76.96908283333333, "name": "5a19a47c81e23115f95d9a23c5c024c8"}, {"bike_id": "20cbed8c335354ccfaa824ebeeb549e9", "type": "electric_scooter", "is_disabled": 0, "lat": 38.9248375, "rental_uris": {"ios": "https://dc.lft.to/lastmile_qr_scan", "android": "https://dc.lft.to/lastmile_qr_scan"}, "is_reserved": 0, "fusion_lon": 0.0, "fusion_lat": 0.0, "lon": -77.028324, "name": "20cbed8c335354ccfaa824ebeeb549e9"}, {"bike_id": "40d3e07e8e59433fcca4b79c62e41f02", "type": "electric_scooter", "is_disabled": 0, "lat": 38.9144175, "rental_uris": {"ios": "https://dc.lft.to/lastmile_qr_scan", "android": "https://dc.lft.to/lastmile_qr_scan"}, "is_reserved": 0, "fusion_lon": 0.0, "fusion_lat": 0.0, "lon": -77.022848, "name": "40d3e07e8e59433fcca4b79c62e41f02"}, {"bike_id": "f107307d385660d067ea887f117fc5b6", "type": "electric_scooter", "is_disabled": 0, "lat": 38.86691, "rental_uris": {"ios": "https://dc.lft.to/lastmile_qr_scan", "android": "https://dc.lft.to/lastmile_qr_scan"}, "is_reserved": 0, "fusion_lon": 0.0, "fusion_lat": 0.0, "lon": -76.98573233333333, "name": "f107307d385660d067ea887f117fc5b6"}, {"bike_id": "bab43bb90746893361bc5f08a223b77a", "type": "electric_scooter", "is_disabled": 0, "lat": 38.916415, "rental_uris": {"ios": "https://dc.lft.to/lastmile_qr_scan", "android": "https://dc.lft.to/lastmile_qr_scan"}, "is_reserved": 0, "fusion_lon": 0.0, "fusion_lat": 0.0, "lon": -77.023007, "name": "bab43bb90746893361bc5f08a223b77a"}, {"bike_id": "2d9f58324740ae4cca2c19123738cd13", "type": "electric_scooter", "is_disabled": 0, "lat": 38.888482, "rental_uris": {"ios": "https://dc.lft.to/lastmile_qr_scan", "android": "https://dc.lft.to/lastmile_qr_scan"}, "is_reserved": 0, "fusion_lon": 0.0, "fusion_lat": 0.0, "lon": -76.92680666666666, "name": "2d9f58324740ae4cca2c19123738cd13"}, {"bike_id": "41949e775b9901c4367d8df53d863182", "type": "electric_bike", "is_disabled": 0, "lat": 38.92265533333333, "rental_uris": {"ios": "https://dc.lft.to/lastmile_qr_scan", "android": "https://dc.lft.to/lastmile_qr_scan"}, "is_reserved": 0, "fusion_lon": 0.0, "fusion_lat": 0.0, "lon": -77.022403, "name": "41949e775b9901c4367d8df53d863182"}, {"bike_id": "20fb7b0b4b5292ae47354355918b3ffe", "type": "electric_scooter", "is_disabled": 0, "lat": 38.911224, "rental_uris": {"ios": "https://dc.lft.to/lastmile_qr_scan", "android": "https://dc.lft.to/lastmile_qr_scan"}, "is_reserved": 0, "fusion_lon": 0.0, "fusion_lat": 0.0, "lon": -77.04467216666667, "name": "20fb7b0b4b5292ae47354355918b3ffe"}, {"bike_id": "70c91aa85874ae4040b31cab381b4399", "type": "electric_scooter", "is_disabled": 0, "lat": 38.966044833333335, "rental_uris": {"ios": "https://dc.lft.to/lastmile_qr_scan", "android": "https://dc.lft.to/lastmile_qr_scan"}, "is_reserved": 0, "fusion_lon": 0.0, "fusion_lat": 0.0, "lon": -77.01978366666667, "name": "70c91aa85874ae4040b31cab381b4399"}, {"bike_id": "148d136797ede0de733276f1d3d6d437", "type": "electric_scooter", "is_disabled": 0, "lat": 38.920655, "rental_uris": {"ios": "https://dc.lft.to/lastmile_qr_scan", "android": "https://dc.lft.to/lastmile_qr_scan"}, "is_reserved": 0, "fusion_lon": 0.0, "fusion_lat": 0.0, "lon": -77.03463066666667, "name": "148d136797ede0de733276f1d3d6d437"}, {"bike_id": "5e2b298dacbcd599f0b2f98830ad97a3", "type": "electric_scooter", "is_disabled": 0, "lat": 38.917158666666666, "rental_uris": {"ios": "https://dc.lft.to/lastmile_qr_scan", "android": "https://dc.lft.to/lastmile_qr_scan"}, "is_reserved": 0, "fusion_lon": 0.0, "fusion_lat": 0.0, "lon": -77.046118, "name": "5e2b298dacbcd599f0b2f98830ad97a3"}, {"bike_id": "983483708f5d66fa70d06a2f0627d505", "type": "electric_scooter", "is_disabled": 0, "lat": 38.908178, "rental_uris": {"ios": "https://dc.lft.to/lastmile_qr_scan", "android": "https://dc.lft.to/lastmile_qr_scan"}, "is_reserved": 0, "fusion_lon": 0.0, "fusion_lat": 0.0, "lon": -77.03637916666666, "name": "983483708f5d66fa70d06a2f0627d505"}, {"bike_id": "49388115492347cd4d639a4771239cc4", "type": "electric_scooter", "is_disabled": 0, "lat": 38.919165166666666, "rental_uris": {"ios": "https://dc.lft.to/lastmile_qr_scan", "android": "https://dc.lft.to/lastmile_qr_scan"}, "is_reserved": 0, "fusion_lon": 0.0, "fusion_lat": 0.0, "lon": -77.04467683333333, "name": "49388115492347cd4d639a4771239cc4"}, {"bike_id": "4e1cb3f6432323a79a3214f28da5aded", "type": "electric_scooter", "is_disabled": 0, "lat": 38.909714666666666, "rental_uris": {"ios": "https://dc.lft.to/lastmile_qr_scan", "android": "https://dc.lft.to/lastmile_qr_scan"}, "is_reserved": 0, "fusion_lon": 0.0, "fusion_lat": 0.0, "lon": -77.0385895, "name": "4e1cb3f6432323a79a3214f28da5aded"}, {"bike_id": "8664b6c60e6834b22fc6c98fcdb6bade", "type": "electric_scooter", "is_disabled": 0, "lat": 38.891973, "rental_uris": {"ios": "https://dc.lft.to/lastmile_qr_scan", "android": "https://dc.lft.to/lastmile_qr_scan"}, "is_reserved": 0, "fusion_lon": 0.0, "fusion_lat": 0.0, "lon": -77.0023075, "name": "8664b6c60e6834b22fc6c98fcdb6bade"}, {"bike_id": "452e600eebba4358ffb7c1c86054f263", "type": "electric_scooter", "is_disabled": 0, "lat": 38.902911333333336, "rental_uris": {"ios": "https://dc.lft.to/lastmile_qr_scan", "android": "https://dc.lft.to/lastmile_qr_scan"}, "is_reserved": 0, "fusion_lon": 0.0, "fusion_lat": 0.0, "lon": -77.02141666666667, "name": "452e600eebba4358ffb7c1c86054f263"}, {"bike_id": "fb7ebc03cb1a5fb2ba6727fcb83c8310", "type": "electric_scooter", "is_disabled": 0, "lat": 38.9142525, "rental_uris": {"ios": "https://dc.lft.to/lastmile_qr_scan", "android": "https://dc.lft.to/lastmile_qr_scan"}, "is_reserved": 0, "fusion_lon": 0.0, "fusion_lat": 0.0, "lon": -77.06919483333333, "name": "fb7ebc03cb1a5fb2ba6727fcb83c8310"}, {"bike_id": "15c1637793807695337f28a5722bf6c1", "type": "electric_scooter", "is_disabled": 0, "lat": 38.91669016666667, "rental_uris": {"ios": "https://dc.lft.to/lastmile_qr_scan", "android": "https://dc.lft.to/lastmile_qr_scan"}, "is_reserved": 0, "fusion_lon": 0.0, "fusion_lat": 0.0, "lon": -77.02399783333334, "name": "15c1637793807695337f28a5722bf6c1"}, {"bike_id": "86828f13694c0c912e8c530adbc744e9", "type": "electric_scooter", "is_disabled": 0, "lat": 38.93391333333334, "rental_uris": {"ios": "https://dc.lft.to/lastmile_qr_scan", "android": "https://dc.lft.to/lastmile_qr_scan"}, "is_reserved": 0, "fusion_lon": 0.0, "fusion_lat": 0.0, "lon": -77.02228933333333, "name": "86828f13694c0c912e8c530adbc744e9"}, {"bike_id": "ace737022a9c258518a972a3393613ea", "type": "electric_scooter", "is_disabled": 0, "lat": 38.90943933333333, "rental_uris": {"ios": "https://dc.lft.to/lastmile_qr_scan", "android": "https://dc.lft.to/lastmile_qr_scan"}, "is_reserved": 0, "fusion_lon": 0.0, "fusion_lat": 0.0, "lon": -77.04664033333333, "name": "ace737022a9c258518a972a3393613ea"}, {"bike_id": "897d8fac65801a729b589af2f3ba8a60", "type": "electric_scooter", "is_disabled": 0, "lat": 38.912476, "rental_uris": {"ios": "https://dc.lft.to/lastmile_qr_scan", "android": "https://dc.lft.to/lastmile_qr_scan"}, "is_reserved": 0, "fusion_lon": 0.0, "fusion_lat": 0.0, "lon": -77.02228016666666, "name": "897d8fac65801a729b589af2f3ba8a60"}, {"bike_id": "4e1fe094ac4aac1b9a96f812a2904f12", "type": "electric_scooter", "is_disabled": 0, "lat": 38.92115966666667, "rental_uris": {"ios": "https://dc.lft.to/lastmile_qr_scan", "android": "https://dc.lft.to/lastmile_qr_scan"}, "is_reserved": 0, "fusion_lon": 0.0, "fusion_lat": 0.0, "lon": -77.04376366666666, "name": "4e1fe094ac4aac1b9a96f812a2904f12"}, {"bike_id": "1c4f3199796896eb446b2c0f1ea2b1e2", "type": "electric_scooter", "is_disabled": 0, "lat": 38.94293016666666, "rental_uris": {"ios": "https://dc.lft.to/lastmile_qr_scan", "android": "https://dc.lft.to/lastmile_qr_scan"}, "is_reserved": 0, "fusion_lon": 0.0, "fusion_lat": 0.0, "lon": -77.02169766666667, "name": "1c4f3199796896eb446b2c0f1ea2b1e2"}, {"bike_id": "9532019066677ddecdea0a4af255e11a", "type": "electric_scooter", "is_disabled": 0, "lat": 38.90479033333333, "rental_uris": {"ios": "https://dc.lft.to/lastmile_qr_scan", "android": "https://dc.lft.to/lastmile_qr_scan"}, "is_reserved": 0, "fusion_lon": 0.0, "fusion_lat": 0.0, "lon": -77.02598016666667, "name": "9532019066677ddecdea0a4af255e11a"}, {"bike_id": "adf1c015697813746cf491741b595492", "type": "electric_scooter", "is_disabled": 0, "lat": 38.909706666666665, "rental_uris": {"ios": "https://dc.lft.to/lastmile_qr_scan", "android": "https://dc.lft.to/lastmile_qr_scan"}, "is_reserved": 0, "fusion_lon": 0.0, "fusion_lat": 0.0, "lon": -77.03625616666666, "name": "adf1c015697813746cf491741b595492"}, {"bike_id": "6619546437fb81fc901f8cb740ba63a9", "type": "electric_scooter", "is_disabled": 0, "lat": 38.8950325, "rental_uris": {"ios": "https://dc.lft.to/lastmile_qr_scan", "android": "https://dc.lft.to/lastmile_qr_scan"}, "is_reserved": 0, "fusion_lon": 0.0, "fusion_lat": 0.0, "lon": -77.01093733333333, "name": "6619546437fb81fc901f8cb740ba63a9"}, {"bike_id": "108cab3dff0f27d3b6fb65dab0766ae9", "type": "electric_scooter", "is_disabled": 0, "lat": 38.92581366666667, "rental_uris": {"ios": "https://dc.lft.to/lastmile_qr_scan", "android": "https://dc.lft.to/lastmile_qr_scan"}, "is_reserved": 0, "fusion_lon": 0.0, "fusion_lat": 0.0, "lon": -77.030279, "name": "108cab3dff0f27d3b6fb65dab0766ae9"}, {"bike_id": "ff840cb443386a0b1abfffb0b9274863", "type": "electric_scooter", "is_disabled": 0, "lat": 38.911907, "rental_uris": {"ios": "https://dc.lft.to/lastmile_qr_scan", "android": "https://dc.lft.to/lastmile_qr_scan"}, "is_reserved": 0, "fusion_lon": 0.0, "fusion_lat": 0.0, "lon": -77.011344, "name": "ff840cb443386a0b1abfffb0b9274863"}, {"bike_id": "a0137ea623a7ecb4fea0243d79599597", "type": "electric_scooter", "is_disabled": 0, "lat": 38.907108, "rental_uris": {"ios": "https://dc.lft.to/lastmile_qr_scan", "android": "https://dc.lft.to/lastmile_qr_scan"}, "is_reserved": 0, "fusion_lon": 0.0, "fusion_lat": 0.0, "lon": -77.02382316666667, "name": "a0137ea623a7ecb4fea0243d79599597"}, {"bike_id": "87eac0bf555f4af2c776bdeeacf1c9ec", "type": "electric_scooter", "is_disabled": 0, "lat": 38.94077933333333, "rental_uris": {"ios": "https://dc.lft.to/lastmile_qr_scan", "android": "https://dc.lft.to/lastmile_qr_scan"}, "is_reserved": 0, "fusion_lon": 0.0, "fusion_lat": 0.0, "lon": -77.06123116666667, "name": "87eac0bf555f4af2c776bdeeacf1c9ec"}, {"bike_id": "c26eb369a79b90382482c87860e1e86d", "type": "electric_scooter", "is_disabled": 0, "lat": 38.920636333333334, "rental_uris": {"ios": "https://dc.lft.to/lastmile_qr_scan", "android": "https://dc.lft.to/lastmile_qr_scan"}, "is_reserved": 0, "fusion_lon": 0.0, "fusion_lat": 0.0, "lon": -77.03413483333334, "name": "c26eb369a79b90382482c87860e1e86d"}, {"bike_id": "5eee02c47c77e9b1dd3e941c7906c186", "type": "electric_scooter", "is_disabled": 0, "lat": 38.91560583333333, "rental_uris": {"ios": "https://dc.lft.to/lastmile_qr_scan", "android": "https://dc.lft.to/lastmile_qr_scan"}, "is_reserved": 0, "fusion_lon": 0.0, "fusion_lat": 0.0, "lon": -77.0312, "name": "5eee02c47c77e9b1dd3e941c7906c186"}, {"bike_id": "8b3959beebd856d961a02427553ac0af", "type": "electric_scooter", "is_disabled": 0, "lat": 38.907298833333336, "rental_uris": {"ios": "https://dc.lft.to/lastmile_qr_scan", "android": "https://dc.lft.to/lastmile_qr_scan"}, "is_reserved": 0, "fusion_lon": 0.0, "fusion_lat": 0.0, "lon": -77.04332966666666, "name": "8b3959beebd856d961a02427553ac0af"}, {"bike_id": "afa2bcbd033c933df0db3f0ef9b6e076", "type": "electric_bike", "is_disabled": 0, "lat": 38.83161183333333, "rental_uris": {"ios": "https://dc.lft.to/lastmile_qr_scan", "android": "https://dc.lft.to/lastmile_qr_scan"}, "is_reserved": 0, "fusion_lon": 0.0, "fusion_lat": 0.0, "lon": -76.99542983333333, "name": "afa2bcbd033c933df0db3f0ef9b6e076"}, {"bike_id": "0f3727f723987b63e6faa6736c07efa7", "type": "electric_scooter", "is_disabled": 0, "lat": 38.9050795, "rental_uris": {"ios": "https://dc.lft.to/lastmile_qr_scan", "android": "https://dc.lft.to/lastmile_qr_scan"}, "is_reserved": 0, "fusion_lon": 0.0, "fusion_lat": 0.0, "lon": -77.04816466666666, "name": "0f3727f723987b63e6faa6736c07efa7"}, {"bike_id": "983487f16b609130800b9b86afbdd35f", "type": "electric_scooter", "is_disabled": 0, "lat": 38.90264633333334, "rental_uris": {"ios": "https://dc.lft.to/lastmile_qr_scan", "android": "https://dc.lft.to/lastmile_qr_scan"}, "is_reserved": 0, "fusion_lon": 0.0, "fusion_lat": 0.0, "lon": -77.01841733333333, "name": "983487f16b609130800b9b86afbdd35f"}, {"bike_id": "cc5f4049226f7283b2a1461d11c679e7", "type": "electric_scooter", "is_disabled": 0, "lat": 38.91149433333333, "rental_uris": {"ios": "https://dc.lft.to/lastmile_qr_scan", "android": "https://dc.lft.to/lastmile_qr_scan"}, "is_reserved": 0, "fusion_lon": 0.0, "fusion_lat": 0.0, "lon": -77.02949333333333, "name": "cc5f4049226f7283b2a1461d11c679e7"}, {"bike_id": "6007c946feeddf80f51de4c618bec12e", "type": "electric_scooter", "is_disabled": 0, "lat": 38.89846766666667, "rental_uris": {"ios": "https://dc.lft.to/lastmile_qr_scan", "android": "https://dc.lft.to/lastmile_qr_scan"}, "is_reserved": 0, "fusion_lon": 0.0, "fusion_lat": 0.0, "lon": -77.02207716666666, "name": "6007c946feeddf80f51de4c618bec12e"}, {"bike_id": "9e06a1bbc06cf115b7ca9d1b5dc2c853", "type": "electric_scooter", "is_disabled": 0, "lat": 38.90961883333333, "rental_uris": {"ios": "https://dc.lft.to/lastmile_qr_scan", "android": "https://dc.lft.to/lastmile_qr_scan"}, "is_reserved": 0, "fusion_lon": 0.0, "fusion_lat": 0.0, "lon": -77.04535533333333, "name": "9e06a1bbc06cf115b7ca9d1b5dc2c853"}, {"bike_id": "8ebbe0b2643a976e4c968ddd30ca1c13", "type": "electric_bike", "is_disabled": 0, "lat": 38.8973225, "rental_uris": {"ios": "https://dc.lft.to/lastmile_qr_scan", "android": "https://dc.lft.to/lastmile_qr_scan"}, "is_reserved": 0, "fusion_lon": 0.0, "fusion_lat": 0.0, "lon": -77.055431, "name": "8ebbe0b2643a976e4c968ddd30ca1c13"}, {"bike_id": "a807a34cfdc46707a0eaf8b7fe458689", "type": "electric_scooter", "is_disabled": 0, "lat": 38.90094533333333, "rental_uris": {"ios": "https://dc.lft.to/lastmile_qr_scan", "android": "https://dc.lft.to/lastmile_qr_scan"}, "is_reserved": 0, "fusion_lon": 0.0, "fusion_lat": 0.0, "lon": -77.03064883333333, "name": "a807a34cfdc46707a0eaf8b7fe458689"}, {"bike_id": "5847d1bb7d00c5c7bed74e60b4bd564d", "type": "electric_scooter", "is_disabled": 0, "lat": 38.9182425, "rental_uris": {"ios": "https://dc.lft.to/lastmile_qr_scan", "android": "https://dc.lft.to/lastmile_qr_scan"}, "is_reserved": 0, "fusion_lon": 0.0, "fusion_lat": 0.0, "lon": -77.04948216666666, "name": "5847d1bb7d00c5c7bed74e60b4bd564d"}, {"bike_id": "963752244615755a46f531e043cc9ff1", "type": "electric_scooter", "is_disabled": 0, "lat": 38.91422, "rental_uris": {"ios": "https://dc.lft.to/lastmile_qr_scan", "android": "https://dc.lft.to/lastmile_qr_scan"}, "is_reserved": 0, "fusion_lon": 0.0, "fusion_lat": 0.0, "lon": -77.022005, "name": "963752244615755a46f531e043cc9ff1"}, {"bike_id": "cddfbcf0aedc48984cb2afd04c7b3ece", "type": "electric_scooter", "is_disabled": 0, "lat": 38.91566916666667, "rental_uris": {"ios": "https://dc.lft.to/lastmile_qr_scan", "android": "https://dc.lft.to/lastmile_qr_scan"}, "is_reserved": 0, "fusion_lon": 0.0, "fusion_lat": 0.0, "lon": -77.04452416666666, "name": "cddfbcf0aedc48984cb2afd04c7b3ece"}, {"bike_id": "9e285f2b5805029bedaa57a0f395e844", "type": "electric_scooter", "is_disabled": 0, "lat": 38.891994833333335, "rental_uris": {"ios": "https://dc.lft.to/lastmile_qr_scan", "android": "https://dc.lft.to/lastmile_qr_scan"}, "is_reserved": 0, "fusion_lon": 0.0, "fusion_lat": 0.0, "lon": -77.02502683333333, "name": "9e285f2b5805029bedaa57a0f395e844"}, {"bike_id": "af302294821729b9ad11d3d425c077bf", "type": "electric_scooter", "is_disabled": 0, "lat": 38.91120133333333, "rental_uris": {"ios": "https://dc.lft.to/lastmile_qr_scan", "android": "https://dc.lft.to/lastmile_qr_scan"}, "is_reserved": 0, "fusion_lon": 0.0, "fusion_lat": 0.0, "lon": -77.04457, "name": "af302294821729b9ad11d3d425c077bf"}, {"bike_id": "e3762213af87c7c666c80f90a2a572db", "type": "electric_scooter", "is_disabled": 0, "lat": 38.93082066666667, "rental_uris": {"ios": "https://dc.lft.to/lastmile_qr_scan", "android": "https://dc.lft.to/lastmile_qr_scan"}, "is_reserved": 0, "fusion_lon": 0.0, "fusion_lat": 0.0, "lon": -77.03658616666667, "name": "e3762213af87c7c666c80f90a2a572db"}, {"bike_id": "50cbc2a0660c912af93c2a734278c662", "type": "electric_scooter", "is_disabled": 0, "lat": 38.92190016666667, "rental_uris": {"ios": "https://dc.lft.to/lastmile_qr_scan", "android": "https://dc.lft.to/lastmile_qr_scan"}, "is_reserved": 0, "fusion_lon": 0.0, "fusion_lat": 0.0, "lon": -77.01972633333334, "name": "50cbc2a0660c912af93c2a734278c662"},