{"data": {"bikes": [{"fusion_lat": 0.0, "type": "electric_scooter", "name": "08ba9541fc687f3d4c76baea1cb567d0", "fusion_lon": 0.0, "bike_id": "08ba9541fc687f3d4c76baea1cb567d0", "is_reserved": 0, "rental_uris": {"android": "https://dc.lft.to/lastmile_qr_scan", "ios": "https://dc.lft.to/lastmile_qr_scan"}, "lat": 38.8942555, "is_disabled": 0, "lon": -77.04005166666667}, {"fusion_lat": 0.0, "type": "electric_scooter", "name": "9fcc8e97862fa89c0bde6b256fa4528b", "fusion_lon": 0.0, "bike_id": "9fcc8e97862fa89c0bde6b256fa4528b", "is_reserved": 0, "rental_uris": {"android": "https://dc.lft.to/lastmile_qr_scan", "ios": "https://dc.lft.to/lastmile_qr_scan"}, "lat": 38.92616116666667, "is_disabled": 0, "lon": -77.04324416666667}, {"fusion_lat": 0.0, "type": "electric_scooter", "name": "ea15d2ea714458f8e7b4712140d944d2", "fusion_lon": 0.0, "bike_id": "ea15d2ea714458f8e7b4712140d944d2", "is_reserved": 0, "rental_uris": {"android": "https://dc.lft.to/lastmile_qr_scan", "ios": "https://dc.lft.to/lastmile_qr_scan"}, "lat": 38.921654, "is_disabled": 0, "lon": -77.03380533333333}, {"fusion_lat": 0.0, "type": "electric_bike", "name": "757926522a8908dea1d4e89d4a307a86", "fusion_lon": 0.0, "bike_id": "757926522a8908dea1d4e89d4a307a86", "is_reserved": 0, "rental_uris": {"android": "https://dc.lft.to/lastmile_qr_scan", "ios": "https://dc.lft.to/lastmile_qr_scan"}, "lat": 38.93224633333333, "is_disabled": 0, "lon": -77.18124783333333}, {"fusion_lat": 0.0, "type": "electric_scooter", "name": "b2c61f96ab444c02509b1477b6cdc7d0", "fusion_lon": 0.0, "bike_id": "b2c61f96ab444c02509b1477b6cdc7d0", "is_reserved": 0, "rental_uris": {"android": "https://dc.lft.to/lastmile_qr_scan", "ios": "https://dc.lft.to/lastmile_qr_scan"}, "lat": 38.905652833333335, "is_disabled": 0, "lon": -77.04618583333334}, {"fusion_lat": 0.0, "type": "electric_scooter", "name": "d93258486760359cdc2bc9bee6ac6625", "fusion_lon": 0.0, "bike_id": "d93258486760359cdc2bc9bee6ac6625", "is_reserved": 0, "rental_uris": {"android": "https://dc.lft.to/lastmile_qr_scan", "ios": "https://dc.lft.to/lastmile_qr_scan"}, "lat": 38.95183433333333, "is_disabled": 0, "lon": -77.02617116666667}, {"fusion_lat": 0.0, "type": "electric_scooter", "name": "453597a5628030c1b21e780860d0944d", "fusion_lon": 0.0, "bike_id": "453597a5628030c1b21e780860d0944d", "is_reserved": 0, "rental_uris": {"android": "https://dc.lft.to/lastmile_qr_scan", "ios": "https://dc.lft.to/lastmile_qr_scan"}, "lat": 38.90525016666667, "is_disabled": 0, "lon": -77.031419}, {"fusion_lat": 0.0, "type": "electric_scooter", "name": "8bc134afd56d8edbcfe1a820b5519937", "fusion_lon": 0.0, "bike_id": "8bc134afd56d8edbcfe1a820b5519937", "is_reserved": 0, "rental_uris": {"android": "https://dc.lft.to/lastmile_qr_scan", "ios": "https://dc.lft.to/lastmile_qr_scan"}, "lat": 38.8988975, "is_disabled": 0, "lon": -76.99380966666666}, {"fusion_lat": 0.0, "type": "electric_scooter", "name": "8c73b248da8ce496490c1ca7dca2b3c0", "fusion_lon": 0.0, "bike_id": "8c73b248da8ce496490c1ca7dca2b3c0", "is_reserved": 0, "rental_uris": {"android": "https://dc.lft.to/lastmile_qr_scan", "ios": "https://dc.lft.to/lastmile_qr_scan"}, "lat": 38.88136033333333, "is_disabled": 0, "lon": -77.01225883333333}, {"fusion_lat": 0.0, "type": "electric_bike", "name": "a855385c5edbcdbea080cd311768dff3", "fusion_lon": 0.0, "bike_id": "a855385c5edbcdbea080cd311768dff3", "is_reserved": 0, "rental_uris": {"android": "https://dc.lft.to/lastmile_qr_scan", "ios": "https://dc.lft.to/lastmile_qr_scan"}, "lat": 38.92613466666667, "is_disabled": 0, "lon": -77.036749}, {"fusion_lat": 0.0, "type": "electric_scooter", "name": "5fdd5af18da20ac31a608586acf013fa", "fusion_lon": 0.0, "bike_id": "5fdd5af18da20ac31a608586acf013fa", "is_reserved": 0, "rental_uris": {"android": "https://dc.lft.to/lastmile_qr_scan", "ios": "https://dc.lft.to/lastmile_qr_scan"}, "lat": 38.9137335, "is_disabled": 0, "lon": -77.0314055}, {"fusion_lat": 0.0, "type": "electric_bike", "name": "6d45f25bc0c4d7a517a25c4ce25f0424", "fusion_lon": 0.0, "bike_id": "6d45f25bc0c4d7a517a25c4ce25f0424", "is_reserved": 0, "rental_uris": {"android": "https://dc.lft.to/lastmile_qr_scan", "ios": "https://dc.lft.to/lastmile_qr_scan"}, "lat": 38.953292833333336, "is_disabled": 0, "lon": -76.95433066666666}, {"fusion_lat": 0.0, "type": "electric_scooter", "name": "927ad277d24346e8bba3544dd8773b39", "fusion_lon": 0.0, "bike_id": "927ad277d24346e8bba3544dd8773b39", "is_reserved": 0, "rental_uris": {"android": "https://dc.lft.to/lastmile_qr_scan", "ios": "https://dc.lft.to/lastmile_qr_scan"}, "lat": 38.89607566666667, "is_disabled": 0, "lon": -77.049866}, {"fusion_lat": 0.0, "type": "electric_scooter", "name": "93cabe5ae69dd5c74eae244469a251c0", "fusion_lon": 0.0, "bike_id": "93cabe5ae69dd5c74eae244469a251c0", "is_reserved": 0, "rental_uris": {"android": "https://dc.lft.to/lastmile_qr_scan", "ios": "https://dc.lft.to/lastmile_qr_scan"}, "lat": 38.92406033333334, "is_disabled": 0, "lon": -77.0516955}, {"fusion_lat": 0.0, "type": "electric_scooter", "name": "4493315876e2484d02b9d4873d3d21e8", "fusion_lon": 0.0, "bike_id": "4493315876e2484d02b9d4873d3d21e8", "is_reserved": 0, "rental_uris": {"android": "https://dc.lft.to/lastmile_qr_scan", "ios": "https://dc.lft.to/lastmile_qr_scan"}, "lat": 38.89627016666667, "is_disabled": 0, "lon": -77.03200333333334}, {"fusion_lat": 0.0, "type": "electric_scooter", "name": "aeb64655f85da5aca0387b22e8e8f1da", "fusion_lon": 0.0, "bike_id": "aeb64655f85da5aca0387b22e8e8f1da", "is_reserved": 0, "rental_uris": {"android": "https://dc.lft.to/lastmile_qr_scan", "ios": "https://dc.lft.to/lastmile_qr_scan"}, "lat": 38.916461166666664, "is_disabled": 0, "lon": -77.04807533333333}, {"fusion_lat": 0.0, "type": "electric_scooter", "name": "5025c7f54f14eb73258a24bcb3b838a3", "fusion_lon": 0.0, "bike_id": "5025c7f54f14eb73258a24bcb3b838a3", "is_reserved": 0, "rental_uris": {"android": "https://dc.lft.to/lastmile_qr_scan", "ios": "https://dc.lft.to/lastmile_qr_scan"}, "lat": 38.916736666666665, "is_disabled": 0, "lon": -77.03219766666666}, {"fusion_lat": 0.0, "type": "electric_scooter", "name": "961e325e50952875436da4118d8c06df", "fusion_lon": 0.0, "bike_id": "961e325e50952875436da4118d8c06df", "is_reserved": 0, "rental_uris": {"android": "https://dc.lft.to/lastmile_qr_scan", "ios": "https://dc.lft.to/lastmile_qr_scan"}, "lat": 38.904391333333336, "is_disabled": 0, "lon": -77.04487216666666}, {"fusion_lat": 0.0, "type": "electric_scooter", "name": "ed448223fb931c414fc934325e20ce03", "fusion_lon": 0.0, "bike_id": "ed448223fb931c414fc934325e20ce03", "is_reserved": 0, "rental_uris": {"android": "https://dc.lft.to/lastmile_qr_scan", "ios": "https://dc.lft.to/lastmile_qr_scan"}, "lat": 38.90617116666667, "is_disabled": 0, "lon": -77.0395995}, {"fusion_lat": 0.0, "type": "electric_scooter", "name": "ccb9891d0f14a7b35e1065692fc03f26", "fusion_lon": 0.0, "bike_id": "ccb9891d0f14a7b35e1065692fc03f26", "is_reserved": 0, "rental_uris": {"android": "https://dc.lft.to/lastmile_qr_scan", "ios": "https://dc.lft.to/lastmile_qr_scan"}, "lat": 38.89220183333333, "is_disabled": 0, "lon": -77.0022025}, {"fusion_lat": 0.0, "type": "electric_scooter", "name": "4850815b5b4acce93d464221982169ca", "fusion_lon": 0.0, "bike_id": "4850815b5b4acce93d464221982169ca", "is_reserved": 0, "rental_uris": {"android": "https://dc.lft.to/lastmile_qr_scan", "ios": "https://dc.lft.to/lastmile_qr_scan"}, "lat": 38.905533, "is_disabled": 0, "lon": -77.0501435}, {"fusion_lat": 0.0, "type": "electric_bike", "name": "b9b1701c5d90cef9aff2bcf129a63866", "fusion_lon": 0.0, "bike_id": "b9b1701c5d90cef9aff2bcf129a63866", "is_reserved": 0, "rental_uris": {"android": "https://dc.lft.to/lastmile_qr_scan", "ios": "https://dc.lft.to/lastmile_qr_scan"}, "lat": 38.883981, "is_disabled": 0, "lon": -76.96059083333333}, {"fusion_lat": 0.0, "type": "electric_scooter", "name": "30b7b6c19a32d574798343ce1c23daf6", "fusion_lon": 0.0, "bike_id": "30b7b6c19a32d574798343ce1c23daf6", "is_reserved": 0, "rental_uris": {"android": "https://dc.lft.to/lastmile_qr_scan", "ios": "https://dc.lft.to/lastmile_qr_scan"}, "lat": 38.906501166666665, "is_disabled": 0, "lon": -77.03857066666667}, {"fusion_lat": 0.0, "type": "electric_scooter", "name": "8caf77032a41440cc245dd9bd1ab6bf5", "fusion_lon": 0.0, "bike_id": "8caf77032a41440cc245dd9bd1ab6bf5", "is_reserved": 0, "rental_uris": {"android": "https://dc.lft.to/lastmile_qr_scan", "ios": "https://dc.lft.to/lastmile_qr_scan"}, "lat": 38.91237683333333, "is_disabled": 0, "lon": -77.04478166666667}, {"fusion_lat": 0.0, "type": "electric_scooter", "name": "5cb47d2541052cfe5f41eb3d6338b22f", "fusion_lon": 0.0, "bike_id": "5cb47d2541052cfe5f41eb3d6338b22f", "is_reserved": 0, "rental_uris": {"android": "https://dc.lft.to/lastmile_qr_scan", "ios": "https://dc.lft.to/lastmile_qr_scan"}, "lat": 38.91173216666667, "is_disabled": 0, "lon": -77.04475583333334}, {"fusion_lat": 0.0, "type": "electric_scooter", "name": "48f1ff0825456c3f5f36e07ae7472f84", "fusion_lon": 0.0, "bike_id": "48f1ff0825456c3f5f36e07ae7472f84", "is_reserved": 0, "rental_uris": {"android": "https://dc.lft.to/lastmile_qr_scan", "ios": "https://dc.lft.to/lastmile_qr_scan"}, "lat": 38.897296833333336, "is_disabled": 0, "lon": -77.0092685}, {"fusion_lat": 0.0, "type": "electric_scooter", "name": "f801346f68ded4af66cb1548612ebea1", "fusion_lon": 0.0, "bike_id": "f801346f68ded4af66cb1548612ebea1", "is_reserved": 0, "rental_uris": {"android": "https://dc.lft.to/lastmile_qr_scan", "ios": "https://dc.lft.to/lastmile_qr_scan"}, "lat": 38.92252416666667, "is_disabled": 0, "lon": -77.0195255}, {"fusion_lat": 0.0, "type": "electric_scooter", "name": "c21d9d071be77f54175bc7623f761fb4", "fusion_lon": 0.0, "bike_id": "c21d9d071be77f54175bc7623f761fb4", "is_reserved": 0, "rental_uris": {"android": "https://dc.lft.to/lastmile_qr_scan", "ios": "https://dc.lft.to/lastmile_qr_scan"}, "lat": 38.907258166666665, "is_disabled": 0, "lon": -77.03459933333333}, {"fusion_lat": 0.0, "type": "electric_scooter", "name": "b50cca44a3ca80915b3fab899045af6e", "fusion_lon": 0.0, "bike_id": "b50cca44a3ca80915b3fab899045af6e", "is_reserved": 0, "rental_uris": {"android": "https://dc.lft.to/lastmile_qr_scan", "ios": "https://dc.lft.to/lastmile_qr_scan"}, "lat": 38.90535916666666, "is_disabled": 0, "lon": -77.03942483333333}, {"fusion_lat": 0.0, "type": "electric_bike", "name": "af334dbd4980d274b7047f8270dd322c", "fusion_lon": 0.0, "bike_id": "af334dbd4980d274b7047f8270dd322c", "is_reserved": 0, "rental_uris": {"android": "https://dc.lft.to/lastmile_qr_scan", "ios": "https://dc.lft.to/lastmile_qr_scan"}, "lat": 38.953701, "is_disabled": 0, "lon": -77.027809}, {"fusion_lat": 0.0, "type": "electric_scooter", "name": "e4aa9a1edf6cb0e659758678b9ad0adf", "fusion_lon": 0.0, "bike_id": "e4aa9a1edf6cb0e659758678b9ad0adf", "is_reserved": 0, "rental_uris": {"android": "https://dc.lft.to/lastmile_qr_scan", "ios": "https://dc.lft.to/lastmile_qr_scan"}, "lat": 38.959335333333335, "is_disabled": 0, "lon": -77.03130816666666}, {"fusion_lat": 0.0, "type": "electric_scooter", "name": "1e658fd9a5e1ed611f18400cc773f4f7", "fusion_lon": 0.0, "bike_id": "1e658fd9a5e1ed611f18400cc773f4f7", "is_reserved": 0, "rental_uris": {"android": "https://dc.lft.to/lastmile_qr_scan", "ios": "https://dc.lft.to/lastmile_qr_scan"}, "lat": 38.912774166666665, "is_disabled": 0, "lon": -77.022475}, {"fusion_lat": 0.0, "type": "electric_scooter", "name": "c0189c9e86be6eaa470c1e29953d7be9", "fusion_lon": 0.0, "bike_id": "c0189c9e86be6eaa470c1e29953d7be9", "is_reserved": 0, "rental_uris": {"android": "https://dc.lft.to/lastmile_qr_scan", "ios": "https://dc.lft.to/lastmile_qr_scan"}, "lat": 38.873644166666665, "is_disabled": 0, "lon": -76.97008633333333}, {"fusion_lat": 0.0, "type": "electric_scooter", "name": "52978128b6947c13cce8774bc083ff08", "fusion_lon": 0.0, "bike_id": "52978128b6947c13cce8774bc083ff08", "is_reserved": 0, "rental_uris": {"android": "https://dc.lft.to/lastmile_qr_scan", "ios": "https://dc.lft.to/lastmile_qr_scan"}, "lat": 38.927058333333335, "is_disabled": 0, "lon": -77.02411533333333}, {"fusion_lat": 0.0, "type": "electric_scooter", "name": "2b68878cb0796b959cf7c0a3845b7dc5", "fusion_lon": 0.0, "bike_id": "2b68878cb0796b959cf7c0a3845b7dc5", "is_reserved": 0, "rental_uris": {"android": "https://dc.lft.to/lastmile_qr_scan", "ios": "https://dc.lft.to/lastmile_qr_scan"}, "lat": 38.9428885, "is_disabled": 0, "lon": -77.02172833333333}, {"fusion_lat": 0.0, "type": "electric_scooter", "name": "1c9498028e6de6d6dbfda0b74d7fa5db", "fusion_lon": 0.0, "bike_id": "1c9498028e6de6d6dbfda0b74d7fa5db", "is_reserved": 0, "rental_uris": {"android": "https://dc.lft.to/lastmile_qr_scan", "ios": "https://dc.lft.to/lastmile_qr_scan"}, "lat": 38.899603166666665, "is_disabled": 0, "lon": -77.03391283333333}, {"fusion_lat": 0.0, "type": "electric_scooter", "name": "007206a9552b083de4e18909b608853e", "fusion_lon": 0.0, "bike_id": "007206a9552b083de4e18909b608853e", "is_reserved": 0, "rental_uris": {"android": "https://dc.lft.to/lastmile_qr_scan", "ios": "https://dc.lft.to/lastmile_qr_scan"}, "lat": 38.87173083333333, "is_disabled": 0, "lon": -77.00623466666667}, {"fusion_lat": 0.0, "type": "electric_scooter", "name": "9a1b35975fb6659b91d1f09eeb9e4382", "fusion_lon": 0.0, "bike_id": "9a1b35975fb6659b91d1f09eeb9e4382", "is_reserved": 0, "rental_uris": {"android": "https://dc.lft.to/lastmile_qr_scan", "ios": "https://dc.lft.to/lastmile_qr_scan"}, "lat": 38.90268066666667, "is_disabled": 0, "lon": -77.003499}, {"fusion_lat": 0.0, "type": "electric_scooter", "name": "8a9b1e88508a02159bcc3671bd25ec2f", "fusion_lon": 0.0, "bike_id": "8a9b1e88508a02159bcc3671bd25ec2f", "is_reserved": 0, "rental_uris": {"android": "https://dc.lft.to/lastmile_qr_scan", "ios": "https://dc.lft.to/lastmile_qr_scan"}, "lat": 38.9013515, "is_disabled": 0, "lon": -77.04350716666667}, {"fusion_lat": 0.0, "type": "electric_scooter", "name": "3fedeb099dfcc67db27b189fff0bbbde", "fusion_lon": 0.0, "bike_id": "3fedeb099dfcc67db27b189fff0bbbde", "is_reserved": 0, "rental_uris": {"android": "https://dc.lft.to/lastmile_qr_scan", "ios": "https://dc.lft.to/lastmile_qr_scan"}, "lat": 38.89221716666667, "is_disabled": 0, "lon": -77.04687016666666}, {"fusion_lat": 0.0, "type": "electric_scooter", "name": "9652eeed8eba23a70ca38dd3c2febbca", "fusion_lon": 0.0, "bike_id": "9652eeed8eba23a70ca38dd3c2febbca", "is_reserved": 0, "rental_uris": {"android": "https://dc.lft.to/lastmile_qr_scan", "ios": "https://dc.lft.to/lastmile_qr_scan"}, "lat": 38.915668, "is_disabled": 0, "lon": -77.037836}, {"fusion_lat": 0.0, "type": "electric_scooter", "name": "34bd416a8e6ac2a1aac82304313c0967", "fusion_lon": 0.0, "bike_id": "34bd416a8e6ac2a1aac82304313c0967", "is_reserved": 0, "rental_uris": {"android": "https://dc.lft.to/lastmile_qr_scan", "ios": "https://dc.lft.to/lastmile_qr_scan"}, "lat": 38.92301066666667, "is_disabled": 0, "lon": -77.04458}, {"fusion_lat": 0.0, "type": "electric_scooter", "name": "37e72ccfc6d6c7f3ad8454281c89612e", "fusion_lon": 0.0, "bike_id": "37e72ccfc6d6c7f3ad8454281c89612e", "is_reserved": 0, "rental_uris": {"android": "https://dc.lft.to/lastmile_qr_scan", "ios": "https://dc.lft.to/lastmile_qr_scan"}, "lat": 38.919593166666665, "is_disabled": 0, "lon": -77.02359233333334}, {"fusion_lat": 0.0, "type": "electric_scooter", "name": "32254962b65dfb257afa3085fb562dbd", "fusion_lon": 0.0, "bike_id": "32254962b65dfb257afa3085fb562dbd", "is_reserved": 0, "rental_uris": {"android": "https://dc.lft.to/lastmile_qr_scan", "ios": "https://dc.lft.to/lastmile_qr_scan"}, "lat": 38.94660366666667, "is_disabled": 0, "lon": -77.006039}, {"fusion_lat": 0.0, "type": "electric_scooter", "name": "c2337c0c5f3020e5fd43755093577fe5", "fusion_lon": 0.0, "bike_id": "c2337c0c5f3020e5fd43755093577fe5", "is_reserved": 0, "rental_uris": {"android": "https://dc.lft.to/lastmile_qr_scan", "ios": "https://dc.lft.to/lastmile_qr_scan"}, "lat": 38.874637666666665, "is_disabled": 0, "lon": -77.00961483333333}, {"fusion_lat": 0.0, "type": "electric_scooter", "name": "67de658850167006e59565b167afb90f", "fusion_lon": 0.0, "bike_id": "67de658850167006e59565b167afb90f", "is_reserved": 0, "rental_uris": {"android": "https://dc.lft.to/lastmile_qr_scan", "ios": "https://dc.lft.to/lastmile_qr_scan"}, "lat": 38.90319566666667, "is_disabled": 0, "lon": -77.04348766666666}, {"fusion_lat": 0.0, "type": "electric_scooter", "name": "4c85781cc7e2554ea3e90193856804dc", "fusion_lon": 0.0, "bike_id": "4c85781cc7e2554ea3e90193856804dc", "is_reserved": 0, "rental_uris": {"android": "https://dc.lft.to/lastmile_qr_scan", "ios": "https://dc.lft.to/lastmile_qr_scan"}, "lat": 38.903146666666665, "is_disabled": 0, "lon": -77.05897783333333}, {"fusion_lat": 0.0, "type": "electric_bike", "name": "eb1c03a9d68dafb3c0961296cc710914", "fusion_lon": 0.0, "bike_id": "eb1c03a9d68dafb3c0961296cc710914", "is_reserved": 0, "rental_uris": {"android": "https://dc.lft.to/lastmile_qr_scan", "ios": "https://dc.lft.to/lastmile_qr_scan"}, "lat": 38.877295833333335, "is_disabled": 0, "lon": -76.98110116666666}, {"fusion_lat": 0.0, "type": "electric_scooter", "name": "303a29fc3a83fd9f1b4cc175823cb451", "fusion_lon": 0.0, "bike_id": "303a29fc3a83fd9f1b4cc175823cb451", "is_reserved": 0, "rental_uris": {"android": "https://dc.lft.to/lastmile_qr_scan", "ios": "https://dc.lft.to/lastmile_qr_scan"}, "lat": 38.934588166666664, "is_disabled": 0, "lon": -77.05781383333333}, {"fusion_lat": 0.0, "type": "electric_scooter", "name": "fa1d69b8c6669f21ecb5a43d2afd1ea3", "fusion_lon": 0.0, "bike_id": "fa1d69b8c6669f21ecb5a43d2afd1ea3", "is_reserved": 0, "rental_uris": {"android": "https://dc.lft.to/lastmile_qr_scan", "ios": "https://dc.lft.to/lastmile_qr_scan"}, "lat": 38.860591, "is_disabled": 0, "lon": -76.98422616666667}, {"fusion_lat": 0.0, "type": "electric_bike", "name": "0bd42eac79fa87aace64c57f9cd3243d", "fusion_lon": 0.0, "bike_id": "0bd42eac79fa87aace64c57f9cd3243d", "is_reserved": 0, "rental_uris": {"android": "https://dc.lft.to/lastmile_qr_scan", "ios": "https://dc.lft.to/lastmile_qr_scan"}, "lat": 38.984086166666664, "is_disabled": 0, "lon": -77.09689133333333}, {"fusion_lat": 0.0, "type": "electric_scooter", "name": "a844d15ca0055340a61a0c4891ddcb7b", "fusion_lon": 0.0, "bike_id": "a844d15ca0055340a61a0c4891ddcb7b", "is_reserved": 0, "rental_uris": {"android": "https://dc.lft.to/lastmile_qr_scan", "ios": "https://dc.lft.to/lastmile_qr_scan"}, "lat": 38.88043783333333, "is_disabled": 0, "lon": -77.0198795}, {"fusion_lat": 0.0, "type": "electric_scooter", "name": "2fce00c4a69f842bd62bb7e352c1c864", "fusion_lon": 0.0, "bike_id": "2fce00c4a69f842bd62bb7e352c1c864", "is_reserved": 0, "rental_uris": {"android": "https://dc.lft.to/lastmile_qr_scan", "ios": "https://dc.lft.to/lastmile_qr_scan"}, "lat": 38.898411833333334, "is_disabled": 0, "lon": -76.946399}, {"fusion_lat": 0.0, "type": "electric_scooter", "name": "b409917dadcfc044dc24ddd8d5d11464", "fusion_lon": 0.0, "bike_id": "b409917dadcfc044dc24ddd8d5d11464", "is_reserved": 0, "rental_uris": {"android": "https://dc.lft.to/lastmile_qr_scan", "ios": "https://dc.lft.to/lastmile_qr_scan"}, "lat": 38.922916, "is_disabled": 0, "lon": -77.02111166666667}, {"fusion_lat": 0.0, "type": "electric_scooter", "name": "da1dc5810ef3a4ab47263ee68c0a3102", "fusion_lon": 0.0, "bike_id": "da1dc5810ef3a4ab47263ee68c0a3102", "is_reserved": 0, "rental_uris": {"android": "https://dc.lft.to/lastmile_qr_scan", "ios": "https://dc.lft.to/lastmile_qr_scan"}, "lat": 38.8650155, "is_disabled": 0, "lon": -76.99006216666666}, {"fusion_lat": 0.0, "type": "electric_scooter", "name": "220ddd08000ed057318e3ed1589cd4c7", "fusion_lon": 0.0, "bike_id": "220ddd08000ed057318e3ed1589cd4c7", "is_reserved": 0, "rental_uris": {"android": "https://dc.lft.to/lastmile_qr_scan", "ios": "https://dc.lft.to/lastmile_qr_scan"}, "lat": 38.90270016666667, "is_disabled": 0, "lon": -77.05919666666667}, {"fusion_lat": 0.0, "type": "electric_scooter", "name": "51b4b915486d378fac33de899f7ac240", "fusion_lon": 0.0, "bike_id": "51b4b915486d378fac33de899f7ac240", "is_reserved": 0, "rental_uris": {"android": "https://dc.lft.to/lastmile_qr_scan", "ios": "https://dc.lft.to/lastmile_qr_scan"}, "lat": 38.90527, "is_disabled": 0, "lon": -77.0529185}, {"fusion_lat": 0.0, "type": "electric_scooter", "name": "585f0ec3684ccc92f97e510b9ab4bd60", "fusion_lon": 0.0, "bike_id": "585f0ec3684ccc92f97e510b9ab4bd60", "is_reserved": 0, "rental_uris": {"android": "https://dc.lft.to/lastmile_qr_scan", "ios": "https://dc.lft.to/lastmile_qr_scan"}, "lat": 38.92462733333333, "is_disabled": 0, "lon": -77.02153483333333}, {"fusion_lat": 0.0, "type": "electric_scooter", "name": "c5cc94151598e1817fbb54c954744766", "fusion_lon": 0.0, "bike_id": "c5cc94151598e1817fbb54c954744766", "is_reserved": 0, "rental_uris": {"android": "https://dc.lft.to/lastmile_qr_scan", "ios": "https://dc.lft.to/lastmile_qr_scan"}, "lat": 38.92576916666667, "is_disabled": 0, "lon": -77.02603266666667}, {"fusion_lat": 0.0, "type": "electric_scooter", "name": "c6756373b555d46e0cd4f48b44ccb1b9", "fusion_lon": 0.0, "bike_id": "c6756373b555d46e0cd4f48b44ccb1b9", "is_reserved": 0, "rental_uris": {"android": "https://dc.lft.to/lastmile_qr_scan", "ios": "https://dc.lft.to/lastmile_qr_scan"}, "lat": 38.929833, "is_disabled": 0, "lon": -77.03661883333334}, {"fusion_lat": 0.0, "type": "electric_scooter", "name": "37fdc2d8291ff8c4c5d7304a406f2fa2", "fusion_lon": 0.0, "bike_id": "37fdc2d8291ff8c4c5d7304a406f2fa2", "is_reserved": 0, "rental_uris": {"android": "https://dc.lft.to/lastmile_qr_scan", "ios": "https://dc.lft.to/lastmile_qr_scan"}, "lat": 38.9088315, "is_disabled": 0, "lon": -76.98543833333333}, {"fusion_lat": 0.0, "type": "electric_scooter", "name": "2dabdf4492d25bd6adde7b39a34833e0", "fusion_lon": 0.0, "bike_id": "2dabdf4492d25bd6adde7b39a34833e0", "is_reserved": 0, "rental_uris": {"android": "https://dc.lft.to/lastmile_qr_scan", "ios": "https://dc.lft.to/lastmile_qr_scan"}, "lat": 38.892336, "is_disabled": 0, "lon": -77.031415}, {"fusion_lat": 0.0, "type": "electric_scooter", "name": "bbb2acb687a9e3b20bb349137cf780ec", "fusion_lon": 0.0, "bike_id": "bbb2acb687a9e3b20bb349137cf780ec", "is_reserved": 0, "rental_uris": {"android": "https://dc.lft.to/lastmile_qr_scan", "ios": "https://dc.lft.to/lastmile_qr_scan"}, "lat": 38.886768333333336, "is_disabled": 0, "lon": -76.95471316666666}, {"fusion_lat": 0.0, "type": "electric_scooter", "name": "05154b7042488248da9bbd6a2fd07c5c", "fusion_lon": 0.0, "bike_id": "05154b7042488248da9bbd6a2fd07c5c", "is_reserved": 0, "rental_uris": {"android": "https://dc.lft.to/lastmile_qr_scan", "ios": "https://dc.lft.to/lastmile_qr_scan"}, "lat": 38.90701, "is_disabled": 0, "lon": -77.04156133333333}, {"fusion_lat": 0.0, "type": "electric_scooter", "name": "4bb1e2d29d0d50ad67d542f5ed45e9e8", "fusion_lon": 0.0, "bike_id": "4bb1e2d29d0d50ad67d542f5ed45e9e8", "is_reserved": 0, "rental_uris": {"android": "https://dc.lft.to/lastmile_qr_scan", "ios": "https://dc.lft.to/lastmile_qr_scan"}, "lat": 38.887406166666665, "is_disabled": 0, "lon": -77.02739483333333}, {"fusion_lat": 0.0, "type": "electric_scooter", "name": "c5f01ad7428d01503412032c87630671", "fusion_lon": 0.0, "bike_id": "c5f01ad7428d01503412032c87630671", "is_reserved": 0, "rental_uris": {"android": "https://dc.lft.to/lastmile_qr_scan", "ios": "https://dc.lft.to/lastmile_qr_scan"}, "lat": 38.90392416666667, "is_disabled": 0, "lon": -77.005779}, {"fusion_lat": 0.0, "type": "electric_scooter", "name": "4f8859f56a3662075065ebe94484a156", "fusion_lon": 0.0, "bike_id": "4f8859f56a3662075065ebe94484a156", "is_reserved": 0, "rental_uris": {"android": "https://dc.lft.to/lastmile_qr_scan", "ios": "https://dc.lft.to/lastmile_qr_scan"}, "lat": 38.883636, "is_disabled": 0, "lon": -76.9415725}, {"fusion_lat": 0.0, "type": "electric_scooter", "name": "736d08e2628c5c1e7909ce83eeac2617", "fusion_lon": 0.0, "bike_id": "736d08e2628c5c1e7909ce83eeac2617", "is_reserved": 0, "rental_uris": {"android": "https://dc.lft.to/lastmile_qr_scan", "ios": "https://dc.lft.to/lastmile_qr_scan"}, "lat": 38.89390983333333, "is_disabled": 0, "lon": -77.0225235}, {"fusion_lat": 0.0, "type": "electric_scooter", "name": "44ace6f060f8164abf1ed1cb82d77732", "fusion_lon": 0.0, "bike_id": "44ace6f060f8164abf1ed1cb82d77732", "is_reserved": 0, "rental_uris": {"android": "https://dc.lft.to/lastmile_qr_scan", "ios": "https://dc.lft.to/lastmile_qr_scan"}, "lat": 38.922182166666666, "is_disabled": 0, "lon": -77.0433615}, {"fusion_lat": 0.0, "type": "electric_scooter", "name": "c6b6d2dacb4709b20d004d556dbb791a", "fusion_lon": 0.0, "bike_id": "c6b6d2dacb4709b20d004d556dbb791a", "is_reserved": 0, "rental_uris": {"android": "https://dc.lft.to/lastmile_qr_scan", "ios": "https://dc.lft.to/lastmile_qr_scan"}, "lat": 38.9111305, "is_disabled": 0, "lon": -77.06924116666667}, {"fusion_lat": 0.0, "type": "electric_scooter", "name": "c3c2bc1d31c5fb4a3e6ac33f0a3f99d4", "fusion_lon": 0.0, "bike_id": "c3c2bc1d31c5fb4a3e6ac33f0a3f99d4", "is_reserved": 0, "rental_uris": {"android": "https://dc.lft.to/lastmile_qr_scan", "ios": "https://dc.lft.to/lastmile_qr_scan"}, "lat": 38.915641, "is_disabled": 0, "lon": -77.00869733333333}, {"fusion_lat": 0.0, "type": "electric_scooter", "name": "39900bb2e44f15bd2238297af56bdd46", "fusion_lon": 0.0, "bike_id": "39900bb2e44f15bd2238297af56bdd46", "is_reserved": 0, "rental_uris": {"android": "https://dc.lft.to/lastmile_qr_scan", "ios": "https://dc.lft.to/lastmile_qr_scan"}, "lat": 38.907113, "is_disabled": 0, "lon": -77.05062816666667}, {"fusion_lat": 0.0, "type": "electric_scooter", "name": "0ed1441afb09aa1dda23cd6a9f7d81c8", "fusion_lon": 0.0, "bike_id": "0ed1441afb09aa1dda23cd6a9f7d81c8", "is_reserved": 0, "rental_uris": {"android": "https://dc.lft.to/lastmile_qr_scan", "ios": "https://dc.lft.to/lastmile_qr_scan"}, "lat": 38.91438616666667, "is_disabled": 0, "lon": -77.00455716666667}, {"fusion_lat": 0.0, "type": "electric_scooter", "name": "5391f0d5bd03c0a3c9f2b460ade09bbb", "fusion_lon": 0.0, "bike_id": "5391f0d5bd03c0a3c9f2b460ade09bbb", "is_reserved": 0, "rental_uris": {"android": "https://dc.lft.to/lastmile_qr_scan", "ios": "https://dc.lft.to/lastmile_qr_scan"}, "lat": 38.902735666666665, "is_disabled": 0, "lon": -77.045111}, {"fusion_lat": 0.0, "type": "electric_scooter", "name": "5a67b327c50169c3db2d952151e08bbf", "fusion_lon": 0.0, "bike_id": "5a67b327c50169c3db2d952151e08bbf", "is_reserved": 0, "rental_uris": {"android": "https://dc.lft.to/lastmile_qr_scan", "ios": "https://dc.lft.to/lastmile_qr_scan"}, "lat": 38.866577166666666, "is_disabled": 0, "lon": -76.9887695}, {"fusion_lat": 0.0, "type": "electric_scooter", "name": "423677883ef63401b964a036ceba0b0f", "fusion_lon": 0.0, "bike_id": "423677883ef63401b964a036ceba0b0f", "is_reserved": 0, "rental_uris": {"android": "https://dc.lft.to/lastmile_qr_scan", "ios": "https://dc.lft.to/lastmile_qr_scan"}, "lat": 38.903377166666665, "is_disabled": 0, "lon": -77.02543816666666}, {"fusion_lat": 0.0, "type": "electric_bike", "name": "a5e56ee4f2193819f566e1fdc925eabe", "fusion_lon": 0.0, "bike_id": "a5e56ee4f2193819f566e1fdc925eabe", "is_reserved": 0, "rental_uris": {"android": "https://dc.lft.to/lastmile_qr_scan", "ios": "https://dc.lft.to/lastmile_qr_scan"}, "lat": 38.99344283333333, "is_disabled": 0, "lon": -77.11581633333333}, {"fusion_lat": 0.0, "type": "electric_scooter", "name": "abc25034089f2bef0f9b42442474266c", "fusion_lon": 0.0, "bike_id": "abc25034089f2bef0f9b42442474266c", "is_reserved": 0, "rental_uris": {"android": "https://dc.lft.to/lastmile_qr_scan", "ios": "https://dc.lft.to/lastmile_qr_scan"}, "lat": 38.892976, "is_disabled": 0, "lon": -77.0123435}, {"fusion_lat": 0.0, "type": "electric_scooter", "name": "9406c57307fcec48fde0795ff03a5e80", "fusion_lon": 0.0, "bike_id": "9406c57307fcec48fde0795ff03a5e80", "is_reserved": 0, "rental_uris": {"android": "https://dc.lft.to/lastmile_qr_scan", "ios": "https://dc.lft.to/lastmile_qr_scan"}, "lat": 38.924404, "is_disabled": 0, "lon": -77.029838}, {"fusion_lat": 0.0, "type": "electric_scooter", "name": "598cf152ca33dac19fbf7ca8415f02c9", "fusion_lon": 0.0, "bike_id": "598cf152ca33dac19fbf7ca8415f02c9", "is_reserved": 0, "rental_uris": {"android": "https://dc.lft.to/lastmile_qr_scan", "ios": "https://dc.lft.to/lastmile_qr_scan"}, "lat": 38.930127, "is_disabled": 0, "lon": -77.05523883333333}, {"fusion_lat": 0.0, "type": "electric_scooter", "name": "8549b5eb193a37c28f3996f1cb4ac48d", "fusion_lon": 0.0, "bike_id": "8549b5eb193a37c28f3996f1cb4ac48d", "is_reserved": 0, "rental_uris": {"android": "https://dc.lft.to/lastmile_qr_scan", "ios": "https://dc.lft.to/lastmile_qr_scan"}, "lat": 38.90302783333333, "is_disabled": 0, "lon": -77.04626833333333}, {"fusion_lat": 0.0, "type": "electric_scooter", "name": "d4a1a9f2d2e9e3bd349d4c7adbd022a3", "fusion_lon": 0.0, "bike_id": "d4a1a9f2d2e9e3bd349d4c7adbd022a3", "is_reserved": 0, "rental_uris": {"android": "https://dc.lft.to/lastmile_qr_scan", "ios": "https://dc.lft.to/lastmile_qr_scan"}, "lat": 38.90000833333333, "is_disabled": 0, "lon": -77.03170333333334}, {"fusion_lat": 0.0, "type": "electric_scooter", "name": "61c7bfce2fa7338963d410ac86c8f6d0", "fusion_lon": 0.0, "bike_id": "61c7bfce2fa7338963d410ac86c8f6d0", "is_reserved": 0, "rental_uris": {"android": "https://dc.lft.to/lastmile_qr_scan", "ios": "https://dc.lft.to/lastmile_qr_scan"}, "lat": 38.91729383333333, "is_disabled": 0, "lon": -77.04166}, {"fusion_lat": 0.0, "type": "electric_scooter", "name": "84e9fc542b9b8cf7917d965c43202631", "fusion_lon": 0.0, "bike_id": "84e9fc542b9b8cf7917d965c43202631", "is_reserved": 0, "rental_uris": {"android": "https://dc.lft.to/lastmile_qr_scan", "ios": "https://dc.lft.to/lastmile_qr_scan"}, "lat": 38.927022, "is_disabled": 0, "lon": -77.04119216666666}, {"fusion_lat": 0.0, "type": "electric_bike", "name": "403d30e2ee9b05df5234d1a215206c1a", "fusion_lon": 0.0, "bike_id": "403d30e2ee9b05df5234d1a215206c1a", "is_reserved": 0, "rental_uris": {"android": "https://dc.lft.to/lastmile_qr_scan", "ios": "https://dc.lft.to/lastmile_qr_scan"}, "lat": 38.84556666666667, "is_disabled": 0, "lon": -77.0669215}, {"fusion_lat": 0.0, "type": "electric_scooter", "name": "fadb645a047babc76ee446c4cac79b7a", "fusion_lon": 0.0, "bike_id": "fadb645a047babc76ee446c4cac79b7a", "is_reserved": 0, "rental_uris": {"android": "https://dc.lft.to/lastmile_qr_scan", "ios": "https://dc.lft.to/lastmile_qr_scan"}, "lat": 38.866552, "is_disabled": 0, "lon": -76.98523116666667}, {"fusion_lat": 0.0, "type": "electric_scooter", "name": "b16ea273887213736c903c6d791c7e34", "fusion_lon": 0.0, "bike_id": "b16ea273887213736c903c6d791c7e34", "is_reserved": 0, "rental_uris": {"android": "https://dc.lft.to/lastmile_qr_scan", "ios": "https://dc.lft.to/lastmile_qr_scan"}, "lat": 38.92218366666667, "is_disabled": 0, "lon": -77.04262033333333}, {"fusion_lat": 0.0, "type": "electric_scooter", "name": "8f1297635e9038f32fd5e368c50c686d", "fusion_lon": 0.0, "bike_id": "8f1297635e9038f32fd5e368c50c686d", "is_reserved": 0, "rental_uris": {"android": "https://dc.lft.to/lastmile_qr_scan", "ios": "https://dc.lft.to/lastmile_qr_scan"}, "lat": 38.89246683333333, "is_disabled": 0, "lon": -77.04659016666666}, {"fusion_lat": 0.0, "type": "electric_scooter", "name": "c99bebbf8258c5f40c2b69d2d8decf59", "fusion_lon": 0.0, "bike_id": "c99bebbf8258c5f40c2b69d2d8decf59", "is_reserved": 0, "rental_uris": {"android": "https://dc.lft.to/lastmile_qr_scan", "ios": "https://dc.lft.to/lastmile_qr_scan"}, "lat": 38.93083216666667, "is_disabled": 0, "lon": -77.00407333333334}, {"fusion_lat": 0.0, "type": "electric_scooter", "name": "c2613c8e5162218e3df7f1fc1491f657", "fusion_lon": 0.0, "bike_id": "c2613c8e5162218e3df7f1fc1491f657", "is_reserved": 0, "rental_uris": {"android": "https://dc.lft.to/lastmile_qr_scan", "ios": "https://dc.lft.to/lastmile_qr_scan"}, "lat": 38.90218733333333, "is_disabled": 0, "lon": -77.02645716666666}, {"fusion_lat": 0.0, "type": "electric_scooter", "name": "c4491a7783762f36ddfc8a2f94d41fa5", "fusion_lon": 0.0, "bike_id": "c4491a7783762f36ddfc8a2f94d41fa5", "is_reserved": 0, "rental_uris": {"android": "https://dc.lft.to/lastmile_qr_scan", "ios": "https://dc.lft.to/lastmile_qr_scan"}, "lat": 38.90593166666667, "is_disabled": 0, "lon": -77.02201083333334}, {"fusion_lat": 0.0, "type": "electric_scooter", "name": "2a0f91a86e0508815667722862f76827", "fusion_lon": 0.0, "bike_id": "2a0f91a86e0508815667722862f76827", "is_reserved": 0, "rental_uris": {"android": "https://dc.lft.to/lastmile_qr_scan", "ios": "https://dc.lft.to/lastmile_qr_scan"}, "lat": 38.89217933333333, "is_disabled": 0, "lon": -77.04377116666667}, {"fusion_lat": 0.0, "type": "electric_scooter", "name": "9d130eb68156be68e788859c4499a224", "fusion_lon": 0.0, "bike_id": "9d130eb68156be68e788859c4499a224", "is_reserved": 0, "rental_uris": {"android": "https://dc.lft.to/lastmile_qr_scan", "ios": "https://dc.lft.to/lastmile_qr_scan"}, "lat": 38.91702216666667, "is_disabled": 0, "lon": -77.001116}, {"fusion_lat": 0.0, "type": "electric_scooter", "name": "7fdad1c543c7dacae1747582c35df194", "fusion_lon": 0.0, "bike_id": "7fdad1c543c7dacae1747582c35df194", "is_reserved": 0, "rental_uris": {"android": "https://dc.lft.to/lastmile_qr_scan", "ios": "https://dc.lft.to/lastmile_qr_scan"}, "lat": 38.914591333333334, "is_disabled": 0, "lon": -77.00901383333333}, {"fusion_lat": 0.0, "type": "electric_scooter", "name": "ac5c78c0ecb7daa8ed64981460dfdc2b", "fusion_lon": 0.0, "bike_id": "ac5c78c0ecb7daa8ed64981460dfdc2b", "is_reserved": 0, "rental_uris": {"android": "https://dc.lft.to/lastmile_qr_scan", "ios": "https://dc.lft.to/lastmile_qr_scan"}, "lat": 38.9046, "is_disabled": 0, "lon": -77.0281845}, {"fusion_lat": 0.0, "type": "electric_bike", "name": "162c81a88452d08686cd47d5e7285e09", "fusion_lon": 0.0, "bike_id": "162c81a88452d08686cd47d5e7285e09", "is_reserved": 0, "rental_uris": {"android": "https://dc.lft.to/lastmile_qr_scan", "ios": "https://dc.lft.to/lastmile_qr_scan"}, "lat": 38.959246666666665, "is_disabled": 0, "lon": -76.92544583333333}, {"fusion_lat": 0.0, "type": "electric_scooter", "name": "5373f0635fab49a22e6fe88bc65553a4", "fusion_lon": 0.0, "bike_id": "5373f0635fab49a22e6fe88bc65553a4", "is_reserved": 0, "rental_uris": {"android": "https://dc.lft.to/lastmile_qr_scan", "ios": "https://dc.lft.to/lastmile_qr_scan"}, "lat": 38.88736, "is_disabled": 0, "lon": -77.02585133333334}, {"fusion_lat": 0.0, "type": "electric_scooter", "name": "f35bb9df05bccd67c1cd9248c54fe580", "fusion_lon": 0.0, "bike_id": "f35bb9df05bccd67c1cd9248c54fe580", "is_reserved": 0, "rental_uris": {"android": "https://dc.lft.to/lastmile_qr_scan", "ios": "https://dc.lft.to/lastmile_qr_scan"}, "lat": 38.911925333333336, "is_disabled": 0, "lon": -77.03022716666666}, {"fusion_lat": 0.0, "type": "electric_scooter", "name": "a4bffba683b93caad493da03cc3aae63", "fusion_lon": 0.0, "bike_id": "a4bffba683b93caad493da03cc3aae63", "is_reserved": 0, "rental_uris": {"android": "https://dc.lft.to/lastmile_qr_scan", "ios": "https://dc.lft.to/lastmile_qr_scan"}, "lat": 38.924373333333335, "is_disabled": 0, "lon": -77.05211616666666}, {"fusion_lat": 0.0, "type": "electric_scooter", "name": "c9d9378267d573ea72db383a362d1a73", "fusion_lon": 0.0, "bike_id": "c9d9378267d573ea72db383a362d1a73", "is_reserved": 0, "rental_uris": {"android": "https://dc.lft.to/lastmile_qr_scan", "ios": "https://dc.lft.to/lastmile_qr_scan"}, "lat": 38.89814416666667, "is_disabled": 0, "lon": -77.0436675}, {"fusion_lat": 0.0, "type": "electric_scooter", "name": "f1598a3460cb12fdb9046f4030d5879f", "fusion_lon": 0.0, "bike_id": "f1598a3460cb12fdb9046f4030d5879f", "is_reserved": 0, "rental_uris": {"android": "https://dc.lft.to/lastmile_qr_scan", "ios": "https://dc.lft.to/lastmile_qr_scan"}, "lat": 38.868957333333334, "is_disabled": 0, "lon": -76.98231383333334}, {"fusion_lat": 0.0, "type": "electric_scooter", "name": "38543b431d08cd8f30f8147d22f82d5c", "fusion_lon": 0.0, "bike_id": "38543b431d08cd8f30f8147d22f82d5c", "is_reserved": 0, "rental_uris": {"android": "https://dc.lft.to/lastmile_qr_scan", "ios": "https://dc.lft.to/lastmile_qr_scan"}, "lat": 38.876288, "is_disabled": 0, "lon": -77.0094115}, {"fusion_lat": 0.0, "type": "electric_scooter", "name": "b6bd3272cb9e0505d18e5035e7743134", "fusion_lon": 0.0, "bike_id": "b6bd3272cb9e0505d18e5035e7743134", "is_reserved": 0, "rental_uris": {"android": "https://dc.lft.to/lastmile_qr_scan", "ios": "https://dc.lft.to/lastmile_qr_scan"}, "lat": 38.89349833333333, "is_disabled": 0, "lon": -77.0419495}, {"fusion_lat": 0.0, "type": "electric_scooter", "name": "cdb72049a533afda5c9d60d8851b493f", "fusion_lon": 0.0, "bike_id": "cdb72049a533afda5c9d60d8851b493f", "is_reserved": 0, "rental_uris": {"android": "https://dc.lft.to/lastmile_qr_scan", "ios": "https://dc.lft.to/lastmile_qr_scan"}, "lat": 38.928347333333335, "is_disabled": 0, "lon": -77.01411916666666}, {"fusion_lat": 0.0, "type": "electric_scooter", "name": "bf0242da4d8c5340710d6daf5a4abcf8", "fusion_lon": 0.0, "bike_id": "bf0242da4d8c5340710d6daf5a4abcf8", "is_reserved": 0, "rental_uris": {"android": "https://dc.lft.to/lastmile_qr_scan", "ios": "https://dc.lft.to/lastmile_qr_scan"}, "lat": 38.903669666666666, "is_disabled": 0, "lon": -77.03306133333334}, {"fusion_lat": 0.0, "type": "electric_scooter", "name": "c8e1d273f469182c03a407ab0629255b", "fusion_lon": 0.0, "bike_id": "c8e1d273f469182c03a407ab0629255b", "is_reserved": 0, "rental_uris": {"android": "https://dc.lft.to/lastmile_qr_scan", "ios": "https://dc.lft.to/lastmile_qr_scan"}, "lat": 38.89216066666667, "is_disabled": 0, "lon": -77.043724}, {"fusion_lat": 0.0, "type": "electric_scooter", "name": "0fb160d3daaae91c172a7d81348146fc", "fusion_lon": 0.0, "bike_id": "0fb160d3daaae91c172a7d81348146fc", "is_reserved": 0, "rental_uris": {"android": "https://dc.lft.to/lastmile_qr_scan", "ios": "https://dc.lft.to/lastmile_qr_scan"}, "lat": 38.893661333333334, "is_disabled": 0, "lon": -76.94995866666666}, {"fusion_lat": 0.0, "type": "electric_scooter", "name": "a8ed2323db7c83633b2ac5e6889d7752", "fusion_lon": 0.0, "bike_id": "a8ed2323db7c83633b2ac5e6889d7752", "is_reserved": 0, "rental_uris": {"android": "https://dc.lft.to/lastmile_qr_scan", "ios": "https://dc.lft.to/lastmile_qr_scan"}, "lat": 38.86698766666667, "is_disabled": 0, "lon": -76.98715116666666}, {"fusion_lat": 0.0, "type": "electric_scooter", "name": "82fe16a778d7bf3f3fbe179b09508315", "fusion_lon": 0.0, "bike_id": "82fe16a778d7bf3f3fbe179b09508315", "is_reserved": 0, "rental_uris": {"android": "https://dc.lft.to/lastmile_qr_scan", "ios": "https://dc.lft.to/lastmile_qr_scan"}, "lat": 38.889614333333334, "is_disabled": 0, "lon": -76.93707933333333}, {"fusion_lat": 0.0, "type": "electric_scooter", "name": "4d54ea481ededd5e1f8922c239d7be49", "fusion_lon": 0.0, "bike_id": "4d54ea481ededd5e1f8922c239d7be49", "is_reserved": 0, "rental_uris": {"android": "https://dc.lft.to/lastmile_qr_scan", "ios": "https://dc.lft.to/lastmile_qr_scan"}, "lat": 38.92183266666667, "is_disabled": 0, "lon": -77.04244483333333}, {"fusion_lat": 0.0, "type": "electric_scooter", "name": "ffbdeba609bba522e758befeab4f4ea5", "fusion_lon": 0.0, "bike_id": "ffbdeba609bba522e758befeab4f4ea5", "is_reserved": 0, "rental_uris": {"android": "https://dc.lft.to/lastmile_qr_scan", "ios": "https://dc.lft.to/lastmile_qr_scan"}, "lat": 38.910131, "is_disabled": 0, "lon": -76.99390683333333}, {"fusion_lat": 0.0, "type": "electric_scooter", "name": "e070740529403bf2c457f245f2a0124b", "fusion_lon": 0.0, "bike_id": "e070740529403bf2c457f245f2a0124b", "is_reserved": 0, "rental_uris": {"android": "https://dc.lft.to/lastmile_qr_scan", "ios": "https://dc.lft.to/lastmile_qr_scan"}, "lat": 38.90505816666666, "is_disabled": 0, "lon": -77.040727}, {"fusion_lat": 0.0, "type": "electric_scooter", "name": "4f4dea7c2793d7e5c8d0037bbea2c369", "fusion_lon": 0.0, "bike_id": "4f4dea7c2793d7e5c8d0037bbea2c369", "is_reserved": 0, "rental_uris": {"android": "https://dc.lft.to/lastmile_qr_scan", "ios": "https://dc.lft.to/lastmile_qr_scan"}, "lat": 38.92171733333333, "is_disabled": 0, "lon": -77.04702466666667}, {"fusion_lat": 0.0, "type": "electric_scooter", "name": "8150da485643b3114d720c56b70ac905", "fusion_lon": 0.0, "bike_id": "8150da485643b3114d720c56b70ac905", "is_reserved": 0, "rental_uris": {"android": "https://dc.lft.to/lastmile_qr_scan", "ios": "https://dc.lft.to/lastmile_qr_scan"}, "lat": 38.894267166666666, "is_disabled": 0, "lon": -76.9487885}, {"fusion_lat": 0.0, "type": "electric_scooter", "name": "2a8975107513631fd658f067f492172c", "fusion_lon": 0.0, "bike_id": "2a8975107513631fd658f067f492172c", "is_reserved": 0, "rental_uris": {"android": "https://dc.lft.to/lastmile_qr_scan", "ios": "https://dc.lft.to/lastmile_qr_scan"}, "lat": 38.915383, "is_disabled": 0, "lon": -77.01269966666666}, {"fusion_lat": 0.0, "type": "electric_scooter", "name": "0d9b8d16c901c9ad9dc09c08a0ac461b", "fusion_lon": 0.0, "bike_id": "0d9b8d16c901c9ad9dc09c08a0ac461b", "is_reserved": 0, "rental_uris": {"android": "https://dc.lft.to/lastmile_qr_scan", "ios": "https://dc.lft.to/lastmile_qr_scan"}, "lat": 38.9174785, "is_disabled": 0, "lon": -77.03909416666667}, {"fusion_lat": 0.0, "type": "electric_scooter", "name": "c942b1b2ba97dcaf57007b22fb8c905c", "fusion_lon": 0.0, "bike_id": "c942b1b2ba97dcaf57007b22fb8c905c", "is_reserved": 0, "rental_uris": {"android": "https://dc.lft.to/lastmile_qr_scan", "ios": "https://dc.lft.to/lastmile_qr_scan"}, "lat": 38.9340295, "is_disabled": 0, "lon": -77.04131533333333}, {"fusion_lat": 0.0, "type": "electric_scooter", "name": "32ff80cba6cd998868dd05b041ea9110", "fusion_lon": 0.0, "bike_id": "32ff80cba6cd998868dd05b041ea9110", "is_reserved": 0, "rental_uris": {"android": "https://dc.lft.to/lastmile_qr_scan", "ios": "https://dc.lft.to/lastmile_qr_scan"}, "lat": 38.90115566666667, "is_disabled": 0, "lon": -77.04769966666667}, {"fusion_lat": 0.0, "type": "electric_scooter", "name": "681a04ea1a1a8eb1235783d1e75e2386", "fusion_lon": 0.0, "bike_id": "681a04ea1a1a8eb1235783d1e75e2386", "is_reserved": 0, "rental_uris": {"android": "https://dc.lft.to/lastmile_qr_scan", "ios": "https://dc.lft.to/lastmile_qr_scan"}, "lat": 38.892192333333334, "is_disabled": 0, "lon": -77.04261516666666}, {"fusion_lat": 0.0, "type": "electric_scooter", "name": "5ce8efbb28d439f06859db42be917256", "fusion_lon": 0.0, "bike_id": "5ce8efbb28d439f06859db42be917256", "is_reserved": 0, "rental_uris": {"android": "https://dc.lft.to/lastmile_qr_scan", "ios": "https://dc.lft.to/lastmile_qr_scan"}, "lat": 38.91804966666667, "is_disabled": 0, "lon": -77.02496516666666}, {"fusion_lat": 0.0, "type": "electric_scooter", "name": "317ceb1b06fad02163d6a316d9b912a1", "fusion_lon": 0.0, "bike_id": "317ceb1b06fad02163d6a316d9b912a1", "is_reserved": 0, "rental_uris": {"android": "https://dc.lft.to/lastmile_qr_scan", "ios": "https://dc.lft.to/lastmile_qr_scan"}, "lat": 38.894534, "is_disabled": 0, "lon": -76.99837616666667}, {"fusion_lat": 0.0, "type": "electric_scooter", "name": "e881ade38b1a7b2b4f5fcce15789b9f3", "fusion_lon": 0.0, "bike_id": "e881ade38b1a7b2b4f5fcce15789b9f3", "is_reserved": 0, "rental_uris": {"android": "https://dc.lft.to/lastmile_qr_scan", "ios": "https://dc.lft.to/lastmile_qr_scan"}, "lat": 38.89097833333334, "is_disabled": 0, "lon": -77.0028435}, {"fusion_lat": 0.0, "type": "electric_bike", "name": "d009ae8feb3b3a1a9559e74152c22256", "fusion_lon": 0.0, "bike_id": "d009ae8feb3b3a1a9559e74152c22256", "is_reserved": 0, "rental_uris": {"android": "https://dc.lft.to/lastmile_qr_scan", "ios": "https://dc.lft.to/lastmile_qr_scan"}, "lat": 38.895614, "is_disabled": 0, "lon": -77.127383}, {"fusion_lat": 0.0, "type": "electric_scooter", "name": "c365b6f12ee5181ecbb4fc82a964409f", "fusion_lon": 0.0, "bike_id": "c365b6f12ee5181ecbb4fc82a964409f", "is_reserved": 0, "rental_uris": {"android": "https://dc.lft.to/lastmile_qr_scan", "ios": "https://dc.lft.to/lastmile_qr_scan"}, "lat": 38.919945, "is_disabled": 0, "lon": -77.0219985}, {"fusion_lat": 0.0, "type": "electric_scooter", "name": "98509ae2a086e5000898256cbcbdd863", "fusion_lon": 0.0, "bike_id": "98509ae2a086e5000898256cbcbdd863", "is_reserved": 0, "rental_uris": {"android": "https://dc.lft.to/lastmile_qr_scan", "ios": "https://dc.lft.to/lastmile_qr_scan"}, "lat": 38.863758833333335, "is_disabled": 0, "lon": -76.99061216666666}, {"fusion_lat": 0.0, "type": "electric_scooter", "name": "64c6212326bdba52989317413d217527", "fusion_lon": 0.0, "bike_id": "64c6212326bdba52989317413d217527", "is_reserved": 0, "rental_uris": {"android": "https://dc.lft.to/lastmile_qr_scan", "ios": "https://dc.lft.to/lastmile_qr_scan"}, "lat": 38.924585666666665, "is_disabled": 0, "lon": -77.05755566666667}, {"fusion_lat": 0.0, "type": "electric_scooter", "name": "ae3d9288131f4c5c0b5b1254d19ce055", "fusion_lon": 0.0, "bike_id": "ae3d9288131f4c5c0b5b1254d19ce055", "is_reserved": 0, "rental_uris": {"android": "https://dc.lft.to/lastmile_qr_scan", "ios": "https://dc.lft.to/lastmile_qr_scan"}, "lat": 38.915576, "is_disabled": 0, "lon": -77.02431383333334}, {"fusion_lat": 0.0, "type": "electric_scooter", "name": "0e0f9bfb8d38ae049585aa66be3325c9", "fusion_lon": 0.0, "bike_id": "0e0f9bfb8d38ae049585aa66be3325c9", "is_reserved": 0, "rental_uris": {"android": "https://dc.lft.to/lastmile_qr_scan", "ios": "https://dc.lft.to/lastmile_qr_scan"}, "lat": 38.90192966666667, "is_disabled": 0, "lon": -77.0312015}, {"fusion_lat": 0.0, "type": "electric_scooter", "name": "fb9c32cc088a707764e202d8d1cf4ffc", "fusion_lon": 0.0, "bike_id": "fb9c32cc088a707764e202d8d1cf4ffc", "is_reserved": 0, "rental_uris": {"android": "https://dc.lft.to/lastmile_qr_scan", "ios": "https://dc.lft.to/lastmile_qr_scan"}, "lat": 38.91116016666667, "is_disabled": 0, "lon": -77.02087933333334}, {"fusion_lat": 0.0, "type": "electric_scooter", "name": "83693636315b75b6da534183b1b1fb79", "fusion_lon": 0.0, "bike_id": "83693636315b75b6da534183b1b1fb79", "is_reserved": 0, "rental_uris": {"android": "https://dc.lft.to/lastmile_qr_scan", "ios": "https://dc.lft.to/lastmile_qr_scan"}, "lat": 38.926182, "is_disabled": 0, "lon": -77.04322166666667}, {"fusion_lat": 0.0, "type": "electric_scooter", "name": "313cb6f19e536f1355b3c1ab4960d314", "fusion_lon": 0.0, "bike_id": "313cb6f19e536f1355b3c1ab4960d314", "is_reserved": 0, "rental_uris": {"android": "https://dc.lft.to/lastmile_qr_scan", "ios": "https://dc.lft.to/lastmile_qr_scan"}, "lat": 38.89274316666667, "is_disabled": 0, "lon": -77.04868933333333}, {"fusion_lat": 0.0, "type": "electric_scooter", "name": "bd06f50cbb328fcb309c1e5c4391cc55", "fusion_lon": 0.0, "bike_id": "bd06f50cbb328fcb309c1e5c4391cc55", "is_reserved": 0, "rental_uris": {"android": "https://dc.lft.to/lastmile_qr_scan", "ios": "https://dc.lft.to/lastmile_qr_scan"}, "lat": 38.903718, "is_disabled": 0, "lon": -76.98956616666666}, {"fusion_lat": 0.0, "type": "electric_scooter", "name": "47fc04a11180bee3fb3bc960365d664e", "fusion_lon": 0.0, "bike_id": "47fc04a11180bee3fb3bc960365d664e", "is_reserved": 0, "rental_uris": {"android": "https://dc.lft.to/lastmile_qr_scan", "ios": "https://dc.lft.to/lastmile_qr_scan"}, "lat": 38.90036516666667, "is_disabled": 0, "lon": -77.048695}, {"fusion_lat": 0.0, "type": "electric_scooter", "name": "a329ade426da04f98c2763fb7f4cb011", "fusion_lon": 0.0, "bike_id": "a329ade426da04f98c2763fb7f4cb011", "is_reserved": 0, "rental_uris": {"android": "https://dc.lft.to/lastmile_qr_scan", "ios": "https://dc.lft.to/lastmile_qr_scan"}, "lat": 38.899515666666666, "is_disabled": 0, "lon": -77.0452475}, {"fusion_lat": 0.0, "type": "electric_scooter", "name": "87272c493e54d844ba7bcc56727a9323", "fusion_lon": 0.0, "bike_id": "87272c493e54d844ba7bcc56727a9323", "is_reserved": 0, "rental_uris": {"android": "https://dc.lft.to/lastmile_qr_scan", "ios": "https://dc.lft.to/lastmile_qr_scan"}, "lat": 38.903429833333334, "is_disabled": 0, "lon": -76.98271266666667}, {"fusion_lat": 0.0, "type": "electric_scooter", "name": "78af52a96318fd6733d6ccf192f44a65", "fusion_lon": 0.0, "bike_id": "78af52a96318fd6733d6ccf192f44a65", "is_reserved": 0, "rental_uris": {"android": "https://dc.lft.to/lastmile_qr_scan", "ios": "https://dc.lft.to/lastmile_qr_scan"}, "lat": 38.880444833333335, "is_disabled": 0, "lon": -77.00515883333334}, {"fusion_lat": 0.0, "type": "electric_scooter", "name": "2738fb11d8a70f61067c458aa99f0a93", "fusion_lon": 0.0, "bike_id": "2738fb11d8a70f61067c458aa99f0a93", "is_reserved": 0, "rental_uris": {"android": "https://dc.lft.to/lastmile_qr_scan", "ios": "https://dc.lft.to/lastmile_qr_scan"}, "lat": 38.95735666666667, "is_disabled": 0, "lon": -77.02419283333333}, {"fusion_lat": 0.0, "type": "electric_scooter", "name": "8add21630b895541c46625bf2b317eec", "fusion_lon": 0.0, "bike_id": "8add21630b895541c46625bf2b317eec", "is_reserved": 0, "rental_uris": {"android": "https://dc.lft.to/lastmile_qr_scan", "ios": "https://dc.lft.to/lastmile_qr_scan"}, "lat": 38.90724933333333, "is_disabled": 0, "lon": -76.99812416666667}, {"fusion_lat": 0.0, "type": "electric_scooter", "name": "97b29b7173119de29db031aa2b904f35", "fusion_lon": 0.0, "bike_id": "97b29b7173119de29db031aa2b904f35", "is_reserved": 0, "rental_uris": {"android": "https://dc.lft.to/lastmile_qr_scan", "ios": "https://dc.lft.to/lastmile_qr_scan"}, "lat": 38.905981833333335, "is_disabled": 0, "lon": -77.040203}, {"fusion_lat": 0.0, "type": "electric_scooter", "name": "d09ee23d423905a9168718650f403f4c", "fusion_lon": 0.0, "bike_id": "d09ee23d423905a9168718650f403f4c", "is_reserved": 0, "rental_uris": {"android": "https://dc.lft.to/lastmile_qr_scan", "ios": "https://dc.lft.to/lastmile_qr_scan"}, "lat": 38.93167366666667, "is_disabled": 0, "lon": -77.034198}, {"fusion_lat": 0.0, "type": "electric_bike", "name": "40830548484af989c004a32755425887", "fusion_lon": 0.0, "bike_id": "40830548484af989c004a32755425887", "is_reserved": 0, "rental_uris": {"android": "https://dc.lft.to/lastmile_qr_scan", "ios": "https://dc.lft.to/lastmile_qr_scan"}, "lat": 38.80706216666667, "is_disabled": 0, "lon": -77.0617505}, {"fusion_lat": 0.0, "type": "electric_scooter", "name": "1bf55d3a25dc0161f875c87c74b55986", "fusion_lon": 0.0, "bike_id": "1bf55d3a25dc0161f875c87c74b55986", "is_reserved": 0, "rental_uris": {"android": "https://dc.lft.to/lastmile_qr_scan", "ios": "https://dc.lft.to/lastmile_qr_scan"}, "lat": 38.909274833333335, "is_disabled": 0, "lon": -77.04178583333334}, {"fusion_lat": 0.0, "type": "electric_bike", "name": "b60e59202382e4dc5b4bf7a172ce3dab", "fusion_lon": 0.0, "bike_id": "b60e59202382e4dc5b4bf7a172ce3dab", "is_reserved": 0, "rental_uris": {"android": "https://dc.lft.to/lastmile_qr_scan", "ios": "https://dc.lft.to/lastmile_qr_scan"}, "lat": 38.988565, "is_disabled": 0, "lon": -77.09570316666667}, {"fusion_lat": 0.0, "type": "electric_scooter", "name": "2ba44940dcb8f5712ea2fea6a51a17ce", "fusion_lon": 0.0, "bike_id": "2ba44940dcb8f5712ea2fea6a51a17ce", "is_reserved": 0, "rental_uris": {"android": "https://dc.lft.to/lastmile_qr_scan", "ios": "https://dc.lft.to/lastmile_qr_scan"}, "lat": 38.917145166666664, "is_disabled": 0, "lon": -77.03662966666667}, {"fusion_lat": 0.0, "type": "electric_scooter", "name": "a1048ee86786abba4a94f0aeafc9023c", "fusion_lon": 0.0, "bike_id": "a1048ee86786abba4a94f0aeafc9023c", "is_reserved": 0, "rental_uris": {"android": "https://dc.lft.to/lastmile_qr_scan", "ios": "https://dc.lft.to/lastmile_qr_scan"}, "lat": 38.923234666666666, "is_disabled": 0, "lon": -77.01953816666666}, {"fusion_lat": 0.0, "type": "electric_scooter", "name": "47fbd1b6585908a878156b54c9a590dd", "fusion_lon": 0.0, "bike_id": "47fbd1b6585908a878156b54c9a590dd", "is_reserved": 0, "rental_uris": {"android": "https://dc.lft.to/lastmile_qr_scan", "ios": "https://dc.lft.to/lastmile_qr_scan"}, "lat": 38.927691333333335, "is_disabled": 0, "lon": -77.020642}, {"fusion_lat": 0.0, "type": "electric_scooter", "name": "7cf84976b5efd044e90069e3f8ed0604", "fusion_lon": 0.0, "bike_id": "7cf84976b5efd044e90069e3f8ed0604", "is_reserved": 0, "rental_uris": {"android": "https://dc.lft.to/lastmile_qr_scan", "ios": "https://dc.lft.to/lastmile_qr_scan"}, "lat": 38.903883, "is_disabled": 0, "lon": -77.0348655}, {"fusion_lat": 0.0, "type": "electric_scooter", "name": "2478d6181940f57bbcdaf82374bd942b", "fusion_lon": 0.0, "bike_id": "2478d6181940f57bbcdaf82374bd942b", "is_reserved": 0, "rental_uris": {"android": "https://dc.lft.to/lastmile_qr_scan", "ios": "https://dc.lft.to/lastmile_qr_scan"}, "lat": 38.917444, "is_disabled": 0, "lon": -77.03181983333333}, {"fusion_lat": 0.0, "type": "electric_scooter", "name": "fb28fabee6875d40ed23b196f9b65eae", "fusion_lon": 0.0, "bike_id": "fb28fabee6875d40ed23b196f9b65eae", "is_reserved": 0, "rental_uris": {"android": "https://dc.lft.to/lastmile_qr_scan", "ios": "https://dc.lft.to/lastmile_qr_scan"}, "lat": 38.91258216666667, "is_disabled": 0, "lon": -77.03831216666667}, {"fusion_lat": 0.0, "type": "electric_bike", "name": "f288c7bce72223fc063a07738539e301", "fusion_lon": 0.0, "bike_id": "f288c7bce72223fc063a07738539e301", "is_reserved": 0, "rental_uris": {"android": "https://dc.lft.to/lastmile_qr_scan", "ios": "https://dc.lft.to/lastmile_qr_scan"}, "lat": 38.9047805, "is_disabled": 0, "lon": -76.973314}, {"fusion_lat": 0.0, "type": "electric_scooter", "name": "333e9dda7d7079186083111ababc878f", "fusion_lon": 0.0, "bike_id": "333e9dda7d7079186083111ababc878f", "is_reserved": 0, "rental_uris": {"android": "https://dc.lft.to/lastmile_qr_scan", "ios": "https://dc.lft.to/lastmile_qr_scan"}, "lat": 38.90729366666667, "is_disabled": 0, "lon": -77.04534166666667}, {"fusion_lat": 0.0, "type": "electric_scooter", "name": "0036cb2018b77505417790ec1a2b7f21", "fusion_lon": 0.0, "bike_id": "0036cb2018b77505417790ec1a2b7f21", "is_reserved": 0, "rental_uris": {"android": "https://dc.lft.to/lastmile_qr_scan", "ios": "https://dc.lft.to/lastmile_qr_scan"}, "lat": 38.866979, "is_disabled": 0, "lon": -76.98596}, {"fusion_lat": 0.0, "type": "electric_scooter", "name": "b7f131c9de1bd74c80db754c135a457f", "fusion_lon": 0.0, "bike_id": "b7f131c9de1bd74c80db754c135a457f", "is_reserved": 0, "rental_uris": {"android": "https://dc.lft.to/lastmile_qr_scan", "ios": "https://dc.lft.to/lastmile_qr_scan"}, "lat": 38.897375, "is_disabled": 0, "lon": -77.00986483333334}, {"fusion_lat": 0.0, "type": "electric_scooter", "name": "820bba1eccb9b07e662ca816f40c3e19", "fusion_lon": 0.0, "bike_id": "820bba1eccb9b07e662ca816f40c3e19", "is_reserved": 0, "rental_uris": {"android": "https://dc.lft.to/lastmile_qr_scan", "ios": "https://dc.lft.to/lastmile_qr_scan"}, "lat": 38.90981883333333, "is_disabled": 0, "lon": -77.02175266666667}, {"fusion_lat": 0.0, "type": "electric_scooter", "name": "969d9b352a874ef97c9c98c9fa62f3dc", "fusion_lon": 0.0, "bike_id": "969d9b352a874ef97c9c98c9fa62f3dc", "is_reserved": 0, "rental_uris": {"android": "https://dc.lft.to/lastmile_qr_scan", "ios": "https://dc.lft.to/lastmile_qr_scan"}, "lat": 38.900103, "is_disabled": 0, "lon": -76.930318}, {"fusion_lat": 0.0, "type": "electric_scooter", "name": "8e4029d4b72936fcfe3ff2a7cfd3bd7b", "fusion_lon": 0.0, "bike_id": "8e4029d4b72936fcfe3ff2a7cfd3bd7b", "is_reserved": 0, "rental_uris": {"android": "https://dc.lft.to/lastmile_qr_scan", "ios": "https://dc.lft.to/lastmile_qr_scan"}, "lat": 38.924405166666666, "is_disabled": 0, "lon": -77.03403816666666}, {"fusion_lat": 0.0, "type": "electric_scooter", "name": "14c5a44a6a7b3eeceb8ad026488a953a", "fusion_lon": 0.0, "bike_id": "14c5a44a6a7b3eeceb8ad026488a953a", "is_reserved": 0, "rental_uris": {"android": "https://dc.lft.to/lastmile_qr_scan", "ios": "https://dc.lft.to/lastmile_qr_scan"}, "lat": 38.89239333333333, "is_disabled": 0, "lon": -77.01320633333333}, {"fusion_lat": 0.0, "type": "electric_scooter", "name": "73c44ba685a45e0552a97880ba316c24", "fusion_lon": 0.0, "bike_id": "73c44ba685a45e0552a97880ba316c24", "is_reserved": 0, "rental_uris": {"android": "https://dc.lft.to/lastmile_qr_scan", "ios": "https://dc.lft.to/lastmile_qr_scan"}, "lat": 38.93408866666667, "is_disabled": 0, "lon": -77.072422}, {"fusion_lat": 0.0, "type": "electric_scooter", "name": "58485019ebdfaa848aa100e23df3b9d9", "fusion_lon": 0.0, "bike_id": "58485019ebdfaa848aa100e23df3b9d9", "is_reserved": 0, "rental_uris": {"android": "https://dc.lft.to/lastmile_qr_scan", "ios": "https://dc.lft.to/lastmile_qr_scan"}, "lat": 38.925336333333334, "is_disabled": 0, "lon": -76.97225016666667}, {"fusion_lat": 0.0, "type": "electric_scooter", "name": "57c5128c78dac8f8cbe88b679e33dfc5", "fusion_lon": 0.0, "bike_id": "57c5128c78dac8f8cbe88b679e33dfc5", "is_reserved": 0, "rental_uris": {"android": "https://dc.lft.to/lastmile_qr_scan", "ios": "https://dc.lft.to/lastmile_qr_scan"}, "lat": 38.91837483333333, "is_disabled": 0, "lon": -77.03526816666667}, {"fusion_lat": 0.0, "type": "electric_scooter", "name": "8b2a3f7d534d5948856a8883c6ebaca5", "fusion_lon": 0.0, "bike_id": "8b2a3f7d534d5948856a8883c6ebaca5", "is_reserved": 0, "rental_uris": {"android": "https://dc.lft.to/lastmile_qr_scan", "ios": "https://dc.lft.to/lastmile_qr_scan"}, "lat": 38.89229916666667, "is_disabled": 0, "lon": -77.02382516666667}, {"fusion_lat": 0.0, "type": "electric_scooter", "name": "235bcd47aa38230278885d65dc54ba6c", "fusion_lon": 0.0, "bike_id": "235bcd47aa38230278885d65dc54ba6c", "is_reserved": 0, "rental_uris": {"android": "https://dc.lft.to/lastmile_qr_scan", "ios": "https://dc.lft.to/lastmile_qr_scan"}, "lat": 38.894156833333334, "is_disabled": 0, "lon": -77.02419833333333}, {"fusion_lat": 0.0, "type": "electric_scooter", "name": "6fc7c46fcf1334d81678bc62ce42ec14", "fusion_lon": 0.0, "bike_id": "6fc7c46fcf1334d81678bc62ce42ec14", "is_reserved": 0, "rental_uris": {"android": "https://dc.lft.to/lastmile_qr_scan", "ios": "https://dc.lft.to/lastmile_qr_scan"}, "lat": 38.92810133333333, "is_disabled": 0, "lon": -77.05447133333334}, {"fusion_lat": 0.0, "type": "electric_scooter", "name": "6e798d98a2dc651274b1861cd6c64b46", "fusion_lon": 0.0, "bike_id": "6e798d98a2dc651274b1861cd6c64b46", "is_reserved": 0, "rental_uris": {"android": "https://dc.lft.to/lastmile_qr_scan", "ios": "https://dc.lft.to/lastmile_qr_scan"}, "lat": 38.94981933333333, "is_disabled": 0, "lon": -77.02716566666666}, {"fusion_lat": 0.0, "type": "electric_scooter", "name": "136021cd5e19ed3024eaa8f77c092aa3", "fusion_lon": 0.0, "bike_id": "136021cd5e19ed3024eaa8f77c092aa3", "is_reserved": 0, "rental_uris": {"android": "https://dc.lft.to/lastmile_qr_scan", "ios": "https://dc.lft.to/lastmile_qr_scan"}, "lat": 38.866664, "is_disabled": 0, "lon": -76.98518233333333}, {"fusion_lat": 0.0, "type": "electric_scooter", "name": "8b12ddc77bd2e9a8551a3872e0d2806e", "fusion_lon": 0.0, "bike_id": "8b12ddc77bd2e9a8551a3872e0d2806e", "is_reserved": 0, "rental_uris": {"android": "https://dc.lft.to/lastmile_qr_scan", "ios": "https://dc.lft.to/lastmile_qr_scan"}, "lat": 38.982631833333336, "is_disabled": 0, "lon": -77.0259775}, {"fusion_lat": 0.0, "type": "electric_scooter", "name": "fb05c6d9776f893dfb7ed7840adc2655", "fusion_lon": 0.0, "bike_id": "fb05c6d9776f893dfb7ed7840adc2655", "is_reserved": 0, "rental_uris": {"android": "https://dc.lft.to/lastmile_qr_scan", "ios": "https://dc.lft.to/lastmile_qr_scan"}, "lat": 38.89827733333333, "is_disabled": 0, "lon": -77.00766183333333}, {"fusion_lat": 0.0, "type": "electric_bike", "name": "45306c287f3850e271f22dda4ae59b74", "fusion_lon": 0.0, "bike_id": "45306c287f3850e271f22dda4ae59b74", "is_reserved": 0, "rental_uris": {"android": "https://dc.lft.to/lastmile_qr_scan", "ios": "https://dc.lft.to/lastmile_qr_scan"}, "lat": 38.86532666666667, "is_disabled": 0, "lon": -76.9734065}, {"fusion_lat": 0.0, "type": "electric_scooter", "name": "74903236aced64948ddfc90a50830d77", "fusion_lon": 0.0, "bike_id": "74903236aced64948ddfc90a50830d77", "is_reserved": 0, "rental_uris": {"android": "https://dc.lft.to/lastmile_qr_scan", "ios": "https://dc.lft.to/lastmile_qr_scan"}, "lat": 38.90029633333333, "is_disabled": 0, "lon": -76.980658}, {"fusion_lat": 0.0, "type": "electric_scooter", "name": "3653cc5eaaae19e62c05ad8fe59919c2", "fusion_lon": 0.0, "bike_id": "3653cc5eaaae19e62c05ad8fe59919c2", "is_reserved": 0, "rental_uris": {"android": "https://dc.lft.to/lastmile_qr_scan", "ios": "https://dc.lft.to/lastmile_qr_scan"}, "lat": 38.92478233333333, "is_disabled": 0, "lon": -77.0224785}, {"fusion_lat": 0.0, "type": "electric_scooter", "name": "a59e75a071eef71c9146e51cc37e073e", "fusion_lon": 0.0, "bike_id": "a59e75a071eef71c9146e51cc37e073e", "is_reserved": 0, "rental_uris": {"android": "https://dc.lft.to/lastmile_qr_scan", "ios": "https://dc.lft.to/lastmile_qr_scan"}, "lat": 38.941686, "is_disabled": 0, "lon": -77.02554666666667}, {"fusion_lat": 0.0, "type": "electric_bike", "name": "1f40e88465ed6e65ad5684badef6cd0d", "fusion_lon": 0.0, "bike_id": "1f40e88465ed6e65ad5684badef6cd0d", "is_reserved": 0, "rental_uris": {"android": "https://dc.lft.to/lastmile_qr_scan", "ios": "https://dc.lft.to/lastmile_qr_scan"}, "lat": 38.98155233333333, "is_disabled": 0, "lon": -77.02643983333333}, {"fusion_lat": 0.0, "type": "electric_bike", "name": "480dd7fb7076ba7cee3fcc3ab6514f12", "fusion_lon": 0.0, "bike_id": "480dd7fb7076ba7cee3fcc3ab6514f12", "is_reserved": 0, "rental_uris": {"android": "https://dc.lft.to/lastmile_qr_scan", "ios": "https://dc.lft.to/lastmile_qr_scan"}, "lat": 38.859342833333336, "is_disabled": 0, "lon": -77.11834833333333}, {"fusion_lat": 0.0, "type": "electric_scooter", "name": "5f5a651a49366e87271c7f9dfcad714f", "fusion_lon": 0.0, "bike_id": "5f5a651a49366e87271c7f9dfcad714f", "is_reserved": 0, "rental_uris": {"android": "https://dc.lft.to/lastmile_qr_scan", "ios": "https://dc.lft.to/lastmile_qr_scan"}, "lat": 38.88712733333333, "is_disabled": 0, "lon": -77.02205183333334}, {"fusion_lat": 0.0, "type": "electric_scooter", "name": "94f5a176ef4956f9071fc32399bf7e3d", "fusion_lon": 0.0, "bike_id": "94f5a176ef4956f9071fc32399bf7e3d", "is_reserved": 0, "rental_uris": {"android": "https://dc.lft.to/lastmile_qr_scan", "ios": "https://dc.lft.to/lastmile_qr_scan"}, "lat": 38.88609116666667, "is_disabled": 0, "lon": -77.00135833333333}, {"fusion_lat": 0.0, "type": "electric_scooter", "name": "aa68d30e07ef282d9ef59a46ca0f6f78", "fusion_lon": 0.0, "bike_id": "aa68d30e07ef282d9ef59a46ca0f6f78", "is_reserved": 0, "rental_uris": {"android": "https://dc.lft.to/lastmile_qr_scan", "ios": "https://dc.lft.to/lastmile_qr_scan"}, "lat": 38.92146833333334, "is_disabled": 0, "lon": -77.033864}, {"fusion_lat": 0.0, "type": "electric_scooter", "name": "2bcb56c56c3c9c55e1066219e272c4e0", "fusion_lon": 0.0, "bike_id": "2bcb56c56c3c9c55e1066219e272c4e0", "is_reserved": 0, "rental_uris": {"android": "https://dc.lft.to/lastmile_qr_scan", "ios": "https://dc.lft.to/lastmile_qr_scan"}, "lat": 38.864697166666666, "is_disabled": 0, "lon": -76.98224016666667}, {"fusion_lat": 0.0, "type": "electric_scooter", "name": "bef631bd469a2bc803952f531981314f", "fusion_lon": 0.0, "bike_id": "bef631bd469a2bc803952f531981314f", "is_reserved": 0, "rental_uris": {"android": "https://dc.lft.to/lastmile_qr_scan", "ios": "https://dc.lft.to/lastmile_qr_scan"}, "lat": 38.94428766666667, "is_disabled": 0, "lon": -77.02604966666667}, {"fusion_lat": 0.0, "type": "electric_scooter", "name": "f1f4e6065d119e0429ec590c127dd9b0", "fusion_lon": 0.0, "bike_id": "f1f4e6065d119e0429ec590c127dd9b0", "is_reserved": 0, "rental_uris": {"android": "https://dc.lft.to/lastmile_qr_scan", "ios": "https://dc.lft.to/lastmile_qr_scan"}, "lat": 38.892306833333336, "is_disabled": 0, "lon": -77.03185583333334}, {"fusion_lat": 0.0, "type": "electric_scooter", "name": "1090110ae1b8e84fad24a2c5411cb934", "fusion_lon": 0.0, "bike_id": "1090110ae1b8e84fad24a2c5411cb934", "is_reserved": 0, "rental_uris": {"android": "https://dc.lft.to/lastmile_qr_scan", "ios": "https://dc.lft.to/lastmile_qr_scan"}, "lat": 38.9207585, "is_disabled": 0, "lon": -77.02425533333333}, {"fusion_lat": 0.0, "type": "electric_scooter", "name": "82dc69daa82aff65d6284778cf8fcd1b", "fusion_lon": 0.0, "bike_id": "82dc69daa82aff65d6284778cf8fcd1b", "is_reserved": 0, "rental_uris": {"android": "https://dc.lft.to/lastmile_qr_scan", "ios": "https://dc.lft.to/lastmile_qr_scan"}, "lat": 38.90546633333334, "is_disabled": 0, "lon": -77.03251166666666}, {"fusion_lat": 0.0, "type": "electric_scooter", "name": "41f820646053b9a9fbe38a1076cab582", "fusion_lon": 0.0, "bike_id": "41f820646053b9a9fbe38a1076cab582", "is_reserved": 0, "rental_uris": {"android": "https://dc.lft.to/lastmile_qr_scan", "ios": "https://dc.lft.to/lastmile_qr_scan"}, "lat": 38.8553655, "is_disabled": 0, "lon": -76.98419916666667}, {"fusion_lat": 0.0, "type": "electric_scooter", "name": "d4f6a4da4d379b3c3b1c74f643ca3840", "fusion_lon": 0.0, "bike_id": "d4f6a4da4d379b3c3b1c74f643ca3840", "is_reserved": 0, "rental_uris": {"android": "https://dc.lft.to/lastmile_qr_scan", "ios": "https://dc.lft.to/lastmile_qr_scan"}, "lat": 38.9008055, "is_disabled": 0, "lon": -76.93019383333333}, {"fusion_lat": 0.0, "type": "electric_scooter", "name": "346802174e545526b4a7a9eb4ebbe323", "fusion_lon": 0.0, "bike_id": "346802174e545526b4a7a9eb4ebbe323", "is_reserved": 0, "rental_uris": {"android": "https://dc.lft.to/lastmile_qr_scan", "ios": "https://dc.lft.to/lastmile_qr_scan"}, "lat": 38.90254916666667, "is_disabled": 0, "lon": -77.02595416666666}, {"fusion_lat": 0.0, "type": "electric_scooter", "name": "2f0db33eda9a1827c5da351706d5f8f2", "fusion_lon": 0.0, "bike_id": "2f0db33eda9a1827c5da351706d5f8f2", "is_reserved": 0, "rental_uris": {"android": "https://dc.lft.to/lastmile_qr_scan", "ios": "https://dc.lft.to/lastmile_qr_scan"}, "lat": 38.90248016666666, "is_disabled": 0, "lon": -77.00196533333333}, {"fusion_lat": 0.0, "type": "electric_scooter", "name": "80993bc8b90fe448fea4509e16673e2e", "fusion_lon": 0.0, "bike_id": "80993bc8b90fe448fea4509e16673e2e", "is_reserved": 0, "rental_uris": {"android": "https://dc.lft.to/lastmile_qr_scan", "ios": "https://dc.lft.to/lastmile_qr_scan"}, "lat": 38.87210233333333, "is_disabled": 0, "lon": -76.97834583333334}, {"fusion_lat": 0.0, "type": "electric_scooter", "name": "f07ca4c7ac2aa590a02cb16f0c773649", "fusion_lon": 0.0, "bike_id": "f07ca4c7ac2aa590a02cb16f0c773649", "is_reserved": 0, "rental_uris": {"android": "https://dc.lft.to/lastmile_qr_scan", "ios": "https://dc.lft.to/lastmile_qr_scan"}, "lat": 38.8848165, "is_disabled": 0, "lon": -76.92617333333334}, {"fusion_lat": 0.0, "type": "electric_scooter", "name": "f9c4a22aec89d6a1744e4af061424868", "fusion_lon": 0.0, "bike_id": "f9c4a22aec89d6a1744e4af061424868", "is_reserved": 0, "rental_uris": {"android": "https://dc.lft.to/lastmile_qr_scan", "ios": "https://dc.lft.to/lastmile_qr_scan"}, "lat": 38.8832585, "is_disabled": 0, "lon": -77.01753216666667}, {"fusion_lat": 0.0, "type": "electric_scooter", "name": "98e6d5897995ece4fb058c1f447758ff", "fusion_lon": 0.0, "bike_id": "98e6d5897995ece4fb058c1f447758ff", "is_reserved": 0, "rental_uris": {"android": "https://dc.lft.to/lastmile_qr_scan", "ios": "https://dc.lft.to/lastmile_qr_scan"}, "lat": 38.897375, "is_disabled": 0, "lon": -77.027109}, {"fusion_lat": 0.0, "type": "electric_scooter", "name": "ffc62d4a08747c7449af56f9ec12b504", "fusion_lon": 0.0, "bike_id": "ffc62d4a08747c7449af56f9ec12b504", "is_reserved": 0, "rental_uris": {"android": "https://dc.lft.to/lastmile_qr_scan", "ios": "https://dc.lft.to/lastmile_qr_scan"}, "lat": 38.950626, "is_disabled": 0, "lon": -77.08020866666666}, {"fusion_lat": 0.0, "type": "electric_scooter", "name": "37b72eff89941e9d6acd8f4e43f6c97a", "fusion_lon": 0.0, "bike_id": "37b72eff89941e9d6acd8f4e43f6c97a", "is_reserved": 0, "rental_uris": {"android": "https://dc.lft.to/lastmile_qr_scan", "ios": "https://dc.lft.to/lastmile_qr_scan"}, "lat": 38.89272716666667, "is_disabled": 0, "lon": -77.04875566666666}, {"fusion_lat": 0.0, "type": "electric_scooter", "name": "c7c2649a058ef0f441d0636150cba112", "fusion_lon": 0.0, "bike_id": "c7c2649a058ef0f441d0636150cba112", "is_reserved": 0, "rental_uris": {"android": "https://dc.lft.to/lastmile_qr_scan", "ios": "https://dc.lft.to/lastmile_qr_scan"}, "lat": 38.904635166666665, "is_disabled": 0, "lon": -76.98045483333334}, {"fusion_lat": 0.0, "type": "electric_scooter", "name": "e633b01eef4d69997028abdde5424fba", "fusion_lon": 0.0, "bike_id": "e633b01eef4d69997028abdde5424fba", "is_reserved": 0, "rental_uris": {"android": "https://dc.lft.to/lastmile_qr_scan", "ios": "https://dc.lft.to/lastmile_qr_scan"}, "lat": 38.928199666666664, "is_disabled": 0, "lon": -77.02156983333333}, {"fusion_lat": 0.0, "type": "electric_scooter", "name": "aed4f755a2a1294021f6f263dc3e8ac8", "fusion_lon": 0.0, "bike_id": "aed4f755a2a1294021f6f263dc3e8ac8", "is_reserved": 0, "rental_uris": {"android": "https://dc.lft.to/lastmile_qr_scan", "ios": "https://dc.lft.to/lastmile_qr_scan"}, "lat": 38.89911566666667, "is_disabled": 0, "lon": -76.933505}, {"fusion_lat": 0.0, "type": "electric_scooter", "name": "16c5f092c0b686a7e4b75691a25f3e36", "fusion_lon": 0.0, "bike_id": "16c5f092c0b686a7e4b75691a25f3e36", "is_reserved": 0, "rental_uris": {"android": "https://dc.lft.to/lastmile_qr_scan", "ios": "https://dc.lft.to/lastmile_qr_scan"}, "lat": 38.90362483333333, "is_disabled": 0, "lon": -77.03293883333333}, {"fusion_lat": 0.0, "type": "electric_scooter", "name": "2793facdd09243c565c9590f19b77e82", "fusion_lon": 0.0, "bike_id": "2793facdd09243c565c9590f19b77e82", "is_reserved": 0, "rental_uris": {"android": "https://dc.lft.to/lastmile_qr_scan", "ios": "https://dc.lft.to/lastmile_qr_scan"}, "lat": 38.894711, "is_disabled": 0, "lon": -77.00986083333333}, {"fusion_lat": 0.0, "type": "electric_scooter", "name": "40398bca7d1855e81498792edf59e82e", "fusion_lon": 0.0, "bike_id": "40398bca7d1855e81498792edf59e82e", "is_reserved": 0, "rental_uris": {"android": "https://dc.lft.to/lastmile_qr_scan", "ios": "https://dc.lft.to/lastmile_qr_scan"}, "lat": 38.91564266666666, "is_disabled": 0, "lon": -77.03845266666667}, {"fusion_lat": 0.0, "type": "electric_scooter", "name": "d6776c2c3904c36647c1a0093e37e968", "fusion_lon": 0.0, "bike_id": "d6776c2c3904c36647c1a0093e37e968", "is_reserved": 0, "rental_uris": {"android": "https://dc.lft.to/lastmile_qr_scan", "ios": "https://dc.lft.to/lastmile_qr_scan"}, "lat": 38.910933666666665, "is_disabled": 0, "lon": -77.04484366666667}, {"fusion_lat": 0.0, "type": "electric_scooter", "name": "6773fba9c16ffc1762860d1370305eda", "fusion_lon": 0.0, "bike_id": "6773fba9c16ffc1762860d1370305eda", "is_reserved": 0, "rental_uris": {"android": "https://dc.lft.to/lastmile_qr_scan", "ios": "https://dc.lft.to/lastmile_qr_scan"}, "lat": 38.903718, "is_disabled": 0, "lon": -77.03180766666667}, {"fusion_lat": 0.0, "type": "electric_scooter", "name": "c737be377de6f290843240f1782c8912", "fusion_lon": 0.0, "bike_id": "c737be377de6f290843240f1782c8912", "is_reserved": 0, "rental_uris": {"android": "https://dc.lft.to/lastmile_qr_scan", "ios": "https://dc.lft.to/lastmile_qr_scan"}, "lat": 38.93952266666667, "is_disabled": 0, "lon": -77.0251345}, {"fusion_lat": 0.0, "type": "electric_scooter", "name": "c429e434ee883982488217f1e640b39f", "fusion_lon": 0.0, "bike_id": "c429e434ee883982488217f1e640b39f", "is_reserved": 0, "rental_uris": {"android": "https://dc.lft.to/lastmile_qr_scan", "ios": "https://dc.lft.to/lastmile_qr_scan"}, "lat": 38.880757333333335, "is_disabled": 0, "lon": -77.02589566666667}, {"fusion_lat": 0.0, "type": "electric_scooter", "name": "9a5ff2bdef00f2f92b75af9074e763b4", "fusion_lon": 0.0, "bike_id": "9a5ff2bdef00f2f92b75af9074e763b4", "is_reserved": 0, "rental_uris": {"android": "https://dc.lft.to/lastmile_qr_scan", "ios": "https://dc.lft.to/lastmile_qr_scan"}, "lat": 38.899853, "is_disabled": 0, "lon": -77.00120383333334}, {"fusion_lat": 0.0, "type": "electric_scooter", "name": "719fbb0e070064975ed93a321de7bc76", "fusion_lon": 0.0, "bike_id": "719fbb0e070064975ed93a321de7bc76", "is_reserved": 0, "rental_uris": {"android": "https://dc.lft.to/lastmile_qr_scan", "ios": "https://dc.lft.to/lastmile_qr_scan"}, "lat": 38.9119365, "is_disabled": 0, "lon": -77.03457566666667}, {"fusion_lat": 0.0, "type": "electric_scooter", "name": "c787b8c8f2cce81642144dd0e94317d1", "fusion_lon": 0.0, "bike_id": "c787b8c8f2cce81642144dd0e94317d1", "is_reserved": 0, "rental_uris": {"android": "https://dc.lft.to/lastmile_qr_scan", "ios": "https://dc.lft.to/lastmile_qr_scan"}, "lat": 38.883153166666666, "is_disabled": 0, "lon": -77.017456}, {"fusion_lat": 0.0, "type": "electric_scooter", "name": "4955a6762a3c663ab1e5512c41c86b53", "fusion_lon": 0.0, "bike_id": "4955a6762a3c663ab1e5512c41c86b53", "is_reserved": 0, "rental_uris": {"android": "https://dc.lft.to/lastmile_qr_scan", "ios": "https://dc.lft.to/lastmile_qr_scan"}, "lat": 38.996098333333336, "is_disabled": 0, "lon": -77.032139}, {"fusion_lat": 0.0, "type": "electric_scooter", "name": "59213949d380889624d70fd88bb7dc87", "fusion_lon": 0.0, "bike_id": "59213949d380889624d70fd88bb7dc87", "is_reserved": 0, "rental_uris": {"android": "https://dc.lft.to/lastmile_qr_scan", "ios": "https://dc.lft.to/lastmile_qr_scan"}, "lat": 38.862378166666666, "is_disabled": 0, "lon": -76.99479666666667}, {"fusion_lat": 0.0, "type": "electric_scooter", "name": "9cafe5960055b80d260e2973b996853f", "fusion_lon": 0.0, "bike_id": "9cafe5960055b80d260e2973b996853f", "is_reserved": 0, "rental_uris": {"android": "https://dc.lft.to/lastmile_qr_scan", "ios": "https://dc.lft.to/lastmile_qr_scan"}, "lat": 38.89326583333333, "is_disabled": 0, "lon": -77.04676266666667}, {"fusion_lat": 0.0, "type": "electric_scooter", "name": "3e7f49924ab7b26636556a5166e6f6a2", "fusion_lon": 0.0, "bike_id": "3e7f49924ab7b26636556a5166e6f6a2", "is_reserved": 0, "rental_uris": {"android": "https://dc.lft.to/lastmile_qr_scan", "ios": "https://dc.lft.to/lastmile_qr_scan"}, "lat": 38.915076, "is_disabled": 0, "lon": -77.04342516666667}, {"fusion_lat": 0.0, "type": "electric_scooter", "name": "67383a9470b232aaa6ba21172b91544f", "fusion_lon": 0.0, "bike_id": "67383a9470b232aaa6ba21172b91544f", "is_reserved": 0, "rental_uris": {"android": "https://dc.lft.to/lastmile_qr_scan", "ios": "https://dc.lft.to/lastmile_qr_scan"}, "lat": 38.896093, "is_disabled": 0, "lon": -77.0497925}, {"fusion_lat": 0.0, "type": "electric_bike", "name": "16eecaff9c02b4c901e334bb7c2b6c1f", "fusion_lon": 0.0, "bike_id": "16eecaff9c02b4c901e334bb7c2b6c1f", "is_reserved": 0, "rental_uris": {"android": "https://dc.lft.to/lastmile_qr_scan", "ios": "https://dc.lft.to/lastmile_qr_scan"}, "lat": 38.82375566666666, "is_disabled": 0, "lon": -77.00229566666667}, {"fusion_lat": 0.0, "type": "electric_bike", "name": "ad3bf038a714ff535160c8db8afc36c2", "fusion_lon": 0.0, "bike_id": "ad3bf038a714ff535160c8db8afc36c2", "is_reserved": 0, "rental_uris": {"android": "https://dc.lft.to/lastmile_qr_scan", "ios": "https://dc.lft.to/lastmile_qr_scan"}, "lat": 38.85276283333334, "is_disabled": 0, "lon": -76.99581783333333}, {"fusion_lat": 0.0, "type": "electric_scooter", "name": "c4bfefea2b534870432b32ccda46951d", "fusion_lon": 0.0, "bike_id": "c4bfefea2b534870432b32ccda46951d", "is_reserved": 0, "rental_uris": {"android": "https://dc.lft.to/lastmile_qr_scan", "ios": "https://dc.lft.to/lastmile_qr_scan"}, "lat": 38.927443833333335, "is_disabled": 0, "lon": -77.03634966666667}, {"fusion_lat": 0.0, "type": "electric_scooter", "name": "2db49fa0857e16d81d6706cfdc145c4e", "fusion_lon": 0.0, "bike_id": "2db49fa0857e16d81d6706cfdc145c4e", "is_reserved": 0, "rental_uris": {"android": "https://dc.lft.to/lastmile_qr_scan", "ios": "https://dc.lft.to/lastmile_qr_scan"}, "lat": 38.950698833333334, "is_disabled": 0, "lon": -76.99562883333333}, {"fusion_lat": 0.0, "type": "electric_scooter", "name": "2156474e655b9d8098ce274dc28a2967", "fusion_lon": 0.0, "bike_id": "2156474e655b9d8098ce274dc28a2967", "is_reserved": 0, "rental_uris": {"android": "https://dc.lft.to/lastmile_qr_scan", "ios": "https://dc.lft.to/lastmile_qr_scan"}, "lat": 38.908333166666665, "is_disabled": 0, "lon": -77.07436416666667}, {"fusion_lat": 0.0, "type": "electric_bike", "name": "1bcefc185cc8e6414eb8a0541449205f", "fusion_lon": 0.0, "bike_id": "1bcefc185cc8e6414eb8a0541449205f", "is_reserved": 0, "rental_uris": {"android": "https://dc.lft.to/lastmile_qr_scan", "ios": "https://dc.lft.to/lastmile_qr_scan"}, "lat": 38.972462, "is_disabled": 0, "lon": -76.99277516666666}, {"fusion_lat": 0.0, "type": "electric_scooter", "name": "e219f3d527afe967a46aa375429b2372", "fusion_lon": 0.0, "bike_id": "e219f3d527afe967a46aa375429b2372", "is_reserved": 0, "rental_uris": {"android": "https://dc.lft.to/lastmile_qr_scan", "ios": "https://dc.lft.to/lastmile_qr_scan"}, "lat": 38.90746516666667, "is_disabled": 0, "lon": -77.04502316666667}, {"fusion_lat": 0.0, "type": "electric_scooter", "name": "50ad19acf05c375ff431f82ca72dd3f8", "fusion_lon": 0.0, "bike_id": "50ad19acf05c375ff431f82ca72dd3f8", "is_reserved": 0, "rental_uris": {"android": "https://dc.lft.to/lastmile_qr_scan", "ios": "https://dc.lft.to/lastmile_qr_scan"}, "lat": 38.89352383333333, "is_disabled": 0, "lon": -77.00343066666667}, {"fusion_lat": 0.0, "type": "electric_scooter", "name": "ee305895953f0706abeabd47b864f53c", "fusion_lon": 0.0, "bike_id": "ee305895953f0706abeabd47b864f53c", "is_reserved": 0, "rental_uris": {"android": "https://dc.lft.to/lastmile_qr_scan", "ios": "https://dc.lft.to/lastmile_qr_scan"}, "lat": 38.896062, "is_disabled": 0, "lon": -77.0460395}, {"fusion_lat": 0.0, "type": "electric_scooter", "name": "a0316cfe2767327b01bbc8bb897695e1", "fusion_lon": 0.0, "bike_id": "a0316cfe2767327b01bbc8bb897695e1", "is_reserved": 0, "rental_uris": {"android": "https://dc.lft.to/lastmile_qr_scan", "ios": "https://dc.lft.to/lastmile_qr_scan"}, "lat": 38.88123383333333, "is_disabled": 0, "lon": -77.01677083333334}, {"fusion_lat": 0.0, "type": "electric_scooter", "name": "df716be31f84ba85e00f10293a801f91", "fusion_lon": 0.0, "bike_id": "df716be31f84ba85e00f10293a801f91", "is_reserved": 0, "rental_uris": {"android": "https://dc.lft.to/lastmile_qr_scan", "ios": "https://dc.lft.to/lastmile_qr_scan"}, "lat": 38.91918283333333, "is_disabled": 0, "lon": -77.047989}, {"fusion_lat": 0.0, "type": "electric_scooter", "name": "64283e2e318f4bfd803726a9d8818929", "fusion_lon": 0.0, "bike_id": "64283e2e318f4bfd803726a9d8818929", "is_reserved": 0, "rental_uris": {"android": "https://dc.lft.to/lastmile_qr_scan", "ios": "https://dc.lft.to/lastmile_qr_scan"}, "lat": 38.895469166666665, "is_disabled": 0, "lon": -77.05660816666666}, {"fusion_lat": 0.0, "type": "electric_scooter", "name": "38f2114652275089fdc3bd02e496639e", "fusion_lon": 0.0, "bike_id": "38f2114652275089fdc3bd02e496639e", "is_reserved": 0, "rental_uris": {"android": "https://dc.lft.to/lastmile_qr_scan", "ios": "https://dc.lft.to/lastmile_qr_scan"}, "lat": 38.9027815, "is_disabled": 0, "lon": -77.03443}, {"fusion_lat": 0.0, "type": "electric_scooter", "name": "16c78b0513bf470ef7eaa5b9d720d14f", "fusion_lon": 0.0, "bike_id": "16c78b0513bf470ef7eaa5b9d720d14f", "is_reserved": 0, "rental_uris": {"android": "https://dc.lft.to/lastmile_qr_scan", "ios": "https://dc.lft.to/lastmile_qr_scan"}, "lat": 38.900802666666664, "is_disabled": 0, "lon": -76.93884916666667}, {"fusion_lat": 0.0, "type": "electric_scooter", "name": "600f61725d890e631891f05d32b0e988", "fusion_lon": 0.0, "bike_id": "600f61725d890e631891f05d32b0e988", "is_reserved": 0, "rental_uris": {"android": "https://dc.lft.to/lastmile_qr_scan", "ios": "https://dc.lft.to/lastmile_qr_scan"}, "lat": 38.90033533333333, "is_disabled": 0, "lon": -76.9884215}, {"fusion_lat": 0.0, "type": "electric_scooter", "name": "ef110690698436ceaad0af83594b59a2", "fusion_lon": 0.0, "bike_id": "ef110690698436ceaad0af83594b59a2", "is_reserved": 0, "rental_uris": {"android": "https://dc.lft.to/lastmile_qr_scan", "ios": "https://dc.lft.to/lastmile_qr_scan"}, "lat": 38.91901033333333, "is_disabled": 0, "lon": -76.98740816666667}, {"fusion_lat": 0.0, "type": "electric_scooter", "name": "06534e7fd7be1c6418b6fea638482924", "fusion_lon": 0.0, "bike_id": "06534e7fd7be1c6418b6fea638482924", "is_reserved": 0, "rental_uris": {"android": "https://dc.lft.to/lastmile_qr_scan", "ios": "https://dc.lft.to/lastmile_qr_scan"}, "lat": 38.891857333333334, "is_disabled": 0, "lon": -77.0363805}, {"fusion_lat": 0.0, "type": "electric_scooter", "name": "f5d3406890424a985cd57f30552ba019", "fusion_lon": 0.0, "bike_id": "f5d3406890424a985cd57f30552ba019", "is_reserved": 0, "rental_uris": {"android": "https://dc.lft.to/lastmile_qr_scan", "ios": "https://dc.lft.to/lastmile_qr_scan"}, "lat": 38.90505916666667, "is_disabled": 0, "lon": -77.04663883333333}, {"fusion_lat": 0.0, "type": "electric_scooter", "name": "f2037b6da53093e949a7c79c19d4df71", "fusion_lon": 0.0, "bike_id": "f2037b6da53093e949a7c79c19d4df71", "is_reserved": 0, "rental_uris": {"android": "https://dc.lft.to/lastmile_qr_scan", "ios": "https://dc.lft.to/lastmile_qr_scan"}, "lat": 38.914047, "is_disabled": 0, "lon": -77.045523}, {"fusion_lat": 0.0, "type": "electric_scooter", "name": "add44959bdc6a1e910e88c0c7af96757", "fusion_lon": 0.0, "bike_id": "add44959bdc6a1e910e88c0c7af96757", "is_reserved": 0, "rental_uris": {"android": "https://dc.lft.to/lastmile_qr_scan", "ios": "https://dc.lft.to/lastmile_qr_scan"}, "lat": 38.936285, "is_disabled": 0, "lon": -77.08180033333333}, {"fusion_lat": 0.0, "type": "electric_scooter", "name": "bc2ed848c6d89480f134b921388151af", "fusion_lon": 0.0, "bike_id": "bc2ed848c6d89480f134b921388151af", "is_reserved": 0, "rental_uris": {"android": "https://dc.lft.to/lastmile_qr_scan", "ios": "https://dc.lft.to/lastmile_qr_scan"}, "lat": 38.924399, "is_disabled": 0, "lon": -77.02133683333334}, {"fusion_lat": 0.0, "type": "electric_bike", "name": "a3aade74becd840c51f1f5ee86144f21", "fusion_lon": 0.0, "bike_id": "a3aade74becd840c51f1f5ee86144f21", "is_reserved": 0, "rental_uris": {"android": "https://dc.lft.to/lastmile_qr_scan", "ios": "https://dc.lft.to/lastmile_qr_scan"}, "lat": 38.9965705, "is_disabled": 0, "lon": -77.04011483333333}, {"fusion_lat": 0.0, "type": "electric_scooter", "name": "119a061067b7eeeb534fa609a569ef4e", "fusion_lon": 0.0, "bike_id": "119a061067b7eeeb534fa609a569ef4e", "is_reserved": 0, "rental_uris": {"android": "https://dc.lft.to/lastmile_qr_scan", "ios": "https://dc.lft.to/lastmile_qr_scan"}, "lat": 38.89719766666666, "is_disabled": 0, "lon": -77.030787}, {"fusion_lat": 0.0, "type": "electric_scooter", "name": "05f39fcc55a297ada289f736ca16a146", "fusion_lon": 0.0, "bike_id": "05f39fcc55a297ada289f736ca16a146", "is_reserved": 0, "rental_uris": {"android": "https://dc.lft.to/lastmile_qr_scan", "ios": "https://dc.lft.to/lastmile_qr_scan"}, "lat": 38.886678333333336, "is_disabled": 0, "lon": -76.93613733333333}, {"fusion_lat": 0.0, "type": "electric_scooter", "name": "b76421d1befba888f5d3a2299190c2cc", "fusion_lon": 0.0, "bike_id": "b76421d1befba888f5d3a2299190c2cc", "is_reserved": 0, "rental_uris": {"android": "https://dc.lft.to/lastmile_qr_scan", "ios": "https://dc.lft.to/lastmile_qr_scan"}, "lat": 38.90568966666667, "is_disabled": 0, "lon": -76.976297}, {"fusion_lat": 0.0, "type": "electric_scooter", "name": "878d4e616256ddee1c023f0244b547a8", "fusion_lon": 0.0, "bike_id": "878d4e616256ddee1c023f0244b547a8", "is_reserved": 0, "rental_uris": {"android": "https://dc.lft.to/lastmile_qr_scan", "ios": "https://dc.lft.to/lastmile_qr_scan"}, "lat": 38.90592066666667, "is_disabled": 0, "lon": -77.02198216666666}, {"fusion_lat": 0.0, "type": "electric_scooter", "name": "90f86cfacea5afbbf7d94003aa2c6bcb", "fusion_lon": 0.0, "bike_id": "90f86cfacea5afbbf7d94003aa2c6bcb", "is_reserved": 0, "rental_uris": {"android": "https://dc.lft.to/lastmile_qr_scan", "ios": "https://dc.lft.to/lastmile_qr_scan"}, "lat": 38.897951, "is_disabled": 0, "lon": -77.03998083333333}, {"fusion_lat": 0.0, "type": "electric_scooter", "name": "70ccc70d47048dd772b85eb5fc17bf3b", "fusion_lon": 0.0, "bike_id": "70ccc70d47048dd772b85eb5fc17bf3b", "is_reserved": 0, "rental_uris": {"android": "https://dc.lft.to/lastmile_qr_scan", "ios": "https://dc.lft.to/lastmile_qr_scan"}, "lat": 38.91150783333333, "is_disabled": 0, "lon": -77.04442383333334}, {"fusion_lat": 0.0, "type": "electric_scooter", "name": "d659b4f1748e06a0a1ad1ab02ab250f0", "fusion_lon": 0.0, "bike_id": "d659b4f1748e06a0a1ad1ab02ab250f0", "is_reserved": 0, "rental_uris": {"android": "https://dc.lft.to/lastmile_qr_scan", "ios": "https://dc.lft.to/lastmile_qr_scan"}, "lat": 38.905609, "is_disabled": 0, "lon": -77.0469465}, {"fusion_lat": 0.0, "type": "electric_scooter", "name": "113c1f48217ba429709efee9bdca56ae", "fusion_lon": 0.0, "bike_id": "113c1f48217ba429709efee9bdca56ae", "is_reserved": 0, "rental_uris": {"android": "https://dc.lft.to/lastmile_qr_scan", "ios": "https://dc.lft.to/lastmile_qr_scan"}, "lat": 38.884882, "is_disabled": 0, "lon": -77.01611566666666}, {"fusion_lat": 0.0, "type": "electric_scooter", "name": "503054214e6d62dc903ef312597477c7", "fusion_lon": 0.0, "bike_id": "503054214e6d62dc903ef312597477c7", "is_reserved": 0, "rental_uris": {"android": "https://dc.lft.to/lastmile_qr_scan", "ios": "https://dc.lft.to/lastmile_qr_scan"}, "lat": 38.92130683333333, "is_disabled": 0, "lon": -77.0179955}, {"fusion_lat": 0.0, "type": "electric_bike", "name": "491a33e8b9b8b5367d23cc1236dfc19b", "fusion_lon": 0.0, "bike_id": "491a33e8b9b8b5367d23cc1236dfc19b", "is_reserved": 0, "rental_uris": {"android": "https://dc.lft.to/lastmile_qr_scan", "ios": "https://dc.lft.to/lastmile_qr_scan"}, "lat": 38.91434816666667, "is_disabled": 0, "lon": -77.0171215}, {"fusion_lat": 0.0, "type": "electric_scooter", "name": "ac7b7ecdc6a59feb295caee53dd2c412", "fusion_lon": 0.0, "bike_id": "ac7b7ecdc6a59feb295caee53dd2c412", "is_reserved": 0, "rental_uris": {"android": "https://dc.lft.to/lastmile_qr_scan", "ios": "https://dc.lft.to/lastmile_qr_scan"}, "lat": 38.8754175, "is_disabled": 0, "lon": -77.006111}, {"fusion_lat": 0.0, "type": "electric_scooter", "name": "766a04423bebd50541a6744c7f31d74d", "fusion_lon": 0.0, "bike_id": "766a04423bebd50541a6744c7f31d74d", "is_reserved": 0, "rental_uris": {"android": "https://dc.lft.to/lastmile_qr_scan", "ios": "https://dc.lft.to/lastmile_qr_scan"}, "lat": 38.951907166666665, "is_disabled": 0, "lon": -77.02744083333333}, {"fusion_lat": 0.0, "type": "electric_scooter", "name": "8c07940970d481d69ee72b9fa2d9cea8", "fusion_lon": 0.0, "bike_id": "8c07940970d481d69ee72b9fa2d9cea8", "is_reserved": 0, "rental_uris": {"android": "https://dc.lft.to/lastmile_qr_scan", "ios": "https://dc.lft.to/lastmile_qr_scan"}, "lat": 38.8922065, "is_disabled": 0, "lon": -77.03222316666667}, {"fusion_lat": 0.0, "type": "electric_scooter", "name": "f8fbb128750ecb1d50db338cece42034", "fusion_lon": 0.0, "bike_id": "f8fbb128750ecb1d50db338cece42034", "is_reserved": 0, "rental_uris": {"android": "https://dc.lft.to/lastmile_qr_scan", "ios": "https://dc.lft.to/lastmile_qr_scan"}, "lat": 38.91953633333333, "is_disabled": 0, "lon": -77.04152483333333}, {"fusion_lat": 0.0, "type": "electric_scooter", "name": "ada5c1d8735e3351c76ed13eeb991d54", "fusion_lon": 0.0, "bike_id": "ada5c1d8735e3351c76ed13eeb991d54", "is_reserved": 0, "rental_uris": {"android": "https://dc.lft.to/lastmile_qr_scan", "ios": "https://dc.lft.to/lastmile_qr_scan"}, "lat": 38.93360366666667, "is_disabled": 0, "lon": -77.05740216666666}, {"fusion_lat": 0.0, "type": "electric_scooter", "name": "8b1a399375544206ca392581bfa1bafc", "fusion_lon": 0.0, "bike_id": "8b1a399375544206ca392581bfa1bafc", "is_reserved": 0, "rental_uris": {"android": "https://dc.lft.to/lastmile_qr_scan", "ios": "https://dc.lft.to/lastmile_qr_scan"}, "lat": 38.89193216666666, "is_disabled": 0, "lon": -77.0030025}, {"fusion_lat": 0.0, "type": "electric_scooter", "name": "fb0d71b0ce22acc960d764328dfbdcbd", "fusion_lon": 0.0, "bike_id": "fb0d71b0ce22acc960d764328dfbdcbd", "is_reserved": 0, "rental_uris": {"android": "https://dc.lft.to/lastmile_qr_scan", "ios": "https://dc.lft.to/lastmile_qr_scan"}, "lat": 38.908576833333335, "is_disabled": 0, "lon": -77.00331433333334}, {"fusion_lat": 0.0, "type": "electric_scooter", "name": "8d40fedc10460e7ee2ccbee794fd6b34", "fusion_lon": 0.0, "bike_id": "8d40fedc10460e7ee2ccbee794fd6b34", "is_reserved": 0, "rental_uris": {"android": "https://dc.lft.to/lastmile_qr_scan", "ios": "https://dc.lft.to/lastmile_qr_scan"}, "lat": 38.92051633333333, "is_disabled": 0, "lon": -77.03466633333333}, {"fusion_lat": 0.0, "type": "electric_scooter", "name": "ac4b93a55faceda848322bca1aba7407", "fusion_lon": 0.0, "bike_id": "ac4b93a55faceda848322bca1aba7407", "is_reserved": 0, "rental_uris": {"android": "https://dc.lft.to/lastmile_qr_scan", "ios": "https://dc.lft.to/lastmile_qr_scan"}, "lat": 38.906288, "is_disabled": 0, "lon": -77.00603866666667}, {"fusion_lat": 0.0, "type": "electric_bike", "name": "99ac3af1f924e64428cb64071b280e3a", "fusion_lon": 0.0, "bike_id": "99ac3af1f924e64428cb64071b280e3a", "is_reserved": 0, "rental_uris": {"android": "https://dc.lft.to/lastmile_qr_scan", "ios": "https://dc.lft.to/lastmile_qr_scan"}, "lat": 38.8543795, "is_disabled": 0, "lon": -77.0832845}, {"fusion_lat": 0.0, "type": "electric_scooter", "name": "a7946106fc87b2e4094fc3c9424cc60e", "fusion_lon": 0.0, "bike_id": "a7946106fc87b2e4094fc3c9424cc60e", "is_reserved": 0, "rental_uris": {"android": "https://dc.lft.to/lastmile_qr_scan", "ios": "https://dc.lft.to/lastmile_qr_scan"}, "lat": 38.921786, "is_disabled": 0, "lon": -77.03388966666667}, {"fusion_lat": 0.0, "type": "electric_scooter", "name": "493d7a762ee20beb39edf65f45cfc4aa", "fusion_lon": 0.0, "bike_id": "493d7a762ee20beb39edf65f45cfc4aa", "is_reserved": 0, "rental_uris": {"android": "https://dc.lft.to/lastmile_qr_scan", "ios": "https://dc.lft.to/lastmile_qr_scan"}, "lat": 38.875382, "is_disabled": 0, "lon": -77.0058565}, {"fusion_lat": 0.0, "type": "electric_bike", "name": "82872fa44a223ab9e283ccc7c61a6ca5", "fusion_lon": 0.0, "bike_id": "82872fa44a223ab9e283ccc7c61a6ca5", "is_reserved": 0, "rental_uris": {"android": "https://dc.lft.to/lastmile_qr_scan", "ios": "https://dc.lft.to/lastmile_qr_scan"}, "lat": 38.85767033333333, "is_disabled": 0, "lon": -76.98759383333334}, {"fusion_lat": 0.0, "type": "electric_scooter", "name": "11c01b3bee05782c41df44a5aa1dbc1f", "fusion_lon": 0.0, "bike_id": "11c01b3bee05782c41df44a5aa1dbc1f", "is_reserved": 0, "rental_uris": {"android": "https://dc.lft.to/lastmile_qr_scan", "ios": "https://dc.lft.to/lastmile_qr_scan"}, "lat": 38.91889416666667, "is_disabled": 0, "lon": -77.04823483333334}, {"fusion_lat": 0.0, "type": "electric_scooter", "name": "ad25c0f15b3689a8079f746ef0dedfef", "fusion_lon": 0.0, "bike_id": "ad25c0f15b3689a8079f746ef0dedfef", "is_reserved": 0, "rental_uris": {"android": "https://dc.lft.to/lastmile_qr_scan", "ios": "https://dc.lft.to/lastmile_qr_scan"}, "lat": 38.90449366666667, "is_disabled": 0, "lon": -77.02889783333333}, {"fusion_lat": 0.0, "type": "electric_scooter", "name": "489dcc6004fab994f05cac919c623f90", "fusion_lon": 0.0, "bike_id": "489dcc6004fab994f05cac919c623f90", "is_reserved": 0, "rental_uris": {"android": "https://dc.lft.to/lastmile_qr_scan", "ios": "https://dc.lft.to/lastmile_qr_scan"}, "lat": 38.8873975, "is_disabled": 0, "lon": -77.02383283333333}, {"fusion_lat": 0.0, "type": "electric_scooter", "name": "af0739a1320430c432132e67545abfac", "fusion_lon": 0.0, "bike_id": "af0739a1320430c432132e67545abfac", "is_reserved": 0, "rental_uris": {"android": "https://dc.lft.to/lastmile_qr_scan", "ios": "https://dc.lft.to/lastmile_qr_scan"}, "lat": 38.926327, "is_disabled": 0, "lon": -77.03473983333333}, {"fusion_lat": 0.0, "type": "electric_scooter", "name": "d4e0503cf5c053fcc8fe2f83fcfce5a5", "fusion_lon": 0.0, "bike_id": "d4e0503cf5c053fcc8fe2f83fcfce5a5", "is_reserved": 0, "rental_uris": {"android": "https://dc.lft.to/lastmile_qr_scan", "ios": "https://dc.lft.to/lastmile_qr_scan"}, "lat": 38.9387555, "is_disabled": 0, "lon": -77.02381016666666}, {"fusion_lat": 0.0, "type": "electric_scooter", "name": "5c59e471c2519c95c2b062b81775c39f", "fusion_lon": 0.0, "bike_id": "5c59e471c2519c95c2b062b81775c39f", "is_reserved": 0, "rental_uris": {"android": "https://dc.lft.to/lastmile_qr_scan", "ios": "https://dc.lft.to/lastmile_qr_scan"}, "lat": 38.927925333333334, "is_disabled": 0, "lon": -77.021212}, {"fusion_lat": 0.0, "type": "electric_bike", "name": "ebb1c7f3985eb3f7fb05236cd865da64", "fusion_lon": 0.0, "bike_id": "ebb1c7f3985eb3f7fb05236cd865da64", "is_reserved": 0, "rental_uris": {"android": "https://dc.lft.to/lastmile_qr_scan", "ios": "https://dc.lft.to/lastmile_qr_scan"}, "lat": 38.931715833333335, "is_disabled": 0, "lon": -76.88403716666667}, {"fusion_lat": 0.0, "type": "electric_bike", "name": "c2b84b69c816897800aef5494bebefaf", "fusion_lon": 0.0, "bike_id": "c2b84b69c816897800aef5494bebefaf", "is_reserved": 0, "rental_uris": {"android": "https://dc.lft.to/lastmile_qr_scan", "ios": "https://dc.lft.to/lastmile_qr_scan"}, "lat": 38.864847166666664, "is_disabled": 0, "lon": -76.977485}, {"fusion_lat": 0.0, "type": "electric_scooter", "name": "2d364feac8d377613635c126740cae8b", "fusion_lon": 0.0, "bike_id": "2d364feac8d377613635c126740cae8b", "is_reserved": 0, "rental_uris": {"android": "https://dc.lft.to/lastmile_qr_scan", "ios": "https://dc.lft.to/lastmile_qr_scan"}, "lat": 38.90839883333334, "is_disabled": 0, "lon": -77.0269335}, {"fusion_lat": 0.0, "type": "electric_bike", "name": "f0f62aa06927af58f2d1ac4d71ce82ca", "fusion_lon": 0.0, "bike_id": "f0f62aa06927af58f2d1ac4d71ce82ca", "is_reserved": 0, "rental_uris": {"android": "https://dc.lft.to/lastmile_qr_scan", "ios": "https://dc.lft.to/lastmile_qr_scan"}, "lat": 38.929642, "is_disabled": 0, "lon": -77.18563}, {"fusion_lat": 0.0, "type": "electric_scooter", "name": "5710f6958c0e12b88b21d60329fb12b6", "fusion_lon": 0.0, "bike_id": "5710f6958c0e12b88b21d60329fb12b6", "is_reserved": 0, "rental_uris": {"android": "https://dc.lft.to/lastmile_qr_scan", "ios": "https://dc.lft.to/lastmile_qr_scan"}, "lat": 38.92239283333333, "is_disabled": 0, "lon": -77.03665533333333}, {"fusion_lat": 0.0, "type": "electric_scooter", "name": "b0e4c8af52ca4949cb3365f71fdeaf0c", "fusion_lon": 0.0, "bike_id": "b0e4c8af52ca4949cb3365f71fdeaf0c", "is_reserved": 0, "rental_uris": {"android": "https://dc.lft.to/lastmile_qr_scan", "ios": "https://dc.lft.to/lastmile_qr_scan"}, "lat": 38.894197, "is_disabled": 0, "lon": -77.02409066666667}, {"fusion_lat": 0.0, "type": "electric_bike", "name": "356959cef21e6fa180e04208ae16c4df", "fusion_lon": 0.0, "bike_id": "356959cef21e6fa180e04208ae16c4df", "is_reserved": 0, "rental_uris": {"android": "https://dc.lft.to/lastmile_qr_scan", "ios": "https://dc.lft.to/lastmile_qr_scan"}, "lat": 39.05495533333333, "is_disabled": 0, "lon": -77.04649783333333}, {"fusion_lat": 0.0, "type": "electric_bike", "name": "83483d6f4bc392f1254a741bfdbb0178", "fusion_lon": 0.0, "bike_id": "83483d6f4bc392f1254a741bfdbb0178", "is_reserved": 0, "rental_uris": {"android": "https://dc.lft.to/lastmile_qr_scan", "ios": "https://dc.lft.to/lastmile_qr_scan"}, "lat": 38.954371333333334, "is_disabled": 0, "lon": -76.98924983333333}, {"fusion_lat": 0.0, "type": "electric_scooter", "name": "27281786d977f2371dd855357401de90", "fusion_lon": 0.0, "bike_id": "27281786d977f2371dd855357401de90", "is_reserved": 0, "rental_uris": {"android": "https://dc.lft.to/lastmile_qr_scan", "ios": "https://dc.lft.to/lastmile_qr_scan"}, "lat": 38.886090833333334, "is_disabled": 0, "lon": -76.9950985}, {"fusion_lat": 0.0, "type": "electric_scooter", "name": "14b495e4ad41e9986838e44a947d0ca5", "fusion_lon": 0.0, "bike_id": "14b495e4ad41e9986838e44a947d0ca5", "is_reserved": 0, "rental_uris": {"android": "https://dc.lft.to/lastmile_qr_scan", "ios": "https://dc.lft.to/lastmile_qr_scan"}, "lat": 38.90729533333333, "is_disabled": 0, "lon": -77.03882233333333}, {"fusion_lat": 0.0, "type": "electric_scooter", "name": "3a1f0c2ebed1c30dd8caaf60b293e426", "fusion_lon": 0.0, "bike_id": "3a1f0c2ebed1c30dd8caaf60b293e426", "is_reserved": 0, "rental_uris": {"android": "https://dc.lft.to/lastmile_qr_scan", "ios": "https://dc.lft.to/lastmile_qr_scan"}, "lat": 38.900412333333335, "is_disabled": 0, "lon": -76.9985015}, {"fusion_lat": 0.0, "type": "electric_scooter", "name": "a601a1b0633a53bf93bfff08a8437c84", "fusion_lon": 0.0, "bike_id": "a601a1b0633a53bf93bfff08a8437c84", "is_reserved": 0, "rental_uris": {"android": "https://dc.lft.to/lastmile_qr_scan", "ios": "https://dc.lft.to/lastmile_qr_scan"}, "lat": 38.923589166666666, "is_disabled": 0, "lon": -77.01911166666666}, {"fusion_lat": 0.0, "type": "electric_scooter", "name": "e691e1a62acb9362e0f01c979cc82ebc", "fusion_lon": 0.0, "bike_id": "e691e1a62acb9362e0f01c979cc82ebc", "is_reserved": 0, "rental_uris": {"android": "https://dc.lft.to/lastmile_qr_scan", "ios": "https://dc.lft.to/lastmile_qr_scan"}, "lat": 38.905040166666666, "is_disabled": 0, "lon": -76.99615433333334}, {"fusion_lat": 0.0, "type": "electric_scooter", "name": "b14e7408fd93fc4690d44ff70754d23e", "fusion_lon": 0.0, "bike_id": "b14e7408fd93fc4690d44ff70754d23e", "is_reserved": 0, "rental_uris": {"android": "https://dc.lft.to/lastmile_qr_scan", "ios": "https://dc.lft.to/lastmile_qr_scan"}, "lat": 38.92657533333333, "is_disabled": 0, "lon": -77.02425083333333}, {"fusion_lat": 0.0, "type": "electric_scooter", "name": "fb3f2f7fb7ff5017befa6bc3916efcd3", "fusion_lon": 0.0, "bike_id": "fb3f2f7fb7ff5017befa6bc3916efcd3", "is_reserved": 0, "rental_uris": {"android": "https://dc.lft.to/lastmile_qr_scan", "ios": "https://dc.lft.to/lastmile_qr_scan"}, "lat": 38.9203655, "is_disabled": 0, "lon": -76.99740466666667}, {"fusion_lat": 0.0, "type": "electric_scooter", "name": "60bc7f9fb9fd8936dc9411d470c22b02", "fusion_lon": 0.0, "bike_id": "60bc7f9fb9fd8936dc9411d470c22b02", "is_reserved": 0, "rental_uris": {"android": "https://dc.lft.to/lastmile_qr_scan", "ios": "https://dc.lft.to/lastmile_qr_scan"}, "lat": 38.89045, "is_disabled": 0, "lon": -77.04759666666666}, {"fusion_lat": 0.0, "type": "electric_bike", "name": "182d83fe16e7856c9b37afe9629a808a", "fusion_lon": 0.0, "bike_id": "182d83fe16e7856c9b37afe9629a808a", "is_reserved": 0, "rental_uris": {"android": "https://dc.lft.to/lastmile_qr_scan", "ios": "https://dc.lft.to/lastmile_qr_scan"}, "lat": 39.04303683333333, "is_disabled": 0, "lon": -77.05161466666667}, {"fusion_lat": 0.0, "type": "electric_scooter", "name": "4a91ea72dabac51f9dd8ff99ece39d04", "fusion_lon": 0.0, "bike_id": "4a91ea72dabac51f9dd8ff99ece39d04", "is_reserved": 0, "rental_uris": {"android": "https://dc.lft.to/lastmile_qr_scan", "ios": "https://dc.lft.to/lastmile_qr_scan"}, "lat": 38.896074166666665, "is_disabled": 0, "lon": -76.99968016666666}, {"fusion_lat": 0.0, "type": "electric_scooter", "name": "d49c386b3276a9e26316ffe2a861596f", "fusion_lon": 0.0, "bike_id": "d49c386b3276a9e26316ffe2a861596f", "is_reserved": 0, "rental_uris": {"android": "https://dc.lft.to/lastmile_qr_scan", "ios": "https://dc.lft.to/lastmile_qr_scan"}, "lat": 38.89900733333333, "is_disabled": 0, "lon": -77.0328955}, {"fusion_lat": 0.0, "type": "electric_scooter", "name": "71c507dc5593e18d3064f1d2896130d7", "fusion_lon": 0.0, "bike_id": "71c507dc5593e18d3064f1d2896130d7", "is_reserved": 0, "rental_uris": {"android": "https://dc.lft.to/lastmile_qr_scan", "ios": "https://dc.lft.to/lastmile_qr_scan"}, "lat": 38.911804333333336, "is_disabled": 0, "lon": -77.03496116666666}, {"fusion_lat": 0.0, "type": "electric_scooter", "name": "01f725547748460a843229a87cce7bb6", "fusion_lon": 0.0, "bike_id": "01f725547748460a843229a87cce7bb6", "is_reserved": 0, "rental_uris": {"android": "https://dc.lft.to/lastmile_qr_scan", "ios": "https://dc.lft.to/lastmile_qr_scan"}, "lat": 38.92686833333333, "is_disabled": 0, "lon": -77.01570783333334}, {"fusion_lat": 0.0, "type": "electric_bike", "name": "fde37a4fdbee92af2d568e45ca0e15c3", "fusion_lon": 0.0, "bike_id": "fde37a4fdbee92af2d568e45ca0e15c3", "is_reserved": 0, "rental_uris": {"android": "https://dc.lft.to/lastmile_qr_scan", "ios": "https://dc.lft.to/lastmile_qr_scan"}, "lat": 38.938267, "is_disabled": 0, "lon": -76.9948485},