{"data": {"bikes": [{"bike_id": "508f02196a804bef811be0294867d019", "type": "electric_scooter", "is_disabled": 0, "lat": 38.892304833333334, "rental_uris": {"ios": "https://dc.lft.to/lastmile_qr_scan", "android": "https://dc.lft.to/lastmile_qr_scan"}, "is_reserved": 0, "fusion_lon": 0.0, "fusion_lat": 0.0, "lon": -77.04678233333334, "name": "508f02196a804bef811be0294867d019"}, {"bike_id": "0b3f481e57e00c383d0ebd7eab4b6f9f", "type": "electric_scooter", "is_disabled": 0, "lat": 38.914040666666665, "rental_uris": {"ios": "https://dc.lft.to/lastmile_qr_scan", "android": "https://dc.lft.to/lastmile_qr_scan"}, "is_reserved": 0, "fusion_lon": 0.0, "fusion_lat": 0.0, "lon": -77.03211483333334, "name": "0b3f481e57e00c383d0ebd7eab4b6f9f"}, {"bike_id": "009c067a1d78a58a022023469b6a256d", "type": "electric_scooter", "is_disabled": 0, "lat": 38.90460816666667, "rental_uris": {"ios": "https://dc.lft.to/lastmile_qr_scan", "android": "https://dc.lft.to/lastmile_qr_scan"}, "is_reserved": 0, "fusion_lon": 0.0, "fusion_lat": 0.0, "lon": -77.0532705, "name": "009c067a1d78a58a022023469b6a256d"}, {"bike_id": "340b75eec06827fba6107f788786d590", "type": "electric_scooter", "is_disabled": 0, "lat": 38.9086645, "rental_uris": {"ios": "https://dc.lft.to/lastmile_qr_scan", "android": "https://dc.lft.to/lastmile_qr_scan"}, "is_reserved": 0, "fusion_lon": 0.0, "fusion_lat": 0.0, "lon": -77.03228816666666, "name": "340b75eec06827fba6107f788786d590"}, {"bike_id": "217884333a1431e43e871823efb12fbc", "type": "electric_scooter", "is_disabled": 0, "lat": 38.872989833333335, "rental_uris": {"ios": "https://dc.lft.to/lastmile_qr_scan", "android": "https://dc.lft.to/lastmile_qr_scan"}, "is_reserved": 0, "fusion_lon": 0.0, "fusion_lat": 0.0, "lon": -77.00983266666667, "name": "217884333a1431e43e871823efb12fbc"}, {"bike_id": "c4d1b0f3dfd11f8c4d58fa29d06b30e9", "type": "electric_scooter", "is_disabled": 0, "lat": 38.915571666666665, "rental_uris": {"ios": "https://dc.lft.to/lastmile_qr_scan", "android": "https://dc.lft.to/lastmile_qr_scan"}, "is_reserved": 0, "fusion_lon": 0.0, "fusion_lat": 0.0, "lon": -77.03270266666667, "name": "c4d1b0f3dfd11f8c4d58fa29d06b30e9"}, {"bike_id": "6286384e0397049e125b3b5089d8ec3c", "type": "electric_scooter", "is_disabled": 0, "lat": 38.90170066666667, "rental_uris": {"ios": "https://dc.lft.to/lastmile_qr_scan", "android": "https://dc.lft.to/lastmile_qr_scan"}, "is_reserved": 0, "fusion_lon": 0.0, "fusion_lat": 0.0, "lon": -76.9265785, "name": "6286384e0397049e125b3b5089d8ec3c"}, {"bike_id": "bfd26fb4b9264a7147a7a8db6b07c6c8", "type": "electric_scooter", "is_disabled": 0, "lat": 38.9103355, "rental_uris": {"ios": "https://dc.lft.to/lastmile_qr_scan", "android": "https://dc.lft.to/lastmile_qr_scan"}, "is_reserved": 0, "fusion_lon": 0.0, "fusion_lat": 0.0, "lon": -77.0337525, "name": "bfd26fb4b9264a7147a7a8db6b07c6c8"}, {"bike_id": "4ad2cda8ed082bb8c08428f661547a2b", "type": "electric_scooter", "is_disabled": 0, "lat": 38.90135433333333, "rental_uris": {"ios": "https://dc.lft.to/lastmile_qr_scan", "android": "https://dc.lft.to/lastmile_qr_scan"}, "is_reserved": 0, "fusion_lon": 0.0, "fusion_lat": 0.0, "lon": -77.023902, "name": "4ad2cda8ed082bb8c08428f661547a2b"}, {"bike_id": "f7c4ce74e347fc74f12cf3912538c7ab", "type": "electric_scooter", "is_disabled": 0, "lat": 38.9066865, "rental_uris": {"ios": "https://dc.lft.to/lastmile_qr_scan", "android": "https://dc.lft.to/lastmile_qr_scan"}, "is_reserved": 0, "fusion_lon": 0.0, "fusion_lat": 0.0, "lon": -77.02718233333333, "name": "f7c4ce74e347fc74f12cf3912538c7ab"}, {"bike_id": "7d4ba1d2ff5dfc3fdd2dd8d1a432d9f6", "type": "electric_scooter", "is_disabled": 0, "lat": 38.916155333333336, "rental_uris": {"ios": "https://dc.lft.to/lastmile_qr_scan", "android": "https://dc.lft.to/lastmile_qr_scan"}, "is_reserved": 0, "fusion_lon": 0.0, "fusion_lat": 0.0, "lon": -77.02305116666666, "name": "7d4ba1d2ff5dfc3fdd2dd8d1a432d9f6"}, {"bike_id": "321f517a144624d2138f7954b792d223", "type": "electric_scooter", "is_disabled": 0, "lat": 38.881866333333335, "rental_uris": {"ios": "https://dc.lft.to/lastmile_qr_scan", "android": "https://dc.lft.to/lastmile_qr_scan"}, "is_reserved": 0, "fusion_lon": 0.0, "fusion_lat": 0.0, "lon": -77.0208615, "name": "321f517a144624d2138f7954b792d223"}, {"bike_id": "63e6c43e759b52280c8fc5972fe35def", "type": "electric_scooter", "is_disabled": 0, "lat": 38.93070616666667, "rental_uris": {"ios": "https://dc.lft.to/lastmile_qr_scan", "android": "https://dc.lft.to/lastmile_qr_scan"}, "is_reserved": 0, "fusion_lon": 0.0, "fusion_lat": 0.0, "lon": -77.02150016666667, "name": "63e6c43e759b52280c8fc5972fe35def"}, {"bike_id": "7b1739d7adc21a10f2f9c4e5b74b8f8e", "type": "electric_scooter", "is_disabled": 0, "lat": 38.956898333333335, "rental_uris": {"ios": "https://dc.lft.to/lastmile_qr_scan", "android": "https://dc.lft.to/lastmile_qr_scan"}, "is_reserved": 0, "fusion_lon": 0.0, "fusion_lat": 0.0, "lon": -77.0240175, "name": "7b1739d7adc21a10f2f9c4e5b74b8f8e"}, {"bike_id": "8e579d96f43944fe13370b8abf2f3d4b", "type": "electric_scooter", "is_disabled": 0, "lat": 38.900671333333335, "rental_uris": {"ios": "https://dc.lft.to/lastmile_qr_scan", "android": "https://dc.lft.to/lastmile_qr_scan"}, "is_reserved": 0, "fusion_lon": 0.0, "fusion_lat": 0.0, "lon": -77.01825616666666, "name": "8e579d96f43944fe13370b8abf2f3d4b"}, {"bike_id": "208d5756b0f39ad9b7bb3f76a3f7b583", "type": "electric_scooter", "is_disabled": 0, "lat": 38.909811833333336, "rental_uris": {"ios": "https://dc.lft.to/lastmile_qr_scan", "android": "https://dc.lft.to/lastmile_qr_scan"}, "is_reserved": 0, "fusion_lon": 0.0, "fusion_lat": 0.0, "lon": -77.0338155, "name": "208d5756b0f39ad9b7bb3f76a3f7b583"}, {"bike_id": "b2c3fd0ad685cc6502b41a03480c151a", "type": "electric_scooter", "is_disabled": 0, "lat": 38.896907, "rental_uris": {"ios": "https://dc.lft.to/lastmile_qr_scan", "android": "https://dc.lft.to/lastmile_qr_scan"}, "is_reserved": 0, "fusion_lon": 0.0, "fusion_lat": 0.0, "lon": -77.02298516666667, "name": "b2c3fd0ad685cc6502b41a03480c151a"}, {"bike_id": "ded3b265bddf2238acf53fe021edb9ba", "type": "electric_scooter", "is_disabled": 0, "lat": 38.886387, "rental_uris": {"ios": "https://dc.lft.to/lastmile_qr_scan", "android": "https://dc.lft.to/lastmile_qr_scan"}, "is_reserved": 0, "fusion_lon": 0.0, "fusion_lat": 0.0, "lon": -77.02136133333333, "name": "ded3b265bddf2238acf53fe021edb9ba"}, {"bike_id": "b44584ab08d6800d375e164e13450295", "type": "electric_scooter", "is_disabled": 0, "lat": 38.88719483333333, "rental_uris": {"ios": "https://dc.lft.to/lastmile_qr_scan", "android": "https://dc.lft.to/lastmile_qr_scan"}, "is_reserved": 0, "fusion_lon": 0.0, "fusion_lat": 0.0, "lon": -77.0219395, "name": "b44584ab08d6800d375e164e13450295"}, {"bike_id": "57773514aa77074691fbca4e61192ef2", "type": "electric_scooter", "is_disabled": 0, "lat": 38.92341483333333, "rental_uris": {"ios": "https://dc.lft.to/lastmile_qr_scan", "android": "https://dc.lft.to/lastmile_qr_scan"}, "is_reserved": 0, "fusion_lon": 0.0, "fusion_lat": 0.0, "lon": -77.03532633333333, "name": "57773514aa77074691fbca4e61192ef2"}, {"bike_id": "db712a4a6a83d3b66ccc2f9e6895d201", "type": "electric_scooter", "is_disabled": 0, "lat": 38.9335935, "rental_uris": {"ios": "https://dc.lft.to/lastmile_qr_scan", "android": "https://dc.lft.to/lastmile_qr_scan"}, "is_reserved": 0, "fusion_lon": 0.0, "fusion_lat": 0.0, "lon": -77.0885745, "name": "db712a4a6a83d3b66ccc2f9e6895d201"}, {"bike_id": "9ad858ba2d3c6f581b78f49a05449e80", "type": "electric_bike", "is_disabled": 0, "lat": 38.90534783333333, "rental_uris": {"ios": "https://dc.lft.to/lastmile_qr_scan", "android": "https://dc.lft.to/lastmile_qr_scan"}, "is_reserved": 0, "fusion_lon": 0.0, "fusion_lat": 0.0, "lon": -77.02922666666667, "name": "9ad858ba2d3c6f581b78f49a05449e80"}, {"bike_id": "41adf29b4d64fb271b7bef1e1efdd8de", "type": "electric_scooter", "is_disabled": 0, "lat": 38.89953383333334, "rental_uris": {"ios": "https://dc.lft.to/lastmile_qr_scan", "android": "https://dc.lft.to/lastmile_qr_scan"}, "is_reserved": 0, "fusion_lon": 0.0, "fusion_lat": 0.0, "lon": -77.0514185, "name": "41adf29b4d64fb271b7bef1e1efdd8de"}, {"bike_id": "ff451b425723d04840478b7bc87e6327", "type": "electric_scooter", "is_disabled": 0, "lat": 38.907303666666664, "rental_uris": {"ios": "https://dc.lft.to/lastmile_qr_scan", "android": "https://dc.lft.to/lastmile_qr_scan"}, "is_reserved": 0, "fusion_lon": 0.0, "fusion_lat": 0.0, "lon": -77.025167, "name": "ff451b425723d04840478b7bc87e6327"}, {"bike_id": "e8dd40c1a71218301a810750d6e7ba73", "type": "electric_scooter", "is_disabled": 0, "lat": 38.9719785, "rental_uris": {"ios": "https://dc.lft.to/lastmile_qr_scan", "android": "https://dc.lft.to/lastmile_qr_scan"}, "is_reserved": 0, "fusion_lon": 0.0, "fusion_lat": 0.0, "lon": -77.02654833333334, "name": "e8dd40c1a71218301a810750d6e7ba73"}, {"bike_id": "d114110e327e5f9ef445ca397735f32e", "type": "electric_scooter", "is_disabled": 0, "lat": 38.925397333333336, "rental_uris": {"ios": "https://dc.lft.to/lastmile_qr_scan", "android": "https://dc.lft.to/lastmile_qr_scan"}, "is_reserved": 0, "fusion_lon": 0.0, "fusion_lat": 0.0, "lon": -77.03382066666667, "name": "d114110e327e5f9ef445ca397735f32e"}, {"bike_id": "8ed8b2b0b2c5248eae394a9dc78430c4", "type": "electric_scooter", "is_disabled": 0, "lat": 38.90828883333333, "rental_uris": {"ios": "https://dc.lft.to/lastmile_qr_scan", "android": "https://dc.lft.to/lastmile_qr_scan"}, "is_reserved": 0, "fusion_lon": 0.0, "fusion_lat": 0.0, "lon": -76.99691283333334, "name": "8ed8b2b0b2c5248eae394a9dc78430c4"}, {"bike_id": "d1a88a86baa1e8297af1711e0da1fa94", "type": "electric_scooter", "is_disabled": 0, "lat": 38.9147055, "rental_uris": {"ios": "https://dc.lft.to/lastmile_qr_scan", "android": "https://dc.lft.to/lastmile_qr_scan"}, "is_reserved": 0, "fusion_lon": 0.0, "fusion_lat": 0.0, "lon": -77.0198445, "name": "d1a88a86baa1e8297af1711e0da1fa94"}, {"bike_id": "1a9c4ef7eac38ad54992c61156f6f12d", "type": "electric_scooter", "is_disabled": 0, "lat": 38.913234, "rental_uris": {"ios": "https://dc.lft.to/lastmile_qr_scan", "android": "https://dc.lft.to/lastmile_qr_scan"}, "is_reserved": 0, "fusion_lon": 0.0, "fusion_lat": 0.0, "lon": -77.03196583333333, "name": "1a9c4ef7eac38ad54992c61156f6f12d"}, {"bike_id": "485b957f24b5c8bb878a78fb98e99e51", "type": "electric_scooter", "is_disabled": 0, "lat": 38.866254833333336, "rental_uris": {"ios": "https://dc.lft.to/lastmile_qr_scan", "android": "https://dc.lft.to/lastmile_qr_scan"}, "is_reserved": 0, "fusion_lon": 0.0, "fusion_lat": 0.0, "lon": -76.9871585, "name": "485b957f24b5c8bb878a78fb98e99e51"}, {"bike_id": "970a324bf3af14999ab55efe194ce8c0", "type": "electric_scooter", "is_disabled": 0, "lat": 38.905311, "rental_uris": {"ios": "https://dc.lft.to/lastmile_qr_scan", "android": "https://dc.lft.to/lastmile_qr_scan"}, "is_reserved": 0, "fusion_lon": 0.0, "fusion_lat": 0.0, "lon": -77.050052, "name": "970a324bf3af14999ab55efe194ce8c0"}, {"bike_id": "888649bd22ba5d0f7fef0121af5e9c19", "type": "electric_bike", "is_disabled": 0, "lat": 38.900117333333334, "rental_uris": {"ios": "https://dc.lft.to/lastmile_qr_scan", "android": "https://dc.lft.to/lastmile_qr_scan"}, "is_reserved": 0, "fusion_lon": 0.0, "fusion_lat": 0.0, "lon": -77.0753275, "name": "888649bd22ba5d0f7fef0121af5e9c19"}, {"bike_id": "c08c276d73670c189081b26cde43f3ac", "type": "electric_scooter", "is_disabled": 0, "lat": 38.9197785, "rental_uris": {"ios": "https://dc.lft.to/lastmile_qr_scan", "android": "https://dc.lft.to/lastmile_qr_scan"}, "is_reserved": 0, "fusion_lon": 0.0, "fusion_lat": 0.0, "lon": -77.0121215, "name": "c08c276d73670c189081b26cde43f3ac"}, {"bike_id": "8b948e6ef97e93cb0d5363eaff93bcf4", "type": "electric_scooter", "is_disabled": 0, "lat": 38.90506216666667, "rental_uris": {"ios": "https://dc.lft.to/lastmile_qr_scan", "android": "https://dc.lft.to/lastmile_qr_scan"}, "is_reserved": 0, "fusion_lon": 0.0, "fusion_lat": 0.0, "lon": -77.04170316666666, "name": "8b948e6ef97e93cb0d5363eaff93bcf4"}, {"bike_id": "8b3ef2cfe643daefa9aeaaabcf8c0c94", "type": "electric_scooter", "is_disabled": 0, "lat": 38.876886666666664, "rental_uris": {"ios": "https://dc.lft.to/lastmile_qr_scan", "android": "https://dc.lft.to/lastmile_qr_scan"}, "is_reserved": 0, "fusion_lon": 0.0, "fusion_lat": 0.0, "lon": -77.01760683333333, "name": "8b3ef2cfe643daefa9aeaaabcf8c0c94"}, {"bike_id": "a2b0239919613bd8256dd04eb3fa38d1", "type": "electric_scooter", "is_disabled": 0, "lat": 38.9175685, "rental_uris": {"ios": "https://dc.lft.to/lastmile_qr_scan", "android": "https://dc.lft.to/lastmile_qr_scan"}, "is_reserved": 0, "fusion_lon": 0.0, "fusion_lat": 0.0, "lon": -77.02288616666667, "name": "a2b0239919613bd8256dd04eb3fa38d1"}, {"bike_id": "2ab6448771134e6162b7d8348817a788", "type": "electric_scooter", "is_disabled": 0, "lat": 38.919650833333336, "rental_uris": {"ios": "https://dc.lft.to/lastmile_qr_scan", "android": "https://dc.lft.to/lastmile_qr_scan"}, "is_reserved": 0, "fusion_lon": 0.0, "fusion_lat": 0.0, "lon": -77.04220616666667, "name": "2ab6448771134e6162b7d8348817a788"}, {"bike_id": "7c9a8267ac8afb9b2bca85fde56c4264", "type": "electric_scooter", "is_disabled": 0, "lat": 38.93387083333333, "rental_uris": {"ios": "https://dc.lft.to/lastmile_qr_scan", "android": "https://dc.lft.to/lastmile_qr_scan"}, "is_reserved": 0, "fusion_lon": 0.0, "fusion_lat": 0.0, "lon": -77.0322165, "name": "7c9a8267ac8afb9b2bca85fde56c4264"}, {"bike_id": "374cfe0c8e8c4e834ac82d12f88d71a0", "type": "electric_scooter", "is_disabled": 0, "lat": 38.88428783333333, "rental_uris": {"ios": "https://dc.lft.to/lastmile_qr_scan", "android": "https://dc.lft.to/lastmile_qr_scan"}, "is_reserved": 0, "fusion_lon": 0.0, "fusion_lat": 0.0, "lon": -76.957582, "name": "374cfe0c8e8c4e834ac82d12f88d71a0"}, {"bike_id": "b1dd9a94bb3692639e3bddffdf4e14de", "type": "electric_bike", "is_disabled": 0, "lat": 38.95530633333333, "rental_uris": {"ios": "https://dc.lft.to/lastmile_qr_scan", "android": "https://dc.lft.to/lastmile_qr_scan"}, "is_reserved": 0, "fusion_lon": 0.0, "fusion_lat": 0.0, "lon": -76.96823316666666, "name": "b1dd9a94bb3692639e3bddffdf4e14de"}, {"bike_id": "3ae68224a4bbec5ea6c76f08b3156d2f", "type": "electric_scooter", "is_disabled": 0, "lat": 38.905485666666664, "rental_uris": {"ios": "https://dc.lft.to/lastmile_qr_scan", "android": "https://dc.lft.to/lastmile_qr_scan"}, "is_reserved": 0, "fusion_lon": 0.0, "fusion_lat": 0.0, "lon": -76.99617816666667, "name": "3ae68224a4bbec5ea6c76f08b3156d2f"}, {"bike_id": "bd171cd1fe4eb3945af96cdaf0a57adf", "type": "electric_scooter", "is_disabled": 0, "lat": 38.894638666666665, "rental_uris": {"ios": "https://dc.lft.to/lastmile_qr_scan", "android": "https://dc.lft.to/lastmile_qr_scan"}, "is_reserved": 0, "fusion_lon": 0.0, "fusion_lat": 0.0, "lon": -77.02798216666666, "name": "bd171cd1fe4eb3945af96cdaf0a57adf"}, {"bike_id": "7f7b6daaf01025cb81490c114fc464bf", "type": "electric_bike", "is_disabled": 0, "lat": 38.95297383333333, "rental_uris": {"ios": "https://dc.lft.to/lastmile_qr_scan", "android": "https://dc.lft.to/lastmile_qr_scan"}, "is_reserved": 0, "fusion_lon": 0.0, "fusion_lat": 0.0, "lon": -76.99886433333333, "name": "7f7b6daaf01025cb81490c114fc464bf"}, {"bike_id": "dcd237b7f72b7573a3ac91f316b5a6bd", "type": "electric_scooter", "is_disabled": 0, "lat": 38.929195666666665, "rental_uris": {"ios": "https://dc.lft.to/lastmile_qr_scan", "android": "https://dc.lft.to/lastmile_qr_scan"}, "is_reserved": 0, "fusion_lon": 0.0, "fusion_lat": 0.0, "lon": -77.03279, "name": "dcd237b7f72b7573a3ac91f316b5a6bd"}, {"bike_id": "963eb7f7737f063e7f9b0bfc22d6f33d", "type": "electric_scooter", "is_disabled": 0, "lat": 38.90487816666667, "rental_uris": {"ios": "https://dc.lft.to/lastmile_qr_scan", "android": "https://dc.lft.to/lastmile_qr_scan"}, "is_reserved": 0, "fusion_lon": 0.0, "fusion_lat": 0.0, "lon": -77.026981, "name": "963eb7f7737f063e7f9b0bfc22d6f33d"}, {"bike_id": "dfd5dee548db96b28d3754fa7c9bfd6a", "type": "electric_bike", "is_disabled": 0, "lat": 38.8116235, "rental_uris": {"ios": "https://dc.lft.to/lastmile_qr_scan", "android": "https://dc.lft.to/lastmile_qr_scan"}, "is_reserved": 0, "fusion_lon": 0.0, "fusion_lat": 0.0, "lon": -77.0696675, "name": "dfd5dee548db96b28d3754fa7c9bfd6a"}, {"bike_id": "89f34e4d114bf235f6e022dad49c291d", "type": "electric_scooter", "is_disabled": 0, "lat": 38.917033333333336, "rental_uris": {"ios": "https://dc.lft.to/lastmile_qr_scan", "android": "https://dc.lft.to/lastmile_qr_scan"}, "is_reserved": 0, "fusion_lon": 0.0, "fusion_lat": 0.0, "lon": -77.03488516666667, "name": "89f34e4d114bf235f6e022dad49c291d"}, {"bike_id": "77b96ed6c43f85f69eacef9cdb29dea0", "type": "electric_scooter", "is_disabled": 0, "lat": 38.8953825, "rental_uris": {"ios": "https://dc.lft.to/lastmile_qr_scan", "android": "https://dc.lft.to/lastmile_qr_scan"}, "is_reserved": 0, "fusion_lon": 0.0, "fusion_lat": 0.0, "lon": -77.011328, "name": "77b96ed6c43f85f69eacef9cdb29dea0"}, {"bike_id": "25e2a082c73d24d64b0ffbda9bb76991", "type": "electric_bike", "is_disabled": 0, "lat": 38.804456, "rental_uris": {"ios": "https://dc.lft.to/lastmile_qr_scan", "android": "https://dc.lft.to/lastmile_qr_scan"}, "is_reserved": 0, "fusion_lon": 0.0, "fusion_lat": 0.0, "lon": -77.0539345, "name": "25e2a082c73d24d64b0ffbda9bb76991"}, {"bike_id": "c7161a3742301b7607a276a63bc535bf", "type": "electric_scooter", "is_disabled": 0, "lat": 38.90637666666667, "rental_uris": {"ios": "https://dc.lft.to/lastmile_qr_scan", "android": "https://dc.lft.to/lastmile_qr_scan"}, "is_reserved": 0, "fusion_lon": 0.0, "fusion_lat": 0.0, "lon": -77.01829466666666, "name": "c7161a3742301b7607a276a63bc535bf"}, {"bike_id": "82d12e364a162c4cee249aa02e85febd", "type": "electric_scooter", "is_disabled": 0, "lat": 38.876247166666666, "rental_uris": {"ios": "https://dc.lft.to/lastmile_qr_scan", "android": "https://dc.lft.to/lastmile_qr_scan"}, "is_reserved": 0, "fusion_lon": 0.0, "fusion_lat": 0.0, "lon": -77.00066416666667, "name": "82d12e364a162c4cee249aa02e85febd"}, {"bike_id": "3f1b0663b7a2557e7b7556f5c30355db", "type": "electric_scooter", "is_disabled": 0, "lat": 38.8925615, "rental_uris": {"ios": "https://dc.lft.to/lastmile_qr_scan", "android": "https://dc.lft.to/lastmile_qr_scan"}, "is_reserved": 0, "fusion_lon": 0.0, "fusion_lat": 0.0, "lon": -76.92574966666666, "name": "3f1b0663b7a2557e7b7556f5c30355db"}, {"bike_id": "20248bba5081f6733960ea92867ed321", "type": "electric_scooter", "is_disabled": 0, "lat": 38.916768, "rental_uris": {"ios": "https://dc.lft.to/lastmile_qr_scan", "android": "https://dc.lft.to/lastmile_qr_scan"}, "is_reserved": 0, "fusion_lon": 0.0, "fusion_lat": 0.0, "lon": -77.02535333333333, "name": "20248bba5081f6733960ea92867ed321"}, {"bike_id": "8a3d48a25bb38381eaef1869090574dc", "type": "electric_scooter", "is_disabled": 0, "lat": 38.90848716666667, "rental_uris": {"ios": "https://dc.lft.to/lastmile_qr_scan", "android": "https://dc.lft.to/lastmile_qr_scan"}, "is_reserved": 0, "fusion_lon": 0.0, "fusion_lat": 0.0, "lon": -77.0300895, "name": "8a3d48a25bb38381eaef1869090574dc"}, {"bike_id": "f7b95d50e9d2531ba806d2cd123adbfb", "type": "electric_scooter", "is_disabled": 0, "lat": 38.87441966666667, "rental_uris": {"ios": "https://dc.lft.to/lastmile_qr_scan", "android": "https://dc.lft.to/lastmile_qr_scan"}, "is_reserved": 0, "fusion_lon": 0.0, "fusion_lat": 0.0, "lon": -77.00065783333334, "name": "f7b95d50e9d2531ba806d2cd123adbfb"}, {"bike_id": "0774260eced4c9b95217e80948b5f2f3", "type": "electric_scooter", "is_disabled": 0, "lat": 38.86439216666667, "rental_uris": {"ios": "https://dc.lft.to/lastmile_qr_scan", "android": "https://dc.lft.to/lastmile_qr_scan"}, "is_reserved": 0, "fusion_lon": 0.0, "fusion_lat": 0.0, "lon": -76.97995916666666, "name": "0774260eced4c9b95217e80948b5f2f3"}, {"bike_id": "125417bf35c816441b66d164240cbf28", "type": "electric_scooter", "is_disabled": 0, "lat": 38.92005866666667, "rental_uris": {"ios": "https://dc.lft.to/lastmile_qr_scan", "android": "https://dc.lft.to/lastmile_qr_scan"}, "is_reserved": 0, "fusion_lon": 0.0, "fusion_lat": 0.0, "lon": -77.041726, "name": "125417bf35c816441b66d164240cbf28"}, {"bike_id": "23c1241875958e26471c95311db7e8e0", "type": "electric_scooter", "is_disabled": 0, "lat": 38.95646583333333, "rental_uris": {"ios": "https://dc.lft.to/lastmile_qr_scan", "android": "https://dc.lft.to/lastmile_qr_scan"}, "is_reserved": 0, "fusion_lon": 0.0, "fusion_lat": 0.0, "lon": -77.02400066666667, "name": "23c1241875958e26471c95311db7e8e0"}, {"bike_id": "d052d8a5e448a3c1baf5b924c6d5066b", "type": "electric_scooter", "is_disabled": 0, "lat": 38.89289433333333, "rental_uris": {"ios": "https://dc.lft.to/lastmile_qr_scan", "android": "https://dc.lft.to/lastmile_qr_scan"}, "is_reserved": 0, "fusion_lon": 0.0, "fusion_lat": 0.0, "lon": -77.04876033333333, "name": "d052d8a5e448a3c1baf5b924c6d5066b"}, {"bike_id": "bae49903e01d0749221d203ab80517d4", "type": "electric_scooter", "is_disabled": 0, "lat": 38.892365166666664, "rental_uris": {"ios": "https://dc.lft.to/lastmile_qr_scan", "android": "https://dc.lft.to/lastmile_qr_scan"}, "is_reserved": 0, "fusion_lon": 0.0, "fusion_lat": 0.0, "lon": -77.0435915, "name": "bae49903e01d0749221d203ab80517d4"}, {"bike_id": "b2527ac30481834d9c1324c1c97c3b4b", "type": "electric_scooter", "is_disabled": 0, "lat": 38.90393783333333, "rental_uris": {"ios": "https://dc.lft.to/lastmile_qr_scan", "android": "https://dc.lft.to/lastmile_qr_scan"}, "is_reserved": 0, "fusion_lon": 0.0, "fusion_lat": 0.0, "lon": -76.99010883333334, "name": "b2527ac30481834d9c1324c1c97c3b4b"}, {"bike_id": "35a1d120756fa7cb71b716991e228e20", "type": "electric_scooter", "is_disabled": 0, "lat": 38.916365, "rental_uris": {"ios": "https://dc.lft.to/lastmile_qr_scan", "android": "https://dc.lft.to/lastmile_qr_scan"}, "is_reserved": 0, "fusion_lon": 0.0, "fusion_lat": 0.0, "lon": -77.025445, "name": "35a1d120756fa7cb71b716991e228e20"}, {"bike_id": "dc48a709ce7c899292824646a886270a", "type": "electric_scooter", "is_disabled": 0, "lat": 38.88409016666667, "rental_uris": {"ios": "https://dc.lft.to/lastmile_qr_scan", "android": "https://dc.lft.to/lastmile_qr_scan"}, "is_reserved": 0, "fusion_lon": 0.0, "fusion_lat": 0.0, "lon": -76.94828633333333, "name": "dc48a709ce7c899292824646a886270a"}, {"bike_id": "0811b0485a7142a3721c3eb375f91641", "type": "electric_scooter", "is_disabled": 0, "lat": 38.90155083333333, "rental_uris": {"ios": "https://dc.lft.to/lastmile_qr_scan", "android": "https://dc.lft.to/lastmile_qr_scan"}, "is_reserved": 0, "fusion_lon": 0.0, "fusion_lat": 0.0, "lon": -77.02013816666667, "name": "0811b0485a7142a3721c3eb375f91641"}, {"bike_id": "3e186d1078fed7f422950fd72c366e0e", "type": "electric_scooter", "is_disabled": 0, "lat": 38.90062983333333, "rental_uris": {"ios": "https://dc.lft.to/lastmile_qr_scan", "android": "https://dc.lft.to/lastmile_qr_scan"}, "is_reserved": 0, "fusion_lon": 0.0, "fusion_lat": 0.0, "lon": -77.05017466666666, "name": "3e186d1078fed7f422950fd72c366e0e"}, {"bike_id": "7526db108c4d1cbd8d1af484b8aa13a4", "type": "electric_scooter", "is_disabled": 0, "lat": 38.933963, "rental_uris": {"ios": "https://dc.lft.to/lastmile_qr_scan", "android": "https://dc.lft.to/lastmile_qr_scan"}, "is_reserved": 0, "fusion_lon": 0.0, "fusion_lat": 0.0, "lon": -77.05743816666667, "name": "7526db108c4d1cbd8d1af484b8aa13a4"}, {"bike_id": "d364bd36411b4c949be7e6f2b92175be", "type": "electric_scooter", "is_disabled": 0, "lat": 38.9006485, "rental_uris": {"ios": "https://dc.lft.to/lastmile_qr_scan", "android": "https://dc.lft.to/lastmile_qr_scan"}, "is_reserved": 0, "fusion_lon": 0.0, "fusion_lat": 0.0, "lon": -77.048171, "name": "d364bd36411b4c949be7e6f2b92175be"}, {"bike_id": "11cbed0cc775ee97d89d8901c9c788aa", "type": "electric_scooter", "is_disabled": 0, "lat": 38.906633666666664, "rental_uris": {"ios": "https://dc.lft.to/lastmile_qr_scan", "android": "https://dc.lft.to/lastmile_qr_scan"}, "is_reserved": 0, "fusion_lon": 0.0, "fusion_lat": 0.0, "lon": -77.02699466666667, "name": "11cbed0cc775ee97d89d8901c9c788aa"}, {"bike_id": "5df1c20aa24c7b79c0d01c6620bc3e3f", "type": "electric_scooter", "is_disabled": 0, "lat": 38.9212155, "rental_uris": {"ios": "https://dc.lft.to/lastmile_qr_scan", "android": "https://dc.lft.to/lastmile_qr_scan"}, "is_reserved": 0, "fusion_lon": 0.0, "fusion_lat": 0.0, "lon": -77.0271345, "name": "5df1c20aa24c7b79c0d01c6620bc3e3f"}, {"bike_id": "2a55fb5dbe27ac66ceb515df4b3853c9", "type": "electric_scooter", "is_disabled": 0, "lat": 38.91743016666667, "rental_uris": {"ios": "https://dc.lft.to/lastmile_qr_scan", "android": "https://dc.lft.to/lastmile_qr_scan"}, "is_reserved": 0, "fusion_lon": 0.0, "fusion_lat": 0.0, "lon": -77.032024, "name": "2a55fb5dbe27ac66ceb515df4b3853c9"}, {"bike_id": "f8df49b28dd997db771fec84323e7a1e", "type": "electric_scooter", "is_disabled": 0, "lat": 38.9023105, "rental_uris": {"ios": "https://dc.lft.to/lastmile_qr_scan", "android": "https://dc.lft.to/lastmile_qr_scan"}, "is_reserved": 0, "fusion_lon": 0.0, "fusion_lat": 0.0, "lon": -77.02972183333333, "name": "f8df49b28dd997db771fec84323e7a1e"}, {"bike_id": "6fd21fbfc6f75a4b984ef5ab1ea533ae", "type": "electric_scooter", "is_disabled": 0, "lat": 38.964385666666665, "rental_uris": {"ios": "https://dc.lft.to/lastmile_qr_scan", "android": "https://dc.lft.to/lastmile_qr_scan"}, "is_reserved": 0, "fusion_lon": 0.0, "fusion_lat": 0.0, "lon": -77.02068633333333, "name": "6fd21fbfc6f75a4b984ef5ab1ea533ae"}, {"bike_id": "613194b1cbc6d190c4eaf831fa1409dc", "type": "electric_bike", "is_disabled": 0, "lat": 38.85523766666667, "rental_uris": {"ios": "https://dc.lft.to/lastmile_qr_scan", "android": "https://dc.lft.to/lastmile_qr_scan"}, "is_reserved": 0, "fusion_lon": 0.0, "fusion_lat": 0.0, "lon": -77.11996766666667, "name": "613194b1cbc6d190c4eaf831fa1409dc"}, {"bike_id": "8a650cb818e68c3bc3c0334f78498da6", "type": "electric_scooter", "is_disabled": 0, "lat": 38.91704033333333, "rental_uris": {"ios": "https://dc.lft.to/lastmile_qr_scan", "android": "https://dc.lft.to/lastmile_qr_scan"}, "is_reserved": 0, "fusion_lon": 0.0, "fusion_lat": 0.0, "lon": -77.03474833333334, "name": "8a650cb818e68c3bc3c0334f78498da6"}, {"bike_id": "361da7ae3880021ce719d0a47ad89cdf", "type": "electric_scooter", "is_disabled": 0, "lat": 38.916284166666664, "rental_uris": {"ios": "https://dc.lft.to/lastmile_qr_scan", "android": "https://dc.lft.to/lastmile_qr_scan"}, "is_reserved": 0, "fusion_lon": 0.0, "fusion_lat": 0.0, "lon": -77.03211683333333, "name": "361da7ae3880021ce719d0a47ad89cdf"}, {"bike_id": "bea7961021bcef0cb4ba3070e68faa9a", "type": "electric_scooter", "is_disabled": 0, "lat": 38.9191485, "rental_uris": {"ios": "https://dc.lft.to/lastmile_qr_scan", "android": "https://dc.lft.to/lastmile_qr_scan"}, "is_reserved": 0, "fusion_lon": 0.0, "fusion_lat": 0.0, "lon": -77.03062716666666, "name": "bea7961021bcef0cb4ba3070e68faa9a"}, {"bike_id": "67d76d2aa003095de93b85443cc3d437", "type": "electric_scooter", "is_disabled": 0, "lat": 38.918363, "rental_uris": {"ios": "https://dc.lft.to/lastmile_qr_scan", "android": "https://dc.lft.to/lastmile_qr_scan"}, "is_reserved": 0, "fusion_lon": 0.0, "fusion_lat": 0.0, "lon": -77.04174383333333, "name": "67d76d2aa003095de93b85443cc3d437"}, {"bike_id": "4c26dc88fe9698011454aeee383b8f6a", "type": "electric_scooter", "is_disabled": 0, "lat": 38.901121, "rental_uris": {"ios": "https://dc.lft.to/lastmile_qr_scan", "android": "https://dc.lft.to/lastmile_qr_scan"}, "is_reserved": 0, "fusion_lon": 0.0, "fusion_lat": 0.0, "lon": -77.01803433333333, "name": "4c26dc88fe9698011454aeee383b8f6a"}, {"bike_id": "03f1903ac8d375a76bb6562c87027c2b", "type": "electric_bike", "is_disabled": 0, "lat": 38.85562733333333, "rental_uris": {"ios": "https://dc.lft.to/lastmile_qr_scan", "android": "https://dc.lft.to/lastmile_qr_scan"}, "is_reserved": 0, "fusion_lon": 0.0, "fusion_lat": 0.0, "lon": -77.113186, "name": "03f1903ac8d375a76bb6562c87027c2b"}, {"bike_id": "418bc4b5bb649df77a1ef9c94cc36bb7", "type": "electric_bike", "is_disabled": 0, "lat": 38.99227916666667, "rental_uris": {"ios": "https://dc.lft.to/lastmile_qr_scan", "android": "https://dc.lft.to/lastmile_qr_scan"}, "is_reserved": 0, "fusion_lon": 0.0, "fusion_lat": 0.0, "lon": -76.94412083333333, "name": "418bc4b5bb649df77a1ef9c94cc36bb7"}, {"bike_id": "6ea78d90bae6c7392083332b7859954a", "type": "electric_scooter", "is_disabled": 0, "lat": 38.947180833333334, "rental_uris": {"ios": "https://dc.lft.to/lastmile_qr_scan", "android": "https://dc.lft.to/lastmile_qr_scan"}, "is_reserved": 0, "fusion_lon": 0.0, "fusion_lat": 0.0, "lon": -77.06542133333333, "name": "6ea78d90bae6c7392083332b7859954a"}, {"bike_id": "705dcc023f870890486cc45ab884d477", "type": "electric_scooter", "is_disabled": 0, "lat": 38.920851166666665, "rental_uris": {"ios": "https://dc.lft.to/lastmile_qr_scan", "android": "https://dc.lft.to/lastmile_qr_scan"}, "is_reserved": 0, "fusion_lon": 0.0, "fusion_lat": 0.0, "lon": -77.03888416666666, "name": "705dcc023f870890486cc45ab884d477"}, {"bike_id": "bb65af207b1561f3a99f53f6181fd461", "type": "electric_bike", "is_disabled": 0, "lat": 38.8548055, "rental_uris": {"ios": "https://dc.lft.to/lastmile_qr_scan", "android": "https://dc.lft.to/lastmile_qr_scan"}, "is_reserved": 0, "fusion_lon": 0.0, "fusion_lat": 0.0, "lon": -77.11608666666666, "name": "bb65af207b1561f3a99f53f6181fd461"}, {"bike_id": "871727c8e223b3b5b16d4a31965d65fa", "type": "electric_scooter", "is_disabled": 0, "lat": 38.9177025, "rental_uris": {"ios": "https://dc.lft.to/lastmile_qr_scan", "android": "https://dc.lft.to/lastmile_qr_scan"}, "is_reserved": 0, "fusion_lon": 0.0, "fusion_lat": 0.0, "lon": -77.02507366666667, "name": "871727c8e223b3b5b16d4a31965d65fa"}, {"bike_id": "5908bce0e3e082d7a147b1e24555ede1", "type": "electric_scooter", "is_disabled": 0, "lat": 38.90689316666667, "rental_uris": {"ios": "https://dc.lft.to/lastmile_qr_scan", "android": "https://dc.lft.to/lastmile_qr_scan"}, "is_reserved": 0, "fusion_lon": 0.0, "fusion_lat": 0.0, "lon": -77.02599216666667, "name": "5908bce0e3e082d7a147b1e24555ede1"}, {"bike_id": "e35a6f67d3754e966be1608a841b0c3e", "type": "electric_scooter", "is_disabled": 0, "lat": 38.91680016666667, "rental_uris": {"ios": "https://dc.lft.to/lastmile_qr_scan", "android": "https://dc.lft.to/lastmile_qr_scan"}, "is_reserved": 0, "fusion_lon": 0.0, "fusion_lat": 0.0, "lon": -77.02975633333334, "name": "e35a6f67d3754e966be1608a841b0c3e"}, {"bike_id": "21688e78147f35a0b3bc690113086090", "type": "electric_scooter", "is_disabled": 0, "lat": 38.92768483333333, "rental_uris": {"ios": "https://dc.lft.to/lastmile_qr_scan", "android": "https://dc.lft.to/lastmile_qr_scan"}, "is_reserved": 0, "fusion_lon": 0.0, "fusion_lat": 0.0, "lon": -77.02733083333334, "name": "21688e78147f35a0b3bc690113086090"}, {"bike_id": "6527c82a116aebdf9e1ca5f57167591e", "type": "electric_scooter", "is_disabled": 0, "lat": 38.91252633333333, "rental_uris": {"ios": "https://dc.lft.to/lastmile_qr_scan", "android": "https://dc.lft.to/lastmile_qr_scan"}, "is_reserved": 0, "fusion_lon": 0.0, "fusion_lat": 0.0, "lon": -77.0587995, "name": "6527c82a116aebdf9e1ca5f57167591e"}, {"bike_id": "0ee3496d33dd6f603a69234100eb993e", "type": "electric_scooter", "is_disabled": 0, "lat": 38.91566783333333, "rental_uris": {"ios": "https://dc.lft.to/lastmile_qr_scan", "android": "https://dc.lft.to/lastmile_qr_scan"}, "is_reserved": 0, "fusion_lon": 0.0, "fusion_lat": 0.0, "lon": -77.01195766666666, "name": "0ee3496d33dd6f603a69234100eb993e"}, {"bike_id": "b6da50a93e0680df7599de5f3e6751d3", "type": "electric_bike", "is_disabled": 0, "lat": 39.057866833333335, "rental_uris": {"ios": "https://dc.lft.to/lastmile_qr_scan", "android": "https://dc.lft.to/lastmile_qr_scan"}, "is_reserved": 0, "fusion_lon": 0.0, "fusion_lat": 0.0, "lon": -77.150263, "name": "b6da50a93e0680df7599de5f3e6751d3"}, {"bike_id": "c11aa8be37431a38875bb12240044d71", "type": "electric_scooter", "is_disabled": 0, "lat": 38.91646766666667, "rental_uris": {"ios": "https://dc.lft.to/lastmile_qr_scan", "android": "https://dc.lft.to/lastmile_qr_scan"}, "is_reserved": 0, "fusion_lon": 0.0, "fusion_lat": 0.0, "lon": -77.02387783333333, "name": "c11aa8be37431a38875bb12240044d71"}, {"bike_id": "8765c26058cbc037be276c25fab5499c", "type": "electric_bike", "is_disabled": 0, "lat": 38.819825333333334, "rental_uris": {"ios": "https://dc.lft.to/lastmile_qr_scan", "android": "https://dc.lft.to/lastmile_qr_scan"}, "is_reserved": 0, "fusion_lon": 0.0, "fusion_lat": 0.0, "lon": -76.99814983333333, "name": "8765c26058cbc037be276c25fab5499c"}, {"bike_id": "92a26b7d79d185ace832a16697c5b3b7", "type": "electric_scooter", "is_disabled": 0, "lat": 38.903545, "rental_uris": {"ios": "https://dc.lft.to/lastmile_qr_scan", "android": "https://dc.lft.to/lastmile_qr_scan"}, "is_reserved": 0, "fusion_lon": 0.0, "fusion_lat": 0.0, "lon": -77.0491545, "name": "92a26b7d79d185ace832a16697c5b3b7"}, {"bike_id": "8c3887fbdaa82ac50bc5afe8fdf9c5e2", "type": "electric_scooter", "is_disabled": 0, "lat": 38.9012755, "rental_uris": {"ios": "https://dc.lft.to/lastmile_qr_scan", "android": "https://dc.lft.to/lastmile_qr_scan"}, "is_reserved": 0, "fusion_lon": 0.0, "fusion_lat": 0.0, "lon": -77.02786416666666, "name": "8c3887fbdaa82ac50bc5afe8fdf9c5e2"}, {"bike_id": "e49645a40f65a052ef98190e721b19cb", "type": "electric_scooter", "is_disabled": 0, "lat": 38.923357333333335, "rental_uris": {"ios": "https://dc.lft.to/lastmile_qr_scan", "android": "https://dc.lft.to/lastmile_qr_scan"}, "is_reserved": 0, "fusion_lon": 0.0, "fusion_lat": 0.0, "lon": -77.03516166666667, "name": "e49645a40f65a052ef98190e721b19cb"}, {"bike_id": "3142920c239f2eae185d52125fccb935", "type": "electric_scooter", "is_disabled": 0, "lat": 38.905354833333334, "rental_uris": {"ios": "https://dc.lft.to/lastmile_qr_scan", "android": "https://dc.lft.to/lastmile_qr_scan"}, "is_reserved": 0, "fusion_lon": 0.0, "fusion_lat": 0.0, "lon": -77.05006916666666, "name": "3142920c239f2eae185d52125fccb935"}, {"bike_id": "a0a2fea5569346f9a2604c7c3194d545", "type": "electric_scooter", "is_disabled": 0, "lat": 38.91099716666667, "rental_uris": {"ios": "https://dc.lft.to/lastmile_qr_scan", "android": "https://dc.lft.to/lastmile_qr_scan"}, "is_reserved": 0, "fusion_lon": 0.0, "fusion_lat": 0.0, "lon": -77.044662, "name": "a0a2fea5569346f9a2604c7c3194d545"}, {"bike_id": "0b6c3d64940365578d11226d6d00e264", "type": "electric_scooter", "is_disabled": 0, "lat": 38.91690366666667, "rental_uris": {"ios": "https://dc.lft.to/lastmile_qr_scan", "android": "https://dc.lft.to/lastmile_qr_scan"}, "is_reserved": 0, "fusion_lon": 0.0, "fusion_lat": 0.0, "lon": -77.0251585, "name": "0b6c3d64940365578d11226d6d00e264"}, {"bike_id": "fcf800424ddf7b1cd1c04819f8d2ccee", "type": "electric_scooter", "is_disabled": 0, "lat": 38.88503716666666, "rental_uris": {"ios": "https://dc.lft.to/lastmile_qr_scan", "android": "https://dc.lft.to/lastmile_qr_scan"}, "is_reserved": 0, "fusion_lon": 0.0, "fusion_lat": 0.0, "lon": -76.97720566666666, "name": "fcf800424ddf7b1cd1c04819f8d2ccee"}, {"bike_id": "3c5de90535d966e8a72e7a14888c3ea2", "type": "electric_scooter", "is_disabled": 0, "lat": 38.900718, "rental_uris": {"ios": "https://dc.lft.to/lastmile_qr_scan", "android": "https://dc.lft.to/lastmile_qr_scan"}, "is_reserved": 0, "fusion_lon": 0.0, "fusion_lat": 0.0, "lon": -76.9901645, "name": "3c5de90535d966e8a72e7a14888c3ea2"}, {"bike_id": "d6e0a7d50d09031964c015829ad5ad68", "type": "electric_scooter", "is_disabled": 0, "lat": 38.871204666666664, "rental_uris": {"ios": "https://dc.lft.to/lastmile_qr_scan", "android": "https://dc.lft.to/lastmile_qr_scan"}, "is_reserved": 0, "fusion_lon": 0.0, "fusion_lat": 0.0, "lon": -76.98240833333334, "name": "d6e0a7d50d09031964c015829ad5ad68"}, {"bike_id": "a8347e23d4a35fd8de08ae7a58bddece", "type": "electric_scooter", "is_disabled": 0, "lat": 38.85209283333333, "rental_uris": {"ios": "https://dc.lft.to/lastmile_qr_scan", "android": "https://dc.lft.to/lastmile_qr_scan"}, "is_reserved": 0, "fusion_lon": 0.0, "fusion_lat": 0.0, "lon": -76.9855915, "name": "a8347e23d4a35fd8de08ae7a58bddece"}, {"bike_id": "dbcb5eaa124d47d228e699197653235d", "type": "electric_scooter", "is_disabled": 0, "lat": 38.902581833333336, "rental_uris": {"ios": "https://dc.lft.to/lastmile_qr_scan", "android": "https://dc.lft.to/lastmile_qr_scan"}, "is_reserved": 0, "fusion_lon": 0.0, "fusion_lat": 0.0, "lon": -77.03001183333333, "name": "dbcb5eaa124d47d228e699197653235d"}, {"bike_id": "2de5168c3c9ab46acd779241c9ee8d70", "type": "electric_scooter", "is_disabled": 0, "lat": 38.85712266666667, "rental_uris": {"ios": "https://dc.lft.to/lastmile_qr_scan", "android": "https://dc.lft.to/lastmile_qr_scan"}, "is_reserved": 0, "fusion_lon": 0.0, "fusion_lat": 0.0, "lon": -76.98982566666666, "name": "2de5168c3c9ab46acd779241c9ee8d70"}, {"bike_id": "13729720fde6baf3796634ec0e5e82b3", "type": "electric_scooter", "is_disabled": 0, "lat": 38.90990266666667, "rental_uris": {"ios": "https://dc.lft.to/lastmile_qr_scan", "android": "https://dc.lft.to/lastmile_qr_scan"}, "is_reserved": 0, "fusion_lon": 0.0, "fusion_lat": 0.0, "lon": -77.043222, "name": "13729720fde6baf3796634ec0e5e82b3"}, {"bike_id": "12a333b75585a8f23223ab1ed9c7ef5b", "type": "electric_scooter", "is_disabled": 0, "lat": 38.912658666666665, "rental_uris": {"ios": "https://dc.lft.to/lastmile_qr_scan", "android": "https://dc.lft.to/lastmile_qr_scan"}, "is_reserved": 0, "fusion_lon": 0.0, "fusion_lat": 0.0, "lon": -77.03906666666667, "name": "12a333b75585a8f23223ab1ed9c7ef5b"}, {"bike_id": "a578552e647d2f48c7750dc88a8eb718", "type": "electric_scooter", "is_disabled": 0, "lat": 38.93651216666667, "rental_uris": {"ios": "https://dc.lft.to/lastmile_qr_scan", "android": "https://dc.lft.to/lastmile_qr_scan"}, "is_reserved": 0, "fusion_lon": 0.0, "fusion_lat": 0.0, "lon": -77.03345533333334, "name": "a578552e647d2f48c7750dc88a8eb718"}, {"bike_id": "8a9dbd7234db3ff8430dcb0feb61a5b2", "type": "electric_scooter", "is_disabled": 0, "lat": 38.916042, "rental_uris": {"ios": "https://dc.lft.to/lastmile_qr_scan", "android": "https://dc.lft.to/lastmile_qr_scan"}, "is_reserved": 0, "fusion_lon": 0.0, "fusion_lat": 0.0, "lon": -77.04612333333333, "name": "8a9dbd7234db3ff8430dcb0feb61a5b2"}, {"bike_id": "714e43cfc3ea151df7360ded3be0dee4", "type": "electric_scooter", "is_disabled": 0, "lat": 38.91705116666667, "rental_uris": {"ios": "https://dc.lft.to/lastmile_qr_scan", "android": "https://dc.lft.to/lastmile_qr_scan"}, "is_reserved": 0, "fusion_lon": 0.0, "fusion_lat": 0.0, "lon": -77.03243366666666, "name": "714e43cfc3ea151df7360ded3be0dee4"}, {"bike_id": "c81b031724847bec2a26a578748db875", "type": "electric_scooter", "is_disabled": 0, "lat": 38.90141933333334, "rental_uris": {"ios": "https://dc.lft.to/lastmile_qr_scan", "android": "https://dc.lft.to/lastmile_qr_scan"}, "is_reserved": 0, "fusion_lon": 0.0, "fusion_lat": 0.0, "lon": -76.93086133333334, "name": "c81b031724847bec2a26a578748db875"}, {"bike_id": "9ab35d5e9a93cc49000a6a7d2b42a358", "type": "electric_scooter", "is_disabled": 0, "lat": 38.8991475, "rental_uris": {"ios": "https://dc.lft.to/lastmile_qr_scan", "android": "https://dc.lft.to/lastmile_qr_scan"}, "is_reserved": 0, "fusion_lon": 0.0, "fusion_lat": 0.0, "lon": -76.93364966666667, "name": "9ab35d5e9a93cc49000a6a7d2b42a358"}, {"bike_id": "5352ec30b9ee0af8c878eba1210c2076", "type": "electric_scooter", "is_disabled": 0, "lat": 38.892207666666664, "rental_uris": {"ios": "https://dc.lft.to/lastmile_qr_scan", "android": "https://dc.lft.to/lastmile_qr_scan"}, "is_reserved": 0, "fusion_lon": 0.0, "fusion_lat": 0.0, "lon": -77.03168266666667, "name": "5352ec30b9ee0af8c878eba1210c2076"}, {"bike_id": "3be2d65f2dda2acf5807d6ed94fe9fbe", "type": "electric_scooter", "is_disabled": 0, "lat": 38.93528516666667, "rental_uris": {"ios": "https://dc.lft.to/lastmile_qr_scan", "android": "https://dc.lft.to/lastmile_qr_scan"}, "is_reserved": 0, "fusion_lon": 0.0, "fusion_lat": 0.0, "lon": -77.0235175, "name": "3be2d65f2dda2acf5807d6ed94fe9fbe"}, {"bike_id": "7df111d08e78e39ad6a460db7a6f8849", "type": "electric_scooter", "is_disabled": 0, "lat": 38.91458733333333, "rental_uris": {"ios": "https://dc.lft.to/lastmile_qr_scan", "android": "https://dc.lft.to/lastmile_qr_scan"}, "is_reserved": 0, "fusion_lon": 0.0, "fusion_lat": 0.0, "lon": -77.07104016666666, "name": "7df111d08e78e39ad6a460db7a6f8849"}, {"bike_id": "b5ef6ddb7535f42a4ec4daead0446258", "type": "electric_scooter", "is_disabled": 0, "lat": 38.9149835, "rental_uris": {"ios": "https://dc.lft.to/lastmile_qr_scan", "android": "https://dc.lft.to/lastmile_qr_scan"}, "is_reserved": 0, "fusion_lon": 0.0, "fusion_lat": 0.0, "lon": -77.031926, "name": "b5ef6ddb7535f42a4ec4daead0446258"}, {"bike_id": "a8b3acc694a1090b11830e558a8f3409", "type": "electric_scooter", "is_disabled": 0, "lat": 38.8997625, "rental_uris": {"ios": "https://dc.lft.to/lastmile_qr_scan", "android": "https://dc.lft.to/lastmile_qr_scan"}, "is_reserved": 0, "fusion_lon": 0.0, "fusion_lat": 0.0, "lon": -77.02181333333333, "name": "a8b3acc694a1090b11830e558a8f3409"}, {"bike_id": "38fe67b832b08b816c170be624dfcd45", "type": "electric_scooter", "is_disabled": 0, "lat": 38.9170525, "rental_uris": {"ios": "https://dc.lft.to/lastmile_qr_scan", "android": "https://dc.lft.to/lastmile_qr_scan"}, "is_reserved": 0, "fusion_lon": 0.0, "fusion_lat": 0.0, "lon": -77.04613766666667, "name": "38fe67b832b08b816c170be624dfcd45"}, {"bike_id": "6a188a571ec89beec4c3693b7fa5bf74", "type": "electric_bike", "is_disabled": 0, "lat": 39.03989083333333, "rental_uris": {"ios": "https://dc.lft.to/lastmile_qr_scan", "android": "https://dc.lft.to/lastmile_qr_scan"}, "is_reserved": 0, "fusion_lon": 0.0, "fusion_lat": 0.0, "lon": -76.99929866666666, "name": "6a188a571ec89beec4c3693b7fa5bf74"}, {"bike_id": "84d748bf90d633bd34872f4828273195", "type": "electric_scooter", "is_disabled": 0, "lat": 38.909198833333335, "rental_uris": {"ios": "https://dc.lft.to/lastmile_qr_scan", "android": "https://dc.lft.to/lastmile_qr_scan"}, "is_reserved": 0, "fusion_lon": 0.0, "fusion_lat": 0.0, "lon": -76.99973733333333, "name": "84d748bf90d633bd34872f4828273195"}, {"bike_id": "85ebfdc399465d3e6f1579b444156f2e", "type": "electric_scooter", "is_disabled": 0, "lat": 38.900564, "rental_uris": {"ios": "https://dc.lft.to/lastmile_qr_scan", "android": "https://dc.lft.to/lastmile_qr_scan"}, "is_reserved": 0, "fusion_lon": 0.0, "fusion_lat": 0.0, "lon": -77.0365675, "name": "85ebfdc399465d3e6f1579b444156f2e"}, {"bike_id": "48af17946f819e490e13209e7cd5dae8", "type": "electric_scooter", "is_disabled": 0, "lat": 38.8929415, "rental_uris": {"ios": "https://dc.lft.to/lastmile_qr_scan", "android": "https://dc.lft.to/lastmile_qr_scan"}, "is_reserved": 0, "fusion_lon": 0.0, "fusion_lat": 0.0, "lon": -77.04871316666667, "name": "48af17946f819e490e13209e7cd5dae8"}, {"bike_id": "0764e32edd4afa799d7c96b62f13cde7", "type": "electric_scooter", "is_disabled": 0, "lat": 38.89221916666666, "rental_uris": {"ios": "https://dc.lft.to/lastmile_qr_scan", "android": "https://dc.lft.to/lastmile_qr_scan"}, "is_reserved": 0, "fusion_lon": 0.0, "fusion_lat": 0.0, "lon": -77.03172416666666, "name": "0764e32edd4afa799d7c96b62f13cde7"}, {"bike_id": "105da36bcf40d436e3fe575b1e741b81", "type": "electric_scooter", "is_disabled": 0, "lat": 38.92215516666667, "rental_uris": {"ios": "https://dc.lft.to/lastmile_qr_scan", "android": "https://dc.lft.to/lastmile_qr_scan"}, "is_reserved": 0, "fusion_lon": 0.0, "fusion_lat": 0.0, "lon": -77.03468983333333, "name": "105da36bcf40d436e3fe575b1e741b81"}, {"bike_id": "94f56505ec9557a0d6a866ab545a19dd", "type": "electric_scooter", "is_disabled": 0, "lat": 38.90708383333333, "rental_uris": {"ios": "https://dc.lft.to/lastmile_qr_scan", "android": "https://dc.lft.to/lastmile_qr_scan"}, "is_reserved": 0, "fusion_lon": 0.0, "fusion_lat": 0.0, "lon": -77.023985, "name": "94f56505ec9557a0d6a866ab545a19dd"}, {"bike_id": "11aa7c55cdb314869a0d64dc6ee174b7", "type": "electric_scooter", "is_disabled": 0, "lat": 38.9027535, "rental_uris": {"ios": "https://dc.lft.to/lastmile_qr_scan", "android": "https://dc.lft.to/lastmile_qr_scan"}, "is_reserved": 0, "fusion_lon": 0.0, "fusion_lat": 0.0, "lon": -77.01739066666667, "name": "11aa7c55cdb314869a0d64dc6ee174b7"}, {"bike_id": "04e042352082b7165893eacd828ce7f5", "type": "electric_scooter", "is_disabled": 0, "lat": 38.922450833333336, "rental_uris": {"ios": "https://dc.lft.to/lastmile_qr_scan", "android": "https://dc.lft.to/lastmile_qr_scan"}, "is_reserved": 0, "fusion_lon": 0.0, "fusion_lat": 0.0, "lon": -77.03665183333334, "name": "04e042352082b7165893eacd828ce7f5"}, {"bike_id": "d599d8c803d3b0999e8229e6fe9bee36", "type": "electric_scooter", "is_disabled": 0, "lat": 38.91686283333333, "rental_uris": {"ios": "https://dc.lft.to/lastmile_qr_scan", "android": "https://dc.lft.to/lastmile_qr_scan"}, "is_reserved": 0, "fusion_lon": 0.0, "fusion_lat": 0.0, "lon": -77.0377605, "name": "d599d8c803d3b0999e8229e6fe9bee36"}, {"bike_id": "3b59523412d13f8e9caf35c1d5bd0723", "type": "electric_scooter", "is_disabled": 0, "lat": 38.907359166666666, "rental_uris": {"ios": "https://dc.lft.to/lastmile_qr_scan", "android": "https://dc.lft.to/lastmile_qr_scan"}, "is_reserved": 0, "fusion_lon": 0.0, "fusion_lat": 0.0, "lon": -77.042141, "name": "3b59523412d13f8e9caf35c1d5bd0723"}, {"bike_id": "a08e63702caa0e0f716bce41f24e6cf6", "type": "electric_scooter", "is_disabled": 0, "lat": 38.892213166666664, "rental_uris": {"ios": "https://dc.lft.to/lastmile_qr_scan", "android": "https://dc.lft.to/lastmile_qr_scan"}, "is_reserved": 0, "fusion_lon": 0.0, "fusion_lat": 0.0, "lon": -77.02259333333333, "name": "a08e63702caa0e0f716bce41f24e6cf6"}, {"bike_id": "faeefb03a2c9cd6071d30b0e68c93fd3", "type": "electric_scooter", "is_disabled": 0, "lat": 38.897512, "rental_uris": {"ios": "https://dc.lft.to/lastmile_qr_scan", "android": "https://dc.lft.to/lastmile_qr_scan"}, "is_reserved": 0, "fusion_lon": 0.0, "fusion_lat": 0.0, "lon": -77.02767983333334, "name": "faeefb03a2c9cd6071d30b0e68c93fd3"}, {"bike_id": "c8833f9f5159b4b25b2cc16d235fabae", "type": "electric_scooter", "is_disabled": 0, "lat": 38.916700666666664, "rental_uris": {"ios": "https://dc.lft.to/lastmile_qr_scan", "android": "https://dc.lft.to/lastmile_qr_scan"}, "is_reserved": 0, "fusion_lon": 0.0, "fusion_lat": 0.0, "lon": -77.03212733333334, "name": "c8833f9f5159b4b25b2cc16d235fabae"}, {"bike_id": "c833ef537f4fdd85cd67a201b9bb4d66", "type": "electric_scooter", "is_disabled": 0, "lat": 38.9192725, "rental_uris": {"ios": "https://dc.lft.to/lastmile_qr_scan", "android": "https://dc.lft.to/lastmile_qr_scan"}, "is_reserved": 0, "fusion_lon": 0.0, "fusion_lat": 0.0, "lon": -77.07075333333333, "name": "c833ef537f4fdd85cd67a201b9bb4d66"}, {"bike_id": "6716d92f0f0189e5fd01dd1c199810cd", "type": "electric_scooter", "is_disabled": 0, "lat": 38.956509833333335, "rental_uris": {"ios": "https://dc.lft.to/lastmile_qr_scan", "android": "https://dc.lft.to/lastmile_qr_scan"}, "is_reserved": 0, "fusion_lon": 0.0, "fusion_lat": 0.0, "lon": -77.0240295, "name": "6716d92f0f0189e5fd01dd1c199810cd"}, {"bike_id": "4cde8756d743f29b43e8343cdc910482", "type": "electric_scooter", "is_disabled": 0, "lat": 38.9233745, "rental_uris": {"ios": "https://dc.lft.to/lastmile_qr_scan", "android": "https://dc.lft.to/lastmile_qr_scan"}, "is_reserved": 0, "fusion_lon": 0.0, "fusion_lat": 0.0, "lon": -77.04302133333333, "name": "4cde8756d743f29b43e8343cdc910482"}, {"bike_id": "7699634440bb01230252b855ae94b062", "type": "electric_scooter", "is_disabled": 0, "lat": 38.91562866666666, "rental_uris": {"ios": "https://dc.lft.to/lastmile_qr_scan", "android": "https://dc.lft.to/lastmile_qr_scan"}, "is_reserved": 0, "fusion_lon": 0.0, "fusion_lat": 0.0, "lon": -77.04092416666667, "name": "7699634440bb01230252b855ae94b062"}, {"bike_id": "1a7b0eac6e2e6147d26bef6c0656c80c", "type": "electric_scooter", "is_disabled": 0, "lat": 38.8988825, "rental_uris": {"ios": "https://dc.lft.to/lastmile_qr_scan", "android": "https://dc.lft.to/lastmile_qr_scan"}, "is_reserved": 0, "fusion_lon": 0.0, "fusion_lat": 0.0, "lon": -76.97686, "name": "1a7b0eac6e2e6147d26bef6c0656c80c"}, {"bike_id": "d8731f2904eba48c2578e4225cd2a8fc", "type": "electric_scooter", "is_disabled": 0, "lat": 38.921977, "rental_uris": {"ios": "https://dc.lft.to/lastmile_qr_scan", "android": "https://dc.lft.to/lastmile_qr_scan"}, "is_reserved": 0, "fusion_lon": 0.0, "fusion_lat": 0.0, "lon": -77.02026083333334, "name": "d8731f2904eba48c2578e4225cd2a8fc"}, {"bike_id": "294feb1fe4d33a39e67484b05faefd2b", "type": "electric_scooter", "is_disabled": 0, "lat": 38.9050735, "rental_uris": {"ios": "https://dc.lft.to/lastmile_qr_scan", "android": "https://dc.lft.to/lastmile_qr_scan"}, "is_reserved": 0, "fusion_lon": 0.0, "fusion_lat": 0.0, "lon": -77.04071966666666, "name": "294feb1fe4d33a39e67484b05faefd2b"}, {"bike_id": "c254a77341e95b009d87afba311dc0d2", "type": "electric_bike", "is_disabled": 0, "lat": 38.81936483333333, "rental_uris": {"ios": "https://dc.lft.to/lastmile_qr_scan", "android": "https://dc.lft.to/lastmile_qr_scan"}, "is_reserved": 0, "fusion_lon": 0.0, "fusion_lat": 0.0, "lon": -77.0020305, "name": "c254a77341e95b009d87afba311dc0d2"}, {"bike_id": "af0378ea92b4e2890de9c8fa49ffc11e", "type": "electric_scooter", "is_disabled": 0, "lat": 38.92333083333333, "rental_uris": {"ios": "https://dc.lft.to/lastmile_qr_scan", "android": "https://dc.lft.to/lastmile_qr_scan"}, "is_reserved": 0, "fusion_lon": 0.0, "fusion_lat": 0.0, "lon": -77.0529905, "name": "af0378ea92b4e2890de9c8fa49ffc11e"}, {"bike_id": "6976c666b697d13e33b49c178d05ea8b", "type": "electric_scooter", "is_disabled": 0, "lat": 38.91693083333333, "rental_uris": {"ios": "https://dc.lft.to/lastmile_qr_scan", "android": "https://dc.lft.to/lastmile_qr_scan"}, "is_reserved": 0, "fusion_lon": 0.0, "fusion_lat": 0.0, "lon": -77.03771116666667, "name": "6976c666b697d13e33b49c178d05ea8b"}, {"bike_id": "2c1926722b955acf27fc87293d076adb", "type": "electric_scooter", "is_disabled": 0, "lat": 38.93276016666667, "rental_uris": {"ios": "https://dc.lft.to/lastmile_qr_scan", "android": "https://dc.lft.to/lastmile_qr_scan"}, "is_reserved": 0, "fusion_lon": 0.0, "fusion_lat": 0.0, "lon": -77.03493366666666, "name": "2c1926722b955acf27fc87293d076adb"}, {"bike_id": "8fb51201372a225d619f7f9a18375ff7", "type": "electric_scooter", "is_disabled": 0, "lat": 38.90975266666667, "rental_uris": {"ios": "https://dc.lft.to/lastmile_qr_scan", "android": "https://dc.lft.to/lastmile_qr_scan"}, "is_reserved": 0, "fusion_lon": 0.0, "fusion_lat": 0.0, "lon": -77.0269355, "name": "8fb51201372a225d619f7f9a18375ff7"}, {"bike_id": "ae9ce34975f4144052c90cf3a5c0dc57", "type": "electric_scooter", "is_disabled": 0, "lat": 38.91792983333333, "rental_uris": {"ios": "https://dc.lft.to/lastmile_qr_scan", "android": "https://dc.lft.to/lastmile_qr_scan"}, "is_reserved": 0, "fusion_lon": 0.0, "fusion_lat": 0.0, "lon": -77.0321025, "name": "ae9ce34975f4144052c90cf3a5c0dc57"}, {"bike_id": "c134d81abf90d94c1b6aa27a55839896", "type": "electric_scooter", "is_disabled": 0, "lat": 38.942072833333334, "rental_uris": {"ios": "https://dc.lft.to/lastmile_qr_scan", "android": "https://dc.lft.to/lastmile_qr_scan"}, "is_reserved": 0, "fusion_lon": 0.0, "fusion_lat": 0.0, "lon": -77.02584783333333, "name": "c134d81abf90d94c1b6aa27a55839896"}, {"bike_id": "d9c735d0226209d9d67d99bd6130dbfe", "type": "electric_scooter", "is_disabled": 0, "lat": 38.938168, "rental_uris": {"ios": "https://dc.lft.to/lastmile_qr_scan", "android": "https://dc.lft.to/lastmile_qr_scan"}, "is_reserved": 0, "fusion_lon": 0.0, "fusion_lat": 0.0, "lon": -77.0716405, "name": "d9c735d0226209d9d67d99bd6130dbfe"}, {"bike_id": "ea2955f7fd4abd962f4b8a434a48034f", "type": "electric_bike", "is_disabled": 0, "lat": 39.056324, "rental_uris": {"ios": "https://dc.lft.to/lastmile_qr_scan", "android": "https://dc.lft.to/lastmile_qr_scan"}, "is_reserved": 0, "fusion_lon": 0.0, "fusion_lat": 0.0, "lon": -77.12525366666667, "name": "ea2955f7fd4abd962f4b8a434a48034f"}, {"bike_id": "a93e0e82f958689954a44204f2ec36f7", "type": "electric_scooter", "is_disabled": 0, "lat": 38.947840666666664, "rental_uris": {"ios": "https://dc.lft.to/lastmile_qr_scan", "android": "https://dc.lft.to/lastmile_qr_scan"}, "is_reserved": 0, "fusion_lon": 0.0, "fusion_lat": 0.0, "lon": -77.07936166666667, "name": "a93e0e82f958689954a44204f2ec36f7"}, {"bike_id": "49077db236c97126fd1ed8020ce13772", "type": "electric_scooter", "is_disabled": 0, "lat": 38.91113433333334, "rental_uris": {"ios": "https://dc.lft.to/lastmile_qr_scan", "android": "https://dc.lft.to/lastmile_qr_scan"}, "is_reserved": 0, "fusion_lon": 0.0, "fusion_lat": 0.0, "lon": -77.0325435, "name": "49077db236c97126fd1ed8020ce13772"}, {"bike_id": "42874312212ddcb12154b806289d2893", "type": "electric_scooter", "is_disabled": 0, "lat": 38.90761116666667, "rental_uris": {"ios": "https://dc.lft.to/lastmile_qr_scan", "android": "https://dc.lft.to/lastmile_qr_scan"}, "is_reserved": 0, "fusion_lon": 0.0, "fusion_lat": 0.0, "lon": -77.008836, "name": "42874312212ddcb12154b806289d2893"}, {"bike_id": "e507dbdcbabf30a8f683901f4b40e621", "type": "electric_scooter", "is_disabled": 0, "lat": 38.923395166666666, "rental_uris": {"ios": "https://dc.lft.to/lastmile_qr_scan", "android": "https://dc.lft.to/lastmile_qr_scan"}, "is_reserved": 0, "fusion_lon": 0.0, "fusion_lat": 0.0, "lon": -77.05120666666667, "name": "e507dbdcbabf30a8f683901f4b40e621"}, {"bike_id": "a5ef2cf122db70ce8366c5e643e1dff8", "type": "electric_scooter", "is_disabled": 0, "lat": 38.929746, "rental_uris": {"ios": "https://dc.lft.to/lastmile_qr_scan", "android": "https://dc.lft.to/lastmile_qr_scan"}, "is_reserved": 0, "fusion_lon": 0.0, "fusion_lat": 0.0, "lon": -77.01304783333333, "name": "a5ef2cf122db70ce8366c5e643e1dff8"}, {"bike_id": "663feddaeb9e30b09237df8e0fa0637b", "type": "electric_scooter", "is_disabled": 0, "lat": 38.89739633333333, "rental_uris": {"ios": "https://dc.lft.to/lastmile_qr_scan", "android": "https://dc.lft.to/lastmile_qr_scan"}, "is_reserved": 0, "fusion_lon": 0.0, "fusion_lat": 0.0, "lon": -76.94724566666666, "name": "663feddaeb9e30b09237df8e0fa0637b"}, {"bike_id": "0d85416b94dc286b16b9bca4caeb95ee", "type": "electric_scooter", "is_disabled": 0, "lat": 38.895247, "rental_uris": {"ios": "https://dc.lft.to/lastmile_qr_scan", "android": "https://dc.lft.to/lastmile_qr_scan"}, "is_reserved": 0, "fusion_lon": 0.0, "fusion_lat": 0.0, "lon": -76.94891333333334, "name": "0d85416b94dc286b16b9bca4caeb95ee"}, {"bike_id": "c3dc39b7d0e29169db189efcede2f70b", "type": "electric_scooter", "is_disabled": 0, "lat": 38.91565666666666, "rental_uris": {"ios": "https://dc.lft.to/lastmile_qr_scan", "android": "https://dc.lft.to/lastmile_qr_scan"}, "is_reserved": 0, "fusion_lon": 0.0, "fusion_lat": 0.0, "lon": -77.0441255, "name": "c3dc39b7d0e29169db189efcede2f70b"}, {"bike_id": "795af120f66e96a4e23475a3045d9060", "type": "electric_scooter", "is_disabled": 0, "lat": 38.900507166666664, "rental_uris": {"ios": "https://dc.lft.to/lastmile_qr_scan", "android": "https://dc.lft.to/lastmile_qr_scan"}, "is_reserved": 0, "fusion_lon": 0.0, "fusion_lat": 0.0, "lon": -77.00067366666667, "name": "795af120f66e96a4e23475a3045d9060"}, {"bike_id": "10321c1d3776be07b83fd7e8f142c3fa", "type": "electric_scooter", "is_disabled": 0, "lat": 38.92873766666666, "rental_uris": {"ios": "https://dc.lft.to/lastmile_qr_scan", "android": "https://dc.lft.to/lastmile_qr_scan"}, "is_reserved": 0, "fusion_lon": 0.0, "fusion_lat": 0.0, "lon": -77.02709216666666, "name": "10321c1d3776be07b83fd7e8f142c3fa"}, {"bike_id": "54bfced08ca2835f6b654f8d63278b78", "type": "electric_scooter", "is_disabled": 0, "lat": 38.903642166666664, "rental_uris": {"ios": "https://dc.lft.to/lastmile_qr_scan", "android": "https://dc.lft.to/lastmile_qr_scan"}, "is_reserved": 0, "fusion_lon": 0.0, "fusion_lat": 0.0, "lon": -77.03534883333333, "name": "54bfced08ca2835f6b654f8d63278b78"}, {"bike_id": "e76197509814a2d523961c2521836cb5", "type": "electric_scooter", "is_disabled": 0, "lat": 38.91528683333333, "rental_uris": {"ios": "https://dc.lft.to/lastmile_qr_scan", "android": "https://dc.lft.to/lastmile_qr_scan"}, "is_reserved": 0, "fusion_lon": 0.0, "fusion_lat": 0.0, "lon": -77.02187583333334, "name": "e76197509814a2d523961c2521836cb5"}, {"bike_id": "4e36c2112cc893954f97b35d0dc467d3", "type": "electric_scooter", "is_disabled": 0, "lat": 38.903921833333335, "rental_uris": {"ios": "https://dc.lft.to/lastmile_qr_scan", "android": "https://dc.lft.to/lastmile_qr_scan"}, "is_reserved": 0, "fusion_lon": 0.0, "fusion_lat": 0.0, "lon": -77.06864166666666, "name": "4e36c2112cc893954f97b35d0dc467d3"}, {"bike_id": "23cde0a1ac9a41718d62403038ccf28e", "type": "electric_scooter", "is_disabled": 0, "lat": 38.9414295, "rental_uris": {"ios": "https://dc.lft.to/lastmile_qr_scan", "android": "https://dc.lft.to/lastmile_qr_scan"}, "is_reserved": 0, "fusion_lon": 0.0, "fusion_lat": 0.0, "lon": -77.023237, "name": "23cde0a1ac9a41718d62403038ccf28e"}, {"bike_id": "8f6f75f041a51a2332b06de463cc6aee", "type": "electric_scooter", "is_disabled": 0, "lat": 38.85317633333333, "rental_uris": {"ios": "https://dc.lft.to/lastmile_qr_scan", "android": "https://dc.lft.to/lastmile_qr_scan"}, "is_reserved": 0, "fusion_lon": 0.0, "fusion_lat": 0.0, "lon": -76.980284, "name": "8f6f75f041a51a2332b06de463cc6aee"}, {"bike_id": "6422fe25ddaa21241af1ca79459315be", "type": "electric_scooter", "is_disabled": 0, "lat": 38.8786535, "rental_uris": {"ios": "https://dc.lft.to/lastmile_qr_scan", "android": "https://dc.lft.to/lastmile_qr_scan"}, "is_reserved": 0, "fusion_lon": 0.0, "fusion_lat": 0.0, "lon": -76.96983383333334, "name": "6422fe25ddaa21241af1ca79459315be"}, {"bike_id": "20cadb46d417b6c79c04440ff88ec946", "type": "electric_scooter", "is_disabled": 0, "lat": 38.907431, "rental_uris": {"ios": "https://dc.lft.to/lastmile_qr_scan", "android": "https://dc.lft.to/lastmile_qr_scan"}, "is_reserved": 0, "fusion_lon": 0.0, "fusion_lat": 0.0, "lon": -77.02391366666667, "name": "20cadb46d417b6c79c04440ff88ec946"}, {"bike_id": "4b2929f1fb6372fd67ef4bd31f0c9218", "type": "electric_scooter", "is_disabled": 0, "lat": 38.888454833333334, "rental_uris": {"ios": "https://dc.lft.to/lastmile_qr_scan", "android": "https://dc.lft.to/lastmile_qr_scan"}, "is_reserved": 0, "fusion_lon": 0.0, "fusion_lat": 0.0, "lon": -76.9267765, "name": "4b2929f1fb6372fd67ef4bd31f0c9218"}, {"bike_id": "776019193b3b2f241f7a5e2262130a8e", "type": "electric_scooter", "is_disabled": 0, "lat": 38.874189333333334, "rental_uris": {"ios": "https://dc.lft.to/lastmile_qr_scan", "android": "https://dc.lft.to/lastmile_qr_scan"}, "is_reserved": 0, "fusion_lon": 0.0, "fusion_lat": 0.0, "lon": -76.969077, "name": "776019193b3b2f241f7a5e2262130a8e"}, {"bike_id": "55b83cb1d83300cf325e1f42843a9b45", "type": "electric_scooter", "is_disabled": 0, "lat": 38.924719333333336, "rental_uris": {"ios": "https://dc.lft.to/lastmile_qr_scan", "android": "https://dc.lft.to/lastmile_qr_scan"}, "is_reserved": 0, "fusion_lon": 0.0, "fusion_lat": 0.0, "lon": -77.0283755, "name": "55b83cb1d83300cf325e1f42843a9b45"}, {"bike_id": "dbfe75be498e15ee6f2c1c67c49ad89f", "type": "electric_scooter", "is_disabled": 0, "lat": 38.929086833333336, "rental_uris": {"ios": "https://dc.lft.to/lastmile_qr_scan", "android": "https://dc.lft.to/lastmile_qr_scan"}, "is_reserved": 0, "fusion_lon": 0.0, "fusion_lat": 0.0, "lon": -77.02089483333333, "name": "dbfe75be498e15ee6f2c1c67c49ad89f"}, {"bike_id": "60c5ae7986216c890d45e7fa11eabb8c", "type": "electric_bike", "is_disabled": 0, "lat": 38.897592333333336, "rental_uris": {"ios": "https://dc.lft.to/lastmile_qr_scan", "android": "https://dc.lft.to/lastmile_qr_scan"}, "is_reserved": 0, "fusion_lon": 0.0, "fusion_lat": 0.0, "lon": -77.02645033333333, "name": "60c5ae7986216c890d45e7fa11eabb8c"}, {"bike_id": "62419473a485ec06ab20ec87fcef25e0", "type": "electric_bike", "is_disabled": 0, "lat": 38.914125166666665, "rental_uris": {"ios": "https://dc.lft.to/lastmile_qr_scan", "android": "https://dc.lft.to/lastmile_qr_scan"}, "is_reserved": 0, "fusion_lon": 0.0, "fusion_lat": 0.0, "lon": -77.03816716666667, "name": "62419473a485ec06ab20ec87fcef25e0"}, {"bike_id": "d7d6a1e7d565afaca8cf5b1b64e9c07b", "type": "electric_scooter", "is_disabled": 0, "lat": 38.866825166666665, "rental_uris": {"ios": "https://dc.lft.to/lastmile_qr_scan", "android": "https://dc.lft.to/lastmile_qr_scan"}, "is_reserved": 0, "fusion_lon": 0.0, "fusion_lat": 0.0, "lon": -76.985756, "name": "d7d6a1e7d565afaca8cf5b1b64e9c07b"}, {"bike_id": "5556eda0db88bd74169753e1196ab1bc", "type": "electric_scooter", "is_disabled": 0, "lat": 38.9185965, "rental_uris": {"ios": "https://dc.lft.to/lastmile_qr_scan", "android": "https://dc.lft.to/lastmile_qr_scan"}, "is_reserved": 0, "fusion_lon": 0.0, "fusion_lat": 0.0, "lon": -77.041709, "name": "5556eda0db88bd74169753e1196ab1bc"}, {"bike_id": "2123faf3d403c2298d96b753580f5220", "type": "electric_scooter", "is_disabled": 0, "lat": 38.928486666666664, "rental_uris": {"ios": "https://dc.lft.to/lastmile_qr_scan", "android": "https://dc.lft.to/lastmile_qr_scan"}, "is_reserved": 0, "fusion_lon": 0.0, "fusion_lat": 0.0, "lon": -77.0359205, "name": "2123faf3d403c2298d96b753580f5220"}, {"bike_id": "056d15408356789b7aac755fe2f41285", "type": "electric_scooter", "is_disabled": 0, "lat": 38.9315105, "rental_uris": {"ios": "https://dc.lft.to/lastmile_qr_scan", "android": "https://dc.lft.to/lastmile_qr_scan"}, "is_reserved": 0, "fusion_lon": 0.0, "fusion_lat": 0.0, "lon": -77.03350383333333, "name": "056d15408356789b7aac755fe2f41285"}, {"bike_id": "a1d3a52badc622e6a725a9039fa85dcd", "type": "electric_scooter", "is_disabled": 0, "lat": 38.924466833333334, "rental_uris": {"ios": "https://dc.lft.to/lastmile_qr_scan", "android": "https://dc.lft.to/lastmile_qr_scan"}, "is_reserved": 0, "fusion_lon": 0.0, "fusion_lat": 0.0, "lon": -77.00005916666667, "name": "a1d3a52badc622e6a725a9039fa85dcd"}, {"bike_id": "375f1d18392066c3a30951fa97d4758a", "type": "electric_scooter", "is_disabled": 0, "lat": 38.943274833333334, "rental_uris": {"ios": "https://dc.lft.to/lastmile_qr_scan", "android": "https://dc.lft.to/lastmile_qr_scan"}, "is_reserved": 0, "fusion_lon": 0.0, "fusion_lat": 0.0, "lon": -77.01479466666666, "name": "375f1d18392066c3a30951fa97d4758a"}, {"bike_id": "770a2a1024329a643082b0dfdfbff244", "type": "electric_scooter", "is_disabled": 0, "lat": 38.898006, "rental_uris": {"ios": "https://dc.lft.to/lastmile_qr_scan", "android": "https://dc.lft.to/lastmile_qr_scan"}, "is_reserved": 0, "fusion_lon": 0.0, "fusion_lat": 0.0, "lon": -77.02381416666667, "name": "770a2a1024329a643082b0dfdfbff244"}, {"bike_id": "411b56edcbc314abbd4b07f316a4548b", "type": "electric_scooter", "is_disabled": 0, "lat": 38.912723166666666, "rental_uris": {"ios": "https://dc.lft.to/lastmile_qr_scan", "android": "https://dc.lft.to/lastmile_qr_scan"}, "is_reserved": 0, "fusion_lon": 0.0, "fusion_lat": 0.0, "lon": -77.0516095, "name": "411b56edcbc314abbd4b07f316a4548b"}, {"bike_id": "a02389ab280c7638c32aa23dc822de6a", "type": "electric_scooter", "is_disabled": 0, "lat": 38.914145, "rental_uris": {"ios": "https://dc.lft.to/lastmile_qr_scan", "android": "https://dc.lft.to/lastmile_qr_scan"}, "is_reserved": 0, "fusion_lon": 0.0, "fusion_lat": 0.0, "lon": -77.019901, "name": "a02389ab280c7638c32aa23dc822de6a"}, {"bike_id": "8dd339b539f4612498540f236a70d959", "type": "electric_scooter", "is_disabled": 0, "lat": 38.917140333333336, "rental_uris": {"ios": "https://dc.lft.to/lastmile_qr_scan", "android": "https://dc.lft.to/lastmile_qr_scan"}, "is_reserved": 0, "fusion_lon": 0.0, "fusion_lat": 0.0, "lon": -77.03310566666667, "name": "8dd339b539f4612498540f236a70d959"}, {"bike_id": "dfcb3bda36b8cadf4c3477514c4d181a", "type": "electric_scooter", "is_disabled": 0, "lat": 38.91974483333333, "rental_uris": {"ios": "https://dc.lft.to/lastmile_qr_scan", "android": "https://dc.lft.to/lastmile_qr_scan"}, "is_reserved": 0, "fusion_lon": 0.0, "fusion_lat": 0.0, "lon": -77.07102, "name": "dfcb3bda36b8cadf4c3477514c4d181a"}, {"bike_id": "2011a8362de49650c0f8a6ad4c2e83bd", "type": "electric_scooter", "is_disabled": 0, "lat": 38.92473583333334, "rental_uris": {"ios": "https://dc.lft.to/lastmile_qr_scan", "android": "https://dc.lft.to/lastmile_qr_scan"}, "is_reserved": 0, "fusion_lon": 0.0, "fusion_lat": 0.0, "lon": -77.02246283333334, "name": "2011a8362de49650c0f8a6ad4c2e83bd"}, {"bike_id": "d7b26e888a3df4ba44c944d92740ef3e", "type": "electric_scooter", "is_disabled": 0, "lat": 38.908187, "rental_uris": {"ios": "https://dc.lft.to/lastmile_qr_scan", "android": "https://dc.lft.to/lastmile_qr_scan"}, "is_reserved": 0, "fusion_lon": 0.0, "fusion_lat": 0.0, "lon": -77.03201883333334, "name": "d7b26e888a3df4ba44c944d92740ef3e"}, {"bike_id": "94dd9d79382bd3231666a7feebb4fc82", "type": "electric_scooter", "is_disabled": 0, "lat": 38.9132185, "rental_uris": {"ios": "https://dc.lft.to/lastmile_qr_scan", "android": "https://dc.lft.to/lastmile_qr_scan"}, "is_reserved": 0, "fusion_lon": 0.0, "fusion_lat": 0.0, "lon": -77.0321015, "name": "94dd9d79382bd3231666a7feebb4fc82"}, {"bike_id": "efde5f9b63d147746212faa7303387e3", "type": "electric_scooter", "is_disabled": 0, "lat": 38.8981785, "rental_uris": {"ios": "https://dc.lft.to/lastmile_qr_scan", "android": "https://dc.lft.to/lastmile_qr_scan"}, "is_reserved": 0, "fusion_lon": 0.0, "fusion_lat": 0.0, "lon": -77.03325616666666, "name": "efde5f9b63d147746212faa7303387e3"}, {"bike_id": "93bdd1ad1f15cb109453f8c5cae218b1", "type": "electric_scooter", "is_disabled": 0, "lat": 38.8762835, "rental_uris": {"ios": "https://dc.lft.to/lastmile_qr_scan", "android": "https://dc.lft.to/lastmile_qr_scan"}, "is_reserved": 0, "fusion_lon": 0.0, "fusion_lat": 0.0, "lon": -76.96526333333334, "name": "93bdd1ad1f15cb109453f8c5cae218b1"}, {"bike_id": "2ad2ea39ac1a8569e7a0c4bef5a8830b", "type": "electric_bike", "is_disabled": 0, "lat": 38.8863785, "rental_uris": {"ios": "https://dc.lft.to/lastmile_qr_scan", "android": "https://dc.lft.to/lastmile_qr_scan"}, "is_reserved": 0, "fusion_lon": 0.0, "fusion_lat": 0.0, "lon": -77.12988166666666, "name": "2ad2ea39ac1a8569e7a0c4bef5a8830b"}, {"bike_id": "6869b39decbf9225500e8561914f3f11", "type": "electric_scooter", "is_disabled": 0, "lat": 38.90040066666667, "rental_uris": {"ios": "https://dc.lft.to/lastmile_qr_scan", "android": "https://dc.lft.to/lastmile_qr_scan"}, "is_reserved": 0, "fusion_lon": 0.0, "fusion_lat": 0.0, "lon": -77.0131855, "name": "6869b39decbf9225500e8561914f3f11"}, {"bike_id": "1638351d3b98b04472a7c099d6eae7f9", "type": "electric_scooter", "is_disabled": 0, "lat": 38.8766645, "rental_uris": {"ios": "https://dc.lft.to/lastmile_qr_scan", "android": "https://dc.lft.to/lastmile_qr_scan"}, "is_reserved": 0, "fusion_lon": 0.0, "fusion_lat": 0.0, "lon": -77.0005915, "name": "1638351d3b98b04472a7c099d6eae7f9"}, {"bike_id": "eb8625661051ef0a86633500eb6af90d", "type": "electric_scooter", "is_disabled": 0, "lat": 38.901929, "rental_uris": {"ios": "https://dc.lft.to/lastmile_qr_scan", "android": "https://dc.lft.to/lastmile_qr_scan"}, "is_reserved": 0, "fusion_lon": 0.0, "fusion_lat": 0.0, "lon": -77.02020633333333, "name": "eb8625661051ef0a86633500eb6af90d"}, {"bike_id": "3f0c80df9bb10899515a75fd20d06127", "type": "electric_scooter", "is_disabled": 0, "lat": 38.90508716666667, "rental_uris": {"ios": "https://dc.lft.to/lastmile_qr_scan", "android": "https://dc.lft.to/lastmile_qr_scan"}, "is_reserved": 0, "fusion_lon": 0.0, "fusion_lat": 0.0, "lon": -77.06838716666667, "name": "3f0c80df9bb10899515a75fd20d06127"}, {"bike_id": "433022043ea73122cbf47a1c29953413", "type": "electric_scooter", "is_disabled": 0, "lat": 38.900631, "rental_uris": {"ios": "https://dc.lft.to/lastmile_qr_scan", "android": "https://dc.lft.to/lastmile_qr_scan"}, "is_reserved": 0, "fusion_lon": 0.0, "fusion_lat": 0.0, "lon": -76.927432, "name": "433022043ea73122cbf47a1c29953413"}, {"bike_id": "2ba5700159e1d5465f571459121256a3", "type": "electric_scooter", "is_disabled": 0, "lat": 38.9392735, "rental_uris": {"ios": "https://dc.lft.to/lastmile_qr_scan", "android": "https://dc.lft.to/lastmile_qr_scan"}, "is_reserved": 0, "fusion_lon": 0.0, "fusion_lat": 0.0, "lon": -77.036791, "name": "2ba5700159e1d5465f571459121256a3"}, {"bike_id": "abddb019fc11ee5b95a6d21b23d81fd8", "type": "electric_scooter", "is_disabled": 0, "lat": 38.9499285, "rental_uris": {"ios": "https://dc.lft.to/lastmile_qr_scan", "android": "https://dc.lft.to/lastmile_qr_scan"}, "is_reserved": 0, "fusion_lon": 0.0, "fusion_lat": 0.0, "lon": -77.01829133333334, "name": "abddb019fc11ee5b95a6d21b23d81fd8"}, {"bike_id": "b5340a658166d4f05c274107ee3789cc", "type": "electric_scooter", "is_disabled": 0, "lat": 38.90583933333333, "rental_uris": {"ios": "https://dc.lft.to/lastmile_qr_scan", "android": "https://dc.lft.to/lastmile_qr_scan"}, "is_reserved": 0, "fusion_lon": 0.0, "fusion_lat": 0.0, "lon": -77.05152666666666, "name": "b5340a658166d4f05c274107ee3789cc"}, {"bike_id": "f567bc4a0baed67381011c3baeaa9c2d", "type": "electric_scooter", "is_disabled": 0, "lat": 38.912508333333335, "rental_uris": {"ios": "https://dc.lft.to/lastmile_qr_scan", "android": "https://dc.lft.to/lastmile_qr_scan"}, "is_reserved": 0, "fusion_lon": 0.0, "fusion_lat": 0.0, "lon": -77.02427583333333, "name": "f567bc4a0baed67381011c3baeaa9c2d"}, {"bike_id": "094d9b2be507479465ae420c26d80380", "type": "electric_scooter", "is_disabled": 0, "lat": 38.93196916666667, "rental_uris": {"ios": "https://dc.lft.to/lastmile_qr_scan", "android": "https://dc.lft.to/lastmile_qr_scan"}, "is_reserved": 0, "fusion_lon": 0.0, "fusion_lat": 0.0, "lon": -77.0239605, "name": "094d9b2be507479465ae420c26d80380"}, {"bike_id": "fa326135a1b1a978c0a0b8b647b5693c", "type": "electric_scooter", "is_disabled": 0, "lat": 38.91710783333333, "rental_uris": {"ios": "https://dc.lft.to/lastmile_qr_scan", "android": "https://dc.lft.to/lastmile_qr_scan"}, "is_reserved": 0, "fusion_lon": 0.0, "fusion_lat": 0.0, "lon": -77.0288815, "name": "fa326135a1b1a978c0a0b8b647b5693c"}, {"bike_id": "a4d97ab5f60efd3cbceaec859f05fedf", "type": "electric_scooter", "is_disabled": 0, "lat": 38.8947195, "rental_uris": {"ios": "https://dc.lft.to/lastmile_qr_scan", "android": "https://dc.lft.to/lastmile_qr_scan"}, "is_reserved": 0, "fusion_lon": 0.0, "fusion_lat": 0.0, "lon": -76.99487466666666, "name": "a4d97ab5f60efd3cbceaec859f05fedf"}, {"bike_id": "e627b8638e92c67fe87381be37e12e88", "type": "electric_scooter", "is_disabled": 0, "lat": 38.91707516666666, "rental_uris": {"ios": "https://dc.lft.to/lastmile_qr_scan", "android": "https://dc.lft.to/lastmile_qr_scan"}, "is_reserved": 0, "fusion_lon": 0.0, "fusion_lat": 0.0, "lon": -77.02385183333334, "name": "e627b8638e92c67fe87381be37e12e88"}, {"bike_id": "24c2c8bde793469ecc25596fd180d553", "type": "electric_scooter", "is_disabled": 0, "lat": 38.89840983333333, "rental_uris": {"ios": "https://dc.lft.to/lastmile_qr_scan", "android": "https://dc.lft.to/lastmile_qr_scan"}, "is_reserved": 0, "fusion_lon": 0.0, "fusion_lat": 0.0, "lon": -76.94635933333333, "name": "24c2c8bde793469ecc25596fd180d553"}, {"bike_id": "4b90db3bfc3858d487d049bdd930b367", "type": "electric_scooter", "is_disabled": 0, "lat": 38.91968766666667, "rental_uris": {"ios": "https://dc.lft.to/lastmile_qr_scan", "android": "https://dc.lft.to/lastmile_qr_scan"}, "is_reserved": 0, "fusion_lon": 0.0, "fusion_lat": 0.0, "lon": -77.01434033333334, "name": "4b90db3bfc3858d487d049bdd930b367"}, {"bike_id": "0bafa24ae3e5fef460d6de665f89142a", "type": "electric_scooter", "is_disabled": 0, "lat": 38.89227066666667, "rental_uris": {"ios": "https://dc.lft.to/lastmile_qr_scan", "android": "https://dc.lft.to/lastmile_qr_scan"}, "is_reserved": 0, "fusion_lon": 0.0, "fusion_lat": 0.0, "lon": -77.0137785, "name": "0bafa24ae3e5fef460d6de665f89142a"}, {"bike_id": "1f0f3826eb1151b7496c10ba9e226153", "type": "electric_scooter", "is_disabled": 0, "lat": 38.902318666666666, "rental_uris": {"ios": "https://dc.lft.to/lastmile_qr_scan", "android": "https://dc.lft.to/lastmile_qr_scan"}, "is_reserved": 0, "fusion_lon": 0.0, "fusion_lat": 0.0, "lon": -77.023175, "name": "1f0f3826eb1151b7496c10ba9e226153"}, {"bike_id": "3ac1b78a954cd6d03c3b8ea11da990e2", "type": "electric_scooter", "is_disabled": 0, "lat": 38.91660066666667, "rental_uris": {"ios": "https://dc.lft.to/lastmile_qr_scan", "android": "https://dc.lft.to/lastmile_qr_scan"}, "is_reserved": 0, "fusion_lon": 0.0, "fusion_lat": 0.0, "lon": -77.02303866666666, "name": "3ac1b78a954cd6d03c3b8ea11da990e2"}, {"bike_id": "cce1a81e0d53d1c0fe9e3b140fa1b231", "type": "electric_bike", "is_disabled": 0, "lat": 39.01480933333333, "rental_uris": {"ios": "https://dc.lft.to/lastmile_qr_scan", "android": "https://dc.lft.to/lastmile_qr_scan"}, "is_reserved": 0, "fusion_lon": 0.0, "fusion_lat": 0.0, "lon": -77.05492033333333, "name": "cce1a81e0d53d1c0fe9e3b140fa1b231"}, {"bike_id": "ef06c78a979163f9e8c12b0a6d646c83", "type": "electric_scooter", "is_disabled": 0, "lat": 38.90017483333333, "rental_uris": {"ios": "https://dc.lft.to/lastmile_qr_scan", "android": "https://dc.lft.to/lastmile_qr_scan"}, "is_reserved": 0, "fusion_lon": 0.0, "fusion_lat": 0.0, "lon": -77.00082166666667, "name": "ef06c78a979163f9e8c12b0a6d646c83"}, {"bike_id": "679755f8a89de3e0c830bd4c9834bb34", "type": "electric_scooter", "is_disabled": 0, "lat": 38.905489333333335, "rental_uris": {"ios": "https://dc.lft.to/lastmile_qr_scan", "android": "https://dc.lft.to/lastmile_qr_scan"}, "is_reserved": 0, "fusion_lon": 0.0, "fusion_lat": 0.0, "lon": -77.00297066666667, "name": "679755f8a89de3e0c830bd4c9834bb34"}, {"bike_id": "17c58c7f54a76493313ba55b89de75fc", "type": "electric_bike", "is_disabled": 0, "lat": 38.908682, "rental_uris": {"ios": "https://dc.lft.to/lastmile_qr_scan", "android": "https://dc.lft.to/lastmile_qr_scan"}, "is_reserved": 0, "fusion_lon": 0.0, "fusion_lat": 0.0, "lon": -77.07646066666666, "name": "17c58c7f54a76493313ba55b89de75fc"}, {"bike_id": "483da92fe27513c98e719d22b5e7d5b7", "type": "electric_scooter", "is_disabled": 0, "lat": 38.91465566666667, "rental_uris": {"ios": "https://dc.lft.to/lastmile_qr_scan", "android": "https://dc.lft.to/lastmile_qr_scan"}, "is_reserved": 0, "fusion_lon": 0.0, "fusion_lat": 0.0, "lon": -77.04543233333334, "name": "483da92fe27513c98e719d22b5e7d5b7"}, {"bike_id": "797c56b05a44e37aee6c14d93d551976", "type": "electric_scooter", "is_disabled": 0, "lat": 38.88718083333333, "rental_uris": {"ios": "https://dc.lft.to/lastmile_qr_scan", "android": "https://dc.lft.to/lastmile_qr_scan"}, "is_reserved": 0, "fusion_lon": 0.0, "fusion_lat": 0.0, "lon": -77.02180566666667, "name": "797c56b05a44e37aee6c14d93d551976"}, {"bike_id": "237e0571a542059108308e47959244f9", "type": "electric_scooter", "is_disabled": 0, "lat": 38.88429566666667, "rental_uris": {"ios": "https://dc.lft.to/lastmile_qr_scan", "android": "https://dc.lft.to/lastmile_qr_scan"}, "is_reserved": 0, "fusion_lon": 0.0, "fusion_lat": 0.0, "lon": -76.9575765, "name": "237e0571a542059108308e47959244f9"}, {"bike_id": "d716954be2a10a025b977422536dcb8c", "type": "electric_scooter", "is_disabled": 0, "lat": 38.902596333333335, "rental_uris": {"ios": "https://dc.lft.to/lastmile_qr_scan", "android": "https://dc.lft.to/lastmile_qr_scan"}, "is_reserved": 0, "fusion_lon": 0.0, "fusion_lat": 0.0, "lon": -77.03587983333334, "name": "d716954be2a10a025b977422536dcb8c"}, {"bike_id": "1c87e22e5ae5f13ecd2d4b7052a5deda", "type": "electric_scooter", "is_disabled": 0, "lat": 38.9006145, "rental_uris": {"ios": "https://dc.lft.to/lastmile_qr_scan", "android": "https://dc.lft.to/lastmile_qr_scan"}, "is_reserved": 0, "fusion_lon": 0.0, "fusion_lat": 0.0, "lon": -77.0506255, "name": "1c87e22e5ae5f13ecd2d4b7052a5deda"}, {"bike_id": "104f85621b0c79f2e02a3642468bfda7", "type": "electric_scooter", "is_disabled": 0, "lat": 38.89705033333333, "rental_uris": {"ios": "https://dc.lft.to/lastmile_qr_scan", "android": "https://dc.lft.to/lastmile_qr_scan"}, "is_reserved": 0, "fusion_lon": 0.0, "fusion_lat": 0.0, "lon": -76.92998733333333, "name": "104f85621b0c79f2e02a3642468bfda7"}, {"bike_id": "82de2e50efbc19c39d56c0709c5ab6c9", "type": "electric_scooter", "is_disabled": 0, "lat": 38.94467516666667, "rental_uris": {"ios": "https://dc.lft.to/lastmile_qr_scan", "android": "https://dc.lft.to/lastmile_qr_scan"}, "is_reserved": 0, "fusion_lon": 0.0, "fusion_lat": 0.0, "lon": -77.02343866666666, "name": "82de2e50efbc19c39d56c0709c5ab6c9"}, {"bike_id": "89c2a56f4205746e54a57da4dde3bb98", "type": "electric_bike", "is_disabled": 0, "lat": 38.8651195, "rental_uris": {"ios": "https://dc.lft.to/lastmile_qr_scan", "android": "https://dc.lft.to/lastmile_qr_scan"}, "is_reserved": 0, "fusion_lon": 0.0, "fusion_lat": 0.0, "lon": -77.1293745, "name": "89c2a56f4205746e54a57da4dde3bb98"}, {"bike_id": "4fe7f2a797951ce2004e1a0b0403a3b2", "type": "electric_bike", "is_disabled": 0, "lat": 38.803907333333335, "rental_uris": {"ios": "https://dc.lft.to/lastmile_qr_scan", "android": "https://dc.lft.to/lastmile_qr_scan"}, "is_reserved": 0, "fusion_lon": 0.0, "fusion_lat": 0.0, "lon": -77.05563466666666, "name": "4fe7f2a797951ce2004e1a0b0403a3b2"}, {"bike_id": "a80451bfafba62ce411a9b898d60c604", "type": "electric_bike", "is_disabled": 0, "lat": 38.919006833333334, "rental_uris": {"ios": "https://dc.lft.to/lastmile_qr_scan", "android": "https://dc.lft.to/lastmile_qr_scan"}, "is_reserved": 0, "fusion_lon": 0.0, "fusion_lat": 0.0, "lon": -77.00060966666666, "name": "a80451bfafba62ce411a9b898d60c604"}, {"bike_id": "b574492ba2a1b413b37f8003004c6a4a", "type": "electric_scooter", "is_disabled": 0, "lat": 38.90846283333333, "rental_uris": {"ios": "https://dc.lft.to/lastmile_qr_scan", "android": "https://dc.lft.to/lastmile_qr_scan"}, "is_reserved": 0, "fusion_lon": 0.0, "fusion_lat": 0.0, "lon": -77.02059966666667, "name": "b574492ba2a1b413b37f8003004c6a4a"}, {"bike_id": "87763b375aacd6ec6e80cf30372cc663", "type": "electric_scooter", "is_disabled": 0, "lat": 38.915534666666666, "rental_uris": {"ios": "https://dc.lft.to/lastmile_qr_scan", "android": "https://dc.lft.to/lastmile_qr_scan"}, "is_reserved": 0, "fusion_lon": 0.0, "fusion_lat": 0.0, "lon": -77.02137066666667, "name": "87763b375aacd6ec6e80cf30372cc663"}, {"bike_id": "9abd370245294c19dd6717f2bf64aca9", "type": "electric_scooter", "is_disabled": 0, "lat": 38.91497566666666, "rental_uris": {"ios": "https://dc.lft.to/lastmile_qr_scan", "android": "https://dc.lft.to/lastmile_qr_scan"}, "is_reserved": 0, "fusion_lon": 0.0, "fusion_lat": 0.0, "lon": -77.0319065, "name": "9abd370245294c19dd6717f2bf64aca9"}, {"bike_id": "f6fa94d03a20093ce6cee242417f7ba0", "type": "electric_scooter", "is_disabled": 0, "lat": 38.9294555, "rental_uris": {"ios": "https://dc.lft.to/lastmile_qr_scan", "android": "https://dc.lft.to/lastmile_qr_scan"}, "is_reserved": 0, "fusion_lon": 0.0, "fusion_lat": 0.0, "lon": -77.03764283333334, "name": "f6fa94d03a20093ce6cee242417f7ba0"}, {"bike_id": "f116c57a93d7c69616bd8c7b445ee11d", "type": "electric_scooter", "is_disabled": 0, "lat": 38.90189016666667, "rental_uris": {"ios": "https://dc.lft.to/lastmile_qr_scan", "android": "https://dc.lft.to/lastmile_qr_scan"}, "is_reserved": 0, "fusion_lon": 0.0, "fusion_lat": 0.0, "lon": -76.99678766666666, "name": "f116c57a93d7c69616bd8c7b445ee11d"}, {"bike_id": "8a6033ba14aa4fd8d5010a0236e9f4d5", "type": "electric_scooter", "is_disabled": 0, "lat": 38.8821325, "rental_uris": {"ios": "https://dc.lft.to/lastmile_qr_scan", "android": "https://dc.lft.to/lastmile_qr_scan"}, "is_reserved": 0, "fusion_lon": 0.0, "fusion_lat": 0.0, "lon": -77.0291005, "name": "8a6033ba14aa4fd8d5010a0236e9f4d5"}, {"bike_id": "8c1b5a9a104bd392ba6aecbd4690c8f6", "type": "electric_scooter", "is_disabled": 0, "lat": 38.895633, "rental_uris": {"ios": "https://dc.lft.to/lastmile_qr_scan", "android": "https://dc.lft.to/lastmile_qr_scan"}, "is_reserved": 0, "fusion_lon": 0.0, "fusion_lat": 0.0, "lon": -77.03146233333334, "name": "8c1b5a9a104bd392ba6aecbd4690c8f6"}, {"bike_id": "7a2153c4f7a466ab751cd1cb66ac89c0", "type": "electric_scooter", "is_disabled": 0, "lat": 38.87897616666667, "rental_uris": {"ios": "https://dc.lft.to/lastmile_qr_scan", "android": "https://dc.lft.to/lastmile_qr_scan"}, "is_reserved": 0, "fusion_lon": 0.0, "fusion_lat": 0.0, "lon": -76.991601, "name": "7a2153c4f7a466ab751cd1cb66ac89c0"}, {"bike_id": "3d51780a6a38cd9431f77a9ba50bbfae", "type": "electric_scooter", "is_disabled": 0, "lat": 38.93038383333333, "rental_uris": {"ios": "https://dc.lft.to/lastmile_qr_scan", "android": "https://dc.lft.to/lastmile_qr_scan"}, "is_reserved": 0, "fusion_lon": 0.0, "fusion_lat": 0.0, "lon": -77.01832816666666, "name": "3d51780a6a38cd9431f77a9ba50bbfae"}, {"bike_id": "d5ed15b8790e47b52c9a73443bfec260", "type": "electric_scooter", "is_disabled": 0, "lat": 38.8995685, "rental_uris": {"ios": "https://dc.lft.to/lastmile_qr_scan", "android": "https://dc.lft.to/lastmile_qr_scan"}, "is_reserved": 0, "fusion_lon": 0.0, "fusion_lat": 0.0, "lon": -77.01508016666666, "name": "d5ed15b8790e47b52c9a73443bfec260"}, {"bike_id": "97d03379b1ba0c3c5038141c4a50902f", "type": "electric_scooter", "is_disabled": 0, "lat": 38.9081155, "rental_uris": {"ios": "https://dc.lft.to/lastmile_qr_scan", "android": "https://dc.lft.to/lastmile_qr_scan"}, "is_reserved": 0, "fusion_lon": 0.0, "fusion_lat": 0.0, "lon": -77.02602916666666, "name": "97d03379b1ba0c3c5038141c4a50902f"}, {"bike_id": "99cc0ab31d124e3f974269ddd037c0b7", "type": "electric_scooter", "is_disabled": 0, "lat": 38.923193166666664, "rental_uris": {"ios": "https://dc.lft.to/lastmile_qr_scan", "android": "https://dc.lft.to/lastmile_qr_scan"}, "is_reserved": 0, "fusion_lon": 0.0, "fusion_lat": 0.0, "lon": -77.0367475, "name": "99cc0ab31d124e3f974269ddd037c0b7"}, {"bike_id": "5a6b135275a3fd73009781f6d2a8f981", "type": "electric_scooter", "is_disabled": 0, "lat": 38.92121383333333, "rental_uris": {"ios": "https://dc.lft.to/lastmile_qr_scan", "android": "https://dc.lft.to/lastmile_qr_scan"}, "is_reserved": 0, "fusion_lon": 0.0, "fusion_lat": 0.0, "lon": -77.012112, "name": "5a6b135275a3fd73009781f6d2a8f981"}, {"bike_id": "b68040590c647e56d86ab777fdfdb1ca", "type": "electric_scooter", "is_disabled": 0, "lat": 38.914830333333335, "rental_uris": {"ios": "https://dc.lft.to/lastmile_qr_scan", "android": "https://dc.lft.to/lastmile_qr_scan"}, "is_reserved": 0, "fusion_lon": 0.0, "fusion_lat": 0.0, "lon": -77.00282916666667, "name": "b68040590c647e56d86ab777fdfdb1ca"}, {"bike_id": "b0df5c102a062ccdc8a8889be2c9d68a", "type": "electric_scooter", "is_disabled": 0, "lat": 38.95730116666667, "rental_uris": {"ios": "https://dc.lft.to/lastmile_qr_scan", "android": "https://dc.lft.to/lastmile_qr_scan"}, "is_reserved": 0, "fusion_lon": 0.0, "fusion_lat": 0.0, "lon": -77.02799716666667, "name": "b0df5c102a062ccdc8a8889be2c9d68a"}, {"bike_id": "9b8d5421de086071d11f0200868ffd17", "type": "electric_bike", "is_disabled": 0, "lat": 38.853538666666665, "rental_uris": {"ios": "https://dc.lft.to/lastmile_qr_scan", "android": "https://dc.lft.to/lastmile_qr_scan"}, "is_reserved": 0, "fusion_lon": 0.0, "fusion_lat": 0.0, "lon": -77.086875, "name": "9b8d5421de086071d11f0200868ffd17"}, {"bike_id": "8373f6a304ef2fd24dcf0265d22d5c04", "type": "electric_scooter", "is_disabled": 0, "lat": 38.9223715, "rental_uris": {"ios": "https://dc.lft.to/lastmile_qr_scan", "android": "https://dc.lft.to/lastmile_qr_scan"}, "is_reserved": 0, "fusion_lon": 0.0, "fusion_lat": 0.0, "lon": -77.02985533333333, "name": "8373f6a304ef2fd24dcf0265d22d5c04"}, {"bike_id": "117cf52070be49c78ca755d5106634ce", "type": "electric_scooter", "is_disabled": 0, "lat": 38.8650565, "rental_uris": {"ios": "https://dc.lft.to/lastmile_qr_scan", "android": "https://dc.lft.to/lastmile_qr_scan"}, "is_reserved": 0, "fusion_lon": 0.0, "fusion_lat": 0.0, "lon": -76.99002416666667, "name": "117cf52070be49c78ca755d5106634ce"}, {"bike_id": "b12e6e634f8622e8f66fa15485bc9c18", "type": "electric_scooter", "is_disabled": 0, "lat": 38.922816166666664, "rental_uris": {"ios": "https://dc.lft.to/lastmile_qr_scan", "android": "https://dc.lft.to/lastmile_qr_scan"}, "is_reserved": 0, "fusion_lon": 0.0, "fusion_lat": 0.0, "lon": -77.04229716666667, "name": "b12e6e634f8622e8f66fa15485bc9c18"}, {"bike_id": "ad83c9ddca9380ced742f77185f81733", "type": "electric_scooter", "is_disabled": 0, "lat": 38.87496483333334, "rental_uris": {"ios": "https://dc.lft.to/lastmile_qr_scan", "android": "https://dc.lft.to/lastmile_qr_scan"}, "is_reserved": 0, "fusion_lon": 0.0, "fusion_lat": 0.0, "lon": -77.0010095, "name": "ad83c9ddca9380ced742f77185f81733"}, {"bike_id": "cf083df4c60870ece4eec0370cbc8ada", "type": "electric_scooter", "is_disabled": 0, "lat": 38.91557, "rental_uris": {"ios": "https://dc.lft.to/lastmile_qr_scan", "android": "https://dc.lft.to/lastmile_qr_scan"}, "is_reserved": 0, "fusion_lon": 0.0, "fusion_lat": 0.0, "lon": -77.02568516666666, "name": "cf083df4c60870ece4eec0370cbc8ada"}, {"bike_id": "d6eb2a2cc18bb50ca7a598051dab1c20", "type": "electric_scooter", "is_disabled": 0, "lat": 38.89223616666666, "rental_uris": {"ios": "https://dc.lft.to/lastmile_qr_scan", "android": "https://dc.lft.to/lastmile_qr_scan"}, "is_reserved": 0, "fusion_lon": 0.0, "fusion_lat": 0.0, "lon": -77.013755, "name": "d6eb2a2cc18bb50ca7a598051dab1c20"}, {"bike_id": "766f5084ea80bd985ba4975c5ff1e3ec", "type": "electric_scooter", "is_disabled": 0, "lat": 38.92325, "rental_uris": {"ios": "https://dc.lft.to/lastmile_qr_scan", "android": "https://dc.lft.to/lastmile_qr_scan"}, "is_reserved": 0, "fusion_lon": 0.0, "fusion_lat": 0.0, "lon": -77.03681616666667, "name": "766f5084ea80bd985ba4975c5ff1e3ec"}, {"bike_id": "44378a70d2784e125af9e7a6915c7f65", "type": "electric_scooter", "is_disabled": 0, "lat": 38.91709183333333, "rental_uris": {"ios": "https://dc.lft.to/lastmile_qr_scan", "android": "https://dc.lft.to/lastmile_qr_scan"}, "is_reserved": 0, "fusion_lon": 0.0, "fusion_lat": 0.0, "lon": -77.0248195, "name": "44378a70d2784e125af9e7a6915c7f65"}, {"bike_id": "72f5b8b1c1d32b29a04f0f6b891150ab", "type": "electric_scooter", "is_disabled": 0, "lat": 38.91806183333333, "rental_uris": {"ios": "https://dc.lft.to/lastmile_qr_scan", "android": "https://dc.lft.to/lastmile_qr_scan"}, "is_reserved": 0, "fusion_lon": 0.0, "fusion_lat": 0.0, "lon": -77.02495366666666, "name": "72f5b8b1c1d32b29a04f0f6b891150ab"}, {"bike_id": "eafa1bf5c379a6b952409a9365d03418", "type": "electric_scooter", "is_disabled": 0, "lat": 38.95002816666667, "rental_uris": {"ios": "https://dc.lft.to/lastmile_qr_scan", "android": "https://dc.lft.to/lastmile_qr_scan"}, "is_reserved": 0, "fusion_lon": 0.0, "fusion_lat": 0.0, "lon": -77.01845733333333, "name": "eafa1bf5c379a6b952409a9365d03418"}, {"bike_id": "3a553b0085b83e578f70ab688fd543c7", "type": "electric_scooter", "is_disabled": 0, "lat": 38.9228565, "rental_uris": {"ios": "https://dc.lft.to/lastmile_qr_scan", "android": "https://dc.lft.to/lastmile_qr_scan"}, "is_reserved": 0, "fusion_lon": 0.0, "fusion_lat": 0.0, "lon": -77.02966716666667, "name": "3a553b0085b83e578f70ab688fd543c7"}, {"bike_id": "78aed34cab72da3470a24e9f381f417e", "type": "electric_scooter", "is_disabled": 0, "lat": 38.8443225, "rental_uris": {"ios": "https://dc.lft.to/lastmile_qr_scan", "android": "https://dc.lft.to/lastmile_qr_scan"}, "is_reserved": 0, "fusion_lon": 0.0, "fusion_lat": 0.0, "lon": -76.998677, "name": "78aed34cab72da3470a24e9f381f417e"}, {"bike_id": "46fbb8e51d9a14ee8d0ac578d0bbbfa7", "type": "electric_scooter", "is_disabled": 0, "lat": 38.94070833333333, "rental_uris": {"ios": "https://dc.lft.to/lastmile_qr_scan", "android": "https://dc.lft.to/lastmile_qr_scan"}, "is_reserved": 0, "fusion_lon": 0.0, "fusion_lat": 0.0, "lon": -77.06109533333333, "name": "46fbb8e51d9a14ee8d0ac578d0bbbfa7"}, {"bike_id": "f5df4d1197c969f12bcfb3c60cbcb15e", "type": "electric_scooter", "is_disabled": 0, "lat": 38.91192433333333, "rental_uris": {"ios": "https://dc.lft.to/lastmile_qr_scan", "android": "https://dc.lft.to/lastmile_qr_scan"}, "is_reserved": 0, "fusion_lon": 0.0, "fusion_lat": 0.0, "lon": -77.01900916666666, "name": "f5df4d1197c969f12bcfb3c60cbcb15e"}, {"bike_id": "e2d2c6402d325a85c777113dbcf8773f", "type": "electric_scooter", "is_disabled": 0, "lat": 38.91034466666667, "rental_uris": {"ios": "https://dc.lft.to/lastmile_qr_scan", "android": "https://dc.lft.to/lastmile_qr_scan"}, "is_reserved": 0, "fusion_lon": 0.0, "fusion_lat": 0.0, "lon": -77.03803566666667, "name": "e2d2c6402d325a85c777113dbcf8773f"}, {"bike_id": "00e3f84bb0efbf61c667dfddb3976d8c", "type": "electric_bike", "is_disabled": 0, "lat": 38.8810465, "rental_uris": {"ios": "https://dc.lft.to/lastmile_qr_scan", "android": "https://dc.lft.to/lastmile_qr_scan"}, "is_reserved": 0, "fusion_lon": 0.0, "fusion_lat": 0.0, "lon": -77.015099, "name": "00e3f84bb0efbf61c667dfddb3976d8c"}, {"bike_id": "c38ad984a3a1f817015910d4fdc312db", "type": "electric_scooter", "is_disabled": 0, "lat": 38.90785533333333, "rental_uris": {"ios": "https://dc.lft.to/lastmile_qr_scan", "android": "https://dc.lft.to/lastmile_qr_scan"}, "is_reserved": 0, "fusion_lon": 0.0, "fusion_lat": 0.0, "lon": -77.04174283333333, "name": "c38ad984a3a1f817015910d4fdc312db"}, {"bike_id": "f164e1791f22f8a9a464ee2d8bdd8cd9", "type": "electric_scooter", "is_disabled": 0, "lat": 38.90216866666667, "rental_uris": {"ios": "https://dc.lft.to/lastmile_qr_scan", "android": "https://dc.lft.to/lastmile_qr_scan"}, "is_reserved": 0, "fusion_lon": 0.0, "fusion_lat": 0.0, "lon": -77.02929333333333, "name": "f164e1791f22f8a9a464ee2d8bdd8cd9"}, {"bike_id": "ccd1ac2b5a83fa1584c8c94c853b9519", "type": "electric_scooter", "is_disabled": 0, "lat": 38.9429085, "rental_uris": {"ios": "https://dc.lft.to/lastmile_qr_scan", "android": "https://dc.lft.to/lastmile_qr_scan"}, "is_reserved": 0, "fusion_lon": 0.0, "fusion_lat": 0.0, "lon": -77.02171133333333, "name": "ccd1ac2b5a83fa1584c8c94c853b9519"}, {"bike_id": "bc36e4a58eb5c12684a70b4b21f72484", "type": "electric_scooter", "is_disabled": 0, "lat": 38.916641, "rental_uris": {"ios": "https://dc.lft.to/lastmile_qr_scan", "android": "https://dc.lft.to/lastmile_qr_scan"}, "is_reserved": 0, "fusion_lon": 0.0, "fusion_lat": 0.0, "lon": -77.0239465, "name": "bc36e4a58eb5c12684a70b4b21f72484"}, {"bike_id": "462e9e8e455549a6da3c3357fa3d5db0", "type": "electric_scooter", "is_disabled": 0, "lat": 38.907196166666665, "rental_uris": {"ios": "https://dc.lft.to/lastmile_qr_scan", "android": "https://dc.lft.to/lastmile_qr_scan"}, "is_reserved": 0, "fusion_lon": 0.0, "fusion_lat": 0.0, "lon": -77.026272, "name": "462e9e8e455549a6da3c3357fa3d5db0"}, {"bike_id": "8089bffacac04cf426557b6f9e8fb8d5", "type": "electric_scooter", "is_disabled": 0, "lat": 38.91236983333334, "rental_uris": {"ios": "https://dc.lft.to/lastmile_qr_scan", "android": "https://dc.lft.to/lastmile_qr_scan"}, "is_reserved": 0, "fusion_lon": 0.0, "fusion_lat": 0.0, "lon": -77.0221935, "name": "8089bffacac04cf426557b6f9e8fb8d5"}, {"bike_id": "b5a5e1d05029f4bc815dd3e43705d840", "type": "electric_scooter", "is_disabled": 0, "lat": 38.894858166666666, "rental_uris": {"ios": "https://dc.lft.to/lastmile_qr_scan", "android": "https://dc.lft.to/lastmile_qr_scan"}, "is_reserved": 0, "fusion_lon": 0.0, "fusion_lat": 0.0, "lon": -77.0109905, "name": "b5a5e1d05029f4bc815dd3e43705d840"}, {"bike_id": "f82ecfbd664a7c5d5d16685c9a446088", "type": "electric_scooter", "is_disabled": 0, "lat": 38.865059333333335, "rental_uris": {"ios": "https://dc.lft.to/lastmile_qr_scan", "android": "https://dc.lft.to/lastmile_qr_scan"}, "is_reserved": 0, "fusion_lon": 0.0, "fusion_lat": 0.0, "lon": -76.9900325, "name": "f82ecfbd664a7c5d5d16685c9a446088"}, {"bike_id": "17f1d25faa4f08d6a4fb648269f01886", "type": "electric_scooter", "is_disabled": 0, "lat": 38.9198265, "rental_uris": {"ios": "https://dc.lft.to/lastmile_qr_scan", "android": "https://dc.lft.to/lastmile_qr_scan"}, "is_reserved": 0, "fusion_lon": 0.0, "fusion_lat": 0.0, "lon": -77.04169483333334, "name": "17f1d25faa4f08d6a4fb648269f01886"}, {"bike_id": "38d2e3da9f64b8add2f9a5a6e1f1e200", "type": "electric_scooter", "is_disabled": 0, "lat": 38.907699, "rental_uris": {"ios": "https://dc.lft.to/lastmile_qr_scan", "android": "https://dc.lft.to/lastmile_qr_scan"}, "is_reserved": 0, "fusion_lon": 0.0, "fusion_lat": 0.0, "lon": -77.02709916666667, "name": "38d2e3da9f64b8add2f9a5a6e1f1e200"}, {"bike_id": "c87e6351b9ff55aa11351dad50490381", "type": "electric_scooter", "is_disabled": 0, "lat": 38.892411333333335, "rental_uris": {"ios": "https://dc.lft.to/lastmile_qr_scan", "android": "https://dc.lft.to/lastmile_qr_scan"}, "is_reserved": 0, "fusion_lon": 0.0, "fusion_lat": 0.0, "lon": -76.95328533333333, "name": "c87e6351b9ff55aa11351dad50490381"}, {"bike_id": "9a4a5153791da1db5f611083e2fb6c98", "type": "electric_bike", "is_disabled": 0, "lat": 38.80903433333334, "rental_uris": {"ios": "https://dc.lft.to/lastmile_qr_scan", "android": "https://dc.lft.to/lastmile_qr_scan"}, "is_reserved": 0, "fusion_lon": 0.0, "fusion_lat": 0.0, "lon": -77.08660966666666, "name": "9a4a5153791da1db5f611083e2fb6c98"}, {"bike_id": "8785c4b02812c419bf26598441146d8a", "type": "electric_scooter", "is_disabled": 0, "lat": 38.926359833333336, "rental_uris": {"ios": "https://dc.lft.to/lastmile_qr_scan", "android": "https://dc.lft.to/lastmile_qr_scan"}, "is_reserved": 0, "fusion_lon": 0.0, "fusion_lat": 0.0, "lon": -77.01383066666666, "name": "8785c4b02812c419bf26598441146d8a"}, {"bike_id": "865372997ee308165b3b92a598dc17cb", "type": "electric_scooter", "is_disabled": 0, "lat": 38.913804666666664, "rental_uris": {"ios": "https://dc.lft.to/lastmile_qr_scan", "android": "https://dc.lft.to/lastmile_qr_scan"}, "is_reserved": 0, "fusion_lon": 0.0, "fusion_lat": 0.0, "lon": -77.06922533333334, "name": "865372997ee308165b3b92a598dc17cb"}, {"bike_id": "e8e9b137ff18bb6c1a42f15948c2651b", "type": "electric_scooter", "is_disabled": 0, "lat": 38.90061133333333, "rental_uris": {"ios": "https://dc.lft.to/lastmile_qr_scan", "android": "https://dc.lft.to/lastmile_qr_scan"}, "is_reserved": 0, "fusion_lon": 0.0, "fusion_lat": 0.0, "lon": -77.02613216666667, "name": "e8e9b137ff18bb6c1a42f15948c2651b"}, {"bike_id": "731bfe61bab70f610175b9a4c92622b1", "type": "electric_scooter", "is_disabled": 0, "lat": 38.9176605, "rental_uris": {"ios": "https://dc.lft.to/lastmile_qr_scan", "android": "https://dc.lft.to/lastmile_qr_scan"}, "is_reserved": 0, "fusion_lon": 0.0, "fusion_lat": 0.0, "lon": -77.02957933333333, "name": "731bfe61bab70f610175b9a4c92622b1"}, {"bike_id": "699360228f0202cf443fab1b3873c31d", "type": "electric_scooter", "is_disabled": 0, "lat": 38.893002833333334, "rental_uris": {"ios": "https://dc.lft.to/lastmile_qr_scan", "android": "https://dc.lft.to/lastmile_qr_scan"}, "is_reserved": 0, "fusion_lon": 0.0, "fusion_lat": 0.0, "lon": -77.04165333333333, "name": "699360228f0202cf443fab1b3873c31d"}, {"bike_id": "8cae699fa7cd8ac2f28bbbedd06997af", "type": "electric_scooter", "is_disabled": 0, "lat": 38.87501966666667, "rental_uris": {"ios": "https://dc.lft.to/lastmile_qr_scan", "android": "https://dc.lft.to/lastmile_qr_scan"}, "is_reserved": 0, "fusion_lon": 0.0, "fusion_lat": 0.0, "lon": -77.01229316666667, "name": "8cae699fa7cd8ac2f28bbbedd06997af"}, {"bike_id": "1eef33bdf1df520b7236d46f65a909e4", "type": "electric_bike", "is_disabled": 0, "lat": 38.9194995, "rental_uris": {"ios": "https://dc.lft.to/lastmile_qr_scan", "android": "https://dc.lft.to/lastmile_qr_scan"}, "is_reserved": 0, "fusion_lon": 0.0, "fusion_lat": 0.0, "lon": -77.00316966666666, "name": "1eef33bdf1df520b7236d46f65a909e4"}, {"bike_id": "c7bbbeea4ceeafb19dc542669f2dfb9a", "type": "electric_scooter", "is_disabled": 0, "lat": 38.881155666666665, "rental_uris": {"ios": "https://dc.lft.to/lastmile_qr_scan", "android": "https://dc.lft.to/lastmile_qr_scan"}, "is_reserved": 0, "fusion_lon": 0.0, "fusion_lat": 0.0, "lon": -77.00182583333333, "name": "c7bbbeea4ceeafb19dc542669f2dfb9a"}, {"bike_id": "cf3134767ca0dad09bd9359d0fdae155", "type": "electric_scooter", "is_disabled": 0, "lat": 38.86694766666667, "rental_uris": {"ios": "https://dc.lft.to/lastmile_qr_scan", "android": "https://dc.lft.to/lastmile_qr_scan"}, "is_reserved": 0, "fusion_lon": 0.0, "fusion_lat": 0.0, "lon": -76.98713266666667, "name": "cf3134767ca0dad09bd9359d0fdae155"}, {"bike_id": "ab67594af67004f0ecc489e6d685e302", "type": "electric_scooter", "is_disabled": 0, "lat": 38.917046, "rental_uris": {"ios": "https://dc.lft.to/lastmile_qr_scan", "android": "https://dc.lft.to/lastmile_qr_scan"}, "is_reserved": 0, "fusion_lon": 0.0, "fusion_lat": 0.0, "lon": -77.006564, "name": "ab67594af67004f0ecc489e6d685e302"}, {"bike_id": "72ca0d07184c571b368de8d632affff6", "type": "electric_bike", "is_disabled": 0, "lat": 39.05279016666667, "rental_uris": {"ios": "https://dc.lft.to/lastmile_qr_scan", "android": "https://dc.lft.to/lastmile_qr_scan"}, "is_reserved": 0, "fusion_lon": 0.0, "fusion_lat": 0.0, "lon": -77.08071516666666, "name": "72ca0d07184c571b368de8d632affff6"}, {"bike_id": "46f00dc0096e1da0ab294134c96a2d4a", "type": "electric_scooter", "is_disabled": 0, "lat": 38.9312715, "rental_uris": {"ios": "https://dc.lft.to/lastmile_qr_scan", "android": "https://dc.lft.to/lastmile_qr_scan"}, "is_reserved": 0, "fusion_lon": 0.0, "fusion_lat": 0.0, "lon": -76.9957285, "name": "46f00dc0096e1da0ab294134c96a2d4a"}, {"bike_id": "bc0c7cf7772a41662dad4af6658d3e1a", "type": "electric_scooter", "is_disabled": 0, "lat": 38.918228, "rental_uris": {"ios": "https://dc.lft.to/lastmile_qr_scan", "android": "https://dc.lft.to/lastmile_qr_scan"}, "is_reserved": 0, "fusion_lon": 0.0, "fusion_lat": 0.0, "lon": -77.0494235, "name": "bc0c7cf7772a41662dad4af6658d3e1a"}, {"bike_id": "49b20335a1993c3710efcc0c1fe2d707", "type": "electric_scooter", "is_disabled": 0, "lat": 38.933372166666665, "rental_uris": {"ios": "https://dc.lft.to/lastmile_qr_scan", "android": "https://dc.lft.to/lastmile_qr_scan"}, "is_reserved": 0, "fusion_lon": 0.0, "fusion_lat": 0.0, "lon": -77.02058216666667, "name": "49b20335a1993c3710efcc0c1fe2d707"}, {"bike_id": "6165dffb554283dc54db5223a9e776c3", "type": "electric_scooter", "is_disabled": 0, "lat": 38.907054333333335, "rental_uris": {"ios": "https://dc.lft.to/lastmile_qr_scan", "android": "https://dc.lft.to/lastmile_qr_scan"}, "is_reserved": 0, "fusion_lon": 0.0, "fusion_lat": 0.0, "lon": -77.02400333333334, "name": "6165dffb554283dc54db5223a9e776c3"}, {"bike_id": "84c6eafa07475a82b72c93cc96e6ac91", "type": "electric_scooter", "is_disabled": 0, "lat": 38.91683616666667, "rental_uris": {"ios": "https://dc.lft.to/lastmile_qr_scan", "android": "https://dc.lft.to/lastmile_qr_scan"}, "is_reserved": 0, "fusion_lon": 0.0, "fusion_lat": 0.0, "lon": -77.02966266666667, "name": "84c6eafa07475a82b72c93cc96e6ac91"}, {"bike_id": "3cae21c110e50fe0200526560a6ad68c", "type": "electric_scooter", "is_disabled": 0, "lat": 38.9298265, "rental_uris": {"ios": "https://dc.lft.to/lastmile_qr_scan", "android": "https://dc.lft.to/lastmile_qr_scan"}, "is_reserved": 0, "fusion_lon": 0.0, "fusion_lat": 0.0, "lon": -77.03201833333334, "name": "3cae21c110e50fe0200526560a6ad68c"}, {"bike_id": "7f1e4c1d1351af24c92712cc60dd87a5", "type": "electric_scooter", "is_disabled": 0, "lat": 38.93458233333333, "rental_uris": {"ios": "https://dc.lft.to/lastmile_qr_scan", "android": "https://dc.lft.to/lastmile_qr_scan"}, "is_reserved": 0, "fusion_lon": 0.0, "fusion_lat": 0.0, "lon": -77.02794366666667, "name": "7f1e4c1d1351af24c92712cc60dd87a5"}, {"bike_id": "5d7f46265378d6911b39bd46446cb298", "type": "electric_bike", "is_disabled": 0, "lat": 38.882454833333334, "rental_uris": {"ios": "https://dc.lft.to/lastmile_qr_scan", "android": "https://dc.lft.to/lastmile_qr_scan"}, "is_reserved": 0, "fusion_lon": 0.0, "fusion_lat": 0.0, "lon": -76.96262166666666, "name": "5d7f46265378d6911b39bd46446cb298"},