{"data": {"bikes": [{"name": "6280541f655006edb2767e416fa55d62", "lon": -77.057038, "lat": 38.90548716666667, "type": "electric_bike", "is_disabled": 0, "rental_uris": {"android": "https://dc.lft.to/lastmile_qr_scan", "ios": "https://dc.lft.to/lastmile_qr_scan"}, "fusion_lon": 0.0, "bike_id": "6280541f655006edb2767e416fa55d62", "fusion_lat": 0.0, "is_reserved": 0}, {"name": "2992a3dfd9702c8e2637b008155f5f89", "lon": -76.98835316666667, "lat": 38.900056666666664, "type": "electric_scooter", "is_disabled": 0, "rental_uris": {"android": "https://dc.lft.to/lastmile_qr_scan", "ios": "https://dc.lft.to/lastmile_qr_scan"}, "fusion_lon": 0.0, "bike_id": "2992a3dfd9702c8e2637b008155f5f89", "fusion_lat": 0.0, "is_reserved": 0}, {"name": "e4fe4e9bba06a378320de48b3920afe5", "lon": -77.03262283333333, "lat": 38.939818333333335, "type": "electric_scooter", "is_disabled": 0, "rental_uris": {"android": "https://dc.lft.to/lastmile_qr_scan", "ios": "https://dc.lft.to/lastmile_qr_scan"}, "fusion_lon": 0.0, "bike_id": "e4fe4e9bba06a378320de48b3920afe5", "fusion_lat": 0.0, "is_reserved": 0}, {"name": "c2510e8c4592a9e438c83b1426b6fb05", "lon": -76.9833475, "lat": 38.86569733333333, "type": "electric_scooter", "is_disabled": 0, "rental_uris": {"android": "https://dc.lft.to/lastmile_qr_scan", "ios": "https://dc.lft.to/lastmile_qr_scan"}, "fusion_lon": 0.0, "bike_id": "c2510e8c4592a9e438c83b1426b6fb05", "fusion_lat": 0.0, "is_reserved": 0}, {"name": "9055032483731bfec0cbd14b7f98f70a", "lon": -77.02711016666667, "lat": 38.928717666666664, "type": "electric_scooter", "is_disabled": 0, "rental_uris": {"android": "https://dc.lft.to/lastmile_qr_scan", "ios": "https://dc.lft.to/lastmile_qr_scan"}, "fusion_lon": 0.0, "bike_id": "9055032483731bfec0cbd14b7f98f70a", "fusion_lat": 0.0, "is_reserved": 0}, {"name": "8220f8c0c61328069f07a725a5e26f29", "lon": -77.02797466666667, "lat": 38.960458, "type": "electric_scooter", "is_disabled": 0, "rental_uris": {"android": "https://dc.lft.to/lastmile_qr_scan", "ios": "https://dc.lft.to/lastmile_qr_scan"}, "fusion_lon": 0.0, "bike_id": "8220f8c0c61328069f07a725a5e26f29", "fusion_lat": 0.0, "is_reserved": 0}, {"name": "765f90937833c32def998b1f9b17ad91", "lon": -76.986685, "lat": 38.90675816666667, "type": "electric_scooter", "is_disabled": 0, "rental_uris": {"android": "https://dc.lft.to/lastmile_qr_scan", "ios": "https://dc.lft.to/lastmile_qr_scan"}, "fusion_lon": 0.0, "bike_id": "765f90937833c32def998b1f9b17ad91", "fusion_lat": 0.0, "is_reserved": 0}, {"name": "a2269cc439eec3e50717d834148c4337", "lon": -77.02993983333333, "lat": 38.90270433333333, "type": "electric_scooter", "is_disabled": 0, "rental_uris": {"android": "https://dc.lft.to/lastmile_qr_scan", "ios": "https://dc.lft.to/lastmile_qr_scan"}, "fusion_lon": 0.0, "bike_id": "a2269cc439eec3e50717d834148c4337", "fusion_lat": 0.0, "is_reserved": 0}, {"name": "0cc3395d5d57f414de39385ea78bcff1", "lon": -77.01290533333334, "lat": 38.91806533333333, "type": "electric_scooter", "is_disabled": 0, "rental_uris": {"android": "https://dc.lft.to/lastmile_qr_scan", "ios": "https://dc.lft.to/lastmile_qr_scan"}, "fusion_lon": 0.0, "bike_id": "0cc3395d5d57f414de39385ea78bcff1", "fusion_lat": 0.0, "is_reserved": 0}, {"name": "d646bfe684096ce27c1b59216b41b3bb", "lon": -77.00848266666667, "lat": 38.9048265, "type": "electric_bike", "is_disabled": 0, "rental_uris": {"android": "https://dc.lft.to/lastmile_qr_scan", "ios": "https://dc.lft.to/lastmile_qr_scan"}, "fusion_lon": 0.0, "bike_id": "d646bfe684096ce27c1b59216b41b3bb", "fusion_lat": 0.0, "is_reserved": 0}, {"name": "f539d37e053e433e644874008b4fc138", "lon": -77.0124745, "lat": 38.91570183333333, "type": "electric_scooter", "is_disabled": 0, "rental_uris": {"android": "https://dc.lft.to/lastmile_qr_scan", "ios": "https://dc.lft.to/lastmile_qr_scan"}, "fusion_lon": 0.0, "bike_id": "f539d37e053e433e644874008b4fc138", "fusion_lat": 0.0, "is_reserved": 0}, {"name": "e2fcea32bcb02757422e995567db8af4", "lon": -77.04548466666667, "lat": 38.8982985, "type": "electric_scooter", "is_disabled": 0, "rental_uris": {"android": "https://dc.lft.to/lastmile_qr_scan", "ios": "https://dc.lft.to/lastmile_qr_scan"}, "fusion_lon": 0.0, "bike_id": "e2fcea32bcb02757422e995567db8af4", "fusion_lat": 0.0, "is_reserved": 0}, {"name": "75151657f537040a5349ec6ae41e3501", "lon": -77.0421525, "lat": 38.924375166666664, "type": "electric_scooter", "is_disabled": 0, "rental_uris": {"android": "https://dc.lft.to/lastmile_qr_scan", "ios": "https://dc.lft.to/lastmile_qr_scan"}, "fusion_lon": 0.0, "bike_id": "75151657f537040a5349ec6ae41e3501", "fusion_lat": 0.0, "is_reserved": 0}, {"name": "26488f10fa3cebaaaa61d5cddf6245e9", "lon": -77.0411395, "lat": 38.91268733333333, "type": "electric_scooter", "is_disabled": 0, "rental_uris": {"android": "https://dc.lft.to/lastmile_qr_scan", "ios": "https://dc.lft.to/lastmile_qr_scan"}, "fusion_lon": 0.0, "bike_id": "26488f10fa3cebaaaa61d5cddf6245e9", "fusion_lat": 0.0, "is_reserved": 0}, {"name": "15773bcd977d5158f26ebce8ea415ac2", "lon": -77.02383416666666, "lat": 38.89228966666667, "type": "electric_scooter", "is_disabled": 0, "rental_uris": {"android": "https://dc.lft.to/lastmile_qr_scan", "ios": "https://dc.lft.to/lastmile_qr_scan"}, "fusion_lon": 0.0, "bike_id": "15773bcd977d5158f26ebce8ea415ac2", "fusion_lat": 0.0, "is_reserved": 0}, {"name": "d96ce8b38f72c3f34aa74a8fcee2879b", "lon": -77.04331816666667, "lat": 38.9142355, "type": "electric_scooter", "is_disabled": 0, "rental_uris": {"android": "https://dc.lft.to/lastmile_qr_scan", "ios": "https://dc.lft.to/lastmile_qr_scan"}, "fusion_lon": 0.0, "bike_id": "d96ce8b38f72c3f34aa74a8fcee2879b", "fusion_lat": 0.0, "is_reserved": 0}, {"name": "32a18cef3be8d8b792fa3d096a795ac2", "lon": -77.03201166666666, "lat": 38.928588500000004, "type": "electric_scooter", "is_disabled": 0, "rental_uris": {"android": "https://dc.lft.to/lastmile_qr_scan", "ios": "https://dc.lft.to/lastmile_qr_scan"}, "fusion_lon": 0.0, "bike_id": "32a18cef3be8d8b792fa3d096a795ac2", "fusion_lat": 0.0, "is_reserved": 0}, {"name": "8cdc170313fd24e1858c87f14dfdf1c5", "lon": -77.02962116666667, "lat": 38.90059, "type": "electric_scooter", "is_disabled": 0, "rental_uris": {"android": "https://dc.lft.to/lastmile_qr_scan", "ios": "https://dc.lft.to/lastmile_qr_scan"}, "fusion_lon": 0.0, "bike_id": "8cdc170313fd24e1858c87f14dfdf1c5", "fusion_lat": 0.0, "is_reserved": 0}, {"name": "8743549bc6808be948f48727a63cf44e", "lon": -77.009186, "lat": 38.968189, "type": "electric_scooter", "is_disabled": 0, "rental_uris": {"android": "https://dc.lft.to/lastmile_qr_scan", "ios": "https://dc.lft.to/lastmile_qr_scan"}, "fusion_lon": 0.0, "bike_id": "8743549bc6808be948f48727a63cf44e", "fusion_lat": 0.0, "is_reserved": 0}, {"name": "41161db43b707239d9946c50d1173927", "lon": -77.0109175, "lat": 38.89823066666666, "type": "electric_scooter", "is_disabled": 0, "rental_uris": {"android": "https://dc.lft.to/lastmile_qr_scan", "ios": "https://dc.lft.to/lastmile_qr_scan"}, "fusion_lon": 0.0, "bike_id": "41161db43b707239d9946c50d1173927", "fusion_lat": 0.0, "is_reserved": 0}, {"name": "4a041580baa3c0f22dd40f98c877c287", "lon": -77.016127, "lat": 38.89962583333333, "type": "electric_scooter", "is_disabled": 0, "rental_uris": {"android": "https://dc.lft.to/lastmile_qr_scan", "ios": "https://dc.lft.to/lastmile_qr_scan"}, "fusion_lon": 0.0, "bike_id": "4a041580baa3c0f22dd40f98c877c287", "fusion_lat": 0.0, "is_reserved": 0}, {"name": "a1e49b0f766480ef1ef5a81ccfc0146a", "lon": -77.01765283333333, "lat": 38.87697083333333, "type": "electric_scooter", "is_disabled": 0, "rental_uris": {"android": "https://dc.lft.to/lastmile_qr_scan", "ios": "https://dc.lft.to/lastmile_qr_scan"}, "fusion_lon": 0.0, "bike_id": "a1e49b0f766480ef1ef5a81ccfc0146a", "fusion_lat": 0.0, "is_reserved": 0}, {"name": "607f7860953cbfa0dacfdad47c1de310", "lon": -77.03198766666667, "lat": 38.88471216666667, "type": "electric_scooter", "is_disabled": 0, "rental_uris": {"android": "https://dc.lft.to/lastmile_qr_scan", "ios": "https://dc.lft.to/lastmile_qr_scan"}, "fusion_lon": 0.0, "bike_id": "607f7860953cbfa0dacfdad47c1de310", "fusion_lat": 0.0, "is_reserved": 0}, {"name": "053cbe3a6a6faa80be3e1572837ee2aa", "lon": -76.98113433333333, "lat": 38.9146765, "type": "electric_scooter", "is_disabled": 0, "rental_uris": {"android": "https://dc.lft.to/lastmile_qr_scan", "ios": "https://dc.lft.to/lastmile_qr_scan"}, "fusion_lon": 0.0, "bike_id": "053cbe3a6a6faa80be3e1572837ee2aa", "fusion_lat": 0.0, "is_reserved": 0}, {"name": "06a378e7c8ef52bef401b0fa189a696f", "lon": -77.03782116666666, "lat": 38.9968525, "type": "electric_bike", "is_disabled": 0, "rental_uris": {"android": "https://dc.lft.to/lastmile_qr_scan", "ios": "https://dc.lft.to/lastmile_qr_scan"}, "fusion_lon": 0.0, "bike_id": "06a378e7c8ef52bef401b0fa189a696f", "fusion_lat": 0.0, "is_reserved": 0}, {"name": "120c6f52ce8b1501add977b91ef85c7c", "lon": -77.043321, "lat": 38.902766666666665, "type": "electric_scooter", "is_disabled": 0, "rental_uris": {"android": "https://dc.lft.to/lastmile_qr_scan", "ios": "https://dc.lft.to/lastmile_qr_scan"}, "fusion_lon": 0.0, "bike_id": "120c6f52ce8b1501add977b91ef85c7c", "fusion_lat": 0.0, "is_reserved": 0}, {"name": "beedfa89c1e2ea5bbcd7d0b47ce4e848", "lon": -77.04879666666666, "lat": 38.912302, "type": "electric_scooter", "is_disabled": 0, "rental_uris": {"android": "https://dc.lft.to/lastmile_qr_scan", "ios": "https://dc.lft.to/lastmile_qr_scan"}, "fusion_lon": 0.0, "bike_id": "beedfa89c1e2ea5bbcd7d0b47ce4e848", "fusion_lat": 0.0, "is_reserved": 0}, {"name": "6353b89934a8c6dd7f45c7a35bc5b794", "lon": -77.04987366666667, "lat": 38.901003833333334, "type": "electric_scooter", "is_disabled": 0, "rental_uris": {"android": "https://dc.lft.to/lastmile_qr_scan", "ios": "https://dc.lft.to/lastmile_qr_scan"}, "fusion_lon": 0.0, "bike_id": "6353b89934a8c6dd7f45c7a35bc5b794", "fusion_lat": 0.0, "is_reserved": 0}, {"name": "d1ad135fb2b26402bd2376d07bcf79a2", "lon": -77.04676633333334, "lat": 38.895588833333335, "type": "electric_scooter", "is_disabled": 0, "rental_uris": {"android": "https://dc.lft.to/lastmile_qr_scan", "ios": "https://dc.lft.to/lastmile_qr_scan"}, "fusion_lon": 0.0, "bike_id": "d1ad135fb2b26402bd2376d07bcf79a2", "fusion_lat": 0.0, "is_reserved": 0}, {"name": "2b429b03f549527a14f8d65caa59b823", "lon": -77.042264, "lat": 38.91105566666667, "type": "electric_scooter", "is_disabled": 0, "rental_uris": {"android": "https://dc.lft.to/lastmile_qr_scan", "ios": "https://dc.lft.to/lastmile_qr_scan"}, "fusion_lon": 0.0, "bike_id": "2b429b03f549527a14f8d65caa59b823", "fusion_lat": 0.0, "is_reserved": 0}, {"name": "92c76a1a02cfb1077f31a54d0578a7cd", "lon": -77.02350416666667, "lat": 38.93527383333333, "type": "electric_scooter", "is_disabled": 0, "rental_uris": {"android": "https://dc.lft.to/lastmile_qr_scan", "ios": "https://dc.lft.to/lastmile_qr_scan"}, "fusion_lon": 0.0, "bike_id": "92c76a1a02cfb1077f31a54d0578a7cd", "fusion_lat": 0.0, "is_reserved": 0}, {"name": "74e653c9c164b1d6744e8d67a97d8f73", "lon": -76.95426266666666, "lat": 38.889897, "type": "electric_scooter", "is_disabled": 0, "rental_uris": {"android": "https://dc.lft.to/lastmile_qr_scan", "ios": "https://dc.lft.to/lastmile_qr_scan"}, "fusion_lon": 0.0, "bike_id": "74e653c9c164b1d6744e8d67a97d8f73", "fusion_lat": 0.0, "is_reserved": 0}, {"name": "4a7cf7672b11b0273964434b21a4e19d", "lon": -77.02302183333333, "lat": 38.92655716666667, "type": "electric_scooter", "is_disabled": 0, "rental_uris": {"android": "https://dc.lft.to/lastmile_qr_scan", "ios": "https://dc.lft.to/lastmile_qr_scan"}, "fusion_lon": 0.0, "bike_id": "4a7cf7672b11b0273964434b21a4e19d", "fusion_lat": 0.0, "is_reserved": 0}, {"name": "7001b3f8f45a37039d580318621289d3", "lon": -77.04348633333333, "lat": 38.90512016666667, "type": "electric_scooter", "is_disabled": 0, "rental_uris": {"android": "https://dc.lft.to/lastmile_qr_scan", "ios": "https://dc.lft.to/lastmile_qr_scan"}, "fusion_lon": 0.0, "bike_id": "7001b3f8f45a37039d580318621289d3", "fusion_lat": 0.0, "is_reserved": 0}, {"name": "7fc7232e3449c78eb485c50a9d8d5d9d", "lon": -77.02206483333333, "lat": 38.9246975, "type": "electric_scooter", "is_disabled": 0, "rental_uris": {"android": "https://dc.lft.to/lastmile_qr_scan", "ios": "https://dc.lft.to/lastmile_qr_scan"}, "fusion_lon": 0.0, "bike_id": "7fc7232e3449c78eb485c50a9d8d5d9d", "fusion_lat": 0.0, "is_reserved": 0}, {"name": "e60eb8f4bd2b6a323a4f5c13e368d85e", "lon": -77.041898, "lat": 38.90610783333333, "type": "electric_scooter", "is_disabled": 0, "rental_uris": {"android": "https://dc.lft.to/lastmile_qr_scan", "ios": "https://dc.lft.to/lastmile_qr_scan"}, "fusion_lon": 0.0, "bike_id": "e60eb8f4bd2b6a323a4f5c13e368d85e", "fusion_lat": 0.0, "is_reserved": 0}, {"name": "2f65a7f66631cefc64564c8e828f23cd", "lon": -76.98023483333333, "lat": 38.90086, "type": "electric_scooter", "is_disabled": 0, "rental_uris": {"android": "https://dc.lft.to/lastmile_qr_scan", "ios": "https://dc.lft.to/lastmile_qr_scan"}, "fusion_lon": 0.0, "bike_id": "2f65a7f66631cefc64564c8e828f23cd", "fusion_lat": 0.0, "is_reserved": 0}, {"name": "a3cea3d0b0c6ae04e7be2f1db6d5c9ed", "lon": -77.04196533333334, "lat": 38.89219116666666, "type": "electric_scooter", "is_disabled": 0, "rental_uris": {"android": "https://dc.lft.to/lastmile_qr_scan", "ios": "https://dc.lft.to/lastmile_qr_scan"}, "fusion_lon": 0.0, "bike_id": "a3cea3d0b0c6ae04e7be2f1db6d5c9ed", "fusion_lat": 0.0, "is_reserved": 0}, {"name": "e9bd91fa03b66084275d9bd5a393e3de", "lon": -77.032062, "lat": 38.9036485, "type": "electric_scooter", "is_disabled": 0, "rental_uris": {"android": "https://dc.lft.to/lastmile_qr_scan", "ios": "https://dc.lft.to/lastmile_qr_scan"}, "fusion_lon": 0.0, "bike_id": "e9bd91fa03b66084275d9bd5a393e3de", "fusion_lat": 0.0, "is_reserved": 0}, {"name": "207efdc4c715c3e0541281823df0a260", "lon": -77.04370233333333, "lat": 38.904005833333336, "type": "electric_scooter", "is_disabled": 0, "rental_uris": {"android": "https://dc.lft.to/lastmile_qr_scan", "ios": "https://dc.lft.to/lastmile_qr_scan"}, "fusion_lon": 0.0, "bike_id": "207efdc4c715c3e0541281823df0a260", "fusion_lat": 0.0, "is_reserved": 0}, {"name": "b1e4a8a5e1b4c8568991eeadcb590466", "lon": -77.01067616666667, "lat": 38.92027983333333, "type": "electric_scooter", "is_disabled": 0, "rental_uris": {"android": "https://dc.lft.to/lastmile_qr_scan", "ios": "https://dc.lft.to/lastmile_qr_scan"}, "fusion_lon": 0.0, "bike_id": "b1e4a8a5e1b4c8568991eeadcb590466", "fusion_lat": 0.0, "is_reserved": 0}, {"name": "c1970521e8419837cfffb25c886b5e62", "lon": -77.03058416666667, "lat": 38.90245183333333, "type": "electric_scooter", "is_disabled": 0, "rental_uris": {"android": "https://dc.lft.to/lastmile_qr_scan", "ios": "https://dc.lft.to/lastmile_qr_scan"}, "fusion_lon": 0.0, "bike_id": "c1970521e8419837cfffb25c886b5e62", "fusion_lat": 0.0, "is_reserved": 0}, {"name": "78fdb8c88863a938814a1546e4851211", "lon": -77.01690883333333, "lat": 38.90115616666667, "type": "electric_scooter", "is_disabled": 0, "rental_uris": {"android": "https://dc.lft.to/lastmile_qr_scan", "ios": "https://dc.lft.to/lastmile_qr_scan"}, "fusion_lon": 0.0, "bike_id": "78fdb8c88863a938814a1546e4851211", "fusion_lat": 0.0, "is_reserved": 0}, {"name": "97ba2838e6e0ae27821db4312baf90f2", "lon": -77.01535616666666, "lat": 38.88643283333333, "type": "electric_scooter", "is_disabled": 0, "rental_uris": {"android": "https://dc.lft.to/lastmile_qr_scan", "ios": "https://dc.lft.to/lastmile_qr_scan"}, "fusion_lon": 0.0, "bike_id": "97ba2838e6e0ae27821db4312baf90f2", "fusion_lat": 0.0, "is_reserved": 0}, {"name": "87aa6379998c62e7ac71f87f01efc49e", "lon": -77.05905066666666, "lat": 38.90306016666667, "type": "electric_scooter", "is_disabled": 0, "rental_uris": {"android": "https://dc.lft.to/lastmile_qr_scan", "ios": "https://dc.lft.to/lastmile_qr_scan"}, "fusion_lon": 0.0, "bike_id": "87aa6379998c62e7ac71f87f01efc49e", "fusion_lat": 0.0, "is_reserved": 0}, {"name": "17401be26848412e5c765f119632ee48", "lon": -77.020887, "lat": 38.9210735, "type": "electric_scooter", "is_disabled": 0, "rental_uris": {"android": "https://dc.lft.to/lastmile_qr_scan", "ios": "https://dc.lft.to/lastmile_qr_scan"}, "fusion_lon": 0.0, "bike_id": "17401be26848412e5c765f119632ee48", "fusion_lat": 0.0, "is_reserved": 0}, {"name": "50970c59ff47609ac006d4b75470bfc4", "lon": -77.05755333333333, "lat": 38.924176333333335, "type": "electric_scooter", "is_disabled": 0, "rental_uris": {"android": "https://dc.lft.to/lastmile_qr_scan", "ios": "https://dc.lft.to/lastmile_qr_scan"}, "fusion_lon": 0.0, "bike_id": "50970c59ff47609ac006d4b75470bfc4", "fusion_lat": 0.0, "is_reserved": 0}, {"name": "da55aa15afd6e71ab944445b690209b3", "lon": -77.05032583333333, "lat": 38.92360716666666, "type": "electric_scooter", "is_disabled": 0, "rental_uris": {"android": "https://dc.lft.to/lastmile_qr_scan", "ios": "https://dc.lft.to/lastmile_qr_scan"}, "fusion_lon": 0.0, "bike_id": "da55aa15afd6e71ab944445b690209b3", "fusion_lat": 0.0, "is_reserved": 0}, {"name": "b11a354e3efd7776825e96bd82a939ce", "lon": -77.03459316666667, "lat": 38.905647333333334, "type": "electric_scooter", "is_disabled": 0, "rental_uris": {"android": "https://dc.lft.to/lastmile_qr_scan", "ios": "https://dc.lft.to/lastmile_qr_scan"}, "fusion_lon": 0.0, "bike_id": "b11a354e3efd7776825e96bd82a939ce", "fusion_lat": 0.0, "is_reserved": 0}, {"name": "319643d234d9f979f8884bea3ef9761a", "lon": -77.03632883333333, "lat": 38.9273475, "type": "electric_scooter", "is_disabled": 0, "rental_uris": {"android": "https://dc.lft.to/lastmile_qr_scan", "ios": "https://dc.lft.to/lastmile_qr_scan"}, "fusion_lon": 0.0, "bike_id": "319643d234d9f979f8884bea3ef9761a", "fusion_lat": 0.0, "is_reserved": 0}, {"name": "a55446fa9ca3b9ed6059928e13de1be7", "lon": -76.99840716666667, "lat": 38.95368066666666, "type": "electric_scooter", "is_disabled": 0, "rental_uris": {"android": "https://dc.lft.to/lastmile_qr_scan", "ios": "https://dc.lft.to/lastmile_qr_scan"}, "fusion_lon": 0.0, "bike_id": "a55446fa9ca3b9ed6059928e13de1be7", "fusion_lat": 0.0, "is_reserved": 0}, {"name": "2d4b3f9d757757b00ec970bb529a05a1", "lon": -77.02629466666667, "lat": 38.896500333333336, "type": "electric_scooter", "is_disabled": 0, "rental_uris": {"android": "https://dc.lft.to/lastmile_qr_scan", "ios": "https://dc.lft.to/lastmile_qr_scan"}, "fusion_lon": 0.0, "bike_id": "2d4b3f9d757757b00ec970bb529a05a1", "fusion_lat": 0.0, "is_reserved": 0}, {"name": "787731f13a8f82d0d02293fd7aedcf1a", "lon": -77.0220795, "lat": 38.87903416666666, "type": "electric_scooter", "is_disabled": 0, "rental_uris": {"android": "https://dc.lft.to/lastmile_qr_scan", "ios": "https://dc.lft.to/lastmile_qr_scan"}, "fusion_lon": 0.0, "bike_id": "787731f13a8f82d0d02293fd7aedcf1a", "fusion_lat": 0.0, "is_reserved": 0}, {"name": "e99eb20c785502b01d5be563c22c0bf7", "lon": -77.027112, "lat": 38.906682833333335, "type": "electric_scooter", "is_disabled": 0, "rental_uris": {"android": "https://dc.lft.to/lastmile_qr_scan", "ios": "https://dc.lft.to/lastmile_qr_scan"}, "fusion_lon": 0.0, "bike_id": "e99eb20c785502b01d5be563c22c0bf7", "fusion_lat": 0.0, "is_reserved": 0}, {"name": "9af9035a5a584608ee719a55c694ef11", "lon": -77.02973533333333, "lat": 38.907121333333336, "type": "electric_scooter", "is_disabled": 0, "rental_uris": {"android": "https://dc.lft.to/lastmile_qr_scan", "ios": "https://dc.lft.to/lastmile_qr_scan"}, "fusion_lon": 0.0, "bike_id": "9af9035a5a584608ee719a55c694ef11", "fusion_lat": 0.0, "is_reserved": 0}, {"name": "88e0637d72ea1f39a087e4e8c325b449", "lon": -76.99634933333333, "lat": 38.905261, "type": "electric_scooter", "is_disabled": 0, "rental_uris": {"android": "https://dc.lft.to/lastmile_qr_scan", "ios": "https://dc.lft.to/lastmile_qr_scan"}, "fusion_lon": 0.0, "bike_id": "88e0637d72ea1f39a087e4e8c325b449", "fusion_lat": 0.0, "is_reserved": 0}, {"name": "43f92883b7caa14685285f225f3630eb", "lon": -77.03660333333333, "lat": 38.921178833333336, "type": "electric_scooter", "is_disabled": 0, "rental_uris": {"android": "https://dc.lft.to/lastmile_qr_scan", "ios": "https://dc.lft.to/lastmile_qr_scan"}, "fusion_lon": 0.0, "bike_id": "43f92883b7caa14685285f225f3630eb", "fusion_lat": 0.0, "is_reserved": 0}, {"name": "f44146342e4ed9b687894a2a9f1213a2", "lon": -77.03498466666667, "lat": 38.92142966666667, "type": "electric_scooter", "is_disabled": 0, "rental_uris": {"android": "https://dc.lft.to/lastmile_qr_scan", "ios": "https://dc.lft.to/lastmile_qr_scan"}, "fusion_lon": 0.0, "bike_id": "f44146342e4ed9b687894a2a9f1213a2", "fusion_lat": 0.0, "is_reserved": 0}, {"name": "663c4b4475d3542f2ade1f9bdfc05619", "lon": -77.035614, "lat": 38.90155883333333, "type": "electric_scooter", "is_disabled": 0, "rental_uris": {"android": "https://dc.lft.to/lastmile_qr_scan", "ios": "https://dc.lft.to/lastmile_qr_scan"}, "fusion_lon": 0.0, "bike_id": "663c4b4475d3542f2ade1f9bdfc05619", "fusion_lat": 0.0, "is_reserved": 0}, {"name": "f16664983812a1d6f5256513d420bfc1", "lon": -77.0246675, "lat": 38.92053933333333, "type": "electric_scooter", "is_disabled": 0, "rental_uris": {"android": "https://dc.lft.to/lastmile_qr_scan", "ios": "https://dc.lft.to/lastmile_qr_scan"}, "fusion_lon": 0.0, "bike_id": "f16664983812a1d6f5256513d420bfc1", "fusion_lat": 0.0, "is_reserved": 0}, {"name": "878f5e4c886280859cd5a8d589bafaef", "lon": -77.034361, "lat": 38.9057935, "type": "electric_scooter", "is_disabled": 0, "rental_uris": {"android": "https://dc.lft.to/lastmile_qr_scan", "ios": "https://dc.lft.to/lastmile_qr_scan"}, "fusion_lon": 0.0, "bike_id": "878f5e4c886280859cd5a8d589bafaef", "fusion_lat": 0.0, "is_reserved": 0}, {"name": "66ffad112b19e1067d36da545abf5a43", "lon": -76.9333965, "lat": 38.9086495, "type": "electric_scooter", "is_disabled": 0, "rental_uris": {"android": "https://dc.lft.to/lastmile_qr_scan", "ios": "https://dc.lft.to/lastmile_qr_scan"}, "fusion_lon": 0.0, "bike_id": "66ffad112b19e1067d36da545abf5a43", "fusion_lat": 0.0, "is_reserved": 0}, {"name": "1ec81143a789de01b74e5f296008df8a", "lon": -77.02737733333333, "lat": 38.927676166666664, "type": "electric_scooter", "is_disabled": 0, "rental_uris": {"android": "https://dc.lft.to/lastmile_qr_scan", "ios": "https://dc.lft.to/lastmile_qr_scan"}, "fusion_lon": 0.0, "bike_id": "1ec81143a789de01b74e5f296008df8a", "fusion_lat": 0.0, "is_reserved": 0}, {"name": "f967aaff483454a795a495342b804fbe", "lon": -77.02207216666666, "lat": 38.91009916666667, "type": "electric_scooter", "is_disabled": 0, "rental_uris": {"android": "https://dc.lft.to/lastmile_qr_scan", "ios": "https://dc.lft.to/lastmile_qr_scan"}, "fusion_lon": 0.0, "bike_id": "f967aaff483454a795a495342b804fbe", "fusion_lat": 0.0, "is_reserved": 0}, {"name": "f86d648b8b4b614f22cf760edca462eb", "lon": -77.0196015, "lat": 38.878393333333335, "type": "electric_scooter", "is_disabled": 0, "rental_uris": {"android": "https://dc.lft.to/lastmile_qr_scan", "ios": "https://dc.lft.to/lastmile_qr_scan"}, "fusion_lon": 0.0, "bike_id": "f86d648b8b4b614f22cf760edca462eb", "fusion_lat": 0.0, "is_reserved": 0}, {"name": "2886c0f515d1c61a442e94a0f054185d", "lon": -76.98429316666666, "lat": 38.90574016666667, "type": "electric_scooter", "is_disabled": 0, "rental_uris": {"android": "https://dc.lft.to/lastmile_qr_scan", "ios": "https://dc.lft.to/lastmile_qr_scan"}, "fusion_lon": 0.0, "bike_id": "2886c0f515d1c61a442e94a0f054185d", "fusion_lat": 0.0, "is_reserved": 0}, {"name": "584fcc46a000f9f5852af07b1bbfd501", "lon": -76.9734165, "lat": 38.86509383333333, "type": "electric_scooter", "is_disabled": 0, "rental_uris": {"android": "https://dc.lft.to/lastmile_qr_scan", "ios": "https://dc.lft.to/lastmile_qr_scan"}, "fusion_lon": 0.0, "bike_id": "584fcc46a000f9f5852af07b1bbfd501", "fusion_lat": 0.0, "is_reserved": 0}, {"name": "dd4243ba82144d5e0458a944136d2310", "lon": -77.03936533333334, "lat": 38.9083285, "type": "electric_scooter", "is_disabled": 0, "rental_uris": {"android": "https://dc.lft.to/lastmile_qr_scan", "ios": "https://dc.lft.to/lastmile_qr_scan"}, "fusion_lon": 0.0, "bike_id": "dd4243ba82144d5e0458a944136d2310", "fusion_lat": 0.0, "is_reserved": 0}, {"name": "b495a0ba5077cd4eb310a97be1552923", "lon": -77.0271555, "lat": 38.92374933333333, "type": "electric_scooter", "is_disabled": 0, "rental_uris": {"android": "https://dc.lft.to/lastmile_qr_scan", "ios": "https://dc.lft.to/lastmile_qr_scan"}, "fusion_lon": 0.0, "bike_id": "b495a0ba5077cd4eb310a97be1552923", "fusion_lat": 0.0, "is_reserved": 0}, {"name": "748bb51a36888ed9539592a493a023a8", "lon": -77.042464, "lat": 38.9242955, "type": "electric_scooter", "is_disabled": 0, "rental_uris": {"android": "https://dc.lft.to/lastmile_qr_scan", "ios": "https://dc.lft.to/lastmile_qr_scan"}, "fusion_lon": 0.0, "bike_id": "748bb51a36888ed9539592a493a023a8", "fusion_lat": 0.0, "is_reserved": 0}, {"name": "cb905897de910f6b05995057cffc1531", "lon": -77.006038, "lat": 38.874795, "type": "electric_scooter", "is_disabled": 0, "rental_uris": {"android": "https://dc.lft.to/lastmile_qr_scan", "ios": "https://dc.lft.to/lastmile_qr_scan"}, "fusion_lon": 0.0, "bike_id": "cb905897de910f6b05995057cffc1531", "fusion_lat": 0.0, "is_reserved": 0}, {"name": "c8372082ced52e49582644b5bf897324", "lon": -77.03119716666667, "lat": 38.90531683333333, "type": "electric_scooter", "is_disabled": 0, "rental_uris": {"android": "https://dc.lft.to/lastmile_qr_scan", "ios": "https://dc.lft.to/lastmile_qr_scan"}, "fusion_lon": 0.0, "bike_id": "c8372082ced52e49582644b5bf897324", "fusion_lat": 0.0, "is_reserved": 0}, {"name": "20e990bd09ace5b7454e4d17787db9bb", "lon": -77.01760533333334, "lat": 38.902707666666664, "type": "electric_scooter", "is_disabled": 0, "rental_uris": {"android": "https://dc.lft.to/lastmile_qr_scan", "ios": "https://dc.lft.to/lastmile_qr_scan"}, "fusion_lon": 0.0, "bike_id": "20e990bd09ace5b7454e4d17787db9bb", "fusion_lat": 0.0, "is_reserved": 0}, {"name": "5506a137a72fb8fc833077e3df39fa1a", "lon": -77.02580933333333, "lat": 38.887315666666666, "type": "electric_scooter", "is_disabled": 0, "rental_uris": {"android": "https://dc.lft.to/lastmile_qr_scan", "ios": "https://dc.lft.to/lastmile_qr_scan"}, "fusion_lon": 0.0, "bike_id": "5506a137a72fb8fc833077e3df39fa1a", "fusion_lat": 0.0, "is_reserved": 0}, {"name": "206d13ee3ee7219deee8ae7bedcb90c9", "lon": -77.019402, "lat": 38.924101, "type": "electric_scooter", "is_disabled": 0, "rental_uris": {"android": "https://dc.lft.to/lastmile_qr_scan", "ios": "https://dc.lft.to/lastmile_qr_scan"}, "fusion_lon": 0.0, "bike_id": "206d13ee3ee7219deee8ae7bedcb90c9", "fusion_lat": 0.0, "is_reserved": 0}, {"name": "0fcaec115c73c7a4327b3fbe0bd07353", "lon": -77.03448183333333, "lat": 38.90338666666667, "type": "electric_scooter", "is_disabled": 0, "rental_uris": {"android": "https://dc.lft.to/lastmile_qr_scan", "ios": "https://dc.lft.to/lastmile_qr_scan"}, "fusion_lon": 0.0, "bike_id": "0fcaec115c73c7a4327b3fbe0bd07353", "fusion_lat": 0.0, "is_reserved": 0}, {"name": "3b57cfbb44b19cb3472249b069d6be17", "lon": -77.04690583333333, "lat": 38.89220616666667, "type": "electric_scooter", "is_disabled": 0, "rental_uris": {"android": "https://dc.lft.to/lastmile_qr_scan", "ios": "https://dc.lft.to/lastmile_qr_scan"}, "fusion_lon": 0.0, "bike_id": "3b57cfbb44b19cb3472249b069d6be17", "fusion_lat": 0.0, "is_reserved": 0}, {"name": "6ab643451989cc93e7855f0c407a9d27", "lon": -77.00370116666667, "lat": 38.897298, "type": "electric_scooter", "is_disabled": 0, "rental_uris": {"android": "https://dc.lft.to/lastmile_qr_scan", "ios": "https://dc.lft.to/lastmile_qr_scan"}, "fusion_lon": 0.0, "bike_id": "6ab643451989cc93e7855f0c407a9d27", "fusion_lat": 0.0, "is_reserved": 0}, {"name": "b9b06cc011ea06135cffd284f3490cd7", "lon": -77.04672933333333, "lat": 38.895551833333336, "type": "electric_scooter", "is_disabled": 0, "rental_uris": {"android": "https://dc.lft.to/lastmile_qr_scan", "ios": "https://dc.lft.to/lastmile_qr_scan"}, "fusion_lon": 0.0, "bike_id": "b9b06cc011ea06135cffd284f3490cd7", "fusion_lat": 0.0, "is_reserved": 0}, {"name": "8e7c4f9b641c0c4984efbb6b4f515d87", "lon": -76.99579883333334, "lat": 38.851749833333336, "type": "electric_scooter", "is_disabled": 0, "rental_uris": {"android": "https://dc.lft.to/lastmile_qr_scan", "ios": "https://dc.lft.to/lastmile_qr_scan"}, "fusion_lon": 0.0, "bike_id": "8e7c4f9b641c0c4984efbb6b4f515d87", "fusion_lat": 0.0, "is_reserved": 0}, {"name": "81bfd99a46d0f481080f34a67b6d0a75", "lon": -77.01766083333334, "lat": 38.87895666666667, "type": "electric_scooter", "is_disabled": 0, "rental_uris": {"android": "https://dc.lft.to/lastmile_qr_scan", "ios": "https://dc.lft.to/lastmile_qr_scan"}, "fusion_lon": 0.0, "bike_id": "81bfd99a46d0f481080f34a67b6d0a75", "fusion_lat": 0.0, "is_reserved": 0}, {"name": "16cb85d21f3fd7b15a1abec8376f7488", "lon": -77.036114, "lat": 38.931532, "type": "electric_scooter", "is_disabled": 0, "rental_uris": {"android": "https://dc.lft.to/lastmile_qr_scan", "ios": "https://dc.lft.to/lastmile_qr_scan"}, "fusion_lon": 0.0, "bike_id": "16cb85d21f3fd7b15a1abec8376f7488", "fusion_lat": 0.0, "is_reserved": 0}, {"name": "f6746b70c5b065d5322c81243f2efa08", "lon": -77.001543, "lat": 38.907539166666666, "type": "electric_scooter", "is_disabled": 0, "rental_uris": {"android": "https://dc.lft.to/lastmile_qr_scan", "ios": "https://dc.lft.to/lastmile_qr_scan"}, "fusion_lon": 0.0, "bike_id": "f6746b70c5b065d5322c81243f2efa08", "fusion_lat": 0.0, "is_reserved": 0}, {"name": "924f0832e130addce29cac7890155956", "lon": -76.98719266666667, "lat": 38.8661935, "type": "electric_scooter", "is_disabled": 0, "rental_uris": {"android": "https://dc.lft.to/lastmile_qr_scan", "ios": "https://dc.lft.to/lastmile_qr_scan"}, "fusion_lon": 0.0, "bike_id": "924f0832e130addce29cac7890155956", "fusion_lat": 0.0, "is_reserved": 0}, {"name": "263313463979083ed567f7dd19a33132", "lon": -76.97224733333333, "lat": 38.90029833333333, "type": "electric_bike", "is_disabled": 0, "rental_uris": {"android": "https://dc.lft.to/lastmile_qr_scan", "ios": "https://dc.lft.to/lastmile_qr_scan"}, "fusion_lon": 0.0, "bike_id": "263313463979083ed567f7dd19a33132", "fusion_lat": 0.0, "is_reserved": 0}, {"name": "25b50c20b729c3c649bee43c9756053d", "lon": -77.048823, "lat": 38.8979185, "type": "electric_scooter", "is_disabled": 0, "rental_uris": {"android": "https://dc.lft.to/lastmile_qr_scan", "ios": "https://dc.lft.to/lastmile_qr_scan"}, "fusion_lon": 0.0, "bike_id": "25b50c20b729c3c649bee43c9756053d", "fusion_lat": 0.0, "is_reserved": 0}, {"name": "81b142179604bde8d162618703233311", "lon": -77.04363733333334, "lat": 38.904245, "type": "electric_scooter", "is_disabled": 0, "rental_uris": {"android": "https://dc.lft.to/lastmile_qr_scan", "ios": "https://dc.lft.to/lastmile_qr_scan"}, "fusion_lon": 0.0, "bike_id": "81b142179604bde8d162618703233311", "fusion_lat": 0.0, "is_reserved": 0}, {"name": "067fdafcd1ccac63009f1eb21de9cd6b", "lon": -77.0243565, "lat": 38.922605833333336, "type": "electric_scooter", "is_disabled": 0, "rental_uris": {"android": "https://dc.lft.to/lastmile_qr_scan", "ios": "https://dc.lft.to/lastmile_qr_scan"}, "fusion_lon": 0.0, "bike_id": "067fdafcd1ccac63009f1eb21de9cd6b", "fusion_lat": 0.0, "is_reserved": 0}, {"name": "7b5fb365eb545e1be4de3d4185083af7", "lon": -77.03120083333333, "lat": 38.91696316666667, "type": "electric_scooter", "is_disabled": 0, "rental_uris": {"android": "https://dc.lft.to/lastmile_qr_scan", "ios": "https://dc.lft.to/lastmile_qr_scan"}, "fusion_lon": 0.0, "bike_id": "7b5fb365eb545e1be4de3d4185083af7", "fusion_lat": 0.0, "is_reserved": 0}, {"name": "6f912ca91b3a96259d98b5db852c5615", "lon": -76.98197816666666, "lat": 38.86596083333333, "type": "electric_scooter", "is_disabled": 0, "rental_uris": {"android": "https://dc.lft.to/lastmile_qr_scan", "ios": "https://dc.lft.to/lastmile_qr_scan"}, "fusion_lon": 0.0, "bike_id": "6f912ca91b3a96259d98b5db852c5615", "fusion_lat": 0.0, "is_reserved": 0}, {"name": "864976fa68d5f01d6e9a82ea48691aff", "lon": -77.032534, "lat": 38.9011935, "type": "electric_scooter", "is_disabled": 0, "rental_uris": {"android": "https://dc.lft.to/lastmile_qr_scan", "ios": "https://dc.lft.to/lastmile_qr_scan"}, "fusion_lon": 0.0, "bike_id": "864976fa68d5f01d6e9a82ea48691aff", "fusion_lat": 0.0, "is_reserved": 0}, {"name": "4ceececd92ae5a29077ec4457b8cdfc9", "lon": -77.045151, "lat": 38.89220516666666, "type": "electric_scooter", "is_disabled": 0, "rental_uris": {"android": "https://dc.lft.to/lastmile_qr_scan", "ios": "https://dc.lft.to/lastmile_qr_scan"}, "fusion_lon": 0.0, "bike_id": "4ceececd92ae5a29077ec4457b8cdfc9", "fusion_lat": 0.0, "is_reserved": 0}, {"name": "d597a67f7c8d87d07c8685413e5925a7", "lon": -77.03349033333333, "lat": 38.89818533333333, "type": "electric_scooter", "is_disabled": 0, "rental_uris": {"android": "https://dc.lft.to/lastmile_qr_scan", "ios": "https://dc.lft.to/lastmile_qr_scan"}, "fusion_lon": 0.0, "bike_id": "d597a67f7c8d87d07c8685413e5925a7", "fusion_lat": 0.0, "is_reserved": 0}, {"name": "aa2667ab9b6528ab5d1ed38b61ae4ccf", "lon": -77.03473883333334, "lat": 38.915569, "type": "electric_scooter", "is_disabled": 0, "rental_uris": {"android": "https://dc.lft.to/lastmile_qr_scan", "ios": "https://dc.lft.to/lastmile_qr_scan"}, "fusion_lon": 0.0, "bike_id": "aa2667ab9b6528ab5d1ed38b61ae4ccf", "fusion_lat": 0.0, "is_reserved": 0}, {"name": "efa092dce35a841d034b91329ceba7f9", "lon": -77.044355, "lat": 38.912151, "type": "electric_scooter", "is_disabled": 0, "rental_uris": {"android": "https://dc.lft.to/lastmile_qr_scan", "ios": "https://dc.lft.to/lastmile_qr_scan"}, "fusion_lon": 0.0, "bike_id": "efa092dce35a841d034b91329ceba7f9", "fusion_lat": 0.0, "is_reserved": 0}, {"name": "7632721963a3ce87482b8e3defe89b9a", "lon": -77.05420266666667, "lat": 38.9284255, "type": "electric_scooter", "is_disabled": 0, "rental_uris": {"android": "https://dc.lft.to/lastmile_qr_scan", "ios": "https://dc.lft.to/lastmile_qr_scan"}, "fusion_lon": 0.0, "bike_id": "7632721963a3ce87482b8e3defe89b9a", "fusion_lat": 0.0, "is_reserved": 0}, {"name": "638901363c045077527e5957421b8069", "lon": -77.03798183333333, "lat": 38.93219, "type": "electric_scooter", "is_disabled": 0, "rental_uris": {"android": "https://dc.lft.to/lastmile_qr_scan", "ios": "https://dc.lft.to/lastmile_qr_scan"}, "fusion_lon": 0.0, "bike_id": "638901363c045077527e5957421b8069", "fusion_lat": 0.0, "is_reserved": 0}, {"name": "824978df30a870aaa5d827f57a0e2a7e", "lon": -77.01208383333334, "lat": 38.893262, "type": "electric_scooter", "is_disabled": 0, "rental_uris": {"android": "https://dc.lft.to/lastmile_qr_scan", "ios": "https://dc.lft.to/lastmile_qr_scan"}, "fusion_lon": 0.0, "bike_id": "824978df30a870aaa5d827f57a0e2a7e", "fusion_lat": 0.0, "is_reserved": 0}, {"name": "6c60aa39b0d08fc3710a4b8c9a292db0", "lon": -77.00667583333333, "lat": 38.94505383333333, "type": "electric_bike", "is_disabled": 0, "rental_uris": {"android": "https://dc.lft.to/lastmile_qr_scan", "ios": "https://dc.lft.to/lastmile_qr_scan"}, "fusion_lon": 0.0, "bike_id": "6c60aa39b0d08fc3710a4b8c9a292db0", "fusion_lat": 0.0, "is_reserved": 0}, {"name": "614b4cd751fdd31899501c5658b6fd33", "lon": -77.04862133333333, "lat": 38.913363833333335, "type": "electric_scooter", "is_disabled": 0, "rental_uris": {"android": "https://dc.lft.to/lastmile_qr_scan", "ios": "https://dc.lft.to/lastmile_qr_scan"}, "fusion_lon": 0.0, "bike_id": "614b4cd751fdd31899501c5658b6fd33", "fusion_lat": 0.0, "is_reserved": 0}, {"name": "544ad3dc857bd4be6ac106c959a65256", "lon": -77.02113966666667, "lat": 38.92269816666666, "type": "electric_scooter", "is_disabled": 0, "rental_uris": {"android": "https://dc.lft.to/lastmile_qr_scan", "ios": "https://dc.lft.to/lastmile_qr_scan"}, "fusion_lon": 0.0, "bike_id": "544ad3dc857bd4be6ac106c959a65256", "fusion_lat": 0.0, "is_reserved": 0}, {"name": "4ae6929086bde36db1e4da6da1c0b326", "lon": -77.07229116666667, "lat": 38.93184766666667, "type": "electric_scooter", "is_disabled": 0, "rental_uris": {"android": "https://dc.lft.to/lastmile_qr_scan", "ios": "https://dc.lft.to/lastmile_qr_scan"}, "fusion_lon": 0.0, "bike_id": "4ae6929086bde36db1e4da6da1c0b326", "fusion_lat": 0.0, "is_reserved": 0}, {"name": "7a84d2864bd5b250316877aa911ad30d", "lon": -77.0279385, "lat": 38.92970533333333, "type": "electric_scooter", "is_disabled": 0, "rental_uris": {"android": "https://dc.lft.to/lastmile_qr_scan", "ios": "https://dc.lft.to/lastmile_qr_scan"}, "fusion_lon": 0.0, "bike_id": "7a84d2864bd5b250316877aa911ad30d", "fusion_lat": 0.0, "is_reserved": 0}, {"name": "882cd14f30917afd3f280aadbce8dcdf", "lon": -77.02933716666666, "lat": 38.94279566666667, "type": "electric_scooter", "is_disabled": 0, "rental_uris": {"android": "https://dc.lft.to/lastmile_qr_scan", "ios": "https://dc.lft.to/lastmile_qr_scan"}, "fusion_lon": 0.0, "bike_id": "882cd14f30917afd3f280aadbce8dcdf", "fusion_lat": 0.0, "is_reserved": 0}, {"name": "d4caeb88d19aca550599b067d609d203", "lon": -77.063988, "lat": 38.944103166666665, "type": "electric_scooter", "is_disabled": 0, "rental_uris": {"android": "https://dc.lft.to/lastmile_qr_scan", "ios": "https://dc.lft.to/lastmile_qr_scan"}, "fusion_lon": 0.0, "bike_id": "d4caeb88d19aca550599b067d609d203", "fusion_lat": 0.0, "is_reserved": 0}, {"name": "b5d39e2ccaceb78644f9de5d7ae26af5", "lon": -77.0179725, "lat": 38.8874415, "type": "electric_scooter", "is_disabled": 0, "rental_uris": {"android": "https://dc.lft.to/lastmile_qr_scan", "ios": "https://dc.lft.to/lastmile_qr_scan"}, "fusion_lon": 0.0, "bike_id": "b5d39e2ccaceb78644f9de5d7ae26af5", "fusion_lat": 0.0, "is_reserved": 0}, {"name": "890524f8a078149f55423dffdc799f17", "lon": -77.0167795, "lat": 38.920386, "type": "electric_scooter", "is_disabled": 0, "rental_uris": {"android": "https://dc.lft.to/lastmile_qr_scan", "ios": "https://dc.lft.to/lastmile_qr_scan"}, "fusion_lon": 0.0, "bike_id": "890524f8a078149f55423dffdc799f17", "fusion_lat": 0.0, "is_reserved": 0}, {"name": "b7190947f048716226f626688ee14466", "lon": -77.0092885, "lat": 38.895998, "type": "electric_scooter", "is_disabled": 0, "rental_uris": {"android": "https://dc.lft.to/lastmile_qr_scan", "ios": "https://dc.lft.to/lastmile_qr_scan"}, "fusion_lon": 0.0, "bike_id": "b7190947f048716226f626688ee14466", "fusion_lat": 0.0, "is_reserved": 0}, {"name": "651f6d3915deadef6cf4ef0b8e306abb", "lon": -77.01426733333334, "lat": 38.972156, "type": "electric_bike", "is_disabled": 0, "rental_uris": {"android": "https://dc.lft.to/lastmile_qr_scan", "ios": "https://dc.lft.to/lastmile_qr_scan"}, "fusion_lon": 0.0, "bike_id": "651f6d3915deadef6cf4ef0b8e306abb", "fusion_lat": 0.0, "is_reserved": 0}, {"name": "34e52a0ac059097f6c7ced39dbf323d7", "lon": -77.0270285, "lat": 38.89716, "type": "electric_scooter", "is_disabled": 0, "rental_uris": {"android": "https://dc.lft.to/lastmile_qr_scan", "ios": "https://dc.lft.to/lastmile_qr_scan"}, "fusion_lon": 0.0, "bike_id": "34e52a0ac059097f6c7ced39dbf323d7", "fusion_lat": 0.0, "is_reserved": 0}, {"name": "878790a07485b76685511a26f9b69fc6", "lon": -77.02282033333333, "lat": 38.9140235, "type": "electric_scooter", "is_disabled": 0, "rental_uris": {"android": "https://dc.lft.to/lastmile_qr_scan", "ios": "https://dc.lft.to/lastmile_qr_scan"}, "fusion_lon": 0.0, "bike_id": "878790a07485b76685511a26f9b69fc6", "fusion_lat": 0.0, "is_reserved": 0}, {"name": "35799bdbc9de7ec17167222e56cf4afd", "lon": -76.9924565, "lat": 38.79467266666666, "type": "electric_bike", "is_disabled": 0, "rental_uris": {"android": "https://dc.lft.to/lastmile_qr_scan", "ios": "https://dc.lft.to/lastmile_qr_scan"}, "fusion_lon": 0.0, "bike_id": "35799bdbc9de7ec17167222e56cf4afd", "fusion_lat": 0.0, "is_reserved": 0}, {"name": "6e3081b5bdc488cad7a83b1cb1fcb07d", "lon": -77.077001, "lat": 38.94378566666666, "type": "electric_scooter", "is_disabled": 0, "rental_uris": {"android": "https://dc.lft.to/lastmile_qr_scan", "ios": "https://dc.lft.to/lastmile_qr_scan"}, "fusion_lon": 0.0, "bike_id": "6e3081b5bdc488cad7a83b1cb1fcb07d", "fusion_lat": 0.0, "is_reserved": 0}, {"name": "482df9283279ba6cf5f4cab899dbca04", "lon": -77.0333765, "lat": 38.93511016666667, "type": "electric_scooter", "is_disabled": 0, "rental_uris": {"android": "https://dc.lft.to/lastmile_qr_scan", "ios": "https://dc.lft.to/lastmile_qr_scan"}, "fusion_lon": 0.0, "bike_id": "482df9283279ba6cf5f4cab899dbca04", "fusion_lat": 0.0, "is_reserved": 0}, {"name": "e1399a335f3e7515b1254fff85e7d9be", "lon": -77.08762316666666, "lat": 38.806569, "type": "electric_bike", "is_disabled": 0, "rental_uris": {"android": "https://dc.lft.to/lastmile_qr_scan", "ios": "https://dc.lft.to/lastmile_qr_scan"}, "fusion_lon": 0.0, "bike_id": "e1399a335f3e7515b1254fff85e7d9be", "fusion_lat": 0.0, "is_reserved": 0}, {"name": "67beb598181a5da21e64c848a5a33560", "lon": -77.03129133333333, "lat": 38.917017333333334, "type": "electric_scooter", "is_disabled": 0, "rental_uris": {"android": "https://dc.lft.to/lastmile_qr_scan", "ios": "https://dc.lft.to/lastmile_qr_scan"}, "fusion_lon": 0.0, "bike_id": "67beb598181a5da21e64c848a5a33560", "fusion_lat": 0.0, "is_reserved": 0}, {"name": "63e04900e9fa19f491449e1abc93999c", "lon": -77.05463016666667, "lat": 38.89666583333333, "type": "electric_scooter", "is_disabled": 0, "rental_uris": {"android": "https://dc.lft.to/lastmile_qr_scan", "ios": "https://dc.lft.to/lastmile_qr_scan"}, "fusion_lon": 0.0, "bike_id": "63e04900e9fa19f491449e1abc93999c", "fusion_lat": 0.0, "is_reserved": 0}, {"name": "5e655ec8dd75b371623e2709b2bbbd03", "lon": -76.98542183333333, "lat": 38.866882, "type": "electric_scooter", "is_disabled": 0, "rental_uris": {"android": "https://dc.lft.to/lastmile_qr_scan", "ios": "https://dc.lft.to/lastmile_qr_scan"}, "fusion_lon": 0.0, "bike_id": "5e655ec8dd75b371623e2709b2bbbd03", "fusion_lat": 0.0, "is_reserved": 0}, {"name": "10925407c65b182ba0a0150803b8006d", "lon": -77.00572783333334, "lat": 38.929352, "type": "electric_scooter", "is_disabled": 0, "rental_uris": {"android": "https://dc.lft.to/lastmile_qr_scan", "ios": "https://dc.lft.to/lastmile_qr_scan"}, "fusion_lon": 0.0, "bike_id": "10925407c65b182ba0a0150803b8006d", "fusion_lat": 0.0, "is_reserved": 0}, {"name": "0577850576f42b81f3ec9d87563abe89", "lon": -77.02445916666667, "lat": 38.930927, "type": "electric_scooter", "is_disabled": 0, "rental_uris": {"android": "https://dc.lft.to/lastmile_qr_scan", "ios": "https://dc.lft.to/lastmile_qr_scan"}, "fusion_lon": 0.0, "bike_id": "0577850576f42b81f3ec9d87563abe89", "fusion_lat": 0.0, "is_reserved": 0}, {"name": "6dac59fbb310ee202865cae5eb8173b8", "lon": -77.03850416666667, "lat": 38.91600116666667, "type": "electric_scooter", "is_disabled": 0, "rental_uris": {"android": "https://dc.lft.to/lastmile_qr_scan", "ios": "https://dc.lft.to/lastmile_qr_scan"}, "fusion_lon": 0.0, "bike_id": "6dac59fbb310ee202865cae5eb8173b8", "fusion_lat": 0.0, "is_reserved": 0}, {"name": "7708b6104b963fde88a0ae8366c9b2ae", "lon": -77.02555016666666, "lat": 38.923958999999996, "type": "electric_scooter", "is_disabled": 0, "rental_uris": {"android": "https://dc.lft.to/lastmile_qr_scan", "ios": "https://dc.lft.to/lastmile_qr_scan"}, "fusion_lon": 0.0, "bike_id": "7708b6104b963fde88a0ae8366c9b2ae", "fusion_lat": 0.0, "is_reserved": 0}, {"name": "98c74f31c21c1d200d0144ea18508e63", "lon": -77.03191333333334, "lat": 38.91627866666666, "type": "electric_scooter", "is_disabled": 0, "rental_uris": {"android": "https://dc.lft.to/lastmile_qr_scan", "ios": "https://dc.lft.to/lastmile_qr_scan"}, "fusion_lon": 0.0, "bike_id": "98c74f31c21c1d200d0144ea18508e63", "fusion_lat": 0.0, "is_reserved": 0}, {"name": "06ef01b31ab3e81d33fabf9af63c89c5", "lon": -77.040251, "lat": 38.905722, "type": "electric_scooter", "is_disabled": 0, "rental_uris": {"android": "https://dc.lft.to/lastmile_qr_scan", "ios": "https://dc.lft.to/lastmile_qr_scan"}, "fusion_lon": 0.0, "bike_id": "06ef01b31ab3e81d33fabf9af63c89c5", "fusion_lat": 0.0, "is_reserved": 0}, {"name": "45883c5dec5dc7ffb2da3a36d17b1751", "lon": -77.01998033333334, "lat": 38.91359516666667, "type": "electric_scooter", "is_disabled": 0, "rental_uris": {"android": "https://dc.lft.to/lastmile_qr_scan", "ios": "https://dc.lft.to/lastmile_qr_scan"}, "fusion_lon": 0.0, "bike_id": "45883c5dec5dc7ffb2da3a36d17b1751", "fusion_lat": 0.0, "is_reserved": 0}, {"name": "9eb57c977ea9fb88f544a3d908a3285b", "lon": -76.94654116666666, "lat": 38.8982585, "type": "electric_scooter", "is_disabled": 0, "rental_uris": {"android": "https://dc.lft.to/lastmile_qr_scan", "ios": "https://dc.lft.to/lastmile_qr_scan"}, "fusion_lon": 0.0, "bike_id": "9eb57c977ea9fb88f544a3d908a3285b", "fusion_lat": 0.0, "is_reserved": 0}, {"name": "13dd9523b782b84d66bd1f6d1139e3b5", "lon": -77.03191, "lat": 38.90039483333334, "type": "electric_scooter", "is_disabled": 0, "rental_uris": {"android": "https://dc.lft.to/lastmile_qr_scan", "ios": "https://dc.lft.to/lastmile_qr_scan"}, "fusion_lon": 0.0, "bike_id": "13dd9523b782b84d66bd1f6d1139e3b5", "fusion_lat": 0.0, "is_reserved": 0}, {"name": "0ac78d94f3cd5ce463594fcd5d9f9a6c", "lon": -77.0215105, "lat": 38.9245615, "type": "electric_scooter", "is_disabled": 0, "rental_uris": {"android": "https://dc.lft.to/lastmile_qr_scan", "ios": "https://dc.lft.to/lastmile_qr_scan"}, "fusion_lon": 0.0, "bike_id": "0ac78d94f3cd5ce463594fcd5d9f9a6c", "fusion_lat": 0.0, "is_reserved": 0}, {"name": "36035e3428dd1d7a510832f5fe520166", "lon": -77.03270433333333, "lat": 38.92810683333333, "type": "electric_scooter", "is_disabled": 0, "rental_uris": {"android": "https://dc.lft.to/lastmile_qr_scan", "ios": "https://dc.lft.to/lastmile_qr_scan"}, "fusion_lon": 0.0, "bike_id": "36035e3428dd1d7a510832f5fe520166", "fusion_lat": 0.0, "is_reserved": 0}, {"name": "3c163f35d7494981756141800f9fa053", "lon": -77.008716, "lat": 38.96459333333333, "type": "electric_bike", "is_disabled": 0, "rental_uris": {"android": "https://dc.lft.to/lastmile_qr_scan", "ios": "https://dc.lft.to/lastmile_qr_scan"}, "fusion_lon": 0.0, "bike_id": "3c163f35d7494981756141800f9fa053", "fusion_lat": 0.0, "is_reserved": 0}, {"name": "247cfd6e19866c2404cd3fe21ee91eee", "lon": -77.0354455, "lat": 38.924678166666666, "type": "electric_scooter", "is_disabled": 0, "rental_uris": {"android": "https://dc.lft.to/lastmile_qr_scan", "ios": "https://dc.lft.to/lastmile_qr_scan"}, "fusion_lon": 0.0, "bike_id": "247cfd6e19866c2404cd3fe21ee91eee", "fusion_lat": 0.0, "is_reserved": 0}, {"name": "9cd87c0b16271355488505628c2d17b3", "lon": -76.9575485, "lat": 38.88423933333333, "type": "electric_scooter", "is_disabled": 0, "rental_uris": {"android": "https://dc.lft.to/lastmile_qr_scan", "ios": "https://dc.lft.to/lastmile_qr_scan"}, "fusion_lon": 0.0, "bike_id": "9cd87c0b16271355488505628c2d17b3", "fusion_lat": 0.0, "is_reserved": 0}, {"name": "04ed3520ee7c6955f5761f70e7990328", "lon": -77.0220005, "lat": 38.9247135, "type": "electric_scooter", "is_disabled": 0, "rental_uris": {"android": "https://dc.lft.to/lastmile_qr_scan", "ios": "https://dc.lft.to/lastmile_qr_scan"}, "fusion_lon": 0.0, "bike_id": "04ed3520ee7c6955f5761f70e7990328", "fusion_lat": 0.0, "is_reserved": 0}, {"name": "c96055a33624c028c239270008862055", "lon": -77.07188933333333, "lat": 38.90906716666667, "type": "electric_scooter", "is_disabled": 0, "rental_uris": {"android": "https://dc.lft.to/lastmile_qr_scan", "ios": "https://dc.lft.to/lastmile_qr_scan"}, "fusion_lon": 0.0, "bike_id": "c96055a33624c028c239270008862055", "fusion_lat": 0.0, "is_reserved": 0}, {"name": "65b5aa9f180ba19d9521d4be68ddce53", "lon": -77.03431966666666, "lat": 38.90275483333333, "type": "electric_scooter", "is_disabled": 0, "rental_uris": {"android": "https://dc.lft.to/lastmile_qr_scan", "ios": "https://dc.lft.to/lastmile_qr_scan"}, "fusion_lon": 0.0, "bike_id": "65b5aa9f180ba19d9521d4be68ddce53", "fusion_lat": 0.0, "is_reserved": 0}, {"name": "c33c1df22d764c0a86f5c1e2742ac4ff", "lon": -77.032166, "lat": 38.9170325, "type": "electric_scooter", "is_disabled": 0, "rental_uris": {"android": "https://dc.lft.to/lastmile_qr_scan", "ios": "https://dc.lft.to/lastmile_qr_scan"}, "fusion_lon": 0.0, "bike_id": "c33c1df22d764c0a86f5c1e2742ac4ff", "fusion_lat": 0.0, "is_reserved": 0}, {"name": "54ab99feea54b4853481d57a39128065", "lon": -77.0000205, "lat": 38.87392666666667, "type": "electric_scooter", "is_disabled": 0, "rental_uris": {"android": "https://dc.lft.to/lastmile_qr_scan", "ios": "https://dc.lft.to/lastmile_qr_scan"}, "fusion_lon": 0.0, "bike_id": "54ab99feea54b4853481d57a39128065", "fusion_lat": 0.0, "is_reserved": 0}, {"name": "ae6450901afd41be9e7cd29d77fa3607", "lon": -77.02060233333333, "lat": 38.924073166666666, "type": "electric_scooter", "is_disabled": 0, "rental_uris": {"android": "https://dc.lft.to/lastmile_qr_scan", "ios": "https://dc.lft.to/lastmile_qr_scan"}, "fusion_lon": 0.0, "bike_id": "ae6450901afd41be9e7cd29d77fa3607", "fusion_lat": 0.0, "is_reserved": 0}, {"name": "dfc4aaf3f5c6ee51c06bab3819c566a4", "lon": -77.0319665, "lat": 38.901046666666666, "type": "electric_scooter", "is_disabled": 0, "rental_uris": {"android": "https://dc.lft.to/lastmile_qr_scan", "ios": "https://dc.lft.to/lastmile_qr_scan"}, "fusion_lon": 0.0, "bike_id": "dfc4aaf3f5c6ee51c06bab3819c566a4", "fusion_lat": 0.0, "is_reserved": 0}, {"name": "64107ed5c3c1fafb492aad2f94529552", "lon": -77.04518, "lat": 38.92311866666667, "type": "electric_scooter", "is_disabled": 0, "rental_uris": {"android": "https://dc.lft.to/lastmile_qr_scan", "ios": "https://dc.lft.to/lastmile_qr_scan"}, "fusion_lon": 0.0, "bike_id": "64107ed5c3c1fafb492aad2f94529552", "fusion_lat": 0.0, "is_reserved": 0}, {"name": "75077c750695c8851d5e85428ceba062", "lon": -77.03957616666666, "lat": 38.89241616666666, "type": "electric_scooter", "is_disabled": 0, "rental_uris": {"android": "https://dc.lft.to/lastmile_qr_scan", "ios": "https://dc.lft.to/lastmile_qr_scan"}, "fusion_lon": 0.0, "bike_id": "75077c750695c8851d5e85428ceba062", "fusion_lat": 0.0, "is_reserved": 0}, {"name": "9310e70aecd95c0c2eec7cc97d95bb77", "lon": -76.94247633333333, "lat": 38.893037, "type": "electric_scooter", "is_disabled": 0, "rental_uris": {"android": "https://dc.lft.to/lastmile_qr_scan", "ios": "https://dc.lft.to/lastmile_qr_scan"}, "fusion_lon": 0.0, "bike_id": "9310e70aecd95c0c2eec7cc97d95bb77", "fusion_lat": 0.0, "is_reserved": 0}, {"name": "85b7d9a42ec6da010c0e73bf1d245a6e", "lon": -77.03299816666667, "lat": 38.927405666666665, "type": "electric_scooter", "is_disabled": 0, "rental_uris": {"android": "https://dc.lft.to/lastmile_qr_scan", "ios": "https://dc.lft.to/lastmile_qr_scan"}, "fusion_lon": 0.0, "bike_id": "85b7d9a42ec6da010c0e73bf1d245a6e", "fusion_lat": 0.0, "is_reserved": 0}, {"name": "cd709d41503b33e9d44c4e9a737f6c9f", "lon": -77.03190566666666, "lat": 38.909174666666665, "type": "electric_scooter", "is_disabled": 0, "rental_uris": {"android": "https://dc.lft.to/lastmile_qr_scan", "ios": "https://dc.lft.to/lastmile_qr_scan"}, "fusion_lon": 0.0, "bike_id": "cd709d41503b33e9d44c4e9a737f6c9f", "fusion_lat": 0.0, "is_reserved": 0}, {"name": "b3a8fb00e93ff82ec228bbb8aaa15d3c", "lon": -77.02411583333334, "lat": 38.89221533333333, "type": "electric_scooter", "is_disabled": 0, "rental_uris": {"android": "https://dc.lft.to/lastmile_qr_scan", "ios": "https://dc.lft.to/lastmile_qr_scan"}, "fusion_lon": 0.0, "bike_id": "b3a8fb00e93ff82ec228bbb8aaa15d3c", "fusion_lat": 0.0, "is_reserved": 0}, {"name": "d67a56b8aeeb81a75a9e8ba99b17049d", "lon": -77.0381765, "lat": 38.930596, "type": "electric_scooter", "is_disabled": 0, "rental_uris": {"android": "https://dc.lft.to/lastmile_qr_scan", "ios": "https://dc.lft.to/lastmile_qr_scan"}, "fusion_lon": 0.0, "bike_id": "d67a56b8aeeb81a75a9e8ba99b17049d", "fusion_lat": 0.0, "is_reserved": 0}, {"name": "788bda507fdd925a987aa2ca6e6266ad", "lon": -77.02733283333333, "lat": 38.95201566666667, "type": "electric_scooter", "is_disabled": 0, "rental_uris": {"android": "https://dc.lft.to/lastmile_qr_scan", "ios": "https://dc.lft.to/lastmile_qr_scan"}, "fusion_lon": 0.0, "bike_id": "788bda507fdd925a987aa2ca6e6266ad", "fusion_lat": 0.0, "is_reserved": 0}, {"name": "11ee68012f661f4cfbd129ba05b19751", "lon": -77.00488066666666, "lat": 38.874637666666665, "type": "electric_scooter", "is_disabled": 0, "rental_uris": {"android": "https://dc.lft.to/lastmile_qr_scan", "ios": "https://dc.lft.to/lastmile_qr_scan"}, "fusion_lon": 0.0, "bike_id": "11ee68012f661f4cfbd129ba05b19751", "fusion_lat": 0.0, "is_reserved": 0}, {"name": "5ea2615c6d3a9eccbfcb309451ce49c2", "lon": -77.02210966666667, "lat": 38.92468566666667, "type": "electric_scooter", "is_disabled": 0, "rental_uris": {"android": "https://dc.lft.to/lastmile_qr_scan", "ios": "https://dc.lft.to/lastmile_qr_scan"}, "fusion_lon": 0.0, "bike_id": "5ea2615c6d3a9eccbfcb309451ce49c2", "fusion_lat": 0.0, "is_reserved": 0}, {"name": "dbc782723cdae47ad78617aee8dc3e9e", "lon": -77.030644, "lat": 38.930861666666665, "type": "electric_scooter", "is_disabled": 0, "rental_uris": {"android": "https://dc.lft.to/lastmile_qr_scan", "ios": "https://dc.lft.to/lastmile_qr_scan"}, "fusion_lon": 0.0, "bike_id": "dbc782723cdae47ad78617aee8dc3e9e", "fusion_lat": 0.0, "is_reserved": 0}, {"name": "8ec5d3ec3109643ff702fd4ee675f9d9", "lon": -77.035268, "lat": 38.924945, "type": "electric_scooter", "is_disabled": 0, "rental_uris": {"android": "https://dc.lft.to/lastmile_qr_scan", "ios": "https://dc.lft.to/lastmile_qr_scan"}, "fusion_lon": 0.0, "bike_id": "8ec5d3ec3109643ff702fd4ee675f9d9", "fusion_lat": 0.0, "is_reserved": 0}, {"name": "71a11d6d11206f13c7859c182a1e80af", "lon": -76.9796715, "lat": 38.89223466666667, "type": "electric_scooter", "is_disabled": 0, "rental_uris": {"android": "https://dc.lft.to/lastmile_qr_scan", "ios": "https://dc.lft.to/lastmile_qr_scan"}, "fusion_lon": 0.0, "bike_id": "71a11d6d11206f13c7859c182a1e80af", "fusion_lat": 0.0, "is_reserved": 0}, {"name": "61657d0b081099ead508ca020f653325", "lon": -77.045241, "lat": 38.913250166666664, "type": "electric_scooter", "is_disabled": 0, "rental_uris": {"android": "https://dc.lft.to/lastmile_qr_scan", "ios": "https://dc.lft.to/lastmile_qr_scan"}, "fusion_lon": 0.0, "bike_id": "61657d0b081099ead508ca020f653325", "fusion_lat": 0.0, "is_reserved": 0}, {"name": "19f7cadaa216e0f7e15991a1b5e58e5a", "lon": -77.03214766666666, "lat": 38.90128816666667, "type": "electric_scooter", "is_disabled": 0, "rental_uris": {"android": "https://dc.lft.to/lastmile_qr_scan", "ios": "https://dc.lft.to/lastmile_qr_scan"}, "fusion_lon": 0.0, "bike_id": "19f7cadaa216e0f7e15991a1b5e58e5a", "fusion_lat": 0.0, "is_reserved": 0}, {"name": "c8ea16f95bfd786fd233be77b056efbb", "lon": -77.02761133333334, "lat": 38.916933666666665, "type": "electric_scooter", "is_disabled": 0, "rental_uris": {"android": "https://dc.lft.to/lastmile_qr_scan", "ios": "https://dc.lft.to/lastmile_qr_scan"}, "fusion_lon": 0.0, "bike_id": "c8ea16f95bfd786fd233be77b056efbb", "fusion_lat": 0.0, "is_reserved": 0}, {"name": "a2e863222c9f7760cf6194cb4860f59a", "lon": -77.021865, "lat": 38.92826983333333, "type": "electric_scooter", "is_disabled": 0, "rental_uris": {"android": "https://dc.lft.to/lastmile_qr_scan", "ios": "https://dc.lft.to/lastmile_qr_scan"}, "fusion_lon": 0.0, "bike_id": "a2e863222c9f7760cf6194cb4860f59a", "fusion_lat": 0.0, "is_reserved": 0}, {"name": "e6183d5a9b3587281aee02e493d0a38f", "lon": -77.0280875, "lat": 38.9164475, "type": "electric_scooter", "is_disabled": 0, "rental_uris": {"android": "https://dc.lft.to/lastmile_qr_scan", "ios": "https://dc.lft.to/lastmile_qr_scan"}, "fusion_lon": 0.0, "bike_id": "e6183d5a9b3587281aee02e493d0a38f", "fusion_lat": 0.0, "is_reserved": 0}, {"name": "514a3f8a0860476432f514a338d3edce", "lon": -77.03997366666667, "lat": 38.9963605, "type": "electric_bike", "is_disabled": 0, "rental_uris": {"android": "https://dc.lft.to/lastmile_qr_scan", "ios": "https://dc.lft.to/lastmile_qr_scan"}, "fusion_lon": 0.0, "bike_id": "514a3f8a0860476432f514a338d3edce", "fusion_lat": 0.0, "is_reserved": 0}, {"name": "99c3328f10a81c004c0d386e169c645c", "lon": -77.01541966666667, "lat": 38.894873, "type": "electric_scooter", "is_disabled": 0, "rental_uris": {"android": "https://dc.lft.to/lastmile_qr_scan", "ios": "https://dc.lft.to/lastmile_qr_scan"}, "fusion_lon": 0.0, "bike_id": "99c3328f10a81c004c0d386e169c645c", "fusion_lat": 0.0, "is_reserved": 0}, {"name": "3c6e82c131c0f69d6ca32db28adc096a", "lon": -77.03424783333334, "lat": 38.902568, "type": "electric_scooter", "is_disabled": 0, "rental_uris": {"android": "https://dc.lft.to/lastmile_qr_scan", "ios": "https://dc.lft.to/lastmile_qr_scan"}, "fusion_lon": 0.0, "bike_id": "3c6e82c131c0f69d6ca32db28adc096a", "fusion_lat": 0.0, "is_reserved": 0}, {"name": "c0871408b2751eb508cba63351ad5665", "lon": -77.03175383333334, "lat": 38.91553866666667, "type": "electric_scooter", "is_disabled": 0, "rental_uris": {"android": "https://dc.lft.to/lastmile_qr_scan", "ios": "https://dc.lft.to/lastmile_qr_scan"}, "fusion_lon": 0.0, "bike_id": "c0871408b2751eb508cba63351ad5665", "fusion_lat": 0.0, "is_reserved": 0}, {"name": "e41f063cc0418ab4ed11e22a8bfee147", "lon": -77.045506, "lat": 38.89833516666667, "type": "electric_scooter", "is_disabled": 0, "rental_uris": {"android": "https://dc.lft.to/lastmile_qr_scan", "ios": "https://dc.lft.to/lastmile_qr_scan"}, "fusion_lon": 0.0, "bike_id": "e41f063cc0418ab4ed11e22a8bfee147", "fusion_lat": 0.0, "is_reserved": 0}, {"name": "a079de6f7f143bbd8f919cee8bb586cb", "lon": -77.00062933333334, "lat": 38.876807, "type": "electric_scooter", "is_disabled": 0, "rental_uris": {"android": "https://dc.lft.to/lastmile_qr_scan", "ios": "https://dc.lft.to/lastmile_qr_scan"}, "fusion_lon": 0.0, "bike_id": "a079de6f7f143bbd8f919cee8bb586cb", "fusion_lat": 0.0, "is_reserved": 0}, {"name": "73e04f8659124e68f2a09cef13b28dfb", "lon": -77.0489165, "lat": 38.9009705, "type": "electric_bike", "is_disabled": 0, "rental_uris": {"android": "https://dc.lft.to/lastmile_qr_scan", "ios": "https://dc.lft.to/lastmile_qr_scan"}, "fusion_lon": 0.0, "bike_id": "73e04f8659124e68f2a09cef13b28dfb", "fusion_lat": 0.0, "is_reserved": 0}, {"name": "a55cb72861824ca835192485f700fd4d", "lon": -76.98502816666667, "lat": 38.906730833333334, "type": "electric_bike", "is_disabled": 0, "rental_uris": {"android": "https://dc.lft.to/lastmile_qr_scan", "ios": "https://dc.lft.to/lastmile_qr_scan"}, "fusion_lon": 0.0, "bike_id": "a55cb72861824ca835192485f700fd4d", "fusion_lat": 0.0, "is_reserved": 0}, {"name": "1f4249a0e530be23d4abd978861be126", "lon": -76.99855016666666, "lat": 38.90027583333333, "type": "electric_scooter", "is_disabled": 0, "rental_uris": {"android": "https://dc.lft.to/lastmile_qr_scan", "ios": "https://dc.lft.to/lastmile_qr_scan"}, "fusion_lon": 0.0, "bike_id": "1f4249a0e530be23d4abd978861be126", "fusion_lat": 0.0, "is_reserved": 0}, {"name": "f5ec8864eca6b0f55dd530b28d522da0", "lon": -77.03186816666667, "lat": 38.9141955, "type": "electric_scooter", "is_disabled": 0, "rental_uris": {"android": "https://dc.lft.to/lastmile_qr_scan", "ios": "https://dc.lft.to/lastmile_qr_scan"}, "fusion_lon": 0.0, "bike_id": "f5ec8864eca6b0f55dd530b28d522da0", "fusion_lat": 0.0, "is_reserved": 0}, {"name": "29bb3c89a2902fd4a848aea95f9776d5", "lon": -77.01680883333333, "lat": 38.9205385, "type": "electric_scooter", "is_disabled": 0, "rental_uris": {"android": "https://dc.lft.to/lastmile_qr_scan", "ios": "https://dc.lft.to/lastmile_qr_scan"}, "fusion_lon": 0.0, "bike_id": "29bb3c89a2902fd4a848aea95f9776d5", "fusion_lat": 0.0, "is_reserved": 0}, {"name": "3807b504ba40f402425ab2b450dfc62d", "lon": -77.01188766666667, "lat": 38.91567966666667, "type": "electric_scooter", "is_disabled": 0, "rental_uris": {"android": "https://dc.lft.to/lastmile_qr_scan", "ios": "https://dc.lft.to/lastmile_qr_scan"}, "fusion_lon": 0.0, "bike_id": "3807b504ba40f402425ab2b450dfc62d", "fusion_lat": 0.0, "is_reserved": 0}, {"name": "f1c6467f53cef8b0615314f4238e959c", "lon": -77.04351416666667, "lat": 38.91103066666667, "type": "electric_scooter", "is_disabled": 0, "rental_uris": {"android": "https://dc.lft.to/lastmile_qr_scan", "ios": "https://dc.lft.to/lastmile_qr_scan"}, "fusion_lon": 0.0, "bike_id": "f1c6467f53cef8b0615314f4238e959c", "fusion_lat": 0.0, "is_reserved": 0}, {"name": "4e8f9c716901d3dce7c0f0705dc76c3a", "lon": -77.03862066666667, "lat": 38.917036, "type": "electric_scooter", "is_disabled": 0, "rental_uris": {"android": "https://dc.lft.to/lastmile_qr_scan", "ios": "https://dc.lft.to/lastmile_qr_scan"}, "fusion_lon": 0.0, "bike_id": "4e8f9c716901d3dce7c0f0705dc76c3a", "fusion_lat": 0.0, "is_reserved": 0}, {"name": "b14a3b437ae71cb67f29f97b55586c83", "lon": -77.04696633333333, "lat": 38.92177783333333, "type": "electric_scooter", "is_disabled": 0, "rental_uris": {"android": "https://dc.lft.to/lastmile_qr_scan", "ios": "https://dc.lft.to/lastmile_qr_scan"}, "fusion_lon": 0.0, "bike_id": "b14a3b437ae71cb67f29f97b55586c83", "fusion_lat": 0.0, "is_reserved": 0}, {"name": "acd53b4e6e801d159baa6314cce52696", "lon": -77.04993283333333, "lat": 38.901077, "type": "electric_scooter", "is_disabled": 0, "rental_uris": {"android": "https://dc.lft.to/lastmile_qr_scan", "ios": "https://dc.lft.to/lastmile_qr_scan"}, "fusion_lon": 0.0, "bike_id": "acd53b4e6e801d159baa6314cce52696", "fusion_lat": 0.0, "is_reserved": 0}, {"name": "8ea097ca3341f5eec2a42b0c39801096", "lon": -77.03885316666667, "lat": 38.90614133333333, "type": "electric_scooter", "is_disabled": 0, "rental_uris": {"android": "https://dc.lft.to/lastmile_qr_scan", "ios": "https://dc.lft.to/lastmile_qr_scan"}, "fusion_lon": 0.0, "bike_id": "8ea097ca3341f5eec2a42b0c39801096", "fusion_lat": 0.0, "is_reserved": 0}, {"name": "0b1abb715070bac8158e9e2414bbb655", "lon": -77.03520316666666, "lat": 38.92534, "type": "electric_scooter", "is_disabled": 0, "rental_uris": {"android": "https://dc.lft.to/lastmile_qr_scan", "ios": "https://dc.lft.to/lastmile_qr_scan"}, "fusion_lon": 0.0, "bike_id": "0b1abb715070bac8158e9e2414bbb655", "fusion_lat": 0.0, "is_reserved": 0}, {"name": "381a0dc1e8169b238de831ac4a91f33e", "lon": -77.04253383333334, "lat": 38.9064785, "type": "electric_scooter", "is_disabled": 0, "rental_uris": {"android": "https://dc.lft.to/lastmile_qr_scan", "ios": "https://dc.lft.to/lastmile_qr_scan"}, "fusion_lon": 0.0, "bike_id": "381a0dc1e8169b238de831ac4a91f33e", "fusion_lat": 0.0, "is_reserved": 0}, {"name": "199ad68efa55c99070b4747a2fcfab90", "lon": -77.02986916666667, "lat": 38.90852366666667, "type": "electric_scooter", "is_disabled": 0, "rental_uris": {"android": "https://dc.lft.to/lastmile_qr_scan", "ios": "https://dc.lft.to/lastmile_qr_scan"}, "fusion_lon": 0.0, "bike_id": "199ad68efa55c99070b4747a2fcfab90", "fusion_lat": 0.0, "is_reserved": 0}, {"name": "4aeef670b4f6ab484fcc496ae66a0f94", "lon": -77.0317835, "lat": 38.910951, "type": "electric_scooter", "is_disabled": 0, "rental_uris": {"android": "https://dc.lft.to/lastmile_qr_scan", "ios": "https://dc.lft.to/lastmile_qr_scan"}, "fusion_lon": 0.0, "bike_id": "4aeef670b4f6ab484fcc496ae66a0f94", "fusion_lat": 0.0, "is_reserved": 0}, {"name": "4f2c2e099ce8c8a17045ac89106f0f37", "lon": -77.05129116666667, "lat": 38.92361016666667, "type": "electric_scooter", "is_disabled": 0, "rental_uris": {"android": "https://dc.lft.to/lastmile_qr_scan", "ios": "https://dc.lft.to/lastmile_qr_scan"}, "fusion_lon": 0.0, "bike_id": "4f2c2e099ce8c8a17045ac89106f0f37", "fusion_lat": 0.0, "is_reserved": 0}, {"name": "e39affb000e0625d67fc898792900396", "lon": -77.00304633333333, "lat": 38.8336525, "type": "electric_bike", "is_disabled": 0, "rental_uris": {"android": "https://dc.lft.to/lastmile_qr_scan", "ios": "https://dc.lft.to/lastmile_qr_scan"}, "fusion_lon": 0.0, "bike_id": "e39affb000e0625d67fc898792900396", "fusion_lat": 0.0, "is_reserved": 0}, {"name": "5482cb3375b8edfa43f7f44092c74de9", "lon": -77.02902166666667, "lat": 38.91711333333333, "type": "electric_scooter", "is_disabled": 0, "rental_uris": {"android": "https://dc.lft.to/lastmile_qr_scan", "ios": "https://dc.lft.to/lastmile_qr_scan"}, "fusion_lon": 0.0, "bike_id": "5482cb3375b8edfa43f7f44092c74de9", "fusion_lat": 0.0, "is_reserved": 0}, {"name": "68c24c15e4f4aef49e123e3078eafdbf", "lon": -77.04339416666667, "lat": 38.900378333333336, "type": "electric_scooter", "is_disabled": 0, "rental_uris": {"android": "https://dc.lft.to/lastmile_qr_scan", "ios": "https://dc.lft.to/lastmile_qr_scan"}, "fusion_lon": 0.0, "bike_id": "68c24c15e4f4aef49e123e3078eafdbf", "fusion_lat": 0.0, "is_reserved": 0}, {"name": "f130c0e884c6627fe99bce62a7368063", "lon": -77.03105366666666, "lat": 38.883180833333334, "type": "electric_scooter", "is_disabled": 0, "rental_uris": {"android": "https://dc.lft.to/lastmile_qr_scan", "ios": "https://dc.lft.to/lastmile_qr_scan"}, "fusion_lon": 0.0, "bike_id": "f130c0e884c6627fe99bce62a7368063", "fusion_lat": 0.0, "is_reserved": 0}, {"name": "ea0a18a5a072455f21ae17266132876d", "lon": -77.02191533333334, "lat": 38.9103635, "type": "electric_scooter", "is_disabled": 0, "rental_uris": {"android": "https://dc.lft.to/lastmile_qr_scan", "ios": "https://dc.lft.to/lastmile_qr_scan"}, "fusion_lon": 0.0, "bike_id": "ea0a18a5a072455f21ae17266132876d", "fusion_lat": 0.0, "is_reserved": 0}, {"name": "868888e6876a43178307dd8cf8139ebe", "lon": -77.00682733333333, "lat": 38.871689333333336, "type": "electric_scooter", "is_disabled": 0, "rental_uris": {"android": "https://dc.lft.to/lastmile_qr_scan", "ios": "https://dc.lft.to/lastmile_qr_scan"}, "fusion_lon": 0.0, "bike_id": "868888e6876a43178307dd8cf8139ebe", "fusion_lat": 0.0, "is_reserved": 0}, {"name": "6dfdba3a16f26e980264d07a776cd1e5", "lon": -77.007065, "lat": 38.905334833333335, "type": "electric_scooter", "is_disabled": 0, "rental_uris": {"android": "https://dc.lft.to/lastmile_qr_scan", "ios": "https://dc.lft.to/lastmile_qr_scan"}, "fusion_lon": 0.0, "bike_id": "6dfdba3a16f26e980264d07a776cd1e5", "fusion_lat": 0.0, "is_reserved": 0}, {"name": "00cc6aff348f3d94d3677e0661c2aeaf", "lon": -77.04430016666667, "lat": 38.9097885, "type": "electric_scooter", "is_disabled": 0, "rental_uris": {"android": "https://dc.lft.to/lastmile_qr_scan", "ios": "https://dc.lft.to/lastmile_qr_scan"}, "fusion_lon": 0.0, "bike_id": "00cc6aff348f3d94d3677e0661c2aeaf", "fusion_lat": 0.0, "is_reserved": 0}, {"name": "c6ad8ea2279b8b8967adb30d56ae3e2e", "lon": -77.02373516666667, "lat": 38.907276, "type": "electric_scooter", "is_disabled": 0, "rental_uris": {"android": "https://dc.lft.to/lastmile_qr_scan", "ios": "https://dc.lft.to/lastmile_qr_scan"}, "fusion_lon": 0.0, "bike_id": "c6ad8ea2279b8b8967adb30d56ae3e2e", "fusion_lat": 0.0, "is_reserved": 0}, {"name": "70350c9549a5d5465920d0b4c41e0444", "lon": -77.03400983333333, "lat": 38.92268166666667, "type": "electric_scooter", "is_disabled": 0, "rental_uris": {"android": "https://dc.lft.to/lastmile_qr_scan", "ios": "https://dc.lft.to/lastmile_qr_scan"}, "fusion_lon": 0.0, "bike_id": "70350c9549a5d5465920d0b4c41e0444", "fusion_lat": 0.0, "is_reserved": 0}, {"name": "5fad2ec2bce812519f6c838a0b2ea5c5", "lon": -77.03953816666667, "lat": 38.90276683333333, "type": "electric_scooter", "is_disabled": 0, "rental_uris": {"android": "https://dc.lft.to/lastmile_qr_scan", "ios": "https://dc.lft.to/lastmile_qr_scan"}, "fusion_lon": 0.0, "bike_id": "5fad2ec2bce812519f6c838a0b2ea5c5", "fusion_lat": 0.0, "is_reserved": 0}, {"name": "dfd48ccc5a6e627133324f17d51fd1e9", "lon": -77.03953216666666, "lat": 38.90271516666667, "type": "electric_scooter", "is_disabled": 0, "rental_uris": {"android": "https://dc.lft.to/lastmile_qr_scan", "ios": "https://dc.lft.to/lastmile_qr_scan"}, "fusion_lon": 0.0, "bike_id": "dfd48ccc5a6e627133324f17d51fd1e9", "fusion_lat": 0.0, "is_reserved": 0}, {"name": "16208e05a0e3d3e4cf971ebfa55e8313", "lon": -77.04228133333334, "lat": 38.911053333333335, "type": "electric_scooter", "is_disabled": 0, "rental_uris": {"android": "https://dc.lft.to/lastmile_qr_scan", "ios": "https://dc.lft.to/lastmile_qr_scan"}, "fusion_lon": 0.0, "bike_id": "16208e05a0e3d3e4cf971ebfa55e8313", "fusion_lat": 0.0, "is_reserved": 0}, {"name": "cee76bdbf3e96ce61bf7cf0ce0b94a14", "lon": -77.03875333333333, "lat": 38.932678, "type": "electric_scooter", "is_disabled": 0, "rental_uris": {"android": "https://dc.lft.to/lastmile_qr_scan", "ios": "https://dc.lft.to/lastmile_qr_scan"}, "fusion_lon": 0.0, "bike_id": "cee76bdbf3e96ce61bf7cf0ce0b94a14", "fusion_lat": 0.0, "is_reserved": 0}, {"name": "5d822915e6b23b4043786fc8150e14d4", "lon": -76.91063616666666, "lat": 39.01073983333333, "type": "electric_bike", "is_disabled": 0, "rental_uris": {"android": "https://dc.lft.to/lastmile_qr_scan", "ios": "https://dc.lft.to/lastmile_qr_scan"}, "fusion_lon": 0.0, "bike_id": "5d822915e6b23b4043786fc8150e14d4", "fusion_lat": 0.0, "is_reserved": 0}, {"name": "c2baa7ee6c539404e9bb08206cc0de9a", "lon": -76.99568433333333, "lat": 38.920243, "type": "electric_scooter", "is_disabled": 0, "rental_uris": {"android": "https://dc.lft.to/lastmile_qr_scan", "ios": "https://dc.lft.to/lastmile_qr_scan"}, "fusion_lon": 0.0, "bike_id": "c2baa7ee6c539404e9bb08206cc0de9a", "fusion_lat": 0.0, "is_reserved": 0}, {"name": "7b81bb25042470c35856131f912e2e97", "lon": -77.06406083333333, "lat": 38.944413833333336, "type": "electric_scooter", "is_disabled": 0, "rental_uris": {"android": "https://dc.lft.to/lastmile_qr_scan", "ios": "https://dc.lft.to/lastmile_qr_scan"}, "fusion_lon": 0.0, "bike_id": "7b81bb25042470c35856131f912e2e97", "fusion_lat": 0.0, "is_reserved": 0}, {"name": "b6a2d84c88d545c88dabae12d7c53509", "lon": -77.02056466666667, "lat": 38.89468866666667, "type": "electric_scooter", "is_disabled": 0, "rental_uris": {"android": "https://dc.lft.to/lastmile_qr_scan", "ios": "https://dc.lft.to/lastmile_qr_scan"}, "fusion_lon": 0.0, "bike_id": "b6a2d84c88d545c88dabae12d7c53509", "fusion_lat": 0.0, "is_reserved": 0}, {"name": "a649e58eb037510919935bbdf192098d", "lon": -77.02090783333334, "lat": 38.921182, "type": "electric_scooter", "is_disabled": 0, "rental_uris": {"android": "https://dc.lft.to/lastmile_qr_scan", "ios": "https://dc.lft.to/lastmile_qr_scan"}, "fusion_lon": 0.0, "bike_id": "a649e58eb037510919935bbdf192098d", "fusion_lat": 0.0, "is_reserved": 0}, {"name": "f52aa9c07c66b2041572a958c22aed16", "lon": -77.03824266666666, "lat": 38.911067833333334, "type": "electric_scooter", "is_disabled": 0, "rental_uris": {"android": "https://dc.lft.to/lastmile_qr_scan", "ios": "https://dc.lft.to/lastmile_qr_scan"}, "fusion_lon": 0.0, "bike_id": "f52aa9c07c66b2041572a958c22aed16", "fusion_lat": 0.0, "is_reserved": 0}, {"name": "9ef1535ac1aa6106387930204bb62f5d", "lon": -77.0220755, "lat": 38.90155333333333, "type": "electric_scooter", "is_disabled": 0, "rental_uris": {"android": "https://dc.lft.to/lastmile_qr_scan", "ios": "https://dc.lft.to/lastmile_qr_scan"}, "fusion_lon": 0.0, "bike_id": "9ef1535ac1aa6106387930204bb62f5d", "fusion_lat": 0.0, "is_reserved": 0}, {"name": "1eb7b9155b2144172c66c9b101ac89de", "lon": -77.03832266666667, "lat": 38.91108766666667, "type": "electric_scooter", "is_disabled": 0, "rental_uris": {"android": "https://dc.lft.to/lastmile_qr_scan", "ios": "https://dc.lft.to/lastmile_qr_scan"}, "fusion_lon": 0.0, "bike_id": "1eb7b9155b2144172c66c9b101ac89de", "fusion_lat": 0.0, "is_reserved": 0}, {"name": "2ab86cc49598e6f32b694072ec3d19a9", "lon": -76.93968466666666, "lat": 38.893409166666665, "type": "electric_scooter", "is_disabled": 0, "rental_uris": {"android": "https://dc.lft.to/lastmile_qr_scan", "ios": "https://dc.lft.to/lastmile_qr_scan"}, "fusion_lon": 0.0, "bike_id": "2ab86cc49598e6f32b694072ec3d19a9", "fusion_lat": 0.0, "is_reserved": 0}, {"name": "657b0b1e0937a6144258a7769256336c", "lon": -77.03403616666667, "lat": 38.92441133333333, "type": "electric_scooter", "is_disabled": 0, "rental_uris": {"android": "https://dc.lft.to/lastmile_qr_scan", "ios": "https://dc.lft.to/lastmile_qr_scan"}, "fusion_lon": 0.0, "bike_id": "657b0b1e0937a6144258a7769256336c", "fusion_lat": 0.0, "is_reserved": 0}, {"name": "ddde8c8c2cbad6c71c75b41f938f4278", "lon": -77.00219833333334, "lat": 38.9002795, "type": "electric_scooter", "is_disabled": 0, "rental_uris": {"android": "https://dc.lft.to/lastmile_qr_scan", "ios": "https://dc.lft.to/lastmile_qr_scan"}, "fusion_lon": 0.0, "bike_id": "ddde8c8c2cbad6c71c75b41f938f4278", "fusion_lat": 0.0, "is_reserved": 0}, {"name": "afc5f93002ae61b78327ffe462b121cd", "lon": -76.98532733333333, "lat": 38.904115166666664, "type": "electric_scooter", "is_disabled": 0, "rental_uris": {"android": "https://dc.lft.to/lastmile_qr_scan", "ios": "https://dc.lft.to/lastmile_qr_scan"}, "fusion_lon": 0.0, "bike_id": "afc5f93002ae61b78327ffe462b121cd", "fusion_lat": 0.0, "is_reserved": 0}, {"name": "1d59441422abbedde03c45d5705a580b", "lon": -77.04161033333334, "lat": 38.908366, "type": "electric_scooter", "is_disabled": 0, "rental_uris": {"android": "https://dc.lft.to/lastmile_qr_scan", "ios": "https://dc.lft.to/lastmile_qr_scan"}, "fusion_lon": 0.0, "bike_id": "1d59441422abbedde03c45d5705a580b", "fusion_lat": 0.0, "is_reserved": 0}, {"name": "5e454d4c69fd5acd9e8edc4d3d0c6dac", "lon": -77.03227166666667, "lat": 38.9370215, "type": "electric_scooter", "is_disabled": 0, "rental_uris": {"android": "https://dc.lft.to/lastmile_qr_scan", "ios": "https://dc.lft.to/lastmile_qr_scan"}, "fusion_lon": 0.0, "bike_id": "5e454d4c69fd5acd9e8edc4d3d0c6dac", "fusion_lat": 0.0, "is_reserved": 0}, {"name": "06a3a894e9982dc6ab31d97fa617a5c9", "lon": -77.03264416666667, "lat": 38.932162166666664, "type": "electric_scooter", "is_disabled": 0, "rental_uris": {"android": "https://dc.lft.to/lastmile_qr_scan", "ios": "https://dc.lft.to/lastmile_qr_scan"}, "fusion_lon": 0.0, "bike_id": "06a3a894e9982dc6ab31d97fa617a5c9", "fusion_lat": 0.0, "is_reserved": 0}, {"name": "1fec04da63cb2adb7a37c116882592a8", "lon": -77.02275466666667, "lat": 38.914015166666665, "type": "electric_scooter", "is_disabled": 0, "rental_uris": {"android": "https://dc.lft.to/lastmile_qr_scan", "ios": "https://dc.lft.to/lastmile_qr_scan"}, "fusion_lon": 0.0, "bike_id": "1fec04da63cb2adb7a37c116882592a8", "fusion_lat": 0.0, "is_reserved": 0}, {"name": "8cbb5683a5ac39af025f245bf3bcc621", "lon": -77.0220105, "lat": 38.901590166666665, "type": "electric_scooter", "is_disabled": 0, "rental_uris": {"android": "https://dc.lft.to/lastmile_qr_scan", "ios": "https://dc.lft.to/lastmile_qr_scan"}, "fusion_lon": 0.0, "bike_id": "8cbb5683a5ac39af025f245bf3bcc621", "fusion_lat": 0.0, "is_reserved": 0}, {"name": "20753c51cf4bdd2d341d82f108793d95", "lon": -76.99004866666667, "lat": 38.865068, "type": "electric_scooter", "is_disabled": 0, "rental_uris": {"android": "https://dc.lft.to/lastmile_qr_scan", "ios": "https://dc.lft.to/lastmile_qr_scan"}, "fusion_lon": 0.0, "bike_id": "20753c51cf4bdd2d341d82f108793d95", "fusion_lat": 0.0, "is_reserved": 0}, {"name": "2f917c8f712c79b1f07dae555c98bc72", "lon": -77.01976433333333, "lat": 38.89909133333333, "type": "electric_scooter", "is_disabled": 0, "rental_uris": {"android": "https://dc.lft.to/lastmile_qr_scan", "ios": "https://dc.lft.to/lastmile_qr_scan"}, "fusion_lon": 0.0, "bike_id": "2f917c8f712c79b1f07dae555c98bc72", "fusion_lat": 0.0, "is_reserved": 0}, {"name": "5d47e3c3a969e66683f74d979435ad7d", "lon": -77.04228683333334, "lat": 38.921519, "type": "electric_scooter", "is_disabled": 0, "rental_uris": {"android": "https://dc.lft.to/lastmile_qr_scan", "ios": "https://dc.lft.to/lastmile_qr_scan"}, "fusion_lon": 0.0, "bike_id": "5d47e3c3a969e66683f74d979435ad7d", "fusion_lat": 0.0, "is_reserved": 0}, {"name": "8c388abe6fda411db51f6825a0844ede", "lon": -77.04362333333333, "lat": 38.898252, "type": "electric_scooter", "is_disabled": 0, "rental_uris": {"android": "https://dc.lft.to/lastmile_qr_scan", "ios": "https://dc.lft.to/lastmile_qr_scan"}, "fusion_lon": 0.0, "bike_id": "8c388abe6fda411db51f6825a0844ede", "fusion_lat": 0.0, "is_reserved": 0}, {"name": "841cf80fac9045f33b5acb63049e6b81", "lon": -76.9748495, "lat": 38.863779, "type": "electric_bike", "is_disabled": 0, "rental_uris": {"android": "https://dc.lft.to/lastmile_qr_scan", "ios": "https://dc.lft.to/lastmile_qr_scan"}, "fusion_lon": 0.0, "bike_id": "841cf80fac9045f33b5acb63049e6b81", "fusion_lat": 0.0, "is_reserved": 0}, {"name": "ad704de455b23d35adad722faac737fe", "lon": -77.03447816666667, "lat": 38.90545866666667, "type": "electric_scooter", "is_disabled": 0, "rental_uris": {"android": "https://dc.lft.to/lastmile_qr_scan", "ios": "https://dc.lft.to/lastmile_qr_scan"}, "fusion_lon": 0.0, "bike_id": "ad704de455b23d35adad722faac737fe", "fusion_lat": 0.0, "is_reserved": 0}, {"name": "547933e05ba1325c08b5a8d421a29c05", "lon": -76.99407133333334, "lat": 38.92172716666666, "type": "electric_bike", "is_disabled": 0, "rental_uris": {"android": "https://dc.lft.to/lastmile_qr_scan", "ios": "https://dc.lft.to/lastmile_qr_scan"}, "fusion_lon": 0.0, "bike_id": "547933e05ba1325c08b5a8d421a29c05", "fusion_lat": 0.0, "is_reserved": 0}, {"name": "d7254ed16e0c4606f610c6f4b05904bf", "lon": -77.05127233333333, "lat": 38.925161833333334, "type": "electric_scooter", "is_disabled": 0, "rental_uris": {"android": "https://dc.lft.to/lastmile_qr_scan", "ios": "https://dc.lft.to/lastmile_qr_scan"}, "fusion_lon": 0.0, "bike_id": "d7254ed16e0c4606f610c6f4b05904bf", "fusion_lat": 0.0, "is_reserved": 0}, {"name": "6382f8b3d71d8dcbef6e1fdebd4d2c87", "lon": -77.03937933333333, "lat": 38.9083095, "type": "electric_scooter", "is_disabled": 0, "rental_uris": {"android": "https://dc.lft.to/lastmile_qr_scan", "ios": "https://dc.lft.to/lastmile_qr_scan"}, "fusion_lon": 0.0, "bike_id": "6382f8b3d71d8dcbef6e1fdebd4d2c87", "fusion_lat": 0.0, "is_reserved": 0}, {"name": "66e43b3d9d1c40a87d52642cec3f04d1", "lon": -76.9890485, "lat": 38.90030333333333, "type": "electric_scooter", "is_disabled": 0, "rental_uris": {"android": "https://dc.lft.to/lastmile_qr_scan", "ios": "https://dc.lft.to/lastmile_qr_scan"}, "fusion_lon": 0.0, "bike_id": "66e43b3d9d1c40a87d52642cec3f04d1", "fusion_lat": 0.0, "is_reserved": 0}, {"name": "9077fb2a20f32ca65efb4c373e2801fd", "lon": -77.03205366666667, "lat": 38.92783416666666, "type": "electric_scooter", "is_disabled": 0, "rental_uris": {"android": "https://dc.lft.to/lastmile_qr_scan", "ios": "https://dc.lft.to/lastmile_qr_scan"}, "fusion_lon": 0.0, "bike_id": "9077fb2a20f32ca65efb4c373e2801fd", "fusion_lat": 0.0, "is_reserved": 0}, {"name": "a8dc95afa9357ecf6a0681069aac75d6", "lon": -77.042634, "lat": 38.9072035, "type": "electric_scooter", "is_disabled": 0, "rental_uris": {"android": "https://dc.lft.to/lastmile_qr_scan", "ios": "https://dc.lft.to/lastmile_qr_scan"}, "fusion_lon": 0.0, "bike_id": "a8dc95afa9357ecf6a0681069aac75d6", "fusion_lat": 0.0, "is_reserved": 0}, {"name": "e357d21c18368aed5115a20d98f7982d", "lon": -77.00196016666666, "lat": 38.902318333333334, "type": "electric_scooter", "is_disabled": 0, "rental_uris": {"android": "https://dc.lft.to/lastmile_qr_scan", "ios": "https://dc.lft.to/lastmile_qr_scan"}, "fusion_lon": 0.0, "bike_id": "e357d21c18368aed5115a20d98f7982d", "fusion_lat": 0.0, "is_reserved": 0}, {"name": "bb185fa626079eec8dddda632edb397f", "lon": -77.02817583333334, "lat": 38.90940333333333, "type": "electric_scooter", "is_disabled": 0, "rental_uris": {"android": "https://dc.lft.to/lastmile_qr_scan", "ios": "https://dc.lft.to/lastmile_qr_scan"}, "fusion_lon": 0.0, "bike_id": "bb185fa626079eec8dddda632edb397f", "fusion_lat": 0.0, "is_reserved": 0}, {"name": "fdfbd9b117270a8fe643630315846c05", "lon": -77.0270065, "lat": 38.89708383333333, "type": "electric_scooter", "is_disabled": 0, "rental_uris": {"android": "https://dc.lft.to/lastmile_qr_scan", "ios": "https://dc.lft.to/lastmile_qr_scan"}, "fusion_lon": 0.0, "bike_id": "fdfbd9b117270a8fe643630315846c05", "fusion_lat": 0.0, "is_reserved": 0}, {"name": "0a370dda03f61b3cf3360384d4ed6afd", "lon": -77.01188166666667, "lat": 38.90015116666667, "type": "electric_scooter", "is_disabled": 0, "rental_uris": {"android": "https://dc.lft.to/lastmile_qr_scan", "ios": "https://dc.lft.to/lastmile_qr_scan"}, "fusion_lon": 0.0, "bike_id": "0a370dda03f61b3cf3360384d4ed6afd", "fusion_lat": 0.0, "is_reserved": 0}, {"name": "1f4208e1adb6ace98bd2268893ae8da3", "lon": -77.01189133333334, "lat": 38.900103333333334, "type": "electric_scooter", "is_disabled": 0, "rental_uris": {"android": "https://dc.lft.to/lastmile_qr_scan", "ios": "https://dc.lft.to/lastmile_qr_scan"}, "fusion_lon": 0.0, "bike_id": "1f4208e1adb6ace98bd2268893ae8da3", "fusion_lat": 0.0, "is_reserved": 0}, {"name": "58ccc98a5f3d9a8f943af5027f62d9cd", "lon": -77.01720283333333, "lat": 38.9435575, "type": "electric_scooter", "is_disabled": 0, "rental_uris": {"android": "https://dc.lft.to/lastmile_qr_scan", "ios": "https://dc.lft.to/lastmile_qr_scan"}, "fusion_lon": 0.0, "bike_id": "58ccc98a5f3d9a8f943af5027f62d9cd", "fusion_lat": 0.0, "is_reserved": 0}, {"name": "93b7fe2952b0e6c7322e0463c7101588", "lon": -77.03847166666667, "lat": 38.932495, "type": "electric_scooter", "is_disabled": 0, "rental_uris": {"android": "https://dc.lft.to/lastmile_qr_scan", "ios": "https://dc.lft.to/lastmile_qr_scan"}, "fusion_lon": 0.0, "bike_id": "93b7fe2952b0e6c7322e0463c7101588", "fusion_lat": 0.0, "is_reserved": 0}, {"name": "40a2825333383bab7a29d49d68e94b74", "lon": -77.00604616666666, "lat": 38.9111725, "type": "electric_scooter", "is_disabled": 0, "rental_uris": {"android": "https://dc.lft.to/lastmile_qr_scan", "ios": "https://dc.lft.to/lastmile_qr_scan"}, "fusion_lon": 0.0, "bike_id": "40a2825333383bab7a29d49d68e94b74", "fusion_lat": 0.0, "is_reserved": 0}, {"name": "0480174e8141fe8d9d586114703eee96", "lon": -77.02237666666667, "lat": 38.922446, "type": "electric_scooter", "is_disabled": 0, "rental_uris": {"android": "https://dc.lft.to/lastmile_qr_scan", "ios": "https://dc.lft.to/lastmile_qr_scan"}, "fusion_lon": 0.0, "bike_id": "0480174e8141fe8d9d586114703eee96", "fusion_lat": 0.0, "is_reserved": 0}, {"name": "e1b9d9e0c8cfbc9e9909035247735558", "lon": -77.03461316666667, "lat": 38.904011833333335, "type": "electric_scooter", "is_disabled": 0, "rental_uris": {"android": "https://dc.lft.to/lastmile_qr_scan", "ios": "https://dc.lft.to/lastmile_qr_scan"}, "fusion_lon": 0.0, "bike_id": "e1b9d9e0c8cfbc9e9909035247735558", "fusion_lat": 0.0, "is_reserved": 0}, {"name": "2ab5bebfd9d038aaeba4a23ee0792c90", "lon": -76.99038283333333, "lat": 38.86388083333333, "type": "electric_scooter", "is_disabled": 0, "rental_uris": {"android": "https://dc.lft.to/lastmile_qr_scan", "ios": "https://dc.lft.to/lastmile_qr_scan"}, "fusion_lon": 0.0, "bike_id": "2ab5bebfd9d038aaeba4a23ee0792c90", "fusion_lat": 0.0, "is_reserved": 0}, {"name": "2f0969e86dcaa5f284e1647b75343763", "lon": -77.04012116666667, "lat": 38.89635833333333, "type": "electric_scooter", "is_disabled": 0, "rental_uris": {"android": "https://dc.lft.to/lastmile_qr_scan", "ios": "https://dc.lft.to/lastmile_qr_scan"}, "fusion_lon": 0.0, "bike_id": "2f0969e86dcaa5f284e1647b75343763", "fusion_lat": 0.0, "is_reserved": 0}, {"name": "74e3cdb3c2015b778a8192d4c5fff4ea", "lon": -77.020907, "lat": 38.902942333333336, "type": "electric_scooter", "is_disabled": 0, "rental_uris": {"android": "https://dc.lft.to/lastmile_qr_scan", "ios": "https://dc.lft.to/lastmile_qr_scan"}, "fusion_lon": 0.0, "bike_id": "74e3cdb3c2015b778a8192d4c5fff4ea", "fusion_lat": 0.0, "is_reserved": 0}, {"name": "d4dc2d4663eb99c3c0d98da0c47ea27c", "lon": -77.01826083333333, "lat": 38.92072733333333, "type": "electric_scooter", "is_disabled": 0, "rental_uris": {"android": "https://dc.lft.to/lastmile_qr_scan", "ios": "https://dc.lft.to/lastmile_qr_scan"}, "fusion_lon": 0.0, "bike_id": "d4dc2d4663eb99c3c0d98da0c47ea27c", "fusion_lat": 0.0, "is_reserved": 0}, {"name": "e972eb96e689d856e30b08c8a3e1af2c", "lon": -77.02279233333333, "lat": 38.9140225, "type": "electric_scooter", "is_disabled": 0, "rental_uris": {"android": "https://dc.lft.to/lastmile_qr_scan", "ios": "https://dc.lft.to/lastmile_qr_scan"}, "fusion_lon": 0.0, "bike_id": "e972eb96e689d856e30b08c8a3e1af2c", "fusion_lat": 0.0, "is_reserved": 0}, {"name": "9ab1cf36c8433a4b3d228cfc15c28349", "lon": -77.004154, "lat": 38.875817833333336, "type": "electric_scooter", "is_disabled": 0, "rental_uris": {"android": "https://dc.lft.to/lastmile_qr_scan", "ios": "https://dc.lft.to/lastmile_qr_scan"}, "fusion_lon": 0.0, "bike_id": "9ab1cf36c8433a4b3d228cfc15c28349", "fusion_lat": 0.0, "is_reserved": 0}, {"name": "fc90e5266873de1f2ddf5ec26a94f3eb", "lon": -77.038721, "lat": 38.90283483333333, "type": "electric_scooter", "is_disabled": 0, "rental_uris": {"android": "https://dc.lft.to/lastmile_qr_scan", "ios": "https://dc.lft.to/lastmile_qr_scan"}, "fusion_lon": 0.0, "bike_id": "fc90e5266873de1f2ddf5ec26a94f3eb", "fusion_lat": 0.0, "is_reserved": 0}, {"name": "a94b9dd1e8d860e31f12c746a5dbbf81", "lon": -77.0389565, "lat": 38.92336133333333, "type": "electric_scooter", "is_disabled": 0, "rental_uris": {"android": "https://dc.lft.to/lastmile_qr_scan", "ios": "https://dc.lft.to/lastmile_qr_scan"}, "fusion_lon": 0.0, "bike_id": "a94b9dd1e8d860e31f12c746a5dbbf81", "fusion_lat": 0.0, "is_reserved": 0}, {"name": "3dc79d772270b74e6591c097cf541df3", "lon": -77.04649183333333, "lat": 38.909546, "type": "electric_scooter", "is_disabled": 0, "rental_uris": {"android": "https://dc.lft.to/lastmile_qr_scan", "ios": "https://dc.lft.to/lastmile_qr_scan"}, "fusion_lon": 0.0, "bike_id": "3dc79d772270b74e6591c097cf541df3", "fusion_lat": 0.0, "is_reserved": 0}, {"name": "2a92b0e7eb6bfd00cdff89e5cbd21994", "lon": -77.01413266666667, "lat": 38.906462166666664, "type": "electric_scooter", "is_disabled": 0, "rental_uris": {"android": "https://dc.lft.to/lastmile_qr_scan", "ios": "https://dc.lft.to/lastmile_qr_scan"}, "fusion_lon": 0.0, "bike_id": "2a92b0e7eb6bfd00cdff89e5cbd21994", "fusion_lat": 0.0, "is_reserved": 0}, {"name": "59f3c88cc515ff6a9ec65cff80732bcc", "lon": -77.04255933333333, "lat": 38.9225505, "type": "electric_scooter", "is_disabled": 0, "rental_uris": {"android": "https://dc.lft.to/lastmile_qr_scan", "ios": "https://dc.lft.to/lastmile_qr_scan"}, "fusion_lon": 0.0, "bike_id": "59f3c88cc515ff6a9ec65cff80732bcc", "fusion_lat": 0.0, "is_reserved": 0}, {"name": "9aae850b5b02988251844096e83f5440", "lon": -76.97999916666667, "lat": 38.8642795, "type": "electric_scooter", "is_disabled": 0, "rental_uris": {"android": "https://dc.lft.to/lastmile_qr_scan", "ios": "https://dc.lft.to/lastmile_qr_scan"}, "fusion_lon": 0.0, "bike_id": "9aae850b5b02988251844096e83f5440", "fusion_lat": 0.0, "is_reserved": 0}, {"name": "1ddef1d359633261206f680ea5f97ab4", "lon": -77.0363825, "lat": 38.9067545, "type": "electric_scooter", "is_disabled": 0, "rental_uris": {"android": "https://dc.lft.to/lastmile_qr_scan", "ios": "https://dc.lft.to/lastmile_qr_scan"}, "fusion_lon": 0.0, "bike_id": "1ddef1d359633261206f680ea5f97ab4", "fusion_lat": 0.0, "is_reserved": 0}, {"name": "3d805361225692eb3e752aa04c0d0ed0", "lon": -77.02001466666667, "lat": 38.924080333333336, "type": "electric_scooter", "is_disabled": 0, "rental_uris": {"android": "https://dc.lft.to/lastmile_qr_scan", "ios": "https://dc.lft.to/lastmile_qr_scan"}, "fusion_lon": 0.0, "bike_id": "3d805361225692eb3e752aa04c0d0ed0", "fusion_lat": 0.0, "is_reserved": 0}, {"name": "7307073d0c88d8609dabd9ec5bd686c9", "lon": -76.99597433333334, "lat": 38.9284745, "type": "electric_scooter", "is_disabled": 0, "rental_uris": {"android": "https://dc.lft.to/lastmile_qr_scan", "ios": "https://dc.lft.to/lastmile_qr_scan"}, "fusion_lon": 0.0, "bike_id": "7307073d0c88d8609dabd9ec5bd686c9", "fusion_lat": 0.0, "is_reserved": 0}, {"name": "1f97c8df29ac8594ccfaf6f14e9b1bdd", "lon": -77.02730283333334, "lat": 38.928713333333334, "type": "electric_scooter", "is_disabled": 0, "rental_uris": {"android": "https://dc.lft.to/lastmile_qr_scan", "ios": "https://dc.lft.to/lastmile_qr_scan"}, "fusion_lon": 0.0, "bike_id": "1f97c8df29ac8594ccfaf6f14e9b1bdd", "fusion_lat": 0.0, "is_reserved": 0}, {"name": "2af3a5925f138e832d5c9172cb21460e", "lon": -77.025253, "lat": 38.937467166666664, "type": "electric_scooter", "is_disabled": 0, "rental_uris": {"android": "https://dc.lft.to/lastmile_qr_scan", "ios": "https://dc.lft.to/lastmile_qr_scan"}, "fusion_lon": 0.0, "bike_id": "2af3a5925f138e832d5c9172cb21460e", "fusion_lat": 0.0, "is_reserved": 0}, {"name": "4f3185b046646c0adb026ed0c2b08ed2", "lon": -77.03402816666667, "lat": 38.92435866666667, "type": "electric_scooter", "is_disabled": 0, "rental_uris": {"android": "https://dc.lft.to/lastmile_qr_scan", "ios": "https://dc.lft.to/lastmile_qr_scan"}, "fusion_lon": 0.0, "bike_id": "4f3185b046646c0adb026ed0c2b08ed2", "fusion_lat": 0.0, "is_reserved": 0}, {"name": "1b563e66d892f50316e8028a3ecb3b6b", "lon": -76.988797, "lat": 38.86656816666667, "type": "electric_scooter", "is_disabled": 0, "rental_uris": {"android": "https://dc.lft.to/lastmile_qr_scan", "ios": "https://dc.lft.to/lastmile_qr_scan"}, "fusion_lon": 0.0, "bike_id": "1b563e66d892f50316e8028a3ecb3b6b", "fusion_lat": 0.0, "is_reserved": 0}, {"name": "d2cb81d54ef5c50a3754b226b80626af", "lon": -77.010246, "lat": 38.920266833333336, "type": "electric_scooter", "is_disabled": 0, "rental_uris": {"android": "https://dc.lft.to/lastmile_qr_scan", "ios": "https://dc.lft.to/lastmile_qr_scan"}, "fusion_lon": 0.0, "bike_id": "d2cb81d54ef5c50a3754b226b80626af", "fusion_lat": 0.0, "is_reserved": 0}, {"name": "947bdaa10e5d83478151eb081128d579", "lon": -77.0213415, "lat": 38.924871, "type": "electric_scooter", "is_disabled": 0, "rental_uris": {"android": "https://dc.lft.to/lastmile_qr_scan", "ios": "https://dc.lft.to/lastmile_qr_scan"}, "fusion_lon": 0.0, "bike_id": "947bdaa10e5d83478151eb081128d579", "fusion_lat": 0.0, "is_reserved": 0}, {"name": "312e68db2b9871d0d8a55ced125708ad", "lon": -76.981597, "lat": 38.899397666666665, "type": "electric_scooter", "is_disabled": 0, "rental_uris": {"android": "https://dc.lft.to/lastmile_qr_scan", "ios": "https://dc.lft.to/lastmile_qr_scan"}, "fusion_lon": 0.0, "bike_id": "312e68db2b9871d0d8a55ced125708ad", "fusion_lat": 0.0, "is_reserved": 0}, {"name": "149bc9b38593eadf370e99cd6e3f739c", "lon": -77.0363285, "lat": 38.92298183333333, "type": "electric_scooter", "is_disabled": 0, "rental_uris": {"android": "https://dc.lft.to/lastmile_qr_scan", "ios": "https://dc.lft.to/lastmile_qr_scan"}, "fusion_lon": 0.0, "bike_id": "149bc9b38593eadf370e99cd6e3f739c", "fusion_lat": 0.0, "is_reserved": 0}, {"name": "17087caed81afc1d131c494a04a99a83", "lon": -77.02703533333333, "lat": 38.907877666666664, "type": "electric_scooter", "is_disabled": 0, "rental_uris": {"android": "https://dc.lft.to/lastmile_qr_scan", "ios": "https://dc.lft.to/lastmile_qr_scan"}, "fusion_lon": 0.0, "bike_id": "17087caed81afc1d131c494a04a99a83", "fusion_lat": 0.0, "is_reserved": 0}, {"name": "0bac58f13eb921c4182920f874005253", "lon": -77.013604, "lat": 38.89784783333333, "type": "electric_scooter", "is_disabled": 0, "rental_uris": {"android": "https://dc.lft.to/lastmile_qr_scan", "ios": "https://dc.lft.to/lastmile_qr_scan"}, "fusion_lon": 0.0, "bike_id": "0bac58f13eb921c4182920f874005253", "fusion_lat": 0.0, "is_reserved": 0}, {"name": "46803c232b1e830e7e0a661a984aff32", "lon": -76.95244716666667, "lat": 38.8903995, "type": "electric_scooter", "is_disabled": 0, "rental_uris": {"android": "https://dc.lft.to/lastmile_qr_scan", "ios": "https://dc.lft.to/lastmile_qr_scan"}, "fusion_lon": 0.0, "bike_id": "46803c232b1e830e7e0a661a984aff32", "fusion_lat": 0.0, "is_reserved": 0}, {"name": "2f80cff4005de3faa83c5d457c6becc7", "lon": -77.03173633333333, "lat": 38.907263666666665, "type": "electric_scooter", "is_disabled": 0, "rental_uris": {"android": "https://dc.lft.to/lastmile_qr_scan", "ios": "https://dc.lft.to/lastmile_qr_scan"}, "fusion_lon": 0.0, "bike_id": "2f80cff4005de3faa83c5d457c6becc7", "fusion_lat": 0.0, "is_reserved": 0}, {"name": "a79ab7f14d03b276fe26b2fd06055131", "lon": -77.02277516666666, "lat": 38.9190975, "type": "electric_scooter", "is_disabled": 0, "rental_uris": {"android": "https://dc.lft.to/lastmile_qr_scan", "ios": "https://dc.lft.to/lastmile_qr_scan"}, "fusion_lon": 0.0, "bike_id": "a79ab7f14d03b276fe26b2fd06055131", "fusion_lat": 0.0, "is_reserved": 0}, {"name": "92db30a74cfe022accc010ba9e07214a", "lon": -77.03636016666667, "lat": 38.91462033333333, "type": "electric_scooter", "is_disabled": 0, "rental_uris": {"android": "https://dc.lft.to/lastmile_qr_scan", "ios": "https://dc.lft.to/lastmile_qr_scan"}, "fusion_lon": 0.0, "bike_id": "92db30a74cfe022accc010ba9e07214a", "fusion_lat": 0.0, "is_reserved": 0}, {"name": "bcd9ad6d4e71068ccaab3f251c25420e", "lon": -77.01355083333333, "lat": 38.892174833333335, "type": "electric_scooter", "is_disabled": 0, "rental_uris": {"android": "https://dc.lft.to/lastmile_qr_scan", "ios": "https://dc.lft.to/lastmile_qr_scan"}, "fusion_lon": 0.0, "bike_id": "bcd9ad6d4e71068ccaab3f251c25420e", "fusion_lat": 0.0, "is_reserved": 0}, {"name": "e57b929a5825ed605d061fab38cae3b1", "lon": -77.032708, "lat": 38.898945, "type": "electric_scooter", "is_disabled": 0, "rental_uris": {"android": "https://dc.lft.to/lastmile_qr_scan", "ios": "https://dc.lft.to/lastmile_qr_scan"}, "fusion_lon": 0.0, "bike_id": "e57b929a5825ed605d061fab38cae3b1", "fusion_lat": 0.0, "is_reserved": 0}, {"name": "0fa58b812288b73cc9282e4dd499f228", "lon": -77.03194316666666, "lat": 38.915682833333335, "type": "electric_scooter", "is_disabled": 0, "rental_uris": {"android": "https://dc.lft.to/lastmile_qr_scan", "ios": "https://dc.lft.to/lastmile_qr_scan"}, "fusion_lon": 0.0, "bike_id": "0fa58b812288b73cc9282e4dd499f228", "fusion_lat": 0.0, "is_reserved": 0}, {"name": "4e270242ae32f134a7f69ad1e198c782", "lon": -77.02699116666666, "lat": 38.89702833333333, "type": "electric_scooter", "is_disabled": 0, "rental_uris": {"android": "https://dc.lft.to/lastmile_qr_scan", "ios": "https://dc.lft.to/lastmile_qr_scan"}, "fusion_lon": 0.0, "bike_id": "4e270242ae32f134a7f69ad1e198c782", "fusion_lat": 0.0, "is_reserved": 0}, {"name": "e8e5c40875b5f231c2a0ef45c7ed556f", "lon": -76.98724183333333, "lat": 38.855907333333334, "type": "electric_scooter", "is_disabled": 0, "rental_uris": {"android": "https://dc.lft.to/lastmile_qr_scan", "ios": "https://dc.lft.to/lastmile_qr_scan"}, "fusion_lon": 0.0, "bike_id": "e8e5c40875b5f231c2a0ef45c7ed556f", "fusion_lat": 0.0, "is_reserved": 0}, {"name": "823ff6c1c77236608df7aec978f7075a", "lon": -77.01371466666667, "lat": 38.8870365, "type": "electric_scooter", "is_disabled": 0, "rental_uris": {"android": "https://dc.lft.to/lastmile_qr_scan", "ios": "https://dc.lft.to/lastmile_qr_scan"}, "fusion_lon": 0.0, "bike_id": "823ff6c1c77236608df7aec978f7075a", "fusion_lat": 0.0, "is_reserved": 0}, {"name": "ff6b9e38faf0e3a9523a454bc0de13fb", "lon": -77.03562666666667, "lat": 38.926982, "type": "electric_scooter", "is_disabled": 0, "rental_uris": {"android": "https://dc.lft.to/lastmile_qr_scan", "ios": "https://dc.lft.to/lastmile_qr_scan"}, "fusion_lon": 0.0, "bike_id": "ff6b9e38faf0e3a9523a454bc0de13fb", "fusion_lat": 0.0, "is_reserved": 0}, {"name": "8d5e885c7a3ef5535cdaa8243bae9591", "lon": -77.00751633333333, "lat": 38.89832, "type": "electric_scooter", "is_disabled": 0, "rental_uris": {"android": "https://dc.lft.to/lastmile_qr_scan", "ios": "https://dc.lft.to/lastmile_qr_scan"}, "fusion_lon": 0.0, "bike_id": "8d5e885c7a3ef5535cdaa8243bae9591", "fusion_lat": 0.0, "is_reserved": 0}, {"name": "44779003b474ecf3c246b78a25c7ea4b", "lon": -77.03201733333333, "lat": 38.91639166666667, "type": "electric_scooter", "is_disabled": 0, "rental_uris": {"android": "https://dc.lft.to/lastmile_qr_scan", "ios": "https://dc.lft.to/lastmile_qr_scan"}, "fusion_lon": 0.0, "bike_id": "44779003b474ecf3c246b78a25c7ea4b", "fusion_lat": 0.0, "is_reserved": 0}, {"name": "779c44dfe7261d7f3eec194630eab1a0", "lon": -77.03227466666667, "lat": 38.921633, "type": "electric_scooter", "is_disabled": 0, "rental_uris": {"android": "https://dc.lft.to/lastmile_qr_scan", "ios": "https://dc.lft.to/lastmile_qr_scan"}, "fusion_lon": 0.0, "bike_id": "779c44dfe7261d7f3eec194630eab1a0", "fusion_lat": 0.0, "is_reserved": 0}, {"name": "fc29365e5469893ba002bc7221eb1ff4", "lon": -77.0257345, "lat": 38.92044466666667, "type": "electric_scooter", "is_disabled": 0, "rental_uris": {"android": "https://dc.lft.to/lastmile_qr_scan", "ios": "https://dc.lft.to/lastmile_qr_scan"}, "fusion_lon": 0.0, "bike_id": "fc29365e5469893ba002bc7221eb1ff4", "fusion_lat": 0.0, "is_reserved": 0}, {"name": "8ac93a2e10332d638a3662385dff8f84", "lon": -77.04022616666667, "lat": 38.89928666666667, "type": "electric_scooter", "is_disabled": 0, "rental_uris": {"android": "https://dc.lft.to/lastmile_qr_scan", "ios": "https://dc.lft.to/lastmile_qr_scan"}, "fusion_lon": 0.0, "bike_id": "8ac93a2e10332d638a3662385dff8f84", "fusion_lat": 0.0, "is_reserved": 0}, {"name": "4ba8f599561aed74c7a9f7db077e0e40", "lon": -77.03285433333333, "lat": 38.920466833333336, "type": "electric_scooter", "is_disabled": 0, "rental_uris": {"android": "https://dc.lft.to/lastmile_qr_scan", "ios": "https://dc.lft.to/lastmile_qr_scan"}, "fusion_lon": 0.0, "bike_id": "4ba8f599561aed74c7a9f7db077e0e40", "fusion_lat": 0.0, "is_reserved": 0}, {"name": "58c0692549388ab84d3c213ba44a147b", "lon": -77.0318535, "lat": 38.91421783333333, "type": "electric_scooter", "is_disabled": 0, "rental_uris": {"android": "https://dc.lft.to/lastmile_qr_scan", "ios": "https://dc.lft.to/lastmile_qr_scan"}, "fusion_lon": 0.0, "bike_id": "58c0692549388ab84d3c213ba44a147b", "fusion_lat": 0.0, "is_reserved": 0}, {"name": "fb4cfcc436b89f7837a4768a59c222ad", "lon": -77.031576, "lat": 38.89540616666667, "type": "electric_scooter", "is_disabled": 0, "rental_uris": {"android": "https://dc.lft.to/lastmile_qr_scan", "ios": "https://dc.lft.to/lastmile_qr_scan"}, "fusion_lon": 0.0, "bike_id": "fb4cfcc436b89f7837a4768a59c222ad", "fusion_lat": 0.0, "is_reserved": 0}, {"name": "2cc712c174b8a9ee675d0d2aa5db1787", "lon": -77.01485416666667, "lat": 38.92665816666667, "type": "electric_scooter", "is_disabled": 0, "rental_uris": {"android": "https://dc.lft.to/lastmile_qr_scan", "ios": "https://dc.lft.to/lastmile_qr_scan"}, "fusion_lon": 0.0, "bike_id": "2cc712c174b8a9ee675d0d2aa5db1787", "fusion_lat": 0.0, "is_reserved": 0}, {"name": "15745fe1d06b66a2bdb97d24eba93318", "lon": -77.03137566666666, "lat": 38.9104495, "type": "electric_scooter", "is_disabled": 0, "rental_uris": {"android": "https://dc.lft.to/lastmile_qr_scan", "ios": "https://dc.lft.to/lastmile_qr_scan"}, "fusion_lon": 0.0, "bike_id": "15745fe1d06b66a2bdb97d24eba93318", "fusion_lat": 0.0, "is_reserved": 0}, {"name": "b6117432d61b2849b02f55586b85a9b9", "lon": -77.04165266666666, "lat": 38.898404666666664, "type": "electric_scooter", "is_disabled": 0, "rental_uris": {"android": "https://dc.lft.to/lastmile_qr_scan", "ios": "https://dc.lft.to/lastmile_qr_scan"}, "fusion_lon": 0.0, "bike_id": "b6117432d61b2849b02f55586b85a9b9", "fusion_lat": 0.0, "is_reserved": 0}, {"name": "be6d579648fc38abe6b6229b76c66b7b", "lon": -76.90738866666666, "lat": 38.896149, "type": "electric_bike", "is_disabled": 0, "rental_uris": {"android": "https://dc.lft.to/lastmile_qr_scan", "ios": "https://dc.lft.to/lastmile_qr_scan"}, "fusion_lon": 0.0, "bike_id": "be6d579648fc38abe6b6229b76c66b7b", "fusion_lat": 0.0, "is_reserved": 0}, {"name": "85805e1534f483a9b4ebd78099b18c21", "lon": -76.97949366666667, "lat": 38.90429233333333, "type": "electric_scooter", "is_disabled": 0, "rental_uris": {"android": "https://dc.lft.to/lastmile_qr_scan", "ios": "https://dc.lft.to/lastmile_qr_scan"}, "fusion_lon": 0.0, "bike_id": "85805e1534f483a9b4ebd78099b18c21", "fusion_lat": 0.0, "is_reserved": 0}, {"name": "ec5dec2b0e195d0a5f6d7f99cd5c15ee", "lon": -77.02312883333333, "lat": 38.90872266666667, "type": "electric_scooter", "is_disabled": 0, "rental_uris": {"android": "https://dc.lft.to/lastmile_qr_scan", "ios": "https://dc.lft.to/lastmile_qr_scan"}, "fusion_lon": 0.0, "bike_id": "ec5dec2b0e195d0a5f6d7f99cd5c15ee", "fusion_lat": 0.0, "is_reserved": 0},